{"last_updated":1762880971,"ttl":60,"version":"2.2","data":{"bikes":[{"bike_id":"d7db12ce-11cc-4c98-8751-ac59baa5d7aa","system_id":"levelo_inurba_marseille","lat":43.337444,"lon":5.374475,"is_reserved":false,"is_disabled":false,"rental_uris":{"android":"levelo://app?vid=d7db12ce-11cc-4c98-8751-ac59baa5d7aa","ios":"levelo://app?vid=d7db12ce-11cc-4c98-8751-ac59baa5d7aa"},"vehicle_type_id":"4","last_reported":1762880971,"current_range_meters":0,"station_id":"","pricing_plan_id":"cebpf4jnsgd1na2vs0mg"},{"bike_id":"74d7aa77-0588-4728-8197-83e7108efc66","system_id":"levelo_inurba_marseille","lat":43.326695,"lon":5.409883,"is_reserved":false,"is_disabled":false,"rental_uris":{"android":"levelo://app?vid=74d7aa77-0588-4728-8197-83e7108efc66","ios":"levelo://app?vid=74d7aa77-0588-4728-8197-83e7108efc66"},"vehicle_type_id":"4","last_reported":1762880971,"current_range_meters":2800,"station_id":"ce4bhpp2rcd13ifvqhgg","pricing_plan_id":"cebpf4jnsgd1na2vs0mg"},{"bike_id":"3244787b-92a0-4981-86aa-4c3ccda303f0","system_id":"levelo_inurba_marseille","lat":43.29278,"lon":5.40115,"is_reserved":false,"is_disabled":false,"rental_uris":{"android":"levelo://app?vid=3244787b-92a0-4981-86aa-4c3ccda303f0","ios":"levelo://app?vid=3244787b-92a0-4981-86aa-4c3ccda303f0"},"vehicle_type_id":"4","last_reported":1762880971,"current_range_meters":2800,"station_id":"ce4bh312rcd13ifvqdk0","pricing_plan_id":"cebpf4jnsgd1na2vs0mg"},{"bike_id":"ecec953b-0119-4598-9512-2cd5363b8425","system_id":"levelo_inurba_marseille","lat":43.28363,"lon":5.38619,"is_reserved":false,"is_disabled":false,"rental_uris":{"android":"levelo://app?vid=ecec953b-0119-4598-9512-2cd5363b8425","ios":"levelo://app?vid=ecec953b-0119-4598-9512-2cd5363b8425"},"vehicle_type_id":"4","last_reported":1762880971,"current_range_meters":2800,"station_id":"ce4bh492rcd13ifvqdvg","pricing_plan_id":"cebpf4jnsgd1na2vs0mg"},{"bike_id":"e615b71a-f970-409a-8231-a4ef526d617e","system_id":"levelo_inurba_marseille","lat":43.309316,"lon":5.401495,"is_reserved":false,"is_disabled":false,"rental_uris":{"android":"levelo://app?vid=e615b71a-f970-409a-8231-a4ef526d617e","ios":"levelo://app?vid=e615b71a-f970-409a-8231-a4ef526d617e"},"vehicle_type_id":"4","last_reported":1762880971,"current_range_meters":2800,"station_id":"ce4bgvp2rcd13ifvqct0","pricing_plan_id":"cebpf4jnsgd1na2vs0mg"},{"bike_id":"aa3713ea-f71f-4581-ba31-4c292377c8bf","system_id":"levelo_inurba_marseille","lat":43.288437,"lon":5.393141,"is_reserved":false,"is_disabled":false,"rental_uris":{"android":"levelo://app?vid=aa3713ea-f71f-4581-ba31-4c292377c8bf","ios":"levelo://app?vid=aa3713ea-f71f-4581-ba31-4c292377c8bf"},"vehicle_type_id":"4","last_reported":1762880971,"current_range_meters":2800,"station_id":"ce4bh2p2rcd13ifvqdi0","pricing_plan_id":"cebpf4jnsgd1na2vs0mg"},{"bike_id":"a7e0e980-eff3-4a3f-b22b-b658162fe152","system_id":"levelo_inurba_marseille","lat":43.28076,"lon":5.40146,"is_reserved":false,"is_disabled":false,"rental_uris":{"android":"levelo://app?vid=a7e0e980-eff3-4a3f-b22b-b658162fe152","ios":"levelo://app?vid=a7e0e980-eff3-4a3f-b22b-b658162fe152"},"vehicle_type_id":"4","last_reported":1762880971,"current_range_meters":2800,"station_id":"","pricing_plan_id":"cebpf4jnsgd1na2vs0mg"},{"bike_id":"329fb962-e107-4222-8794-077665a760ca","system_id":"levelo_inurba_marseille","lat":43.28845,"lon":5.39309,"is_reserved":false,"is_disabled":false,"rental_uris":{"android":"levelo://app?vid=329fb962-e107-4222-8794-077665a760ca","ios":"levelo://app?vid=329fb962-e107-4222-8794-077665a760ca"},"vehicle_type_id":"4","last_reported":1762880971,"current_range_meters":2800,"station_id":"ce4bh2p2rcd13ifvqdi0","pricing_plan_id":"cebpf4jnsgd1na2vs0mg"},{"bike_id":"3a406d3b-a662-4baa-b4e8-fe7b726dd4bd","system_id":"levelo_inurba_marseille","lat":43.286072,"lon":5.351044,"is_reserved":false,"is_disabled":false,"rental_uris":{"android":"levelo://app?vid=3a406d3b-a662-4baa-b4e8-fe7b726dd4bd","ios":"levelo://app?vid=3a406d3b-a662-4baa-b4e8-fe7b726dd4bd"},"vehicle_type_id":"4","last_reported":1762880971,"current_range_meters":2800,"station_id":"ce4bhch2rcd13ifvqeug","pricing_plan_id":"cebpf4jnsgd1na2vs0mg"},{"bike_id":"fc937f5a-3b07-439b-be62-4eab442cee2c","system_id":"levelo_inurba_marseille","lat":43.27372,"lon":5.36262,"is_reserved":false,"is_disabled":false,"rental_uris":{"android":"levelo://app?vid=fc937f5a-3b07-439b-be62-4eab442cee2c","ios":"levelo://app?vid=fc937f5a-3b07-439b-be62-4eab442cee2c"},"vehicle_type_id":"4","last_reported":1762880971,"current_range_meters":2800,"station_id":"ce4bhbh2rcd13ifvqeo0","pricing_plan_id":"cebpf4jnsgd1na2vs0mg"},{"bike_id":"07a8b23d-23a9-41ea-8b36-d0e227143d8e","system_id":"levelo_inurba_marseille","lat":43.32357,"lon":5.36735,"is_reserved":false,"is_disabled":false,"rental_uris":{"android":"levelo://app?vid=07a8b23d-23a9-41ea-8b36-d0e227143d8e","ios":"levelo://app?vid=07a8b23d-23a9-41ea-8b36-d0e227143d8e"},"vehicle_type_id":"4","last_reported":1762880971,"current_range_meters":2800,"station_id":"ce4bhsh2rcd13ifvqi2g","pricing_plan_id":"cebpf4jnsgd1na2vs0mg"},{"bike_id":"17316171-da16-4a86-9e63-83920f9a33ef","system_id":"levelo_inurba_marseille","lat":43.2795,"lon":5.41046,"is_reserved":false,"is_disabled":false,"rental_uris":{"android":"levelo://app?vid=17316171-da16-4a86-9e63-83920f9a33ef","ios":"levelo://app?vid=17316171-da16-4a86-9e63-83920f9a33ef"},"vehicle_type_id":"4","last_reported":1762880971,"current_range_meters":2800,"station_id":"ce4bhnp2rcd13ifvqh0g","pricing_plan_id":"cebpf4jnsgd1na2vs0mg"},{"bike_id":"ad1c8150-f69d-4cc2-bcbf-e328de393a66","system_id":"levelo_inurba_marseille","lat":43.33946,"lon":5.41504,"is_reserved":false,"is_disabled":false,"rental_uris":{"android":"levelo://app?vid=ad1c8150-f69d-4cc2-bcbf-e328de393a66","ios":"levelo://app?vid=ad1c8150-f69d-4cc2-bcbf-e328de393a66"},"vehicle_type_id":"4","last_reported":1762880971,"current_range_meters":2800,"station_id":"","pricing_plan_id":"cebpf4jnsgd1na2vs0mg"},{"bike_id":"2d0cf832-2a58-45b5-9d40-42b320fc069e","system_id":"levelo_inurba_marseille","lat":43.24069,"lon":5.37765,"is_reserved":false,"is_disabled":false,"rental_uris":{"android":"levelo://app?vid=2d0cf832-2a58-45b5-9d40-42b320fc069e","ios":"levelo://app?vid=2d0cf832-2a58-45b5-9d40-42b320fc069e"},"vehicle_type_id":"4","last_reported":1762880971,"current_range_meters":3200,"station_id":"ce4bhnp2rcd13ifvqgvg","pricing_plan_id":"cebpf4jnsgd1na2vs0mg"},{"bike_id":"ab09069b-8a5b-47cf-a8eb-3de048e273a9","system_id":"levelo_inurba_marseille","lat":43.25862,"lon":5.399,"is_reserved":false,"is_disabled":false,"rental_uris":{"android":"levelo://app?vid=ab09069b-8a5b-47cf-a8eb-3de048e273a9","ios":"levelo://app?vid=ab09069b-8a5b-47cf-a8eb-3de048e273a9"},"vehicle_type_id":"4","last_reported":1762880971,"current_range_meters":3200,"station_id":"ce4bhl92rcd13ifvqghg","pricing_plan_id":"cebpf4jnsgd1na2vs0mg"},{"bike_id":"8f993c01-c026-418e-ab76-c6e1df9962c3","system_id":"levelo_inurba_marseille","lat":43.28839,"lon":5.39325,"is_reserved":false,"is_disabled":false,"rental_uris":{"android":"levelo://app?vid=8f993c01-c026-418e-ab76-c6e1df9962c3","ios":"levelo://app?vid=8f993c01-c026-418e-ab76-c6e1df9962c3"},"vehicle_type_id":"4","last_reported":1762880971,"current_range_meters":3200,"station_id":"ce4bh2p2rcd13ifvqdi0","pricing_plan_id":"cebpf4jnsgd1na2vs0mg"},{"bike_id":"cb755174-03c1-435d-9ead-9059e7621d77","system_id":"levelo_inurba_marseille","lat":43.30736,"lon":5.4244,"is_reserved":false,"is_disabled":false,"rental_uris":{"android":"levelo://app?vid=cb755174-03c1-435d-9ead-9059e7621d77","ios":"levelo://app?vid=cb755174-03c1-435d-9ead-9059e7621d77"},"vehicle_type_id":"4","last_reported":1762880971,"current_range_meters":3200,"station_id":"st_cvj6ca6bvosntc0bfgr0","pricing_plan_id":"cebpf4jnsgd1na2vs0mg"},{"bike_id":"53631609-2056-4fe2-8d97-0e16ce454f45","system_id":"levelo_inurba_marseille","lat":43.302966,"lon":5.392153,"is_reserved":false,"is_disabled":false,"rental_uris":{"android":"levelo://app?vid=53631609-2056-4fe2-8d97-0e16ce454f45","ios":"levelo://app?vid=53631609-2056-4fe2-8d97-0e16ce454f45"},"vehicle_type_id":"4","last_reported":1762880971,"current_range_meters":3200,"station_id":"","pricing_plan_id":"cebpf4jnsgd1na2vs0mg"},{"bike_id":"dd08dc66-ed07-40a9-9353-da357548bcdf","system_id":"levelo_inurba_marseille","lat":43.303044,"lon":5.392136,"is_reserved":false,"is_disabled":false,"rental_uris":{"android":"levelo://app?vid=dd08dc66-ed07-40a9-9353-da357548bcdf","ios":"levelo://app?vid=dd08dc66-ed07-40a9-9353-da357548bcdf"},"vehicle_type_id":"4","last_reported":1762880971,"current_range_meters":3200,"station_id":"ce4bgkh2rcd13ifvqbk0","pricing_plan_id":"cebpf4jnsgd1na2vs0mg"},{"bike_id":"2e9e5318-9de1-4b83-9643-3ef983554015","system_id":"levelo_inurba_marseille","lat":43.28036,"lon":5.36949,"is_reserved":false,"is_disabled":false,"rental_uris":{"android":"levelo://app?vid=2e9e5318-9de1-4b83-9643-3ef983554015","ios":"levelo://app?vid=2e9e5318-9de1-4b83-9643-3ef983554015"},"vehicle_type_id":"4","last_reported":1762880971,"current_range_meters":3200,"station_id":"ce4bha12rcd13ifvqef0","pricing_plan_id":"cebpf4jnsgd1na2vs0mg"},{"bike_id":"36050ec0-df96-401e-8b3a-8aeb6d10c07e","system_id":"levelo_inurba_marseille","lat":43.240906,"lon":5.378281,"is_reserved":false,"is_disabled":false,"rental_uris":{"android":"levelo://app?vid=36050ec0-df96-401e-8b3a-8aeb6d10c07e","ios":"levelo://app?vid=36050ec0-df96-401e-8b3a-8aeb6d10c07e"},"vehicle_type_id":"4","last_reported":1762880971,"current_range_meters":3200,"station_id":"ce4bhnp2rcd13ifvqgvg","pricing_plan_id":"cebpf4jnsgd1na2vs0mg"},{"bike_id":"2c8f7dd5-74e1-4902-9679-123471bb6b21","system_id":"levelo_inurba_marseille","lat":43.30565,"lon":5.36696,"is_reserved":false,"is_disabled":true,"rental_uris":{"android":"levelo://app?vid=2c8f7dd5-74e1-4902-9679-123471bb6b21","ios":"levelo://app?vid=2c8f7dd5-74e1-4902-9679-123471bb6b21"},"vehicle_type_id":"4","last_reported":1762880971,"current_range_meters":3600,"station_id":"ce4bgrp2rcd13ifvqc9g","pricing_plan_id":"cebpf4jnsgd1na2vs0mg"},{"bike_id":"19fb7354-c702-4130-9f4d-fe7c4425f0f2","system_id":"levelo_inurba_marseille","lat":43.30426,"lon":5.41284,"is_reserved":false,"is_disabled":false,"rental_uris":{"android":"levelo://app?vid=19fb7354-c702-4130-9f4d-fe7c4425f0f2","ios":"levelo://app?vid=19fb7354-c702-4130-9f4d-fe7c4425f0f2"},"vehicle_type_id":"4","last_reported":1762880971,"current_range_meters":3600,"station_id":"ce4bhop2rcd13ifvqh8g","pricing_plan_id":"cebpf4jnsgd1na2vs0mg"},{"bike_id":"8246ac3f-1822-4bf7-908e-359b89fece32","system_id":"levelo_inurba_marseille","lat":43.245451,"lon":5.395228,"is_reserved":false,"is_disabled":false,"rental_uris":{"android":"levelo://app?vid=8246ac3f-1822-4bf7-908e-359b89fece32","ios":"levelo://app?vid=8246ac3f-1822-4bf7-908e-359b89fece32"},"vehicle_type_id":"4","last_reported":1762880971,"current_range_meters":3600,"station_id":"ce4bhlp2rcd13ifvqgjg","pricing_plan_id":"cebpf4jnsgd1na2vs0mg"},{"bike_id":"4339c4ef-ae8f-49f3-81f0-bdec19811a34","system_id":"levelo_inurba_marseille","lat":43.28077,"lon":5.39661,"is_reserved":false,"is_disabled":false,"rental_uris":{"android":"levelo://app?vid=4339c4ef-ae8f-49f3-81f0-bdec19811a34","ios":"levelo://app?vid=4339c4ef-ae8f-49f3-81f0-bdec19811a34"},"vehicle_type_id":"4","last_reported":1762880971,"current_range_meters":3600,"station_id":"ce4bho12rcd13ifvqh2g","pricing_plan_id":"cebpf4jnsgd1na2vs0mg"},{"bike_id":"0ccf669e-63e1-40dd-a3b5-d42d514b24d6","system_id":"levelo_inurba_marseille","lat":43.30544,"lon":5.36696,"is_reserved":false,"is_disabled":false,"rental_uris":{"android":"levelo://app?vid=0ccf669e-63e1-40dd-a3b5-d42d514b24d6","ios":"levelo://app?vid=0ccf669e-63e1-40dd-a3b5-d42d514b24d6"},"vehicle_type_id":"4","last_reported":1762880971,"current_range_meters":3600,"station_id":"ce4bgrp2rcd13ifvqc9g","pricing_plan_id":"cebpf4jnsgd1na2vs0mg"},{"bike_id":"6233fdad-a2bf-454e-b5e6-e9a71dd22008","system_id":"levelo_inurba_marseille","lat":43.255096,"lon":5.37648,"is_reserved":false,"is_disabled":false,"rental_uris":{"android":"levelo://app?vid=6233fdad-a2bf-454e-b5e6-e9a71dd22008","ios":"levelo://app?vid=6233fdad-a2bf-454e-b5e6-e9a71dd22008"},"vehicle_type_id":"4","last_reported":1762880971,"current_range_meters":3600,"station_id":"ce4bhh12rcd13ifvqff0","pricing_plan_id":"cebpf4jnsgd1na2vs0mg"},{"bike_id":"89136e11-eb85-45fe-baeb-50c0c506cae6","system_id":"levelo_inurba_marseille","lat":43.29093,"lon":5.38123,"is_reserved":false,"is_disabled":false,"rental_uris":{"android":"levelo://app?vid=89136e11-eb85-45fe-baeb-50c0c506cae6","ios":"levelo://app?vid=89136e11-eb85-45fe-baeb-50c0c506cae6"},"vehicle_type_id":"4","last_reported":1762880971,"current_range_meters":3600,"station_id":"ce4bh512rcd13ifvqe2g","pricing_plan_id":"cebpf4jnsgd1na2vs0mg"},{"bike_id":"085b4cca-44da-486e-bf7b-32f7b963a522","system_id":"levelo_inurba_marseille","lat":43.317197,"lon":5.384211,"is_reserved":false,"is_disabled":false,"rental_uris":{"android":"levelo://app?vid=085b4cca-44da-486e-bf7b-32f7b963a522","ios":"levelo://app?vid=085b4cca-44da-486e-bf7b-32f7b963a522"},"vehicle_type_id":"4","last_reported":1762880971,"current_range_meters":4000,"station_id":"ce4bhr12rcd13ifvqhpg","pricing_plan_id":"cebpf4jnsgd1na2vs0mg"},{"bike_id":"1b267de1-bcca-40ed-87d1-2e39c381830d","system_id":"levelo_inurba_marseille","lat":43.225342,"lon":5.348387,"is_reserved":false,"is_disabled":false,"rental_uris":{"android":"levelo://app?vid=1b267de1-bcca-40ed-87d1-2e39c381830d","ios":"levelo://app?vid=1b267de1-bcca-40ed-87d1-2e39c381830d"},"vehicle_type_id":"4","last_reported":1762880971,"current_range_meters":4000,"station_id":"","pricing_plan_id":"cebpf4jnsgd1na2vs0mg"},{"bike_id":"41e366cd-8e9c-4ce8-8290-fbff1d43e86a","system_id":"levelo_inurba_marseille","lat":43.29298,"lon":5.37468,"is_reserved":false,"is_disabled":false,"rental_uris":{"android":"levelo://app?vid=41e366cd-8e9c-4ce8-8290-fbff1d43e86a","ios":"levelo://app?vid=41e366cd-8e9c-4ce8-8290-fbff1d43e86a"},"vehicle_type_id":"4","last_reported":1762880971,"current_range_meters":4000,"station_id":"ce4bgi12rcd13ifvqb70","pricing_plan_id":"cebpf4jnsgd1na2vs0mg"},{"bike_id":"e7827861-f5eb-4c86-acd7-9ba3fd3992e7","system_id":"levelo_inurba_marseille","lat":43.26497,"lon":5.39537,"is_reserved":false,"is_disabled":false,"rental_uris":{"android":"levelo://app?vid=e7827861-f5eb-4c86-acd7-9ba3fd3992e7","ios":"levelo://app?vid=e7827861-f5eb-4c86-acd7-9ba3fd3992e7"},"vehicle_type_id":"4","last_reported":1762880971,"current_range_meters":4000,"station_id":"ce4bhi12rcd13ifvqfq0","pricing_plan_id":"cebpf4jnsgd1na2vs0mg"},{"bike_id":"7fd39142-8097-4117-9b0a-63fb3d471702","system_id":"levelo_inurba_marseille","lat":43.2623,"lon":5.40455,"is_reserved":false,"is_disabled":false,"rental_uris":{"android":"levelo://app?vid=7fd39142-8097-4117-9b0a-63fb3d471702","ios":"levelo://app?vid=7fd39142-8097-4117-9b0a-63fb3d471702"},"vehicle_type_id":"4","last_reported":1762880971,"current_range_meters":4000,"station_id":"ce4bhmh2rcd13ifvqgmg","pricing_plan_id":"cebpf4jnsgd1na2vs0mg"},{"bike_id":"d465a52a-66b4-4bd9-b2a6-e1beda0af726","system_id":"levelo_inurba_marseille","lat":43.28993,"lon":5.35619,"is_reserved":false,"is_disabled":true,"rental_uris":{"android":"levelo://app?vid=d465a52a-66b4-4bd9-b2a6-e1beda0af726","ios":"levelo://app?vid=d465a52a-66b4-4bd9-b2a6-e1beda0af726"},"vehicle_type_id":"4","last_reported":1762880971,"current_range_meters":4000,"station_id":"ce4bhb92rcd13ifvqen0","pricing_plan_id":"cebpf4jnsgd1na2vs0mg"},{"bike_id":"53ef7e13-ff82-40ba-9436-a18ff7b20155","system_id":"levelo_inurba_marseille","lat":43.30928,"lon":5.40146,"is_reserved":false,"is_disabled":false,"rental_uris":{"android":"levelo://app?vid=53ef7e13-ff82-40ba-9436-a18ff7b20155","ios":"levelo://app?vid=53ef7e13-ff82-40ba-9436-a18ff7b20155"},"vehicle_type_id":"4","last_reported":1762880971,"current_range_meters":4000,"station_id":"ce4bgvp2rcd13ifvqct0","pricing_plan_id":"cebpf4jnsgd1na2vs0mg"},{"bike_id":"e9091a27-8e84-45dc-9f73-4573231201dc","system_id":"levelo_inurba_marseille","lat":43.26058,"lon":5.39404,"is_reserved":false,"is_disabled":false,"rental_uris":{"android":"levelo://app?vid=e9091a27-8e84-45dc-9f73-4573231201dc","ios":"levelo://app?vid=e9091a27-8e84-45dc-9f73-4573231201dc"},"vehicle_type_id":"4","last_reported":1762880971,"current_range_meters":4000,"station_id":"ce4bhh92rcd13ifvqfj0","pricing_plan_id":"cebpf4jnsgd1na2vs0mg"},{"bike_id":"dcbc4985-76df-47d4-ba15-ea3ec86b22bc","system_id":"levelo_inurba_marseille","lat":43.31106,"lon":5.37781,"is_reserved":false,"is_disabled":false,"rental_uris":{"android":"levelo://app?vid=dcbc4985-76df-47d4-ba15-ea3ec86b22bc","ios":"levelo://app?vid=dcbc4985-76df-47d4-ba15-ea3ec86b22bc"},"vehicle_type_id":"4","last_reported":1762880971,"current_range_meters":4400,"station_id":"ce4bgt92rcd13ifvqcg0","pricing_plan_id":"cebpf4jnsgd1na2vs0mg"},{"bike_id":"6b012e9c-608e-48ec-8ff4-202eaee4a900","system_id":"levelo_inurba_marseille","lat":43.30137,"lon":5.38768,"is_reserved":false,"is_disabled":false,"rental_uris":{"android":"levelo://app?vid=6b012e9c-608e-48ec-8ff4-202eaee4a900","ios":"levelo://app?vid=6b012e9c-608e-48ec-8ff4-202eaee4a900"},"vehicle_type_id":"4","last_reported":1762880971,"current_range_meters":4400,"station_id":"ce4bghh2rcd13ifvqb60","pricing_plan_id":"cebpf4jnsgd1na2vs0mg"},{"bike_id":"63c0500e-e446-49ee-9f18-cc9e7e96611f","system_id":"levelo_inurba_marseille","lat":43.28459,"lon":5.35886,"is_reserved":false,"is_disabled":false,"rental_uris":{"android":"levelo://app?vid=63c0500e-e446-49ee-9f18-cc9e7e96611f","ios":"levelo://app?vid=63c0500e-e446-49ee-9f18-cc9e7e96611f"},"vehicle_type_id":"4","last_reported":1762880971,"current_range_meters":4400,"station_id":"ce4bhah2rcd13ifvqei0","pricing_plan_id":"cebpf4jnsgd1na2vs0mg"},{"bike_id":"d43efc36-10d9-44f2-9bd3-ccb6863fe7e4","system_id":"levelo_inurba_marseille","lat":43.304135,"lon":5.397455,"is_reserved":false,"is_disabled":false,"rental_uris":{"android":"levelo://app?vid=d43efc36-10d9-44f2-9bd3-ccb6863fe7e4","ios":"levelo://app?vid=d43efc36-10d9-44f2-9bd3-ccb6863fe7e4"},"vehicle_type_id":"4","last_reported":1762880971,"current_range_meters":4400,"station_id":"ce4bh092rcd13ifvqd20","pricing_plan_id":"cebpf4jnsgd1na2vs0mg"},{"bike_id":"7c1c62e9-7297-4ed5-b134-af1a7241e1f3","system_id":"levelo_inurba_marseille","lat":43.28427,"lon":5.34973,"is_reserved":false,"is_disabled":false,"rental_uris":{"android":"levelo://app?vid=7c1c62e9-7297-4ed5-b134-af1a7241e1f3","ios":"levelo://app?vid=7c1c62e9-7297-4ed5-b134-af1a7241e1f3"},"vehicle_type_id":"4","last_reported":1762880971,"current_range_meters":4400,"station_id":"ce4bhbh2rcd13ifvqepg","pricing_plan_id":"cebpf4jnsgd1na2vs0mg"},{"bike_id":"62a14efb-5f7a-4e0d-bbfa-d4a60d07f475","system_id":"levelo_inurba_marseille","lat":43.29762,"lon":5.37325,"is_reserved":false,"is_disabled":false,"rental_uris":{"android":"levelo://app?vid=62a14efb-5f7a-4e0d-bbfa-d4a60d07f475","ios":"levelo://app?vid=62a14efb-5f7a-4e0d-bbfa-d4a60d07f475"},"vehicle_type_id":"4","last_reported":1762880971,"current_range_meters":4800,"station_id":"","pricing_plan_id":"cebpf4jnsgd1na2vs0mg"},{"bike_id":"d91f7b77-628b-406f-9c6d-db5e5cfcadca","system_id":"levelo_inurba_marseille","lat":43.28455,"lon":5.48398,"is_reserved":false,"is_disabled":false,"rental_uris":{"android":"levelo://app?vid=d91f7b77-628b-406f-9c6d-db5e5cfcadca","ios":"levelo://app?vid=d91f7b77-628b-406f-9c6d-db5e5cfcadca"},"vehicle_type_id":"4","last_reported":1762880971,"current_range_meters":4800,"station_id":"st_d3svhcjqgbts73a3dn0g","pricing_plan_id":"cebpf4jnsgd1na2vs0mg"},{"bike_id":"6a7aff1d-5df5-4741-b6b7-f6d60f2cb3a5","system_id":"levelo_inurba_marseille","lat":43.28665,"lon":5.38664,"is_reserved":false,"is_disabled":false,"rental_uris":{"android":"levelo://app?vid=6a7aff1d-5df5-4741-b6b7-f6d60f2cb3a5","ios":"levelo://app?vid=6a7aff1d-5df5-4741-b6b7-f6d60f2cb3a5"},"vehicle_type_id":"4","last_reported":1762880971,"current_range_meters":4800,"station_id":"ce4bh492rcd13ifvqdug","pricing_plan_id":"cebpf4jnsgd1na2vs0mg"},{"bike_id":"76f917cf-65eb-4e6b-958c-5d7ce7da8d80","system_id":"levelo_inurba_marseille","lat":43.24807,"lon":5.37459,"is_reserved":false,"is_disabled":false,"rental_uris":{"android":"levelo://app?vid=76f917cf-65eb-4e6b-958c-5d7ce7da8d80","ios":"levelo://app?vid=76f917cf-65eb-4e6b-958c-5d7ce7da8d80"},"vehicle_type_id":"4","last_reported":1762880971,"current_range_meters":4800,"station_id":"ce4bhgh2rcd13ifvqfb0","pricing_plan_id":"cebpf4jnsgd1na2vs0mg"},{"bike_id":"6013e428-9ef8-4e54-ae81-b6dac91f3eb3","system_id":"levelo_inurba_marseille","lat":43.30215,"lon":5.39475,"is_reserved":false,"is_disabled":false,"rental_uris":{"android":"levelo://app?vid=6013e428-9ef8-4e54-ae81-b6dac91f3eb3","ios":"levelo://app?vid=6013e428-9ef8-4e54-ae81-b6dac91f3eb3"},"vehicle_type_id":"4","last_reported":1762880971,"current_range_meters":4800,"station_id":"ce4bh0p2rcd13ifvqd70","pricing_plan_id":"cebpf4jnsgd1na2vs0mg"},{"bike_id":"23512c36-916b-4b06-8a31-96109a3f54eb","system_id":"levelo_inurba_marseille","lat":43.25119,"lon":5.40321,"is_reserved":false,"is_disabled":false,"rental_uris":{"android":"levelo://app?vid=23512c36-916b-4b06-8a31-96109a3f54eb","ios":"levelo://app?vid=23512c36-916b-4b06-8a31-96109a3f54eb"},"vehicle_type_id":"4","last_reported":1762880971,"current_range_meters":4800,"station_id":"ce4bhlh2rcd13ifvqgig","pricing_plan_id":"cebpf4jnsgd1na2vs0mg"},{"bike_id":"65b9e3f7-ba93-4114-96ce-bd08ae0931d4","system_id":"levelo_inurba_marseille","lat":43.29283,"lon":5.40119,"is_reserved":false,"is_disabled":false,"rental_uris":{"android":"levelo://app?vid=65b9e3f7-ba93-4114-96ce-bd08ae0931d4","ios":"levelo://app?vid=65b9e3f7-ba93-4114-96ce-bd08ae0931d4"},"vehicle_type_id":"4","last_reported":1762880971,"current_range_meters":5600,"station_id":"ce4bh312rcd13ifvqdk0","pricing_plan_id":"cebpf4jnsgd1na2vs0mg"},{"bike_id":"b2933f49-d54b-424b-8ede-5507b6ebb01c","system_id":"levelo_inurba_marseille","lat":43.2481,"lon":5.37458,"is_reserved":false,"is_disabled":false,"rental_uris":{"android":"levelo://app?vid=b2933f49-d54b-424b-8ede-5507b6ebb01c","ios":"levelo://app?vid=b2933f49-d54b-424b-8ede-5507b6ebb01c"},"vehicle_type_id":"4","last_reported":1762880971,"current_range_meters":5600,"station_id":"ce4bhgh2rcd13ifvqfb0","pricing_plan_id":"cebpf4jnsgd1na2vs0mg"},{"bike_id":"20e34210-2e7e-4f17-9c55-ea939ef3e6a5","system_id":"levelo_inurba_marseille","lat":43.289394,"lon":5.396316,"is_reserved":false,"is_disabled":false,"rental_uris":{"android":"levelo://app?vid=20e34210-2e7e-4f17-9c55-ea939ef3e6a5","ios":"levelo://app?vid=20e34210-2e7e-4f17-9c55-ea939ef3e6a5"},"vehicle_type_id":"4","last_reported":1762880971,"current_range_meters":5600,"station_id":"ce4bh3h2rcd13ifvqdn0","pricing_plan_id":"cebpf4jnsgd1na2vs0mg"},{"bike_id":"28f97432-10bd-438a-b365-48dcdabd8051","system_id":"levelo_inurba_marseille","lat":43.29311,"lon":5.3745,"is_reserved":false,"is_disabled":false,"rental_uris":{"android":"levelo://app?vid=28f97432-10bd-438a-b365-48dcdabd8051","ios":"levelo://app?vid=28f97432-10bd-438a-b365-48dcdabd8051"},"vehicle_type_id":"4","last_reported":1762880971,"current_range_meters":5600,"station_id":"ce4bgi12rcd13ifvqb70","pricing_plan_id":"cebpf4jnsgd1na2vs0mg"},{"bike_id":"f4dfd65f-4baa-47b2-bfb6-bc0ecb9bfeec","system_id":"levelo_inurba_marseille","lat":43.28925,"lon":5.36645,"is_reserved":false,"is_disabled":false,"rental_uris":{"android":"levelo://app?vid=f4dfd65f-4baa-47b2-bfb6-bc0ecb9bfeec","ios":"levelo://app?vid=f4dfd65f-4baa-47b2-bfb6-bc0ecb9bfeec"},"vehicle_type_id":"4","last_reported":1762880971,"current_range_meters":5600,"station_id":"ce4bhap2rcd13ifvqek0","pricing_plan_id":"cebpf4jnsgd1na2vs0mg"},{"bike_id":"514e7cb8-7b26-4a57-bea9-565734a76941","system_id":"levelo_inurba_marseille","lat":43.298689,"lon":5.397352,"is_reserved":false,"is_disabled":false,"rental_uris":{"android":"levelo://app?vid=514e7cb8-7b26-4a57-bea9-565734a76941","ios":"levelo://app?vid=514e7cb8-7b26-4a57-bea9-565734a76941"},"vehicle_type_id":"4","last_reported":1762880971,"current_range_meters":5600,"station_id":"ce4bh0h2rcd13ifvqd50","pricing_plan_id":"cebpf4jnsgd1na2vs0mg"},{"bike_id":"84da55ed-a169-4c20-816f-882eaadb7b22","system_id":"levelo_inurba_marseille","lat":43.29058,"lon":5.37168,"is_reserved":false,"is_disabled":false,"rental_uris":{"android":"levelo://app?vid=84da55ed-a169-4c20-816f-882eaadb7b22","ios":"levelo://app?vid=84da55ed-a169-4c20-816f-882eaadb7b22"},"vehicle_type_id":"4","last_reported":1762880971,"current_range_meters":5600,"station_id":"ce4bh5p2rcd13ifvqe4g","pricing_plan_id":"cebpf4jnsgd1na2vs0mg"},{"bike_id":"eab18918-de29-4690-a805-5d49dbcafcb4","system_id":"levelo_inurba_marseille","lat":43.30319,"lon":5.40451,"is_reserved":false,"is_disabled":false,"rental_uris":{"android":"levelo://app?vid=eab18918-de29-4690-a805-5d49dbcafcb4","ios":"levelo://app?vid=eab18918-de29-4690-a805-5d49dbcafcb4"},"vehicle_type_id":"4","last_reported":1762880971,"current_range_meters":5600,"station_id":"ce4bh012rcd13ifvqd10","pricing_plan_id":"cebpf4jnsgd1na2vs0mg"},{"bike_id":"e8211153-31ad-4fa2-916d-aece36245147","system_id":"levelo_inurba_marseille","lat":43.30938,"lon":5.40133,"is_reserved":false,"is_disabled":false,"rental_uris":{"android":"levelo://app?vid=e8211153-31ad-4fa2-916d-aece36245147","ios":"levelo://app?vid=e8211153-31ad-4fa2-916d-aece36245147"},"vehicle_type_id":"4","last_reported":1762880971,"current_range_meters":5600,"station_id":"ce4bgvp2rcd13ifvqct0","pricing_plan_id":"cebpf4jnsgd1na2vs0mg"},{"bike_id":"56252eb9-8e9f-40dd-80e3-62657c8ad531","system_id":"levelo_inurba_marseille","lat":43.288524,"lon":5.393242,"is_reserved":false,"is_disabled":false,"rental_uris":{"android":"levelo://app?vid=56252eb9-8e9f-40dd-80e3-62657c8ad531","ios":"levelo://app?vid=56252eb9-8e9f-40dd-80e3-62657c8ad531"},"vehicle_type_id":"4","last_reported":1762880971,"current_range_meters":5600,"station_id":"","pricing_plan_id":"cebpf4jnsgd1na2vs0mg"},{"bike_id":"e47465b0-e352-43b9-9e55-aaff987f6028","system_id":"levelo_inurba_marseille","lat":43.27949,"lon":5.4105,"is_reserved":false,"is_disabled":false,"rental_uris":{"android":"levelo://app?vid=e47465b0-e352-43b9-9e55-aaff987f6028","ios":"levelo://app?vid=e47465b0-e352-43b9-9e55-aaff987f6028"},"vehicle_type_id":"4","last_reported":1762880971,"current_range_meters":5600,"station_id":"ce4bhnp2rcd13ifvqh0g","pricing_plan_id":"cebpf4jnsgd1na2vs0mg"},{"bike_id":"279e3c82-a72d-4313-88a8-f75e7ea072b2","system_id":"levelo_inurba_marseille","lat":43.25084,"lon":5.39528,"is_reserved":false,"is_disabled":false,"rental_uris":{"android":"levelo://app?vid=279e3c82-a72d-4313-88a8-f75e7ea072b2","ios":"levelo://app?vid=279e3c82-a72d-4313-88a8-f75e7ea072b2"},"vehicle_type_id":"4","last_reported":1762880971,"current_range_meters":5600,"station_id":"ce4bhm12rcd13ifvqgkg","pricing_plan_id":"cebpf4jnsgd1na2vs0mg"},{"bike_id":"29c23c73-3d3f-494c-a09e-778b6f1c1709","system_id":"levelo_inurba_marseille","lat":43.28079,"lon":5.3966,"is_reserved":false,"is_disabled":false,"rental_uris":{"android":"levelo://app?vid=29c23c73-3d3f-494c-a09e-778b6f1c1709","ios":"levelo://app?vid=29c23c73-3d3f-494c-a09e-778b6f1c1709"},"vehicle_type_id":"4","last_reported":1762880971,"current_range_meters":6000,"station_id":"ce4bho12rcd13ifvqh2g","pricing_plan_id":"cebpf4jnsgd1na2vs0mg"},{"bike_id":"16bceddd-dca4-4347-807e-983aa9d4c6da","system_id":"levelo_inurba_marseille","lat":43.30296,"lon":5.39214,"is_reserved":false,"is_disabled":false,"rental_uris":{"android":"levelo://app?vid=16bceddd-dca4-4347-807e-983aa9d4c6da","ios":"levelo://app?vid=16bceddd-dca4-4347-807e-983aa9d4c6da"},"vehicle_type_id":"4","last_reported":1762880971,"current_range_meters":6000,"station_id":"ce4bgkh2rcd13ifvqbk0","pricing_plan_id":"cebpf4jnsgd1na2vs0mg"},{"bike_id":"a5c41a1b-4256-4405-ac53-7fd2924c2b85","system_id":"levelo_inurba_marseille","lat":43.26771,"lon":5.39425,"is_reserved":false,"is_disabled":false,"rental_uris":{"android":"levelo://app?vid=a5c41a1b-4256-4405-ac53-7fd2924c2b85","ios":"levelo://app?vid=a5c41a1b-4256-4405-ac53-7fd2924c2b85"},"vehicle_type_id":"4","last_reported":1762880971,"current_range_meters":6000,"station_id":"ce4bhh12rcd13ifvqfg0","pricing_plan_id":"cebpf4jnsgd1na2vs0mg"},{"bike_id":"88760492-91b6-4b3e-8c0f-796336959daa","system_id":"levelo_inurba_marseille","lat":43.33166,"lon":5.37688,"is_reserved":false,"is_disabled":false,"rental_uris":{"android":"levelo://app?vid=88760492-91b6-4b3e-8c0f-796336959daa","ios":"levelo://app?vid=88760492-91b6-4b3e-8c0f-796336959daa"},"vehicle_type_id":"4","last_reported":1762880971,"current_range_meters":6000,"station_id":"st_d46cu089ee8s73dldbu0","pricing_plan_id":"cebpf4jnsgd1na2vs0mg"},{"bike_id":"b04799cc-4513-43b0-b151-ddf03335fd29","system_id":"levelo_inurba_marseille","lat":43.2721,"lon":5.39183,"is_reserved":false,"is_disabled":false,"rental_uris":{"android":"levelo://app?vid=b04799cc-4513-43b0-b151-ddf03335fd29","ios":"levelo://app?vid=b04799cc-4513-43b0-b151-ddf03335fd29"},"vehicle_type_id":"4","last_reported":1762880971,"current_range_meters":6000,"station_id":"ce4bhhp2rcd13ifvqfm0","pricing_plan_id":"cebpf4jnsgd1na2vs0mg"},{"bike_id":"c25cc6ed-92f3-4de2-b79a-e5ce3fbff389","system_id":"levelo_inurba_marseille","lat":43.25577,"lon":5.38245,"is_reserved":false,"is_disabled":false,"rental_uris":{"android":"levelo://app?vid=c25cc6ed-92f3-4de2-b79a-e5ce3fbff389","ios":"levelo://app?vid=c25cc6ed-92f3-4de2-b79a-e5ce3fbff389"},"vehicle_type_id":"4","last_reported":1762880971,"current_range_meters":6000,"station_id":"ce4bhih2rcd13ifvqfs0","pricing_plan_id":"cebpf4jnsgd1na2vs0mg"},{"bike_id":"1f5a8b7a-4f85-432e-8a2e-1320e8301faa","system_id":"levelo_inurba_marseille","lat":43.33144,"lon":5.37721,"is_reserved":false,"is_disabled":false,"rental_uris":{"android":"levelo://app?vid=1f5a8b7a-4f85-432e-8a2e-1320e8301faa","ios":"levelo://app?vid=1f5a8b7a-4f85-432e-8a2e-1320e8301faa"},"vehicle_type_id":"4","last_reported":1762880971,"current_range_meters":6000,"station_id":"st_d46cu089ee8s73dldbu0","pricing_plan_id":"cebpf4jnsgd1na2vs0mg"},{"bike_id":"f9aaeb92-765b-470b-8c4b-82f1a4cca4ed","system_id":"levelo_inurba_marseille","lat":43.29029,"lon":5.38663,"is_reserved":false,"is_disabled":false,"rental_uris":{"android":"levelo://app?vid=f9aaeb92-765b-470b-8c4b-82f1a4cca4ed","ios":"levelo://app?vid=f9aaeb92-765b-470b-8c4b-82f1a4cca4ed"},"vehicle_type_id":"4","last_reported":1762880971,"current_range_meters":6000,"station_id":"ce4bh4p2rcd13ifvqe0g","pricing_plan_id":"cebpf4jnsgd1na2vs0mg"},{"bike_id":"ba19380c-4e09-495f-bada-122df531ae0e","system_id":"levelo_inurba_marseille","lat":43.2722,"lon":5.39183,"is_reserved":false,"is_disabled":false,"rental_uris":{"android":"levelo://app?vid=ba19380c-4e09-495f-bada-122df531ae0e","ios":"levelo://app?vid=ba19380c-4e09-495f-bada-122df531ae0e"},"vehicle_type_id":"4","last_reported":1762880971,"current_range_meters":6000,"station_id":"ce4bhhp2rcd13ifvqfm0","pricing_plan_id":"cebpf4jnsgd1na2vs0mg"},{"bike_id":"355d0a72-63a4-43ac-addc-15604eb0aa69","system_id":"levelo_inurba_marseille","lat":43.29931,"lon":5.36401,"is_reserved":false,"is_disabled":false,"rental_uris":{"android":"levelo://app?vid=355d0a72-63a4-43ac-addc-15604eb0aa69","ios":"levelo://app?vid=355d0a72-63a4-43ac-addc-15604eb0aa69"},"vehicle_type_id":"4","last_reported":1762880971,"current_range_meters":6000,"station_id":"","pricing_plan_id":"cebpf4jnsgd1na2vs0mg"},{"bike_id":"272ec4df-f760-4b78-b278-d4935816cd67","system_id":"levelo_inurba_marseille","lat":43.23783,"lon":5.36635,"is_reserved":false,"is_disabled":false,"rental_uris":{"android":"levelo://app?vid=272ec4df-f760-4b78-b278-d4935816cd67","ios":"levelo://app?vid=272ec4df-f760-4b78-b278-d4935816cd67"},"vehicle_type_id":"4","last_reported":1762880971,"current_range_meters":6000,"station_id":"st_d3nk18o9ro0c73en2l3g","pricing_plan_id":"cebpf4jnsgd1na2vs0mg"},{"bike_id":"285edc02-c40d-4315-906b-2d38b29ac259","system_id":"levelo_inurba_marseille","lat":43.33771,"lon":5.37471,"is_reserved":false,"is_disabled":false,"rental_uris":{"android":"levelo://app?vid=285edc02-c40d-4315-906b-2d38b29ac259","ios":"levelo://app?vid=285edc02-c40d-4315-906b-2d38b29ac259"},"vehicle_type_id":"4","last_reported":1762880971,"current_range_meters":6400,"station_id":"","pricing_plan_id":"cebpf4jnsgd1na2vs0mg"},{"bike_id":"a36e7767-e025-44af-901e-1d9e213118eb","system_id":"levelo_inurba_marseille","lat":43.299036,"lon":5.436679,"is_reserved":false,"is_disabled":false,"rental_uris":{"android":"levelo://app?vid=a36e7767-e025-44af-901e-1d9e213118eb","ios":"levelo://app?vid=a36e7767-e025-44af-901e-1d9e213118eb"},"vehicle_type_id":"4","last_reported":1762880971,"current_range_meters":6400,"station_id":"ce4bhpp2rcd13ifvqhfg","pricing_plan_id":"cebpf4jnsgd1na2vs0mg"},{"bike_id":"86f6d88d-be80-415c-b141-feacc7ba2a1c","system_id":"levelo_inurba_marseille","lat":43.29593,"lon":5.37541,"is_reserved":false,"is_disabled":false,"rental_uris":{"android":"levelo://app?vid=86f6d88d-be80-415c-b141-feacc7ba2a1c","ios":"levelo://app?vid=86f6d88d-be80-415c-b141-feacc7ba2a1c"},"vehicle_type_id":"4","last_reported":1762880971,"current_range_meters":6400,"station_id":"ce4bgh92rcd13ifvqb50","pricing_plan_id":"cebpf4jnsgd1na2vs0mg"},{"bike_id":"8f20b852-e2be-4e7c-972f-50c8bffb5977","system_id":"levelo_inurba_marseille","lat":43.28376,"lon":5.3878,"is_reserved":false,"is_disabled":false,"rental_uris":{"android":"levelo://app?vid=8f20b852-e2be-4e7c-972f-50c8bffb5977","ios":"levelo://app?vid=8f20b852-e2be-4e7c-972f-50c8bffb5977"},"vehicle_type_id":"4","last_reported":1762880971,"current_range_meters":6400,"station_id":"","pricing_plan_id":"cebpf4jnsgd1na2vs0mg"},{"bike_id":"8da1a574-8a9d-4ffc-aff9-57230e0ac42c","system_id":"levelo_inurba_marseille","lat":43.29538,"lon":5.38549,"is_reserved":false,"is_disabled":false,"rental_uris":{"android":"levelo://app?vid=8da1a574-8a9d-4ffc-aff9-57230e0ac42c","ios":"levelo://app?vid=8da1a574-8a9d-4ffc-aff9-57230e0ac42c"},"vehicle_type_id":"4","last_reported":1762880971,"current_range_meters":6400,"station_id":"ce4bgih2rcd13ifvqba0","pricing_plan_id":"cebpf4jnsgd1na2vs0mg"},{"bike_id":"8e7806dc-26f5-43e8-8be8-34571fc8985e","system_id":"levelo_inurba_marseille","lat":43.30216,"lon":5.39483,"is_reserved":false,"is_disabled":false,"rental_uris":{"android":"levelo://app?vid=8e7806dc-26f5-43e8-8be8-34571fc8985e","ios":"levelo://app?vid=8e7806dc-26f5-43e8-8be8-34571fc8985e"},"vehicle_type_id":"4","last_reported":1762880971,"current_range_meters":6400,"station_id":"ce4bh0p2rcd13ifvqd70","pricing_plan_id":"cebpf4jnsgd1na2vs0mg"},{"bike_id":"9a82fcbb-0ab3-4f45-aacf-b6e1642c0228","system_id":"levelo_inurba_marseille","lat":43.29616,"lon":5.37705,"is_reserved":false,"is_disabled":true,"rental_uris":{"android":"levelo://app?vid=9a82fcbb-0ab3-4f45-aacf-b6e1642c0228","ios":"levelo://app?vid=9a82fcbb-0ab3-4f45-aacf-b6e1642c0228"},"vehicle_type_id":"4","last_reported":1762880971,"current_range_meters":6400,"station_id":"ce4bgi92rcd13ifvqb90","pricing_plan_id":"cebpf4jnsgd1na2vs0mg"},{"bike_id":"9ade1fe7-d83f-4045-9bd3-74892e77626e","system_id":"levelo_inurba_marseille","lat":43.240816,"lon":5.377272,"is_reserved":false,"is_disabled":true,"rental_uris":{"android":"levelo://app?vid=9ade1fe7-d83f-4045-9bd3-74892e77626e","ios":"levelo://app?vid=9ade1fe7-d83f-4045-9bd3-74892e77626e"},"vehicle_type_id":"4","last_reported":1762880971,"current_range_meters":6400,"station_id":"ce4bhnp2rcd13ifvqgvg","pricing_plan_id":"cebpf4jnsgd1na2vs0mg"},{"bike_id":"ab8c3c26-7f2c-44cb-819f-81becbcc3d6c","system_id":"levelo_inurba_marseille","lat":43.304202,"lon":5.397342,"is_reserved":false,"is_disabled":true,"rental_uris":{"android":"levelo://app?vid=ab8c3c26-7f2c-44cb-819f-81becbcc3d6c","ios":"levelo://app?vid=ab8c3c26-7f2c-44cb-819f-81becbcc3d6c"},"vehicle_type_id":"4","last_reported":1762880971,"current_range_meters":6400,"station_id":"ce4bh092rcd13ifvqd20","pricing_plan_id":"cebpf4jnsgd1na2vs0mg"},{"bike_id":"7fa3f0d6-ce79-4e54-a957-960bb4ac0037","system_id":"levelo_inurba_marseille","lat":43.288578,"lon":5.358516,"is_reserved":false,"is_disabled":false,"rental_uris":{"android":"levelo://app?vid=7fa3f0d6-ce79-4e54-a957-960bb4ac0037","ios":"levelo://app?vid=7fa3f0d6-ce79-4e54-a957-960bb4ac0037"},"vehicle_type_id":"4","last_reported":1762880971,"current_range_meters":6400,"station_id":"ce4bhb12rcd13ifvqem0","pricing_plan_id":"cebpf4jnsgd1na2vs0mg"},{"bike_id":"a87f70c2-32b8-4b97-b496-01e778b104a6","system_id":"levelo_inurba_marseille","lat":43.28082,"lon":5.39662,"is_reserved":false,"is_disabled":false,"rental_uris":{"android":"levelo://app?vid=a87f70c2-32b8-4b97-b496-01e778b104a6","ios":"levelo://app?vid=a87f70c2-32b8-4b97-b496-01e778b104a6"},"vehicle_type_id":"4","last_reported":1762880971,"current_range_meters":6400,"station_id":"ce4bho12rcd13ifvqh2g","pricing_plan_id":"cebpf4jnsgd1na2vs0mg"},{"bike_id":"bd830672-6dea-44fe-ab94-f72d7b4a22cc","system_id":"levelo_inurba_marseille","lat":43.26227,"lon":5.40453,"is_reserved":false,"is_disabled":false,"rental_uris":{"android":"levelo://app?vid=bd830672-6dea-44fe-ab94-f72d7b4a22cc","ios":"levelo://app?vid=bd830672-6dea-44fe-ab94-f72d7b4a22cc"},"vehicle_type_id":"4","last_reported":1762880971,"current_range_meters":6400,"station_id":"ce4bhmh2rcd13ifvqgmg","pricing_plan_id":"cebpf4jnsgd1na2vs0mg"},{"bike_id":"f66fdcb4-acc8-4a90-88ec-9926db65e0d3","system_id":"levelo_inurba_marseille","lat":43.280389,"lon":5.369484,"is_reserved":false,"is_disabled":false,"rental_uris":{"android":"levelo://app?vid=f66fdcb4-acc8-4a90-88ec-9926db65e0d3","ios":"levelo://app?vid=f66fdcb4-acc8-4a90-88ec-9926db65e0d3"},"vehicle_type_id":"4","last_reported":1762880971,"current_range_meters":6400,"station_id":"ce4bha12rcd13ifvqef0","pricing_plan_id":"cebpf4jnsgd1na2vs0mg"},{"bike_id":"3e127f70-cf6a-4934-aa04-3bd2aa9faa0a","system_id":"levelo_inurba_marseille","lat":43.270726,"lon":5.422919,"is_reserved":false,"is_disabled":false,"rental_uris":{"android":"levelo://app?vid=3e127f70-cf6a-4934-aa04-3bd2aa9faa0a","ios":"levelo://app?vid=3e127f70-cf6a-4934-aa04-3bd2aa9faa0a"},"vehicle_type_id":"4","last_reported":1762880971,"current_range_meters":6800,"station_id":"ce4bhk92rcd13ifvqgb0","pricing_plan_id":"cebpf4jnsgd1na2vs0mg"},{"bike_id":"10a7eb93-c1cd-4026-96a1-caaa23edf399","system_id":"levelo_inurba_marseille","lat":43.305467,"lon":5.365478,"is_reserved":false,"is_disabled":false,"rental_uris":{"android":"levelo://app?vid=10a7eb93-c1cd-4026-96a1-caaa23edf399","ios":"levelo://app?vid=10a7eb93-c1cd-4026-96a1-caaa23edf399"},"vehicle_type_id":"4","last_reported":1762880971,"current_range_meters":6800,"station_id":"ce4bgs12rcd13ifvqcag","pricing_plan_id":"cebpf4jnsgd1na2vs0mg"},{"bike_id":"6acb14b4-9d04-42e6-8cbe-8edef6de42ad","system_id":"levelo_inurba_marseille","lat":43.29297,"lon":5.3747,"is_reserved":false,"is_disabled":false,"rental_uris":{"android":"levelo://app?vid=6acb14b4-9d04-42e6-8cbe-8edef6de42ad","ios":"levelo://app?vid=6acb14b4-9d04-42e6-8cbe-8edef6de42ad"},"vehicle_type_id":"4","last_reported":1762880971,"current_range_meters":6800,"station_id":"ce4bgi12rcd13ifvqb70","pricing_plan_id":"cebpf4jnsgd1na2vs0mg"},{"bike_id":"a153bb7a-facf-4d89-8fb0-01e6272ba505","system_id":"levelo_inurba_marseille","lat":43.26981,"lon":5.38803,"is_reserved":false,"is_disabled":false,"rental_uris":{"android":"levelo://app?vid=a153bb7a-facf-4d89-8fb0-01e6272ba505","ios":"levelo://app?vid=a153bb7a-facf-4d89-8fb0-01e6272ba505"},"vehicle_type_id":"4","last_reported":1762880971,"current_range_meters":6800,"station_id":"","pricing_plan_id":"cebpf4jnsgd1na2vs0mg"},{"bike_id":"4dba09d3-835d-4313-a6d8-3da20a1325dd","system_id":"levelo_inurba_marseille","lat":43.29896,"lon":5.43678,"is_reserved":false,"is_disabled":false,"rental_uris":{"android":"levelo://app?vid=4dba09d3-835d-4313-a6d8-3da20a1325dd","ios":"levelo://app?vid=4dba09d3-835d-4313-a6d8-3da20a1325dd"},"vehicle_type_id":"4","last_reported":1762880971,"current_range_meters":6800,"station_id":"ce4bhpp2rcd13ifvqhfg","pricing_plan_id":"cebpf4jnsgd1na2vs0mg"},{"bike_id":"8c233313-a231-4552-bd58-e6089cef5c80","system_id":"levelo_inurba_marseille","lat":43.29264,"lon":5.37624,"is_reserved":false,"is_disabled":false,"rental_uris":{"android":"levelo://app?vid=8c233313-a231-4552-bd58-e6089cef5c80","ios":"levelo://app?vid=8c233313-a231-4552-bd58-e6089cef5c80"},"vehicle_type_id":"4","last_reported":1762880971,"current_range_meters":6800,"station_id":"ce4bgi12rcd13ifvqb80","pricing_plan_id":"cebpf4jnsgd1na2vs0mg"},{"bike_id":"1bf60d7e-82fe-44a6-825b-6387a61e2b5e","system_id":"levelo_inurba_marseille","lat":43.231904,"lon":5.35554,"is_reserved":false,"is_disabled":false,"rental_uris":{"android":"levelo://app?vid=1bf60d7e-82fe-44a6-825b-6387a61e2b5e","ios":"levelo://app?vid=1bf60d7e-82fe-44a6-825b-6387a61e2b5e"},"vehicle_type_id":"4","last_reported":1762880971,"current_range_meters":6800,"station_id":"ce4bhb92rcd13ifvqen0","pricing_plan_id":"cebpf4jnsgd1na2vs0mg"},{"bike_id":"74c3705e-1b0c-4229-b62c-b37dd5c13ca6","system_id":"levelo_inurba_marseille","lat":43.3302,"lon":5.39045,"is_reserved":false,"is_disabled":false,"rental_uris":{"android":"levelo://app?vid=74c3705e-1b0c-4229-b62c-b37dd5c13ca6","ios":"levelo://app?vid=74c3705e-1b0c-4229-b62c-b37dd5c13ca6"},"vehicle_type_id":"4","last_reported":1762880971,"current_range_meters":6800,"station_id":"ce4bhr92rcd13ifvqhrg","pricing_plan_id":"cebpf4jnsgd1na2vs0mg"},{"bike_id":"7f952e2f-a6f7-4222-9a49-5ce2989c3041","system_id":"levelo_inurba_marseille","lat":43.26228,"lon":5.40451,"is_reserved":false,"is_disabled":false,"rental_uris":{"android":"levelo://app?vid=7f952e2f-a6f7-4222-9a49-5ce2989c3041","ios":"levelo://app?vid=7f952e2f-a6f7-4222-9a49-5ce2989c3041"},"vehicle_type_id":"4","last_reported":1762880971,"current_range_meters":6800,"station_id":"ce4bhmh2rcd13ifvqgmg","pricing_plan_id":"cebpf4jnsgd1na2vs0mg"},{"bike_id":"65811392-51d5-46da-bc7e-5133910965c0","system_id":"levelo_inurba_marseille","lat":43.25568,"lon":5.38185,"is_reserved":false,"is_disabled":false,"rental_uris":{"android":"levelo://app?vid=65811392-51d5-46da-bc7e-5133910965c0","ios":"levelo://app?vid=65811392-51d5-46da-bc7e-5133910965c0"},"vehicle_type_id":"4","last_reported":1762880971,"current_range_meters":7200,"station_id":"ce4bhih2rcd13ifvqfs0","pricing_plan_id":"cebpf4jnsgd1na2vs0mg"},{"bike_id":"c620c9fc-398f-4dca-8fdd-2b652311235d","system_id":"levelo_inurba_marseille","lat":43.21188,"lon":5.35076,"is_reserved":false,"is_disabled":true,"rental_uris":{"android":"levelo://app?vid=c620c9fc-398f-4dca-8fdd-2b652311235d","ios":"levelo://app?vid=c620c9fc-398f-4dca-8fdd-2b652311235d"},"vehicle_type_id":"4","last_reported":1762880971,"current_range_meters":7200,"station_id":"st_cvj6sg6p6f1abm77japg","pricing_plan_id":"cebpf4jnsgd1na2vs0mg"},{"bike_id":"dab15632-4477-452f-8b4c-1deb85e781da","system_id":"levelo_inurba_marseille","lat":43.28658,"lon":5.38673,"is_reserved":false,"is_disabled":false,"rental_uris":{"android":"levelo://app?vid=dab15632-4477-452f-8b4c-1deb85e781da","ios":"levelo://app?vid=dab15632-4477-452f-8b4c-1deb85e781da"},"vehicle_type_id":"4","last_reported":1762880971,"current_range_meters":7200,"station_id":"ce4bh492rcd13ifvqdug","pricing_plan_id":"cebpf4jnsgd1na2vs0mg"},{"bike_id":"d315980f-e55c-4a2b-8743-e45ce3622e8d","system_id":"levelo_inurba_marseille","lat":43.28486,"lon":5.48392,"is_reserved":false,"is_disabled":false,"rental_uris":{"android":"levelo://app?vid=d315980f-e55c-4a2b-8743-e45ce3622e8d","ios":"levelo://app?vid=d315980f-e55c-4a2b-8743-e45ce3622e8d"},"vehicle_type_id":"4","last_reported":1762880971,"current_range_meters":7200,"station_id":"st_d3svhcjqgbts73a3dn0g","pricing_plan_id":"cebpf4jnsgd1na2vs0mg"},{"bike_id":"ae8df7c2-dced-4c87-8be6-83ffc212bba9","system_id":"levelo_inurba_marseille","lat":43.28277,"lon":5.35077,"is_reserved":false,"is_disabled":true,"rental_uris":{"android":"levelo://app?vid=ae8df7c2-dced-4c87-8be6-83ffc212bba9","ios":"levelo://app?vid=ae8df7c2-dced-4c87-8be6-83ffc212bba9"},"vehicle_type_id":"4","last_reported":1762880971,"current_range_meters":7200,"station_id":"ce4bhbp2rcd13ifvqerg","pricing_plan_id":"cebpf4jnsgd1na2vs0mg"},{"bike_id":"751868ff-c825-48b0-8266-3d7baa33c8bf","system_id":"levelo_inurba_marseille","lat":43.30413,"lon":5.4129,"is_reserved":false,"is_disabled":false,"rental_uris":{"android":"levelo://app?vid=751868ff-c825-48b0-8266-3d7baa33c8bf","ios":"levelo://app?vid=751868ff-c825-48b0-8266-3d7baa33c8bf"},"vehicle_type_id":"4","last_reported":1762880971,"current_range_meters":7200,"station_id":"ce4bhop2rcd13ifvqh8g","pricing_plan_id":"cebpf4jnsgd1na2vs0mg"},{"bike_id":"5af66010-164f-4000-8a05-501ce8705f13","system_id":"levelo_inurba_marseille","lat":43.26784,"lon":5.3941,"is_reserved":false,"is_disabled":false,"rental_uris":{"android":"levelo://app?vid=5af66010-164f-4000-8a05-501ce8705f13","ios":"levelo://app?vid=5af66010-164f-4000-8a05-501ce8705f13"},"vehicle_type_id":"4","last_reported":1762880971,"current_range_meters":7200,"station_id":"ce4bhh12rcd13ifvqfg0","pricing_plan_id":"cebpf4jnsgd1na2vs0mg"},{"bike_id":"bc2dda00-6b21-48d5-9b5d-72eca115d7a4","system_id":"levelo_inurba_marseille","lat":43.272662,"lon":5.390843,"is_reserved":false,"is_disabled":false,"rental_uris":{"android":"levelo://app?vid=bc2dda00-6b21-48d5-9b5d-72eca115d7a4","ios":"levelo://app?vid=bc2dda00-6b21-48d5-9b5d-72eca115d7a4"},"vehicle_type_id":"4","last_reported":1762880971,"current_range_meters":7200,"station_id":"ce4bhgp2rcd13ifvqfe0","pricing_plan_id":"cebpf4jnsgd1na2vs0mg"},{"bike_id":"99f555dd-b87a-4899-bc4d-afec626c1e28","system_id":"levelo_inurba_marseille","lat":43.28477,"lon":5.48397,"is_reserved":false,"is_disabled":false,"rental_uris":{"android":"levelo://app?vid=99f555dd-b87a-4899-bc4d-afec626c1e28","ios":"levelo://app?vid=99f555dd-b87a-4899-bc4d-afec626c1e28"},"vehicle_type_id":"4","last_reported":1762880971,"current_range_meters":7200,"station_id":"","pricing_plan_id":"cebpf4jnsgd1na2vs0mg"},{"bike_id":"b23f0afe-d72f-4dee-9ac9-6786d3e2c247","system_id":"levelo_inurba_marseille","lat":43.30202,"lon":5.39474,"is_reserved":false,"is_disabled":false,"rental_uris":{"android":"levelo://app?vid=b23f0afe-d72f-4dee-9ac9-6786d3e2c247","ios":"levelo://app?vid=b23f0afe-d72f-4dee-9ac9-6786d3e2c247"},"vehicle_type_id":"4","last_reported":1762880971,"current_range_meters":7200,"station_id":"ce4bh0p2rcd13ifvqd70","pricing_plan_id":"cebpf4jnsgd1na2vs0mg"},{"bike_id":"6ff8d6ec-158d-4282-a8e4-2131b624f1b8","system_id":"levelo_inurba_marseille","lat":43.28443,"lon":5.39196,"is_reserved":false,"is_disabled":false,"rental_uris":{"android":"levelo://app?vid=6ff8d6ec-158d-4282-a8e4-2131b624f1b8","ios":"levelo://app?vid=6ff8d6ec-158d-4282-a8e4-2131b624f1b8"},"vehicle_type_id":"4","last_reported":1762880971,"current_range_meters":8000,"station_id":"ce4bhoh2rcd13ifvqh5g","pricing_plan_id":"cebpf4jnsgd1na2vs0mg"},{"bike_id":"028fb452-5e64-4369-8e07-604a1c27b06f","system_id":"levelo_inurba_marseille","lat":43.295752,"lon":5.399839,"is_reserved":false,"is_disabled":false,"rental_uris":{"android":"levelo://app?vid=028fb452-5e64-4369-8e07-604a1c27b06f","ios":"levelo://app?vid=028fb452-5e64-4369-8e07-604a1c27b06f"},"vehicle_type_id":"4","last_reported":1762880971,"current_range_meters":8000,"station_id":"ce4bh312rcd13ifvqdj0","pricing_plan_id":"cebpf4jnsgd1na2vs0mg"},{"bike_id":"43862595-ed07-462e-9bc3-5a5c7009903e","system_id":"levelo_inurba_marseille","lat":43.29034,"lon":5.38159,"is_reserved":false,"is_disabled":false,"rental_uris":{"android":"levelo://app?vid=43862595-ed07-462e-9bc3-5a5c7009903e","ios":"levelo://app?vid=43862595-ed07-462e-9bc3-5a5c7009903e"},"vehicle_type_id":"4","last_reported":1762880971,"current_range_meters":8000,"station_id":"ce4bh4p2rcd13ifvqe1g","pricing_plan_id":"cebpf4jnsgd1na2vs0mg"},{"bike_id":"1d80f4dd-2352-4315-81af-42c042c7fe37","system_id":"levelo_inurba_marseille","lat":43.28865,"lon":5.39318,"is_reserved":false,"is_disabled":true,"rental_uris":{"android":"levelo://app?vid=1d80f4dd-2352-4315-81af-42c042c7fe37","ios":"levelo://app?vid=1d80f4dd-2352-4315-81af-42c042c7fe37"},"vehicle_type_id":"4","last_reported":1762880971,"current_range_meters":8000,"station_id":"ce4bh2p2rcd13ifvqdi0","pricing_plan_id":"cebpf4jnsgd1na2vs0mg"},{"bike_id":"b2be4fa2-44ee-40dc-acc7-1755c74f1c5d","system_id":"levelo_inurba_marseille","lat":43.29727,"lon":5.41156,"is_reserved":false,"is_disabled":false,"rental_uris":{"android":"levelo://app?vid=b2be4fa2-44ee-40dc-acc7-1755c74f1c5d","ios":"levelo://app?vid=b2be4fa2-44ee-40dc-acc7-1755c74f1c5d"},"vehicle_type_id":"4","last_reported":1762880971,"current_range_meters":8000,"station_id":"","pricing_plan_id":"cebpf4jnsgd1na2vs0mg"},{"bike_id":"1648104b-81bc-4751-ace2-e97e844cd43d","system_id":"levelo_inurba_marseille","lat":43.28474,"lon":5.48414,"is_reserved":false,"is_disabled":false,"rental_uris":{"android":"levelo://app?vid=1648104b-81bc-4751-ace2-e97e844cd43d","ios":"levelo://app?vid=1648104b-81bc-4751-ace2-e97e844cd43d"},"vehicle_type_id":"4","last_reported":1762880971,"current_range_meters":8000,"station_id":"st_d3svhcjqgbts73a3dn0g","pricing_plan_id":"cebpf4jnsgd1na2vs0mg"},{"bike_id":"29af824b-a00b-417a-903c-f7d64d143f7a","system_id":"levelo_inurba_marseille","lat":43.29034,"lon":5.38152,"is_reserved":false,"is_disabled":false,"rental_uris":{"android":"levelo://app?vid=29af824b-a00b-417a-903c-f7d64d143f7a","ios":"levelo://app?vid=29af824b-a00b-417a-903c-f7d64d143f7a"},"vehicle_type_id":"4","last_reported":1762880971,"current_range_meters":8000,"station_id":"ce4bh4p2rcd13ifvqe1g","pricing_plan_id":"cebpf4jnsgd1na2vs0mg"},{"bike_id":"2725b087-3d05-4d6f-a503-5906623e3d26","system_id":"levelo_inurba_marseille","lat":43.2894,"lon":5.36634,"is_reserved":false,"is_disabled":false,"rental_uris":{"android":"levelo://app?vid=2725b087-3d05-4d6f-a503-5906623e3d26","ios":"levelo://app?vid=2725b087-3d05-4d6f-a503-5906623e3d26"},"vehicle_type_id":"4","last_reported":1762880971,"current_range_meters":8400,"station_id":"ce4bhap2rcd13ifvqek0","pricing_plan_id":"cebpf4jnsgd1na2vs0mg"},{"bike_id":"349b2ad9-adea-4dd9-9ac9-fffb121b5424","system_id":"levelo_inurba_marseille","lat":43.29892,"lon":5.37537,"is_reserved":false,"is_disabled":false,"rental_uris":{"android":"levelo://app?vid=349b2ad9-adea-4dd9-9ac9-fffb121b5424","ios":"levelo://app?vid=349b2ad9-adea-4dd9-9ac9-fffb121b5424"},"vehicle_type_id":"4","last_reported":1762880971,"current_range_meters":8400,"station_id":"","pricing_plan_id":"cebpf4jnsgd1na2vs0mg"},{"bike_id":"33d53308-15d2-453e-9c8c-ac5f1a126487","system_id":"levelo_inurba_marseille","lat":43.301975,"lon":5.374196,"is_reserved":false,"is_disabled":false,"rental_uris":{"android":"levelo://app?vid=33d53308-15d2-453e-9c8c-ac5f1a126487","ios":"levelo://app?vid=33d53308-15d2-453e-9c8c-ac5f1a126487"},"vehicle_type_id":"4","last_reported":1762880971,"current_range_meters":8400,"station_id":"ce4bgrp2rcd13ifvqc9g","pricing_plan_id":"cebpf4jnsgd1na2vs0mg"},{"bike_id":"a6bdf21f-a1d2-4def-a11f-b6f07d15f833","system_id":"levelo_inurba_marseille","lat":43.30088,"lon":5.3828,"is_reserved":false,"is_disabled":false,"rental_uris":{"android":"levelo://app?vid=a6bdf21f-a1d2-4def-a11f-b6f07d15f833","ios":"levelo://app?vid=a6bdf21f-a1d2-4def-a11f-b6f07d15f833"},"vehicle_type_id":"4","last_reported":1762880971,"current_range_meters":8400,"station_id":"","pricing_plan_id":"cebpf4jnsgd1na2vs0mg"},{"bike_id":"c1e0ae56-c59e-4176-91f2-71948c8d1ec5","system_id":"levelo_inurba_marseille","lat":43.23195,"lon":5.39978,"is_reserved":false,"is_disabled":false,"rental_uris":{"android":"levelo://app?vid=c1e0ae56-c59e-4176-91f2-71948c8d1ec5","ios":"levelo://app?vid=c1e0ae56-c59e-4176-91f2-71948c8d1ec5"},"vehicle_type_id":"4","last_reported":1762880971,"current_range_meters":8400,"station_id":"ce4bhn12rcd13ifvqgqg","pricing_plan_id":"cebpf4jnsgd1na2vs0mg"},{"bike_id":"b7b24639-a138-4c3e-a3f2-e29fd897f4c6","system_id":"levelo_inurba_marseille","lat":43.26787,"lon":5.39413,"is_reserved":false,"is_disabled":false,"rental_uris":{"android":"levelo://app?vid=b7b24639-a138-4c3e-a3f2-e29fd897f4c6","ios":"levelo://app?vid=b7b24639-a138-4c3e-a3f2-e29fd897f4c6"},"vehicle_type_id":"4","last_reported":1762880971,"current_range_meters":8400,"station_id":"ce4bhh12rcd13ifvqfg0","pricing_plan_id":"cebpf4jnsgd1na2vs0mg"},{"bike_id":"bf1217fc-767d-4f98-8700-f5529b6739d3","system_id":"levelo_inurba_marseille","lat":43.26026,"lon":5.37556,"is_reserved":false,"is_disabled":false,"rental_uris":{"android":"levelo://app?vid=bf1217fc-767d-4f98-8700-f5529b6739d3","ios":"levelo://app?vid=bf1217fc-767d-4f98-8700-f5529b6739d3"},"vehicle_type_id":"4","last_reported":1762880971,"current_range_meters":8400,"station_id":"ce4bhgh2rcd13ifvqfa0","pricing_plan_id":"cebpf4jnsgd1na2vs0mg"},{"bike_id":"1c5fe8ba-9842-4719-b661-cb1488f39053","system_id":"levelo_inurba_marseille","lat":43.27203,"lon":5.39174,"is_reserved":false,"is_disabled":false,"rental_uris":{"android":"levelo://app?vid=1c5fe8ba-9842-4719-b661-cb1488f39053","ios":"levelo://app?vid=1c5fe8ba-9842-4719-b661-cb1488f39053"},"vehicle_type_id":"4","last_reported":1762880971,"current_range_meters":8400,"station_id":"ce4bhhp2rcd13ifvqfm0","pricing_plan_id":"cebpf4jnsgd1na2vs0mg"},{"bike_id":"e0aac1b1-a650-46fd-bdfd-f4f8acfb2d84","system_id":"levelo_inurba_marseille","lat":43.2926,"lon":5.38427,"is_reserved":false,"is_disabled":false,"rental_uris":{"android":"levelo://app?vid=e0aac1b1-a650-46fd-bdfd-f4f8acfb2d84","ios":"levelo://app?vid=e0aac1b1-a650-46fd-bdfd-f4f8acfb2d84"},"vehicle_type_id":"4","last_reported":1762880971,"current_range_meters":8400,"station_id":"ce4bh692rcd13ifvqea0","pricing_plan_id":"cebpf4jnsgd1na2vs0mg"},{"bike_id":"7475b38b-2404-4afa-9250-b595f675d2e9","system_id":"levelo_inurba_marseille","lat":43.29266,"lon":5.37616,"is_reserved":false,"is_disabled":false,"rental_uris":{"android":"levelo://app?vid=7475b38b-2404-4afa-9250-b595f675d2e9","ios":"levelo://app?vid=7475b38b-2404-4afa-9250-b595f675d2e9"},"vehicle_type_id":"4","last_reported":1762880971,"current_range_meters":8800,"station_id":"ce4bgi12rcd13ifvqb80","pricing_plan_id":"cebpf4jnsgd1na2vs0mg"},{"bike_id":"975ade83-1961-4903-932d-80001ced1786","system_id":"levelo_inurba_marseille","lat":43.26025,"lon":5.39176,"is_reserved":false,"is_disabled":false,"rental_uris":{"android":"levelo://app?vid=975ade83-1961-4903-932d-80001ced1786","ios":"levelo://app?vid=975ade83-1961-4903-932d-80001ced1786"},"vehicle_type_id":"4","last_reported":1762880971,"current_range_meters":8800,"station_id":"","pricing_plan_id":"cebpf4jnsgd1na2vs0mg"},{"bike_id":"6e6913ab-5565-44c2-bf61-26805575b411","system_id":"levelo_inurba_marseille","lat":43.29815,"lon":5.44068,"is_reserved":false,"is_disabled":false,"rental_uris":{"android":"levelo://app?vid=6e6913ab-5565-44c2-bf61-26805575b411","ios":"levelo://app?vid=6e6913ab-5565-44c2-bf61-26805575b411"},"vehicle_type_id":"4","last_reported":1762880971,"current_range_meters":8800,"station_id":"st_d3jp68qikq2c7381ktn0","pricing_plan_id":"cebpf4jnsgd1na2vs0mg"},{"bike_id":"795023e9-9f3d-4def-a691-a38f843fae35","system_id":"levelo_inurba_marseille","lat":43.2882,"lon":5.35257,"is_reserved":false,"is_disabled":false,"rental_uris":{"android":"levelo://app?vid=795023e9-9f3d-4def-a691-a38f843fae35","ios":"levelo://app?vid=795023e9-9f3d-4def-a691-a38f843fae35"},"vehicle_type_id":"4","last_reported":1762880971,"current_range_meters":8800,"station_id":"","pricing_plan_id":"cebpf4jnsgd1na2vs0mg"},{"bike_id":"9d1129b1-46e0-4168-bc0d-367bb6c0a6ac","system_id":"levelo_inurba_marseille","lat":43.32127,"lon":5.39206,"is_reserved":false,"is_disabled":false,"rental_uris":{"android":"levelo://app?vid=9d1129b1-46e0-4168-bc0d-367bb6c0a6ac","ios":"levelo://app?vid=9d1129b1-46e0-4168-bc0d-367bb6c0a6ac"},"vehicle_type_id":"4","last_reported":1762880971,"current_range_meters":8800,"station_id":"","pricing_plan_id":"cebpf4jnsgd1na2vs0mg"},{"bike_id":"05269bee-74b3-4c3e-b979-7c486e33ab4b","system_id":"levelo_inurba_marseille","lat":43.29005,"lon":5.38634,"is_reserved":false,"is_disabled":false,"rental_uris":{"android":"levelo://app?vid=05269bee-74b3-4c3e-b979-7c486e33ab4b","ios":"levelo://app?vid=05269bee-74b3-4c3e-b979-7c486e33ab4b"},"vehicle_type_id":"4","last_reported":1762880971,"current_range_meters":8800,"station_id":"ce4bh4p2rcd13ifvqe0g","pricing_plan_id":"cebpf4jnsgd1na2vs0mg"},{"bike_id":"e0467342-2ee8-4c36-aeb9-27d25d94ead5","system_id":"levelo_inurba_marseille","lat":43.28148,"lon":5.42641,"is_reserved":false,"is_disabled":true,"rental_uris":{"android":"levelo://app?vid=e0467342-2ee8-4c36-aeb9-27d25d94ead5","ios":"levelo://app?vid=e0467342-2ee8-4c36-aeb9-27d25d94ead5"},"vehicle_type_id":"4","last_reported":1762880971,"current_range_meters":8800,"station_id":"ce4bhnh2rcd13ifvqgug","pricing_plan_id":"cebpf4jnsgd1na2vs0mg"},{"bike_id":"d14a3070-960e-421d-b5dc-419b8cc88005","system_id":"levelo_inurba_marseille","lat":43.31592,"lon":5.37656,"is_reserved":false,"is_disabled":false,"rental_uris":{"android":"levelo://app?vid=d14a3070-960e-421d-b5dc-419b8cc88005","ios":"levelo://app?vid=d14a3070-960e-421d-b5dc-419b8cc88005"},"vehicle_type_id":"4","last_reported":1762880971,"current_range_meters":8800,"station_id":"","pricing_plan_id":"cebpf4jnsgd1na2vs0mg"},{"bike_id":"f95f3f73-3fb7-4719-9721-184007335752","system_id":"levelo_inurba_marseille","lat":43.27973,"lon":5.411735,"is_reserved":false,"is_disabled":false,"rental_uris":{"android":"levelo://app?vid=f95f3f73-3fb7-4719-9721-184007335752","ios":"levelo://app?vid=f95f3f73-3fb7-4719-9721-184007335752"},"vehicle_type_id":"4","last_reported":1762880971,"current_range_meters":9200,"station_id":"","pricing_plan_id":"cebpf4jnsgd1na2vs0mg"},{"bike_id":"32583d57-1d1f-496c-ab09-f482b6dae40d","system_id":"levelo_inurba_marseille","lat":43.26787,"lon":5.39427,"is_reserved":false,"is_disabled":false,"rental_uris":{"android":"levelo://app?vid=32583d57-1d1f-496c-ab09-f482b6dae40d","ios":"levelo://app?vid=32583d57-1d1f-496c-ab09-f482b6dae40d"},"vehicle_type_id":"4","last_reported":1762880971,"current_range_meters":9200,"station_id":"ce4bhh12rcd13ifvqfg0","pricing_plan_id":"cebpf4jnsgd1na2vs0mg"},{"bike_id":"4b75f4f1-28cd-4ac7-9b5c-b069daf52b29","system_id":"levelo_inurba_marseille","lat":43.3183,"lon":5.37383,"is_reserved":false,"is_disabled":false,"rental_uris":{"android":"levelo://app?vid=4b75f4f1-28cd-4ac7-9b5c-b069daf52b29","ios":"levelo://app?vid=4b75f4f1-28cd-4ac7-9b5c-b069daf52b29"},"vehicle_type_id":"4","last_reported":1762880971,"current_range_meters":9600,"station_id":"","pricing_plan_id":"cebpf4jnsgd1na2vs0mg"},{"bike_id":"5b1f7817-c22f-486d-8ed1-c97f4b0ca584","system_id":"levelo_inurba_marseille","lat":43.29618,"lon":5.37158,"is_reserved":false,"is_disabled":false,"rental_uris":{"android":"levelo://app?vid=5b1f7817-c22f-486d-8ed1-c97f4b0ca584","ios":"levelo://app?vid=5b1f7817-c22f-486d-8ed1-c97f4b0ca584"},"vehicle_type_id":"4","last_reported":1762880971,"current_range_meters":9600,"station_id":"ce4bgnh2rcd13ifvqc0g","pricing_plan_id":"cebpf4jnsgd1na2vs0mg"},{"bike_id":"91a813ff-b80f-4e48-82e3-521039788f3b","system_id":"levelo_inurba_marseille","lat":43.28444,"lon":5.39191,"is_reserved":false,"is_disabled":false,"rental_uris":{"android":"levelo://app?vid=91a813ff-b80f-4e48-82e3-521039788f3b","ios":"levelo://app?vid=91a813ff-b80f-4e48-82e3-521039788f3b"},"vehicle_type_id":"4","last_reported":1762880971,"current_range_meters":9600,"station_id":"ce4bhoh2rcd13ifvqh5g","pricing_plan_id":"cebpf4jnsgd1na2vs0mg"},{"bike_id":"d5e90482-52b8-4620-bfb1-37a35d59873c","system_id":"levelo_inurba_marseille","lat":43.305424,"lon":5.365487,"is_reserved":false,"is_disabled":false,"rental_uris":{"android":"levelo://app?vid=d5e90482-52b8-4620-bfb1-37a35d59873c","ios":"levelo://app?vid=d5e90482-52b8-4620-bfb1-37a35d59873c"},"vehicle_type_id":"4","last_reported":1762880971,"current_range_meters":9600,"station_id":"ce4bgs12rcd13ifvqcag","pricing_plan_id":"cebpf4jnsgd1na2vs0mg"},{"bike_id":"a155c8ee-5c4b-4f9b-8b3b-1ea05bc668f3","system_id":"levelo_inurba_marseille","lat":43.297105,"lon":5.366055,"is_reserved":false,"is_disabled":false,"rental_uris":{"android":"levelo://app?vid=a155c8ee-5c4b-4f9b-8b3b-1ea05bc668f3","ios":"levelo://app?vid=a155c8ee-5c4b-4f9b-8b3b-1ea05bc668f3"},"vehicle_type_id":"4","last_reported":1762880971,"current_range_meters":9600,"station_id":"ce4bgn12rcd13ifvqbt0","pricing_plan_id":"cebpf4jnsgd1na2vs0mg"},{"bike_id":"9c63aadf-a76d-4743-951d-a6ac797f96cf","system_id":"levelo_inurba_marseille","lat":43.29302,"lon":5.37459,"is_reserved":false,"is_disabled":false,"rental_uris":{"android":"levelo://app?vid=9c63aadf-a76d-4743-951d-a6ac797f96cf","ios":"levelo://app?vid=9c63aadf-a76d-4743-951d-a6ac797f96cf"},"vehicle_type_id":"4","last_reported":1762880971,"current_range_meters":9600,"station_id":"ce4bgi12rcd13ifvqb70","pricing_plan_id":"cebpf4jnsgd1na2vs0mg"},{"bike_id":"714b83e0-c2ea-4a3f-b16e-7d5e2c8409e5","system_id":"levelo_inurba_marseille","lat":43.29263,"lon":5.37633,"is_reserved":false,"is_disabled":false,"rental_uris":{"android":"levelo://app?vid=714b83e0-c2ea-4a3f-b16e-7d5e2c8409e5","ios":"levelo://app?vid=714b83e0-c2ea-4a3f-b16e-7d5e2c8409e5"},"vehicle_type_id":"4","last_reported":1762880971,"current_range_meters":9600,"station_id":"ce4bgi12rcd13ifvqb80","pricing_plan_id":"cebpf4jnsgd1na2vs0mg"},{"bike_id":"d71525b8-a218-47a5-81f5-3a80a51768a9","system_id":"levelo_inurba_marseille","lat":43.288452,"lon":5.393072,"is_reserved":false,"is_disabled":false,"rental_uris":{"android":"levelo://app?vid=d71525b8-a218-47a5-81f5-3a80a51768a9","ios":"levelo://app?vid=d71525b8-a218-47a5-81f5-3a80a51768a9"},"vehicle_type_id":"4","last_reported":1762880971,"current_range_meters":9600,"station_id":"ce4bh2p2rcd13ifvqdi0","pricing_plan_id":"cebpf4jnsgd1na2vs0mg"},{"bike_id":"5369ca34-7723-43dc-a1d0-03c4269b2e4a","system_id":"levelo_inurba_marseille","lat":43.31282,"lon":5.37803,"is_reserved":false,"is_disabled":false,"rental_uris":{"android":"levelo://app?vid=5369ca34-7723-43dc-a1d0-03c4269b2e4a","ios":"levelo://app?vid=5369ca34-7723-43dc-a1d0-03c4269b2e4a"},"vehicle_type_id":"4","last_reported":1762880971,"current_range_meters":10000,"station_id":"","pricing_plan_id":"cebpf4jnsgd1na2vs0mg"},{"bike_id":"d8dce67c-858b-4859-b3b4-316c426e388a","system_id":"levelo_inurba_marseille","lat":43.296206,"lon":5.377178,"is_reserved":false,"is_disabled":false,"rental_uris":{"android":"levelo://app?vid=d8dce67c-858b-4859-b3b4-316c426e388a","ios":"levelo://app?vid=d8dce67c-858b-4859-b3b4-316c426e388a"},"vehicle_type_id":"4","last_reported":1762880971,"current_range_meters":10000,"station_id":"ce4bgi92rcd13ifvqb90","pricing_plan_id":"cebpf4jnsgd1na2vs0mg"},{"bike_id":"69aff1d4-05e6-4619-92db-0e4a943e4f45","system_id":"levelo_inurba_marseille","lat":43.30406,"lon":5.37923,"is_reserved":false,"is_disabled":true,"rental_uris":{"android":"levelo://app?vid=69aff1d4-05e6-4619-92db-0e4a943e4f45","ios":"levelo://app?vid=69aff1d4-05e6-4619-92db-0e4a943e4f45"},"vehicle_type_id":"4","last_reported":1762880971,"current_range_meters":10000,"station_id":"","pricing_plan_id":"cebpf4jnsgd1na2vs0mg"},{"bike_id":"38060efd-ed0d-4fc8-a558-2a407ef2a801","system_id":"levelo_inurba_marseille","lat":43.31705,"lon":5.43701,"is_reserved":false,"is_disabled":false,"rental_uris":{"android":"levelo://app?vid=38060efd-ed0d-4fc8-a558-2a407ef2a801","ios":"levelo://app?vid=38060efd-ed0d-4fc8-a558-2a407ef2a801"},"vehicle_type_id":"4","last_reported":1762880971,"current_range_meters":10000,"station_id":"ce4bhp92rcd13ifvqhcg","pricing_plan_id":"cebpf4jnsgd1na2vs0mg"},{"bike_id":"4a7a65d3-3d40-4b69-9b4f-3fe0fc3284a4","system_id":"levelo_inurba_marseille","lat":43.257206,"lon":5.411172,"is_reserved":false,"is_disabled":false,"rental_uris":{"android":"levelo://app?vid=4a7a65d3-3d40-4b69-9b4f-3fe0fc3284a4","ios":"levelo://app?vid=4a7a65d3-3d40-4b69-9b4f-3fe0fc3284a4"},"vehicle_type_id":"4","last_reported":1762880971,"current_range_meters":10000,"station_id":"ce4bhkp2rcd13ifvqgd0","pricing_plan_id":"cebpf4jnsgd1na2vs0mg"},{"bike_id":"97e79dff-8ff6-43af-8757-e90bf7f94df4","system_id":"levelo_inurba_marseille","lat":43.29785,"lon":5.39337,"is_reserved":false,"is_disabled":false,"rental_uris":{"android":"levelo://app?vid=97e79dff-8ff6-43af-8757-e90bf7f94df4","ios":"levelo://app?vid=97e79dff-8ff6-43af-8757-e90bf7f94df4"},"vehicle_type_id":"4","last_reported":1762880971,"current_range_meters":10000,"station_id":"chh1huq6cuj3fo74tm60","pricing_plan_id":"cebpf4jnsgd1na2vs0mg"},{"bike_id":"5bb896f2-dec6-4193-88dc-e86ff5a402fd","system_id":"levelo_inurba_marseille","lat":43.29806,"lon":5.44067,"is_reserved":false,"is_disabled":false,"rental_uris":{"android":"levelo://app?vid=5bb896f2-dec6-4193-88dc-e86ff5a402fd","ios":"levelo://app?vid=5bb896f2-dec6-4193-88dc-e86ff5a402fd"},"vehicle_type_id":"4","last_reported":1762880971,"current_range_meters":10000,"station_id":"st_d3jp68qikq2c7381ktn0","pricing_plan_id":"cebpf4jnsgd1na2vs0mg"},{"bike_id":"4585539a-ba80-465b-83a6-4a31cabac938","system_id":"levelo_inurba_marseille","lat":43.28475,"lon":5.48386,"is_reserved":false,"is_disabled":false,"rental_uris":{"android":"levelo://app?vid=4585539a-ba80-465b-83a6-4a31cabac938","ios":"levelo://app?vid=4585539a-ba80-465b-83a6-4a31cabac938"},"vehicle_type_id":"4","last_reported":1762880971,"current_range_meters":10000,"station_id":"st_d3svhcjqgbts73a3dn0g","pricing_plan_id":"cebpf4jnsgd1na2vs0mg"},{"bike_id":"1f695cae-a6a9-4caa-90c0-69c2e5d6f05d","system_id":"levelo_inurba_marseille","lat":43.28668,"lon":5.38661,"is_reserved":false,"is_disabled":false,"rental_uris":{"android":"levelo://app?vid=1f695cae-a6a9-4caa-90c0-69c2e5d6f05d","ios":"levelo://app?vid=1f695cae-a6a9-4caa-90c0-69c2e5d6f05d"},"vehicle_type_id":"4","last_reported":1762880971,"current_range_meters":10000,"station_id":"ce4bh492rcd13ifvqdug","pricing_plan_id":"cebpf4jnsgd1na2vs0mg"},{"bike_id":"8b18e304-05bd-4937-a225-c448b20070e8","system_id":"levelo_inurba_marseille","lat":43.30662,"lon":5.39489,"is_reserved":false,"is_disabled":false,"rental_uris":{"android":"levelo://app?vid=8b18e304-05bd-4937-a225-c448b20070e8","ios":"levelo://app?vid=8b18e304-05bd-4937-a225-c448b20070e8"},"vehicle_type_id":"4","last_reported":1762880971,"current_range_meters":10800,"station_id":"ce4bh012rcd13ifvqcv0","pricing_plan_id":"cebpf4jnsgd1na2vs0mg"},{"bike_id":"a290718c-4812-4883-a23c-f42ad67406da","system_id":"levelo_inurba_marseille","lat":43.29285,"lon":5.40121,"is_reserved":false,"is_disabled":false,"rental_uris":{"android":"levelo://app?vid=a290718c-4812-4883-a23c-f42ad67406da","ios":"levelo://app?vid=a290718c-4812-4883-a23c-f42ad67406da"},"vehicle_type_id":"4","last_reported":1762880971,"current_range_meters":10800,"station_id":"ce4bh312rcd13ifvqdk0","pricing_plan_id":"cebpf4jnsgd1na2vs0mg"},{"bike_id":"bcd03af1-0a6f-420f-8cd8-e76f739ecf22","system_id":"levelo_inurba_marseille","lat":43.25572,"lon":5.38256,"is_reserved":false,"is_disabled":false,"rental_uris":{"android":"levelo://app?vid=bcd03af1-0a6f-420f-8cd8-e76f739ecf22","ios":"levelo://app?vid=bcd03af1-0a6f-420f-8cd8-e76f739ecf22"},"vehicle_type_id":"4","last_reported":1762880971,"current_range_meters":10800,"station_id":"ce4bhih2rcd13ifvqfs0","pricing_plan_id":"cebpf4jnsgd1na2vs0mg"},{"bike_id":"023a9488-ca9a-4757-94c6-fa4941944e92","system_id":"levelo_inurba_marseille","lat":43.269505,"lon":5.386386,"is_reserved":false,"is_disabled":false,"rental_uris":{"android":"levelo://app?vid=023a9488-ca9a-4757-94c6-fa4941944e92","ios":"levelo://app?vid=023a9488-ca9a-4757-94c6-fa4941944e92"},"vehicle_type_id":"4","last_reported":1762880971,"current_range_meters":10800,"station_id":"ce4bhh92rcd13ifvqfh0","pricing_plan_id":"cebpf4jnsgd1na2vs0mg"},{"bike_id":"ba55720e-a746-47fa-9d55-2b227006d988","system_id":"levelo_inurba_marseille","lat":43.28869,"lon":5.42518,"is_reserved":false,"is_disabled":false,"rental_uris":{"android":"levelo://app?vid=ba55720e-a746-47fa-9d55-2b227006d988","ios":"levelo://app?vid=ba55720e-a746-47fa-9d55-2b227006d988"},"vehicle_type_id":"4","last_reported":1762880971,"current_range_meters":10800,"station_id":"st_d3b462108ojc7389ooeg","pricing_plan_id":"cebpf4jnsgd1na2vs0mg"},{"bike_id":"a08765e5-c52c-45c9-9cd5-bf6d0b8a23dd","system_id":"levelo_inurba_marseille","lat":43.33156,"lon":5.37714,"is_reserved":false,"is_disabled":false,"rental_uris":{"android":"levelo://app?vid=a08765e5-c52c-45c9-9cd5-bf6d0b8a23dd","ios":"levelo://app?vid=a08765e5-c52c-45c9-9cd5-bf6d0b8a23dd"},"vehicle_type_id":"4","last_reported":1762880971,"current_range_meters":10800,"station_id":"st_d46cu089ee8s73dldbu0","pricing_plan_id":"cebpf4jnsgd1na2vs0mg"},{"bike_id":"7c401b09-cd4c-4237-93c3-074ee624f605","system_id":"levelo_inurba_marseille","lat":43.289341,"lon":5.366425,"is_reserved":false,"is_disabled":false,"rental_uris":{"android":"levelo://app?vid=7c401b09-cd4c-4237-93c3-074ee624f605","ios":"levelo://app?vid=7c401b09-cd4c-4237-93c3-074ee624f605"},"vehicle_type_id":"4","last_reported":1762880971,"current_range_meters":10800,"station_id":"ce4bhap2rcd13ifvqek0","pricing_plan_id":"cebpf4jnsgd1na2vs0mg"},{"bike_id":"fb4f8673-71b5-43fc-8793-6562284f997a","system_id":"levelo_inurba_marseille","lat":43.2481,"lon":5.37461,"is_reserved":false,"is_disabled":false,"rental_uris":{"android":"levelo://app?vid=fb4f8673-71b5-43fc-8793-6562284f997a","ios":"levelo://app?vid=fb4f8673-71b5-43fc-8793-6562284f997a"},"vehicle_type_id":"4","last_reported":1762880971,"current_range_meters":10800,"station_id":"ce4bhgh2rcd13ifvqfb0","pricing_plan_id":"cebpf4jnsgd1na2vs0mg"},{"bike_id":"bcec3f19-205d-4d8d-af41-1729aa329635","system_id":"levelo_inurba_marseille","lat":43.2794,"lon":5.41031,"is_reserved":false,"is_disabled":false,"rental_uris":{"android":"levelo://app?vid=bcec3f19-205d-4d8d-af41-1729aa329635","ios":"levelo://app?vid=bcec3f19-205d-4d8d-af41-1729aa329635"},"vehicle_type_id":"4","last_reported":1762880971,"current_range_meters":10800,"station_id":"ce4bhnp2rcd13ifvqh0g","pricing_plan_id":"cebpf4jnsgd1na2vs0mg"},{"bike_id":"f400308d-4673-4c2f-9a1c-6ef20cd690c8","system_id":"levelo_inurba_marseille","lat":43.30419,"lon":5.39732,"is_reserved":false,"is_disabled":false,"rental_uris":{"android":"levelo://app?vid=f400308d-4673-4c2f-9a1c-6ef20cd690c8","ios":"levelo://app?vid=f400308d-4673-4c2f-9a1c-6ef20cd690c8"},"vehicle_type_id":"4","last_reported":1762880971,"current_range_meters":10800,"station_id":"ce4bh092rcd13ifvqd20","pricing_plan_id":"cebpf4jnsgd1na2vs0mg"},{"bike_id":"27a7d048-2a45-4c79-a6cf-192cefcd7707","system_id":"levelo_inurba_marseille","lat":43.28354,"lon":5.38101,"is_reserved":false,"is_disabled":false,"rental_uris":{"android":"levelo://app?vid=27a7d048-2a45-4c79-a6cf-192cefcd7707","ios":"levelo://app?vid=27a7d048-2a45-4c79-a6cf-192cefcd7707"},"vehicle_type_id":"4","last_reported":1762880971,"current_range_meters":10800,"station_id":"ce4bh412rcd13ifvqdr0","pricing_plan_id":"cebpf4jnsgd1na2vs0mg"},{"bike_id":"318f6543-9344-4a97-979a-7d9e259c430c","system_id":"levelo_inurba_marseille","lat":43.23181,"lon":5.39984,"is_reserved":false,"is_disabled":false,"rental_uris":{"android":"levelo://app?vid=318f6543-9344-4a97-979a-7d9e259c430c","ios":"levelo://app?vid=318f6543-9344-4a97-979a-7d9e259c430c"},"vehicle_type_id":"4","last_reported":1762880971,"current_range_meters":10800,"station_id":"ce4bhn12rcd13ifvqgqg","pricing_plan_id":"cebpf4jnsgd1na2vs0mg"},{"bike_id":"353ce071-ea56-4671-a10e-73550dbca9c6","system_id":"levelo_inurba_marseille","lat":43.30886,"lon":5.39627,"is_reserved":false,"is_disabled":false,"rental_uris":{"android":"levelo://app?vid=353ce071-ea56-4671-a10e-73550dbca9c6","ios":"levelo://app?vid=353ce071-ea56-4671-a10e-73550dbca9c6"},"vehicle_type_id":"4","last_reported":1762880971,"current_range_meters":11200,"station_id":"ce4bh012rcd13ifvqcv0","pricing_plan_id":"cebpf4jnsgd1na2vs0mg"},{"bike_id":"91ef65ae-45d5-44c4-81b6-d54ff8ce450b","system_id":"levelo_inurba_marseille","lat":43.3008,"lon":5.39078,"is_reserved":false,"is_disabled":false,"rental_uris":{"android":"levelo://app?vid=91ef65ae-45d5-44c4-81b6-d54ff8ce450b","ios":"levelo://app?vid=91ef65ae-45d5-44c4-81b6-d54ff8ce450b"},"vehicle_type_id":"4","last_reported":1762880971,"current_range_meters":11200,"station_id":"ce4bh192rcd13ifvqdb0","pricing_plan_id":"cebpf4jnsgd1na2vs0mg"},{"bike_id":"bc21abd3-93e5-45d4-b191-2f4605deeced","system_id":"levelo_inurba_marseille","lat":43.25578,"lon":5.38232,"is_reserved":false,"is_disabled":false,"rental_uris":{"android":"levelo://app?vid=bc21abd3-93e5-45d4-b191-2f4605deeced","ios":"levelo://app?vid=bc21abd3-93e5-45d4-b191-2f4605deeced"},"vehicle_type_id":"4","last_reported":1762880971,"current_range_meters":11200,"station_id":"ce4bhih2rcd13ifvqfs0","pricing_plan_id":"cebpf4jnsgd1na2vs0mg"},{"bike_id":"8d677937-1824-4e06-ac08-f6ef15e14e46","system_id":"levelo_inurba_marseille","lat":43.32544,"lon":5.41421,"is_reserved":false,"is_disabled":false,"rental_uris":{"android":"levelo://app?vid=8d677937-1824-4e06-ac08-f6ef15e14e46","ios":"levelo://app?vid=8d677937-1824-4e06-ac08-f6ef15e14e46"},"vehicle_type_id":"4","last_reported":1762880971,"current_range_meters":11200,"station_id":"ce4bhq12rcd13ifvqhhg","pricing_plan_id":"cebpf4jnsgd1na2vs0mg"},{"bike_id":"38c922e6-37cd-47dc-af88-f07475112c2a","system_id":"levelo_inurba_marseille","lat":43.32121,"lon":5.38849,"is_reserved":false,"is_disabled":false,"rental_uris":{"android":"levelo://app?vid=38c922e6-37cd-47dc-af88-f07475112c2a","ios":"levelo://app?vid=38c922e6-37cd-47dc-af88-f07475112c2a"},"vehicle_type_id":"4","last_reported":1762880971,"current_range_meters":11200,"station_id":"","pricing_plan_id":"cebpf4jnsgd1na2vs0mg"},{"bike_id":"ca73275c-4a52-4fe8-98c3-ea7d6c5aabfe","system_id":"levelo_inurba_marseille","lat":43.28846,"lon":5.39319,"is_reserved":false,"is_disabled":false,"rental_uris":{"android":"levelo://app?vid=ca73275c-4a52-4fe8-98c3-ea7d6c5aabfe","ios":"levelo://app?vid=ca73275c-4a52-4fe8-98c3-ea7d6c5aabfe"},"vehicle_type_id":"4","last_reported":1762880971,"current_range_meters":11200,"station_id":"ce4bh2p2rcd13ifvqdi0","pricing_plan_id":"cebpf4jnsgd1na2vs0mg"},{"bike_id":"a4b2eea4-2861-48eb-9220-4eb2eb8b93a8","system_id":"levelo_inurba_marseille","lat":43.30839,"lon":5.37017,"is_reserved":false,"is_disabled":false,"rental_uris":{"android":"levelo://app?vid=a4b2eea4-2861-48eb-9220-4eb2eb8b93a8","ios":"levelo://app?vid=a4b2eea4-2861-48eb-9220-4eb2eb8b93a8"},"vehicle_type_id":"4","last_reported":1762880971,"current_range_meters":11200,"station_id":"","pricing_plan_id":"cebpf4jnsgd1na2vs0mg"},{"bike_id":"d54952de-c2c9-4463-b55a-b35b39e9463c","system_id":"levelo_inurba_marseille","lat":43.29812,"lon":5.44071,"is_reserved":false,"is_disabled":false,"rental_uris":{"android":"levelo://app?vid=d54952de-c2c9-4463-b55a-b35b39e9463c","ios":"levelo://app?vid=d54952de-c2c9-4463-b55a-b35b39e9463c"},"vehicle_type_id":"4","last_reported":1762880971,"current_range_meters":11200,"station_id":"st_d3jp68qikq2c7381ktn0","pricing_plan_id":"cebpf4jnsgd1na2vs0mg"},{"bike_id":"47ffe144-c853-4169-950c-409ab9c7e87e","system_id":"levelo_inurba_marseille","lat":43.25715,"lon":5.41125,"is_reserved":false,"is_disabled":false,"rental_uris":{"android":"levelo://app?vid=47ffe144-c853-4169-950c-409ab9c7e87e","ios":"levelo://app?vid=47ffe144-c853-4169-950c-409ab9c7e87e"},"vehicle_type_id":"4","last_reported":1762880971,"current_range_meters":11200,"station_id":"ce4bhkp2rcd13ifvqgd0","pricing_plan_id":"cebpf4jnsgd1na2vs0mg"},{"bike_id":"1b5be03e-768e-46f0-b152-16af9f81cff1","system_id":"levelo_inurba_marseille","lat":43.309322,"lon":5.401366,"is_reserved":false,"is_disabled":true,"rental_uris":{"android":"levelo://app?vid=1b5be03e-768e-46f0-b152-16af9f81cff1","ios":"levelo://app?vid=1b5be03e-768e-46f0-b152-16af9f81cff1"},"vehicle_type_id":"4","last_reported":1762880971,"current_range_meters":11600,"station_id":"","pricing_plan_id":"cebpf4jnsgd1na2vs0mg"},{"bike_id":"80b08912-5c5c-477a-8ae7-5e4dcb821efd","system_id":"levelo_inurba_marseille","lat":43.29257,"lon":5.3845,"is_reserved":false,"is_disabled":false,"rental_uris":{"android":"levelo://app?vid=80b08912-5c5c-477a-8ae7-5e4dcb821efd","ios":"levelo://app?vid=80b08912-5c5c-477a-8ae7-5e4dcb821efd"},"vehicle_type_id":"4","last_reported":1762880971,"current_range_meters":11600,"station_id":"ce4bh692rcd13ifvqea0","pricing_plan_id":"cebpf4jnsgd1na2vs0mg"},{"bike_id":"d733f239-cb99-4d2d-ae8f-ae61393623bf","system_id":"levelo_inurba_marseille","lat":43.28939,"lon":5.39632,"is_reserved":false,"is_disabled":false,"rental_uris":{"android":"levelo://app?vid=d733f239-cb99-4d2d-ae8f-ae61393623bf","ios":"levelo://app?vid=d733f239-cb99-4d2d-ae8f-ae61393623bf"},"vehicle_type_id":"4","last_reported":1762880971,"current_range_meters":11600,"station_id":"ce4bh3h2rcd13ifvqdn0","pricing_plan_id":"cebpf4jnsgd1na2vs0mg"},{"bike_id":"c0fea017-2183-4bea-8e99-5ce3eb72b868","system_id":"levelo_inurba_marseille","lat":43.31674,"lon":5.37848,"is_reserved":false,"is_disabled":false,"rental_uris":{"android":"levelo://app?vid=c0fea017-2183-4bea-8e99-5ce3eb72b868","ios":"levelo://app?vid=c0fea017-2183-4bea-8e99-5ce3eb72b868"},"vehicle_type_id":"4","last_reported":1762880971,"current_range_meters":11600,"station_id":"","pricing_plan_id":"cebpf4jnsgd1na2vs0mg"},{"bike_id":"3871ebcf-4a28-4b22-beb9-9220e15dd9fe","system_id":"levelo_inurba_marseille","lat":43.28486,"lon":5.48395,"is_reserved":false,"is_disabled":false,"rental_uris":{"android":"levelo://app?vid=3871ebcf-4a28-4b22-beb9-9220e15dd9fe","ios":"levelo://app?vid=3871ebcf-4a28-4b22-beb9-9220e15dd9fe"},"vehicle_type_id":"4","last_reported":1762880971,"current_range_meters":11600,"station_id":"st_d3svhcjqgbts73a3dn0g","pricing_plan_id":"cebpf4jnsgd1na2vs0mg"},{"bike_id":"75026184-39d3-4407-a2f5-f0473b7dfb4b","system_id":"levelo_inurba_marseille","lat":43.29595,"lon":5.38101,"is_reserved":false,"is_disabled":false,"rental_uris":{"android":"levelo://app?vid=75026184-39d3-4407-a2f5-f0473b7dfb4b","ios":"levelo://app?vid=75026184-39d3-4407-a2f5-f0473b7dfb4b"},"vehicle_type_id":"4","last_reported":1762880971,"current_range_meters":11600,"station_id":"ce4bgl12rcd13ifvqbo0","pricing_plan_id":"cebpf4jnsgd1na2vs0mg"},{"bike_id":"02be07db-ff42-4740-a05e-a780174d3e68","system_id":"levelo_inurba_marseille","lat":43.29255,"lon":5.40906,"is_reserved":false,"is_disabled":false,"rental_uris":{"android":"levelo://app?vid=02be07db-ff42-4740-a05e-a780174d3e68","ios":"levelo://app?vid=02be07db-ff42-4740-a05e-a780174d3e68"},"vehicle_type_id":"4","last_reported":1762880971,"current_range_meters":11600,"station_id":"ce4bh192rcd13ifvqdc0","pricing_plan_id":"cebpf4jnsgd1na2vs0mg"},{"bike_id":"1524b299-abbd-4873-8335-1c21d2a3bd3d","system_id":"levelo_inurba_marseille","lat":43.29627,"lon":5.40596,"is_reserved":false,"is_disabled":false,"rental_uris":{"android":"levelo://app?vid=1524b299-abbd-4873-8335-1c21d2a3bd3d","ios":"levelo://app?vid=1524b299-abbd-4873-8335-1c21d2a3bd3d"},"vehicle_type_id":"4","last_reported":1762880971,"current_range_meters":11600,"station_id":"ce4bh0h2rcd13ifvqd60","pricing_plan_id":"cebpf4jnsgd1na2vs0mg"},{"bike_id":"b91ce995-e953-483a-aebb-3a47463c8468","system_id":"levelo_inurba_marseille","lat":43.28937,"lon":5.39626,"is_reserved":false,"is_disabled":false,"rental_uris":{"android":"levelo://app?vid=b91ce995-e953-483a-aebb-3a47463c8468","ios":"levelo://app?vid=b91ce995-e953-483a-aebb-3a47463c8468"},"vehicle_type_id":"4","last_reported":1762880971,"current_range_meters":12000,"station_id":"ce4bh3h2rcd13ifvqdn0","pricing_plan_id":"cebpf4jnsgd1na2vs0mg"},{"bike_id":"4a392cd4-0e9e-4acc-9ed4-f14baadd93d7","system_id":"levelo_inurba_marseille","lat":43.32098,"lon":5.36796,"is_reserved":false,"is_disabled":false,"rental_uris":{"android":"levelo://app?vid=4a392cd4-0e9e-4acc-9ed4-f14baadd93d7","ios":"levelo://app?vid=4a392cd4-0e9e-4acc-9ed4-f14baadd93d7"},"vehicle_type_id":"4","last_reported":1762880971,"current_range_meters":12000,"station_id":"ce4bhrh2rcd13ifvqhug","pricing_plan_id":"cebpf4jnsgd1na2vs0mg"},{"bike_id":"2006bbb8-fb89-413d-880b-725e383385e2","system_id":"levelo_inurba_marseille","lat":43.29585,"lon":5.3772,"is_reserved":false,"is_disabled":false,"rental_uris":{"android":"levelo://app?vid=2006bbb8-fb89-413d-880b-725e383385e2","ios":"levelo://app?vid=2006bbb8-fb89-413d-880b-725e383385e2"},"vehicle_type_id":"4","last_reported":1762880971,"current_range_meters":12000,"station_id":"ce4bgi92rcd13ifvqb90","pricing_plan_id":"cebpf4jnsgd1na2vs0mg"},{"bike_id":"7840ddce-9a02-42d5-9858-46364a019b08","system_id":"levelo_inurba_marseille","lat":43.28615,"lon":5.35103,"is_reserved":false,"is_disabled":false,"rental_uris":{"android":"levelo://app?vid=7840ddce-9a02-42d5-9858-46364a019b08","ios":"levelo://app?vid=7840ddce-9a02-42d5-9858-46364a019b08"},"vehicle_type_id":"4","last_reported":1762880971,"current_range_meters":12000,"station_id":"ce4bhch2rcd13ifvqeug","pricing_plan_id":"cebpf4jnsgd1na2vs0mg"},{"bike_id":"172a1479-a5a8-4a14-96d6-945fbc77b377","system_id":"levelo_inurba_marseille","lat":43.319941,"lon":5.381506,"is_reserved":false,"is_disabled":false,"rental_uris":{"android":"levelo://app?vid=172a1479-a5a8-4a14-96d6-945fbc77b377","ios":"levelo://app?vid=172a1479-a5a8-4a14-96d6-945fbc77b377"},"vehicle_type_id":"4","last_reported":1762880971,"current_range_meters":12000,"station_id":"ce4bhr12rcd13ifvqhpg","pricing_plan_id":"cebpf4jnsgd1na2vs0mg"},{"bike_id":"845dad78-96c2-412d-8a38-276681d38b77","system_id":"levelo_inurba_marseille","lat":43.28851,"lon":5.39303,"is_reserved":false,"is_disabled":false,"rental_uris":{"android":"levelo://app?vid=845dad78-96c2-412d-8a38-276681d38b77","ios":"levelo://app?vid=845dad78-96c2-412d-8a38-276681d38b77"},"vehicle_type_id":"4","last_reported":1762880971,"current_range_meters":12000,"station_id":"ce4bh2p2rcd13ifvqdi0","pricing_plan_id":"cebpf4jnsgd1na2vs0mg"},{"bike_id":"1398909a-7bfa-4114-b0bc-f351da08e34c","system_id":"levelo_inurba_marseille","lat":43.30547,"lon":5.38414,"is_reserved":false,"is_disabled":false,"rental_uris":{"android":"levelo://app?vid=1398909a-7bfa-4114-b0bc-f351da08e34c","ios":"levelo://app?vid=1398909a-7bfa-4114-b0bc-f351da08e34c"},"vehicle_type_id":"4","last_reported":1762880971,"current_range_meters":12000,"station_id":"ce4bgg92rcd13ifvqb30","pricing_plan_id":"cebpf4jnsgd1na2vs0mg"},{"bike_id":"7d4abc04-7c1b-4846-b2ca-4866f95c0d50","system_id":"levelo_inurba_marseille","lat":43.287076,"lon":5.37385,"is_reserved":false,"is_disabled":false,"rental_uris":{"android":"levelo://app?vid=7d4abc04-7c1b-4846-b2ca-4866f95c0d50","ios":"levelo://app?vid=7d4abc04-7c1b-4846-b2ca-4866f95c0d50"},"vehicle_type_id":"4","last_reported":1762880971,"current_range_meters":12000,"station_id":"ce4bgh92rcd13ifvqb40","pricing_plan_id":"cebpf4jnsgd1na2vs0mg"},{"bike_id":"c4903073-081a-48f2-b6ac-2410f85fa901","system_id":"levelo_inurba_marseille","lat":43.271647,"lon":5.409889,"is_reserved":false,"is_disabled":false,"rental_uris":{"android":"levelo://app?vid=c4903073-081a-48f2-b6ac-2410f85fa901","ios":"levelo://app?vid=c4903073-081a-48f2-b6ac-2410f85fa901"},"vehicle_type_id":"4","last_reported":1762880971,"current_range_meters":12000,"station_id":"ce4bhl12rcd13ifvqgf0","pricing_plan_id":"cebpf4jnsgd1na2vs0mg"},{"bike_id":"1402bd77-2690-4d77-a67d-0352eb1e81b2","system_id":"levelo_inurba_marseille","lat":43.25581,"lon":5.38243,"is_reserved":false,"is_disabled":false,"rental_uris":{"android":"levelo://app?vid=1402bd77-2690-4d77-a67d-0352eb1e81b2","ios":"levelo://app?vid=1402bd77-2690-4d77-a67d-0352eb1e81b2"},"vehicle_type_id":"4","last_reported":1762880971,"current_range_meters":12400,"station_id":"ce4bhih2rcd13ifvqfs0","pricing_plan_id":"cebpf4jnsgd1na2vs0mg"},{"bike_id":"69bcc9c9-16ef-4b05-a281-a3669c844e4b","system_id":"levelo_inurba_marseille","lat":43.22531,"lon":5.34843,"is_reserved":false,"is_disabled":false,"rental_uris":{"android":"levelo://app?vid=69bcc9c9-16ef-4b05-a281-a3669c844e4b","ios":"levelo://app?vid=69bcc9c9-16ef-4b05-a281-a3669c844e4b"},"vehicle_type_id":"4","last_reported":1762880971,"current_range_meters":12400,"station_id":"","pricing_plan_id":"cebpf4jnsgd1na2vs0mg"},{"bike_id":"06c0d48b-f151-4a2b-8a38-f6285208153c","system_id":"levelo_inurba_marseille","lat":43.28943,"lon":5.36639,"is_reserved":false,"is_disabled":false,"rental_uris":{"android":"levelo://app?vid=06c0d48b-f151-4a2b-8a38-f6285208153c","ios":"levelo://app?vid=06c0d48b-f151-4a2b-8a38-f6285208153c"},"vehicle_type_id":"4","last_reported":1762880971,"current_range_meters":12400,"station_id":"ce4bhap2rcd13ifvqek0","pricing_plan_id":"cebpf4jnsgd1na2vs0mg"},{"bike_id":"1152c84a-a055-4f29-9b92-843214c87d0f","system_id":"levelo_inurba_marseille","lat":43.225563,"lon":5.41632,"is_reserved":false,"is_disabled":false,"rental_uris":{"android":"levelo://app?vid=1152c84a-a055-4f29-9b92-843214c87d0f","ios":"levelo://app?vid=1152c84a-a055-4f29-9b92-843214c87d0f"},"vehicle_type_id":"4","last_reported":1762880971,"current_range_meters":12400,"station_id":"st_d2o4gvlbi1j2169b742g","pricing_plan_id":"cebpf4jnsgd1na2vs0mg"},{"bike_id":"722f7e0f-46d9-4be9-997c-6a53c83a7527","system_id":"levelo_inurba_marseille","lat":43.2805,"lon":5.36933,"is_reserved":false,"is_disabled":true,"rental_uris":{"android":"levelo://app?vid=722f7e0f-46d9-4be9-997c-6a53c83a7527","ios":"levelo://app?vid=722f7e0f-46d9-4be9-997c-6a53c83a7527"},"vehicle_type_id":"4","last_reported":1762880971,"current_range_meters":12400,"station_id":"ce4bha12rcd13ifvqef0","pricing_plan_id":"cebpf4jnsgd1na2vs0mg"},{"bike_id":"9ef5a00e-b5a8-46e1-a631-607c690e0e8a","system_id":"levelo_inurba_marseille","lat":43.3211,"lon":5.3677,"is_reserved":false,"is_disabled":false,"rental_uris":{"android":"levelo://app?vid=9ef5a00e-b5a8-46e1-a631-607c690e0e8a","ios":"levelo://app?vid=9ef5a00e-b5a8-46e1-a631-607c690e0e8a"},"vehicle_type_id":"4","last_reported":1762880971,"current_range_meters":12400,"station_id":"ce4bhrh2rcd13ifvqhug","pricing_plan_id":"cebpf4jnsgd1na2vs0mg"},{"bike_id":"c4e75e32-ce41-4ab7-b864-6ecb6b2ffa08","system_id":"levelo_inurba_marseille","lat":43.281098,"lon":5.378331,"is_reserved":false,"is_disabled":false,"rental_uris":{"android":"levelo://app?vid=c4e75e32-ce41-4ab7-b864-6ecb6b2ffa08","ios":"levelo://app?vid=c4e75e32-ce41-4ab7-b864-6ecb6b2ffa08"},"vehicle_type_id":"4","last_reported":1762880971,"current_range_meters":12400,"station_id":"ce4bha12rcd13ifvqee0","pricing_plan_id":"cebpf4jnsgd1na2vs0mg"},{"bike_id":"dc9399a6-68ac-4bce-a28c-89dbbb7d0681","system_id":"levelo_inurba_marseille","lat":43.28779,"lon":5.40825,"is_reserved":false,"is_disabled":true,"rental_uris":{"android":"levelo://app?vid=dc9399a6-68ac-4bce-a28c-89dbbb7d0681","ios":"levelo://app?vid=dc9399a6-68ac-4bce-a28c-89dbbb7d0681"},"vehicle_type_id":"4","last_reported":1762880971,"current_range_meters":12400,"station_id":"","pricing_plan_id":"cebpf4jnsgd1na2vs0mg"},{"bike_id":"6271c729-d457-468c-817f-e5478b7302f3","system_id":"levelo_inurba_marseille","lat":43.299787,"lon":5.384906,"is_reserved":false,"is_disabled":false,"rental_uris":{"android":"levelo://app?vid=6271c729-d457-468c-817f-e5478b7302f3","ios":"levelo://app?vid=6271c729-d457-468c-817f-e5478b7302f3"},"vehicle_type_id":"4","last_reported":1762880971,"current_range_meters":12400,"station_id":"ce4bgj92rcd13ifvqbd0","pricing_plan_id":"cebpf4jnsgd1na2vs0mg"},{"bike_id":"f244031f-4206-4599-a329-919d0b55348b","system_id":"levelo_inurba_marseille","lat":43.30331,"lon":5.40443,"is_reserved":false,"is_disabled":false,"rental_uris":{"android":"levelo://app?vid=f244031f-4206-4599-a329-919d0b55348b","ios":"levelo://app?vid=f244031f-4206-4599-a329-919d0b55348b"},"vehicle_type_id":"4","last_reported":1762880971,"current_range_meters":12400,"station_id":"ce4bh012rcd13ifvqd10","pricing_plan_id":"cebpf4jnsgd1na2vs0mg"},{"bike_id":"33b27a15-a090-4cd7-9ec8-e07265dc76e0","system_id":"levelo_inurba_marseille","lat":43.29279,"lon":5.40119,"is_reserved":false,"is_disabled":false,"rental_uris":{"android":"levelo://app?vid=33b27a15-a090-4cd7-9ec8-e07265dc76e0","ios":"levelo://app?vid=33b27a15-a090-4cd7-9ec8-e07265dc76e0"},"vehicle_type_id":"4","last_reported":1762880971,"current_range_meters":12800,"station_id":"ce4bh312rcd13ifvqdk0","pricing_plan_id":"cebpf4jnsgd1na2vs0mg"},{"bike_id":"167f888f-6d9a-4246-8655-f97d4fdec58c","system_id":"levelo_inurba_marseille","lat":43.26061,"lon":5.394,"is_reserved":false,"is_disabled":false,"rental_uris":{"android":"levelo://app?vid=167f888f-6d9a-4246-8655-f97d4fdec58c","ios":"levelo://app?vid=167f888f-6d9a-4246-8655-f97d4fdec58c"},"vehicle_type_id":"4","last_reported":1762880971,"current_range_meters":12800,"station_id":"ce4bhh92rcd13ifvqfj0","pricing_plan_id":"cebpf4jnsgd1na2vs0mg"},{"bike_id":"a0ae9790-145c-4f01-9c18-188264013998","system_id":"levelo_inurba_marseille","lat":43.23979,"lon":5.36633,"is_reserved":false,"is_disabled":false,"rental_uris":{"android":"levelo://app?vid=a0ae9790-145c-4f01-9c18-188264013998","ios":"levelo://app?vid=a0ae9790-145c-4f01-9c18-188264013998"},"vehicle_type_id":"4","last_reported":1762880971,"current_range_meters":12800,"station_id":"ce4bhi12rcd13ifvqfp0","pricing_plan_id":"cebpf4jnsgd1na2vs0mg"},{"bike_id":"c7f06661-5511-4b64-a95c-8b86c86a451e","system_id":"levelo_inurba_marseille","lat":43.29277,"lon":5.36848,"is_reserved":false,"is_disabled":false,"rental_uris":{"android":"levelo://app?vid=c7f06661-5511-4b64-a95c-8b86c86a451e","ios":"levelo://app?vid=c7f06661-5511-4b64-a95c-8b86c86a451e"},"vehicle_type_id":"4","last_reported":1762880971,"current_range_meters":12800,"station_id":"ce4bhbp2rcd13ifvqesg","pricing_plan_id":"cebpf4jnsgd1na2vs0mg"},{"bike_id":"ac571466-1dc3-4aea-b277-4afec8514b82","system_id":"levelo_inurba_marseille","lat":43.27942,"lon":5.4104,"is_reserved":false,"is_disabled":false,"rental_uris":{"android":"levelo://app?vid=ac571466-1dc3-4aea-b277-4afec8514b82","ios":"levelo://app?vid=ac571466-1dc3-4aea-b277-4afec8514b82"},"vehicle_type_id":"4","last_reported":1762880971,"current_range_meters":12800,"station_id":"ce4bhnp2rcd13ifvqh0g","pricing_plan_id":"cebpf4jnsgd1na2vs0mg"},{"bike_id":"558d6336-8c01-4b7e-9c90-98f020bc4f34","system_id":"levelo_inurba_marseille","lat":43.31881,"lon":5.40734,"is_reserved":false,"is_disabled":false,"rental_uris":{"android":"levelo://app?vid=558d6336-8c01-4b7e-9c90-98f020bc4f34","ios":"levelo://app?vid=558d6336-8c01-4b7e-9c90-98f020bc4f34"},"vehicle_type_id":"4","last_reported":1762880971,"current_range_meters":12800,"station_id":"ce4bhq12rcd13ifvqhig","pricing_plan_id":"cebpf4jnsgd1na2vs0mg"},{"bike_id":"e3d0320c-e35f-416b-ad43-5ce549ac2b39","system_id":"levelo_inurba_marseille","lat":43.26541,"lon":5.37289,"is_reserved":false,"is_disabled":false,"rental_uris":{"android":"levelo://app?vid=e3d0320c-e35f-416b-ad43-5ce549ac2b39","ios":"levelo://app?vid=e3d0320c-e35f-416b-ad43-5ce549ac2b39"},"vehicle_type_id":"4","last_reported":1762880971,"current_range_meters":12800,"station_id":"ce4bhg12rcd13ifvqf70","pricing_plan_id":"cebpf4jnsgd1na2vs0mg"},{"bike_id":"55f24f19-a4bf-43f3-96d8-f53f1b6a63ab","system_id":"levelo_inurba_marseille","lat":43.28078,"lon":5.3966,"is_reserved":false,"is_disabled":false,"rental_uris":{"android":"levelo://app?vid=55f24f19-a4bf-43f3-96d8-f53f1b6a63ab","ios":"levelo://app?vid=55f24f19-a4bf-43f3-96d8-f53f1b6a63ab"},"vehicle_type_id":"4","last_reported":1762880971,"current_range_meters":12800,"station_id":"ce4bho12rcd13ifvqh2g","pricing_plan_id":"cebpf4jnsgd1na2vs0mg"},{"bike_id":"bbb9b6f3-24c3-46a6-9cd7-2fa06114f607","system_id":"levelo_inurba_marseille","lat":43.29804,"lon":5.38092,"is_reserved":false,"is_disabled":false,"rental_uris":{"android":"levelo://app?vid=bbb9b6f3-24c3-46a6-9cd7-2fa06114f607","ios":"levelo://app?vid=bbb9b6f3-24c3-46a6-9cd7-2fa06114f607"},"vehicle_type_id":"4","last_reported":1762880971,"current_range_meters":13600,"station_id":"ce4bgip2rcd13ifvqbb0","pricing_plan_id":"cebpf4jnsgd1na2vs0mg"},{"bike_id":"5a04390a-ad60-4fd6-bcf6-e75b8899a404","system_id":"levelo_inurba_marseille","lat":43.29049,"lon":5.39948,"is_reserved":false,"is_disabled":true,"rental_uris":{"android":"levelo://app?vid=5a04390a-ad60-4fd6-bcf6-e75b8899a404","ios":"levelo://app?vid=5a04390a-ad60-4fd6-bcf6-e75b8899a404"},"vehicle_type_id":"4","last_reported":1762880971,"current_range_meters":13600,"station_id":"ce4bh392rcd13ifvqdm0","pricing_plan_id":"cebpf4jnsgd1na2vs0mg"},{"bike_id":"28e36cd3-4665-4002-a55e-04a45eaa3992","system_id":"levelo_inurba_marseille","lat":43.33159,"lon":5.37719,"is_reserved":false,"is_disabled":false,"rental_uris":{"android":"levelo://app?vid=28e36cd3-4665-4002-a55e-04a45eaa3992","ios":"levelo://app?vid=28e36cd3-4665-4002-a55e-04a45eaa3992"},"vehicle_type_id":"4","last_reported":1762880971,"current_range_meters":13600,"station_id":"st_d46cu089ee8s73dldbu0","pricing_plan_id":"cebpf4jnsgd1na2vs0mg"},{"bike_id":"47eebd35-986e-4f11-aae3-dff474e41942","system_id":"levelo_inurba_marseille","lat":43.305427,"lon":5.367255,"is_reserved":false,"is_disabled":false,"rental_uris":{"android":"levelo://app?vid=47eebd35-986e-4f11-aae3-dff474e41942","ios":"levelo://app?vid=47eebd35-986e-4f11-aae3-dff474e41942"},"vehicle_type_id":"4","last_reported":1762880971,"current_range_meters":13600,"station_id":"ce4bgrp2rcd13ifvqc9g","pricing_plan_id":"cebpf4jnsgd1na2vs0mg"},{"bike_id":"8c4f22e8-8f17-4ae5-95d0-b42925f35d5e","system_id":"levelo_inurba_marseille","lat":43.28474,"lon":5.48402,"is_reserved":false,"is_disabled":false,"rental_uris":{"android":"levelo://app?vid=8c4f22e8-8f17-4ae5-95d0-b42925f35d5e","ios":"levelo://app?vid=8c4f22e8-8f17-4ae5-95d0-b42925f35d5e"},"vehicle_type_id":"4","last_reported":1762880971,"current_range_meters":13600,"station_id":"","pricing_plan_id":"cebpf4jnsgd1na2vs0mg"},{"bike_id":"1934ea72-e77a-4961-87b4-17bd6c7ee3a8","system_id":"levelo_inurba_marseille","lat":43.295789,"lon":5.37522,"is_reserved":false,"is_disabled":false,"rental_uris":{"android":"levelo://app?vid=1934ea72-e77a-4961-87b4-17bd6c7ee3a8","ios":"levelo://app?vid=1934ea72-e77a-4961-87b4-17bd6c7ee3a8"},"vehicle_type_id":"4","last_reported":1762880971,"current_range_meters":13600,"station_id":"","pricing_plan_id":"cebpf4jnsgd1na2vs0mg"},{"bike_id":"63a93af9-98d9-4fd8-823e-565cc55bf0a6","system_id":"levelo_inurba_marseille","lat":43.29267,"lon":5.37626,"is_reserved":false,"is_disabled":false,"rental_uris":{"android":"levelo://app?vid=63a93af9-98d9-4fd8-823e-565cc55bf0a6","ios":"levelo://app?vid=63a93af9-98d9-4fd8-823e-565cc55bf0a6"},"vehicle_type_id":"4","last_reported":1762880971,"current_range_meters":14000,"station_id":"ce4bgi12rcd13ifvqb80","pricing_plan_id":"cebpf4jnsgd1na2vs0mg"},{"bike_id":"9eb6abbd-1120-4a67-afff-c34442da9560","system_id":"levelo_inurba_marseille","lat":43.29107,"lon":5.38123,"is_reserved":false,"is_disabled":false,"rental_uris":{"android":"levelo://app?vid=9eb6abbd-1120-4a67-afff-c34442da9560","ios":"levelo://app?vid=9eb6abbd-1120-4a67-afff-c34442da9560"},"vehicle_type_id":"4","last_reported":1762880971,"current_range_meters":14000,"station_id":"ce4bh512rcd13ifvqe2g","pricing_plan_id":"cebpf4jnsgd1na2vs0mg"},{"bike_id":"a6b15e4d-2350-4905-b7cf-7bb3e4fefc16","system_id":"levelo_inurba_marseille","lat":43.231848,"lon":5.399885,"is_reserved":false,"is_disabled":false,"rental_uris":{"android":"levelo://app?vid=a6b15e4d-2350-4905-b7cf-7bb3e4fefc16","ios":"levelo://app?vid=a6b15e4d-2350-4905-b7cf-7bb3e4fefc16"},"vehicle_type_id":"4","last_reported":1762880971,"current_range_meters":14000,"station_id":"ce4bhn12rcd13ifvqgqg","pricing_plan_id":"cebpf4jnsgd1na2vs0mg"},{"bike_id":"b259621f-2fe6-4b30-92e0-2292fee32f1f","system_id":"levelo_inurba_marseille","lat":43.280359,"lon":5.369423,"is_reserved":false,"is_disabled":true,"rental_uris":{"android":"levelo://app?vid=b259621f-2fe6-4b30-92e0-2292fee32f1f","ios":"levelo://app?vid=b259621f-2fe6-4b30-92e0-2292fee32f1f"},"vehicle_type_id":"4","last_reported":1762880971,"current_range_meters":14000,"station_id":"ce4bha12rcd13ifvqef0","pricing_plan_id":"cebpf4jnsgd1na2vs0mg"},{"bike_id":"54136a75-1b65-49e2-bf0a-c8c60db77a9e","system_id":"levelo_inurba_marseille","lat":43.28816,"lon":5.3591,"is_reserved":false,"is_disabled":false,"rental_uris":{"android":"levelo://app?vid=54136a75-1b65-49e2-bf0a-c8c60db77a9e","ios":"levelo://app?vid=54136a75-1b65-49e2-bf0a-c8c60db77a9e"},"vehicle_type_id":"4","last_reported":1762880971,"current_range_meters":14400,"station_id":"ce4bhb12rcd13ifvqem0","pricing_plan_id":"cebpf4jnsgd1na2vs0mg"},{"bike_id":"dff6bcf3-0727-43ac-94da-c6ce1530cad3","system_id":"levelo_inurba_marseille","lat":43.29374,"lon":5.37735,"is_reserved":false,"is_disabled":false,"rental_uris":{"android":"levelo://app?vid=dff6bcf3-0727-43ac-94da-c6ce1530cad3","ios":"levelo://app?vid=dff6bcf3-0727-43ac-94da-c6ce1530cad3"},"vehicle_type_id":"4","last_reported":1762880971,"current_range_meters":14400,"station_id":"","pricing_plan_id":"cebpf4jnsgd1na2vs0mg"},{"bike_id":"2ee5ad5a-d514-4b06-beb7-bf0dafd642af","system_id":"levelo_inurba_marseille","lat":43.2558,"lon":5.38242,"is_reserved":false,"is_disabled":false,"rental_uris":{"android":"levelo://app?vid=2ee5ad5a-d514-4b06-beb7-bf0dafd642af","ios":"levelo://app?vid=2ee5ad5a-d514-4b06-beb7-bf0dafd642af"},"vehicle_type_id":"4","last_reported":1762880971,"current_range_meters":14400,"station_id":"ce4bhih2rcd13ifvqfs0","pricing_plan_id":"cebpf4jnsgd1na2vs0mg"},{"bike_id":"8682e81c-8095-43bf-8fa7-a60d4ae0b3e0","system_id":"levelo_inurba_marseille","lat":43.297829,"lon":5.371038,"is_reserved":false,"is_disabled":false,"rental_uris":{"android":"levelo://app?vid=8682e81c-8095-43bf-8fa7-a60d4ae0b3e0","ios":"levelo://app?vid=8682e81c-8095-43bf-8fa7-a60d4ae0b3e0"},"vehicle_type_id":"4","last_reported":1762880971,"current_range_meters":14400,"station_id":"ce4bgop2rcd13ifvqc1g","pricing_plan_id":"cebpf4jnsgd1na2vs0mg"},{"bike_id":"84aade2c-4b39-4bce-814f-cfa3d6ed46f7","system_id":"levelo_inurba_marseille","lat":43.28482,"lon":5.4839,"is_reserved":false,"is_disabled":false,"rental_uris":{"android":"levelo://app?vid=84aade2c-4b39-4bce-814f-cfa3d6ed46f7","ios":"levelo://app?vid=84aade2c-4b39-4bce-814f-cfa3d6ed46f7"},"vehicle_type_id":"4","last_reported":1762880971,"current_range_meters":14400,"station_id":"st_d3svhcjqgbts73a3dn0g","pricing_plan_id":"cebpf4jnsgd1na2vs0mg"},{"bike_id":"f313e63e-bf20-4c58-ad30-24d49f05bd0e","system_id":"levelo_inurba_marseille","lat":43.30787,"lon":5.37642,"is_reserved":false,"is_disabled":false,"rental_uris":{"android":"levelo://app?vid=f313e63e-bf20-4c58-ad30-24d49f05bd0e","ios":"levelo://app?vid=f313e63e-bf20-4c58-ad30-24d49f05bd0e"},"vehicle_type_id":"4","last_reported":1762880971,"current_range_meters":14400,"station_id":"ce4bgv92rcd13ifvqcq0","pricing_plan_id":"cebpf4jnsgd1na2vs0mg"},{"bike_id":"8a2a8e9b-b388-487e-99ad-d67d341895e3","system_id":"levelo_inurba_marseille","lat":43.25004,"lon":5.38926,"is_reserved":false,"is_disabled":false,"rental_uris":{"android":"levelo://app?vid=8a2a8e9b-b388-487e-99ad-d67d341895e3","ios":"levelo://app?vid=8a2a8e9b-b388-487e-99ad-d67d341895e3"},"vehicle_type_id":"4","last_reported":1762880971,"current_range_meters":14400,"station_id":"ce4bhgp2rcd13ifvqfd0","pricing_plan_id":"cebpf4jnsgd1na2vs0mg"},{"bike_id":"291f3689-ba25-4e65-afcc-8054aa04346b","system_id":"levelo_inurba_marseille","lat":43.25334,"lon":5.42175,"is_reserved":false,"is_disabled":false,"rental_uris":{"android":"levelo://app?vid=291f3689-ba25-4e65-afcc-8054aa04346b","ios":"levelo://app?vid=291f3689-ba25-4e65-afcc-8054aa04346b"},"vehicle_type_id":"4","last_reported":1762880971,"current_range_meters":14800,"station_id":"st_d2m65c5bi1j21697t3ng","pricing_plan_id":"cebpf4jnsgd1na2vs0mg"},{"bike_id":"6b08f6c5-5047-4070-8419-e3d271f91dec","system_id":"levelo_inurba_marseille","lat":43.28144,"lon":5.42633,"is_reserved":false,"is_disabled":false,"rental_uris":{"android":"levelo://app?vid=6b08f6c5-5047-4070-8419-e3d271f91dec","ios":"levelo://app?vid=6b08f6c5-5047-4070-8419-e3d271f91dec"},"vehicle_type_id":"4","last_reported":1762880971,"current_range_meters":14800,"station_id":"ce4bhnh2rcd13ifvqgug","pricing_plan_id":"cebpf4jnsgd1na2vs0mg"},