{"last_updated":1706461628,"ttl":30,"version":"2.2","data":{"bikes":[{"bike_id":"26eb7c4c-d820-4609-a57f-4739d1caec33","system_id":"levelo_inurba_marseille","lat":43.31341,"lon":5.367098,"is_reserved":false,"is_disabled":false,"rental_uris":{"android":"levelo://app?vid=26eb7c4c-d820-4609-a57f-4739d1caec33","ios":"levelo://app?vid=26eb7c4c-d820-4609-a57f-4739d1caec33"},"vehicle_type_id":"4","last_reported":1706461628,"current_range_meters":29600,"station_id":"ce4bgr92rcd13ifvqc6g","pricing_plan_id":"free"},{"bike_id":"735165c4-64c4-4b08-bb51-409503b731c5","system_id":"levelo_inurba_marseille","lat":43.312239,"lon":5.368562,"is_reserved":false,"is_disabled":false,"rental_uris":{"android":"levelo://app?vid=735165c4-64c4-4b08-bb51-409503b731c5","ios":"levelo://app?vid=735165c4-64c4-4b08-bb51-409503b731c5"},"vehicle_type_id":"4","last_reported":1706461628,"current_range_meters":29600,"station_id":"ce4bgl92rcd13ifvqbq0","pricing_plan_id":"free"},{"bike_id":"7dd3ff27-4e87-4cff-859a-d94a428d0541","system_id":"levelo_inurba_marseille","lat":43.31223,"lon":5.36876,"is_reserved":false,"is_disabled":false,"rental_uris":{"android":"levelo://app?vid=7dd3ff27-4e87-4cff-859a-d94a428d0541","ios":"levelo://app?vid=7dd3ff27-4e87-4cff-859a-d94a428d0541"},"vehicle_type_id":"4","last_reported":1706461628,"current_range_meters":19200,"station_id":"ce4bgl92rcd13ifvqbq0","pricing_plan_id":"free"},{"bike_id":"8e480fcf-a503-421c-b058-124c3fe6b2e9","system_id":"levelo_inurba_marseille","lat":43.309076,"lon":5.368465,"is_reserved":false,"is_disabled":false,"rental_uris":{"android":"levelo://app?vid=8e480fcf-a503-421c-b058-124c3fe6b2e9","ios":"levelo://app?vid=8e480fcf-a503-421c-b058-124c3fe6b2e9"},"vehicle_type_id":"4","last_reported":1706461628,"current_range_meters":16000,"station_id":"ce4bgn92rcd13ifvqbvg","pricing_plan_id":"free"},{"bike_id":"87969482-ecf5-4667-ab16-c7284f59cc23","system_id":"levelo_inurba_marseille","lat":43.309076,"lon":5.368465,"is_reserved":false,"is_disabled":false,"rental_uris":{"android":"levelo://app?vid=87969482-ecf5-4667-ab16-c7284f59cc23","ios":"levelo://app?vid=87969482-ecf5-4667-ab16-c7284f59cc23"},"vehicle_type_id":"4","last_reported":1706461628,"current_range_meters":5600,"station_id":"ce4bgn92rcd13ifvqbvg","pricing_plan_id":"free"},{"bike_id":"8459d3f1-3b3b-4465-9b5e-90b85a407091","system_id":"levelo_inurba_marseille","lat":43.31494,"lon":5.37295,"is_reserved":false,"is_disabled":false,"rental_uris":{"android":"levelo://app?vid=8459d3f1-3b3b-4465-9b5e-90b85a407091","ios":"levelo://app?vid=8459d3f1-3b3b-4465-9b5e-90b85a407091"},"vehicle_type_id":"4","last_reported":1706461628,"current_range_meters":0,"station_id":"ce4bgt12rcd13ifvqcd0","pricing_plan_id":"free"},{"bike_id":"966f4a38-b1cf-4d2b-9e05-a8f54dd1a8b8","system_id":"levelo_inurba_marseille","lat":43.314811,"lon":5.373103,"is_reserved":false,"is_disabled":false,"rental_uris":{"android":"levelo://app?vid=966f4a38-b1cf-4d2b-9e05-a8f54dd1a8b8","ios":"levelo://app?vid=966f4a38-b1cf-4d2b-9e05-a8f54dd1a8b8"},"vehicle_type_id":"4","last_reported":1706461628,"current_range_meters":19200,"station_id":"ce4bgt12rcd13ifvqcd0","pricing_plan_id":"free"},{"bike_id":"fcce87c2-d32d-498c-8c33-f4ae73fa4020","system_id":"levelo_inurba_marseille","lat":43.314811,"lon":5.373103,"is_reserved":false,"is_disabled":false,"rental_uris":{"android":"levelo://app?vid=fcce87c2-d32d-498c-8c33-f4ae73fa4020","ios":"levelo://app?vid=fcce87c2-d32d-498c-8c33-f4ae73fa4020"},"vehicle_type_id":"4","last_reported":1706461628,"current_range_meters":20000,"station_id":"ce4bgt12rcd13ifvqcd0","pricing_plan_id":"free"},{"bike_id":"bd275c95-b780-4c73-8d28-11d4aa870793","system_id":"levelo_inurba_marseille","lat":43.309039,"lon":5.371797,"is_reserved":false,"is_disabled":false,"rental_uris":{"android":"levelo://app?vid=bd275c95-b780-4c73-8d28-11d4aa870793","ios":"levelo://app?vid=bd275c95-b780-4c73-8d28-11d4aa870793"},"vehicle_type_id":"4","last_reported":1706461628,"current_range_meters":23600,"station_id":"ce4bguh2rcd13ifvqckg","pricing_plan_id":"free"},{"bike_id":"0e0d5322-cfb2-4feb-ba3c-683c805b2adb","system_id":"levelo_inurba_marseille","lat":43.305712,"lon":5.365641,"is_reserved":false,"is_disabled":false,"rental_uris":{"android":"levelo://app?vid=0e0d5322-cfb2-4feb-ba3c-683c805b2adb","ios":"levelo://app?vid=0e0d5322-cfb2-4feb-ba3c-683c805b2adb"},"vehicle_type_id":"4","last_reported":1706461628,"current_range_meters":8400,"station_id":"ce4bgs12rcd13ifvqcag","pricing_plan_id":"free"},{"bike_id":"834e2ff0-8cbc-485d-ba62-e22fb62925fd","system_id":"levelo_inurba_marseille","lat":43.305714,"lon":5.365633,"is_reserved":false,"is_disabled":false,"rental_uris":{"android":"levelo://app?vid=834e2ff0-8cbc-485d-ba62-e22fb62925fd","ios":"levelo://app?vid=834e2ff0-8cbc-485d-ba62-e22fb62925fd"},"vehicle_type_id":"4","last_reported":1706461628,"current_range_meters":30400,"station_id":"ce4bgs12rcd13ifvqcag","pricing_plan_id":"free"},{"bike_id":"39f484da-de2d-4582-8ed7-fec6efa89419","system_id":"levelo_inurba_marseille","lat":43.305706,"lon":5.365654,"is_reserved":false,"is_disabled":false,"rental_uris":{"android":"levelo://app?vid=39f484da-de2d-4582-8ed7-fec6efa89419","ios":"levelo://app?vid=39f484da-de2d-4582-8ed7-fec6efa89419"},"vehicle_type_id":"4","last_reported":1706461628,"current_range_meters":1600,"station_id":"ce4bgs12rcd13ifvqcag","pricing_plan_id":"free"},{"bike_id":"83db4844-85a8-431f-9bc9-22964fd3881e","system_id":"levelo_inurba_marseille","lat":43.305714,"lon":5.365633,"is_reserved":false,"is_disabled":false,"rental_uris":{"android":"levelo://app?vid=83db4844-85a8-431f-9bc9-22964fd3881e","ios":"levelo://app?vid=83db4844-85a8-431f-9bc9-22964fd3881e"},"vehicle_type_id":"4","last_reported":1706461628,"current_range_meters":2000,"station_id":"ce4bgs12rcd13ifvqcag","pricing_plan_id":"free"},{"bike_id":"b4b0b438-1c11-49f7-a09e-489498327478","system_id":"levelo_inurba_marseille","lat":43.305706,"lon":5.365654,"is_reserved":false,"is_disabled":false,"rental_uris":{"android":"levelo://app?vid=b4b0b438-1c11-49f7-a09e-489498327478","ios":"levelo://app?vid=b4b0b438-1c11-49f7-a09e-489498327478"},"vehicle_type_id":"4","last_reported":1706461628,"current_range_meters":21600,"station_id":"ce4bgs12rcd13ifvqcag","pricing_plan_id":"free"},{"bike_id":"0bfd7e52-23db-4c25-94ac-f5e16c0edd46","system_id":"levelo_inurba_marseille","lat":43.305989,"lon":5.37225,"is_reserved":false,"is_disabled":false,"rental_uris":{"android":"levelo://app?vid=0bfd7e52-23db-4c25-94ac-f5e16c0edd46","ios":"levelo://app?vid=0bfd7e52-23db-4c25-94ac-f5e16c0edd46"},"vehicle_type_id":"4","last_reported":1706461628,"current_range_meters":6400,"station_id":"ce4bgqh2rcd13ifvqc4g","pricing_plan_id":"free"},{"bike_id":"fdc92e45-2d25-49e8-afee-6508d293e431","system_id":"levelo_inurba_marseille","lat":43.311131,"lon":5.377651,"is_reserved":false,"is_disabled":false,"rental_uris":{"android":"levelo://app?vid=fdc92e45-2d25-49e8-afee-6508d293e431","ios":"levelo://app?vid=fdc92e45-2d25-49e8-afee-6508d293e431"},"vehicle_type_id":"4","last_reported":1706461628,"current_range_meters":21600,"station_id":"ce4bgt92rcd13ifvqcg0","pricing_plan_id":"free"},{"bike_id":"dd76c2e5-a3fa-4485-925d-b52a2f624e9a","system_id":"levelo_inurba_marseille","lat":43.317075,"lon":5.377367,"is_reserved":false,"is_disabled":false,"rental_uris":{"android":"levelo://app?vid=dd76c2e5-a3fa-4485-925d-b52a2f624e9a","ios":"levelo://app?vid=dd76c2e5-a3fa-4485-925d-b52a2f624e9a"},"vehicle_type_id":"4","last_reported":1706461628,"current_range_meters":0,"station_id":"ce4bgth2rcd13ifvqch0","pricing_plan_id":"free"},{"bike_id":"8d2cafa6-54a5-4641-8d72-4c79e3ebbceb","system_id":"levelo_inurba_marseille","lat":43.307945,"lon":5.376487,"is_reserved":false,"is_disabled":false,"rental_uris":{"android":"levelo://app?vid=8d2cafa6-54a5-4641-8d72-4c79e3ebbceb","ios":"levelo://app?vid=8d2cafa6-54a5-4641-8d72-4c79e3ebbceb"},"vehicle_type_id":"4","last_reported":1706461628,"current_range_meters":5200,"station_id":"ce4bgv92rcd13ifvqcq0","pricing_plan_id":"free"},{"bike_id":"6156a903-1c6b-4db5-a0fa-e24965dd5f29","system_id":"levelo_inurba_marseille","lat":43.317075,"lon":5.377367,"is_reserved":false,"is_disabled":false,"rental_uris":{"android":"levelo://app?vid=6156a903-1c6b-4db5-a0fa-e24965dd5f29","ios":"levelo://app?vid=6156a903-1c6b-4db5-a0fa-e24965dd5f29"},"vehicle_type_id":"4","last_reported":1706461628,"current_range_meters":16000,"station_id":"ce4bgth2rcd13ifvqch0","pricing_plan_id":"free"},{"bike_id":"5f2d7db2-5049-4331-92c9-d6de505e28aa","system_id":"levelo_inurba_marseille","lat":43.317075,"lon":5.377367,"is_reserved":false,"is_disabled":false,"rental_uris":{"android":"levelo://app?vid=5f2d7db2-5049-4331-92c9-d6de505e28aa","ios":"levelo://app?vid=5f2d7db2-5049-4331-92c9-d6de505e28aa"},"vehicle_type_id":"4","last_reported":1706461628,"current_range_meters":18800,"station_id":"ce4bgth2rcd13ifvqch0","pricing_plan_id":"free"},{"bike_id":"6fff0b7d-2514-4e0c-a138-b6e9cb85be95","system_id":"levelo_inurba_marseille","lat":43.317075,"lon":5.377367,"is_reserved":false,"is_disabled":false,"rental_uris":{"android":"levelo://app?vid=6fff0b7d-2514-4e0c-a138-b6e9cb85be95","ios":"levelo://app?vid=6fff0b7d-2514-4e0c-a138-b6e9cb85be95"},"vehicle_type_id":"4","last_reported":1706461628,"current_range_meters":31600,"station_id":"ce4bgth2rcd13ifvqch0","pricing_plan_id":"free"},{"bike_id":"bf70306f-e475-47ca-8724-a7e42b25d923","system_id":"levelo_inurba_marseille","lat":43.317075,"lon":5.377367,"is_reserved":false,"is_disabled":false,"rental_uris":{"android":"levelo://app?vid=bf70306f-e475-47ca-8724-a7e42b25d923","ios":"levelo://app?vid=bf70306f-e475-47ca-8724-a7e42b25d923"},"vehicle_type_id":"4","last_reported":1706461628,"current_range_meters":31200,"station_id":"ce4bgth2rcd13ifvqch0","pricing_plan_id":"free"},{"bike_id":"b83daeb9-a39c-4884-86e2-16a37c651f7f","system_id":"levelo_inurba_marseille","lat":43.31999,"lon":5.37626,"is_reserved":false,"is_disabled":false,"rental_uris":{"android":"levelo://app?vid=b83daeb9-a39c-4884-86e2-16a37c651f7f","ios":"levelo://app?vid=b83daeb9-a39c-4884-86e2-16a37c651f7f"},"vehicle_type_id":"4","last_reported":1706461628,"current_range_meters":5200,"station_id":"","pricing_plan_id":"free"},{"bike_id":"c2998a2f-938c-4475-b5ed-ad332b95badc","system_id":"levelo_inurba_marseille","lat":43.301939,"lon":5.366286,"is_reserved":false,"is_disabled":false,"rental_uris":{"android":"levelo://app?vid=c2998a2f-938c-4475-b5ed-ad332b95badc","ios":"levelo://app?vid=c2998a2f-938c-4475-b5ed-ad332b95badc"},"vehicle_type_id":"4","last_reported":1706461628,"current_range_meters":12800,"station_id":"ce4bgrh2rcd13ifvqc8g","pricing_plan_id":"free"},{"bike_id":"9768bf3d-733b-4407-ae8e-3f82fe297db3","system_id":"levelo_inurba_marseille","lat":43.308012,"lon":5.381511,"is_reserved":false,"is_disabled":false,"rental_uris":{"android":"levelo://app?vid=9768bf3d-733b-4407-ae8e-3f82fe297db3","ios":"levelo://app?vid=9768bf3d-733b-4407-ae8e-3f82fe297db3"},"vehicle_type_id":"4","last_reported":1706461628,"current_range_meters":3600,"station_id":"ce4bgt12rcd13ifvqce0","pricing_plan_id":"free"},{"bike_id":"aae5fe57-a3c2-44cb-a832-967145ed5b48","system_id":"levelo_inurba_marseille","lat":43.308012,"lon":5.381511,"is_reserved":false,"is_disabled":false,"rental_uris":{"android":"levelo://app?vid=aae5fe57-a3c2-44cb-a832-967145ed5b48","ios":"levelo://app?vid=aae5fe57-a3c2-44cb-a832-967145ed5b48"},"vehicle_type_id":"4","last_reported":1706461628,"current_range_meters":4000,"station_id":"ce4bgt12rcd13ifvqce0","pricing_plan_id":"free"},{"bike_id":"dc00bdf8-dc57-4b02-8d44-8ea4906debe3","system_id":"levelo_inurba_marseille","lat":43.324771,"lon":5.36557,"is_reserved":false,"is_disabled":false,"rental_uris":{"android":"levelo://app?vid=dc00bdf8-dc57-4b02-8d44-8ea4906debe3","ios":"levelo://app?vid=dc00bdf8-dc57-4b02-8d44-8ea4906debe3"},"vehicle_type_id":"4","last_reported":1706461628,"current_range_meters":17200,"station_id":"ce4bhs12rcd13ifvqhvg","pricing_plan_id":"free"},{"bike_id":"8639f527-33b6-4c80-ba78-564f85936cdc","system_id":"levelo_inurba_marseille","lat":43.302784,"lon":5.377158,"is_reserved":false,"is_disabled":false,"rental_uris":{"android":"levelo://app?vid=8639f527-33b6-4c80-ba78-564f85936cdc","ios":"levelo://app?vid=8639f527-33b6-4c80-ba78-564f85936cdc"},"vehicle_type_id":"4","last_reported":1706461628,"current_range_meters":1600,"station_id":"ce4bguh2rcd13ifvqcj0","pricing_plan_id":"free"},{"bike_id":"cccb1fd7-ca71-4e08-aba9-a15673b3a3b4","system_id":"levelo_inurba_marseille","lat":43.313571,"lon":5.384829,"is_reserved":false,"is_disabled":false,"rental_uris":{"android":"levelo://app?vid=cccb1fd7-ca71-4e08-aba9-a15673b3a3b4","ios":"levelo://app?vid=cccb1fd7-ca71-4e08-aba9-a15673b3a3b4"},"vehicle_type_id":"4","last_reported":1706461628,"current_range_meters":11200,"station_id":"ce4bgt92rcd13ifvqcf0","pricing_plan_id":"free"},{"bike_id":"016745b3-e05d-448c-a007-9d83254c5232","system_id":"levelo_inurba_marseille","lat":43.313571,"lon":5.384829,"is_reserved":false,"is_disabled":false,"rental_uris":{"android":"levelo://app?vid=016745b3-e05d-448c-a007-9d83254c5232","ios":"levelo://app?vid=016745b3-e05d-448c-a007-9d83254c5232"},"vehicle_type_id":"4","last_reported":1706461628,"current_range_meters":12400,"station_id":"ce4bgt92rcd13ifvqcf0","pricing_plan_id":"free"},{"bike_id":"87483fe3-7c4d-45ee-975b-6a65cd1f9679","system_id":"levelo_inurba_marseille","lat":43.313571,"lon":5.384829,"is_reserved":false,"is_disabled":false,"rental_uris":{"android":"levelo://app?vid=87483fe3-7c4d-45ee-975b-6a65cd1f9679","ios":"levelo://app?vid=87483fe3-7c4d-45ee-975b-6a65cd1f9679"},"vehicle_type_id":"4","last_reported":1706461628,"current_range_meters":4800,"station_id":"ce4bgt92rcd13ifvqcf0","pricing_plan_id":"free"},{"bike_id":"ba7f9da0-72b3-4ec0-b01d-99a1fc3cabc2","system_id":"levelo_inurba_marseille","lat":43.299222,"lon":5.365554,"is_reserved":false,"is_disabled":false,"rental_uris":{"android":"levelo://app?vid=ba7f9da0-72b3-4ec0-b01d-99a1fc3cabc2","ios":"levelo://app?vid=ba7f9da0-72b3-4ec0-b01d-99a1fc3cabc2"},"vehicle_type_id":"4","last_reported":1706461628,"current_range_meters":1200,"station_id":"ce4bgm92rcd13ifvqbr0","pricing_plan_id":"free"},{"bike_id":"b60d169b-f708-4c90-ae74-5399a86031c6","system_id":"levelo_inurba_marseille","lat":43.299724,"lon":5.371829,"is_reserved":false,"is_disabled":false,"rental_uris":{"android":"levelo://app?vid=b60d169b-f708-4c90-ae74-5399a86031c6","ios":"levelo://app?vid=b60d169b-f708-4c90-ae74-5399a86031c6"},"vehicle_type_id":"4","last_reported":1706461628,"current_range_meters":2000,"station_id":"ce4bgr92rcd13ifvqc7g","pricing_plan_id":"free"},{"bike_id":"8c8bc18d-00c6-448c-a9f7-7ac36620b04f","system_id":"levelo_inurba_marseille","lat":43.299724,"lon":5.371829,"is_reserved":false,"is_disabled":false,"rental_uris":{"android":"levelo://app?vid=8c8bc18d-00c6-448c-a9f7-7ac36620b04f","ios":"levelo://app?vid=8c8bc18d-00c6-448c-a9f7-7ac36620b04f"},"vehicle_type_id":"4","last_reported":1706461628,"current_range_meters":6800,"station_id":"ce4bgr92rcd13ifvqc7g","pricing_plan_id":"free"},{"bike_id":"ff2d7959-0a2e-451b-97ee-a9213b0f5a99","system_id":"levelo_inurba_marseille","lat":43.299724,"lon":5.371829,"is_reserved":false,"is_disabled":false,"rental_uris":{"android":"levelo://app?vid=ff2d7959-0a2e-451b-97ee-a9213b0f5a99","ios":"levelo://app?vid=ff2d7959-0a2e-451b-97ee-a9213b0f5a99"},"vehicle_type_id":"4","last_reported":1706461628,"current_range_meters":12800,"station_id":"ce4bgr92rcd13ifvqc7g","pricing_plan_id":"free"},{"bike_id":"b5d24938-c207-4479-8560-2550a10ca5b1","system_id":"levelo_inurba_marseille","lat":43.299724,"lon":5.371829,"is_reserved":false,"is_disabled":false,"rental_uris":{"android":"levelo://app?vid=b5d24938-c207-4479-8560-2550a10ca5b1","ios":"levelo://app?vid=b5d24938-c207-4479-8560-2550a10ca5b1"},"vehicle_type_id":"4","last_reported":1706461628,"current_range_meters":8800,"station_id":"ce4bgr92rcd13ifvqc7g","pricing_plan_id":"free"},{"bike_id":"f76197d9-1120-4f13-80b5-7549ff741c40","system_id":"levelo_inurba_marseille","lat":43.305364,"lon":5.384119,"is_reserved":false,"is_disabled":false,"rental_uris":{"android":"levelo://app?vid=f76197d9-1120-4f13-80b5-7549ff741c40","ios":"levelo://app?vid=f76197d9-1120-4f13-80b5-7549ff741c40"},"vehicle_type_id":"4","last_reported":1706461628,"current_range_meters":24000,"station_id":"ce4bgg92rcd13ifvqb30","pricing_plan_id":"free"},{"bike_id":"89bac31c-c3b2-4a93-896b-1645af6d51bd","system_id":"levelo_inurba_marseille","lat":43.311722,"lon":5.387247,"is_reserved":false,"is_disabled":false,"rental_uris":{"android":"levelo://app?vid=89bac31c-c3b2-4a93-896b-1645af6d51bd","ios":"levelo://app?vid=89bac31c-c3b2-4a93-896b-1645af6d51bd"},"vehicle_type_id":"4","last_reported":1706461628,"current_range_meters":9200,"station_id":"ce4bgv12rcd13ifvqcp0","pricing_plan_id":"free"},{"bike_id":"086ad35c-e7cc-4dca-9c24-70a7b83a5bd7","system_id":"levelo_inurba_marseille","lat":43.311722,"lon":5.387247,"is_reserved":false,"is_disabled":false,"rental_uris":{"android":"levelo://app?vid=086ad35c-e7cc-4dca-9c24-70a7b83a5bd7","ios":"levelo://app?vid=086ad35c-e7cc-4dca-9c24-70a7b83a5bd7"},"vehicle_type_id":"4","last_reported":1706461628,"current_range_meters":13600,"station_id":"ce4bgv12rcd13ifvqcp0","pricing_plan_id":"free"},{"bike_id":"9b2897a8-87cb-4da6-a435-77c7d261949c","system_id":"levelo_inurba_marseille","lat":43.311722,"lon":5.387247,"is_reserved":false,"is_disabled":false,"rental_uris":{"android":"levelo://app?vid=9b2897a8-87cb-4da6-a435-77c7d261949c","ios":"levelo://app?vid=9b2897a8-87cb-4da6-a435-77c7d261949c"},"vehicle_type_id":"4","last_reported":1706461628,"current_range_meters":6000,"station_id":"ce4bgv12rcd13ifvqcp0","pricing_plan_id":"free"},{"bike_id":"3710dc3b-ba81-4e4e-8528-0f6c389f8b60","system_id":"levelo_inurba_marseille","lat":43.29787,"lon":5.37101,"is_reserved":false,"is_disabled":false,"rental_uris":{"android":"levelo://app?vid=3710dc3b-ba81-4e4e-8528-0f6c389f8b60","ios":"levelo://app?vid=3710dc3b-ba81-4e4e-8528-0f6c389f8b60"},"vehicle_type_id":"4","last_reported":1706461628,"current_range_meters":1600,"station_id":"ce4bgop2rcd13ifvqc1g","pricing_plan_id":"free"},{"bike_id":"e1539f0d-02e3-46ca-8fd2-b115fd55a782","system_id":"levelo_inurba_marseille","lat":43.322872,"lon":5.382756,"is_reserved":false,"is_disabled":false,"rental_uris":{"android":"levelo://app?vid=e1539f0d-02e3-46ca-8fd2-b115fd55a782","ios":"levelo://app?vid=e1539f0d-02e3-46ca-8fd2-b115fd55a782"},"vehicle_type_id":"4","last_reported":1706461628,"current_range_meters":24000,"station_id":"ce4bhr12rcd13ifvqhqg","pricing_plan_id":"free"},{"bike_id":"0f7b98a3-6434-4866-adac-ccd99f91e009","system_id":"levelo_inurba_marseille","lat":43.328269,"lon":5.366785,"is_reserved":false,"is_disabled":false,"rental_uris":{"android":"levelo://app?vid=0f7b98a3-6434-4866-adac-ccd99f91e009","ios":"levelo://app?vid=0f7b98a3-6434-4866-adac-ccd99f91e009"},"vehicle_type_id":"4","last_reported":1706461628,"current_range_meters":0,"station_id":"ce4bhs92rcd13ifvqi0g","pricing_plan_id":"free"},{"bike_id":"12edd8fe-ac42-424b-86a0-ddbc64b4f114","system_id":"levelo_inurba_marseille","lat":43.328371,"lon":5.366909,"is_reserved":false,"is_disabled":false,"rental_uris":{"android":"levelo://app?vid=12edd8fe-ac42-424b-86a0-ddbc64b4f114","ios":"levelo://app?vid=12edd8fe-ac42-424b-86a0-ddbc64b4f114"},"vehicle_type_id":"4","last_reported":1706461628,"current_range_meters":12800,"station_id":"ce4bhs92rcd13ifvqi0g","pricing_plan_id":"free"},{"bike_id":"1e3dac1e-79bb-416e-9a25-92222494a4ee","system_id":"levelo_inurba_marseille","lat":43.328371,"lon":5.366912,"is_reserved":false,"is_disabled":false,"rental_uris":{"android":"levelo://app?vid=1e3dac1e-79bb-416e-9a25-92222494a4ee","ios":"levelo://app?vid=1e3dac1e-79bb-416e-9a25-92222494a4ee"},"vehicle_type_id":"4","last_reported":1706461628,"current_range_meters":17600,"station_id":"ce4bhs92rcd13ifvqi0g","pricing_plan_id":"free"},{"bike_id":"af1c8fc0-8183-4d68-848c-9159b1d2bf45","system_id":"levelo_inurba_marseille","lat":43.328371,"lon":5.366909,"is_reserved":false,"is_disabled":false,"rental_uris":{"android":"levelo://app?vid=af1c8fc0-8183-4d68-848c-9159b1d2bf45","ios":"levelo://app?vid=af1c8fc0-8183-4d68-848c-9159b1d2bf45"},"vehicle_type_id":"4","last_reported":1706461628,"current_range_meters":9200,"station_id":"ce4bhs92rcd13ifvqi0g","pricing_plan_id":"free"},{"bike_id":"518f49d4-0634-4508-b7c7-aa82009fcc6e","system_id":"levelo_inurba_marseille","lat":43.297163,"lon":5.365866,"is_reserved":false,"is_disabled":false,"rental_uris":{"android":"levelo://app?vid=518f49d4-0634-4508-b7c7-aa82009fcc6e","ios":"levelo://app?vid=518f49d4-0634-4508-b7c7-aa82009fcc6e"},"vehicle_type_id":"4","last_reported":1706461628,"current_range_meters":27600,"station_id":"ce4bgn12rcd13ifvqbt0","pricing_plan_id":"free"},{"bike_id":"b3aca925-2b17-4ce8-91ab-3881b2c8a65d","system_id":"levelo_inurba_marseille","lat":43.2968,"lon":5.37291,"is_reserved":false,"is_disabled":false,"rental_uris":{"android":"levelo://app?vid=b3aca925-2b17-4ce8-91ab-3881b2c8a65d","ios":"levelo://app?vid=b3aca925-2b17-4ce8-91ab-3881b2c8a65d"},"vehicle_type_id":"4","last_reported":1706461628,"current_range_meters":7200,"station_id":"ce4bgk12rcd13ifvqbj0","pricing_plan_id":"free"},{"bike_id":"2b97c703-cf63-4b23-a996-db82423f5a39","system_id":"levelo_inurba_marseille","lat":43.32466,"lon":5.38289,"is_reserved":false,"is_disabled":false,"rental_uris":{"android":"levelo://app?vid=2b97c703-cf63-4b23-a996-db82423f5a39","ios":"levelo://app?vid=2b97c703-cf63-4b23-a996-db82423f5a39"},"vehicle_type_id":"4","last_reported":1706461628,"current_range_meters":0,"station_id":"","pricing_plan_id":"free"},{"bike_id":"84a5bef0-d823-433b-99b1-def7e35034e7","system_id":"levelo_inurba_marseille","lat":43.309589,"lon":5.390258,"is_reserved":false,"is_disabled":false,"rental_uris":{"android":"levelo://app?vid=84a5bef0-d823-433b-99b1-def7e35034e7","ios":"levelo://app?vid=84a5bef0-d823-433b-99b1-def7e35034e7"},"vehicle_type_id":"4","last_reported":1706461628,"current_range_meters":28800,"station_id":"ce4bgup2rcd13ifvqco0","pricing_plan_id":"free"},{"bike_id":"848acb77-d00f-4c40-a304-4be2829a2366","system_id":"levelo_inurba_marseille","lat":43.309589,"lon":5.390258,"is_reserved":false,"is_disabled":false,"rental_uris":{"android":"levelo://app?vid=848acb77-d00f-4c40-a304-4be2829a2366","ios":"levelo://app?vid=848acb77-d00f-4c40-a304-4be2829a2366"},"vehicle_type_id":"4","last_reported":1706461628,"current_range_meters":6400,"station_id":"ce4bgup2rcd13ifvqco0","pricing_plan_id":"free"},{"bike_id":"bcb48ed9-d587-4142-bb6b-124fde0f15ac","system_id":"levelo_inurba_marseille","lat":43.317557,"lon":5.390173,"is_reserved":false,"is_disabled":false,"rental_uris":{"android":"levelo://app?vid=bcb48ed9-d587-4142-bb6b-124fde0f15ac","ios":"levelo://app?vid=bcb48ed9-d587-4142-bb6b-124fde0f15ac"},"vehicle_type_id":"4","last_reported":1706461628,"current_range_meters":27200,"station_id":"ce4bhqp2rcd13ifvqhng","pricing_plan_id":"free"},{"bike_id":"bcfc5c8c-02c4-4524-958c-320caf8c2651","system_id":"levelo_inurba_marseille","lat":43.297932,"lon":5.380986,"is_reserved":false,"is_disabled":false,"rental_uris":{"android":"levelo://app?vid=bcfc5c8c-02c4-4524-958c-320caf8c2651","ios":"levelo://app?vid=bcfc5c8c-02c4-4524-958c-320caf8c2651"},"vehicle_type_id":"4","last_reported":1706461628,"current_range_meters":8400,"station_id":"ce4bgip2rcd13ifvqbb0","pricing_plan_id":"free"},{"bike_id":"1a455153-9f68-4138-a038-dbad94fb7b33","system_id":"levelo_inurba_marseille","lat":43.296277,"lon":5.377108,"is_reserved":false,"is_disabled":false,"rental_uris":{"android":"levelo://app?vid=1a455153-9f68-4138-a038-dbad94fb7b33","ios":"levelo://app?vid=1a455153-9f68-4138-a038-dbad94fb7b33"},"vehicle_type_id":"4","last_reported":1706461628,"current_range_meters":400,"station_id":"ce4bgi92rcd13ifvqb90","pricing_plan_id":"free"},{"bike_id":"c7f9570a-47f2-4aab-84ce-c9319c8784ca","system_id":"levelo_inurba_marseille","lat":43.295748,"lon":5.37522,"is_reserved":false,"is_disabled":false,"rental_uris":{"android":"levelo://app?vid=c7f9570a-47f2-4aab-84ce-c9319c8784ca","ios":"levelo://app?vid=c7f9570a-47f2-4aab-84ce-c9319c8784ca"},"vehicle_type_id":"4","last_reported":1706461628,"current_range_meters":0,"station_id":"ce4bgh92rcd13ifvqb50","pricing_plan_id":"free"},{"bike_id":"0af02d25-f8d8-44fa-8958-e8a623d9138f","system_id":"levelo_inurba_marseille","lat":43.299707,"lon":5.384859,"is_reserved":false,"is_disabled":false,"rental_uris":{"android":"levelo://app?vid=0af02d25-f8d8-44fa-8958-e8a623d9138f","ios":"levelo://app?vid=0af02d25-f8d8-44fa-8958-e8a623d9138f"},"vehicle_type_id":"4","last_reported":1706461628,"current_range_meters":9200,"station_id":"ce4bgj92rcd13ifvqbd0","pricing_plan_id":"free"},{"bike_id":"8784ba9d-a51c-402b-9dc7-d8150586a0ee","system_id":"levelo_inurba_marseille","lat":43.299717,"lon":5.384845,"is_reserved":false,"is_disabled":false,"rental_uris":{"android":"levelo://app?vid=8784ba9d-a51c-402b-9dc7-d8150586a0ee","ios":"levelo://app?vid=8784ba9d-a51c-402b-9dc7-d8150586a0ee"},"vehicle_type_id":"4","last_reported":1706461628,"current_range_meters":6000,"station_id":"ce4bgj92rcd13ifvqbd0","pricing_plan_id":"free"},{"bike_id":"e8bee7ad-5c39-4585-a369-b5e5fc2b2d6f","system_id":"levelo_inurba_marseille","lat":43.299717,"lon":5.384845,"is_reserved":false,"is_disabled":false,"rental_uris":{"android":"levelo://app?vid=e8bee7ad-5c39-4585-a369-b5e5fc2b2d6f","ios":"levelo://app?vid=e8bee7ad-5c39-4585-a369-b5e5fc2b2d6f"},"vehicle_type_id":"4","last_reported":1706461628,"current_range_meters":6000,"station_id":"ce4bgj92rcd13ifvqbd0","pricing_plan_id":"free"},{"bike_id":"8df99c08-604e-4809-9965-0eb886bfb2bf","system_id":"levelo_inurba_marseille","lat":43.299717,"lon":5.384845,"is_reserved":false,"is_disabled":false,"rental_uris":{"android":"levelo://app?vid=8df99c08-604e-4809-9965-0eb886bfb2bf","ios":"levelo://app?vid=8df99c08-604e-4809-9965-0eb886bfb2bf"},"vehicle_type_id":"4","last_reported":1706461628,"current_range_meters":0,"station_id":"ce4bgj92rcd13ifvqbd0","pricing_plan_id":"free"},{"bike_id":"fcea44a0-11a2-4b6d-84d6-559ee809f9ed","system_id":"levelo_inurba_marseille","lat":43.30118,"lon":5.387743,"is_reserved":false,"is_disabled":false,"rental_uris":{"android":"levelo://app?vid=fcea44a0-11a2-4b6d-84d6-559ee809f9ed","ios":"levelo://app?vid=fcea44a0-11a2-4b6d-84d6-559ee809f9ed"},"vehicle_type_id":"4","last_reported":1706461628,"current_range_meters":0,"station_id":"","pricing_plan_id":"free"},{"bike_id":"d68e21e0-f101-4fe4-adad-3edc99116a12","system_id":"levelo_inurba_marseille","lat":43.32367,"lon":5.388836,"is_reserved":false,"is_disabled":false,"rental_uris":{"android":"levelo://app?vid=d68e21e0-f101-4fe4-adad-3edc99116a12","ios":"levelo://app?vid=d68e21e0-f101-4fe4-adad-3edc99116a12"},"vehicle_type_id":"4","last_reported":1706461628,"current_range_meters":18400,"station_id":"ce4bhqp2rcd13ifvqhog","pricing_plan_id":"free"},{"bike_id":"9d5b488c-f323-4761-ae4e-7fca3bfba9bd","system_id":"levelo_inurba_marseille","lat":43.29601,"lon":5.381084,"is_reserved":false,"is_disabled":false,"rental_uris":{"android":"levelo://app?vid=9d5b488c-f323-4761-ae4e-7fca3bfba9bd","ios":"levelo://app?vid=9d5b488c-f323-4761-ae4e-7fca3bfba9bd"},"vehicle_type_id":"4","last_reported":1706461628,"current_range_meters":0,"station_id":"ce4bgl12rcd13ifvqbo0","pricing_plan_id":"free"},{"bike_id":"76a09b6e-2244-40dd-a1cb-a99f63e6b537","system_id":"levelo_inurba_marseille","lat":43.29601,"lon":5.381084,"is_reserved":false,"is_disabled":false,"rental_uris":{"android":"levelo://app?vid=76a09b6e-2244-40dd-a1cb-a99f63e6b537","ios":"levelo://app?vid=76a09b6e-2244-40dd-a1cb-a99f63e6b537"},"vehicle_type_id":"4","last_reported":1706461628,"current_range_meters":6400,"station_id":"ce4bgl12rcd13ifvqbo0","pricing_plan_id":"free"},{"bike_id":"78d3a55d-7c71-4792-a4c6-5e285b160a10","system_id":"levelo_inurba_marseille","lat":43.29602,"lon":5.381084,"is_reserved":false,"is_disabled":false,"rental_uris":{"android":"levelo://app?vid=78d3a55d-7c71-4792-a4c6-5e285b160a10","ios":"levelo://app?vid=78d3a55d-7c71-4792-a4c6-5e285b160a10"},"vehicle_type_id":"4","last_reported":1706461628,"current_range_meters":3600,"station_id":"ce4bgl12rcd13ifvqbo0","pricing_plan_id":"free"},{"bike_id":"37f4f7e3-bb85-4f53-8886-452759cccbb5","system_id":"levelo_inurba_marseille","lat":43.29273,"lon":5.36843,"is_reserved":false,"is_disabled":false,"rental_uris":{"android":"levelo://app?vid=37f4f7e3-bb85-4f53-8886-452759cccbb5","ios":"levelo://app?vid=37f4f7e3-bb85-4f53-8886-452759cccbb5"},"vehicle_type_id":"4","last_reported":1706461628,"current_range_meters":0,"station_id":"ce4bhbp2rcd13ifvqesg","pricing_plan_id":"free"},{"bike_id":"96c97a9f-74fa-495f-87d2-a34b29706f6b","system_id":"levelo_inurba_marseille","lat":43.29295,"lon":5.37163,"is_reserved":false,"is_disabled":false,"rental_uris":{"android":"levelo://app?vid=96c97a9f-74fa-495f-87d2-a34b29706f6b","ios":"levelo://app?vid=96c97a9f-74fa-495f-87d2-a34b29706f6b"},"vehicle_type_id":"4","last_reported":1706461628,"current_range_meters":0,"station_id":"ce4bgh92rcd13ifvqb40","pricing_plan_id":"free"},{"bike_id":"988cda84-92c8-4a8c-bd16-c9fe457f29f5","system_id":"levelo_inurba_marseille","lat":43.292667,"lon":5.368507,"is_reserved":false,"is_disabled":false,"rental_uris":{"android":"levelo://app?vid=988cda84-92c8-4a8c-bd16-c9fe457f29f5","ios":"levelo://app?vid=988cda84-92c8-4a8c-bd16-c9fe457f29f5"},"vehicle_type_id":"4","last_reported":1706461628,"current_range_meters":0,"station_id":"ce4bhbp2rcd13ifvqesg","pricing_plan_id":"free"},{"bike_id":"bf4fac92-fd73-4902-98b9-8039201ac607","system_id":"levelo_inurba_marseille","lat":43.29306,"lon":5.374453,"is_reserved":false,"is_disabled":false,"rental_uris":{"android":"levelo://app?vid=bf4fac92-fd73-4902-98b9-8039201ac607","ios":"levelo://app?vid=bf4fac92-fd73-4902-98b9-8039201ac607"},"vehicle_type_id":"4","last_reported":1706461628,"current_range_meters":0,"station_id":"ce4bgi12rcd13ifvqb70","pricing_plan_id":"free"},{"bike_id":"8160a596-60b0-490c-8ebc-4db149396981","system_id":"levelo_inurba_marseille","lat":43.293009,"lon":5.374584,"is_reserved":false,"is_disabled":false,"rental_uris":{"android":"levelo://app?vid=8160a596-60b0-490c-8ebc-4db149396981","ios":"levelo://app?vid=8160a596-60b0-490c-8ebc-4db149396981"},"vehicle_type_id":"4","last_reported":1706461628,"current_range_meters":0,"station_id":"ce4bgi12rcd13ifvqb70","pricing_plan_id":"free"},{"bike_id":"6d0e61d1-41a8-4117-a9b2-918641370a61","system_id":"levelo_inurba_marseille","lat":43.293009,"lon":5.374584,"is_reserved":false,"is_disabled":false,"rental_uris":{"android":"levelo://app?vid=6d0e61d1-41a8-4117-a9b2-918641370a61","ios":"levelo://app?vid=6d0e61d1-41a8-4117-a9b2-918641370a61"},"vehicle_type_id":"4","last_reported":1706461628,"current_range_meters":21600,"station_id":"ce4bgi12rcd13ifvqb70","pricing_plan_id":"free"},{"bike_id":"e9849e92-9983-40e0-ba0a-f05996d1d3b5","system_id":"levelo_inurba_marseille","lat":43.305994,"lon":5.393687,"is_reserved":false,"is_disabled":false,"rental_uris":{"android":"levelo://app?vid=e9849e92-9983-40e0-ba0a-f05996d1d3b5","ios":"levelo://app?vid=e9849e92-9983-40e0-ba0a-f05996d1d3b5"},"vehicle_type_id":"4","last_reported":1706461628,"current_range_meters":24400,"station_id":"ce4bh0p2rcd13ifvqd80","pricing_plan_id":"free"},{"bike_id":"fec9cf54-1751-42d9-bd04-4fe591a80089","system_id":"levelo_inurba_marseille","lat":43.2936,"lon":5.37835,"is_reserved":false,"is_disabled":false,"rental_uris":{"android":"levelo://app?vid=fec9cf54-1751-42d9-bd04-4fe591a80089","ios":"levelo://app?vid=fec9cf54-1751-42d9-bd04-4fe591a80089"},"vehicle_type_id":"4","last_reported":1706461628,"current_range_meters":7200,"station_id":"ce4bgjh2rcd13ifvqbf0","pricing_plan_id":"free"},{"bike_id":"e0e086dc-6a1a-4908-8175-199ec081b2d8","system_id":"levelo_inurba_marseille","lat":43.313291,"lon":5.396838,"is_reserved":false,"is_disabled":false,"rental_uris":{"android":"levelo://app?vid=e0e086dc-6a1a-4908-8175-199ec081b2d8","ios":"levelo://app?vid=e0e086dc-6a1a-4908-8175-199ec081b2d8"},"vehicle_type_id":"4","last_reported":1706461628,"current_range_meters":15600,"station_id":"ce4bgvp2rcd13ifvqcu0","pricing_plan_id":"free"},{"bike_id":"12df1b56-93a5-4be6-9a89-0b6620f0e797","system_id":"levelo_inurba_marseille","lat":43.29881,"lon":5.389,"is_reserved":false,"is_disabled":false,"rental_uris":{"android":"levelo://app?vid=12df1b56-93a5-4be6-9a89-0b6620f0e797","ios":"levelo://app?vid=12df1b56-93a5-4be6-9a89-0b6620f0e797"},"vehicle_type_id":"4","last_reported":1706461628,"current_range_meters":4800,"station_id":"ce4bh392rcd13ifvqdl0","pricing_plan_id":"free"},{"bike_id":"19a98a3e-6f28-4940-921f-3bd049ca887f","system_id":"levelo_inurba_marseille","lat":43.298764,"lon":5.388973,"is_reserved":false,"is_disabled":false,"rental_uris":{"android":"levelo://app?vid=19a98a3e-6f28-4940-921f-3bd049ca887f","ios":"levelo://app?vid=19a98a3e-6f28-4940-921f-3bd049ca887f"},"vehicle_type_id":"4","last_reported":1706461628,"current_range_meters":0,"station_id":"ce4bh392rcd13ifvqdl0","pricing_plan_id":"free"},{"bike_id":"f4493d0f-176b-4964-ad72-a118b2b7678b","system_id":"levelo_inurba_marseille","lat":43.291671,"lon":5.371575,"is_reserved":false,"is_disabled":false,"rental_uris":{"android":"levelo://app?vid=f4493d0f-176b-4964-ad72-a118b2b7678b","ios":"levelo://app?vid=f4493d0f-176b-4964-ad72-a118b2b7678b"},"vehicle_type_id":"4","last_reported":1706461628,"current_range_meters":28800,"station_id":"ce4bha92rcd13ifvqeh0","pricing_plan_id":"free"},{"bike_id":"b8393f1f-6505-4699-b3ba-9da801b4c31e","system_id":"levelo_inurba_marseille","lat":43.298764,"lon":5.388973,"is_reserved":false,"is_disabled":false,"rental_uris":{"android":"levelo://app?vid=b8393f1f-6505-4699-b3ba-9da801b4c31e","ios":"levelo://app?vid=b8393f1f-6505-4699-b3ba-9da801b4c31e"},"vehicle_type_id":"4","last_reported":1706461628,"current_range_meters":22000,"station_id":"ce4bh392rcd13ifvqdl0","pricing_plan_id":"free"},{"bike_id":"0d6d1199-c23c-4816-bf01-4ca60616eef5","system_id":"levelo_inurba_marseille","lat":43.298764,"lon":5.388973,"is_reserved":false,"is_disabled":false,"rental_uris":{"android":"levelo://app?vid=0d6d1199-c23c-4816-bf01-4ca60616eef5","ios":"levelo://app?vid=0d6d1199-c23c-4816-bf01-4ca60616eef5"},"vehicle_type_id":"4","last_reported":1706461628,"current_range_meters":20400,"station_id":"ce4bh392rcd13ifvqdl0","pricing_plan_id":"free"},{"bike_id":"a62acf9b-704b-4fd2-a0ff-49e012dd180e","system_id":"levelo_inurba_marseille","lat":43.291671,"lon":5.371575,"is_reserved":false,"is_disabled":false,"rental_uris":{"android":"levelo://app?vid=a62acf9b-704b-4fd2-a0ff-49e012dd180e","ios":"levelo://app?vid=a62acf9b-704b-4fd2-a0ff-49e012dd180e"},"vehicle_type_id":"4","last_reported":1706461628,"current_range_meters":10800,"station_id":"ce4bha92rcd13ifvqeh0","pricing_plan_id":"free"},{"bike_id":"af959d6e-70b6-4833-a8c9-34a73e39d921","system_id":"levelo_inurba_marseille","lat":43.308827,"lon":5.396353,"is_reserved":false,"is_disabled":false,"rental_uris":{"android":"levelo://app?vid=af959d6e-70b6-4833-a8c9-34a73e39d921","ios":"levelo://app?vid=af959d6e-70b6-4833-a8c9-34a73e39d921"},"vehicle_type_id":"4","last_reported":1706461628,"current_range_meters":8800,"station_id":"ce4bh012rcd13ifvqcv0","pricing_plan_id":"free"},{"bike_id":"c0dd02ca-8874-4437-bf2f-dbbecac6bed8","system_id":"levelo_inurba_marseille","lat":43.29185,"lon":5.35799,"is_reserved":false,"is_disabled":false,"rental_uris":{"android":"levelo://app?vid=c0dd02ca-8874-4437-bf2f-dbbecac6bed8","ios":"levelo://app?vid=c0dd02ca-8874-4437-bf2f-dbbecac6bed8"},"vehicle_type_id":"4","last_reported":1706461628,"current_range_meters":0,"station_id":"ce4bhb12rcd13ifvqel0","pricing_plan_id":"free"},{"bike_id":"3b9c0e9b-fa5a-4cef-8e26-ef02b00137a5","system_id":"levelo_inurba_marseille","lat":43.29529,"lon":5.385581,"is_reserved":false,"is_disabled":false,"rental_uris":{"android":"levelo://app?vid=3b9c0e9b-fa5a-4cef-8e26-ef02b00137a5","ios":"levelo://app?vid=3b9c0e9b-fa5a-4cef-8e26-ef02b00137a5"},"vehicle_type_id":"4","last_reported":1706461628,"current_range_meters":11600,"station_id":"ce4bgih2rcd13ifvqba0","pricing_plan_id":"free"},{"bike_id":"894229ee-039a-4370-9cab-a535567e21a2","system_id":"levelo_inurba_marseille","lat":43.29529,"lon":5.385581,"is_reserved":false,"is_disabled":false,"rental_uris":{"android":"levelo://app?vid=894229ee-039a-4370-9cab-a535567e21a2","ios":"levelo://app?vid=894229ee-039a-4370-9cab-a535567e21a2"},"vehicle_type_id":"4","last_reported":1706461628,"current_range_meters":6000,"station_id":"ce4bgih2rcd13ifvqba0","pricing_plan_id":"free"},{"bike_id":"796f7b0c-7a9e-41e2-998f-60854310039c","system_id":"levelo_inurba_marseille","lat":43.29529,"lon":5.385581,"is_reserved":false,"is_disabled":false,"rental_uris":{"android":"levelo://app?vid=796f7b0c-7a9e-41e2-998f-60854310039c","ios":"levelo://app?vid=796f7b0c-7a9e-41e2-998f-60854310039c"},"vehicle_type_id":"4","last_reported":1706461628,"current_range_meters":4800,"station_id":"ce4bgih2rcd13ifvqba0","pricing_plan_id":"free"},{"bike_id":"1b6c3bcb-e986-4c81-91bd-9524c2cd9091","system_id":"levelo_inurba_marseille","lat":43.29529,"lon":5.385581,"is_reserved":false,"is_disabled":false,"rental_uris":{"android":"levelo://app?vid=1b6c3bcb-e986-4c81-91bd-9524c2cd9091","ios":"levelo://app?vid=1b6c3bcb-e986-4c81-91bd-9524c2cd9091"},"vehicle_type_id":"4","last_reported":1706461628,"current_range_meters":13600,"station_id":"ce4bgih2rcd13ifvqba0","pricing_plan_id":"free"},{"bike_id":"b9d6ee85-2e6b-4e06-90dd-616edebd68b6","system_id":"levelo_inurba_marseille","lat":43.29063,"lon":5.371573,"is_reserved":false,"is_disabled":false,"rental_uris":{"android":"levelo://app?vid=b9d6ee85-2e6b-4e06-90dd-616edebd68b6","ios":"levelo://app?vid=b9d6ee85-2e6b-4e06-90dd-616edebd68b6"},"vehicle_type_id":"4","last_reported":1706461628,"current_range_meters":0,"station_id":"ce4bh5p2rcd13ifvqe4g","pricing_plan_id":"free"},{"bike_id":"c6c725ae-1b96-41e7-9859-1281692637c9","system_id":"levelo_inurba_marseille","lat":43.30199,"lon":5.39468,"is_reserved":false,"is_disabled":false,"rental_uris":{"android":"levelo://app?vid=c6c725ae-1b96-41e7-9859-1281692637c9","ios":"levelo://app?vid=c6c725ae-1b96-41e7-9859-1281692637c9"},"vehicle_type_id":"4","last_reported":1706461628,"current_range_meters":0,"station_id":"ce4bh0p2rcd13ifvqd70","pricing_plan_id":"free"},{"bike_id":"21a53c84-997c-483a-88ae-805becb4df3b","system_id":"levelo_inurba_marseille","lat":43.294153,"lon":5.386305,"is_reserved":false,"is_disabled":false,"rental_uris":{"android":"levelo://app?vid=21a53c84-997c-483a-88ae-805becb4df3b","ios":"levelo://app?vid=21a53c84-997c-483a-88ae-805becb4df3b"},"vehicle_type_id":"4","last_reported":1706461628,"current_range_meters":18000,"station_id":"ce4bh2h2rcd13ifvqdh0","pricing_plan_id":"free"},{"bike_id":"1a74c4c5-f4fc-47c8-84a0-cf51c955e753","system_id":"levelo_inurba_marseille","lat":43.294153,"lon":5.386305,"is_reserved":false,"is_disabled":false,"rental_uris":{"android":"levelo://app?vid=1a74c4c5-f4fc-47c8-84a0-cf51c955e753","ios":"levelo://app?vid=1a74c4c5-f4fc-47c8-84a0-cf51c955e753"},"vehicle_type_id":"4","last_reported":1706461628,"current_range_meters":11200,"station_id":"ce4bh2h2rcd13ifvqdh0","pricing_plan_id":"free"},{"bike_id":"1c6ac071-aa6f-433c-839c-31b8f633b054","system_id":"levelo_inurba_marseille","lat":43.290327,"lon":5.375711,"is_reserved":false,"is_disabled":false,"rental_uris":{"android":"levelo://app?vid=1c6ac071-aa6f-433c-839c-31b8f633b054","ios":"levelo://app?vid=1c6ac071-aa6f-433c-839c-31b8f633b054"},"vehicle_type_id":"4","last_reported":1706461628,"current_range_meters":0,"station_id":"ce4bh692rcd13ifvqe90","pricing_plan_id":"free"},{"bike_id":"de3fb19e-ebe2-4820-975a-215337aa5ad6","system_id":"levelo_inurba_marseille","lat":43.289184,"lon":5.366408,"is_reserved":false,"is_disabled":false,"rental_uris":{"android":"levelo://app?vid=de3fb19e-ebe2-4820-975a-215337aa5ad6","ios":"levelo://app?vid=de3fb19e-ebe2-4820-975a-215337aa5ad6"},"vehicle_type_id":"4","last_reported":1706461628,"current_range_meters":2800,"station_id":"ce4bhap2rcd13ifvqek0","pricing_plan_id":"free"},{"bike_id":"bfaff501-5598-4da7-a486-ed549d99ba55","system_id":"levelo_inurba_marseille","lat":43.294157,"lon":5.38632,"is_reserved":false,"is_disabled":false,"rental_uris":{"android":"levelo://app?vid=bfaff501-5598-4da7-a486-ed549d99ba55","ios":"levelo://app?vid=bfaff501-5598-4da7-a486-ed549d99ba55"},"vehicle_type_id":"4","last_reported":1706461628,"current_range_meters":0,"station_id":"ce4bh2h2rcd13ifvqdh0","pricing_plan_id":"free"},{"bike_id":"254b5cf6-ca6a-4117-8b44-e042778854a9","system_id":"levelo_inurba_marseille","lat":43.289184,"lon":5.366408,"is_reserved":false,"is_disabled":false,"rental_uris":{"android":"levelo://app?vid=254b5cf6-ca6a-4117-8b44-e042778854a9","ios":"levelo://app?vid=254b5cf6-ca6a-4117-8b44-e042778854a9"},"vehicle_type_id":"4","last_reported":1706461628,"current_range_meters":14800,"station_id":"ce4bhap2rcd13ifvqek0","pricing_plan_id":"free"},{"bike_id":"709480e4-723f-43b8-bbc4-9bd369be6fc6","system_id":"levelo_inurba_marseille","lat":43.289184,"lon":5.366408,"is_reserved":false,"is_disabled":false,"rental_uris":{"android":"levelo://app?vid=709480e4-723f-43b8-bbc4-9bd369be6fc6","ios":"levelo://app?vid=709480e4-723f-43b8-bbc4-9bd369be6fc6"},"vehicle_type_id":"4","last_reported":1706461628,"current_range_meters":14000,"station_id":"ce4bhap2rcd13ifvqek0","pricing_plan_id":"free"},{"bike_id":"d440d81c-efba-412a-a417-d3e6476c0340","system_id":"levelo_inurba_marseille","lat":43.289184,"lon":5.366408,"is_reserved":false,"is_disabled":false,"rental_uris":{"android":"levelo://app?vid=d440d81c-efba-412a-a417-d3e6476c0340","ios":"levelo://app?vid=d440d81c-efba-412a-a417-d3e6476c0340"},"vehicle_type_id":"4","last_reported":1706461628,"current_range_meters":2400,"station_id":"ce4bhap2rcd13ifvqek0","pricing_plan_id":"free"},{"bike_id":"c4152cdf-7e52-4cf1-bc94-5c8004dc76c1","system_id":"levelo_inurba_marseille","lat":43.304296,"lon":5.397513,"is_reserved":false,"is_disabled":false,"rental_uris":{"android":"levelo://app?vid=c4152cdf-7e52-4cf1-bc94-5c8004dc76c1","ios":"levelo://app?vid=c4152cdf-7e52-4cf1-bc94-5c8004dc76c1"},"vehicle_type_id":"4","last_reported":1706461628,"current_range_meters":8400,"station_id":"ce4bh092rcd13ifvqd20","pricing_plan_id":"free"},{"bike_id":"193e71c9-86f0-45e7-a132-3caf8ca4dd17","system_id":"levelo_inurba_marseille","lat":43.292644,"lon":5.384257,"is_reserved":false,"is_disabled":false,"rental_uris":{"android":"levelo://app?vid=193e71c9-86f0-45e7-a132-3caf8ca4dd17","ios":"levelo://app?vid=193e71c9-86f0-45e7-a132-3caf8ca4dd17"},"vehicle_type_id":"4","last_reported":1706461628,"current_range_meters":0,"station_id":"ce4bh692rcd13ifvqea0","pricing_plan_id":"free"},{"bike_id":"07a60945-29a4-4a98-9f9d-498254f6e98c","system_id":"levelo_inurba_marseille","lat":43.29007,"lon":5.35623,"is_reserved":false,"is_disabled":false,"rental_uris":{"android":"levelo://app?vid=07a60945-29a4-4a98-9f9d-498254f6e98c","ios":"levelo://app?vid=07a60945-29a4-4a98-9f9d-498254f6e98c"},"vehicle_type_id":"4","last_reported":1706461628,"current_range_meters":0,"station_id":"ce4bhb92rcd13ifvqen0","pricing_plan_id":"free"},{"bike_id":"fa6eb43c-a117-49f6-947a-6253dec92beb","system_id":"levelo_inurba_marseille","lat":43.290995,"lon":5.381361,"is_reserved":false,"is_disabled":false,"rental_uris":{"android":"levelo://app?vid=fa6eb43c-a117-49f6-947a-6253dec92beb","ios":"levelo://app?vid=fa6eb43c-a117-49f6-947a-6253dec92beb"},"vehicle_type_id":"4","last_reported":1706461628,"current_range_meters":23600,"station_id":"ce4bh512rcd13ifvqe2g","pricing_plan_id":"free"},{"bike_id":"3a1a510e-ce0e-4d68-9fcf-02ded123bea0","system_id":"levelo_inurba_marseille","lat":43.290995,"lon":5.381361,"is_reserved":false,"is_disabled":false,"rental_uris":{"android":"levelo://app?vid=3a1a510e-ce0e-4d68-9fcf-02ded123bea0","ios":"levelo://app?vid=3a1a510e-ce0e-4d68-9fcf-02ded123bea0"},"vehicle_type_id":"4","last_reported":1706461628,"current_range_meters":4000,"station_id":"ce4bh512rcd13ifvqe2g","pricing_plan_id":"free"},{"bike_id":"ca448a4d-d5f3-4655-9a83-02d05a02e944","system_id":"levelo_inurba_marseille","lat":43.2979,"lon":5.39327,"is_reserved":false,"is_disabled":false,"rental_uris":{"android":"levelo://app?vid=ca448a4d-d5f3-4655-9a83-02d05a02e944","ios":"levelo://app?vid=ca448a4d-d5f3-4655-9a83-02d05a02e944"},"vehicle_type_id":"4","last_reported":1706461628,"current_range_meters":6400,"station_id":"chh1huq6cuj3fo74tm60","pricing_plan_id":"free"},{"bike_id":"4d64b4b1-158d-4a82-9fff-bad52e8040f8","system_id":"levelo_inurba_marseille","lat":43.297883,"lon":5.393353,"is_reserved":false,"is_disabled":false,"rental_uris":{"android":"levelo://app?vid=4d64b4b1-158d-4a82-9fff-bad52e8040f8","ios":"levelo://app?vid=4d64b4b1-158d-4a82-9fff-bad52e8040f8"},"vehicle_type_id":"4","last_reported":1706461628,"current_range_meters":8400,"station_id":"","pricing_plan_id":"free"},{"bike_id":"c25a9067-ce1a-4e33-ab5c-f9987f2ae61f","system_id":"levelo_inurba_marseille","lat":43.295169,"lon":5.390426,"is_reserved":false,"is_disabled":false,"rental_uris":{"android":"levelo://app?vid=c25a9067-ce1a-4e33-ab5c-f9987f2ae61f","ios":"levelo://app?vid=c25a9067-ce1a-4e33-ab5c-f9987f2ae61f"},"vehicle_type_id":"4","last_reported":1706461628,"current_range_meters":12800,"station_id":"ce4bh3p2rcd13ifvqdp0","pricing_plan_id":"free"},{"bike_id":"c466d33f-03ef-4c19-a614-00f3badefca1","system_id":"levelo_inurba_marseille","lat":43.295169,"lon":5.390426,"is_reserved":false,"is_disabled":false,"rental_uris":{"android":"levelo://app?vid=c466d33f-03ef-4c19-a614-00f3badefca1","ios":"levelo://app?vid=c466d33f-03ef-4c19-a614-00f3badefca1"},"vehicle_type_id":"4","last_reported":1706461628,"current_range_meters":18400,"station_id":"ce4bh3p2rcd13ifvqdp0","pricing_plan_id":"free"},{"bike_id":"8720cb3e-2099-4fbc-b5f4-e26ec7b8ca65","system_id":"levelo_inurba_marseille","lat":43.297803,"lon":5.39332,"is_reserved":false,"is_disabled":false,"rental_uris":{"android":"levelo://app?vid=8720cb3e-2099-4fbc-b5f4-e26ec7b8ca65","ios":"levelo://app?vid=8720cb3e-2099-4fbc-b5f4-e26ec7b8ca65"},"vehicle_type_id":"4","last_reported":1706461628,"current_range_meters":4800,"station_id":"chh1huq6cuj3fo74tm60","pricing_plan_id":"free"},{"bike_id":"65fac2a6-d790-4110-b838-2670a310050f","system_id":"levelo_inurba_marseille","lat":43.29526,"lon":5.39035,"is_reserved":false,"is_disabled":false,"rental_uris":{"android":"levelo://app?vid=65fac2a6-d790-4110-b838-2670a310050f","ios":"levelo://app?vid=65fac2a6-d790-4110-b838-2670a310050f"},"vehicle_type_id":"4","last_reported":1706461628,"current_range_meters":4000,"station_id":"ce4bh3p2rcd13ifvqdp0","pricing_plan_id":"free"},{"bike_id":"efdf2999-ef6e-4b21-a733-3b593c0bc81d","system_id":"levelo_inurba_marseille","lat":43.295298,"lon":5.390404,"is_reserved":false,"is_disabled":false,"rental_uris":{"android":"levelo://app?vid=efdf2999-ef6e-4b21-a733-3b593c0bc81d","ios":"levelo://app?vid=efdf2999-ef6e-4b21-a733-3b593c0bc81d"},"vehicle_type_id":"4","last_reported":1706461628,"current_range_meters":8800,"station_id":"ce4bh3p2rcd13ifvqdp0","pricing_plan_id":"free"},{"bike_id":"f5297f88-03d1-4b62-bcf2-d3a50d4eba0a","system_id":"levelo_inurba_marseille","lat":43.29774,"lon":5.3934,"is_reserved":false,"is_disabled":false,"rental_uris":{"android":"levelo://app?vid=f5297f88-03d1-4b62-bcf2-d3a50d4eba0a","ios":"levelo://app?vid=f5297f88-03d1-4b62-bcf2-d3a50d4eba0a"},"vehicle_type_id":"4","last_reported":1706461628,"current_range_meters":21200,"station_id":"chh1huq6cuj3fo74tm60","pricing_plan_id":"free"},{"bike_id":"f38d6f48-1662-4a93-8339-84c69e2a7ec6","system_id":"levelo_inurba_marseille","lat":43.29523,"lon":5.39036,"is_reserved":false,"is_disabled":false,"rental_uris":{"android":"levelo://app?vid=f38d6f48-1662-4a93-8339-84c69e2a7ec6","ios":"levelo://app?vid=f38d6f48-1662-4a93-8339-84c69e2a7ec6"},"vehicle_type_id":"4","last_reported":1706461628,"current_range_meters":0,"station_id":"ce4bh3p2rcd13ifvqdp0","pricing_plan_id":"free"},{"bike_id":"c3548f2b-7127-42e2-bb03-16e3943a42a3","system_id":"levelo_inurba_marseille","lat":43.29523,"lon":5.39041,"is_reserved":false,"is_disabled":false,"rental_uris":{"android":"levelo://app?vid=c3548f2b-7127-42e2-bb03-16e3943a42a3","ios":"levelo://app?vid=c3548f2b-7127-42e2-bb03-16e3943a42a3"},"vehicle_type_id":"4","last_reported":1706461628,"current_range_meters":0,"station_id":"ce4bh3p2rcd13ifvqdp0","pricing_plan_id":"free"},{"bike_id":"9dd1d97d-f445-42d3-a0ec-7e2c2f644900","system_id":"levelo_inurba_marseille","lat":43.2901,"lon":5.381269,"is_reserved":false,"is_disabled":false,"rental_uris":{"android":"levelo://app?vid=9dd1d97d-f445-42d3-a0ec-7e2c2f644900","ios":"levelo://app?vid=9dd1d97d-f445-42d3-a0ec-7e2c2f644900"},"vehicle_type_id":"4","last_reported":1706461628,"current_range_meters":26000,"station_id":"ce4bh4p2rcd13ifvqe1g","pricing_plan_id":"free"},{"bike_id":"0f2c1b5b-2255-427d-8e1c-a2e4920df7dd","system_id":"levelo_inurba_marseille","lat":43.337477,"lon":5.374408,"is_reserved":false,"is_disabled":false,"rental_uris":{"android":"levelo://app?vid=0f2c1b5b-2255-427d-8e1c-a2e4920df7dd","ios":"levelo://app?vid=0f2c1b5b-2255-427d-8e1c-a2e4920df7dd"},"vehicle_type_id":"4","last_reported":1706461628,"current_range_meters":26000,"station_id":"","pricing_plan_id":"free"},{"bike_id":"a563cdbf-78b8-441c-8dce-8da1c3325b92","system_id":"levelo_inurba_marseille","lat":43.337516,"lon":5.374557,"is_reserved":false,"is_disabled":false,"rental_uris":{"android":"levelo://app?vid=a563cdbf-78b8-441c-8dce-8da1c3325b92","ios":"levelo://app?vid=a563cdbf-78b8-441c-8dce-8da1c3325b92"},"vehicle_type_id":"4","last_reported":1706461628,"current_range_meters":19200,"station_id":"","pricing_plan_id":"free"},{"bike_id":"b7f12eab-e0a6-499e-87ec-2b4381c4602a","system_id":"levelo_inurba_marseille","lat":43.337522,"lon":5.374584,"is_reserved":false,"is_disabled":false,"rental_uris":{"android":"levelo://app?vid=b7f12eab-e0a6-499e-87ec-2b4381c4602a","ios":"levelo://app?vid=b7f12eab-e0a6-499e-87ec-2b4381c4602a"},"vehicle_type_id":"4","last_reported":1706461628,"current_range_meters":24000,"station_id":"","pricing_plan_id":"free"},{"bike_id":"ce5cd671-7274-4c76-9ee7-e22a8ce37c17","system_id":"levelo_inurba_marseille","lat":43.337621,"lon":5.374534,"is_reserved":false,"is_disabled":false,"rental_uris":{"android":"levelo://app?vid=ce5cd671-7274-4c76-9ee7-e22a8ce37c17","ios":"levelo://app?vid=ce5cd671-7274-4c76-9ee7-e22a8ce37c17"},"vehicle_type_id":"4","last_reported":1706461628,"current_range_meters":23600,"station_id":"","pricing_plan_id":"free"},{"bike_id":"2fe24097-b1c2-4583-ba1f-cf8501171a4c","system_id":"levelo_inurba_marseille","lat":43.33758,"lon":5.37489,"is_reserved":false,"is_disabled":false,"rental_uris":{"android":"levelo://app?vid=2fe24097-b1c2-4583-ba1f-cf8501171a4c","ios":"levelo://app?vid=2fe24097-b1c2-4583-ba1f-cf8501171a4c"},"vehicle_type_id":"4","last_reported":1706461628,"current_range_meters":10800,"station_id":"","pricing_plan_id":"free"},{"bike_id":"1facbbf3-baac-42f8-85eb-cb1e36f3e4b9","system_id":"levelo_inurba_marseille","lat":43.33761,"lon":5.37489,"is_reserved":false,"is_disabled":false,"rental_uris":{"android":"levelo://app?vid=1facbbf3-baac-42f8-85eb-cb1e36f3e4b9","ios":"levelo://app?vid=1facbbf3-baac-42f8-85eb-cb1e36f3e4b9"},"vehicle_type_id":"4","last_reported":1706461628,"current_range_meters":13600,"station_id":"","pricing_plan_id":"free"},{"bike_id":"b7d3b81d-d85a-44b5-a0c7-8f9c9f74639e","system_id":"levelo_inurba_marseille","lat":43.33765,"lon":5.374672,"is_reserved":false,"is_disabled":false,"rental_uris":{"android":"levelo://app?vid=b7d3b81d-d85a-44b5-a0c7-8f9c9f74639e","ios":"levelo://app?vid=b7d3b81d-d85a-44b5-a0c7-8f9c9f74639e"},"vehicle_type_id":"4","last_reported":1706461628,"current_range_meters":26400,"station_id":"","pricing_plan_id":"free"},{"bike_id":"0858a8b4-cea3-4ea6-90cc-541b1f4d8468","system_id":"levelo_inurba_marseille","lat":43.301117,"lon":5.398795,"is_reserved":false,"is_disabled":false,"rental_uris":{"android":"levelo://app?vid=0858a8b4-cea3-4ea6-90cc-541b1f4d8468","ios":"levelo://app?vid=0858a8b4-cea3-4ea6-90cc-541b1f4d8468"},"vehicle_type_id":"4","last_reported":1706461628,"current_range_meters":17600,"station_id":"ce4bh0h2rcd13ifvqd40","pricing_plan_id":"free"},{"bike_id":"d34a0de3-2e00-4095-a2fd-ee838031ed98","system_id":"levelo_inurba_marseille","lat":43.301117,"lon":5.398795,"is_reserved":false,"is_disabled":false,"rental_uris":{"android":"levelo://app?vid=d34a0de3-2e00-4095-a2fd-ee838031ed98","ios":"levelo://app?vid=d34a0de3-2e00-4095-a2fd-ee838031ed98"},"vehicle_type_id":"4","last_reported":1706461628,"current_range_meters":16800,"station_id":"ce4bh0h2rcd13ifvqd40","pricing_plan_id":"free"},{"bike_id":"d6fb93ef-93c5-450f-a371-465a97f59ad7","system_id":"levelo_inurba_marseille","lat":43.286593,"lon":5.363346,"is_reserved":false,"is_disabled":false,"rental_uris":{"android":"levelo://app?vid=d6fb93ef-93c5-450f-a371-465a97f59ad7","ios":"levelo://app?vid=d6fb93ef-93c5-450f-a371-465a97f59ad7"},"vehicle_type_id":"4","last_reported":1706461628,"current_range_meters":32000,"station_id":"ce4bhah2rcd13ifvqej0","pricing_plan_id":"free"},{"bike_id":"a11a5cf4-9afa-425b-a375-38594806f18c","system_id":"levelo_inurba_marseille","lat":43.286591,"lon":5.363346,"is_reserved":false,"is_disabled":false,"rental_uris":{"android":"levelo://app?vid=a11a5cf4-9afa-425b-a375-38594806f18c","ios":"levelo://app?vid=a11a5cf4-9afa-425b-a375-38594806f18c"},"vehicle_type_id":"4","last_reported":1706461628,"current_range_meters":23200,"station_id":"ce4bhah2rcd13ifvqej0","pricing_plan_id":"free"},{"bike_id":"4d01620b-2623-4f99-b24e-44e0abaada39","system_id":"levelo_inurba_marseille","lat":43.286591,"lon":5.363346,"is_reserved":false,"is_disabled":false,"rental_uris":{"android":"levelo://app?vid=4d01620b-2623-4f99-b24e-44e0abaada39","ios":"levelo://app?vid=4d01620b-2623-4f99-b24e-44e0abaada39"},"vehicle_type_id":"4","last_reported":1706461628,"current_range_meters":6400,"station_id":"ce4bhah2rcd13ifvqej0","pricing_plan_id":"free"},{"bike_id":"8cc9efb3-b18a-4d7d-9d36-943d3f1426b0","system_id":"levelo_inurba_marseille","lat":43.286961,"lon":5.373785,"is_reserved":false,"is_disabled":false,"rental_uris":{"android":"levelo://app?vid=8cc9efb3-b18a-4d7d-9d36-943d3f1426b0","ios":"levelo://app?vid=8cc9efb3-b18a-4d7d-9d36-943d3f1426b0"},"vehicle_type_id":"4","last_reported":1706461628,"current_range_meters":0,"station_id":"ce4bh3p2rcd13ifvqdq0","pricing_plan_id":"free"},{"bike_id":"94c712f0-2471-4cbf-b779-4b1642f80194","system_id":"levelo_inurba_marseille","lat":43.286961,"lon":5.373785,"is_reserved":false,"is_disabled":false,"rental_uris":{"android":"levelo://app?vid=94c712f0-2471-4cbf-b779-4b1642f80194","ios":"levelo://app?vid=94c712f0-2471-4cbf-b779-4b1642f80194"},"vehicle_type_id":"4","last_reported":1706461628,"current_range_meters":5600,"station_id":"ce4bh3p2rcd13ifvqdq0","pricing_plan_id":"free"},{"bike_id":"80cd706f-fea1-473e-b9ec-63d2ecf29729","system_id":"levelo_inurba_marseille","lat":43.286593,"lon":5.363346,"is_reserved":false,"is_disabled":false,"rental_uris":{"android":"levelo://app?vid=80cd706f-fea1-473e-b9ec-63d2ecf29729","ios":"levelo://app?vid=80cd706f-fea1-473e-b9ec-63d2ecf29729"},"vehicle_type_id":"4","last_reported":1706461628,"current_range_meters":25600,"station_id":"ce4bhah2rcd13ifvqej0","pricing_plan_id":"free"},{"bike_id":"ecc2f9b4-356a-44f9-9ea2-3f302dedf121","system_id":"levelo_inurba_marseille","lat":43.286593,"lon":5.363346,"is_reserved":false,"is_disabled":false,"rental_uris":{"android":"levelo://app?vid=ecc2f9b4-356a-44f9-9ea2-3f302dedf121","ios":"levelo://app?vid=ecc2f9b4-356a-44f9-9ea2-3f302dedf121"},"vehicle_type_id":"4","last_reported":1706461628,"current_range_meters":5600,"station_id":"ce4bhah2rcd13ifvqej0","pricing_plan_id":"free"},{"bike_id":"3e05a70a-65e3-4889-a614-7626d76e72d9","system_id":"levelo_inurba_marseille","lat":43.29526,"lon":5.39395,"is_reserved":false,"is_disabled":false,"rental_uris":{"android":"levelo://app?vid=3e05a70a-65e3-4889-a614-7626d76e72d9","ios":"levelo://app?vid=3e05a70a-65e3-4889-a614-7626d76e72d9"},"vehicle_type_id":"4","last_reported":1706461628,"current_range_meters":0,"station_id":"ce4bh292rcd13ifvqdf0","pricing_plan_id":"free"},{"bike_id":"f7195420-9477-40cc-b310-48263f081961","system_id":"levelo_inurba_marseille","lat":43.289307,"lon":5.38406,"is_reserved":false,"is_disabled":false,"rental_uris":{"android":"levelo://app?vid=f7195420-9477-40cc-b310-48263f081961","ios":"levelo://app?vid=f7195420-9477-40cc-b310-48263f081961"},"vehicle_type_id":"4","last_reported":1706461628,"current_range_meters":9200,"station_id":"ce4bh612rcd13ifvqe6g","pricing_plan_id":"free"},{"bike_id":"ce168945-edaa-4e78-9084-bfcb24fe8d86","system_id":"levelo_inurba_marseille","lat":43.289307,"lon":5.38406,"is_reserved":false,"is_disabled":false,"rental_uris":{"android":"levelo://app?vid=ce168945-edaa-4e78-9084-bfcb24fe8d86","ios":"levelo://app?vid=ce168945-edaa-4e78-9084-bfcb24fe8d86"},"vehicle_type_id":"4","last_reported":1706461628,"current_range_meters":0,"station_id":"ce4bh612rcd13ifvqe6g","pricing_plan_id":"free"},{"bike_id":"183bb1c1-398f-466c-b05d-327ac4efc436","system_id":"levelo_inurba_marseille","lat":43.302511,"lon":5.400653,"is_reserved":false,"is_disabled":false,"rental_uris":{"android":"levelo://app?vid=183bb1c1-398f-466c-b05d-327ac4efc436","ios":"levelo://app?vid=183bb1c1-398f-466c-b05d-327ac4efc436"},"vehicle_type_id":"4","last_reported":1706461628,"current_range_meters":10400,"station_id":"ce4bgth2rcd13ifvqch0","pricing_plan_id":"free"},{"bike_id":"f35acf26-0068-4375-969f-0b27048f9dee","system_id":"levelo_inurba_marseille","lat":43.290336,"lon":5.386425,"is_reserved":false,"is_disabled":false,"rental_uris":{"android":"levelo://app?vid=f35acf26-0068-4375-969f-0b27048f9dee","ios":"levelo://app?vid=f35acf26-0068-4375-969f-0b27048f9dee"},"vehicle_type_id":"4","last_reported":1706461628,"current_range_meters":2000,"station_id":"ce4bh4p2rcd13ifvqe0g","pricing_plan_id":"free"},{"bike_id":"70ee4c99-74e8-4cd7-b546-6aba0df6d76a","system_id":"levelo_inurba_marseille","lat":43.291994,"lon":5.392907,"is_reserved":false,"is_disabled":false,"rental_uris":{"android":"levelo://app?vid=70ee4c99-74e8-4cd7-b546-6aba0df6d76a","ios":"levelo://app?vid=70ee4c99-74e8-4cd7-b546-6aba0df6d76a"},"vehicle_type_id":"4","last_reported":1706461628,"current_range_meters":20800,"station_id":"ce4bh192rcd13ifvqdd0","pricing_plan_id":"free"},{"bike_id":"deb75980-30f4-417e-83b6-8625ec2a9b71","system_id":"levelo_inurba_marseille","lat":43.28602,"lon":5.37064,"is_reserved":false,"is_disabled":false,"rental_uris":{"android":"levelo://app?vid=deb75980-30f4-417e-83b6-8625ec2a9b71","ios":"levelo://app?vid=deb75980-30f4-417e-83b6-8625ec2a9b71"},"vehicle_type_id":"4","last_reported":1706461628,"current_range_meters":0,"station_id":"","pricing_plan_id":"free"},{"bike_id":"2c0a2eea-c932-46e1-982f-42befe904ffe","system_id":"levelo_inurba_marseille","lat":43.287185,"lon":5.379373,"is_reserved":false,"is_disabled":false,"rental_uris":{"android":"levelo://app?vid=2c0a2eea-c932-46e1-982f-42befe904ffe","ios":"levelo://app?vid=2c0a2eea-c932-46e1-982f-42befe904ffe"},"vehicle_type_id":"4","last_reported":1706461628,"current_range_meters":10000,"station_id":"ce4bh9p2rcd13ifvqec0","pricing_plan_id":"free"},{"bike_id":"4bca69be-c933-4d75-a387-f8850e1dba99","system_id":"levelo_inurba_marseille","lat":43.291994,"lon":5.392907,"is_reserved":false,"is_disabled":false,"rental_uris":{"android":"levelo://app?vid=4bca69be-c933-4d75-a387-f8850e1dba99","ios":"levelo://app?vid=4bca69be-c933-4d75-a387-f8850e1dba99"},"vehicle_type_id":"4","last_reported":1706461628,"current_range_meters":27600,"station_id":"ce4bh192rcd13ifvqdd0","pricing_plan_id":"free"},{"bike_id":"c4cd0d6b-ac52-4d92-812e-f9bceeb43687","system_id":"levelo_inurba_marseille","lat":43.291994,"lon":5.392907,"is_reserved":false,"is_disabled":false,"rental_uris":{"android":"levelo://app?vid=c4cd0d6b-ac52-4d92-812e-f9bceeb43687","ios":"levelo://app?vid=c4cd0d6b-ac52-4d92-812e-f9bceeb43687"},"vehicle_type_id":"4","last_reported":1706461628,"current_range_meters":22000,"station_id":"ce4bh192rcd13ifvqdd0","pricing_plan_id":"free"},{"bike_id":"a4e00572-b585-4d65-84a5-8dbfbe4f7e48","system_id":"levelo_inurba_marseille","lat":43.291994,"lon":5.392907,"is_reserved":false,"is_disabled":false,"rental_uris":{"android":"levelo://app?vid=a4e00572-b585-4d65-84a5-8dbfbe4f7e48","ios":"levelo://app?vid=a4e00572-b585-4d65-84a5-8dbfbe4f7e48"},"vehicle_type_id":"4","last_reported":1706461628,"current_range_meters":17200,"station_id":"ce4bh192rcd13ifvqdd0","pricing_plan_id":"free"},{"bike_id":"9bbd0fe0-04f2-4db0-b13d-b46660929907","system_id":"levelo_inurba_marseille","lat":43.284534,"lon":5.358662,"is_reserved":false,"is_disabled":false,"rental_uris":{"android":"levelo://app?vid=9bbd0fe0-04f2-4db0-b13d-b46660929907","ios":"levelo://app?vid=9bbd0fe0-04f2-4db0-b13d-b46660929907"},"vehicle_type_id":"4","last_reported":1706461628,"current_range_meters":3200,"station_id":"ce4bhah2rcd13ifvqei0","pricing_plan_id":"free"},{"bike_id":"0f9c095b-b478-4844-90b5-ba1b4b26e8ba","system_id":"levelo_inurba_marseille","lat":43.284534,"lon":5.358662,"is_reserved":false,"is_disabled":false,"rental_uris":{"android":"levelo://app?vid=0f9c095b-b478-4844-90b5-ba1b4b26e8ba","ios":"levelo://app?vid=0f9c095b-b478-4844-90b5-ba1b4b26e8ba"},"vehicle_type_id":"4","last_reported":1706461628,"current_range_meters":16000,"station_id":"ce4bhah2rcd13ifvqei0","pricing_plan_id":"free"},{"bike_id":"7f798318-d1c4-4591-8220-1da0383a915c","system_id":"levelo_inurba_marseille","lat":43.294314,"lon":5.397498,"is_reserved":false,"is_disabled":false,"rental_uris":{"android":"levelo://app?vid=7f798318-d1c4-4591-8220-1da0383a915c","ios":"levelo://app?vid=7f798318-d1c4-4591-8220-1da0383a915c"},"vehicle_type_id":"4","last_reported":1706461628,"current_range_meters":7600,"station_id":"ce4bh3h2rcd13ifvqdo0","pricing_plan_id":"free"},{"bike_id":"6493c0c8-a154-4aa1-b5e5-3e78be95af6f","system_id":"levelo_inurba_marseille","lat":43.28404,"lon":5.37526,"is_reserved":false,"is_disabled":false,"rental_uris":{"android":"levelo://app?vid=6493c0c8-a154-4aa1-b5e5-3e78be95af6f","ios":"levelo://app?vid=6493c0c8-a154-4aa1-b5e5-3e78be95af6f"},"vehicle_type_id":"4","last_reported":1706461628,"current_range_meters":0,"station_id":"ce4bh412rcd13ifvqds0","pricing_plan_id":"free"},{"bike_id":"f3b98fb0-dbf3-4b8e-8246-1d5cfb485053","system_id":"levelo_inurba_marseille","lat":43.286595,"lon":5.386795,"is_reserved":false,"is_disabled":false,"rental_uris":{"android":"levelo://app?vid=f3b98fb0-dbf3-4b8e-8246-1d5cfb485053","ios":"levelo://app?vid=f3b98fb0-dbf3-4b8e-8246-1d5cfb485053"},"vehicle_type_id":"4","last_reported":1706461628,"current_range_meters":16000,"station_id":"ce4bh492rcd13ifvqdug","pricing_plan_id":"free"},{"bike_id":"31e3e33c-4d66-48a1-9ac7-fb8a30802bfc","system_id":"levelo_inurba_marseille","lat":43.28665,"lon":5.38659,"is_reserved":false,"is_disabled":false,"rental_uris":{"android":"levelo://app?vid=31e3e33c-4d66-48a1-9ac7-fb8a30802bfc","ios":"levelo://app?vid=31e3e33c-4d66-48a1-9ac7-fb8a30802bfc"},"vehicle_type_id":"4","last_reported":1706461628,"current_range_meters":11200,"station_id":"ce4bh492rcd13ifvqdug","pricing_plan_id":"free"},{"bike_id":"0937bfe3-2701-4c82-876c-48b34b82b1f0","system_id":"levelo_inurba_marseille","lat":43.28658,"lon":5.38664,"is_reserved":false,"is_disabled":false,"rental_uris":{"android":"levelo://app?vid=0937bfe3-2701-4c82-876c-48b34b82b1f0","ios":"levelo://app?vid=0937bfe3-2701-4c82-876c-48b34b82b1f0"},"vehicle_type_id":"4","last_reported":1706461628,"current_range_meters":4000,"station_id":"ce4bh492rcd13ifvqdug","pricing_plan_id":"free"},{"bike_id":"50b1af7f-697c-456a-b2c0-aaf507c51a13","system_id":"levelo_inurba_marseille","lat":43.33717,"lon":5.391857,"is_reserved":false,"is_disabled":false,"rental_uris":{"android":"levelo://app?vid=50b1af7f-697c-456a-b2c0-aaf507c51a13","ios":"levelo://app?vid=50b1af7f-697c-456a-b2c0-aaf507c51a13"},"vehicle_type_id":"4","last_reported":1706461628,"current_range_meters":28000,"station_id":"ce4bhr92rcd13ifvqhsg","pricing_plan_id":"free"},{"bike_id":"3f0df1f8-8375-4390-8462-02f4c04d503a","system_id":"levelo_inurba_marseille","lat":43.284793,"lon":5.384113,"is_reserved":false,"is_disabled":false,"rental_uris":{"android":"levelo://app?vid=3f0df1f8-8375-4390-8462-02f4c04d503a","ios":"levelo://app?vid=3f0df1f8-8375-4390-8462-02f4c04d503a"},"vehicle_type_id":"4","last_reported":1706461628,"current_range_meters":22400,"station_id":"ce4bh512rcd13ifvqe3g","pricing_plan_id":"free"},{"bike_id":"b827ce7e-10e2-4c7d-9139-43e10336e8dc","system_id":"levelo_inurba_marseille","lat":43.28477,"lon":5.38418,"is_reserved":false,"is_disabled":false,"rental_uris":{"android":"levelo://app?vid=b827ce7e-10e2-4c7d-9139-43e10336e8dc","ios":"levelo://app?vid=b827ce7e-10e2-4c7d-9139-43e10336e8dc"},"vehicle_type_id":"4","last_reported":1706461628,"current_range_meters":0,"station_id":"ce4bh512rcd13ifvqe3g","pricing_plan_id":"free"},{"bike_id":"114b0873-f941-4d5a-afc5-fdf30632e916","system_id":"levelo_inurba_marseille","lat":43.284793,"lon":5.384113,"is_reserved":false,"is_disabled":false,"rental_uris":{"android":"levelo://app?vid=114b0873-f941-4d5a-afc5-fdf30632e916","ios":"levelo://app?vid=114b0873-f941-4d5a-afc5-fdf30632e916"},"vehicle_type_id":"4","last_reported":1706461628,"current_range_meters":4800,"station_id":"ce4bh512rcd13ifvqe3g","pricing_plan_id":"free"},{"bike_id":"84a7c586-531c-4501-aa08-fa5e17f3ad8e","system_id":"levelo_inurba_marseille","lat":43.28475,"lon":5.38428,"is_reserved":false,"is_disabled":false,"rental_uris":{"android":"levelo://app?vid=84a7c586-531c-4501-aa08-fa5e17f3ad8e","ios":"levelo://app?vid=84a7c586-531c-4501-aa08-fa5e17f3ad8e"},"vehicle_type_id":"4","last_reported":1706461628,"current_range_meters":0,"station_id":"ce4bh512rcd13ifvqe3g","pricing_plan_id":"free"},{"bike_id":"2ba05a8b-618a-4eaf-9a4d-d6077a36af88","system_id":"levelo_inurba_marseille","lat":43.284725,"lon":5.384306,"is_reserved":false,"is_disabled":false,"rental_uris":{"android":"levelo://app?vid=2ba05a8b-618a-4eaf-9a4d-d6077a36af88","ios":"levelo://app?vid=2ba05a8b-618a-4eaf-9a4d-d6077a36af88"},"vehicle_type_id":"4","last_reported":1706461628,"current_range_meters":23600,"station_id":"","pricing_plan_id":"free"},{"bike_id":"80298316-9ccd-4755-b431-b696a6cd1a37","system_id":"levelo_inurba_marseille","lat":43.288497,"lon":5.393089,"is_reserved":false,"is_disabled":false,"rental_uris":{"android":"levelo://app?vid=80298316-9ccd-4755-b431-b696a6cd1a37","ios":"levelo://app?vid=80298316-9ccd-4755-b431-b696a6cd1a37"},"vehicle_type_id":"4","last_reported":1706461628,"current_range_meters":0,"station_id":"ce4bh2p2rcd13ifvqdi0","pricing_plan_id":"free"},{"bike_id":"025768fc-953e-4e1f-bc47-2e76895221ff","system_id":"levelo_inurba_marseille","lat":43.283494,"lon":5.380945,"is_reserved":false,"is_disabled":false,"rental_uris":{"android":"levelo://app?vid=025768fc-953e-4e1f-bc47-2e76895221ff","ios":"levelo://app?vid=025768fc-953e-4e1f-bc47-2e76895221ff"},"vehicle_type_id":"4","last_reported":1706461628,"current_range_meters":6800,"station_id":"ce4bh412rcd13ifvqdr0","pricing_plan_id":"free"},{"bike_id":"8798438f-5d6a-48b0-8ae0-2c3b35656516","system_id":"levelo_inurba_marseille","lat":43.289363,"lon":5.396322,"is_reserved":false,"is_disabled":false,"rental_uris":{"android":"levelo://app?vid=8798438f-5d6a-48b0-8ae0-2c3b35656516","ios":"levelo://app?vid=8798438f-5d6a-48b0-8ae0-2c3b35656516"},"vehicle_type_id":"4","last_reported":1706461628,"current_range_meters":17600,"station_id":"ce4bh3h2rcd13ifvqdn0","pricing_plan_id":"free"},{"bike_id":"b41bcd76-cb12-4b33-95cd-9444d1e23578","system_id":"levelo_inurba_marseille","lat":43.293556,"lon":5.401561,"is_reserved":false,"is_disabled":false,"rental_uris":{"android":"levelo://app?vid=b41bcd76-cb12-4b33-95cd-9444d1e23578","ios":"levelo://app?vid=b41bcd76-cb12-4b33-95cd-9444d1e23578"},"vehicle_type_id":"4","last_reported":1706461628,"current_range_meters":5600,"station_id":"","pricing_plan_id":"free"},{"bike_id":"6d191f29-0d73-4ff1-8c43-c6f61b09ce5e","system_id":"levelo_inurba_marseille","lat":43.33717,"lon":5.391857,"is_reserved":false,"is_disabled":false,"rental_uris":{"android":"levelo://app?vid=6d191f29-0d73-4ff1-8c43-c6f61b09ce5e","ios":"levelo://app?vid=6d191f29-0d73-4ff1-8c43-c6f61b09ce5e"},"vehicle_type_id":"4","last_reported":1706461628,"current_range_meters":25200,"station_id":"ce4bhr92rcd13ifvqhsg","pricing_plan_id":"free"},{"bike_id":"98038a7f-9110-4312-ab44-beeb86363aee","system_id":"levelo_inurba_marseille","lat":43.292724,"lon":5.401131,"is_reserved":false,"is_disabled":false,"rental_uris":{"android":"levelo://app?vid=98038a7f-9110-4312-ab44-beeb86363aee","ios":"levelo://app?vid=98038a7f-9110-4312-ab44-beeb86363aee"},"vehicle_type_id":"4","last_reported":1706461628,"current_range_meters":22800,"station_id":"ce4bh312rcd13ifvqdk0","pricing_plan_id":"free"},{"bike_id":"ebc081b3-d9eb-43e8-9994-accb1a1dd961","system_id":"levelo_inurba_marseille","lat":43.282833,"lon":5.35046,"is_reserved":false,"is_disabled":false,"rental_uris":{"android":"levelo://app?vid=ebc081b3-d9eb-43e8-9994-accb1a1dd961","ios":"levelo://app?vid=ebc081b3-d9eb-43e8-9994-accb1a1dd961"},"vehicle_type_id":"4","last_reported":1706461628,"current_range_meters":17200,"station_id":"ce4bhbp2rcd13ifvqerg","pricing_plan_id":"free"},{"bike_id":"a7963451-5119-43fa-bc11-3be522aa835c","system_id":"levelo_inurba_marseille","lat":43.28039,"lon":5.369297,"is_reserved":false,"is_disabled":false,"rental_uris":{"android":"levelo://app?vid=a7963451-5119-43fa-bc11-3be522aa835c","ios":"levelo://app?vid=a7963451-5119-43fa-bc11-3be522aa835c"},"vehicle_type_id":"4","last_reported":1706461628,"current_range_meters":0,"station_id":"ce4bha12rcd13ifvqef0","pricing_plan_id":"free"},{"bike_id":"44ba5cb1-d5a1-49d8-8331-91875039e9fc","system_id":"levelo_inurba_marseille","lat":43.29033,"lon":5.39958,"is_reserved":false,"is_disabled":false,"rental_uris":{"android":"levelo://app?vid=44ba5cb1-d5a1-49d8-8331-91875039e9fc","ios":"levelo://app?vid=44ba5cb1-d5a1-49d8-8331-91875039e9fc"},"vehicle_type_id":"4","last_reported":1706461628,"current_range_meters":28400,"station_id":"ce4bh392rcd13ifvqdm0","pricing_plan_id":"free"},{"bike_id":"178818c3-2939-4687-a7fa-40596bdce584","system_id":"levelo_inurba_marseille","lat":43.281044,"lon":5.378308,"is_reserved":false,"is_disabled":false,"rental_uris":{"android":"levelo://app?vid=178818c3-2939-4687-a7fa-40596bdce584","ios":"levelo://app?vid=178818c3-2939-4687-a7fa-40596bdce584"},"vehicle_type_id":"4","last_reported":1706461628,"current_range_meters":0,"station_id":"ce4bha12rcd13ifvqee0","pricing_plan_id":"free"},{"bike_id":"8b197230-0adc-43a8-95c0-b701c8c08f54","system_id":"levelo_inurba_marseille","lat":43.296263,"lon":5.40601,"is_reserved":false,"is_disabled":false,"rental_uris":{"android":"levelo://app?vid=8b197230-0adc-43a8-95c0-b701c8c08f54","ios":"levelo://app?vid=8b197230-0adc-43a8-95c0-b701c8c08f54"},"vehicle_type_id":"4","last_reported":1706461628,"current_range_meters":26400,"station_id":"ce4bh0h2rcd13ifvqd60","pricing_plan_id":"free"},{"bike_id":"acc0f6ff-fdfa-4019-a5cd-f830b0232721","system_id":"levelo_inurba_marseille","lat":43.28573,"lon":5.394992,"is_reserved":false,"is_disabled":false,"rental_uris":{"android":"levelo://app?vid=acc0f6ff-fdfa-4019-a5cd-f830b0232721","ios":"levelo://app?vid=acc0f6ff-fdfa-4019-a5cd-f830b0232721"},"vehicle_type_id":"4","last_reported":1706461628,"current_range_meters":800,"station_id":"ce4bh292rcd13ifvqdg0","pricing_plan_id":"free"},{"bike_id":"34d9fda4-09b0-4ff4-ac6c-a4ceebb3a44d","system_id":"levelo_inurba_marseille","lat":43.284462,"lon":5.392121,"is_reserved":false,"is_disabled":false,"rental_uris":{"android":"levelo://app?vid=34d9fda4-09b0-4ff4-ac6c-a4ceebb3a44d","ios":"levelo://app?vid=34d9fda4-09b0-4ff4-ac6c-a4ceebb3a44d"},"vehicle_type_id":"4","last_reported":1706461628,"current_range_meters":1200,"station_id":"ce4bhoh2rcd13ifvqh5g","pricing_plan_id":"free"},{"bike_id":"d1a30c0a-60fd-42ac-827c-b31fa5dcfdae","system_id":"levelo_inurba_marseille","lat":43.28573,"lon":5.394992,"is_reserved":false,"is_disabled":false,"rental_uris":{"android":"levelo://app?vid=d1a30c0a-60fd-42ac-827c-b31fa5dcfdae","ios":"levelo://app?vid=d1a30c0a-60fd-42ac-827c-b31fa5dcfdae"},"vehicle_type_id":"4","last_reported":1706461628,"current_range_meters":13200,"station_id":"ce4bh292rcd13ifvqdg0","pricing_plan_id":"free"},{"bike_id":"e8ae7689-ee33-4dcb-bbfd-674e8e74645e","system_id":"levelo_inurba_marseille","lat":43.285742,"lon":5.395004,"is_reserved":false,"is_disabled":false,"rental_uris":{"android":"levelo://app?vid=e8ae7689-ee33-4dcb-bbfd-674e8e74645e","ios":"levelo://app?vid=e8ae7689-ee33-4dcb-bbfd-674e8e74645e"},"vehicle_type_id":"4","last_reported":1706461628,"current_range_meters":7600,"station_id":"ce4bh292rcd13ifvqdg0","pricing_plan_id":"free"},{"bike_id":"fd2338a7-0f63-4a62-b4a5-b2b702644314","system_id":"levelo_inurba_marseille","lat":43.28573,"lon":5.394992,"is_reserved":false,"is_disabled":false,"rental_uris":{"android":"levelo://app?vid=fd2338a7-0f63-4a62-b4a5-b2b702644314","ios":"levelo://app?vid=fd2338a7-0f63-4a62-b4a5-b2b702644314"},"vehicle_type_id":"4","last_reported":1706461628,"current_range_meters":14000,"station_id":"ce4bh292rcd13ifvqdg0","pricing_plan_id":"free"},{"bike_id":"ce359fb6-e3d5-45fc-9e26-757bf9375f27","system_id":"levelo_inurba_marseille","lat":43.326605,"lon":5.409903,"is_reserved":false,"is_disabled":false,"rental_uris":{"android":"levelo://app?vid=ce359fb6-e3d5-45fc-9e26-757bf9375f27","ios":"levelo://app?vid=ce359fb6-e3d5-45fc-9e26-757bf9375f27"},"vehicle_type_id":"4","last_reported":1706461628,"current_range_meters":6000,"station_id":"ce4bhpp2rcd13ifvqhgg","pricing_plan_id":"free"},{"bike_id":"490774a6-4917-468e-ac2f-aabcb381f604","system_id":"levelo_inurba_marseille","lat":43.326605,"lon":5.409903,"is_reserved":false,"is_disabled":false,"rental_uris":{"android":"levelo://app?vid=490774a6-4917-468e-ac2f-aabcb381f604","ios":"levelo://app?vid=490774a6-4917-468e-ac2f-aabcb381f604"},"vehicle_type_id":"4","last_reported":1706461628,"current_range_meters":24000,"station_id":"ce4bhpp2rcd13ifvqhgg","pricing_plan_id":"free"},{"bike_id":"3c3df59f-4761-485d-bb43-fe28a550c223","system_id":"levelo_inurba_marseille","lat":43.304188,"lon":5.412904,"is_reserved":false,"is_disabled":false,"rental_uris":{"android":"levelo://app?vid=3c3df59f-4761-485d-bb43-fe28a550c223","ios":"levelo://app?vid=3c3df59f-4761-485d-bb43-fe28a550c223"},"vehicle_type_id":"4","last_reported":1706461628,"current_range_meters":19200,"station_id":"ce4bhop2rcd13ifvqh8g","pricing_plan_id":"free"},{"bike_id":"b5af6f0b-f48f-49c2-a77a-a61348adb9c6","system_id":"levelo_inurba_marseille","lat":43.287154,"lon":5.399979,"is_reserved":false,"is_disabled":false,"rental_uris":{"android":"levelo://app?vid=b5af6f0b-f48f-49c2-a77a-a61348adb9c6","ios":"levelo://app?vid=b5af6f0b-f48f-49c2-a77a-a61348adb9c6"},"vehicle_type_id":"4","last_reported":1706461628,"current_range_meters":0,"station_id":"ce4bho92rcd13ifvqh3g","pricing_plan_id":"free"},{"bike_id":"536935c9-c934-464d-8501-fa67a550c250","system_id":"levelo_inurba_marseille","lat":43.287154,"lon":5.399979,"is_reserved":false,"is_disabled":false,"rental_uris":{"android":"levelo://app?vid=536935c9-c934-464d-8501-fa67a550c250","ios":"levelo://app?vid=536935c9-c934-464d-8501-fa67a550c250"},"vehicle_type_id":"4","last_reported":1706461628,"current_range_meters":22400,"station_id":"ce4bho92rcd13ifvqh3g","pricing_plan_id":"free"},{"bike_id":"ac99ff70-e116-41cf-b29c-f439ebc01a57","system_id":"levelo_inurba_marseille","lat":43.287154,"lon":5.399979,"is_reserved":false,"is_disabled":false,"rental_uris":{"android":"levelo://app?vid=ac99ff70-e116-41cf-b29c-f439ebc01a57","ios":"levelo://app?vid=ac99ff70-e116-41cf-b29c-f439ebc01a57"},"vehicle_type_id":"4","last_reported":1706461628,"current_range_meters":7600,"station_id":"ce4bho92rcd13ifvqh3g","pricing_plan_id":"free"},{"bike_id":"a539d426-9e55-4e9c-b7bf-13cd28eecf36","system_id":"levelo_inurba_marseille","lat":43.27819,"lon":5.35483,"is_reserved":false,"is_disabled":false,"rental_uris":{"android":"levelo://app?vid=a539d426-9e55-4e9c-b7bf-13cd28eecf36","ios":"levelo://app?vid=a539d426-9e55-4e9c-b7bf-13cd28eecf36"},"vehicle_type_id":"4","last_reported":1706461628,"current_range_meters":8000,"station_id":"","pricing_plan_id":"free"},{"bike_id":"3bd60080-c4e2-4e64-a563-ea38d5002fca","system_id":"levelo_inurba_marseille","lat":43.292569,"lon":5.409107,"is_reserved":false,"is_disabled":false,"rental_uris":{"android":"levelo://app?vid=3bd60080-c4e2-4e64-a563-ea38d5002fca","ios":"levelo://app?vid=3bd60080-c4e2-4e64-a563-ea38d5002fca"},"vehicle_type_id":"4","last_reported":1706461628,"current_range_meters":17600,"station_id":"ce4bh192rcd13ifvqdc0","pricing_plan_id":"free"},{"bike_id":"771f4454-1abb-450a-af64-8cd779db77b5","system_id":"levelo_inurba_marseille","lat":43.276179,"lon":5.361009,"is_reserved":false,"is_disabled":false,"rental_uris":{"android":"levelo://app?vid=771f4454-1abb-450a-af64-8cd779db77b5","ios":"levelo://app?vid=771f4454-1abb-450a-af64-8cd779db77b5"},"vehicle_type_id":"4","last_reported":1706461628,"current_range_meters":24000,"station_id":"ce4bgj92rcd13ifvqbe0","pricing_plan_id":"free"},{"bike_id":"a41ae808-4eee-4985-bc8a-d09a9154c012","system_id":"levelo_inurba_marseille","lat":43.325233,"lon":5.414318,"is_reserved":false,"is_disabled":false,"rental_uris":{"android":"levelo://app?vid=a41ae808-4eee-4985-bc8a-d09a9154c012","ios":"levelo://app?vid=a41ae808-4eee-4985-bc8a-d09a9154c012"},"vehicle_type_id":"4","last_reported":1706461628,"current_range_meters":22400,"station_id":"ce4bhq12rcd13ifvqhhg","pricing_plan_id":"free"},{"bike_id":"c7ff393f-b210-44aa-b6a8-8df578cda838","system_id":"levelo_inurba_marseille","lat":43.325233,"lon":5.414318,"is_reserved":false,"is_disabled":false,"rental_uris":{"android":"levelo://app?vid=c7ff393f-b210-44aa-b6a8-8df578cda838","ios":"levelo://app?vid=c7ff393f-b210-44aa-b6a8-8df578cda838"},"vehicle_type_id":"4","last_reported":1706461628,"current_range_meters":18400,"station_id":"ce4bhq12rcd13ifvqhhg","pricing_plan_id":"free"},{"bike_id":"13c05d1d-b7ad-460f-99d4-f43b6449833d","system_id":"levelo_inurba_marseille","lat":43.278401,"lon":5.392152,"is_reserved":false,"is_disabled":false,"rental_uris":{"android":"levelo://app?vid=13c05d1d-b7ad-460f-99d4-f43b6449833d","ios":"levelo://app?vid=13c05d1d-b7ad-460f-99d4-f43b6449833d"},"vehicle_type_id":"4","last_reported":1706461628,"current_range_meters":18800,"station_id":"ce4bhjp2rcd13ifvqga0","pricing_plan_id":"free"},{"bike_id":"f3b79fee-0603-4963-8e53-5d15d7ea41b6","system_id":"levelo_inurba_marseille","lat":43.278401,"lon":5.392152,"is_reserved":false,"is_disabled":false,"rental_uris":{"android":"levelo://app?vid=f3b79fee-0603-4963-8e53-5d15d7ea41b6","ios":"levelo://app?vid=f3b79fee-0603-4963-8e53-5d15d7ea41b6"},"vehicle_type_id":"4","last_reported":1706461628,"current_range_meters":15600,"station_id":"ce4bhjp2rcd13ifvqga0","pricing_plan_id":"free"},{"bike_id":"ec8feff8-6ccb-4ca8-9b6c-3b6901aa6b55","system_id":"levelo_inurba_marseille","lat":43.278399,"lon":5.392139,"is_reserved":false,"is_disabled":false,"rental_uris":{"android":"levelo://app?vid=ec8feff8-6ccb-4ca8-9b6c-3b6901aa6b55","ios":"levelo://app?vid=ec8feff8-6ccb-4ca8-9b6c-3b6901aa6b55"},"vehicle_type_id":"4","last_reported":1706461628,"current_range_meters":0,"station_id":"ce4bhjp2rcd13ifvqga0","pricing_plan_id":"free"},{"bike_id":"f9cb9b62-1b98-4f72-8008-414e93638f04","system_id":"levelo_inurba_marseille","lat":43.278399,"lon":5.392139,"is_reserved":false,"is_disabled":false,"rental_uris":{"android":"levelo://app?vid=f9cb9b62-1b98-4f72-8008-414e93638f04","ios":"levelo://app?vid=f9cb9b62-1b98-4f72-8008-414e93638f04"},"vehicle_type_id":"4","last_reported":1706461628,"current_range_meters":16400,"station_id":"ce4bhjp2rcd13ifvqga0","pricing_plan_id":"free"},{"bike_id":"fd625b8b-819c-4fa2-8de5-9e2c7c808a73","system_id":"levelo_inurba_marseille","lat":43.278401,"lon":5.392152,"is_reserved":false,"is_disabled":false,"rental_uris":{"android":"levelo://app?vid=fd625b8b-819c-4fa2-8de5-9e2c7c808a73","ios":"levelo://app?vid=fd625b8b-819c-4fa2-8de5-9e2c7c808a73"},"vehicle_type_id":"4","last_reported":1706461628,"current_range_meters":22000,"station_id":"ce4bhjp2rcd13ifvqga0","pricing_plan_id":"free"},{"bike_id":"05e39ce8-8245-475e-b456-8adb71c9de01","system_id":"levelo_inurba_marseille","lat":43.273813,"lon":5.362413,"is_reserved":false,"is_disabled":false,"rental_uris":{"android":"levelo://app?vid=05e39ce8-8245-475e-b456-8adb71c9de01","ios":"levelo://app?vid=05e39ce8-8245-475e-b456-8adb71c9de01"},"vehicle_type_id":"4","last_reported":1706461628,"current_range_meters":3600,"station_id":"ce4bhbh2rcd13ifvqeo0","pricing_plan_id":"free"},{"bike_id":"17d76340-cda9-4f35-984c-cd4a2b957e19","system_id":"levelo_inurba_marseille","lat":43.27382,"lon":5.36227,"is_reserved":false,"is_disabled":false,"rental_uris":{"android":"levelo://app?vid=17d76340-cda9-4f35-984c-cd4a2b957e19","ios":"levelo://app?vid=17d76340-cda9-4f35-984c-cd4a2b957e19"},"vehicle_type_id":"4","last_reported":1706461628,"current_range_meters":4800,"station_id":"ce4bhbh2rcd13ifvqeo0","pricing_plan_id":"free"},{"bike_id":"68f9efc5-0b9d-4030-9388-49c870df6756","system_id":"levelo_inurba_marseille","lat":43.336148,"lon":5.410349,"is_reserved":false,"is_disabled":false,"rental_uris":{"android":"levelo://app?vid=68f9efc5-0b9d-4030-9388-49c870df6756","ios":"levelo://app?vid=68f9efc5-0b9d-4030-9388-49c870df6756"},"vehicle_type_id":"4","last_reported":1706461628,"current_range_meters":25600,"station_id":"ce4bhqh2rcd13ifvqhmg","pricing_plan_id":"free"},{"bike_id":"81e9e01e-1e29-4467-aff8-992019661ef1","system_id":"levelo_inurba_marseille","lat":43.33585,"lon":5.4105,"is_reserved":false,"is_disabled":false,"rental_uris":{"android":"levelo://app?vid=81e9e01e-1e29-4467-aff8-992019661ef1","ios":"levelo://app?vid=81e9e01e-1e29-4467-aff8-992019661ef1"},"vehicle_type_id":"4","last_reported":1706461628,"current_range_meters":0,"station_id":"ce4bhqh2rcd13ifvqhmg","pricing_plan_id":"free"},{"bike_id":"41bd7821-a672-43e9-97d5-5acd6d58de6a","system_id":"levelo_inurba_marseille","lat":43.275625,"lon":5.384392,"is_reserved":false,"is_disabled":false,"rental_uris":{"android":"levelo://app?vid=41bd7821-a672-43e9-97d5-5acd6d58de6a","ios":"levelo://app?vid=41bd7821-a672-43e9-97d5-5acd6d58de6a"},"vehicle_type_id":"4","last_reported":1706461628,"current_range_meters":23200,"station_id":"ce4bhh92rcd13ifvqfi0","pricing_plan_id":"free"},{"bike_id":"4dafd09a-2426-4120-967b-9d41302cc18c","system_id":"levelo_inurba_marseille","lat":43.336134,"lon":5.410341,"is_reserved":false,"is_disabled":false,"rental_uris":{"android":"levelo://app?vid=4dafd09a-2426-4120-967b-9d41302cc18c","ios":"levelo://app?vid=4dafd09a-2426-4120-967b-9d41302cc18c"},"vehicle_type_id":"4","last_reported":1706461628,"current_range_meters":24400,"station_id":"ce4bhqh2rcd13ifvqhmg","pricing_plan_id":"free"},{"bike_id":"683f5e07-8574-43b4-b819-f0fdbd7dba25","system_id":"levelo_inurba_marseille","lat":43.275625,"lon":5.384392,"is_reserved":false,"is_disabled":false,"rental_uris":{"android":"levelo://app?vid=683f5e07-8574-43b4-b819-f0fdbd7dba25","ios":"levelo://app?vid=683f5e07-8574-43b4-b819-f0fdbd7dba25"},"vehicle_type_id":"4","last_reported":1706461628,"current_range_meters":6400,"station_id":"ce4bhh92rcd13ifvqfi0","pricing_plan_id":"free"},{"bike_id":"e95df075-1634-43d2-823b-c844fd251cf4","system_id":"levelo_inurba_marseille","lat":43.279952,"lon":5.400085,"is_reserved":false,"is_disabled":false,"rental_uris":{"android":"levelo://app?vid=e95df075-1634-43d2-823b-c844fd251cf4","ios":"levelo://app?vid=e95df075-1634-43d2-823b-c844fd251cf4"},"vehicle_type_id":"4","last_reported":1706461628,"current_range_meters":16000,"station_id":"ce4bho92rcd13ifvqh4g","pricing_plan_id":"free"},{"bike_id":"fc9e4d6c-285f-467a-b272-5cb5068e2943","system_id":"levelo_inurba_marseille","lat":43.279952,"lon":5.400085,"is_reserved":false,"is_disabled":false,"rental_uris":{"android":"levelo://app?vid=fc9e4d6c-285f-467a-b272-5cb5068e2943","ios":"levelo://app?vid=fc9e4d6c-285f-467a-b272-5cb5068e2943"},"vehicle_type_id":"4","last_reported":1706461628,"current_range_meters":28800,"station_id":"ce4bho92rcd13ifvqh4g","pricing_plan_id":"free"},{"bike_id":"5306d688-dbf0-4872-8ee9-46bfa501c08c","system_id":"levelo_inurba_marseille","lat":43.279975,"lon":5.40009,"is_reserved":false,"is_disabled":false,"rental_uris":{"android":"levelo://app?vid=5306d688-dbf0-4872-8ee9-46bfa501c08c","ios":"levelo://app?vid=5306d688-dbf0-4872-8ee9-46bfa501c08c"},"vehicle_type_id":"4","last_reported":1706461628,"current_range_meters":7200,"station_id":"ce4bho92rcd13ifvqh4g","pricing_plan_id":"free"},{"bike_id":"5b7e1f78-f659-4d01-a095-afff3c732a13","system_id":"levelo_inurba_marseille","lat":43.279952,"lon":5.400085,"is_reserved":false,"is_disabled":false,"rental_uris":{"android":"levelo://app?vid=5b7e1f78-f659-4d01-a095-afff3c732a13","ios":"levelo://app?vid=5b7e1f78-f659-4d01-a095-afff3c732a13"},"vehicle_type_id":"4","last_reported":1706461628,"current_range_meters":6000,"station_id":"ce4bho92rcd13ifvqh4g","pricing_plan_id":"free"},{"bike_id":"419d5a6b-84e0-4249-acb1-9caf745e2204","system_id":"levelo_inurba_marseille","lat":43.279952,"lon":5.400085,"is_reserved":false,"is_disabled":false,"rental_uris":{"android":"levelo://app?vid=419d5a6b-84e0-4249-acb1-9caf745e2204","ios":"levelo://app?vid=419d5a6b-84e0-4249-acb1-9caf745e2204"},"vehicle_type_id":"4","last_reported":1706461628,"current_range_meters":5600,"station_id":"ce4bho92rcd13ifvqh4g","pricing_plan_id":"free"},{"bike_id":"4bd60dd4-cfca-4c6e-9ae5-6093bc166708","system_id":"levelo_inurba_marseille","lat":43.279952,"lon":5.400085,"is_reserved":false,"is_disabled":false,"rental_uris":{"android":"levelo://app?vid=4bd60dd4-cfca-4c6e-9ae5-6093bc166708","ios":"levelo://app?vid=4bd60dd4-cfca-4c6e-9ae5-6093bc166708"},"vehicle_type_id":"4","last_reported":1706461628,"current_range_meters":4400,"station_id":"ce4bho92rcd13ifvqh4g","pricing_plan_id":"free"},{"bike_id":"01c4f3ca-20cc-4a8b-9def-99452cac9422","system_id":"levelo_inurba_marseille","lat":43.279952,"lon":5.400085,"is_reserved":false,"is_disabled":false,"rental_uris":{"android":"levelo://app?vid=01c4f3ca-20cc-4a8b-9def-99452cac9422","ios":"levelo://app?vid=01c4f3ca-20cc-4a8b-9def-99452cac9422"},"vehicle_type_id":"4","last_reported":1706461628,"current_range_meters":13200,"station_id":"ce4bho92rcd13ifvqh4g","pricing_plan_id":"free"},{"bike_id":"8340a187-f225-47ab-8423-8235cb86cd56","system_id":"levelo_inurba_marseille","lat":43.279952,"lon":5.400085,"is_reserved":false,"is_disabled":false,"rental_uris":{"android":"levelo://app?vid=8340a187-f225-47ab-8423-8235cb86cd56","ios":"levelo://app?vid=8340a187-f225-47ab-8423-8235cb86cd56"},"vehicle_type_id":"4","last_reported":1706461628,"current_range_meters":23600,"station_id":"ce4bho92rcd13ifvqh4g","pricing_plan_id":"free"},{"bike_id":"6f46a34b-d5d1-4592-8607-98eec5146735","system_id":"levelo_inurba_marseille","lat":43.283746,"lon":5.407129,"is_reserved":false,"is_disabled":false,"rental_uris":{"android":"levelo://app?vid=6f46a34b-d5d1-4592-8607-98eec5146735","ios":"levelo://app?vid=6f46a34b-d5d1-4592-8607-98eec5146735"},"vehicle_type_id":"4","last_reported":1706461628,"current_range_meters":2000,"station_id":"","pricing_plan_id":"free"},{"bike_id":"87c998a4-b27c-4b57-8568-42f4629803bf","system_id":"levelo_inurba_marseille","lat":43.27624,"lon":5.39465,"is_reserved":false,"is_disabled":false,"rental_uris":{"android":"levelo://app?vid=87c998a4-b27c-4b57-8568-42f4629803bf","ios":"levelo://app?vid=87c998a4-b27c-4b57-8568-42f4629803bf"},"vehicle_type_id":"4","last_reported":1706461628,"current_range_meters":11600,"station_id":"","pricing_plan_id":"free"},{"bike_id":"c7034082-bffb-4f86-bb91-40ab0c03be2f","system_id":"levelo_inurba_marseille","lat":43.317121,"lon":5.423936,"is_reserved":false,"is_disabled":false,"rental_uris":{"android":"levelo://app?vid=c7034082-bffb-4f86-bb91-40ab0c03be2f","ios":"levelo://app?vid=c7034082-bffb-4f86-bb91-40ab0c03be2f"},"vehicle_type_id":"4","last_reported":1706461628,"current_range_meters":25200,"station_id":"ce4bhp92rcd13ifvqhbg","pricing_plan_id":"free"},{"bike_id":"42177f98-49cb-4f87-9945-e0369f359c5c","system_id":"levelo_inurba_marseille","lat":43.310785,"lon":5.424305,"is_reserved":false,"is_disabled":false,"rental_uris":{"android":"levelo://app?vid=42177f98-49cb-4f87-9945-e0369f359c5c","ios":"levelo://app?vid=42177f98-49cb-4f87-9945-e0369f359c5c"},"vehicle_type_id":"4","last_reported":1706461628,"current_range_meters":14800,"station_id":"ce4bhp92rcd13ifvqhag","pricing_plan_id":"free"},{"bike_id":"de994ca2-6a4e-45a1-a1d8-5826b8cc855b","system_id":"levelo_inurba_marseille","lat":43.340804,"lon":5.410219,"is_reserved":false,"is_disabled":false,"rental_uris":{"android":"levelo://app?vid=de994ca2-6a4e-45a1-a1d8-5826b8cc855b","ios":"levelo://app?vid=de994ca2-6a4e-45a1-a1d8-5826b8cc855b"},"vehicle_type_id":"4","last_reported":1706461628,"current_range_meters":22000,"station_id":"ce4bhqh2rcd13ifvqhlg","pricing_plan_id":"free"},{"bike_id":"7a188be2-3f2c-48e2-8219-984f40467b51","system_id":"levelo_inurba_marseille","lat":43.340804,"lon":5.410219,"is_reserved":false,"is_disabled":false,"rental_uris":{"android":"levelo://app?vid=7a188be2-3f2c-48e2-8219-984f40467b51","ios":"levelo://app?vid=7a188be2-3f2c-48e2-8219-984f40467b51"},"vehicle_type_id":"4","last_reported":1706461628,"current_range_meters":16800,"station_id":"ce4bhqh2rcd13ifvqhlg","pricing_plan_id":"free"},{"bike_id":"12ff87bc-d27c-41cb-b3a6-1d789205cdf7","system_id":"levelo_inurba_marseille","lat":43.273125,"lon":5.390731,"is_reserved":false,"is_disabled":false,"rental_uris":{"android":"levelo://app?vid=12ff87bc-d27c-41cb-b3a6-1d789205cdf7","ios":"levelo://app?vid=12ff87bc-d27c-41cb-b3a6-1d789205cdf7"},"vehicle_type_id":"4","last_reported":1706461628,"current_range_meters":0,"station_id":"ce4bhgp2rcd13ifvqfe0","pricing_plan_id":"free"},{"bike_id":"7dbb0e36-81a5-4c9d-a22f-ddf6a6154bc1","system_id":"levelo_inurba_marseille","lat":43.273125,"lon":5.390731,"is_reserved":false,"is_disabled":false,"rental_uris":{"android":"levelo://app?vid=7dbb0e36-81a5-4c9d-a22f-ddf6a6154bc1","ios":"levelo://app?vid=7dbb0e36-81a5-4c9d-a22f-ddf6a6154bc1"},"vehicle_type_id":"4","last_reported":1706461628,"current_range_meters":29600,"station_id":"ce4bhgp2rcd13ifvqfe0","pricing_plan_id":"free"},{"bike_id":"3edb6737-1d55-4ffb-a5d7-44f6d32f0cd1","system_id":"levelo_inurba_marseille","lat":43.274099,"lon":5.394019,"is_reserved":false,"is_disabled":false,"rental_uris":{"android":"levelo://app?vid=3edb6737-1d55-4ffb-a5d7-44f6d32f0cd1","ios":"levelo://app?vid=3edb6737-1d55-4ffb-a5d7-44f6d32f0cd1"},"vehicle_type_id":"4","last_reported":1706461628,"current_range_meters":25600,"station_id":"ce4bhdp2rcd13ifvqf20","pricing_plan_id":"free"},{"bike_id":"2753c47e-6089-44c4-b68c-898ad82fe18b","system_id":"levelo_inurba_marseille","lat":43.304096,"lon":5.425385,"is_reserved":false,"is_disabled":false,"rental_uris":{"android":"levelo://app?vid=2753c47e-6089-44c4-b68c-898ad82fe18b","ios":"levelo://app?vid=2753c47e-6089-44c4-b68c-898ad82fe18b"},"vehicle_type_id":"4","last_reported":1706461628,"current_range_meters":20000,"station_id":"ce4bhoh2rcd13ifvqh6g","pricing_plan_id":"free"},{"bike_id":"2c1dbbc5-9434-40ec-b6a7-210d08a19857","system_id":"levelo_inurba_marseille","lat":43.295523,"lon":5.422926,"is_reserved":false,"is_disabled":false,"rental_uris":{"android":"levelo://app?vid=2c1dbbc5-9434-40ec-b6a7-210d08a19857","ios":"levelo://app?vid=2c1dbbc5-9434-40ec-b6a7-210d08a19857"},"vehicle_type_id":"4","last_reported":1706461628,"current_range_meters":1600,"station_id":"ce4bhph2rcd13ifvqhdg","pricing_plan_id":"free"},{"bike_id":"167fcbc5-ce7b-4c57-a570-b4eef23a2c94","system_id":"levelo_inurba_marseille","lat":43.295523,"lon":5.422926,"is_reserved":false,"is_disabled":false,"rental_uris":{"android":"levelo://app?vid=167fcbc5-ce7b-4c57-a570-b4eef23a2c94","ios":"levelo://app?vid=167fcbc5-ce7b-4c57-a570-b4eef23a2c94"},"vehicle_type_id":"4","last_reported":1706461628,"current_range_meters":22800,"station_id":"ce4bhph2rcd13ifvqhdg","pricing_plan_id":"free"},{"bike_id":"6fe4555c-13a8-443a-bc04-01ca818a618f","system_id":"levelo_inurba_marseille","lat":43.295388,"lon":5.423081,"is_reserved":false,"is_disabled":false,"rental_uris":{"android":"levelo://app?vid=6fe4555c-13a8-443a-bc04-01ca818a618f","ios":"levelo://app?vid=6fe4555c-13a8-443a-bc04-01ca818a618f"},"vehicle_type_id":"4","last_reported":1706461628,"current_range_meters":20400,"station_id":"ce4bhph2rcd13ifvqhdg","pricing_plan_id":"free"},{"bike_id":"3d14cb8c-ebba-4e29-af31-4761cadfc2f6","system_id":"levelo_inurba_marseille","lat":43.27206,"lon":5.39189,"is_reserved":false,"is_disabled":false,"rental_uris":{"android":"levelo://app?vid=3d14cb8c-ebba-4e29-af31-4761cadfc2f6","ios":"levelo://app?vid=3d14cb8c-ebba-4e29-af31-4761cadfc2f6"},"vehicle_type_id":"4","last_reported":1706461628,"current_range_meters":0,"station_id":"ce4bhhp2rcd13ifvqfm0","pricing_plan_id":"free"},{"bike_id":"eff57e8e-0932-4d66-b7d6-d22c9ce21356","system_id":"levelo_inurba_marseille","lat":43.27204,"lon":5.39187,"is_reserved":false,"is_disabled":false,"rental_uris":{"android":"levelo://app?vid=eff57e8e-0932-4d66-b7d6-d22c9ce21356","ios":"levelo://app?vid=eff57e8e-0932-4d66-b7d6-d22c9ce21356"},"vehicle_type_id":"4","last_reported":1706461628,"current_range_meters":6800,"station_id":"ce4bhhp2rcd13ifvqfm0","pricing_plan_id":"free"},{"bike_id":"ce83e3d4-251c-464f-befe-f01ca5b9c198","system_id":"levelo_inurba_marseille","lat":43.279742,"lon":5.38744,"is_reserved":false,"is_disabled":false,"rental_uris":{"android":"levelo://app?vid=ce83e3d4-251c-464f-befe-f01ca5b9c198","ios":"levelo://app?vid=ce83e3d4-251c-464f-befe-f01ca5b9c198"},"vehicle_type_id":"4","last_reported":1706461628,"current_range_meters":0,"station_id":"ce4bhg12rcd13ifvqf80","pricing_plan_id":"free"},{"bike_id":"e79d827e-36bf-4ec1-9143-55c66c282300","system_id":"levelo_inurba_marseille","lat":43.272,"lon":5.39197,"is_reserved":false,"is_disabled":false,"rental_uris":{"android":"levelo://app?vid=e79d827e-36bf-4ec1-9143-55c66c282300","ios":"levelo://app?vid=e79d827e-36bf-4ec1-9143-55c66c282300"},"vehicle_type_id":"4","last_reported":1706461628,"current_range_meters":0,"station_id":"ce4bhhp2rcd13ifvqfm0","pricing_plan_id":"free"},{"bike_id":"bc552a59-ea72-4c7a-8a08-285d068c01cb","system_id":"levelo_inurba_marseille","lat":43.278128,"lon":5.407195,"is_reserved":false,"is_disabled":false,"rental_uris":{"android":"levelo://app?vid=bc552a59-ea72-4c7a-8a08-285d068c01cb","ios":"levelo://app?vid=bc552a59-ea72-4c7a-8a08-285d068c01cb"},"vehicle_type_id":"4","last_reported":1706461628,"current_range_meters":22400,"station_id":"ce4bhnh2rcd13ifvqgtg","pricing_plan_id":"free"},{"bike_id":"4ec0bc40-fbfa-4a45-a029-799c947fb7af","system_id":"levelo_inurba_marseille","lat":43.278128,"lon":5.407195,"is_reserved":false,"is_disabled":false,"rental_uris":{"android":"levelo://app?vid=4ec0bc40-fbfa-4a45-a029-799c947fb7af","ios":"levelo://app?vid=4ec0bc40-fbfa-4a45-a029-799c947fb7af"},"vehicle_type_id":"4","last_reported":1706461628,"current_range_meters":12000,"station_id":"ce4bhnh2rcd13ifvqgtg","pricing_plan_id":"free"},{"bike_id":"252f36a9-5fae-41c6-8336-f6aaa89227f2","system_id":"levelo_inurba_marseille","lat":43.2781,"lon":5.40717,"is_reserved":false,"is_disabled":false,"rental_uris":{"android":"levelo://app?vid=252f36a9-5fae-41c6-8336-f6aaa89227f2","ios":"levelo://app?vid=252f36a9-5fae-41c6-8336-f6aaa89227f2"},"vehicle_type_id":"4","last_reported":1706461628,"current_range_meters":22400,"station_id":"","pricing_plan_id":"free"},{"bike_id":"db2bc78c-3d33-4189-8a70-9479c857cb10","system_id":"levelo_inurba_marseille","lat":43.269467,"lon":5.386439,"is_reserved":false,"is_disabled":false,"rental_uris":{"android":"levelo://app?vid=db2bc78c-3d33-4189-8a70-9479c857cb10","ios":"levelo://app?vid=db2bc78c-3d33-4189-8a70-9479c857cb10"},"vehicle_type_id":"4","last_reported":1706461628,"current_range_meters":23600,"station_id":"ce4bhh92rcd13ifvqfh0","pricing_plan_id":"free"},{"bike_id":"7da1c2f4-d516-438d-b115-61419b2ced09","system_id":"levelo_inurba_marseille","lat":43.269467,"lon":5.386439,"is_reserved":false,"is_disabled":false,"rental_uris":{"android":"levelo://app?vid=7da1c2f4-d516-438d-b115-61419b2ced09","ios":"levelo://app?vid=7da1c2f4-d516-438d-b115-61419b2ced09"},"vehicle_type_id":"4","last_reported":1706461628,"current_range_meters":800,"station_id":"ce4bhh92rcd13ifvqfh0","pricing_plan_id":"free"},{"bike_id":"db1a6d9e-37c5-4834-b32a-cc205a32efbb","system_id":"levelo_inurba_marseille","lat":43.269319,"lon":5.389397,"is_reserved":false,"is_disabled":false,"rental_uris":{"android":"levelo://app?vid=db1a6d9e-37c5-4834-b32a-cc205a32efbb","ios":"levelo://app?vid=db1a6d9e-37c5-4834-b32a-cc205a32efbb"},"vehicle_type_id":"4","last_reported":1706461628,"current_range_meters":23600,"station_id":"ce4bhhh2rcd13ifvqfl0","pricing_plan_id":"free"},{"bike_id":"a241542c-3e64-4c8b-98a9-5bcea9db58b9","system_id":"levelo_inurba_marseille","lat":43.269319,"lon":5.389397,"is_reserved":false,"is_disabled":false,"rental_uris":{"android":"levelo://app?vid=a241542c-3e64-4c8b-98a9-5bcea9db58b9","ios":"levelo://app?vid=a241542c-3e64-4c8b-98a9-5bcea9db58b9"},"vehicle_type_id":"4","last_reported":1706461628,"current_range_meters":24000,"station_id":"ce4bhhh2rcd13ifvqfl0","pricing_plan_id":"free"},{"bike_id":"5c33af12-6de0-4037-a9eb-d32dc57d0d09","system_id":"levelo_inurba_marseille","lat":43.26681,"lon":5.382694,"is_reserved":false,"is_disabled":false,"rental_uris":{"android":"levelo://app?vid=5c33af12-6de0-4037-a9eb-d32dc57d0d09","ios":"levelo://app?vid=5c33af12-6de0-4037-a9eb-d32dc57d0d09"},"vehicle_type_id":"4","last_reported":1706461628,"current_range_meters":27600,"station_id":"ce4bhg92rcd13ifvqf90","pricing_plan_id":"free"},{"bike_id":"1ef24a3a-9316-4846-9c1c-60b4be2dcac9","system_id":"levelo_inurba_marseille","lat":43.27996,"lon":5.416624,"is_reserved":false,"is_disabled":false,"rental_uris":{"android":"levelo://app?vid=1ef24a3a-9316-4846-9c1c-60b4be2dcac9","ios":"levelo://app?vid=1ef24a3a-9316-4846-9c1c-60b4be2dcac9"},"vehicle_type_id":"4","last_reported":1706461628,"current_range_meters":23200,"station_id":"ce4bho12rcd13ifvqh1g","pricing_plan_id":"free"},{"bike_id":"99644eeb-906d-4550-8c27-413f51598ffc","system_id":"levelo_inurba_marseille","lat":43.27994,"lon":5.41661,"is_reserved":false,"is_disabled":false,"rental_uris":{"android":"levelo://app?vid=99644eeb-906d-4550-8c27-413f51598ffc","ios":"levelo://app?vid=99644eeb-906d-4550-8c27-413f51598ffc"},"vehicle_type_id":"4","last_reported":1706461628,"current_range_meters":1200,"station_id":"","pricing_plan_id":"free"},{"bike_id":"2bd2287d-3097-4121-a7c2-94e09ee0d82e","system_id":"levelo_inurba_marseille","lat":43.27996,"lon":5.416624,"is_reserved":false,"is_disabled":false,"rental_uris":{"android":"levelo://app?vid=2bd2287d-3097-4121-a7c2-94e09ee0d82e","ios":"levelo://app?vid=2bd2287d-3097-4121-a7c2-94e09ee0d82e"},"vehicle_type_id":"4","last_reported":1706461628,"current_range_meters":400,"station_id":"ce4bho12rcd13ifvqh1g","pricing_plan_id":"free"},{"bike_id":"63d95574-1b72-4eb8-be0c-0f955f9841c0","system_id":"levelo_inurba_marseille","lat":43.308051,"lon":5.43527,"is_reserved":false,"is_disabled":false,"rental_uris":{"android":"levelo://app?vid=63d95574-1b72-4eb8-be0c-0f955f9841c0","ios":"levelo://app?vid=63d95574-1b72-4eb8-be0c-0f955f9841c0"},"vehicle_type_id":"4","last_reported":1706461628,"current_range_meters":6400,"station_id":"ce4bhph2rcd13ifvqheg","pricing_plan_id":"free"},