{"last_updated":1752487973,"ttl":60,"version":"2.2","data":{"bikes":[{"bike_id":"feb1ed1d-b0db-45cc-9e1b-7311a8d72058","system_id":"levelo_inurba_marseille","lat":43.33747,"lon":5.37463,"is_reserved":false,"is_disabled":false,"rental_uris":{"android":"levelo://app?vid=feb1ed1d-b0db-45cc-9e1b-7311a8d72058","ios":"levelo://app?vid=feb1ed1d-b0db-45cc-9e1b-7311a8d72058"},"vehicle_type_id":"1","last_reported":1752487973,"current_range_meters":38400,"station_id":"","pricing_plan_id":"cebpf4jnsgd1na2vs0mg"},{"bike_id":"0075684b-a504-453b-9132-a72c307964f4","system_id":"levelo_inurba_marseille","lat":43.32102,"lon":5.36811,"is_reserved":false,"is_disabled":false,"rental_uris":{"android":"levelo://app?vid=0075684b-a504-453b-9132-a72c307964f4","ios":"levelo://app?vid=0075684b-a504-453b-9132-a72c307964f4"},"vehicle_type_id":"4","last_reported":1752487973,"current_range_meters":2800,"station_id":"ce4bhrh2rcd13ifvqhug","pricing_plan_id":"cebpf4jnsgd1na2vs0mg"},{"bike_id":"e169dd67-f136-4c54-aa0f-5bebc7c72b1c","system_id":"levelo_inurba_marseille","lat":43.2799,"lon":5.41678,"is_reserved":false,"is_disabled":false,"rental_uris":{"android":"levelo://app?vid=e169dd67-f136-4c54-aa0f-5bebc7c72b1c","ios":"levelo://app?vid=e169dd67-f136-4c54-aa0f-5bebc7c72b1c"},"vehicle_type_id":"4","last_reported":1752487973,"current_range_meters":3600,"station_id":"ce4bho12rcd13ifvqh1g","pricing_plan_id":"cebpf4jnsgd1na2vs0mg"},{"bike_id":"048cda56-5df4-40a8-8ce2-356b784a5f0f","system_id":"levelo_inurba_marseille","lat":43.25848,"lon":5.37619,"is_reserved":false,"is_disabled":false,"rental_uris":{"android":"levelo://app?vid=048cda56-5df4-40a8-8ce2-356b784a5f0f","ios":"levelo://app?vid=048cda56-5df4-40a8-8ce2-356b784a5f0f"},"vehicle_type_id":"4","last_reported":1752487973,"current_range_meters":4000,"station_id":"","pricing_plan_id":"cebpf4jnsgd1na2vs0mg"},{"bike_id":"dbba3321-20c7-4989-a7b5-ea9ab2c4b3e8","system_id":"levelo_inurba_marseille","lat":43.261935,"lon":5.374477,"is_reserved":false,"is_disabled":true,"rental_uris":{"android":"levelo://app?vid=dbba3321-20c7-4989-a7b5-ea9ab2c4b3e8","ios":"levelo://app?vid=dbba3321-20c7-4989-a7b5-ea9ab2c4b3e8"},"vehicle_type_id":"4","last_reported":1752487973,"current_range_meters":4000,"station_id":"ce4bhgp2rcd13ifvqfc0","pricing_plan_id":"cebpf4jnsgd1na2vs0mg"},{"bike_id":"53d39a46-4fd1-4a4b-8eb7-3aa0f6e84120","system_id":"levelo_inurba_marseille","lat":43.239594,"lon":5.366372,"is_reserved":false,"is_disabled":false,"rental_uris":{"android":"levelo://app?vid=53d39a46-4fd1-4a4b-8eb7-3aa0f6e84120","ios":"levelo://app?vid=53d39a46-4fd1-4a4b-8eb7-3aa0f6e84120"},"vehicle_type_id":"4","last_reported":1752487973,"current_range_meters":4800,"station_id":"ce4bhi12rcd13ifvqfp0","pricing_plan_id":"cebpf4jnsgd1na2vs0mg"},{"bike_id":"470d1e9d-8c05-40b8-a6b2-039f183b9f6a","system_id":"levelo_inurba_marseille","lat":43.23194,"lon":5.355509,"is_reserved":false,"is_disabled":true,"rental_uris":{"android":"levelo://app?vid=470d1e9d-8c05-40b8-a6b2-039f183b9f6a","ios":"levelo://app?vid=470d1e9d-8c05-40b8-a6b2-039f183b9f6a"},"vehicle_type_id":"4","last_reported":1752487973,"current_range_meters":6400,"station_id":"ce4bhu92rcd13ifvqi70","pricing_plan_id":"cebpf4jnsgd1na2vs0mg"},{"bike_id":"99202e83-2375-41bb-812b-e811ff73eea0","system_id":"levelo_inurba_marseille","lat":43.24809,"lon":5.37457,"is_reserved":false,"is_disabled":false,"rental_uris":{"android":"levelo://app?vid=99202e83-2375-41bb-812b-e811ff73eea0","ios":"levelo://app?vid=99202e83-2375-41bb-812b-e811ff73eea0"},"vehicle_type_id":"4","last_reported":1752487973,"current_range_meters":6800,"station_id":"ce4bhgh2rcd13ifvqfb0","pricing_plan_id":"cebpf4jnsgd1na2vs0mg"},{"bike_id":"44dd919c-32df-4fe9-8b1c-c9988fb68d5b","system_id":"levelo_inurba_marseille","lat":43.269592,"lon":5.402901,"is_reserved":false,"is_disabled":true,"rental_uris":{"android":"levelo://app?vid=44dd919c-32df-4fe9-8b1c-c9988fb68d5b","ios":"levelo://app?vid=44dd919c-32df-4fe9-8b1c-c9988fb68d5b"},"vehicle_type_id":"4","last_reported":1752487973,"current_range_meters":6800,"station_id":"cjm6bp8fraef2m0cb0m0","pricing_plan_id":"cebpf4jnsgd1na2vs0mg"},{"bike_id":"981b61ae-adce-4869-85f4-48be359a3c25","system_id":"levelo_inurba_marseille","lat":43.261649,"lon":5.379299,"is_reserved":false,"is_disabled":false,"rental_uris":{"android":"levelo://app?vid=981b61ae-adce-4869-85f4-48be359a3c25","ios":"levelo://app?vid=981b61ae-adce-4869-85f4-48be359a3c25"},"vehicle_type_id":"4","last_reported":1752487973,"current_range_meters":6800,"station_id":"ce4bhjp2rcd13ifvqg90","pricing_plan_id":"cebpf4jnsgd1na2vs0mg"},{"bike_id":"5d522e77-ec27-4fd6-a510-ea7d6f16223a","system_id":"levelo_inurba_marseille","lat":43.276012,"lon":5.370927,"is_reserved":false,"is_disabled":false,"rental_uris":{"android":"levelo://app?vid=5d522e77-ec27-4fd6-a510-ea7d6f16223a","ios":"levelo://app?vid=5d522e77-ec27-4fd6-a510-ea7d6f16223a"},"vehicle_type_id":"4","last_reported":1752487973,"current_range_meters":8000,"station_id":"","pricing_plan_id":"cebpf4jnsgd1na2vs0mg"},{"bike_id":"241a0a12-838a-47ce-bf56-c6834420c552","system_id":"levelo_inurba_marseille","lat":43.29848,"lon":5.36287,"is_reserved":false,"is_disabled":false,"rental_uris":{"android":"levelo://app?vid=241a0a12-838a-47ce-bf56-c6834420c552","ios":"levelo://app?vid=241a0a12-838a-47ce-bf56-c6834420c552"},"vehicle_type_id":"4","last_reported":1752487973,"current_range_meters":8000,"station_id":"ce4bgpp2rcd13ifvqc3g","pricing_plan_id":"cebpf4jnsgd1na2vs0mg"},{"bike_id":"bcfeb0b0-b94e-4e71-a216-f8eb5e1c603f","system_id":"levelo_inurba_marseille","lat":43.31122,"lon":5.3776,"is_reserved":false,"is_disabled":false,"rental_uris":{"android":"levelo://app?vid=bcfeb0b0-b94e-4e71-a216-f8eb5e1c603f","ios":"levelo://app?vid=bcfeb0b0-b94e-4e71-a216-f8eb5e1c603f"},"vehicle_type_id":"4","last_reported":1752487973,"current_range_meters":8400,"station_id":"ce4bgt92rcd13ifvqcg0","pricing_plan_id":"cebpf4jnsgd1na2vs0mg"},{"bike_id":"12111b35-1ffa-4341-86a8-48314b458124","system_id":"levelo_inurba_marseille","lat":43.25888,"lon":5.37612,"is_reserved":false,"is_disabled":false,"rental_uris":{"android":"levelo://app?vid=12111b35-1ffa-4341-86a8-48314b458124","ios":"levelo://app?vid=12111b35-1ffa-4341-86a8-48314b458124"},"vehicle_type_id":"4","last_reported":1752487973,"current_range_meters":8400,"station_id":"","pricing_plan_id":"cebpf4jnsgd1na2vs0mg"},{"bike_id":"9a8b0931-f754-41b1-83c6-b9eee7982ee0","system_id":"levelo_inurba_marseille","lat":43.30361,"lon":5.41887,"is_reserved":false,"is_disabled":false,"rental_uris":{"android":"levelo://app?vid=9a8b0931-f754-41b1-83c6-b9eee7982ee0","ios":"levelo://app?vid=9a8b0931-f754-41b1-83c6-b9eee7982ee0"},"vehicle_type_id":"4","last_reported":1752487973,"current_range_meters":8800,"station_id":"ce4bhop2rcd13ifvqh7g","pricing_plan_id":"cebpf4jnsgd1na2vs0mg"},{"bike_id":"f23760ff-ab61-4853-aa67-28aac93822c1","system_id":"levelo_inurba_marseille","lat":43.337444,"lon":5.374475,"is_reserved":false,"is_disabled":false,"rental_uris":{"android":"levelo://app?vid=f23760ff-ab61-4853-aa67-28aac93822c1","ios":"levelo://app?vid=f23760ff-ab61-4853-aa67-28aac93822c1"},"vehicle_type_id":"4","last_reported":1752487973,"current_range_meters":8800,"station_id":"","pricing_plan_id":"cebpf4jnsgd1na2vs0mg"},{"bike_id":"e3b686d1-f0b1-4887-9c05-4bc370c43021","system_id":"levelo_inurba_marseille","lat":43.27228,"lon":5.40992,"is_reserved":false,"is_disabled":true,"rental_uris":{"android":"levelo://app?vid=e3b686d1-f0b1-4887-9c05-4bc370c43021","ios":"levelo://app?vid=e3b686d1-f0b1-4887-9c05-4bc370c43021"},"vehicle_type_id":"4","last_reported":1752487973,"current_range_meters":9200,"station_id":"ce4bhl12rcd13ifvqgf0","pricing_plan_id":"cebpf4jnsgd1na2vs0mg"},{"bike_id":"7bb6743e-cd8c-4b57-b01b-ee37c3845066","system_id":"levelo_inurba_marseille","lat":43.25281,"lon":5.37578,"is_reserved":false,"is_disabled":false,"rental_uris":{"android":"levelo://app?vid=7bb6743e-cd8c-4b57-b01b-ee37c3845066","ios":"levelo://app?vid=7bb6743e-cd8c-4b57-b01b-ee37c3845066"},"vehicle_type_id":"4","last_reported":1752487973,"current_range_meters":9200,"station_id":"","pricing_plan_id":"cebpf4jnsgd1na2vs0mg"},{"bike_id":"29033cda-9153-42fb-81c6-f4b53eaeb275","system_id":"levelo_inurba_marseille","lat":43.239654,"lon":5.366294,"is_reserved":false,"is_disabled":false,"rental_uris":{"android":"levelo://app?vid=29033cda-9153-42fb-81c6-f4b53eaeb275","ios":"levelo://app?vid=29033cda-9153-42fb-81c6-f4b53eaeb275"},"vehicle_type_id":"4","last_reported":1752487973,"current_range_meters":9600,"station_id":"ce4bhi12rcd13ifvqfp0","pricing_plan_id":"cebpf4jnsgd1na2vs0mg"},{"bike_id":"a810fb18-cccb-4dab-ac29-0536c214dc99","system_id":"levelo_inurba_marseille","lat":43.29519,"lon":5.37513,"is_reserved":false,"is_disabled":false,"rental_uris":{"android":"levelo://app?vid=a810fb18-cccb-4dab-ac29-0536c214dc99","ios":"levelo://app?vid=a810fb18-cccb-4dab-ac29-0536c214dc99"},"vehicle_type_id":"4","last_reported":1752487973,"current_range_meters":9600,"station_id":"ce4bgkp2rcd13ifvqbmg","pricing_plan_id":"cebpf4jnsgd1na2vs0mg"},{"bike_id":"a569330f-5e4d-4cbc-b8f1-786cdb1fde6b","system_id":"levelo_inurba_marseille","lat":43.24391,"lon":5.3706,"is_reserved":false,"is_disabled":false,"rental_uris":{"android":"levelo://app?vid=a569330f-5e4d-4cbc-b8f1-786cdb1fde6b","ios":"levelo://app?vid=a569330f-5e4d-4cbc-b8f1-786cdb1fde6b"},"vehicle_type_id":"4","last_reported":1752487973,"current_range_meters":9600,"station_id":"ce4bhhh2rcd13ifvqfk0","pricing_plan_id":"cebpf4jnsgd1na2vs0mg"},{"bike_id":"0eadb807-73f6-424a-bcd7-3b07bd18ff50","system_id":"levelo_inurba_marseille","lat":43.321118,"lon":5.367791,"is_reserved":false,"is_disabled":false,"rental_uris":{"android":"levelo://app?vid=0eadb807-73f6-424a-bcd7-3b07bd18ff50","ios":"levelo://app?vid=0eadb807-73f6-424a-bcd7-3b07bd18ff50"},"vehicle_type_id":"4","last_reported":1752487973,"current_range_meters":9600,"station_id":"ce4bhrh2rcd13ifvqhug","pricing_plan_id":"cebpf4jnsgd1na2vs0mg"},{"bike_id":"bad0a9d4-e85e-45a3-a0d7-115b28193119","system_id":"levelo_inurba_marseille","lat":43.26215,"lon":5.37438,"is_reserved":false,"is_disabled":false,"rental_uris":{"android":"levelo://app?vid=bad0a9d4-e85e-45a3-a0d7-115b28193119","ios":"levelo://app?vid=bad0a9d4-e85e-45a3-a0d7-115b28193119"},"vehicle_type_id":"4","last_reported":1752487973,"current_range_meters":9600,"station_id":"ce4bhgp2rcd13ifvqfc0","pricing_plan_id":"cebpf4jnsgd1na2vs0mg"},{"bike_id":"2d20d04c-847b-4085-a58f-d98f887283c8","system_id":"levelo_inurba_marseille","lat":43.29701,"lon":5.37321,"is_reserved":false,"is_disabled":false,"rental_uris":{"android":"levelo://app?vid=2d20d04c-847b-4085-a58f-d98f887283c8","ios":"levelo://app?vid=2d20d04c-847b-4085-a58f-d98f887283c8"},"vehicle_type_id":"4","last_reported":1752487973,"current_range_meters":10000,"station_id":"ce4bgk12rcd13ifvqbj0","pricing_plan_id":"cebpf4jnsgd1na2vs0mg"},{"bike_id":"096a0ddd-fe8e-4298-9ec6-c8b6d3c5c4dd","system_id":"levelo_inurba_marseille","lat":43.30959,"lon":5.39021,"is_reserved":false,"is_disabled":false,"rental_uris":{"android":"levelo://app?vid=096a0ddd-fe8e-4298-9ec6-c8b6d3c5c4dd","ios":"levelo://app?vid=096a0ddd-fe8e-4298-9ec6-c8b6d3c5c4dd"},"vehicle_type_id":"4","last_reported":1752487973,"current_range_meters":10000,"station_id":"ce4bgup2rcd13ifvqco0","pricing_plan_id":"cebpf4jnsgd1na2vs0mg"},{"bike_id":"9816fd1b-28f8-4bec-8acd-4c70fe675539","system_id":"levelo_inurba_marseille","lat":43.29305,"lon":5.3746,"is_reserved":false,"is_disabled":false,"rental_uris":{"android":"levelo://app?vid=9816fd1b-28f8-4bec-8acd-4c70fe675539","ios":"levelo://app?vid=9816fd1b-28f8-4bec-8acd-4c70fe675539"},"vehicle_type_id":"4","last_reported":1752487973,"current_range_meters":10800,"station_id":"ce4bgi12rcd13ifvqb70","pricing_plan_id":"cebpf4jnsgd1na2vs0mg"},{"bike_id":"2ef51ee8-5dba-4636-b65b-077dc6d0a7e6","system_id":"levelo_inurba_marseille","lat":43.295577,"lon":5.422817,"is_reserved":false,"is_disabled":false,"rental_uris":{"android":"levelo://app?vid=2ef51ee8-5dba-4636-b65b-077dc6d0a7e6","ios":"levelo://app?vid=2ef51ee8-5dba-4636-b65b-077dc6d0a7e6"},"vehicle_type_id":"4","last_reported":1752487973,"current_range_meters":10800,"station_id":"ce4bhph2rcd13ifvqhdg","pricing_plan_id":"cebpf4jnsgd1na2vs0mg"},{"bike_id":"a44f68aa-b920-4eb6-845e-df1183944a6b","system_id":"levelo_inurba_marseille","lat":43.28575,"lon":5.35082,"is_reserved":false,"is_disabled":false,"rental_uris":{"android":"levelo://app?vid=a44f68aa-b920-4eb6-845e-df1183944a6b","ios":"levelo://app?vid=a44f68aa-b920-4eb6-845e-df1183944a6b"},"vehicle_type_id":"4","last_reported":1752487973,"current_range_meters":10800,"station_id":"","pricing_plan_id":"cebpf4jnsgd1na2vs0mg"},{"bike_id":"7d8c67ad-3e66-42f9-8c6e-098cca666cf3","system_id":"levelo_inurba_marseille","lat":43.32359,"lon":5.36742,"is_reserved":false,"is_disabled":false,"rental_uris":{"android":"levelo://app?vid=7d8c67ad-3e66-42f9-8c6e-098cca666cf3","ios":"levelo://app?vid=7d8c67ad-3e66-42f9-8c6e-098cca666cf3"},"vehicle_type_id":"4","last_reported":1752487973,"current_range_meters":11200,"station_id":"ce4bhsh2rcd13ifvqi2g","pricing_plan_id":"cebpf4jnsgd1na2vs0mg"},{"bike_id":"58375fde-ca97-4dab-be52-59caf98323d3","system_id":"levelo_inurba_marseille","lat":43.26556,"lon":5.37296,"is_reserved":false,"is_disabled":true,"rental_uris":{"android":"levelo://app?vid=58375fde-ca97-4dab-be52-59caf98323d3","ios":"levelo://app?vid=58375fde-ca97-4dab-be52-59caf98323d3"},"vehicle_type_id":"4","last_reported":1752487973,"current_range_meters":11600,"station_id":"ce4bhg12rcd13ifvqf70","pricing_plan_id":"cebpf4jnsgd1na2vs0mg"},{"bike_id":"335b90fd-5354-485a-818d-68afd4055e7e","system_id":"levelo_inurba_marseille","lat":43.24803,"lon":5.37453,"is_reserved":false,"is_disabled":false,"rental_uris":{"android":"levelo://app?vid=335b90fd-5354-485a-818d-68afd4055e7e","ios":"levelo://app?vid=335b90fd-5354-485a-818d-68afd4055e7e"},"vehicle_type_id":"4","last_reported":1752487973,"current_range_meters":11600,"station_id":"ce4bhgh2rcd13ifvqfb0","pricing_plan_id":"cebpf4jnsgd1na2vs0mg"},{"bike_id":"1700fcd6-30ad-4b74-a158-50e5dcb60b9b","system_id":"levelo_inurba_marseille","lat":43.289389,"lon":5.366265,"is_reserved":false,"is_disabled":true,"rental_uris":{"android":"levelo://app?vid=1700fcd6-30ad-4b74-a158-50e5dcb60b9b","ios":"levelo://app?vid=1700fcd6-30ad-4b74-a158-50e5dcb60b9b"},"vehicle_type_id":"4","last_reported":1752487973,"current_range_meters":11600,"station_id":"ce4bhap2rcd13ifvqek0","pricing_plan_id":"cebpf4jnsgd1na2vs0mg"},{"bike_id":"47134c2d-e710-44e0-ac88-47c95558fdb3","system_id":"levelo_inurba_marseille","lat":43.30315,"lon":5.36896,"is_reserved":false,"is_disabled":false,"rental_uris":{"android":"levelo://app?vid=47134c2d-e710-44e0-ac88-47c95558fdb3","ios":"levelo://app?vid=47134c2d-e710-44e0-ac88-47c95558fdb3"},"vehicle_type_id":"4","last_reported":1752487973,"current_range_meters":12000,"station_id":"ce4bgqh2rcd13ifvqc5g","pricing_plan_id":"cebpf4jnsgd1na2vs0mg"},{"bike_id":"ff7aa45c-0d3f-4caa-9191-18ba98829473","system_id":"levelo_inurba_marseille","lat":43.21751,"lon":5.34593,"is_reserved":false,"is_disabled":false,"rental_uris":{"android":"levelo://app?vid=ff7aa45c-0d3f-4caa-9191-18ba98829473","ios":"levelo://app?vid=ff7aa45c-0d3f-4caa-9191-18ba98829473"},"vehicle_type_id":"4","last_reported":1752487973,"current_range_meters":12000,"station_id":"st_cvj6r9ubvosntc0bgbag","pricing_plan_id":"cebpf4jnsgd1na2vs0mg"},{"bike_id":"457bf7b2-5c35-41c2-88d1-1ccad8eab0fb","system_id":"levelo_inurba_marseille","lat":43.217518,"lon":5.346013,"is_reserved":false,"is_disabled":false,"rental_uris":{"android":"levelo://app?vid=457bf7b2-5c35-41c2-88d1-1ccad8eab0fb","ios":"levelo://app?vid=457bf7b2-5c35-41c2-88d1-1ccad8eab0fb"},"vehicle_type_id":"4","last_reported":1752487973,"current_range_meters":12000,"station_id":"st_cvj6r9ubvosntc0bgbag","pricing_plan_id":"cebpf4jnsgd1na2vs0mg"},{"bike_id":"9d31d9a3-9360-47cc-9360-3d8ed75b64a4","system_id":"levelo_inurba_marseille","lat":43.3291,"lon":5.36717,"is_reserved":false,"is_disabled":false,"rental_uris":{"android":"levelo://app?vid=9d31d9a3-9360-47cc-9360-3d8ed75b64a4","ios":"levelo://app?vid=9d31d9a3-9360-47cc-9360-3d8ed75b64a4"},"vehicle_type_id":"4","last_reported":1752487973,"current_range_meters":12000,"station_id":"","pricing_plan_id":"cebpf4jnsgd1na2vs0mg"},{"bike_id":"fd59fffd-e95d-4e51-b746-b6895e674b2a","system_id":"levelo_inurba_marseille","lat":43.29007,"lon":5.35614,"is_reserved":false,"is_disabled":false,"rental_uris":{"android":"levelo://app?vid=fd59fffd-e95d-4e51-b746-b6895e674b2a","ios":"levelo://app?vid=fd59fffd-e95d-4e51-b746-b6895e674b2a"},"vehicle_type_id":"4","last_reported":1752487973,"current_range_meters":12000,"station_id":"ce4bhb92rcd13ifvqen0","pricing_plan_id":"cebpf4jnsgd1na2vs0mg"},{"bike_id":"f2277502-3ead-496a-898d-e537ccdc12a6","system_id":"levelo_inurba_marseille","lat":43.30536,"lon":5.36551,"is_reserved":false,"is_disabled":false,"rental_uris":{"android":"levelo://app?vid=f2277502-3ead-496a-898d-e537ccdc12a6","ios":"levelo://app?vid=f2277502-3ead-496a-898d-e537ccdc12a6"},"vehicle_type_id":"4","last_reported":1752487973,"current_range_meters":12400,"station_id":"ce4bgs12rcd13ifvqcag","pricing_plan_id":"cebpf4jnsgd1na2vs0mg"},{"bike_id":"b2464811-ed1c-444d-b5b2-f0f5cb56794f","system_id":"levelo_inurba_marseille","lat":43.28702,"lon":5.35195,"is_reserved":false,"is_disabled":true,"rental_uris":{"android":"levelo://app?vid=b2464811-ed1c-444d-b5b2-f0f5cb56794f","ios":"levelo://app?vid=b2464811-ed1c-444d-b5b2-f0f5cb56794f"},"vehicle_type_id":"4","last_reported":1752487973,"current_range_meters":12400,"station_id":"","pricing_plan_id":"cebpf4jnsgd1na2vs0mg"},{"bike_id":"0b47a23a-3e02-4f65-b974-820f17caf5b9","system_id":"levelo_inurba_marseille","lat":43.24394,"lon":5.37061,"is_reserved":false,"is_disabled":false,"rental_uris":{"android":"levelo://app?vid=0b47a23a-3e02-4f65-b974-820f17caf5b9","ios":"levelo://app?vid=0b47a23a-3e02-4f65-b974-820f17caf5b9"},"vehicle_type_id":"4","last_reported":1752487973,"current_range_meters":12400,"station_id":"ce4bhhh2rcd13ifvqfk0","pricing_plan_id":"cebpf4jnsgd1na2vs0mg"},{"bike_id":"53a7c5a0-bf42-4a71-a975-ed65973eff06","system_id":"levelo_inurba_marseille","lat":43.302507,"lon":5.40008,"is_reserved":false,"is_disabled":false,"rental_uris":{"android":"levelo://app?vid=53a7c5a0-bf42-4a71-a975-ed65973eff06","ios":"levelo://app?vid=53a7c5a0-bf42-4a71-a975-ed65973eff06"},"vehicle_type_id":"4","last_reported":1752487973,"current_range_meters":12400,"station_id":"","pricing_plan_id":"cebpf4jnsgd1na2vs0mg"},{"bike_id":"1399edb3-03ea-4a64-abc3-12aa5e7f9806","system_id":"levelo_inurba_marseille","lat":43.27208,"lon":5.3918,"is_reserved":false,"is_disabled":false,"rental_uris":{"android":"levelo://app?vid=1399edb3-03ea-4a64-abc3-12aa5e7f9806","ios":"levelo://app?vid=1399edb3-03ea-4a64-abc3-12aa5e7f9806"},"vehicle_type_id":"4","last_reported":1752487973,"current_range_meters":12800,"station_id":"ce4bhhp2rcd13ifvqfm0","pricing_plan_id":"cebpf4jnsgd1na2vs0mg"},{"bike_id":"002e6944-aa53-41b5-94a1-97e8a1b31e28","system_id":"levelo_inurba_marseille","lat":43.31495,"lon":5.37308,"is_reserved":false,"is_disabled":false,"rental_uris":{"android":"levelo://app?vid=002e6944-aa53-41b5-94a1-97e8a1b31e28","ios":"levelo://app?vid=002e6944-aa53-41b5-94a1-97e8a1b31e28"},"vehicle_type_id":"4","last_reported":1752487973,"current_range_meters":13600,"station_id":"ce4bgt12rcd13ifvqcd0","pricing_plan_id":"cebpf4jnsgd1na2vs0mg"},{"bike_id":"2ec427da-b403-4a7e-86be-3f48ba535d18","system_id":"levelo_inurba_marseille","lat":43.21197,"lon":5.35099,"is_reserved":false,"is_disabled":false,"rental_uris":{"android":"levelo://app?vid=2ec427da-b403-4a7e-86be-3f48ba535d18","ios":"levelo://app?vid=2ec427da-b403-4a7e-86be-3f48ba535d18"},"vehicle_type_id":"4","last_reported":1752487973,"current_range_meters":14000,"station_id":"st_cvj6sg6p6f1abm77japg","pricing_plan_id":"cebpf4jnsgd1na2vs0mg"},{"bike_id":"350baf57-19b6-4304-9c57-75c381c047e9","system_id":"levelo_inurba_marseille","lat":43.303182,"lon":5.369034,"is_reserved":false,"is_disabled":false,"rental_uris":{"android":"levelo://app?vid=350baf57-19b6-4304-9c57-75c381c047e9","ios":"levelo://app?vid=350baf57-19b6-4304-9c57-75c381c047e9"},"vehicle_type_id":"4","last_reported":1752487973,"current_range_meters":14000,"station_id":"ce4bgqh2rcd13ifvqc5g","pricing_plan_id":"cebpf4jnsgd1na2vs0mg"},{"bike_id":"3a5814f9-f1c2-4bde-a9e5-84c8723b5b23","system_id":"levelo_inurba_marseille","lat":43.29008,"lon":5.35619,"is_reserved":false,"is_disabled":false,"rental_uris":{"android":"levelo://app?vid=3a5814f9-f1c2-4bde-a9e5-84c8723b5b23","ios":"levelo://app?vid=3a5814f9-f1c2-4bde-a9e5-84c8723b5b23"},"vehicle_type_id":"4","last_reported":1752487973,"current_range_meters":14000,"station_id":"ce4bhb92rcd13ifvqen0","pricing_plan_id":"cebpf4jnsgd1na2vs0mg"},{"bike_id":"b17e1163-fa3e-423b-af33-ca4dee4f1256","system_id":"levelo_inurba_marseille","lat":43.262028,"lon":5.379235,"is_reserved":false,"is_disabled":false,"rental_uris":{"android":"levelo://app?vid=b17e1163-fa3e-423b-af33-ca4dee4f1256","ios":"levelo://app?vid=b17e1163-fa3e-423b-af33-ca4dee4f1256"},"vehicle_type_id":"4","last_reported":1752487973,"current_range_meters":14000,"station_id":"ce4bhjp2rcd13ifvqg90","pricing_plan_id":"cebpf4jnsgd1na2vs0mg"},{"bike_id":"c8c4de1a-846f-4f5b-aace-9fb14bf7ad52","system_id":"levelo_inurba_marseille","lat":43.211935,"lon":5.350708,"is_reserved":false,"is_disabled":false,"rental_uris":{"android":"levelo://app?vid=c8c4de1a-846f-4f5b-aace-9fb14bf7ad52","ios":"levelo://app?vid=c8c4de1a-846f-4f5b-aace-9fb14bf7ad52"},"vehicle_type_id":"4","last_reported":1752487973,"current_range_meters":14000,"station_id":"st_cvj6sg6p6f1abm77japg","pricing_plan_id":"cebpf4jnsgd1na2vs0mg"},{"bike_id":"78188ad6-de5b-48bf-99b9-d3f4d18ebbf9","system_id":"levelo_inurba_marseille","lat":43.32049,"lon":5.41547,"is_reserved":false,"is_disabled":false,"rental_uris":{"android":"levelo://app?vid=78188ad6-de5b-48bf-99b9-d3f4d18ebbf9","ios":"levelo://app?vid=78188ad6-de5b-48bf-99b9-d3f4d18ebbf9"},"vehicle_type_id":"4","last_reported":1752487973,"current_range_meters":13600,"station_id":"ce4bhq92rcd13ifvqhkg","pricing_plan_id":"cebpf4jnsgd1na2vs0mg"},{"bike_id":"8da730ab-838f-4883-9b86-fff02362f8e4","system_id":"levelo_inurba_marseille","lat":43.29272,"lon":5.408746,"is_reserved":false,"is_disabled":false,"rental_uris":{"android":"levelo://app?vid=8da730ab-838f-4883-9b86-fff02362f8e4","ios":"levelo://app?vid=8da730ab-838f-4883-9b86-fff02362f8e4"},"vehicle_type_id":"4","last_reported":1752487973,"current_range_meters":14400,"station_id":"ce4bh192rcd13ifvqdc0","pricing_plan_id":"cebpf4jnsgd1na2vs0mg"},{"bike_id":"8a01e88a-8371-4085-9838-47ae11897cd3","system_id":"levelo_inurba_marseille","lat":43.28157,"lon":5.42658,"is_reserved":false,"is_disabled":true,"rental_uris":{"android":"levelo://app?vid=8a01e88a-8371-4085-9838-47ae11897cd3","ios":"levelo://app?vid=8a01e88a-8371-4085-9838-47ae11897cd3"},"vehicle_type_id":"4","last_reported":1752487973,"current_range_meters":14400,"station_id":"ce4bhnh2rcd13ifvqgug","pricing_plan_id":"cebpf4jnsgd1na2vs0mg"},{"bike_id":"c9ff2100-8b0a-498d-a646-f7288590f021","system_id":"levelo_inurba_marseille","lat":43.31206,"lon":5.3942,"is_reserved":false,"is_disabled":false,"rental_uris":{"android":"levelo://app?vid=c9ff2100-8b0a-498d-a646-f7288590f021","ios":"levelo://app?vid=c9ff2100-8b0a-498d-a646-f7288590f021"},"vehicle_type_id":"4","last_reported":1752487973,"current_range_meters":14400,"station_id":"","pricing_plan_id":"cebpf4jnsgd1na2vs0mg"},{"bike_id":"088e6b1d-8a81-47e0-9ad0-36233ed399c0","system_id":"levelo_inurba_marseille","lat":43.27872,"lon":5.39554,"is_reserved":false,"is_disabled":true,"rental_uris":{"android":"levelo://app?vid=088e6b1d-8a81-47e0-9ad0-36233ed399c0","ios":"levelo://app?vid=088e6b1d-8a81-47e0-9ad0-36233ed399c0"},"vehicle_type_id":"4","last_reported":1752487973,"current_range_meters":14400,"station_id":"","pricing_plan_id":"cebpf4jnsgd1na2vs0mg"},{"bike_id":"f5a47db5-6fb2-46bd-a2de-efa4ad13bf60","system_id":"levelo_inurba_marseille","lat":43.211914,"lon":5.350726,"is_reserved":false,"is_disabled":false,"rental_uris":{"android":"levelo://app?vid=f5a47db5-6fb2-46bd-a2de-efa4ad13bf60","ios":"levelo://app?vid=f5a47db5-6fb2-46bd-a2de-efa4ad13bf60"},"vehicle_type_id":"4","last_reported":1752487973,"current_range_meters":14800,"station_id":"st_cvj6sg6p6f1abm77japg","pricing_plan_id":"cebpf4jnsgd1na2vs0mg"},{"bike_id":"219dce72-faa8-4d6d-8c52-e043d312d82e","system_id":"levelo_inurba_marseille","lat":43.32337,"lon":5.40624,"is_reserved":false,"is_disabled":false,"rental_uris":{"android":"levelo://app?vid=219dce72-faa8-4d6d-8c52-e043d312d82e","ios":"levelo://app?vid=219dce72-faa8-4d6d-8c52-e043d312d82e"},"vehicle_type_id":"4","last_reported":1752487973,"current_range_meters":14800,"station_id":"ce4bhq92rcd13ifvqhjg","pricing_plan_id":"cebpf4jnsgd1na2vs0mg"},{"bike_id":"e91ced2f-2041-4b38-8446-0d5d97adec95","system_id":"levelo_inurba_marseille","lat":43.255799,"lon":5.382246,"is_reserved":false,"is_disabled":true,"rental_uris":{"android":"levelo://app?vid=e91ced2f-2041-4b38-8446-0d5d97adec95","ios":"levelo://app?vid=e91ced2f-2041-4b38-8446-0d5d97adec95"},"vehicle_type_id":"4","last_reported":1752487973,"current_range_meters":14800,"station_id":"ce4bhih2rcd13ifvqfs0","pricing_plan_id":"cebpf4jnsgd1na2vs0mg"},{"bike_id":"1aedaa42-1f03-48cc-8e38-d983e72f730b","system_id":"levelo_inurba_marseille","lat":43.27072,"lon":5.42279,"is_reserved":false,"is_disabled":false,"rental_uris":{"android":"levelo://app?vid=1aedaa42-1f03-48cc-8e38-d983e72f730b","ios":"levelo://app?vid=1aedaa42-1f03-48cc-8e38-d983e72f730b"},"vehicle_type_id":"4","last_reported":1752487973,"current_range_meters":14800,"station_id":"ce4bhk92rcd13ifvqgb0","pricing_plan_id":"cebpf4jnsgd1na2vs0mg"},{"bike_id":"b6771d12-4d0b-4004-8d85-15a22b02cf35","system_id":"levelo_inurba_marseille","lat":43.25575,"lon":5.382273,"is_reserved":false,"is_disabled":false,"rental_uris":{"android":"levelo://app?vid=b6771d12-4d0b-4004-8d85-15a22b02cf35","ios":"levelo://app?vid=b6771d12-4d0b-4004-8d85-15a22b02cf35"},"vehicle_type_id":"4","last_reported":1752487973,"current_range_meters":14800,"station_id":"ce4bhih2rcd13ifvqfs0","pricing_plan_id":"cebpf4jnsgd1na2vs0mg"},{"bike_id":"a4d07f45-19f9-4df9-9728-be6623530a64","system_id":"levelo_inurba_marseille","lat":43.23711,"lon":5.38827,"is_reserved":false,"is_disabled":false,"rental_uris":{"android":"levelo://app?vid=a4d07f45-19f9-4df9-9728-be6623530a64","ios":"levelo://app?vid=a4d07f45-19f9-4df9-9728-be6623530a64"},"vehicle_type_id":"4","last_reported":1752487973,"current_range_meters":15200,"station_id":"","pricing_plan_id":"cebpf4jnsgd1na2vs0mg"},{"bike_id":"4c15aebe-18ab-4353-a234-87063157bf88","system_id":"levelo_inurba_marseille","lat":43.24183,"lon":5.3974,"is_reserved":false,"is_disabled":false,"rental_uris":{"android":"levelo://app?vid=4c15aebe-18ab-4353-a234-87063157bf88","ios":"levelo://app?vid=4c15aebe-18ab-4353-a234-87063157bf88"},"vehicle_type_id":"4","last_reported":1752487973,"current_range_meters":15200,"station_id":"ce4bhn12rcd13ifvqgpg","pricing_plan_id":"cebpf4jnsgd1na2vs0mg"},{"bike_id":"e9aa6bc0-2d5b-424f-bb57-f1873dbc342f","system_id":"levelo_inurba_marseille","lat":43.290423,"lon":5.359172,"is_reserved":false,"is_disabled":false,"rental_uris":{"android":"levelo://app?vid=e9aa6bc0-2d5b-424f-bb57-f1873dbc342f","ios":"levelo://app?vid=e9aa6bc0-2d5b-424f-bb57-f1873dbc342f"},"vehicle_type_id":"4","last_reported":1752487973,"current_range_meters":15200,"station_id":"ce4bha92rcd13ifvqeg0","pricing_plan_id":"cebpf4jnsgd1na2vs0mg"},{"bike_id":"697d5fc4-b988-4a4e-8323-c1ce5ed61a61","system_id":"levelo_inurba_marseille","lat":43.21195,"lon":5.3508,"is_reserved":false,"is_disabled":false,"rental_uris":{"android":"levelo://app?vid=697d5fc4-b988-4a4e-8323-c1ce5ed61a61","ios":"levelo://app?vid=697d5fc4-b988-4a4e-8323-c1ce5ed61a61"},"vehicle_type_id":"4","last_reported":1752487973,"current_range_meters":16000,"station_id":"st_cvj6sg6p6f1abm77japg","pricing_plan_id":"cebpf4jnsgd1na2vs0mg"},{"bike_id":"12d48e4d-a291-49bb-ab45-967804b53d7b","system_id":"levelo_inurba_marseille","lat":43.27617,"lon":5.36115,"is_reserved":false,"is_disabled":true,"rental_uris":{"android":"levelo://app?vid=12d48e4d-a291-49bb-ab45-967804b53d7b","ios":"levelo://app?vid=12d48e4d-a291-49bb-ab45-967804b53d7b"},"vehicle_type_id":"4","last_reported":1752487973,"current_range_meters":16000,"station_id":"ce4bgj92rcd13ifvqbe0","pricing_plan_id":"cebpf4jnsgd1na2vs0mg"},{"bike_id":"e1442ff3-c767-4bb3-901d-e5f60873ad13","system_id":"levelo_inurba_marseille","lat":43.23187,"lon":5.40008,"is_reserved":false,"is_disabled":false,"rental_uris":{"android":"levelo://app?vid=e1442ff3-c767-4bb3-901d-e5f60873ad13","ios":"levelo://app?vid=e1442ff3-c767-4bb3-901d-e5f60873ad13"},"vehicle_type_id":"4","last_reported":1752487973,"current_range_meters":16000,"station_id":"ce4bhn12rcd13ifvqgqg","pricing_plan_id":"cebpf4jnsgd1na2vs0mg"},{"bike_id":"e1928b01-bff5-4cea-b60c-f8d9223daef3","system_id":"levelo_inurba_marseille","lat":43.27087,"lon":5.42339,"is_reserved":false,"is_disabled":false,"rental_uris":{"android":"levelo://app?vid=e1928b01-bff5-4cea-b60c-f8d9223daef3","ios":"levelo://app?vid=e1928b01-bff5-4cea-b60c-f8d9223daef3"},"vehicle_type_id":"4","last_reported":1752487973,"current_range_meters":16000,"station_id":"","pricing_plan_id":"cebpf4jnsgd1na2vs0mg"},{"bike_id":"28547256-1aa7-4e73-b447-9619ba5dc137","system_id":"levelo_inurba_marseille","lat":43.29624,"lon":5.37714,"is_reserved":false,"is_disabled":false,"rental_uris":{"android":"levelo://app?vid=28547256-1aa7-4e73-b447-9619ba5dc137","ios":"levelo://app?vid=28547256-1aa7-4e73-b447-9619ba5dc137"},"vehicle_type_id":"4","last_reported":1752487973,"current_range_meters":16000,"station_id":"ce4bgi92rcd13ifvqb90","pricing_plan_id":"cebpf4jnsgd1na2vs0mg"},{"bike_id":"6ac174d4-75c5-4a9c-9699-97cd631c6e65","system_id":"levelo_inurba_marseille","lat":43.25455,"lon":5.39913,"is_reserved":false,"is_disabled":false,"rental_uris":{"android":"levelo://app?vid=6ac174d4-75c5-4a9c-9699-97cd631c6e65","ios":"levelo://app?vid=6ac174d4-75c5-4a9c-9699-97cd631c6e65"},"vehicle_type_id":"4","last_reported":1752487973,"current_range_meters":16000,"station_id":"","pricing_plan_id":"cebpf4jnsgd1na2vs0mg"},{"bike_id":"23a0fc67-4c39-4b74-8a86-2903d79b1606","system_id":"levelo_inurba_marseille","lat":43.231888,"lon":5.355542,"is_reserved":false,"is_disabled":false,"rental_uris":{"android":"levelo://app?vid=23a0fc67-4c39-4b74-8a86-2903d79b1606","ios":"levelo://app?vid=23a0fc67-4c39-4b74-8a86-2903d79b1606"},"vehicle_type_id":"4","last_reported":1752487973,"current_range_meters":16000,"station_id":"ce4bhu92rcd13ifvqi70","pricing_plan_id":"cebpf4jnsgd1na2vs0mg"},{"bike_id":"027a48d7-d6bb-42da-b3b0-4ff01e3bcca0","system_id":"levelo_inurba_marseille","lat":43.2827,"lon":5.35059,"is_reserved":false,"is_disabled":false,"rental_uris":{"android":"levelo://app?vid=027a48d7-d6bb-42da-b3b0-4ff01e3bcca0","ios":"levelo://app?vid=027a48d7-d6bb-42da-b3b0-4ff01e3bcca0"},"vehicle_type_id":"4","last_reported":1752487973,"current_range_meters":16000,"station_id":"ce4bhbp2rcd13ifvqerg","pricing_plan_id":"cebpf4jnsgd1na2vs0mg"},{"bike_id":"cf2bbc39-15a8-4da8-a148-96515f64f25a","system_id":"levelo_inurba_marseille","lat":43.3375,"lon":5.37459,"is_reserved":false,"is_disabled":false,"rental_uris":{"android":"levelo://app?vid=cf2bbc39-15a8-4da8-a148-96515f64f25a","ios":"levelo://app?vid=cf2bbc39-15a8-4da8-a148-96515f64f25a"},"vehicle_type_id":"4","last_reported":1752487973,"current_range_meters":16000,"station_id":"","pricing_plan_id":"cebpf4jnsgd1na2vs0mg"},{"bike_id":"5ba82df7-d2d4-4356-ac83-c57d105fd2ae","system_id":"levelo_inurba_marseille","lat":43.3079,"lon":5.37663,"is_reserved":false,"is_disabled":false,"rental_uris":{"android":"levelo://app?vid=5ba82df7-d2d4-4356-ac83-c57d105fd2ae","ios":"levelo://app?vid=5ba82df7-d2d4-4356-ac83-c57d105fd2ae"},"vehicle_type_id":"4","last_reported":1752487973,"current_range_meters":16400,"station_id":"ce4bgv92rcd13ifvqcq0","pricing_plan_id":"cebpf4jnsgd1na2vs0mg"},{"bike_id":"2c81c752-b139-48bc-a4ee-7fa7f8526278","system_id":"levelo_inurba_marseille","lat":43.21748,"lon":5.34596,"is_reserved":false,"is_disabled":true,"rental_uris":{"android":"levelo://app?vid=2c81c752-b139-48bc-a4ee-7fa7f8526278","ios":"levelo://app?vid=2c81c752-b139-48bc-a4ee-7fa7f8526278"},"vehicle_type_id":"4","last_reported":1752487973,"current_range_meters":16400,"station_id":"st_cvj6r9ubvosntc0bgbag","pricing_plan_id":"cebpf4jnsgd1na2vs0mg"},{"bike_id":"29351528-116f-4c1b-9ad1-76b1c38ff64d","system_id":"levelo_inurba_marseille","lat":43.307987,"lon":5.381543,"is_reserved":false,"is_disabled":false,"rental_uris":{"android":"levelo://app?vid=29351528-116f-4c1b-9ad1-76b1c38ff64d","ios":"levelo://app?vid=29351528-116f-4c1b-9ad1-76b1c38ff64d"},"vehicle_type_id":"4","last_reported":1752487973,"current_range_meters":16400,"station_id":"ce4bgt12rcd13ifvqce0","pricing_plan_id":"cebpf4jnsgd1na2vs0mg"},{"bike_id":"21db8801-f30d-405b-a2fd-78eb15b18c8b","system_id":"levelo_inurba_marseille","lat":43.27997,"lon":5.40014,"is_reserved":false,"is_disabled":false,"rental_uris":{"android":"levelo://app?vid=21db8801-f30d-405b-a2fd-78eb15b18c8b","ios":"levelo://app?vid=21db8801-f30d-405b-a2fd-78eb15b18c8b"},"vehicle_type_id":"4","last_reported":1752487973,"current_range_meters":16400,"station_id":"ce4bho92rcd13ifvqh4g","pricing_plan_id":"cebpf4jnsgd1na2vs0mg"},{"bike_id":"f8b13442-2676-494a-b07f-7265a4ddd2d3","system_id":"levelo_inurba_marseille","lat":43.30185,"lon":5.36625,"is_reserved":false,"is_disabled":false,"rental_uris":{"android":"levelo://app?vid=f8b13442-2676-494a-b07f-7265a4ddd2d3","ios":"levelo://app?vid=f8b13442-2676-494a-b07f-7265a4ddd2d3"},"vehicle_type_id":"4","last_reported":1752487973,"current_range_meters":16000,"station_id":"ce4bgrh2rcd13ifvqc8g","pricing_plan_id":"cebpf4jnsgd1na2vs0mg"},{"bike_id":"aa260077-cb0d-43c9-8e67-329c1b69779f","system_id":"levelo_inurba_marseille","lat":43.21195,"lon":5.350639,"is_reserved":false,"is_disabled":false,"rental_uris":{"android":"levelo://app?vid=aa260077-cb0d-43c9-8e67-329c1b69779f","ios":"levelo://app?vid=aa260077-cb0d-43c9-8e67-329c1b69779f"},"vehicle_type_id":"4","last_reported":1752487973,"current_range_meters":16400,"station_id":"st_cvj6sg6p6f1abm77japg","pricing_plan_id":"cebpf4jnsgd1na2vs0mg"},{"bike_id":"ed74f810-226b-4edb-a7d8-2c9a86d071a4","system_id":"levelo_inurba_marseille","lat":43.2119,"lon":5.35073,"is_reserved":false,"is_disabled":false,"rental_uris":{"android":"levelo://app?vid=ed74f810-226b-4edb-a7d8-2c9a86d071a4","ios":"levelo://app?vid=ed74f810-226b-4edb-a7d8-2c9a86d071a4"},"vehicle_type_id":"4","last_reported":1752487973,"current_range_meters":16400,"station_id":"st_cvj6sg6p6f1abm77japg","pricing_plan_id":"cebpf4jnsgd1na2vs0mg"},{"bike_id":"08e67338-a2ff-42fc-a939-92ad435f118e","system_id":"levelo_inurba_marseille","lat":43.27674,"lon":5.35714,"is_reserved":false,"is_disabled":false,"rental_uris":{"android":"levelo://app?vid=08e67338-a2ff-42fc-a939-92ad435f118e","ios":"levelo://app?vid=08e67338-a2ff-42fc-a939-92ad435f118e"},"vehicle_type_id":"4","last_reported":1752487973,"current_range_meters":16400,"station_id":"","pricing_plan_id":"cebpf4jnsgd1na2vs0mg"},{"bike_id":"f5ff5435-ae48-4e25-9f13-28096abfea96","system_id":"levelo_inurba_marseille","lat":43.254903,"lon":5.376487,"is_reserved":false,"is_disabled":false,"rental_uris":{"android":"levelo://app?vid=f5ff5435-ae48-4e25-9f13-28096abfea96","ios":"levelo://app?vid=f5ff5435-ae48-4e25-9f13-28096abfea96"},"vehicle_type_id":"4","last_reported":1752487973,"current_range_meters":16400,"station_id":"ce4bhh12rcd13ifvqff0","pricing_plan_id":"cebpf4jnsgd1na2vs0mg"},{"bike_id":"aadec9b8-803d-4b60-b623-b9c41bfc8025","system_id":"levelo_inurba_marseille","lat":43.27374,"lon":5.3626,"is_reserved":false,"is_disabled":false,"rental_uris":{"android":"levelo://app?vid=aadec9b8-803d-4b60-b623-b9c41bfc8025","ios":"levelo://app?vid=aadec9b8-803d-4b60-b623-b9c41bfc8025"},"vehicle_type_id":"4","last_reported":1752487973,"current_range_meters":16400,"station_id":"ce4bhbh2rcd13ifvqeo0","pricing_plan_id":"cebpf4jnsgd1na2vs0mg"},{"bike_id":"47aa1c94-32db-4d4c-9523-fe4d6c986358","system_id":"levelo_inurba_marseille","lat":43.27366,"lon":5.36241,"is_reserved":false,"is_disabled":false,"rental_uris":{"android":"levelo://app?vid=47aa1c94-32db-4d4c-9523-fe4d6c986358","ios":"levelo://app?vid=47aa1c94-32db-4d4c-9523-fe4d6c986358"},"vehicle_type_id":"4","last_reported":1752487973,"current_range_meters":16800,"station_id":"ce4bhbh2rcd13ifvqeo0","pricing_plan_id":"cebpf4jnsgd1na2vs0mg"},{"bike_id":"cf985e47-3dcd-4380-bb76-feaf8c585ab5","system_id":"levelo_inurba_marseille","lat":43.29444,"lon":5.39749,"is_reserved":false,"is_disabled":false,"rental_uris":{"android":"levelo://app?vid=cf985e47-3dcd-4380-bb76-feaf8c585ab5","ios":"levelo://app?vid=cf985e47-3dcd-4380-bb76-feaf8c585ab5"},"vehicle_type_id":"4","last_reported":1752487973,"current_range_meters":16800,"station_id":"ce4bh3h2rcd13ifvqdo0","pricing_plan_id":"cebpf4jnsgd1na2vs0mg"},{"bike_id":"86ff6ad5-0612-4a71-a375-5d5132f5b609","system_id":"levelo_inurba_marseille","lat":43.29552,"lon":5.42286,"is_reserved":false,"is_disabled":false,"rental_uris":{"android":"levelo://app?vid=86ff6ad5-0612-4a71-a375-5d5132f5b609","ios":"levelo://app?vid=86ff6ad5-0612-4a71-a375-5d5132f5b609"},"vehicle_type_id":"4","last_reported":1752487973,"current_range_meters":16800,"station_id":"ce4bhph2rcd13ifvqhdg","pricing_plan_id":"cebpf4jnsgd1na2vs0mg"},{"bike_id":"0be8b6ff-89df-4994-876a-5f9632d04ae6","system_id":"levelo_inurba_marseille","lat":43.25109,"lon":5.40333,"is_reserved":false,"is_disabled":false,"rental_uris":{"android":"levelo://app?vid=0be8b6ff-89df-4994-876a-5f9632d04ae6","ios":"levelo://app?vid=0be8b6ff-89df-4994-876a-5f9632d04ae6"},"vehicle_type_id":"4","last_reported":1752487973,"current_range_meters":16800,"station_id":"ce4bhlh2rcd13ifvqgig","pricing_plan_id":"cebpf4jnsgd1na2vs0mg"},{"bike_id":"7ce50aa9-fb46-499f-bf35-1bc8f67c6be2","system_id":"levelo_inurba_marseille","lat":43.26962,"lon":5.4027,"is_reserved":false,"is_disabled":false,"rental_uris":{"android":"levelo://app?vid=7ce50aa9-fb46-499f-bf35-1bc8f67c6be2","ios":"levelo://app?vid=7ce50aa9-fb46-499f-bf35-1bc8f67c6be2"},"vehicle_type_id":"4","last_reported":1752487973,"current_range_meters":16800,"station_id":"cjm6bp8fraef2m0cb0m0","pricing_plan_id":"cebpf4jnsgd1na2vs0mg"},{"bike_id":"ff273063-b26e-410d-a8db-735ccf894b50","system_id":"levelo_inurba_marseille","lat":43.24101,"lon":5.37806,"is_reserved":false,"is_disabled":false,"rental_uris":{"android":"levelo://app?vid=ff273063-b26e-410d-a8db-735ccf894b50","ios":"levelo://app?vid=ff273063-b26e-410d-a8db-735ccf894b50"},"vehicle_type_id":"4","last_reported":1752487973,"current_range_meters":16800,"station_id":"ce4bhnp2rcd13ifvqgvg","pricing_plan_id":"cebpf4jnsgd1na2vs0mg"},{"bike_id":"2c5a0a8d-b80f-43a1-91ae-93c8cb7cac46","system_id":"levelo_inurba_marseille","lat":43.290249,"lon":5.381227,"is_reserved":false,"is_disabled":false,"rental_uris":{"android":"levelo://app?vid=2c5a0a8d-b80f-43a1-91ae-93c8cb7cac46","ios":"levelo://app?vid=2c5a0a8d-b80f-43a1-91ae-93c8cb7cac46"},"vehicle_type_id":"4","last_reported":1752487973,"current_range_meters":16800,"station_id":"","pricing_plan_id":"cebpf4jnsgd1na2vs0mg"},{"bike_id":"00fc1402-4dd5-4160-81c9-e4ee05f4960b","system_id":"levelo_inurba_marseille","lat":43.22512,"lon":5.34789,"is_reserved":false,"is_disabled":false,"rental_uris":{"android":"levelo://app?vid=00fc1402-4dd5-4160-81c9-e4ee05f4960b","ios":"levelo://app?vid=00fc1402-4dd5-4160-81c9-e4ee05f4960b"},"vehicle_type_id":"4","last_reported":1752487973,"current_range_meters":16800,"station_id":"st_cvj5dfep6f1abm77gieg","pricing_plan_id":"cebpf4jnsgd1na2vs0mg"},{"bike_id":"c2857b8a-2544-48ae-936c-90bab1dd6ab6","system_id":"levelo_inurba_marseille","lat":43.2122,"lon":5.35121,"is_reserved":false,"is_disabled":false,"rental_uris":{"android":"levelo://app?vid=c2857b8a-2544-48ae-936c-90bab1dd6ab6","ios":"levelo://app?vid=c2857b8a-2544-48ae-936c-90bab1dd6ab6"},"vehicle_type_id":"4","last_reported":1752487973,"current_range_meters":16800,"station_id":"","pricing_plan_id":"cebpf4jnsgd1na2vs0mg"},{"bike_id":"44e10618-e1b8-4569-bc24-980853c4bf04","system_id":"levelo_inurba_marseille","lat":43.229282,"lon":5.353716,"is_reserved":false,"is_disabled":true,"rental_uris":{"android":"levelo://app?vid=44e10618-e1b8-4569-bc24-980853c4bf04","ios":"levelo://app?vid=44e10618-e1b8-4569-bc24-980853c4bf04"},"vehicle_type_id":"4","last_reported":1752487973,"current_range_meters":17200,"station_id":"cpo3532slgdg3j2ikp40","pricing_plan_id":"cebpf4jnsgd1na2vs0mg"},{"bike_id":"3945caf1-a3ed-4500-a05f-e4d3291f48da","system_id":"levelo_inurba_marseille","lat":43.28271,"lon":5.35073,"is_reserved":false,"is_disabled":false,"rental_uris":{"android":"levelo://app?vid=3945caf1-a3ed-4500-a05f-e4d3291f48da","ios":"levelo://app?vid=3945caf1-a3ed-4500-a05f-e4d3291f48da"},"vehicle_type_id":"4","last_reported":1752487973,"current_range_meters":17200,"station_id":"ce4bhbp2rcd13ifvqerg","pricing_plan_id":"cebpf4jnsgd1na2vs0mg"},{"bike_id":"01beb3f2-c54f-4f68-af15-b28ae7c75196","system_id":"levelo_inurba_marseille","lat":43.30137,"lon":5.39858,"is_reserved":false,"is_disabled":true,"rental_uris":{"android":"levelo://app?vid=01beb3f2-c54f-4f68-af15-b28ae7c75196","ios":"levelo://app?vid=01beb3f2-c54f-4f68-af15-b28ae7c75196"},"vehicle_type_id":"4","last_reported":1752487973,"current_range_meters":17200,"station_id":"ce4bh0h2rcd13ifvqd40","pricing_plan_id":"cebpf4jnsgd1na2vs0mg"},{"bike_id":"47d3b0e7-7f56-4c33-8c2b-dc80e66708e3","system_id":"levelo_inurba_marseille","lat":43.28672,"lon":5.3636,"is_reserved":false,"is_disabled":false,"rental_uris":{"android":"levelo://app?vid=47d3b0e7-7f56-4c33-8c2b-dc80e66708e3","ios":"levelo://app?vid=47d3b0e7-7f56-4c33-8c2b-dc80e66708e3"},"vehicle_type_id":"4","last_reported":1752487973,"current_range_meters":17200,"station_id":"ce4bhah2rcd13ifvqej0","pricing_plan_id":"cebpf4jnsgd1na2vs0mg"},{"bike_id":"ce7e0f9d-fa84-4dc1-9d84-21a2c2d40a27","system_id":"levelo_inurba_marseille","lat":43.240734,"lon":5.377642,"is_reserved":false,"is_disabled":false,"rental_uris":{"android":"levelo://app?vid=ce7e0f9d-fa84-4dc1-9d84-21a2c2d40a27","ios":"levelo://app?vid=ce7e0f9d-fa84-4dc1-9d84-21a2c2d40a27"},"vehicle_type_id":"4","last_reported":1752487973,"current_range_meters":17200,"station_id":"ce4bhnp2rcd13ifvqgvg","pricing_plan_id":"cebpf4jnsgd1na2vs0mg"},{"bike_id":"1eb30bbc-25a0-4a0b-b6cc-68f11abcb23c","system_id":"levelo_inurba_marseille","lat":43.28621,"lon":5.37084,"is_reserved":false,"is_disabled":false,"rental_uris":{"android":"levelo://app?vid=1eb30bbc-25a0-4a0b-b6cc-68f11abcb23c","ios":"levelo://app?vid=1eb30bbc-25a0-4a0b-b6cc-68f11abcb23c"},"vehicle_type_id":"4","last_reported":1752487973,"current_range_meters":17200,"station_id":"ce4bht12rcd13ifvqi60","pricing_plan_id":"cebpf4jnsgd1na2vs0mg"},{"bike_id":"ce4d14d7-9e5a-40df-9fcf-5fd8b2e9178f","system_id":"levelo_inurba_marseille","lat":43.25707,"lon":5.41094,"is_reserved":false,"is_disabled":false,"rental_uris":{"android":"levelo://app?vid=ce4d14d7-9e5a-40df-9fcf-5fd8b2e9178f","ios":"levelo://app?vid=ce4d14d7-9e5a-40df-9fcf-5fd8b2e9178f"},"vehicle_type_id":"4","last_reported":1752487973,"current_range_meters":17600,"station_id":"ce4bhkp2rcd13ifvqgd0","pricing_plan_id":"cebpf4jnsgd1na2vs0mg"},{"bike_id":"fc63a067-9cf2-4c58-bfdd-3270ab1898f2","system_id":"levelo_inurba_marseille","lat":43.22929,"lon":5.35385,"is_reserved":false,"is_disabled":false,"rental_uris":{"android":"levelo://app?vid=fc63a067-9cf2-4c58-bfdd-3270ab1898f2","ios":"levelo://app?vid=fc63a067-9cf2-4c58-bfdd-3270ab1898f2"},"vehicle_type_id":"4","last_reported":1752487973,"current_range_meters":17600,"station_id":"cpo3532slgdg3j2ikp40","pricing_plan_id":"cebpf4jnsgd1na2vs0mg"},{"bike_id":"3ce6d4e6-e037-4640-bce1-131fc23234bf","system_id":"levelo_inurba_marseille","lat":43.28469,"lon":5.35874,"is_reserved":false,"is_disabled":false,"rental_uris":{"android":"levelo://app?vid=3ce6d4e6-e037-4640-bce1-131fc23234bf","ios":"levelo://app?vid=3ce6d4e6-e037-4640-bce1-131fc23234bf"},"vehicle_type_id":"4","last_reported":1752487973,"current_range_meters":17600,"station_id":"ce4bhah2rcd13ifvqei0","pricing_plan_id":"cebpf4jnsgd1na2vs0mg"},{"bike_id":"d0f90c24-dd03-411b-9731-55305f76b7c8","system_id":"levelo_inurba_marseille","lat":43.211934,"lon":5.350761,"is_reserved":false,"is_disabled":false,"rental_uris":{"android":"levelo://app?vid=d0f90c24-dd03-411b-9731-55305f76b7c8","ios":"levelo://app?vid=d0f90c24-dd03-411b-9731-55305f76b7c8"},"vehicle_type_id":"4","last_reported":1752487973,"current_range_meters":17600,"station_id":"st_cvj6sg6p6f1abm77japg","pricing_plan_id":"cebpf4jnsgd1na2vs0mg"},{"bike_id":"f10941ce-d19a-4475-b0ba-1c38d332727e","system_id":"levelo_inurba_marseille","lat":43.32168,"lon":5.38757,"is_reserved":false,"is_disabled":false,"rental_uris":{"android":"levelo://app?vid=f10941ce-d19a-4475-b0ba-1c38d332727e","ios":"levelo://app?vid=f10941ce-d19a-4475-b0ba-1c38d332727e"},"vehicle_type_id":"4","last_reported":1752487973,"current_range_meters":17600,"station_id":"","pricing_plan_id":"cebpf4jnsgd1na2vs0mg"},{"bike_id":"e0b88937-0cb8-4374-8110-357b6a1974b9","system_id":"levelo_inurba_marseille","lat":43.24067,"lon":5.37786,"is_reserved":false,"is_disabled":false,"rental_uris":{"android":"levelo://app?vid=e0b88937-0cb8-4374-8110-357b6a1974b9","ios":"levelo://app?vid=e0b88937-0cb8-4374-8110-357b6a1974b9"},"vehicle_type_id":"4","last_reported":1752487973,"current_range_meters":17600,"station_id":"ce4bhnp2rcd13ifvqgvg","pricing_plan_id":"cebpf4jnsgd1na2vs0mg"},{"bike_id":"1d6217e5-cb44-44f1-8e9c-f21bbfac80ed","system_id":"levelo_inurba_marseille","lat":43.30302,"lon":5.36896,"is_reserved":false,"is_disabled":false,"rental_uris":{"android":"levelo://app?vid=1d6217e5-cb44-44f1-8e9c-f21bbfac80ed","ios":"levelo://app?vid=1d6217e5-cb44-44f1-8e9c-f21bbfac80ed"},"vehicle_type_id":"4","last_reported":1752487973,"current_range_meters":17600,"station_id":"ce4bgqh2rcd13ifvqc5g","pricing_plan_id":"cebpf4jnsgd1na2vs0mg"},{"bike_id":"22060ed4-4224-4eb8-b34f-7fe6bdc84783","system_id":"levelo_inurba_marseille","lat":43.31481,"lon":5.37303,"is_reserved":false,"is_disabled":false,"rental_uris":{"android":"levelo://app?vid=22060ed4-4224-4eb8-b34f-7fe6bdc84783","ios":"levelo://app?vid=22060ed4-4224-4eb8-b34f-7fe6bdc84783"},"vehicle_type_id":"4","last_reported":1752487973,"current_range_meters":17600,"station_id":"ce4bgt12rcd13ifvqcd0","pricing_plan_id":"cebpf4jnsgd1na2vs0mg"},{"bike_id":"d3efc34f-1637-4aa4-bd76-22e640d007bc","system_id":"levelo_inurba_marseille","lat":43.28414,"lon":5.34996,"is_reserved":false,"is_disabled":false,"rental_uris":{"android":"levelo://app?vid=d3efc34f-1637-4aa4-bd76-22e640d007bc","ios":"levelo://app?vid=d3efc34f-1637-4aa4-bd76-22e640d007bc"},"vehicle_type_id":"4","last_reported":1752487973,"current_range_meters":17600,"station_id":"ce4bhbh2rcd13ifvqepg","pricing_plan_id":"cebpf4jnsgd1na2vs0mg"},{"bike_id":"946e0037-25be-49d1-bdd9-eae80f3ddb79","system_id":"levelo_inurba_marseille","lat":43.279443,"lon":5.410435,"is_reserved":false,"is_disabled":false,"rental_uris":{"android":"levelo://app?vid=946e0037-25be-49d1-bdd9-eae80f3ddb79","ios":"levelo://app?vid=946e0037-25be-49d1-bdd9-eae80f3ddb79"},"vehicle_type_id":"4","last_reported":1752487973,"current_range_meters":17600,"station_id":"ce4bhnp2rcd13ifvqh0g","pricing_plan_id":"cebpf4jnsgd1na2vs0mg"},{"bike_id":"7c8c92d5-b9c7-49f0-b610-75814f9ef289","system_id":"levelo_inurba_marseille","lat":43.292755,"lon":5.376488,"is_reserved":false,"is_disabled":false,"rental_uris":{"android":"levelo://app?vid=7c8c92d5-b9c7-49f0-b610-75814f9ef289","ios":"levelo://app?vid=7c8c92d5-b9c7-49f0-b610-75814f9ef289"},"vehicle_type_id":"4","last_reported":1752487973,"current_range_meters":18000,"station_id":"ce4bgi12rcd13ifvqb80","pricing_plan_id":"cebpf4jnsgd1na2vs0mg"},{"bike_id":"52cb12ce-7568-4969-9d5b-e929fc857857","system_id":"levelo_inurba_marseille","lat":43.29112,"lon":5.3799,"is_reserved":false,"is_disabled":false,"rental_uris":{"android":"levelo://app?vid=52cb12ce-7568-4969-9d5b-e929fc857857","ios":"levelo://app?vid=52cb12ce-7568-4969-9d5b-e929fc857857"},"vehicle_type_id":"4","last_reported":1752487973,"current_range_meters":18000,"station_id":"","pricing_plan_id":"cebpf4jnsgd1na2vs0mg"},{"bike_id":"f2d28c4f-9c9d-4f1f-8109-1e9e68461bcc","system_id":"levelo_inurba_marseille","lat":43.27841,"lon":5.3921,"is_reserved":false,"is_disabled":false,"rental_uris":{"android":"levelo://app?vid=f2d28c4f-9c9d-4f1f-8109-1e9e68461bcc","ios":"levelo://app?vid=f2d28c4f-9c9d-4f1f-8109-1e9e68461bcc"},"vehicle_type_id":"4","last_reported":1752487973,"current_range_meters":17600,"station_id":"ce4bhjp2rcd13ifvqga0","pricing_plan_id":"cebpf4jnsgd1na2vs0mg"},{"bike_id":"6c6d4d9a-6141-481c-9c1a-8e61054bdc43","system_id":"levelo_inurba_marseille","lat":43.24759,"lon":5.41822,"is_reserved":false,"is_disabled":false,"rental_uris":{"android":"levelo://app?vid=6c6d4d9a-6141-481c-9c1a-8e61054bdc43","ios":"levelo://app?vid=6c6d4d9a-6141-481c-9c1a-8e61054bdc43"},"vehicle_type_id":"4","last_reported":1752487973,"current_range_meters":18000,"station_id":"","pricing_plan_id":"cebpf4jnsgd1na2vs0mg"},{"bike_id":"8ff2794d-77fa-4d6f-8b14-901da280c654","system_id":"levelo_inurba_marseille","lat":43.29047,"lon":5.35913,"is_reserved":false,"is_disabled":false,"rental_uris":{"android":"levelo://app?vid=8ff2794d-77fa-4d6f-8b14-901da280c654","ios":"levelo://app?vid=8ff2794d-77fa-4d6f-8b14-901da280c654"},"vehicle_type_id":"4","last_reported":1752487973,"current_range_meters":18000,"station_id":"ce4bha92rcd13ifvqeg0","pricing_plan_id":"cebpf4jnsgd1na2vs0mg"},{"bike_id":"5c604cee-8163-4508-b1f3-ec8c5d644770","system_id":"levelo_inurba_marseille","lat":43.23193,"lon":5.35566,"is_reserved":false,"is_disabled":false,"rental_uris":{"android":"levelo://app?vid=5c604cee-8163-4508-b1f3-ec8c5d644770","ios":"levelo://app?vid=5c604cee-8163-4508-b1f3-ec8c5d644770"},"vehicle_type_id":"4","last_reported":1752487973,"current_range_meters":18000,"station_id":"ce4bhu92rcd13ifvqi70","pricing_plan_id":"cebpf4jnsgd1na2vs0mg"},{"bike_id":"48a72147-d63a-4fad-9403-9184689656c8","system_id":"levelo_inurba_marseille","lat":43.24394,"lon":5.37079,"is_reserved":false,"is_disabled":true,"rental_uris":{"android":"levelo://app?vid=48a72147-d63a-4fad-9403-9184689656c8","ios":"levelo://app?vid=48a72147-d63a-4fad-9403-9184689656c8"},"vehicle_type_id":"4","last_reported":1752487973,"current_range_meters":18000,"station_id":"ce4bhhh2rcd13ifvqfk0","pricing_plan_id":"cebpf4jnsgd1na2vs0mg"},{"bike_id":"9b272ac9-8249-48fb-9ec9-2b199854a4d9","system_id":"levelo_inurba_marseille","lat":43.29369,"lon":5.37833,"is_reserved":false,"is_disabled":false,"rental_uris":{"android":"levelo://app?vid=9b272ac9-8249-48fb-9ec9-2b199854a4d9","ios":"levelo://app?vid=9b272ac9-8249-48fb-9ec9-2b199854a4d9"},"vehicle_type_id":"4","last_reported":1752487973,"current_range_meters":18000,"station_id":"ce4bgjh2rcd13ifvqbf0","pricing_plan_id":"cebpf4jnsgd1na2vs0mg"},{"bike_id":"f6618e0c-2b00-4ee7-8d7c-c845eca6b5fb","system_id":"levelo_inurba_marseille","lat":43.31534,"lon":5.38031,"is_reserved":false,"is_disabled":false,"rental_uris":{"android":"levelo://app?vid=f6618e0c-2b00-4ee7-8d7c-c845eca6b5fb","ios":"levelo://app?vid=f6618e0c-2b00-4ee7-8d7c-c845eca6b5fb"},"vehicle_type_id":"4","last_reported":1752487973,"current_range_meters":18800,"station_id":"ce4bhsp2rcd13ifvqi50","pricing_plan_id":"cebpf4jnsgd1na2vs0mg"},{"bike_id":"eeb4530a-c309-41f7-a2ed-6f1c87b82a1b","system_id":"levelo_inurba_marseille","lat":43.30542,"lon":5.365527,"is_reserved":false,"is_disabled":false,"rental_uris":{"android":"levelo://app?vid=eeb4530a-c309-41f7-a2ed-6f1c87b82a1b","ios":"levelo://app?vid=eeb4530a-c309-41f7-a2ed-6f1c87b82a1b"},"vehicle_type_id":"4","last_reported":1752487973,"current_range_meters":18800,"station_id":"ce4bgs12rcd13ifvqcag","pricing_plan_id":"cebpf4jnsgd1na2vs0mg"},{"bike_id":"11106e69-89ed-4341-b4bb-b14fbe08d9c6","system_id":"levelo_inurba_marseille","lat":43.28598,"lon":5.39573,"is_reserved":false,"is_disabled":false,"rental_uris":{"android":"levelo://app?vid=11106e69-89ed-4341-b4bb-b14fbe08d9c6","ios":"levelo://app?vid=11106e69-89ed-4341-b4bb-b14fbe08d9c6"},"vehicle_type_id":"4","last_reported":1752487973,"current_range_meters":18800,"station_id":"","pricing_plan_id":"cebpf4jnsgd1na2vs0mg"},{"bike_id":"f2e49c32-f10c-4e91-93ab-4ab9167f079f","system_id":"levelo_inurba_marseille","lat":43.26082,"lon":5.39389,"is_reserved":false,"is_disabled":false,"rental_uris":{"android":"levelo://app?vid=f2e49c32-f10c-4e91-93ab-4ab9167f079f","ios":"levelo://app?vid=f2e49c32-f10c-4e91-93ab-4ab9167f079f"},"vehicle_type_id":"4","last_reported":1752487973,"current_range_meters":18800,"station_id":"ce4bhh92rcd13ifvqfj0","pricing_plan_id":"cebpf4jnsgd1na2vs0mg"},{"bike_id":"9ec7ded0-07a0-4052-88cd-c68cfaa8fdd7","system_id":"levelo_inurba_marseille","lat":43.21751,"lon":5.346,"is_reserved":false,"is_disabled":false,"rental_uris":{"android":"levelo://app?vid=9ec7ded0-07a0-4052-88cd-c68cfaa8fdd7","ios":"levelo://app?vid=9ec7ded0-07a0-4052-88cd-c68cfaa8fdd7"},"vehicle_type_id":"4","last_reported":1752487973,"current_range_meters":18800,"station_id":"st_cvj6r9ubvosntc0bgbag","pricing_plan_id":"cebpf4jnsgd1na2vs0mg"},{"bike_id":"0f6e2d1e-1402-4217-bd46-d4dccc77d350","system_id":"levelo_inurba_marseille","lat":43.29274,"lon":5.36634,"is_reserved":false,"is_disabled":false,"rental_uris":{"android":"levelo://app?vid=0f6e2d1e-1402-4217-bd46-d4dccc77d350","ios":"levelo://app?vid=0f6e2d1e-1402-4217-bd46-d4dccc77d350"},"vehicle_type_id":"4","last_reported":1752487973,"current_range_meters":18800,"station_id":"","pricing_plan_id":"cebpf4jnsgd1na2vs0mg"},{"bike_id":"2ba5fc7f-d3f2-4d0f-9083-fcf6c368ad92","system_id":"levelo_inurba_marseille","lat":43.31266,"lon":5.40163,"is_reserved":false,"is_disabled":false,"rental_uris":{"android":"levelo://app?vid=2ba5fc7f-d3f2-4d0f-9083-fcf6c368ad92","ios":"levelo://app?vid=2ba5fc7f-d3f2-4d0f-9083-fcf6c368ad92"},"vehicle_type_id":"4","last_reported":1752487973,"current_range_meters":18800,"station_id":"ce4bh092rcd13ifvqd30","pricing_plan_id":"cebpf4jnsgd1na2vs0mg"},{"bike_id":"abd54454-eac9-4f10-9247-3e0bb034a891","system_id":"levelo_inurba_marseille","lat":43.28253,"lon":5.35078,"is_reserved":false,"is_disabled":false,"rental_uris":{"android":"levelo://app?vid=abd54454-eac9-4f10-9247-3e0bb034a891","ios":"levelo://app?vid=abd54454-eac9-4f10-9247-3e0bb034a891"},"vehicle_type_id":"4","last_reported":1752487973,"current_range_meters":18800,"station_id":"ce4bhbp2rcd13ifvqerg","pricing_plan_id":"cebpf4jnsgd1na2vs0mg"},{"bike_id":"b211c38b-8c37-4f04-b2fa-0f21bedeb117","system_id":"levelo_inurba_marseille","lat":43.28151,"lon":5.42658,"is_reserved":false,"is_disabled":false,"rental_uris":{"android":"levelo://app?vid=b211c38b-8c37-4f04-b2fa-0f21bedeb117","ios":"levelo://app?vid=b211c38b-8c37-4f04-b2fa-0f21bedeb117"},"vehicle_type_id":"4","last_reported":1752487973,"current_range_meters":18800,"station_id":"ce4bhnh2rcd13ifvqgug","pricing_plan_id":"cebpf4jnsgd1na2vs0mg"},{"bike_id":"c3eb31c9-e106-4cd2-bb91-f2d0ee3e7a6f","system_id":"levelo_inurba_marseille","lat":43.2403,"lon":5.36248,"is_reserved":false,"is_disabled":false,"rental_uris":{"android":"levelo://app?vid=c3eb31c9-e106-4cd2-bb91-f2d0ee3e7a6f","ios":"levelo://app?vid=c3eb31c9-e106-4cd2-bb91-f2d0ee3e7a6f"},"vehicle_type_id":"4","last_reported":1752487973,"current_range_meters":18800,"station_id":"","pricing_plan_id":"cebpf4jnsgd1na2vs0mg"},{"bike_id":"d7345bd6-482c-45c1-a31f-8da9edb02a99","system_id":"levelo_inurba_marseille","lat":43.31541,"lon":5.38045,"is_reserved":false,"is_disabled":false,"rental_uris":{"android":"levelo://app?vid=d7345bd6-482c-45c1-a31f-8da9edb02a99","ios":"levelo://app?vid=d7345bd6-482c-45c1-a31f-8da9edb02a99"},"vehicle_type_id":"4","last_reported":1752487973,"current_range_meters":18800,"station_id":"ce4bhsp2rcd13ifvqi50","pricing_plan_id":"cebpf4jnsgd1na2vs0mg"},{"bike_id":"d3920e8b-93fe-4dac-a7bc-9150aa65a269","system_id":"levelo_inurba_marseille","lat":43.24071,"lon":5.37762,"is_reserved":false,"is_disabled":false,"rental_uris":{"android":"levelo://app?vid=d3920e8b-93fe-4dac-a7bc-9150aa65a269","ios":"levelo://app?vid=d3920e8b-93fe-4dac-a7bc-9150aa65a269"},"vehicle_type_id":"4","last_reported":1752487973,"current_range_meters":19200,"station_id":"ce4bhnp2rcd13ifvqgvg","pricing_plan_id":"cebpf4jnsgd1na2vs0mg"},{"bike_id":"6d759733-8785-4e8a-bb14-bad01a7758f4","system_id":"levelo_inurba_marseille","lat":43.25733,"lon":5.41117,"is_reserved":false,"is_disabled":false,"rental_uris":{"android":"levelo://app?vid=6d759733-8785-4e8a-bb14-bad01a7758f4","ios":"levelo://app?vid=6d759733-8785-4e8a-bb14-bad01a7758f4"},"vehicle_type_id":"4","last_reported":1752487973,"current_range_meters":19200,"station_id":"ce4bhkp2rcd13ifvqgd0","pricing_plan_id":"cebpf4jnsgd1na2vs0mg"},{"bike_id":"c3e2615f-34c3-4647-b0bf-33990d189df2","system_id":"levelo_inurba_marseille","lat":43.29051,"lon":5.37571,"is_reserved":false,"is_disabled":false,"rental_uris":{"android":"levelo://app?vid=c3e2615f-34c3-4647-b0bf-33990d189df2","ios":"levelo://app?vid=c3e2615f-34c3-4647-b0bf-33990d189df2"},"vehicle_type_id":"4","last_reported":1752487973,"current_range_meters":19200,"station_id":"ce4bh692rcd13ifvqe90","pricing_plan_id":"cebpf4jnsgd1na2vs0mg"},{"bike_id":"2ab7d655-face-469d-b1de-b3156f48f484","system_id":"levelo_inurba_marseille","lat":43.28008,"lon":5.41666,"is_reserved":false,"is_disabled":false,"rental_uris":{"android":"levelo://app?vid=2ab7d655-face-469d-b1de-b3156f48f484","ios":"levelo://app?vid=2ab7d655-face-469d-b1de-b3156f48f484"},"vehicle_type_id":"4","last_reported":1752487973,"current_range_meters":19200,"station_id":"ce4bho12rcd13ifvqh1g","pricing_plan_id":"cebpf4jnsgd1na2vs0mg"},{"bike_id":"0dbb8003-adfb-41da-acd4-fca7ea58c6f4","system_id":"levelo_inurba_marseille","lat":43.28474,"lon":5.35855,"is_reserved":false,"is_disabled":false,"rental_uris":{"android":"levelo://app?vid=0dbb8003-adfb-41da-acd4-fca7ea58c6f4","ios":"levelo://app?vid=0dbb8003-adfb-41da-acd4-fca7ea58c6f4"},"vehicle_type_id":"4","last_reported":1752487973,"current_range_meters":19200,"station_id":"ce4bhah2rcd13ifvqei0","pricing_plan_id":"cebpf4jnsgd1na2vs0mg"},{"bike_id":"1aaa7e29-8268-4a68-b982-06e4cb580b86","system_id":"levelo_inurba_marseille","lat":43.33615,"lon":5.41037,"is_reserved":false,"is_disabled":false,"rental_uris":{"android":"levelo://app?vid=1aaa7e29-8268-4a68-b982-06e4cb580b86","ios":"levelo://app?vid=1aaa7e29-8268-4a68-b982-06e4cb580b86"},"vehicle_type_id":"4","last_reported":1752487973,"current_range_meters":19200,"station_id":"ce4bhqh2rcd13ifvqhmg","pricing_plan_id":"cebpf4jnsgd1na2vs0mg"},{"bike_id":"b7e18bfc-4bc1-4c1e-afb9-01e90ed35340","system_id":"levelo_inurba_marseille","lat":43.28269,"lon":5.3507,"is_reserved":false,"is_disabled":false,"rental_uris":{"android":"levelo://app?vid=b7e18bfc-4bc1-4c1e-afb9-01e90ed35340","ios":"levelo://app?vid=b7e18bfc-4bc1-4c1e-afb9-01e90ed35340"},"vehicle_type_id":"4","last_reported":1752487973,"current_range_meters":19600,"station_id":"ce4bhbp2rcd13ifvqerg","pricing_plan_id":"cebpf4jnsgd1na2vs0mg"},{"bike_id":"37b2114d-6105-41e3-82a4-25c597b70f85","system_id":"levelo_inurba_marseille","lat":43.305484,"lon":5.365582,"is_reserved":false,"is_disabled":false,"rental_uris":{"android":"levelo://app?vid=37b2114d-6105-41e3-82a4-25c597b70f85","ios":"levelo://app?vid=37b2114d-6105-41e3-82a4-25c597b70f85"},"vehicle_type_id":"4","last_reported":1752487973,"current_range_meters":19600,"station_id":"ce4bgs12rcd13ifvqcag","pricing_plan_id":"cebpf4jnsgd1na2vs0mg"},{"bike_id":"d7159adf-94a3-498c-948b-458c9b026277","system_id":"levelo_inurba_marseille","lat":43.22503,"lon":5.34783,"is_reserved":false,"is_disabled":false,"rental_uris":{"android":"levelo://app?vid=d7159adf-94a3-498c-948b-458c9b026277","ios":"levelo://app?vid=d7159adf-94a3-498c-948b-458c9b026277"},"vehicle_type_id":"4","last_reported":1752487973,"current_range_meters":19600,"station_id":"","pricing_plan_id":"cebpf4jnsgd1na2vs0mg"},{"bike_id":"62936865-b560-4edf-91f6-dc3cbff51cec","system_id":"levelo_inurba_marseille","lat":43.272426,"lon":5.36263,"is_reserved":false,"is_disabled":false,"rental_uris":{"android":"levelo://app?vid=62936865-b560-4edf-91f6-dc3cbff51cec","ios":"levelo://app?vid=62936865-b560-4edf-91f6-dc3cbff51cec"},"vehicle_type_id":"4","last_reported":1752487973,"current_range_meters":19600,"station_id":"","pricing_plan_id":"cebpf4jnsgd1na2vs0mg"},{"bike_id":"09a93a64-fbb1-49a9-be1f-f86a34310e71","system_id":"levelo_inurba_marseille","lat":43.21215,"lon":5.35096,"is_reserved":false,"is_disabled":false,"rental_uris":{"android":"levelo://app?vid=09a93a64-fbb1-49a9-be1f-f86a34310e71","ios":"levelo://app?vid=09a93a64-fbb1-49a9-be1f-f86a34310e71"},"vehicle_type_id":"4","last_reported":1752487973,"current_range_meters":19600,"station_id":"st_cvj6sg6p6f1abm77japg","pricing_plan_id":"cebpf4jnsgd1na2vs0mg"},{"bike_id":"36972afd-54f9-4a97-a406-9244bac562ab","system_id":"levelo_inurba_marseille","lat":43.29562,"lon":5.37529,"is_reserved":false,"is_disabled":false,"rental_uris":{"android":"levelo://app?vid=36972afd-54f9-4a97-a406-9244bac562ab","ios":"levelo://app?vid=36972afd-54f9-4a97-a406-9244bac562ab"},"vehicle_type_id":"4","last_reported":1752487973,"current_range_meters":20000,"station_id":"ce4bgh92rcd13ifvqb50","pricing_plan_id":"cebpf4jnsgd1na2vs0mg"},{"bike_id":"903197e4-3da2-471b-9537-d88bae7e31c4","system_id":"levelo_inurba_marseille","lat":43.264859,"lon":5.395493,"is_reserved":false,"is_disabled":true,"rental_uris":{"android":"levelo://app?vid=903197e4-3da2-471b-9537-d88bae7e31c4","ios":"levelo://app?vid=903197e4-3da2-471b-9537-d88bae7e31c4"},"vehicle_type_id":"4","last_reported":1752487973,"current_range_meters":20000,"station_id":"ce4bhi12rcd13ifvqfq0","pricing_plan_id":"cebpf4jnsgd1na2vs0mg"},{"bike_id":"c721e394-5d5d-4900-9e11-2bd1a6cf3eea","system_id":"levelo_inurba_marseille","lat":43.251088,"lon":5.403214,"is_reserved":false,"is_disabled":false,"rental_uris":{"android":"levelo://app?vid=c721e394-5d5d-4900-9e11-2bd1a6cf3eea","ios":"levelo://app?vid=c721e394-5d5d-4900-9e11-2bd1a6cf3eea"},"vehicle_type_id":"4","last_reported":1752487973,"current_range_meters":20000,"station_id":"ce4bhlh2rcd13ifvqgig","pricing_plan_id":"cebpf4jnsgd1na2vs0mg"},{"bike_id":"be2b2736-1c67-42bc-9491-564413c4b6bc","system_id":"levelo_inurba_marseille","lat":43.26945,"lon":5.40263,"is_reserved":false,"is_disabled":false,"rental_uris":{"android":"levelo://app?vid=be2b2736-1c67-42bc-9491-564413c4b6bc","ios":"levelo://app?vid=be2b2736-1c67-42bc-9491-564413c4b6bc"},"vehicle_type_id":"4","last_reported":1752487973,"current_range_meters":20000,"station_id":"cjm6bp8fraef2m0cb0m0","pricing_plan_id":"cebpf4jnsgd1na2vs0mg"},{"bike_id":"8e73c94f-b8ec-419b-ac33-aac41808d62b","system_id":"levelo_inurba_marseille","lat":43.26559,"lon":5.39014,"is_reserved":false,"is_disabled":false,"rental_uris":{"android":"levelo://app?vid=8e73c94f-b8ec-419b-ac33-aac41808d62b","ios":"levelo://app?vid=8e73c94f-b8ec-419b-ac33-aac41808d62b"},"vehicle_type_id":"4","last_reported":1752487973,"current_range_meters":20000,"station_id":"ce4bhe12rcd13ifvqf30","pricing_plan_id":"cebpf4jnsgd1na2vs0mg"},{"bike_id":"0196692f-9dd4-4f43-ab4a-8a90a506eba0","system_id":"levelo_inurba_marseille","lat":43.292634,"lon":5.384339,"is_reserved":false,"is_disabled":false,"rental_uris":{"android":"levelo://app?vid=0196692f-9dd4-4f43-ab4a-8a90a506eba0","ios":"levelo://app?vid=0196692f-9dd4-4f43-ab4a-8a90a506eba0"},"vehicle_type_id":"4","last_reported":1752487973,"current_range_meters":20000,"station_id":"","pricing_plan_id":"cebpf4jnsgd1na2vs0mg"},{"bike_id":"b6d21ae6-cd0a-41f0-8ea5-6d51267f4b48","system_id":"levelo_inurba_marseille","lat":43.32356,"lon":5.38942,"is_reserved":false,"is_disabled":false,"rental_uris":{"android":"levelo://app?vid=b6d21ae6-cd0a-41f0-8ea5-6d51267f4b48","ios":"levelo://app?vid=b6d21ae6-cd0a-41f0-8ea5-6d51267f4b48"},"vehicle_type_id":"4","last_reported":1752487973,"current_range_meters":20000,"station_id":"ce4bhqp2rcd13ifvqhog","pricing_plan_id":"cebpf4jnsgd1na2vs0mg"},{"bike_id":"74b145b4-5ddd-48db-a2ec-c61b6b5cb914","system_id":"levelo_inurba_marseille","lat":43.21751,"lon":5.34601,"is_reserved":false,"is_disabled":false,"rental_uris":{"android":"levelo://app?vid=74b145b4-5ddd-48db-a2ec-c61b6b5cb914","ios":"levelo://app?vid=74b145b4-5ddd-48db-a2ec-c61b6b5cb914"},"vehicle_type_id":"4","last_reported":1752487973,"current_range_meters":20000,"station_id":"st_cvj6r9ubvosntc0bgbag","pricing_plan_id":"cebpf4jnsgd1na2vs0mg"},{"bike_id":"28a0d5c9-af70-4194-8b1e-e42c84fb2c50","system_id":"levelo_inurba_marseille","lat":43.292624,"lon":5.40916,"is_reserved":false,"is_disabled":false,"rental_uris":{"android":"levelo://app?vid=28a0d5c9-af70-4194-8b1e-e42c84fb2c50","ios":"levelo://app?vid=28a0d5c9-af70-4194-8b1e-e42c84fb2c50"},"vehicle_type_id":"4","last_reported":1752487973,"current_range_meters":20000,"station_id":"","pricing_plan_id":"cebpf4jnsgd1na2vs0mg"},{"bike_id":"9c39830b-ce85-4249-8871-2a47f21d4c8a","system_id":"levelo_inurba_marseille","lat":43.314817,"lon":5.373024,"is_reserved":false,"is_disabled":false,"rental_uris":{"android":"levelo://app?vid=9c39830b-ce85-4249-8871-2a47f21d4c8a","ios":"levelo://app?vid=9c39830b-ce85-4249-8871-2a47f21d4c8a"},"vehicle_type_id":"4","last_reported":1752487973,"current_range_meters":20000,"station_id":"ce4bgt12rcd13ifvqcd0","pricing_plan_id":"cebpf4jnsgd1na2vs0mg"},{"bike_id":"ba1bd18d-2d54-4ed0-b995-3ba40b404866","system_id":"levelo_inurba_marseille","lat":43.2119,"lon":5.3507,"is_reserved":false,"is_disabled":false,"rental_uris":{"android":"levelo://app?vid=ba1bd18d-2d54-4ed0-b995-3ba40b404866","ios":"levelo://app?vid=ba1bd18d-2d54-4ed0-b995-3ba40b404866"},"vehicle_type_id":"4","last_reported":1752487973,"current_range_meters":20000,"station_id":"st_cvj6sg6p6f1abm77japg","pricing_plan_id":"cebpf4jnsgd1na2vs0mg"},{"bike_id":"de3c7479-ad03-448f-a78e-88898eddd51a","system_id":"levelo_inurba_marseille","lat":43.32952,"lon":5.39745,"is_reserved":false,"is_disabled":false,"rental_uris":{"android":"levelo://app?vid=de3c7479-ad03-448f-a78e-88898eddd51a","ios":"levelo://app?vid=de3c7479-ad03-448f-a78e-88898eddd51a"},"vehicle_type_id":"4","last_reported":1752487973,"current_range_meters":20400,"station_id":"","pricing_plan_id":"cebpf4jnsgd1na2vs0mg"},{"bike_id":"4852acc5-0cd4-4ac5-bd4c-3f245414b4fd","system_id":"levelo_inurba_marseille","lat":43.211946,"lon":5.350924,"is_reserved":false,"is_disabled":false,"rental_uris":{"android":"levelo://app?vid=4852acc5-0cd4-4ac5-bd4c-3f245414b4fd","ios":"levelo://app?vid=4852acc5-0cd4-4ac5-bd4c-3f245414b4fd"},"vehicle_type_id":"4","last_reported":1752487973,"current_range_meters":20400,"station_id":"st_cvj6sg6p6f1abm77japg","pricing_plan_id":"cebpf4jnsgd1na2vs0mg"},{"bike_id":"30807472-8cbe-46f0-912a-3ab15a5f44f5","system_id":"levelo_inurba_marseille","lat":43.31885,"lon":5.40739,"is_reserved":false,"is_disabled":false,"rental_uris":{"android":"levelo://app?vid=30807472-8cbe-46f0-912a-3ab15a5f44f5","ios":"levelo://app?vid=30807472-8cbe-46f0-912a-3ab15a5f44f5"},"vehicle_type_id":"4","last_reported":1752487973,"current_range_meters":20400,"station_id":"ce4bhq12rcd13ifvqhig","pricing_plan_id":"cebpf4jnsgd1na2vs0mg"},{"bike_id":"7344a727-b91f-481e-b08a-0f3465e83901","system_id":"levelo_inurba_marseille","lat":43.276752,"lon":5.416906,"is_reserved":false,"is_disabled":false,"rental_uris":{"android":"levelo://app?vid=7344a727-b91f-481e-b08a-0f3465e83901","ios":"levelo://app?vid=7344a727-b91f-481e-b08a-0f3465e83901"},"vehicle_type_id":"4","last_reported":1752487973,"current_range_meters":20400,"station_id":"","pricing_plan_id":"cebpf4jnsgd1na2vs0mg"},{"bike_id":"a7a99eea-be7d-4e82-bd62-17471838aa1b","system_id":"levelo_inurba_marseille","lat":43.25945,"lon":5.40918,"is_reserved":false,"is_disabled":false,"rental_uris":{"android":"levelo://app?vid=a7a99eea-be7d-4e82-bd62-17471838aa1b","ios":"levelo://app?vid=a7a99eea-be7d-4e82-bd62-17471838aa1b"},"vehicle_type_id":"4","last_reported":1752487973,"current_range_meters":20400,"station_id":"ce4bhm92rcd13ifvqglg","pricing_plan_id":"cebpf4jnsgd1na2vs0mg"},{"bike_id":"8201cc0f-e2fb-4c00-914f-74ef85792535","system_id":"levelo_inurba_marseille","lat":43.292657,"lon":5.384427,"is_reserved":false,"is_disabled":false,"rental_uris":{"android":"levelo://app?vid=8201cc0f-e2fb-4c00-914f-74ef85792535","ios":"levelo://app?vid=8201cc0f-e2fb-4c00-914f-74ef85792535"},"vehicle_type_id":"4","last_reported":1752487973,"current_range_meters":20400,"station_id":"ce4bh692rcd13ifvqea0","pricing_plan_id":"cebpf4jnsgd1na2vs0mg"},{"bike_id":"d4a35763-cd68-4119-93e5-ee92dbacf514","system_id":"levelo_inurba_marseille","lat":43.31701,"lon":5.40458,"is_reserved":false,"is_disabled":false,"rental_uris":{"android":"levelo://app?vid=d4a35763-cd68-4119-93e5-ee92dbacf514","ios":"levelo://app?vid=d4a35763-cd68-4119-93e5-ee92dbacf514"},"vehicle_type_id":"4","last_reported":1752487973,"current_range_meters":20400,"station_id":"ce4bh012rcd13ifvqd00","pricing_plan_id":"cebpf4jnsgd1na2vs0mg"},{"bike_id":"ed3a226b-4ec7-465a-b998-9c1369112c1f","system_id":"levelo_inurba_marseille","lat":43.23161,"lon":5.437191,"is_reserved":false,"is_disabled":false,"rental_uris":{"android":"levelo://app?vid=ed3a226b-4ec7-465a-b998-9c1369112c1f","ios":"levelo://app?vid=ed3a226b-4ec7-465a-b998-9c1369112c1f"},"vehicle_type_id":"4","last_reported":1752487973,"current_range_meters":20400,"station_id":"ce4bhmp2rcd13ifvqgog","pricing_plan_id":"cebpf4jnsgd1na2vs0mg"},{"bike_id":"485126da-a7d5-476c-837e-6d6edfd26f8b","system_id":"levelo_inurba_marseille","lat":43.29689,"lon":5.37299,"is_reserved":false,"is_disabled":false,"rental_uris":{"android":"levelo://app?vid=485126da-a7d5-476c-837e-6d6edfd26f8b","ios":"levelo://app?vid=485126da-a7d5-476c-837e-6d6edfd26f8b"},"vehicle_type_id":"4","last_reported":1752487973,"current_range_meters":20400,"station_id":"ce4bgk12rcd13ifvqbj0","pricing_plan_id":"cebpf4jnsgd1na2vs0mg"},{"bike_id":"658f50e6-1337-4390-a6cd-952305396a2b","system_id":"levelo_inurba_marseille","lat":43.28409,"lon":5.34983,"is_reserved":false,"is_disabled":false,"rental_uris":{"android":"levelo://app?vid=658f50e6-1337-4390-a6cd-952305396a2b","ios":"levelo://app?vid=658f50e6-1337-4390-a6cd-952305396a2b"},"vehicle_type_id":"4","last_reported":1752487973,"current_range_meters":20800,"station_id":"ce4bhbh2rcd13ifvqepg","pricing_plan_id":"cebpf4jnsgd1na2vs0mg"},{"bike_id":"6d0e128f-457e-4106-8115-fe411e380888","system_id":"levelo_inurba_marseille","lat":43.29894,"lon":5.43663,"is_reserved":false,"is_disabled":false,"rental_uris":{"android":"levelo://app?vid=6d0e128f-457e-4106-8115-fe411e380888","ios":"levelo://app?vid=6d0e128f-457e-4106-8115-fe411e380888"},"vehicle_type_id":"4","last_reported":1752487973,"current_range_meters":20800,"station_id":"ce4bhpp2rcd13ifvqhfg","pricing_plan_id":"cebpf4jnsgd1na2vs0mg"},{"bike_id":"0d59d516-5bd5-444b-9c9f-3425b328b901","system_id":"levelo_inurba_marseille","lat":43.32358,"lon":5.367449,"is_reserved":false,"is_disabled":false,"rental_uris":{"android":"levelo://app?vid=0d59d516-5bd5-444b-9c9f-3425b328b901","ios":"levelo://app?vid=0d59d516-5bd5-444b-9c9f-3425b328b901"},"vehicle_type_id":"4","last_reported":1752487973,"current_range_meters":20800,"station_id":"ce4bhsh2rcd13ifvqi2g","pricing_plan_id":"cebpf4jnsgd1na2vs0mg"},{"bike_id":"11fcbbb0-37d3-494e-9774-0e399d4d5856","system_id":"levelo_inurba_marseille","lat":43.30439,"lon":5.38901,"is_reserved":false,"is_disabled":false,"rental_uris":{"android":"levelo://app?vid=11fcbbb0-37d3-494e-9774-0e399d4d5856","ios":"levelo://app?vid=11fcbbb0-37d3-494e-9774-0e399d4d5856"},"vehicle_type_id":"4","last_reported":1752487973,"current_range_meters":20800,"station_id":"ce4bgk12rcd13ifvqbi0","pricing_plan_id":"cebpf4jnsgd1na2vs0mg"},{"bike_id":"18c1f988-2144-4ca0-9922-2654b2d9091d","system_id":"levelo_inurba_marseille","lat":43.29681,"lon":5.36654,"is_reserved":false,"is_disabled":false,"rental_uris":{"android":"levelo://app?vid=18c1f988-2144-4ca0-9922-2654b2d9091d","ios":"levelo://app?vid=18c1f988-2144-4ca0-9922-2654b2d9091d"},"vehicle_type_id":"4","last_reported":1752487973,"current_range_meters":20800,"station_id":"ce4bgn12rcd13ifvqbt0","pricing_plan_id":"cebpf4jnsgd1na2vs0mg"},{"bike_id":"78ca15e5-6335-46f9-b88b-68bb4ffb6baf","system_id":"levelo_inurba_marseille","lat":43.28273,"lon":5.35076,"is_reserved":false,"is_disabled":false,"rental_uris":{"android":"levelo://app?vid=78ca15e5-6335-46f9-b88b-68bb4ffb6baf","ios":"levelo://app?vid=78ca15e5-6335-46f9-b88b-68bb4ffb6baf"},"vehicle_type_id":"4","last_reported":1752487973,"current_range_meters":20800,"station_id":"ce4bhbp2rcd13ifvqerg","pricing_plan_id":"cebpf4jnsgd1na2vs0mg"},{"bike_id":"489e603b-6303-4c5a-a3da-d47c39cd6b15","system_id":"levelo_inurba_marseille","lat":43.21756,"lon":5.34603,"is_reserved":false,"is_disabled":false,"rental_uris":{"android":"levelo://app?vid=489e603b-6303-4c5a-a3da-d47c39cd6b15","ios":"levelo://app?vid=489e603b-6303-4c5a-a3da-d47c39cd6b15"},"vehicle_type_id":"4","last_reported":1752487973,"current_range_meters":20800,"station_id":"st_cvj6r9ubvosntc0bgbag","pricing_plan_id":"cebpf4jnsgd1na2vs0mg"},{"bike_id":"a5993224-ca12-4c93-9d72-4f82057bd0d8","system_id":"levelo_inurba_marseille","lat":43.28372,"lon":5.3863,"is_reserved":false,"is_disabled":false,"rental_uris":{"android":"levelo://app?vid=a5993224-ca12-4c93-9d72-4f82057bd0d8","ios":"levelo://app?vid=a5993224-ca12-4c93-9d72-4f82057bd0d8"},"vehicle_type_id":"4","last_reported":1752487973,"current_range_meters":20800,"station_id":"ce4bh492rcd13ifvqdvg","pricing_plan_id":"cebpf4jnsgd1na2vs0mg"},{"bike_id":"8d5ce25f-d12f-4826-9e51-72d41cab5d9b","system_id":"levelo_inurba_marseille","lat":43.29273,"lon":5.37427,"is_reserved":false,"is_disabled":false,"rental_uris":{"android":"levelo://app?vid=8d5ce25f-d12f-4826-9e51-72d41cab5d9b","ios":"levelo://app?vid=8d5ce25f-d12f-4826-9e51-72d41cab5d9b"},"vehicle_type_id":"4","last_reported":1752487973,"current_range_meters":20800,"station_id":"ce4bgi12rcd13ifvqb70","pricing_plan_id":"cebpf4jnsgd1na2vs0mg"},{"bike_id":"70e99ac6-c5f8-4a24-b517-2afb9240895c","system_id":"levelo_inurba_marseille","lat":43.24181,"lon":5.39712,"is_reserved":false,"is_disabled":false,"rental_uris":{"android":"levelo://app?vid=70e99ac6-c5f8-4a24-b517-2afb9240895c","ios":"levelo://app?vid=70e99ac6-c5f8-4a24-b517-2afb9240895c"},"vehicle_type_id":"4","last_reported":1752487973,"current_range_meters":20800,"station_id":"ce4bhn12rcd13ifvqgpg","pricing_plan_id":"cebpf4jnsgd1na2vs0mg"},{"bike_id":"b899f22e-5828-4407-bcf7-8129df4150d0","system_id":"levelo_inurba_marseille","lat":43.315372,"lon":5.38027,"is_reserved":false,"is_disabled":false,"rental_uris":{"android":"levelo://app?vid=b899f22e-5828-4407-bcf7-8129df4150d0","ios":"levelo://app?vid=b899f22e-5828-4407-bcf7-8129df4150d0"},"vehicle_type_id":"4","last_reported":1752487973,"current_range_meters":20800,"station_id":"ce4bhsp2rcd13ifvqi50","pricing_plan_id":"cebpf4jnsgd1na2vs0mg"},{"bike_id":"77cf3f78-1a2b-4c70-bf5f-3659c51dd623","system_id":"levelo_inurba_marseille","lat":43.27048,"lon":5.4029,"is_reserved":false,"is_disabled":false,"rental_uris":{"android":"levelo://app?vid=77cf3f78-1a2b-4c70-bf5f-3659c51dd623","ios":"levelo://app?vid=77cf3f78-1a2b-4c70-bf5f-3659c51dd623"},"vehicle_type_id":"4","last_reported":1752487973,"current_range_meters":20800,"station_id":"ce4bhk92rcd13ifvqgc0","pricing_plan_id":"cebpf4jnsgd1na2vs0mg"},{"bike_id":"2fc074e4-4226-45f1-83ed-7016700b2a87","system_id":"levelo_inurba_marseille","lat":43.294348,"lon":5.397526,"is_reserved":false,"is_disabled":false,"rental_uris":{"android":"levelo://app?vid=2fc074e4-4226-45f1-83ed-7016700b2a87","ios":"levelo://app?vid=2fc074e4-4226-45f1-83ed-7016700b2a87"},"vehicle_type_id":"4","last_reported":1752487973,"current_range_meters":20800,"station_id":"ce4bh3h2rcd13ifvqdo0","pricing_plan_id":"cebpf4jnsgd1na2vs0mg"},{"bike_id":"0e6498e3-3bb7-421c-9747-807f6e4221ad","system_id":"levelo_inurba_marseille","lat":43.30126,"lon":5.39858,"is_reserved":false,"is_disabled":false,"rental_uris":{"android":"levelo://app?vid=0e6498e3-3bb7-421c-9747-807f6e4221ad","ios":"levelo://app?vid=0e6498e3-3bb7-421c-9747-807f6e4221ad"},"vehicle_type_id":"4","last_reported":1752487973,"current_range_meters":20800,"station_id":"ce4bh0h2rcd13ifvqd40","pricing_plan_id":"cebpf4jnsgd1na2vs0mg"},{"bike_id":"9acc9a93-612a-45e9-ad2c-6e81e8832947","system_id":"levelo_inurba_marseille","lat":43.21742,"lon":5.3461,"is_reserved":false,"is_disabled":false,"rental_uris":{"android":"levelo://app?vid=9acc9a93-612a-45e9-ad2c-6e81e8832947","ios":"levelo://app?vid=9acc9a93-612a-45e9-ad2c-6e81e8832947"},"vehicle_type_id":"4","last_reported":1752487973,"current_range_meters":21600,"station_id":"","pricing_plan_id":"cebpf4jnsgd1na2vs0mg"},{"bike_id":"6758c5eb-3052-426e-ac8c-3dc617b5b33f","system_id":"levelo_inurba_marseille","lat":43.31369,"lon":5.38483,"is_reserved":false,"is_disabled":false,"rental_uris":{"android":"levelo://app?vid=6758c5eb-3052-426e-ac8c-3dc617b5b33f","ios":"levelo://app?vid=6758c5eb-3052-426e-ac8c-3dc617b5b33f"},"vehicle_type_id":"4","last_reported":1752487973,"current_range_meters":21600,"station_id":"ce4bgt92rcd13ifvqcf0","pricing_plan_id":"cebpf4jnsgd1na2vs0mg"},{"bike_id":"8fc15437-905b-4a26-a508-d32c4625959c","system_id":"levelo_inurba_marseille","lat":43.27994,"lon":5.41655,"is_reserved":false,"is_disabled":false,"rental_uris":{"android":"levelo://app?vid=8fc15437-905b-4a26-a508-d32c4625959c","ios":"levelo://app?vid=8fc15437-905b-4a26-a508-d32c4625959c"},"vehicle_type_id":"4","last_reported":1752487973,"current_range_meters":21600,"station_id":"ce4bho12rcd13ifvqh1g","pricing_plan_id":"cebpf4jnsgd1na2vs0mg"},{"bike_id":"46a4051e-29da-45a3-a246-a454ebd8ffba","system_id":"levelo_inurba_marseille","lat":43.26938,"lon":5.40255,"is_reserved":false,"is_disabled":false,"rental_uris":{"android":"levelo://app?vid=46a4051e-29da-45a3-a246-a454ebd8ffba","ios":"levelo://app?vid=46a4051e-29da-45a3-a246-a454ebd8ffba"},"vehicle_type_id":"4","last_reported":1752487973,"current_range_meters":21600,"station_id":"cjm6bp8fraef2m0cb0m0","pricing_plan_id":"cebpf4jnsgd1na2vs0mg"},{"bike_id":"452353d1-eae1-43e8-a0fb-4bb2c217c97a","system_id":"levelo_inurba_marseille","lat":43.27371,"lon":5.36241,"is_reserved":false,"is_disabled":false,"rental_uris":{"android":"levelo://app?vid=452353d1-eae1-43e8-a0fb-4bb2c217c97a","ios":"levelo://app?vid=452353d1-eae1-43e8-a0fb-4bb2c217c97a"},"vehicle_type_id":"4","last_reported":1752487973,"current_range_meters":22000,"station_id":"ce4bhbh2rcd13ifvqeo0","pricing_plan_id":"cebpf4jnsgd1na2vs0mg"},{"bike_id":"229f8a09-218e-417a-849f-aca63506c8db","system_id":"levelo_inurba_marseille","lat":43.2827,"lon":5.35056,"is_reserved":false,"is_disabled":false,"rental_uris":{"android":"levelo://app?vid=229f8a09-218e-417a-849f-aca63506c8db","ios":"levelo://app?vid=229f8a09-218e-417a-849f-aca63506c8db"},"vehicle_type_id":"4","last_reported":1752487973,"current_range_meters":22000,"station_id":"ce4bhbp2rcd13ifvqerg","pricing_plan_id":"cebpf4jnsgd1na2vs0mg"},{"bike_id":"749c7f8c-f2da-4408-82a3-d23e1e5355e1","system_id":"levelo_inurba_marseille","lat":43.290311,"lon":5.375558,"is_reserved":false,"is_disabled":false,"rental_uris":{"android":"levelo://app?vid=749c7f8c-f2da-4408-82a3-d23e1e5355e1","ios":"levelo://app?vid=749c7f8c-f2da-4408-82a3-d23e1e5355e1"},"vehicle_type_id":"4","last_reported":1752487973,"current_range_meters":21600,"station_id":"ce4bh692rcd13ifvqe90","pricing_plan_id":"cebpf4jnsgd1na2vs0mg"},{"bike_id":"7793d338-95ee-4f85-a19f-7bcc62e8f39c","system_id":"levelo_inurba_marseille","lat":43.30147,"lon":5.3741,"is_reserved":false,"is_disabled":false,"rental_uris":{"android":"levelo://app?vid=7793d338-95ee-4f85-a19f-7bcc62e8f39c","ios":"levelo://app?vid=7793d338-95ee-4f85-a19f-7bcc62e8f39c"},"vehicle_type_id":"4","last_reported":1752487973,"current_range_meters":22000,"station_id":"ce4bgs92rcd13ifvqcc0","pricing_plan_id":"cebpf4jnsgd1na2vs0mg"},{"bike_id":"d0dec83c-8f5d-481c-8e8d-03fee6dbb724","system_id":"levelo_inurba_marseille","lat":43.23195,"lon":5.35561,"is_reserved":false,"is_disabled":false,"rental_uris":{"android":"levelo://app?vid=d0dec83c-8f5d-481c-8e8d-03fee6dbb724","ios":"levelo://app?vid=d0dec83c-8f5d-481c-8e8d-03fee6dbb724"},"vehicle_type_id":"4","last_reported":1752487973,"current_range_meters":22000,"station_id":"ce4bhu92rcd13ifvqi70","pricing_plan_id":"cebpf4jnsgd1na2vs0mg"},{"bike_id":"f82f0e0c-e7f9-46bd-b47b-f848733a39c0","system_id":"levelo_inurba_marseille","lat":43.28273,"lon":5.35061,"is_reserved":false,"is_disabled":false,"rental_uris":{"android":"levelo://app?vid=f82f0e0c-e7f9-46bd-b47b-f848733a39c0","ios":"levelo://app?vid=f82f0e0c-e7f9-46bd-b47b-f848733a39c0"},"vehicle_type_id":"4","last_reported":1752487973,"current_range_meters":22400,"station_id":"ce4bhbp2rcd13ifvqerg","pricing_plan_id":"cebpf4jnsgd1na2vs0mg"},{"bike_id":"745d7117-e1ea-49a8-a716-85e20fea11b3","system_id":"levelo_inurba_marseille","lat":43.27211,"lon":5.39178,"is_reserved":false,"is_disabled":false,"rental_uris":{"android":"levelo://app?vid=745d7117-e1ea-49a8-a716-85e20fea11b3","ios":"levelo://app?vid=745d7117-e1ea-49a8-a716-85e20fea11b3"},"vehicle_type_id":"4","last_reported":1752487973,"current_range_meters":22400,"station_id":"ce4bhhp2rcd13ifvqfm0","pricing_plan_id":"cebpf4jnsgd1na2vs0mg"},{"bike_id":"2ad6d929-3f1a-4e3f-bfa5-dbe48037dcc0","system_id":"levelo_inurba_marseille","lat":43.30549,"lon":5.3656,"is_reserved":false,"is_disabled":false,"rental_uris":{"android":"levelo://app?vid=2ad6d929-3f1a-4e3f-bfa5-dbe48037dcc0","ios":"levelo://app?vid=2ad6d929-3f1a-4e3f-bfa5-dbe48037dcc0"},"vehicle_type_id":"4","last_reported":1752487973,"current_range_meters":22400,"station_id":"ce4bgs12rcd13ifvqcag","pricing_plan_id":"cebpf4jnsgd1na2vs0mg"},{"bike_id":"7c9dd713-4a18-42e3-96d2-69c4b14de4e4","system_id":"levelo_inurba_marseille","lat":43.29715,"lon":5.3772,"is_reserved":false,"is_disabled":false,"rental_uris":{"android":"levelo://app?vid=7c9dd713-4a18-42e3-96d2-69c4b14de4e4","ios":"levelo://app?vid=7c9dd713-4a18-42e3-96d2-69c4b14de4e4"},"vehicle_type_id":"4","last_reported":1752487973,"current_range_meters":22400,"station_id":"ce4bgkh2rcd13ifvqbl0","pricing_plan_id":"cebpf4jnsgd1na2vs0mg"},{"bike_id":"86c67b7d-2543-41c1-9be9-7026f729fdc6","system_id":"levelo_inurba_marseille","lat":43.31721,"lon":5.42406,"is_reserved":false,"is_disabled":false,"rental_uris":{"android":"levelo://app?vid=86c67b7d-2543-41c1-9be9-7026f729fdc6","ios":"levelo://app?vid=86c67b7d-2543-41c1-9be9-7026f729fdc6"},"vehicle_type_id":"4","last_reported":1752487973,"current_range_meters":22400,"station_id":"ce4bhp92rcd13ifvqhbg","pricing_plan_id":"cebpf4jnsgd1na2vs0mg"},{"bike_id":"fa5683f7-17f8-43cb-8cf9-13e28d22ea66","system_id":"levelo_inurba_marseille","lat":43.31488,"lon":5.37318,"is_reserved":false,"is_disabled":false,"rental_uris":{"android":"levelo://app?vid=fa5683f7-17f8-43cb-8cf9-13e28d22ea66","ios":"levelo://app?vid=fa5683f7-17f8-43cb-8cf9-13e28d22ea66"},"vehicle_type_id":"4","last_reported":1752487973,"current_range_meters":22400,"station_id":"ce4bgt12rcd13ifvqcd0","pricing_plan_id":"cebpf4jnsgd1na2vs0mg"},{"bike_id":"d4290ce5-118c-40b6-a70d-d229cb2426cd","system_id":"levelo_inurba_marseille","lat":43.29192,"lon":5.35787,"is_reserved":false,"is_disabled":false,"rental_uris":{"android":"levelo://app?vid=d4290ce5-118c-40b6-a70d-d229cb2426cd","ios":"levelo://app?vid=d4290ce5-118c-40b6-a70d-d229cb2426cd"},"vehicle_type_id":"4","last_reported":1752487973,"current_range_meters":22400,"station_id":"ce4bhb12rcd13ifvqel0","pricing_plan_id":"cebpf4jnsgd1na2vs0mg"},{"bike_id":"f8e08a0b-9785-41dc-861f-64465e1a97db","system_id":"levelo_inurba_marseille","lat":43.28425,"lon":5.37519,"is_reserved":false,"is_disabled":false,"rental_uris":{"android":"levelo://app?vid=f8e08a0b-9785-41dc-861f-64465e1a97db","ios":"levelo://app?vid=f8e08a0b-9785-41dc-861f-64465e1a97db"},"vehicle_type_id":"4","last_reported":1752487973,"current_range_meters":22400,"station_id":"ce4bh412rcd13ifvqds0","pricing_plan_id":"cebpf4jnsgd1na2vs0mg"},{"bike_id":"c599d0e6-4f14-4281-a1fd-b8b1bb66057b","system_id":"levelo_inurba_marseille","lat":43.32085,"lon":5.36848,"is_reserved":false,"is_disabled":false,"rental_uris":{"android":"levelo://app?vid=c599d0e6-4f14-4281-a1fd-b8b1bb66057b","ios":"levelo://app?vid=c599d0e6-4f14-4281-a1fd-b8b1bb66057b"},"vehicle_type_id":"4","last_reported":1752487973,"current_range_meters":22800,"station_id":"","pricing_plan_id":"cebpf4jnsgd1na2vs0mg"},{"bike_id":"74edda43-f1a1-4391-b975-b49a77c3c145","system_id":"levelo_inurba_marseille","lat":43.28244,"lon":5.35089,"is_reserved":false,"is_disabled":false,"rental_uris":{"android":"levelo://app?vid=74edda43-f1a1-4391-b975-b49a77c3c145","ios":"levelo://app?vid=74edda43-f1a1-4391-b975-b49a77c3c145"},"vehicle_type_id":"4","last_reported":1752487973,"current_range_meters":22800,"station_id":"ce4bhbp2rcd13ifvqerg","pricing_plan_id":"cebpf4jnsgd1na2vs0mg"},{"bike_id":"4996935f-7751-445b-b56b-2f7d8aee605e","system_id":"levelo_inurba_marseille","lat":43.27377,"lon":5.36253,"is_reserved":false,"is_disabled":false,"rental_uris":{"android":"levelo://app?vid=4996935f-7751-445b-b56b-2f7d8aee605e","ios":"levelo://app?vid=4996935f-7751-445b-b56b-2f7d8aee605e"},"vehicle_type_id":"4","last_reported":1752487973,"current_range_meters":22800,"station_id":"ce4bhbh2rcd13ifvqeo0","pricing_plan_id":"cebpf4jnsgd1na2vs0mg"},{"bike_id":"e875ba05-0311-438b-a1ff-af174969b660","system_id":"levelo_inurba_marseille","lat":43.27958,"lon":5.41066,"is_reserved":false,"is_disabled":true,"rental_uris":{"android":"levelo://app?vid=e875ba05-0311-438b-a1ff-af174969b660","ios":"levelo://app?vid=e875ba05-0311-438b-a1ff-af174969b660"},"vehicle_type_id":"4","last_reported":1752487973,"current_range_meters":22800,"station_id":"ce4bhnp2rcd13ifvqh0g","pricing_plan_id":"cebpf4jnsgd1na2vs0mg"},{"bike_id":"143925b4-f6c0-4873-9a5e-998493772a13","system_id":"levelo_inurba_marseille","lat":43.336066,"lon":5.410286,"is_reserved":false,"is_disabled":false,"rental_uris":{"android":"levelo://app?vid=143925b4-f6c0-4873-9a5e-998493772a13","ios":"levelo://app?vid=143925b4-f6c0-4873-9a5e-998493772a13"},"vehicle_type_id":"4","last_reported":1752487973,"current_range_meters":22800,"station_id":"ce4bhqh2rcd13ifvqhmg","pricing_plan_id":"cebpf4jnsgd1na2vs0mg"},{"bike_id":"9846ab09-e95d-46c3-9a2e-75071891ddd3","system_id":"levelo_inurba_marseille","lat":43.24382,"lon":5.37115,"is_reserved":false,"is_disabled":false,"rental_uris":{"android":"levelo://app?vid=9846ab09-e95d-46c3-9a2e-75071891ddd3","ios":"levelo://app?vid=9846ab09-e95d-46c3-9a2e-75071891ddd3"},"vehicle_type_id":"4","last_reported":1752487973,"current_range_meters":23200,"station_id":"ce4bhhh2rcd13ifvqfk0","pricing_plan_id":"cebpf4jnsgd1na2vs0mg"},{"bike_id":"8a8f4fc8-8fc3-4e8a-a231-6103af527c6d","system_id":"levelo_inurba_marseille","lat":43.2861,"lon":5.37068,"is_reserved":false,"is_disabled":false,"rental_uris":{"android":"levelo://app?vid=8a8f4fc8-8fc3-4e8a-a231-6103af527c6d","ios":"levelo://app?vid=8a8f4fc8-8fc3-4e8a-a231-6103af527c6d"},"vehicle_type_id":"4","last_reported":1752487973,"current_range_meters":23200,"station_id":"ce4bht12rcd13ifvqi60","pricing_plan_id":"cebpf4jnsgd1na2vs0mg"},{"bike_id":"0d140a81-3bf4-4753-8204-348faa1afef7","system_id":"levelo_inurba_marseille","lat":43.27665,"lon":5.38874,"is_reserved":false,"is_disabled":true,"rental_uris":{"android":"levelo://app?vid=0d140a81-3bf4-4753-8204-348faa1afef7","ios":"levelo://app?vid=0d140a81-3bf4-4753-8204-348faa1afef7"},"vehicle_type_id":"4","last_reported":1752487973,"current_range_meters":23200,"station_id":"ce4bhi12rcd13ifvqfo0","pricing_plan_id":"cebpf4jnsgd1na2vs0mg"},{"bike_id":"9082cd5a-680c-46ac-9891-055cc16f3158","system_id":"levelo_inurba_marseille","lat":43.28411,"lon":5.34989,"is_reserved":false,"is_disabled":false,"rental_uris":{"android":"levelo://app?vid=9082cd5a-680c-46ac-9891-055cc16f3158","ios":"levelo://app?vid=9082cd5a-680c-46ac-9891-055cc16f3158"},"vehicle_type_id":"4","last_reported":1752487973,"current_range_meters":23200,"station_id":"ce4bhbh2rcd13ifvqepg","pricing_plan_id":"cebpf4jnsgd1na2vs0mg"},{"bike_id":"62e9d622-f27e-4c64-bad6-13ea6525ffe2","system_id":"levelo_inurba_marseille","lat":43.31492,"lon":5.37311,"is_reserved":false,"is_disabled":false,"rental_uris":{"android":"levelo://app?vid=62e9d622-f27e-4c64-bad6-13ea6525ffe2","ios":"levelo://app?vid=62e9d622-f27e-4c64-bad6-13ea6525ffe2"},"vehicle_type_id":"4","last_reported":1752487973,"current_range_meters":23200,"station_id":"ce4bgt12rcd13ifvqcd0","pricing_plan_id":"cebpf4jnsgd1na2vs0mg"},{"bike_id":"6e19714d-fce4-4ddb-bb20-c6c0e9dffcf4","system_id":"levelo_inurba_marseille","lat":43.29854,"lon":5.3628,"is_reserved":false,"is_disabled":false,"rental_uris":{"android":"levelo://app?vid=6e19714d-fce4-4ddb-bb20-c6c0e9dffcf4","ios":"levelo://app?vid=6e19714d-fce4-4ddb-bb20-c6c0e9dffcf4"},"vehicle_type_id":"4","last_reported":1752487973,"current_range_meters":23200,"station_id":"ce4bgpp2rcd13ifvqc3g","pricing_plan_id":"cebpf4jnsgd1na2vs0mg"},{"bike_id":"37f393c5-717a-4601-ac3d-e99cf486af7b","system_id":"levelo_inurba_marseille","lat":43.28302,"lon":5.38758,"is_reserved":false,"is_disabled":true,"rental_uris":{"android":"levelo://app?vid=37f393c5-717a-4601-ac3d-e99cf486af7b","ios":"levelo://app?vid=37f393c5-717a-4601-ac3d-e99cf486af7b"},"vehicle_type_id":"4","last_reported":1752487973,"current_range_meters":23200,"station_id":"ce4bh492rcd13ifvqdvg","pricing_plan_id":"cebpf4jnsgd1na2vs0mg"},{"bike_id":"3539c3b2-fe5e-4225-9873-6a84160cd8f8","system_id":"levelo_inurba_marseille","lat":43.30138,"lon":5.37409,"is_reserved":false,"is_disabled":false,"rental_uris":{"android":"levelo://app?vid=3539c3b2-fe5e-4225-9873-6a84160cd8f8","ios":"levelo://app?vid=3539c3b2-fe5e-4225-9873-6a84160cd8f8"},"vehicle_type_id":"4","last_reported":1752487973,"current_range_meters":23200,"station_id":"ce4bgs92rcd13ifvqcc0","pricing_plan_id":"cebpf4jnsgd1na2vs0mg"},{"bike_id":"ee11e135-a631-4992-aaef-34fdb8783748","system_id":"levelo_inurba_marseille","lat":43.33152,"lon":5.3762,"is_reserved":false,"is_disabled":false,"rental_uris":{"android":"levelo://app?vid=ee11e135-a631-4992-aaef-34fdb8783748","ios":"levelo://app?vid=ee11e135-a631-4992-aaef-34fdb8783748"},"vehicle_type_id":"4","last_reported":1752487973,"current_range_meters":24000,"station_id":"","pricing_plan_id":"cebpf4jnsgd1na2vs0mg"},{"bike_id":"672b7ed3-d2ce-4849-8599-b6c6f6fb3ed8","system_id":"levelo_inurba_marseille","lat":43.30911,"lon":5.36845,"is_reserved":false,"is_disabled":false,"rental_uris":{"android":"levelo://app?vid=672b7ed3-d2ce-4849-8599-b6c6f6fb3ed8","ios":"levelo://app?vid=672b7ed3-d2ce-4849-8599-b6c6f6fb3ed8"},"vehicle_type_id":"4","last_reported":1752487973,"current_range_meters":23200,"station_id":"ce4bgn92rcd13ifvqbvg","pricing_plan_id":"cebpf4jnsgd1na2vs0mg"},{"bike_id":"3c9d84dc-70e8-47e9-97e2-16790dfc74fa","system_id":"levelo_inurba_marseille","lat":43.25572,"lon":5.38277,"is_reserved":false,"is_disabled":false,"rental_uris":{"android":"levelo://app?vid=3c9d84dc-70e8-47e9-97e2-16790dfc74fa","ios":"levelo://app?vid=3c9d84dc-70e8-47e9-97e2-16790dfc74fa"},"vehicle_type_id":"4","last_reported":1752487973,"current_range_meters":24000,"station_id":"ce4bhih2rcd13ifvqfs0","pricing_plan_id":"cebpf4jnsgd1na2vs0mg"},{"bike_id":"ea633bb7-229b-4dcd-82bd-8b788e1aada1","system_id":"levelo_inurba_marseille","lat":43.294154,"lon":5.386226,"is_reserved":false,"is_disabled":false,"rental_uris":{"android":"levelo://app?vid=ea633bb7-229b-4dcd-82bd-8b788e1aada1","ios":"levelo://app?vid=ea633bb7-229b-4dcd-82bd-8b788e1aada1"},"vehicle_type_id":"4","last_reported":1752487973,"current_range_meters":24000,"station_id":"ce4bh2h2rcd13ifvqdh0","pricing_plan_id":"cebpf4jnsgd1na2vs0mg"},{"bike_id":"8577aaca-7915-49c3-b3eb-bc84fe946baf","system_id":"levelo_inurba_marseille","lat":43.27564,"lon":5.41745,"is_reserved":false,"is_disabled":false,"rental_uris":{"android":"levelo://app?vid=8577aaca-7915-49c3-b3eb-bc84fe946baf","ios":"levelo://app?vid=8577aaca-7915-49c3-b3eb-bc84fe946baf"},"vehicle_type_id":"4","last_reported":1752487973,"current_range_meters":24000,"station_id":"","pricing_plan_id":"cebpf4jnsgd1na2vs0mg"},{"bike_id":"a790a5fe-7d53-4a97-9c5a-c1f2b9303d46","system_id":"levelo_inurba_marseille","lat":43.30802,"lon":5.38161,"is_reserved":false,"is_disabled":false,"rental_uris":{"android":"levelo://app?vid=a790a5fe-7d53-4a97-9c5a-c1f2b9303d46","ios":"levelo://app?vid=a790a5fe-7d53-4a97-9c5a-c1f2b9303d46"},"vehicle_type_id":"4","last_reported":1752487973,"current_range_meters":24000,"station_id":"ce4bgt12rcd13ifvqce0","pricing_plan_id":"cebpf4jnsgd1na2vs0mg"},{"bike_id":"c8be152d-474d-448d-b0b2-91636b64ff78","system_id":"levelo_inurba_marseille","lat":43.285551,"lon":5.384523,"is_reserved":false,"is_disabled":false,"rental_uris":{"android":"levelo://app?vid=c8be152d-474d-448d-b0b2-91636b64ff78","ios":"levelo://app?vid=c8be152d-474d-448d-b0b2-91636b64ff78"},"vehicle_type_id":"4","last_reported":1752487973,"current_range_meters":24000,"station_id":"ce4bhjp2rcd13ifvqga0","pricing_plan_id":"cebpf4jnsgd1na2vs0mg"},{"bike_id":"bfd0178f-eedb-42d0-8728-deb35b75d055","system_id":"levelo_inurba_marseille","lat":43.24166,"lon":5.36394,"is_reserved":false,"is_disabled":false,"rental_uris":{"android":"levelo://app?vid=bfd0178f-eedb-42d0-8728-deb35b75d055","ios":"levelo://app?vid=bfd0178f-eedb-42d0-8728-deb35b75d055"},"vehicle_type_id":"4","last_reported":1752487973,"current_range_meters":24000,"station_id":"cpo36qri1sfpv3e86is0","pricing_plan_id":"cebpf4jnsgd1na2vs0mg"},{"bike_id":"14283ef2-d8df-4a4d-9b41-0ee54fee768f","system_id":"levelo_inurba_marseille","lat":43.337444,"lon":5.374475,"is_reserved":false,"is_disabled":false,"rental_uris":{"android":"levelo://app?vid=14283ef2-d8df-4a4d-9b41-0ee54fee768f","ios":"levelo://app?vid=14283ef2-d8df-4a4d-9b41-0ee54fee768f"},"vehicle_type_id":"4","last_reported":1752487973,"current_range_meters":24000,"station_id":"","pricing_plan_id":"cebpf4jnsgd1na2vs0mg"},{"bike_id":"f06d553e-0515-4033-9609-5bce6d5e37a9","system_id":"levelo_inurba_marseille","lat":43.31723,"lon":5.42391,"is_reserved":false,"is_disabled":false,"rental_uris":{"android":"levelo://app?vid=f06d553e-0515-4033-9609-5bce6d5e37a9","ios":"levelo://app?vid=f06d553e-0515-4033-9609-5bce6d5e37a9"},"vehicle_type_id":"4","last_reported":1752487973,"current_range_meters":23200,"station_id":"ce4bhp92rcd13ifvqhbg","pricing_plan_id":"cebpf4jnsgd1na2vs0mg"},{"bike_id":"0d68ece9-d421-4de0-88bb-464e887e7c5f","system_id":"levelo_inurba_marseille","lat":43.3125,"lon":5.38135,"is_reserved":false,"is_disabled":false,"rental_uris":{"android":"levelo://app?vid=0d68ece9-d421-4de0-88bb-464e887e7c5f","ios":"levelo://app?vid=0d68ece9-d421-4de0-88bb-464e887e7c5f"},"vehicle_type_id":"4","last_reported":1752487973,"current_range_meters":24000,"station_id":"","pricing_plan_id":"cebpf4jnsgd1na2vs0mg"},{"bike_id":"30e83679-3d1e-42af-8977-fad0fc99b84d","system_id":"levelo_inurba_marseille","lat":43.30538,"lon":5.36555,"is_reserved":false,"is_disabled":false,"rental_uris":{"android":"levelo://app?vid=30e83679-3d1e-42af-8977-fad0fc99b84d","ios":"levelo://app?vid=30e83679-3d1e-42af-8977-fad0fc99b84d"},"vehicle_type_id":"4","last_reported":1752487973,"current_range_meters":24000,"station_id":"ce4bgs12rcd13ifvqcag","pricing_plan_id":"cebpf4jnsgd1na2vs0mg"},{"bike_id":"b17b62ab-17d4-4c9e-8f8e-70e0a68e59c1","system_id":"levelo_inurba_marseille","lat":43.27983,"lon":5.38743,"is_reserved":false,"is_disabled":false,"rental_uris":{"android":"levelo://app?vid=b17b62ab-17d4-4c9e-8f8e-70e0a68e59c1","ios":"levelo://app?vid=b17b62ab-17d4-4c9e-8f8e-70e0a68e59c1"},"vehicle_type_id":"4","last_reported":1752487973,"current_range_meters":24400,"station_id":"ce4bhg12rcd13ifvqf80","pricing_plan_id":"cebpf4jnsgd1na2vs0mg"},{"bike_id":"b1d6dad2-d3a6-4d12-9072-cb12788e8f1a","system_id":"levelo_inurba_marseille","lat":43.29561,"lon":5.37454,"is_reserved":false,"is_disabled":false,"rental_uris":{"android":"levelo://app?vid=b1d6dad2-d3a6-4d12-9072-cb12788e8f1a","ios":"levelo://app?vid=b1d6dad2-d3a6-4d12-9072-cb12788e8f1a"},"vehicle_type_id":"4","last_reported":1752487973,"current_range_meters":24400,"station_id":"","pricing_plan_id":"cebpf4jnsgd1na2vs0mg"},{"bike_id":"850f3cf3-a28f-4881-8c13-f0bd583f965e","system_id":"levelo_inurba_marseille","lat":43.2121,"lon":5.35047,"is_reserved":false,"is_disabled":false,"rental_uris":{"android":"levelo://app?vid=850f3cf3-a28f-4881-8c13-f0bd583f965e","ios":"levelo://app?vid=850f3cf3-a28f-4881-8c13-f0bd583f965e"},"vehicle_type_id":"4","last_reported":1752487973,"current_range_meters":24400,"station_id":"st_cvj6sg6p6f1abm77japg","pricing_plan_id":"cebpf4jnsgd1na2vs0mg"},{"bike_id":"2246f431-770c-4886-93a1-39393f73c59e","system_id":"levelo_inurba_marseille","lat":43.25479,"lon":5.37669,"is_reserved":false,"is_disabled":false,"rental_uris":{"android":"levelo://app?vid=2246f431-770c-4886-93a1-39393f73c59e","ios":"levelo://app?vid=2246f431-770c-4886-93a1-39393f73c59e"},"vehicle_type_id":"4","last_reported":1752487973,"current_range_meters":24400,"station_id":"ce4bhh12rcd13ifvqff0","pricing_plan_id":"cebpf4jnsgd1na2vs0mg"},{"bike_id":"7dab29db-0c05-4e7e-a9dd-b3b9812a29c7","system_id":"levelo_inurba_marseille","lat":43.28265,"lon":5.35062,"is_reserved":false,"is_disabled":false,"rental_uris":{"android":"levelo://app?vid=7dab29db-0c05-4e7e-a9dd-b3b9812a29c7","ios":"levelo://app?vid=7dab29db-0c05-4e7e-a9dd-b3b9812a29c7"},"vehicle_type_id":"4","last_reported":1752487973,"current_range_meters":24400,"station_id":"ce4bhbp2rcd13ifvqerg","pricing_plan_id":"cebpf4jnsgd1na2vs0mg"},{"bike_id":"9adf2c7f-5bce-488b-b79c-c9b357f57d60","system_id":"levelo_inurba_marseille","lat":43.279973,"lon":5.400147,"is_reserved":false,"is_disabled":false,"rental_uris":{"android":"levelo://app?vid=9adf2c7f-5bce-488b-b79c-c9b357f57d60","ios":"levelo://app?vid=9adf2c7f-5bce-488b-b79c-c9b357f57d60"},"vehicle_type_id":"4","last_reported":1752487973,"current_range_meters":24400,"station_id":"ce4bho92rcd13ifvqh4g","pricing_plan_id":"cebpf4jnsgd1na2vs0mg"},{"bike_id":"ca3cd59a-1cc9-4883-a38d-e65b21850f29","system_id":"levelo_inurba_marseille","lat":43.23186,"lon":5.3998,"is_reserved":false,"is_disabled":false,"rental_uris":{"android":"levelo://app?vid=ca3cd59a-1cc9-4883-a38d-e65b21850f29","ios":"levelo://app?vid=ca3cd59a-1cc9-4883-a38d-e65b21850f29"},"vehicle_type_id":"4","last_reported":1752487973,"current_range_meters":24400,"station_id":"ce4bhn12rcd13ifvqgqg","pricing_plan_id":"cebpf4jnsgd1na2vs0mg"},{"bike_id":"dcd29e58-b807-429f-afb1-fb6d25777e01","system_id":"levelo_inurba_marseille","lat":43.23153,"lon":5.43726,"is_reserved":false,"is_disabled":false,"rental_uris":{"android":"levelo://app?vid=dcd29e58-b807-429f-afb1-fb6d25777e01","ios":"levelo://app?vid=dcd29e58-b807-429f-afb1-fb6d25777e01"},"vehicle_type_id":"4","last_reported":1752487973,"current_range_meters":24400,"station_id":"ce4bhmp2rcd13ifvqgog","pricing_plan_id":"cebpf4jnsgd1na2vs0mg"},{"bike_id":"56d2d61f-3b9c-438e-8fdb-15a413d81dc5","system_id":"levelo_inurba_marseille","lat":43.28268,"lon":5.35064,"is_reserved":false,"is_disabled":false,"rental_uris":{"android":"levelo://app?vid=56d2d61f-3b9c-438e-8fdb-15a413d81dc5","ios":"levelo://app?vid=56d2d61f-3b9c-438e-8fdb-15a413d81dc5"},"vehicle_type_id":"4","last_reported":1752487973,"current_range_meters":24400,"station_id":"ce4bhbp2rcd13ifvqerg","pricing_plan_id":"cebpf4jnsgd1na2vs0mg"},