{"last_updated":1732886399,"ttl":60,"version":"2.2","data":{"bikes":[{"bike_id":"a6938546-9c24-4db5-ab33-e50997791d9c","system_id":"levelo_inurba_marseille","lat":43.28157,"lon":5.42645,"is_reserved":false,"is_disabled":true,"rental_uris":{"android":"levelo://app?vid=a6938546-9c24-4db5-ab33-e50997791d9c","ios":"levelo://app?vid=a6938546-9c24-4db5-ab33-e50997791d9c"},"vehicle_type_id":"4","last_reported":1732886399,"current_range_meters":0,"station_id":"ce4bhnh2rcd13ifvqgug","pricing_plan_id":"cebpf4jnsgd1na2vs0mg"},{"bike_id":"a7e73b10-398b-438c-8047-452fbd7a9272","system_id":"levelo_inurba_marseille","lat":43.26809,"lon":5.40271,"is_reserved":false,"is_disabled":false,"rental_uris":{"android":"levelo://app?vid=a7e73b10-398b-438c-8047-452fbd7a9272","ios":"levelo://app?vid=a7e73b10-398b-438c-8047-452fbd7a9272"},"vehicle_type_id":"4","last_reported":1732886399,"current_range_meters":16400,"station_id":"ce501612rcd8frsf0b60","pricing_plan_id":"cebpf4jnsgd1na2vs0mg"},{"bike_id":"b856c8b4-412d-4c25-bdd4-e6b29aed04cb","system_id":"levelo_inurba_marseille","lat":43.22932,"lon":5.35378,"is_reserved":false,"is_disabled":false,"rental_uris":{"android":"levelo://app?vid=b856c8b4-412d-4c25-bdd4-e6b29aed04cb","ios":"levelo://app?vid=b856c8b4-412d-4c25-bdd4-e6b29aed04cb"},"vehicle_type_id":"4","last_reported":1732886399,"current_range_meters":38400,"station_id":"cpo3532slgdg3j2ikp40","pricing_plan_id":"cebpf4jnsgd1na2vs0mg"},{"bike_id":"9a2bd221-2799-474b-90a8-79ef0d864b96","system_id":"levelo_inurba_marseille","lat":43.29602,"lon":5.37803,"is_reserved":false,"is_disabled":true,"rental_uris":{"android":"levelo://app?vid=9a2bd221-2799-474b-90a8-79ef0d864b96","ios":"levelo://app?vid=9a2bd221-2799-474b-90a8-79ef0d864b96"},"vehicle_type_id":"4","last_reported":1732886399,"current_range_meters":8000,"station_id":"","pricing_plan_id":"cebpf4jnsgd1na2vs0mg"},{"bike_id":"43602253-a5d2-4025-a10b-e226dca7b09e","system_id":"levelo_inurba_marseille","lat":43.31221,"lon":5.36864,"is_reserved":false,"is_disabled":false,"rental_uris":{"android":"levelo://app?vid=43602253-a5d2-4025-a10b-e226dca7b09e","ios":"levelo://app?vid=43602253-a5d2-4025-a10b-e226dca7b09e"},"vehicle_type_id":"4","last_reported":1732886399,"current_range_meters":33600,"station_id":"ce4bgl92rcd13ifvqbq0","pricing_plan_id":"cebpf4jnsgd1na2vs0mg"},{"bike_id":"eae5672e-ff9e-46b6-8437-9a5ac5b960c4","system_id":"levelo_inurba_marseille","lat":43.31891,"lon":5.40737,"is_reserved":false,"is_disabled":false,"rental_uris":{"android":"levelo://app?vid=eae5672e-ff9e-46b6-8437-9a5ac5b960c4","ios":"levelo://app?vid=eae5672e-ff9e-46b6-8437-9a5ac5b960c4"},"vehicle_type_id":"4","last_reported":1732886399,"current_range_meters":38800,"station_id":"ce4bhq12rcd13ifvqhig","pricing_plan_id":"cebpf4jnsgd1na2vs0mg"},{"bike_id":"fac63031-3de9-41dc-941a-a395646bc4e4","system_id":"levelo_inurba_marseille","lat":43.25578,"lon":5.38238,"is_reserved":false,"is_disabled":false,"rental_uris":{"android":"levelo://app?vid=fac63031-3de9-41dc-941a-a395646bc4e4","ios":"levelo://app?vid=fac63031-3de9-41dc-941a-a395646bc4e4"},"vehicle_type_id":"4","last_reported":1732886399,"current_range_meters":6400,"station_id":"ce4bhih2rcd13ifvqfs0","pricing_plan_id":"cebpf4jnsgd1na2vs0mg"},{"bike_id":"9e9dcd02-879d-494d-96c6-4e4120f62a9f","system_id":"levelo_inurba_marseille","lat":43.28396,"lon":5.34994,"is_reserved":false,"is_disabled":false,"rental_uris":{"android":"levelo://app?vid=9e9dcd02-879d-494d-96c6-4e4120f62a9f","ios":"levelo://app?vid=9e9dcd02-879d-494d-96c6-4e4120f62a9f"},"vehicle_type_id":"4","last_reported":1732886399,"current_range_meters":23200,"station_id":"ce4bhbh2rcd13ifvqepg","pricing_plan_id":"cebpf4jnsgd1na2vs0mg"},{"bike_id":"f7e5dec7-3406-4737-8cf9-610c894cdb01","system_id":"levelo_inurba_marseille","lat":43.239665,"lon":5.36633,"is_reserved":false,"is_disabled":false,"rental_uris":{"android":"levelo://app?vid=f7e5dec7-3406-4737-8cf9-610c894cdb01","ios":"levelo://app?vid=f7e5dec7-3406-4737-8cf9-610c894cdb01"},"vehicle_type_id":"4","last_reported":1732886399,"current_range_meters":38400,"station_id":"ce4bhi12rcd13ifvqfp0","pricing_plan_id":"cebpf4jnsgd1na2vs0mg"},{"bike_id":"b68e4575-2d7c-4a35-ae3f-f8d5fcf2bebb","system_id":"levelo_inurba_marseille","lat":43.29941,"lon":5.36547,"is_reserved":false,"is_disabled":false,"rental_uris":{"android":"levelo://app?vid=b68e4575-2d7c-4a35-ae3f-f8d5fcf2bebb","ios":"levelo://app?vid=b68e4575-2d7c-4a35-ae3f-f8d5fcf2bebb"},"vehicle_type_id":"4","last_reported":1732886399,"current_range_meters":36800,"station_id":"ce4bgm92rcd13ifvqbr0","pricing_plan_id":"cebpf4jnsgd1na2vs0mg"},{"bike_id":"738391e1-e400-456e-af43-ef19358fbe45","system_id":"levelo_inurba_marseille","lat":43.29067,"lon":5.37151,"is_reserved":false,"is_disabled":false,"rental_uris":{"android":"levelo://app?vid=738391e1-e400-456e-af43-ef19358fbe45","ios":"levelo://app?vid=738391e1-e400-456e-af43-ef19358fbe45"},"vehicle_type_id":"4","last_reported":1732886399,"current_range_meters":18800,"station_id":"ce4bh5p2rcd13ifvqe4g","pricing_plan_id":"cebpf4jnsgd1na2vs0mg"},{"bike_id":"4b2044bb-217f-44b5-8ba4-d57848474b5c","system_id":"levelo_inurba_marseille","lat":43.266785,"lon":5.382708,"is_reserved":false,"is_disabled":false,"rental_uris":{"android":"levelo://app?vid=4b2044bb-217f-44b5-8ba4-d57848474b5c","ios":"levelo://app?vid=4b2044bb-217f-44b5-8ba4-d57848474b5c"},"vehicle_type_id":"4","last_reported":1732886399,"current_range_meters":11200,"station_id":"ce4bhg92rcd13ifvqf90","pricing_plan_id":"cebpf4jnsgd1na2vs0mg"},{"bike_id":"af7320e3-ac25-4c20-a2f8-3cb037f37a6d","system_id":"levelo_inurba_marseille","lat":43.313791,"lon":5.384775,"is_reserved":false,"is_disabled":false,"rental_uris":{"android":"levelo://app?vid=af7320e3-ac25-4c20-a2f8-3cb037f37a6d","ios":"levelo://app?vid=af7320e3-ac25-4c20-a2f8-3cb037f37a6d"},"vehicle_type_id":"4","last_reported":1732886399,"current_range_meters":16400,"station_id":"ce4bgt92rcd13ifvqcf0","pricing_plan_id":"cebpf4jnsgd1na2vs0mg"},{"bike_id":"6a609512-d3a8-4df1-b5c7-3355a5b889de","system_id":"levelo_inurba_marseille","lat":43.28272,"lon":5.3508,"is_reserved":false,"is_disabled":true,"rental_uris":{"android":"levelo://app?vid=6a609512-d3a8-4df1-b5c7-3355a5b889de","ios":"levelo://app?vid=6a609512-d3a8-4df1-b5c7-3355a5b889de"},"vehicle_type_id":"4","last_reported":1732886399,"current_range_meters":26800,"station_id":"ce4bhbp2rcd13ifvqerg","pricing_plan_id":"cebpf4jnsgd1na2vs0mg"},{"bike_id":"fb764700-ac5e-467b-ad94-97ae0860d9aa","system_id":"levelo_inurba_marseille","lat":43.29783,"lon":5.39347,"is_reserved":false,"is_disabled":false,"rental_uris":{"android":"levelo://app?vid=fb764700-ac5e-467b-ad94-97ae0860d9aa","ios":"levelo://app?vid=fb764700-ac5e-467b-ad94-97ae0860d9aa"},"vehicle_type_id":"4","last_reported":1732886399,"current_range_meters":26800,"station_id":"chh1huq6cuj3fo74tm60","pricing_plan_id":"cebpf4jnsgd1na2vs0mg"},{"bike_id":"ce15a521-8a1d-47b7-92c8-091ca367d00e","system_id":"levelo_inurba_marseille","lat":43.33749,"lon":5.37439,"is_reserved":false,"is_disabled":false,"rental_uris":{"android":"levelo://app?vid=ce15a521-8a1d-47b7-92c8-091ca367d00e","ios":"levelo://app?vid=ce15a521-8a1d-47b7-92c8-091ca367d00e"},"vehicle_type_id":"4","last_reported":1732886399,"current_range_meters":33200,"station_id":"","pricing_plan_id":"cebpf4jnsgd1na2vs0mg"},{"bike_id":"4ff335b1-9650-4c51-866f-8a7fc8cee4ee","system_id":"levelo_inurba_marseille","lat":43.26213,"lon":5.37447,"is_reserved":false,"is_disabled":false,"rental_uris":{"android":"levelo://app?vid=4ff335b1-9650-4c51-866f-8a7fc8cee4ee","ios":"levelo://app?vid=4ff335b1-9650-4c51-866f-8a7fc8cee4ee"},"vehicle_type_id":"4","last_reported":1732886399,"current_range_meters":21600,"station_id":"ce4bhgp2rcd13ifvqfc0","pricing_plan_id":"cebpf4jnsgd1na2vs0mg"},{"bike_id":"05365ea2-e3db-44da-96aa-8aca19048c89","system_id":"levelo_inurba_marseille","lat":43.27566,"lon":5.38412,"is_reserved":false,"is_disabled":false,"rental_uris":{"android":"levelo://app?vid=05365ea2-e3db-44da-96aa-8aca19048c89","ios":"levelo://app?vid=05365ea2-e3db-44da-96aa-8aca19048c89"},"vehicle_type_id":"4","last_reported":1732886399,"current_range_meters":36000,"station_id":"ce4bhh92rcd13ifvqfi0","pricing_plan_id":"cebpf4jnsgd1na2vs0mg"},{"bike_id":"9b9b4866-f123-4e9b-bc92-12f1937e5433","system_id":"levelo_inurba_marseille","lat":43.2718,"lon":5.40999,"is_reserved":false,"is_disabled":false,"rental_uris":{"android":"levelo://app?vid=9b9b4866-f123-4e9b-bc92-12f1937e5433","ios":"levelo://app?vid=9b9b4866-f123-4e9b-bc92-12f1937e5433"},"vehicle_type_id":"4","last_reported":1732886399,"current_range_meters":24800,"station_id":"ce4bhl12rcd13ifvqgf0","pricing_plan_id":"cebpf4jnsgd1na2vs0mg"},{"bike_id":"310b9c25-7d37-4ab9-a23e-f40557e70aa4","system_id":"levelo_inurba_marseille","lat":43.24181,"lon":5.39735,"is_reserved":false,"is_disabled":false,"rental_uris":{"android":"levelo://app?vid=310b9c25-7d37-4ab9-a23e-f40557e70aa4","ios":"levelo://app?vid=310b9c25-7d37-4ab9-a23e-f40557e70aa4"},"vehicle_type_id":"4","last_reported":1732886399,"current_range_meters":28800,"station_id":"ce4bhn12rcd13ifvqgpg","pricing_plan_id":"cebpf4jnsgd1na2vs0mg"},{"bike_id":"278a57c3-1709-404c-a8b0-d022d8fb2427","system_id":"levelo_inurba_marseille","lat":43.3019,"lon":5.39759,"is_reserved":false,"is_disabled":false,"rental_uris":{"android":"levelo://app?vid=278a57c3-1709-404c-a8b0-d022d8fb2427","ios":"levelo://app?vid=278a57c3-1709-404c-a8b0-d022d8fb2427"},"vehicle_type_id":"4","last_reported":1732886399,"current_range_meters":19200,"station_id":"ce4bgup2rcd13ifvqco0","pricing_plan_id":"cebpf4jnsgd1na2vs0mg"},{"bike_id":"b02cd3e8-db2f-456e-a574-07b36e2b5010","system_id":"levelo_inurba_marseille","lat":43.2693,"lon":5.38918,"is_reserved":false,"is_disabled":false,"rental_uris":{"android":"levelo://app?vid=b02cd3e8-db2f-456e-a574-07b36e2b5010","ios":"levelo://app?vid=b02cd3e8-db2f-456e-a574-07b36e2b5010"},"vehicle_type_id":"4","last_reported":1732886399,"current_range_meters":30000,"station_id":"ce4bhhh2rcd13ifvqfl0","pricing_plan_id":"cebpf4jnsgd1na2vs0mg"},{"bike_id":"b145f94a-aa9d-49b7-9b85-5584803cb044","system_id":"levelo_inurba_marseille","lat":43.27016,"lon":5.38751,"is_reserved":false,"is_disabled":false,"rental_uris":{"android":"levelo://app?vid=b145f94a-aa9d-49b7-9b85-5584803cb044","ios":"levelo://app?vid=b145f94a-aa9d-49b7-9b85-5584803cb044"},"vehicle_type_id":"4","last_reported":1732886399,"current_range_meters":36000,"station_id":"","pricing_plan_id":"cebpf4jnsgd1na2vs0mg"},{"bike_id":"6f7949e1-de87-4a49-8620-fec27e04447f","system_id":"levelo_inurba_marseille","lat":43.33712,"lon":5.39194,"is_reserved":false,"is_disabled":false,"rental_uris":{"android":"levelo://app?vid=6f7949e1-de87-4a49-8620-fec27e04447f","ios":"levelo://app?vid=6f7949e1-de87-4a49-8620-fec27e04447f"},"vehicle_type_id":"4","last_reported":1732886399,"current_range_meters":30800,"station_id":"ce4bhr92rcd13ifvqhsg","pricing_plan_id":"cebpf4jnsgd1na2vs0mg"},{"bike_id":"d6af473c-317d-44a4-ba58-092abf84584f","system_id":"levelo_inurba_marseille","lat":43.22933,"lon":5.3538,"is_reserved":false,"is_disabled":false,"rental_uris":{"android":"levelo://app?vid=d6af473c-317d-44a4-ba58-092abf84584f","ios":"levelo://app?vid=d6af473c-317d-44a4-ba58-092abf84584f"},"vehicle_type_id":"4","last_reported":1732886399,"current_range_meters":38400,"station_id":"cpo3532slgdg3j2ikp40","pricing_plan_id":"cebpf4jnsgd1na2vs0mg"},{"bike_id":"79da6e11-068f-4f85-891a-bf5d6033ae1b","system_id":"levelo_inurba_marseille","lat":43.29189,"lon":5.39311,"is_reserved":false,"is_disabled":true,"rental_uris":{"android":"levelo://app?vid=79da6e11-068f-4f85-891a-bf5d6033ae1b","ios":"levelo://app?vid=79da6e11-068f-4f85-891a-bf5d6033ae1b"},"vehicle_type_id":"4","last_reported":1732886399,"current_range_meters":28400,"station_id":"ce4bh192rcd13ifvqdd0","pricing_plan_id":"cebpf4jnsgd1na2vs0mg"},{"bike_id":"3c6100c6-e168-46cf-93b7-3e5f63ed76d2","system_id":"levelo_inurba_marseille","lat":43.30543,"lon":5.36558,"is_reserved":false,"is_disabled":false,"rental_uris":{"android":"levelo://app?vid=3c6100c6-e168-46cf-93b7-3e5f63ed76d2","ios":"levelo://app?vid=3c6100c6-e168-46cf-93b7-3e5f63ed76d2"},"vehicle_type_id":"4","last_reported":1732886399,"current_range_meters":8800,"station_id":"ce4bgs12rcd13ifvqcag","pricing_plan_id":"cebpf4jnsgd1na2vs0mg"},{"bike_id":"3737f139-0c4b-4be6-b5ae-98a46e9a01bb","system_id":"levelo_inurba_marseille","lat":43.32542,"lon":5.41448,"is_reserved":false,"is_disabled":false,"rental_uris":{"android":"levelo://app?vid=3737f139-0c4b-4be6-b5ae-98a46e9a01bb","ios":"levelo://app?vid=3737f139-0c4b-4be6-b5ae-98a46e9a01bb"},"vehicle_type_id":"4","last_reported":1732886399,"current_range_meters":29600,"station_id":"ce4bhq12rcd13ifvqhhg","pricing_plan_id":"cebpf4jnsgd1na2vs0mg"},{"bike_id":"ea892bfc-250a-4bbc-826d-f378ba2b4d02","system_id":"levelo_inurba_marseille","lat":43.23063,"lon":5.35492,"is_reserved":false,"is_disabled":false,"rental_uris":{"android":"levelo://app?vid=ea892bfc-250a-4bbc-826d-f378ba2b4d02","ios":"levelo://app?vid=ea892bfc-250a-4bbc-826d-f378ba2b4d02"},"vehicle_type_id":"4","last_reported":1732886399,"current_range_meters":17200,"station_id":"cpo3342slgdg3j2ifvpg","pricing_plan_id":"cebpf4jnsgd1na2vs0mg"},{"bike_id":"2521b7f3-0750-43bd-9b3c-959dee938c13","system_id":"levelo_inurba_marseille","lat":43.30192,"lon":5.36624,"is_reserved":false,"is_disabled":false,"rental_uris":{"android":"levelo://app?vid=2521b7f3-0750-43bd-9b3c-959dee938c13","ios":"levelo://app?vid=2521b7f3-0750-43bd-9b3c-959dee938c13"},"vehicle_type_id":"4","last_reported":1732886399,"current_range_meters":11200,"station_id":"ce4bgrh2rcd13ifvqc8g","pricing_plan_id":"cebpf4jnsgd1na2vs0mg"},{"bike_id":"3c7429ac-c5ce-4d48-b743-8c27752cb3c1","system_id":"levelo_inurba_marseille","lat":43.26191,"lon":5.37933,"is_reserved":false,"is_disabled":false,"rental_uris":{"android":"levelo://app?vid=3c7429ac-c5ce-4d48-b743-8c27752cb3c1","ios":"levelo://app?vid=3c7429ac-c5ce-4d48-b743-8c27752cb3c1"},"vehicle_type_id":"4","last_reported":1732886399,"current_range_meters":20800,"station_id":"ce4bhjp2rcd13ifvqg90","pricing_plan_id":"cebpf4jnsgd1na2vs0mg"},{"bike_id":"102efa49-a1fd-499a-a309-6ad976bd4f21","system_id":"levelo_inurba_marseille","lat":43.29593,"lon":5.38112,"is_reserved":false,"is_disabled":false,"rental_uris":{"android":"levelo://app?vid=102efa49-a1fd-499a-a309-6ad976bd4f21","ios":"levelo://app?vid=102efa49-a1fd-499a-a309-6ad976bd4f21"},"vehicle_type_id":"4","last_reported":1732886399,"current_range_meters":37600,"station_id":"ce4bgl12rcd13ifvqbo0","pricing_plan_id":"cebpf4jnsgd1na2vs0mg"},{"bike_id":"bf92af3f-aec2-454b-892a-d0ec4c8e62d0","system_id":"levelo_inurba_marseille","lat":43.30148,"lon":5.38089,"is_reserved":false,"is_disabled":false,"rental_uris":{"android":"levelo://app?vid=bf92af3f-aec2-454b-892a-d0ec4c8e62d0","ios":"levelo://app?vid=bf92af3f-aec2-454b-892a-d0ec4c8e62d0"},"vehicle_type_id":"4","last_reported":1732886399,"current_range_meters":16800,"station_id":"ce4bgjp2rcd13ifvqbh0","pricing_plan_id":"cebpf4jnsgd1na2vs0mg"},{"bike_id":"4709c438-f4af-415a-a919-d27302b75dca","system_id":"levelo_inurba_marseille","lat":43.23194,"lon":5.35553,"is_reserved":false,"is_disabled":false,"rental_uris":{"android":"levelo://app?vid=4709c438-f4af-415a-a919-d27302b75dca","ios":"levelo://app?vid=4709c438-f4af-415a-a919-d27302b75dca"},"vehicle_type_id":"4","last_reported":1732886399,"current_range_meters":39200,"station_id":"ce4bhu92rcd13ifvqi70","pricing_plan_id":"cebpf4jnsgd1na2vs0mg"},{"bike_id":"d1486dd5-23d4-40bc-bb61-4a3c8126196a","system_id":"levelo_inurba_marseille","lat":43.27355,"lon":5.36252,"is_reserved":false,"is_disabled":true,"rental_uris":{"android":"levelo://app?vid=d1486dd5-23d4-40bc-bb61-4a3c8126196a","ios":"levelo://app?vid=d1486dd5-23d4-40bc-bb61-4a3c8126196a"},"vehicle_type_id":"4","last_reported":1732886399,"current_range_meters":40000,"station_id":"ce4bhbh2rcd13ifvqeo0","pricing_plan_id":"cebpf4jnsgd1na2vs0mg"},{"bike_id":"c34ed66a-f76b-46d6-b519-b3726d77f086","system_id":"levelo_inurba_marseille","lat":43.268,"lon":5.40262,"is_reserved":false,"is_disabled":false,"rental_uris":{"android":"levelo://app?vid=c34ed66a-f76b-46d6-b519-b3726d77f086","ios":"levelo://app?vid=c34ed66a-f76b-46d6-b519-b3726d77f086"},"vehicle_type_id":"4","last_reported":1732886399,"current_range_meters":38800,"station_id":"ce501612rcd8frsf0b60","pricing_plan_id":"cebpf4jnsgd1na2vs0mg"},{"bike_id":"0bf0cd22-3f15-4a32-a88f-f80276ceafe7","system_id":"levelo_inurba_marseille","lat":43.32548,"lon":5.41463,"is_reserved":false,"is_disabled":false,"rental_uris":{"android":"levelo://app?vid=0bf0cd22-3f15-4a32-a88f-f80276ceafe7","ios":"levelo://app?vid=0bf0cd22-3f15-4a32-a88f-f80276ceafe7"},"vehicle_type_id":"4","last_reported":1732886399,"current_range_meters":12000,"station_id":"ce4bhq12rcd13ifvqhhg","pricing_plan_id":"cebpf4jnsgd1na2vs0mg"},{"bike_id":"a8d4ebe2-3f30-41b6-840a-ba5222b5a4ed","system_id":"levelo_inurba_marseille","lat":43.29001,"lon":5.35609,"is_reserved":false,"is_disabled":false,"rental_uris":{"android":"levelo://app?vid=a8d4ebe2-3f30-41b6-840a-ba5222b5a4ed","ios":"levelo://app?vid=a8d4ebe2-3f30-41b6-840a-ba5222b5a4ed"},"vehicle_type_id":"4","last_reported":1732886399,"current_range_meters":3200,"station_id":"ce4bhb92rcd13ifvqen0","pricing_plan_id":"cebpf4jnsgd1na2vs0mg"},{"bike_id":"d1b1c6a5-0475-49f0-a9b3-06ea6651ce8b","system_id":"levelo_inurba_marseille","lat":43.28945,"lon":5.35516,"is_reserved":false,"is_disabled":false,"rental_uris":{"android":"levelo://app?vid=d1b1c6a5-0475-49f0-a9b3-06ea6651ce8b","ios":"levelo://app?vid=d1b1c6a5-0475-49f0-a9b3-06ea6651ce8b"},"vehicle_type_id":"4","last_reported":1732886399,"current_range_meters":14800,"station_id":"ce4bhb92rcd13ifvqen0","pricing_plan_id":"cebpf4jnsgd1na2vs0mg"},{"bike_id":"2c2dbeed-d8b9-4443-8bc1-facb2c0b2be9","system_id":"levelo_inurba_marseille","lat":43.30443,"lon":5.36866,"is_reserved":false,"is_disabled":false,"rental_uris":{"android":"levelo://app?vid=2c2dbeed-d8b9-4443-8bc1-facb2c0b2be9","ios":"levelo://app?vid=2c2dbeed-d8b9-4443-8bc1-facb2c0b2be9"},"vehicle_type_id":"4","last_reported":1732886399,"current_range_meters":8000,"station_id":"","pricing_plan_id":"cebpf4jnsgd1na2vs0mg"},{"bike_id":"980c41f8-9644-40f2-a863-e7476d224d1b","system_id":"levelo_inurba_marseille","lat":43.29265,"lon":5.38432,"is_reserved":false,"is_disabled":false,"rental_uris":{"android":"levelo://app?vid=980c41f8-9644-40f2-a863-e7476d224d1b","ios":"levelo://app?vid=980c41f8-9644-40f2-a863-e7476d224d1b"},"vehicle_type_id":"4","last_reported":1732886399,"current_range_meters":32400,"station_id":"ce4bh692rcd13ifvqea0","pricing_plan_id":"cebpf4jnsgd1na2vs0mg"},{"bike_id":"6d4c3fde-86ad-4bb8-9f46-ed89fd9e0517","system_id":"levelo_inurba_marseille","lat":43.2439,"lon":5.37061,"is_reserved":false,"is_disabled":false,"rental_uris":{"android":"levelo://app?vid=6d4c3fde-86ad-4bb8-9f46-ed89fd9e0517","ios":"levelo://app?vid=6d4c3fde-86ad-4bb8-9f46-ed89fd9e0517"},"vehicle_type_id":"4","last_reported":1732886399,"current_range_meters":38400,"station_id":"ce4bhhh2rcd13ifvqfk0","pricing_plan_id":"cebpf4jnsgd1na2vs0mg"},{"bike_id":"ed691203-fdfe-4124-95c8-ef76707517b1","system_id":"levelo_inurba_marseille","lat":43.24177,"lon":5.3973,"is_reserved":false,"is_disabled":false,"rental_uris":{"android":"levelo://app?vid=ed691203-fdfe-4124-95c8-ef76707517b1","ios":"levelo://app?vid=ed691203-fdfe-4124-95c8-ef76707517b1"},"vehicle_type_id":"4","last_reported":1732886399,"current_range_meters":35600,"station_id":"ce4bhn12rcd13ifvqgpg","pricing_plan_id":"cebpf4jnsgd1na2vs0mg"},{"bike_id":"ffa4a609-12c2-4bcb-a232-bff214294d68","system_id":"levelo_inurba_marseille","lat":43.26202,"lon":5.37925,"is_reserved":false,"is_disabled":false,"rental_uris":{"android":"levelo://app?vid=ffa4a609-12c2-4bcb-a232-bff214294d68","ios":"levelo://app?vid=ffa4a609-12c2-4bcb-a232-bff214294d68"},"vehicle_type_id":"4","last_reported":1732886399,"current_range_meters":36000,"station_id":"ce4bhjp2rcd13ifvqg90","pricing_plan_id":"cebpf4jnsgd1na2vs0mg"},{"bike_id":"d43bcf0d-16aa-4132-bee9-932c9bcef8f2","system_id":"levelo_inurba_marseille","lat":43.32368,"lon":5.38886,"is_reserved":false,"is_disabled":false,"rental_uris":{"android":"levelo://app?vid=d43bcf0d-16aa-4132-bee9-932c9bcef8f2","ios":"levelo://app?vid=d43bcf0d-16aa-4132-bee9-932c9bcef8f2"},"vehicle_type_id":"4","last_reported":1732886399,"current_range_meters":37600,"station_id":"ce4bhqp2rcd13ifvqhog","pricing_plan_id":"cebpf4jnsgd1na2vs0mg"},{"bike_id":"fe2c00d6-fab6-472b-887d-35960cae9038","system_id":"levelo_inurba_marseille","lat":43.25932,"lon":5.40906,"is_reserved":false,"is_disabled":false,"rental_uris":{"android":"levelo://app?vid=fe2c00d6-fab6-472b-887d-35960cae9038","ios":"levelo://app?vid=fe2c00d6-fab6-472b-887d-35960cae9038"},"vehicle_type_id":"4","last_reported":1732886399,"current_range_meters":6400,"station_id":"ce4bhm92rcd13ifvqglg","pricing_plan_id":"cebpf4jnsgd1na2vs0mg"},{"bike_id":"4035e70a-9b35-49ff-8763-9565717e2e74","system_id":"levelo_inurba_marseille","lat":43.2846,"lon":5.35908,"is_reserved":false,"is_disabled":true,"rental_uris":{"android":"levelo://app?vid=4035e70a-9b35-49ff-8763-9565717e2e74","ios":"levelo://app?vid=4035e70a-9b35-49ff-8763-9565717e2e74"},"vehicle_type_id":"4","last_reported":1732886399,"current_range_meters":9600,"station_id":"ce4bhah2rcd13ifvqei0","pricing_plan_id":"cebpf4jnsgd1na2vs0mg"},{"bike_id":"bc749360-3ce4-4dd6-a0ac-83aa82c323a7","system_id":"levelo_inurba_marseille","lat":43.28157,"lon":5.42637,"is_reserved":false,"is_disabled":true,"rental_uris":{"android":"levelo://app?vid=bc749360-3ce4-4dd6-a0ac-83aa82c323a7","ios":"levelo://app?vid=bc749360-3ce4-4dd6-a0ac-83aa82c323a7"},"vehicle_type_id":"4","last_reported":1732886399,"current_range_meters":38800,"station_id":"ce4bhnh2rcd13ifvqgug","pricing_plan_id":"cebpf4jnsgd1na2vs0mg"},{"bike_id":"81103a60-64e6-4327-a628-de53b974f3e8","system_id":"levelo_inurba_marseille","lat":43.30598,"lon":5.39367,"is_reserved":false,"is_disabled":true,"rental_uris":{"android":"levelo://app?vid=81103a60-64e6-4327-a628-de53b974f3e8","ios":"levelo://app?vid=81103a60-64e6-4327-a628-de53b974f3e8"},"vehicle_type_id":"4","last_reported":1732886399,"current_range_meters":5600,"station_id":"ce4bh0p2rcd13ifvqd80","pricing_plan_id":"cebpf4jnsgd1na2vs0mg"},{"bike_id":"4b319ed2-196e-4087-bfcd-9c237da8df75","system_id":"levelo_inurba_marseille","lat":43.3014,"lon":5.37418,"is_reserved":false,"is_disabled":false,"rental_uris":{"android":"levelo://app?vid=4b319ed2-196e-4087-bfcd-9c237da8df75","ios":"levelo://app?vid=4b319ed2-196e-4087-bfcd-9c237da8df75"},"vehicle_type_id":"4","last_reported":1732886399,"current_range_meters":19200,"station_id":"ce4bgs92rcd13ifvqcc0","pricing_plan_id":"cebpf4jnsgd1na2vs0mg"},{"bike_id":"4d4c884f-6933-49c0-8899-f9856d90f44d","system_id":"levelo_inurba_marseille","lat":43.29748,"lon":5.37971,"is_reserved":false,"is_disabled":true,"rental_uris":{"android":"levelo://app?vid=4d4c884f-6933-49c0-8899-f9856d90f44d","ios":"levelo://app?vid=4d4c884f-6933-49c0-8899-f9856d90f44d"},"vehicle_type_id":"4","last_reported":1732886399,"current_range_meters":0,"station_id":"","pricing_plan_id":"cebpf4jnsgd1na2vs0mg"},{"bike_id":"2c7a1563-d0fd-43d7-b1c0-4dcaba9889ce","system_id":"levelo_inurba_marseille","lat":43.32289,"lon":5.38256,"is_reserved":false,"is_disabled":false,"rental_uris":{"android":"levelo://app?vid=2c7a1563-d0fd-43d7-b1c0-4dcaba9889ce","ios":"levelo://app?vid=2c7a1563-d0fd-43d7-b1c0-4dcaba9889ce"},"vehicle_type_id":"4","last_reported":1732886399,"current_range_meters":20400,"station_id":"ce4bhr12rcd13ifvqhqg","pricing_plan_id":"cebpf4jnsgd1na2vs0mg"},{"bike_id":"76e32928-cbcc-45c2-810b-407d54dfbe4c","system_id":"levelo_inurba_marseille","lat":43.29571,"lon":5.39976,"is_reserved":false,"is_disabled":false,"rental_uris":{"android":"levelo://app?vid=76e32928-cbcc-45c2-810b-407d54dfbe4c","ios":"levelo://app?vid=76e32928-cbcc-45c2-810b-407d54dfbe4c"},"vehicle_type_id":"4","last_reported":1732886399,"current_range_meters":40000,"station_id":"ce4bh312rcd13ifvqdj0","pricing_plan_id":"cebpf4jnsgd1na2vs0mg"},{"bike_id":"02895370-c40c-4c5d-869e-dbb8ac908e5c","system_id":"levelo_inurba_marseille","lat":43.27166,"lon":5.41008,"is_reserved":false,"is_disabled":false,"rental_uris":{"android":"levelo://app?vid=02895370-c40c-4c5d-869e-dbb8ac908e5c","ios":"levelo://app?vid=02895370-c40c-4c5d-869e-dbb8ac908e5c"},"vehicle_type_id":"4","last_reported":1732886399,"current_range_meters":38800,"station_id":"ce4bhl12rcd13ifvqgf0","pricing_plan_id":"cebpf4jnsgd1na2vs0mg"},{"bike_id":"9009be37-c6b1-406b-b0a8-fbab355f715e","system_id":"levelo_inurba_marseille","lat":43.33767,"lon":5.37492,"is_reserved":false,"is_disabled":false,"rental_uris":{"android":"levelo://app?vid=9009be37-c6b1-406b-b0a8-fbab355f715e","ios":"levelo://app?vid=9009be37-c6b1-406b-b0a8-fbab355f715e"},"vehicle_type_id":"4","last_reported":1732886399,"current_range_meters":36400,"station_id":"","pricing_plan_id":"cebpf4jnsgd1na2vs0mg"},{"bike_id":"5b19fdd8-7af2-4dcf-91cb-f9ee5bb5e91a","system_id":"levelo_inurba_marseille","lat":43.29167,"lon":5.37153,"is_reserved":false,"is_disabled":true,"rental_uris":{"android":"levelo://app?vid=5b19fdd8-7af2-4dcf-91cb-f9ee5bb5e91a","ios":"levelo://app?vid=5b19fdd8-7af2-4dcf-91cb-f9ee5bb5e91a"},"vehicle_type_id":"4","last_reported":1732886399,"current_range_meters":24000,"station_id":"ce4bha92rcd13ifvqeh0","pricing_plan_id":"cebpf4jnsgd1na2vs0mg"},{"bike_id":"cca576eb-d842-4fcf-a853-c510b487fd80","system_id":"levelo_inurba_marseille","lat":43.33597,"lon":5.41035,"is_reserved":false,"is_disabled":false,"rental_uris":{"android":"levelo://app?vid=cca576eb-d842-4fcf-a853-c510b487fd80","ios":"levelo://app?vid=cca576eb-d842-4fcf-a853-c510b487fd80"},"vehicle_type_id":"4","last_reported":1732886399,"current_range_meters":24800,"station_id":"ce4bhqh2rcd13ifvqhmg","pricing_plan_id":"cebpf4jnsgd1na2vs0mg"},{"bike_id":"be1ea8ae-bb6c-4cc9-9878-4dd6e7c328d6","system_id":"levelo_inurba_marseille","lat":43.32106,"lon":5.36769,"is_reserved":false,"is_disabled":false,"rental_uris":{"android":"levelo://app?vid=be1ea8ae-bb6c-4cc9-9878-4dd6e7c328d6","ios":"levelo://app?vid=be1ea8ae-bb6c-4cc9-9878-4dd6e7c328d6"},"vehicle_type_id":"4","last_reported":1732886399,"current_range_meters":36000,"station_id":"ce4bhrh2rcd13ifvqhug","pricing_plan_id":"cebpf4jnsgd1na2vs0mg"},{"bike_id":"9589002c-1bab-46c5-9d09-a7efb8d9d194","system_id":"levelo_inurba_marseille","lat":43.28486,"lon":5.3494,"is_reserved":false,"is_disabled":false,"rental_uris":{"android":"levelo://app?vid=9589002c-1bab-46c5-9d09-a7efb8d9d194","ios":"levelo://app?vid=9589002c-1bab-46c5-9d09-a7efb8d9d194"},"vehicle_type_id":"4","last_reported":1732886399,"current_range_meters":20400,"station_id":"","pricing_plan_id":"cebpf4jnsgd1na2vs0mg"},{"bike_id":"b8dcd18f-7143-47b4-8842-7e81d861f130","system_id":"levelo_inurba_marseille","lat":43.30136,"lon":5.37422,"is_reserved":false,"is_disabled":false,"rental_uris":{"android":"levelo://app?vid=b8dcd18f-7143-47b4-8842-7e81d861f130","ios":"levelo://app?vid=b8dcd18f-7143-47b4-8842-7e81d861f130"},"vehicle_type_id":"4","last_reported":1732886399,"current_range_meters":28000,"station_id":"ce4bgs92rcd13ifvqcc0","pricing_plan_id":"cebpf4jnsgd1na2vs0mg"},{"bike_id":"77be03dd-3d99-4535-adc0-1c7477c4a3a3","system_id":"levelo_inurba_marseille","lat":43.32288,"lon":5.38275,"is_reserved":false,"is_disabled":false,"rental_uris":{"android":"levelo://app?vid=77be03dd-3d99-4535-adc0-1c7477c4a3a3","ios":"levelo://app?vid=77be03dd-3d99-4535-adc0-1c7477c4a3a3"},"vehicle_type_id":"4","last_reported":1732886399,"current_range_meters":24000,"station_id":"ce4bhr12rcd13ifvqhqg","pricing_plan_id":"cebpf4jnsgd1na2vs0mg"},{"bike_id":"e7a47070-ab70-4185-9b1c-3806811206dd","system_id":"levelo_inurba_marseille","lat":43.25087,"lon":5.39523,"is_reserved":false,"is_disabled":false,"rental_uris":{"android":"levelo://app?vid=e7a47070-ab70-4185-9b1c-3806811206dd","ios":"levelo://app?vid=e7a47070-ab70-4185-9b1c-3806811206dd"},"vehicle_type_id":"4","last_reported":1732886399,"current_range_meters":30800,"station_id":"ce4bhm12rcd13ifvqgkg","pricing_plan_id":"cebpf4jnsgd1na2vs0mg"},{"bike_id":"bccedd0b-3fed-4e88-8272-78282526dfdb","system_id":"levelo_inurba_marseille","lat":43.33023,"lon":5.39037,"is_reserved":false,"is_disabled":false,"rental_uris":{"android":"levelo://app?vid=bccedd0b-3fed-4e88-8272-78282526dfdb","ios":"levelo://app?vid=bccedd0b-3fed-4e88-8272-78282526dfdb"},"vehicle_type_id":"4","last_reported":1732886399,"current_range_meters":16400,"station_id":"ce4bhr92rcd13ifvqhrg","pricing_plan_id":"cebpf4jnsgd1na2vs0mg"},{"bike_id":"7d6f967b-d913-4f33-acab-07b2fb3f4857","system_id":"levelo_inurba_marseille","lat":43.26561,"lon":5.39012,"is_reserved":false,"is_disabled":false,"rental_uris":{"android":"levelo://app?vid=7d6f967b-d913-4f33-acab-07b2fb3f4857","ios":"levelo://app?vid=7d6f967b-d913-4f33-acab-07b2fb3f4857"},"vehicle_type_id":"4","last_reported":1732886399,"current_range_meters":38000,"station_id":"ce4bhe12rcd13ifvqf30","pricing_plan_id":"cebpf4jnsgd1na2vs0mg"},{"bike_id":"9db9d9a2-5fdc-4060-90be-8a54e6c45e2f","system_id":"levelo_inurba_marseille","lat":43.26566,"lon":5.39002,"is_reserved":false,"is_disabled":false,"rental_uris":{"android":"levelo://app?vid=9db9d9a2-5fdc-4060-90be-8a54e6c45e2f","ios":"levelo://app?vid=9db9d9a2-5fdc-4060-90be-8a54e6c45e2f"},"vehicle_type_id":"4","last_reported":1732886399,"current_range_meters":16000,"station_id":"ce4bhe12rcd13ifvqf30","pricing_plan_id":"cebpf4jnsgd1na2vs0mg"},{"bike_id":"cbd7fdae-f611-46e8-90e3-82cdbb2c140a","system_id":"levelo_inurba_marseille","lat":43.29972,"lon":5.37181,"is_reserved":false,"is_disabled":false,"rental_uris":{"android":"levelo://app?vid=cbd7fdae-f611-46e8-90e3-82cdbb2c140a","ios":"levelo://app?vid=cbd7fdae-f611-46e8-90e3-82cdbb2c140a"},"vehicle_type_id":"4","last_reported":1732886399,"current_range_meters":19200,"station_id":"ce4bgr92rcd13ifvqc7g","pricing_plan_id":"cebpf4jnsgd1na2vs0mg"},{"bike_id":"e8fa7be1-2407-41a7-b843-e7c70f1917ef","system_id":"levelo_inurba_marseille","lat":43.2761,"lon":5.36109,"is_reserved":false,"is_disabled":true,"rental_uris":{"android":"levelo://app?vid=e8fa7be1-2407-41a7-b843-e7c70f1917ef","ios":"levelo://app?vid=e8fa7be1-2407-41a7-b843-e7c70f1917ef"},"vehicle_type_id":"4","last_reported":1732886399,"current_range_meters":0,"station_id":"ce4bgj92rcd13ifvqbe0","pricing_plan_id":"cebpf4jnsgd1na2vs0mg"},{"bike_id":"b2dd31ad-4169-4a2b-87da-c06c0880256c","system_id":"levelo_inurba_marseille","lat":43.26554,"lon":5.39038,"is_reserved":false,"is_disabled":false,"rental_uris":{"android":"levelo://app?vid=b2dd31ad-4169-4a2b-87da-c06c0880256c","ios":"levelo://app?vid=b2dd31ad-4169-4a2b-87da-c06c0880256c"},"vehicle_type_id":"4","last_reported":1732886399,"current_range_meters":2800,"station_id":"ce4bhe12rcd13ifvqf30","pricing_plan_id":"cebpf4jnsgd1na2vs0mg"},{"bike_id":"efbc1bb2-e566-41bb-b022-38460ddce04c","system_id":"levelo_inurba_marseille","lat":43.30522,"lon":5.37307,"is_reserved":false,"is_disabled":false,"rental_uris":{"android":"levelo://app?vid=efbc1bb2-e566-41bb-b022-38460ddce04c","ios":"levelo://app?vid=efbc1bb2-e566-41bb-b022-38460ddce04c"},"vehicle_type_id":"4","last_reported":1732886399,"current_range_meters":28000,"station_id":"","pricing_plan_id":"cebpf4jnsgd1na2vs0mg"},{"bike_id":"d6a0ff66-87dd-49de-a09b-bea530d1c972","system_id":"levelo_inurba_marseille","lat":43.25576,"lon":5.38245,"is_reserved":false,"is_disabled":true,"rental_uris":{"android":"levelo://app?vid=d6a0ff66-87dd-49de-a09b-bea530d1c972","ios":"levelo://app?vid=d6a0ff66-87dd-49de-a09b-bea530d1c972"},"vehicle_type_id":"4","last_reported":1732886399,"current_range_meters":32400,"station_id":"ce4bhih2rcd13ifvqfs0","pricing_plan_id":"cebpf4jnsgd1na2vs0mg"},{"bike_id":"c6987b7c-0a57-4f2a-9f67-21aaa65411ee","system_id":"levelo_inurba_marseille","lat":43.32293,"lon":5.38289,"is_reserved":false,"is_disabled":false,"rental_uris":{"android":"levelo://app?vid=c6987b7c-0a57-4f2a-9f67-21aaa65411ee","ios":"levelo://app?vid=c6987b7c-0a57-4f2a-9f67-21aaa65411ee"},"vehicle_type_id":"4","last_reported":1732886399,"current_range_meters":31200,"station_id":"ce4bhr12rcd13ifvqhqg","pricing_plan_id":"cebpf4jnsgd1na2vs0mg"},{"bike_id":"3d0470f0-afee-4b20-bad1-0cf30a5b48d2","system_id":"levelo_inurba_marseille","lat":43.29903,"lon":5.38143,"is_reserved":false,"is_disabled":true,"rental_uris":{"android":"levelo://app?vid=3d0470f0-afee-4b20-bad1-0cf30a5b48d2","ios":"levelo://app?vid=3d0470f0-afee-4b20-bad1-0cf30a5b48d2"},"vehicle_type_id":"4","last_reported":1732886399,"current_range_meters":800,"station_id":"ce4bgj12rcd13ifvqbc0","pricing_plan_id":"cebpf4jnsgd1na2vs0mg"},{"bike_id":"e2fccdcc-8621-4fe7-9271-7b51c683628c","system_id":"levelo_inurba_marseille","lat":43.30536,"lon":5.36541,"is_reserved":false,"is_disabled":false,"rental_uris":{"android":"levelo://app?vid=e2fccdcc-8621-4fe7-9271-7b51c683628c","ios":"levelo://app?vid=e2fccdcc-8621-4fe7-9271-7b51c683628c"},"vehicle_type_id":"4","last_reported":1732886399,"current_range_meters":25200,"station_id":"ce4bgs12rcd13ifvqcag","pricing_plan_id":"cebpf4jnsgd1na2vs0mg"},{"bike_id":"3ca8d527-6c31-4160-8bc9-0dbae13780f9","system_id":"levelo_inurba_marseille","lat":43.28459,"lon":5.35898,"is_reserved":false,"is_disabled":true,"rental_uris":{"android":"levelo://app?vid=3ca8d527-6c31-4160-8bc9-0dbae13780f9","ios":"levelo://app?vid=3ca8d527-6c31-4160-8bc9-0dbae13780f9"},"vehicle_type_id":"4","last_reported":1732886399,"current_range_meters":24000,"station_id":"ce4bhah2rcd13ifvqei0","pricing_plan_id":"cebpf4jnsgd1na2vs0mg"},{"bike_id":"c9136112-9d19-40a7-9923-39e7302d69c7","system_id":"levelo_inurba_marseille","lat":43.26567,"lon":5.39027,"is_reserved":false,"is_disabled":false,"rental_uris":{"android":"levelo://app?vid=c9136112-9d19-40a7-9923-39e7302d69c7","ios":"levelo://app?vid=c9136112-9d19-40a7-9923-39e7302d69c7"},"vehicle_type_id":"4","last_reported":1732886399,"current_range_meters":27200,"station_id":"ce4bhe12rcd13ifvqf30","pricing_plan_id":"cebpf4jnsgd1na2vs0mg"},{"bike_id":"a985c880-13b0-471f-be68-7059b51df585","system_id":"levelo_inurba_marseille","lat":43.26796,"lon":5.40268,"is_reserved":false,"is_disabled":true,"rental_uris":{"android":"levelo://app?vid=a985c880-13b0-471f-be68-7059b51df585","ios":"levelo://app?vid=a985c880-13b0-471f-be68-7059b51df585"},"vehicle_type_id":"4","last_reported":1732886399,"current_range_meters":1200,"station_id":"ce501612rcd8frsf0b60","pricing_plan_id":"cebpf4jnsgd1na2vs0mg"},{"bike_id":"47efd333-b353-465d-8400-56519602adc4","system_id":"levelo_inurba_marseille","lat":43.24659,"lon":5.38161,"is_reserved":false,"is_disabled":false,"rental_uris":{"android":"levelo://app?vid=47efd333-b353-465d-8400-56519602adc4","ios":"levelo://app?vid=47efd333-b353-465d-8400-56519602adc4"},"vehicle_type_id":"4","last_reported":1732886399,"current_range_meters":23200,"station_id":"ce4bhih2rcd13ifvqfr0","pricing_plan_id":"cebpf4jnsgd1na2vs0mg"},{"bike_id":"16fb8e17-b179-4d5a-add7-fbd05efe76fb","system_id":"levelo_inurba_marseille","lat":43.25933,"lon":5.40915,"is_reserved":false,"is_disabled":true,"rental_uris":{"android":"levelo://app?vid=16fb8e17-b179-4d5a-add7-fbd05efe76fb","ios":"levelo://app?vid=16fb8e17-b179-4d5a-add7-fbd05efe76fb"},"vehicle_type_id":"4","last_reported":1732886399,"current_range_meters":12000,"station_id":"ce4bhm92rcd13ifvqglg","pricing_plan_id":"cebpf4jnsgd1na2vs0mg"},{"bike_id":"5d7b6ee1-ed82-4e71-a41b-be1534ece393","system_id":"levelo_inurba_marseille","lat":43.29785,"lon":5.38105,"is_reserved":false,"is_disabled":false,"rental_uris":{"android":"levelo://app?vid=5d7b6ee1-ed82-4e71-a41b-be1534ece393","ios":"levelo://app?vid=5d7b6ee1-ed82-4e71-a41b-be1534ece393"},"vehicle_type_id":"4","last_reported":1732886399,"current_range_meters":38000,"station_id":"ce4bgip2rcd13ifvqbb0","pricing_plan_id":"cebpf4jnsgd1na2vs0mg"},{"bike_id":"8fc88422-a847-4fdf-9cdb-fd5e531eaffe","system_id":"levelo_inurba_marseille","lat":43.23147,"lon":5.43722,"is_reserved":false,"is_disabled":false,"rental_uris":{"android":"levelo://app?vid=8fc88422-a847-4fdf-9cdb-fd5e531eaffe","ios":"levelo://app?vid=8fc88422-a847-4fdf-9cdb-fd5e531eaffe"},"vehicle_type_id":"4","last_reported":1732886399,"current_range_meters":36800,"station_id":"ce4bhmp2rcd13ifvqgog","pricing_plan_id":"cebpf4jnsgd1na2vs0mg"},{"bike_id":"9bf73d1f-8694-4aaa-a0cc-0dc4f02394d3","system_id":"levelo_inurba_marseille","lat":43.27426,"lon":5.3942,"is_reserved":false,"is_disabled":false,"rental_uris":{"android":"levelo://app?vid=9bf73d1f-8694-4aaa-a0cc-0dc4f02394d3","ios":"levelo://app?vid=9bf73d1f-8694-4aaa-a0cc-0dc4f02394d3"},"vehicle_type_id":"4","last_reported":1732886399,"current_range_meters":38000,"station_id":"ce4bhdp2rcd13ifvqf20","pricing_plan_id":"cebpf4jnsgd1na2vs0mg"},{"bike_id":"746d3c0d-a266-464f-aef4-e56a74931f65","system_id":"levelo_inurba_marseille","lat":43.24391,"lon":5.3706,"is_reserved":false,"is_disabled":false,"rental_uris":{"android":"levelo://app?vid=746d3c0d-a266-464f-aef4-e56a74931f65","ios":"levelo://app?vid=746d3c0d-a266-464f-aef4-e56a74931f65"},"vehicle_type_id":"4","last_reported":1732886399,"current_range_meters":39200,"station_id":"ce4bhhh2rcd13ifvqfk0","pricing_plan_id":"cebpf4jnsgd1na2vs0mg"},{"bike_id":"a99e441f-fcb3-4edf-8132-a5c34ea369bf","system_id":"levelo_inurba_marseille","lat":43.26937,"lon":5.40255,"is_reserved":false,"is_disabled":true,"rental_uris":{"android":"levelo://app?vid=a99e441f-fcb3-4edf-8132-a5c34ea369bf","ios":"levelo://app?vid=a99e441f-fcb3-4edf-8132-a5c34ea369bf"},"vehicle_type_id":"4","last_reported":1732886399,"current_range_meters":800,"station_id":"cjm6bp8fraef2m0cb0m0","pricing_plan_id":"cebpf4jnsgd1na2vs0mg"},{"bike_id":"91475a11-c126-482c-88c0-39201ca2c9ce","system_id":"levelo_inurba_marseille","lat":43.2827,"lon":5.35074,"is_reserved":false,"is_disabled":false,"rental_uris":{"android":"levelo://app?vid=91475a11-c126-482c-88c0-39201ca2c9ce","ios":"levelo://app?vid=91475a11-c126-482c-88c0-39201ca2c9ce"},"vehicle_type_id":"4","last_reported":1732886399,"current_range_meters":35200,"station_id":"ce4bhbp2rcd13ifvqerg","pricing_plan_id":"cebpf4jnsgd1na2vs0mg"},{"bike_id":"11987a2b-f6d0-45a3-b99c-1de95f2298a4","system_id":"levelo_inurba_marseille","lat":43.29416,"lon":5.38619,"is_reserved":false,"is_disabled":false,"rental_uris":{"android":"levelo://app?vid=11987a2b-f6d0-45a3-b99c-1de95f2298a4","ios":"levelo://app?vid=11987a2b-f6d0-45a3-b99c-1de95f2298a4"},"vehicle_type_id":"4","last_reported":1732886399,"current_range_meters":38800,"station_id":"ce4bh2h2rcd13ifvqdh0","pricing_plan_id":"cebpf4jnsgd1na2vs0mg"},{"bike_id":"18527ab2-e831-4c60-a304-5de0890c6d38","system_id":"levelo_inurba_marseille","lat":43.29797,"lon":5.38101,"is_reserved":false,"is_disabled":false,"rental_uris":{"android":"levelo://app?vid=18527ab2-e831-4c60-a304-5de0890c6d38","ios":"levelo://app?vid=18527ab2-e831-4c60-a304-5de0890c6d38"},"vehicle_type_id":"4","last_reported":1732886399,"current_range_meters":39200,"station_id":"ce4bgip2rcd13ifvqbb0","pricing_plan_id":"cebpf4jnsgd1na2vs0mg"},{"bike_id":"90a7d43f-53fe-4889-9259-8a8be20683a4","system_id":"levelo_inurba_marseille","lat":43.31276,"lon":5.40166,"is_reserved":false,"is_disabled":false,"rental_uris":{"android":"levelo://app?vid=90a7d43f-53fe-4889-9259-8a8be20683a4","ios":"levelo://app?vid=90a7d43f-53fe-4889-9259-8a8be20683a4"},"vehicle_type_id":"4","last_reported":1732886399,"current_range_meters":38800,"station_id":"ce4bh092rcd13ifvqd30","pricing_plan_id":"cebpf4jnsgd1na2vs0mg"},{"bike_id":"dfd24468-d253-490a-9795-f32c6d161b67","system_id":"levelo_inurba_marseille","lat":43.265575,"lon":5.37283,"is_reserved":false,"is_disabled":false,"rental_uris":{"android":"levelo://app?vid=dfd24468-d253-490a-9795-f32c6d161b67","ios":"levelo://app?vid=dfd24468-d253-490a-9795-f32c6d161b67"},"vehicle_type_id":"4","last_reported":1732886399,"current_range_meters":12800,"station_id":"ce4bhg12rcd13ifvqf70","pricing_plan_id":"cebpf4jnsgd1na2vs0mg"},{"bike_id":"6eaf9167-5116-4163-8b77-e0e9e5b35c42","system_id":"levelo_inurba_marseille","lat":43.23966,"lon":5.36634,"is_reserved":false,"is_disabled":false,"rental_uris":{"android":"levelo://app?vid=6eaf9167-5116-4163-8b77-e0e9e5b35c42","ios":"levelo://app?vid=6eaf9167-5116-4163-8b77-e0e9e5b35c42"},"vehicle_type_id":"4","last_reported":1732886399,"current_range_meters":36800,"station_id":"ce4bhi12rcd13ifvqfp0","pricing_plan_id":"cebpf4jnsgd1na2vs0mg"},{"bike_id":"81d9f7be-c3c6-4233-bf11-948e6f22debc","system_id":"levelo_inurba_marseille","lat":43.32365,"lon":5.38877,"is_reserved":false,"is_disabled":false,"rental_uris":{"android":"levelo://app?vid=81d9f7be-c3c6-4233-bf11-948e6f22debc","ios":"levelo://app?vid=81d9f7be-c3c6-4233-bf11-948e6f22debc"},"vehicle_type_id":"4","last_reported":1732886399,"current_range_meters":36800,"station_id":"ce4bhqp2rcd13ifvqhog","pricing_plan_id":"cebpf4jnsgd1na2vs0mg"},{"bike_id":"e23cecb0-b499-419c-950e-c8fa40b5b9f1","system_id":"levelo_inurba_marseille","lat":43.29577,"lon":5.36736,"is_reserved":false,"is_disabled":false,"rental_uris":{"android":"levelo://app?vid=e23cecb0-b499-419c-950e-c8fa40b5b9f1","ios":"levelo://app?vid=e23cecb0-b499-419c-950e-c8fa40b5b9f1"},"vehicle_type_id":"4","last_reported":1732886399,"current_range_meters":39200,"station_id":"ce4bgph2rcd13ifvqc2g","pricing_plan_id":"cebpf4jnsgd1na2vs0mg"},{"bike_id":"a728b9f9-25a8-44eb-8847-ef47c760bc31","system_id":"levelo_inurba_marseille","lat":43.30914,"lon":5.36851,"is_reserved":false,"is_disabled":false,"rental_uris":{"android":"levelo://app?vid=a728b9f9-25a8-44eb-8847-ef47c760bc31","ios":"levelo://app?vid=a728b9f9-25a8-44eb-8847-ef47c760bc31"},"vehicle_type_id":"4","last_reported":1732886399,"current_range_meters":22400,"station_id":"ce4bgn92rcd13ifvqbvg","pricing_plan_id":"cebpf4jnsgd1na2vs0mg"},{"bike_id":"2a09aad8-5110-451b-b6d3-1097dc2ec209","system_id":"levelo_inurba_marseille","lat":43.30917,"lon":5.36849,"is_reserved":false,"is_disabled":false,"rental_uris":{"android":"levelo://app?vid=2a09aad8-5110-451b-b6d3-1097dc2ec209","ios":"levelo://app?vid=2a09aad8-5110-451b-b6d3-1097dc2ec209"},"vehicle_type_id":"4","last_reported":1732886399,"current_range_meters":8400,"station_id":"ce4bgn92rcd13ifvqbvg","pricing_plan_id":"cebpf4jnsgd1na2vs0mg"},{"bike_id":"11bdf964-2b86-402d-8161-d7ddb408f097","system_id":"levelo_inurba_marseille","lat":43.27374,"lon":5.36255,"is_reserved":false,"is_disabled":false,"rental_uris":{"android":"levelo://app?vid=11bdf964-2b86-402d-8161-d7ddb408f097","ios":"levelo://app?vid=11bdf964-2b86-402d-8161-d7ddb408f097"},"vehicle_type_id":"4","last_reported":1732886399,"current_range_meters":30000,"station_id":"ce4bhbh2rcd13ifvqeo0","pricing_plan_id":"cebpf4jnsgd1na2vs0mg"},{"bike_id":"29a80c71-9648-4a26-b6c9-5f69092eaa01","system_id":"levelo_inurba_marseille","lat":43.27067,"lon":5.42273,"is_reserved":false,"is_disabled":true,"rental_uris":{"android":"levelo://app?vid=29a80c71-9648-4a26-b6c9-5f69092eaa01","ios":"levelo://app?vid=29a80c71-9648-4a26-b6c9-5f69092eaa01"},"vehicle_type_id":"4","last_reported":1732886399,"current_range_meters":38800,"station_id":"ce4bhk92rcd13ifvqgb0","pricing_plan_id":"cebpf4jnsgd1na2vs0mg"},{"bike_id":"2a60fd72-9cfa-415f-937e-d89edec4f374","system_id":"levelo_inurba_marseille","lat":43.25,"lon":5.38923,"is_reserved":false,"is_disabled":false,"rental_uris":{"android":"levelo://app?vid=2a60fd72-9cfa-415f-937e-d89edec4f374","ios":"levelo://app?vid=2a60fd72-9cfa-415f-937e-d89edec4f374"},"vehicle_type_id":"4","last_reported":1732886399,"current_range_meters":27600,"station_id":"ce4bhgp2rcd13ifvqfd0","pricing_plan_id":"cebpf4jnsgd1na2vs0mg"},{"bike_id":"5b6140a7-7f65-4ca3-a3f2-419ab04c93da","system_id":"levelo_inurba_marseille","lat":43.22929,"lon":5.35377,"is_reserved":false,"is_disabled":false,"rental_uris":{"android":"levelo://app?vid=5b6140a7-7f65-4ca3-a3f2-419ab04c93da","ios":"levelo://app?vid=5b6140a7-7f65-4ca3-a3f2-419ab04c93da"},"vehicle_type_id":"4","last_reported":1732886399,"current_range_meters":27600,"station_id":"cpo3532slgdg3j2ikp40","pricing_plan_id":"cebpf4jnsgd1na2vs0mg"},{"bike_id":"0174841e-8011-4a7b-bd18-480101bee765","system_id":"levelo_inurba_marseille","lat":43.23963,"lon":5.36639,"is_reserved":false,"is_disabled":true,"rental_uris":{"android":"levelo://app?vid=0174841e-8011-4a7b-bd18-480101bee765","ios":"levelo://app?vid=0174841e-8011-4a7b-bd18-480101bee765"},"vehicle_type_id":"4","last_reported":1732886399,"current_range_meters":1600,"station_id":"ce4bhi12rcd13ifvqfp0","pricing_plan_id":"cebpf4jnsgd1na2vs0mg"},{"bike_id":"414ced6b-9457-41ed-a305-11df89f57c01","system_id":"levelo_inurba_marseille","lat":43.34144,"lon":5.40905,"is_reserved":false,"is_disabled":false,"rental_uris":{"android":"levelo://app?vid=414ced6b-9457-41ed-a305-11df89f57c01","ios":"levelo://app?vid=414ced6b-9457-41ed-a305-11df89f57c01"},"vehicle_type_id":"4","last_reported":1732886399,"current_range_meters":7200,"station_id":"ce4bhqh2rcd13ifvqhlg","pricing_plan_id":"cebpf4jnsgd1na2vs0mg"},{"bike_id":"529ac31e-7b98-4e72-9f70-0d0275b6c8ce","system_id":"levelo_inurba_marseille","lat":43.27069,"lon":5.42277,"is_reserved":false,"is_disabled":false,"rental_uris":{"android":"levelo://app?vid=529ac31e-7b98-4e72-9f70-0d0275b6c8ce","ios":"levelo://app?vid=529ac31e-7b98-4e72-9f70-0d0275b6c8ce"},"vehicle_type_id":"4","last_reported":1732886399,"current_range_meters":32000,"station_id":"ce4bhk92rcd13ifvqgb0","pricing_plan_id":"cebpf4jnsgd1na2vs0mg"},{"bike_id":"6ac7ea5b-79b4-4fab-b189-7deeb408ea6d","system_id":"levelo_inurba_marseille","lat":43.30913,"lon":5.36851,"is_reserved":false,"is_disabled":false,"rental_uris":{"android":"levelo://app?vid=6ac7ea5b-79b4-4fab-b189-7deeb408ea6d","ios":"levelo://app?vid=6ac7ea5b-79b4-4fab-b189-7deeb408ea6d"},"vehicle_type_id":"4","last_reported":1732886399,"current_range_meters":30400,"station_id":"ce4bgn92rcd13ifvqbvg","pricing_plan_id":"cebpf4jnsgd1na2vs0mg"},{"bike_id":"759518f4-9f32-4b72-97fe-df61c6c7bd05","system_id":"levelo_inurba_marseille","lat":43.31059,"lon":5.40104,"is_reserved":false,"is_disabled":false,"rental_uris":{"android":"levelo://app?vid=759518f4-9f32-4b72-97fe-df61c6c7bd05","ios":"levelo://app?vid=759518f4-9f32-4b72-97fe-df61c6c7bd05"},"vehicle_type_id":"4","last_reported":1732886399,"current_range_meters":7200,"station_id":"","pricing_plan_id":"cebpf4jnsgd1na2vs0mg"},{"bike_id":"4d8c52a6-898a-483a-af2c-690fbaafb5d1","system_id":"levelo_inurba_marseille","lat":43.24997,"lon":5.38934,"is_reserved":false,"is_disabled":true,"rental_uris":{"android":"levelo://app?vid=4d8c52a6-898a-483a-af2c-690fbaafb5d1","ios":"levelo://app?vid=4d8c52a6-898a-483a-af2c-690fbaafb5d1"},"vehicle_type_id":"4","last_reported":1732886399,"current_range_meters":0,"station_id":"ce4bhgp2rcd13ifvqfd0","pricing_plan_id":"cebpf4jnsgd1na2vs0mg"},{"bike_id":"557cb418-87af-4adb-b087-5dfe8dc29e91","system_id":"levelo_inurba_marseille","lat":43.29529,"lon":5.39397,"is_reserved":false,"is_disabled":false,"rental_uris":{"android":"levelo://app?vid=557cb418-87af-4adb-b087-5dfe8dc29e91","ios":"levelo://app?vid=557cb418-87af-4adb-b087-5dfe8dc29e91"},"vehicle_type_id":"4","last_reported":1732886399,"current_range_meters":38400,"station_id":"ce4bh292rcd13ifvqdf0","pricing_plan_id":"cebpf4jnsgd1na2vs0mg"},{"bike_id":"57dcc5a2-ed50-4a79-8fb5-537753eb8783","system_id":"levelo_inurba_marseille","lat":43.31491,"lon":5.37311,"is_reserved":false,"is_disabled":false,"rental_uris":{"android":"levelo://app?vid=57dcc5a2-ed50-4a79-8fb5-537753eb8783","ios":"levelo://app?vid=57dcc5a2-ed50-4a79-8fb5-537753eb8783"},"vehicle_type_id":"4","last_reported":1732886399,"current_range_meters":8400,"station_id":"ce4bgt12rcd13ifvqcd0","pricing_plan_id":"cebpf4jnsgd1na2vs0mg"},{"bike_id":"0631c7b3-dcd6-423a-b870-36ebe59297c3","system_id":"levelo_inurba_marseille","lat":43.30912,"lon":5.36847,"is_reserved":false,"is_disabled":false,"rental_uris":{"android":"levelo://app?vid=0631c7b3-dcd6-423a-b870-36ebe59297c3","ios":"levelo://app?vid=0631c7b3-dcd6-423a-b870-36ebe59297c3"},"vehicle_type_id":"4","last_reported":1732886399,"current_range_meters":38800,"station_id":"ce4bgn92rcd13ifvqbvg","pricing_plan_id":"cebpf4jnsgd1na2vs0mg"},{"bike_id":"06d2e5c9-9797-46cd-8f41-14b5d00f65f9","system_id":"levelo_inurba_marseille","lat":43.27071,"lon":5.4228,"is_reserved":false,"is_disabled":false,"rental_uris":{"android":"levelo://app?vid=06d2e5c9-9797-46cd-8f41-14b5d00f65f9","ios":"levelo://app?vid=06d2e5c9-9797-46cd-8f41-14b5d00f65f9"},"vehicle_type_id":"4","last_reported":1732886399,"current_range_meters":29600,"station_id":"ce4bhk92rcd13ifvqgb0","pricing_plan_id":"cebpf4jnsgd1na2vs0mg"},{"bike_id":"ec789b4f-f182-4891-a08f-0b8436f4f862","system_id":"levelo_inurba_marseille","lat":43.26954,"lon":5.38632,"is_reserved":false,"is_disabled":false,"rental_uris":{"android":"levelo://app?vid=ec789b4f-f182-4891-a08f-0b8436f4f862","ios":"levelo://app?vid=ec789b4f-f182-4891-a08f-0b8436f4f862"},"vehicle_type_id":"4","last_reported":1732886399,"current_range_meters":26800,"station_id":"ce4bhh92rcd13ifvqfh0","pricing_plan_id":"cebpf4jnsgd1na2vs0mg"},{"bike_id":"9f71d9b1-f1c2-46eb-b001-c03b9e0d69c6","system_id":"levelo_inurba_marseille","lat":43.29869,"lon":5.36597,"is_reserved":false,"is_disabled":false,"rental_uris":{"android":"levelo://app?vid=9f71d9b1-f1c2-46eb-b001-c03b9e0d69c6","ios":"levelo://app?vid=9f71d9b1-f1c2-46eb-b001-c03b9e0d69c6"},"vehicle_type_id":"4","last_reported":1732886399,"current_range_meters":5600,"station_id":"","pricing_plan_id":"cebpf4jnsgd1na2vs0mg"},{"bike_id":"606f4b92-39a8-4f88-978c-f3ff47b620c4","system_id":"levelo_inurba_marseille","lat":43.2717,"lon":5.41003,"is_reserved":false,"is_disabled":false,"rental_uris":{"android":"levelo://app?vid=606f4b92-39a8-4f88-978c-f3ff47b620c4","ios":"levelo://app?vid=606f4b92-39a8-4f88-978c-f3ff47b620c4"},"vehicle_type_id":"4","last_reported":1732886399,"current_range_meters":30000,"station_id":"ce4bhl12rcd13ifvqgf0","pricing_plan_id":"cebpf4jnsgd1na2vs0mg"},{"bike_id":"76cf05b8-b737-43a2-a8b0-2a3350d05016","system_id":"levelo_inurba_marseille","lat":43.27054,"lon":5.40258,"is_reserved":false,"is_disabled":true,"rental_uris":{"android":"levelo://app?vid=76cf05b8-b737-43a2-a8b0-2a3350d05016","ios":"levelo://app?vid=76cf05b8-b737-43a2-a8b0-2a3350d05016"},"vehicle_type_id":"4","last_reported":1732886399,"current_range_meters":0,"station_id":"ce4bhk92rcd13ifvqgc0","pricing_plan_id":"cebpf4jnsgd1na2vs0mg"},{"bike_id":"2839c06e-dfc6-4bb4-92dd-cd78c43581f0","system_id":"levelo_inurba_marseille","lat":43.23197,"lon":5.35555,"is_reserved":false,"is_disabled":false,"rental_uris":{"android":"levelo://app?vid=2839c06e-dfc6-4bb4-92dd-cd78c43581f0","ios":"levelo://app?vid=2839c06e-dfc6-4bb4-92dd-cd78c43581f0"},"vehicle_type_id":"4","last_reported":1732886399,"current_range_meters":19600,"station_id":"ce4bhu92rcd13ifvqi70","pricing_plan_id":"cebpf4jnsgd1na2vs0mg"},{"bike_id":"7789e245-92df-43c2-8166-d6f7ccbd033b","system_id":"levelo_inurba_marseille","lat":43.29146,"lon":5.37933,"is_reserved":false,"is_disabled":true,"rental_uris":{"android":"levelo://app?vid=7789e245-92df-43c2-8166-d6f7ccbd033b","ios":"levelo://app?vid=7789e245-92df-43c2-8166-d6f7ccbd033b"},"vehicle_type_id":"4","last_reported":1732886399,"current_range_meters":6000,"station_id":"","pricing_plan_id":"cebpf4jnsgd1na2vs0mg"},{"bike_id":"943c246f-3025-4205-ba3f-0ddb4da2e53d","system_id":"levelo_inurba_marseille","lat":43.29882,"lon":5.38896,"is_reserved":false,"is_disabled":false,"rental_uris":{"android":"levelo://app?vid=943c246f-3025-4205-ba3f-0ddb4da2e53d","ios":"levelo://app?vid=943c246f-3025-4205-ba3f-0ddb4da2e53d"},"vehicle_type_id":"4","last_reported":1732886399,"current_range_meters":27200,"station_id":"ce4bh392rcd13ifvqdl0","pricing_plan_id":"cebpf4jnsgd1na2vs0mg"},{"bike_id":"3bcbe387-2737-45e8-8f9f-70f4dbbdb8ab","system_id":"levelo_inurba_marseille","lat":43.28406,"lon":5.34979,"is_reserved":false,"is_disabled":false,"rental_uris":{"android":"levelo://app?vid=3bcbe387-2737-45e8-8f9f-70f4dbbdb8ab","ios":"levelo://app?vid=3bcbe387-2737-45e8-8f9f-70f4dbbdb8ab"},"vehicle_type_id":"4","last_reported":1732886399,"current_range_meters":22000,"station_id":"ce4bhbh2rcd13ifvqepg","pricing_plan_id":"cebpf4jnsgd1na2vs0mg"},{"bike_id":"fe1c6c60-0f4f-4b5c-a7ea-9f2ff8347245","system_id":"levelo_inurba_marseille","lat":43.27616,"lon":5.36102,"is_reserved":false,"is_disabled":true,"rental_uris":{"android":"levelo://app?vid=fe1c6c60-0f4f-4b5c-a7ea-9f2ff8347245","ios":"levelo://app?vid=fe1c6c60-0f4f-4b5c-a7ea-9f2ff8347245"},"vehicle_type_id":"4","last_reported":1732886399,"current_range_meters":0,"station_id":"ce4bgj92rcd13ifvqbe0","pricing_plan_id":"cebpf4jnsgd1na2vs0mg"},{"bike_id":"c1273547-3d6b-4a56-8c27-39d198530abf","system_id":"levelo_inurba_marseille","lat":43.3061,"lon":5.37222,"is_reserved":false,"is_disabled":false,"rental_uris":{"android":"levelo://app?vid=c1273547-3d6b-4a56-8c27-39d198530abf","ios":"levelo://app?vid=c1273547-3d6b-4a56-8c27-39d198530abf"},"vehicle_type_id":"4","last_reported":1732886399,"current_range_meters":38800,"station_id":"ce4bgqh2rcd13ifvqc4g","pricing_plan_id":"cebpf4jnsgd1na2vs0mg"},{"bike_id":"4e5da5f6-141a-40ea-85f9-0f2e729fec06","system_id":"levelo_inurba_marseille","lat":43.25717,"lon":5.41113,"is_reserved":false,"is_disabled":false,"rental_uris":{"android":"levelo://app?vid=4e5da5f6-141a-40ea-85f9-0f2e729fec06","ios":"levelo://app?vid=4e5da5f6-141a-40ea-85f9-0f2e729fec06"},"vehicle_type_id":"4","last_reported":1732886399,"current_range_meters":26800,"station_id":"ce4bhkp2rcd13ifvqgd0","pricing_plan_id":"cebpf4jnsgd1na2vs0mg"},{"bike_id":"e42249bf-1ff8-4abf-b6d4-85655a6f5f87","system_id":"levelo_inurba_marseille","lat":43.33321,"lon":5.3846,"is_reserved":false,"is_disabled":false,"rental_uris":{"android":"levelo://app?vid=e42249bf-1ff8-4abf-b6d4-85655a6f5f87","ios":"levelo://app?vid=e42249bf-1ff8-4abf-b6d4-85655a6f5f87"},"vehicle_type_id":"4","last_reported":1732886399,"current_range_meters":38400,"station_id":"","pricing_plan_id":"cebpf4jnsgd1na2vs0mg"},{"bike_id":"b453e718-367d-44bc-833a-93c6887bd103","system_id":"levelo_inurba_marseille","lat":43.26806,"lon":5.40264,"is_reserved":false,"is_disabled":false,"rental_uris":{"android":"levelo://app?vid=b453e718-367d-44bc-833a-93c6887bd103","ios":"levelo://app?vid=b453e718-367d-44bc-833a-93c6887bd103"},"vehicle_type_id":"4","last_reported":1732886399,"current_range_meters":38800,"station_id":"ce501612rcd8frsf0b60","pricing_plan_id":"cebpf4jnsgd1na2vs0mg"},{"bike_id":"50d1c89c-5bdb-43d1-89b0-e2eb2c4d10d6","system_id":"levelo_inurba_marseille","lat":43.29613,"lon":5.37728,"is_reserved":false,"is_disabled":false,"rental_uris":{"android":"levelo://app?vid=50d1c89c-5bdb-43d1-89b0-e2eb2c4d10d6","ios":"levelo://app?vid=50d1c89c-5bdb-43d1-89b0-e2eb2c4d10d6"},"vehicle_type_id":"4","last_reported":1732886399,"current_range_meters":18800,"station_id":"ce4bgi92rcd13ifvqb90","pricing_plan_id":"cebpf4jnsgd1na2vs0mg"},{"bike_id":"57883350-7ee0-4b23-9fb4-e091ce37b4c3","system_id":"levelo_inurba_marseille","lat":43.27137,"lon":5.41026,"is_reserved":false,"is_disabled":false,"rental_uris":{"android":"levelo://app?vid=57883350-7ee0-4b23-9fb4-e091ce37b4c3","ios":"levelo://app?vid=57883350-7ee0-4b23-9fb4-e091ce37b4c3"},"vehicle_type_id":"4","last_reported":1732886399,"current_range_meters":38800,"station_id":"ce4bhl12rcd13ifvqgf0","pricing_plan_id":"cebpf4jnsgd1na2vs0mg"},{"bike_id":"54ab9596-1c0b-4552-9a12-5b0418230933","system_id":"levelo_inurba_marseille","lat":43.27807,"lon":5.40733,"is_reserved":false,"is_disabled":false,"rental_uris":{"android":"levelo://app?vid=54ab9596-1c0b-4552-9a12-5b0418230933","ios":"levelo://app?vid=54ab9596-1c0b-4552-9a12-5b0418230933"},"vehicle_type_id":"4","last_reported":1732886399,"current_range_meters":7200,"station_id":"ce4bhnh2rcd13ifvqgtg","pricing_plan_id":"cebpf4jnsgd1na2vs0mg"},{"bike_id":"5cbf1539-18e9-4c34-b3ac-bb7a0181213c","system_id":"levelo_inurba_marseille","lat":43.29931,"lon":5.36551,"is_reserved":false,"is_disabled":false,"rental_uris":{"android":"levelo://app?vid=5cbf1539-18e9-4c34-b3ac-bb7a0181213c","ios":"levelo://app?vid=5cbf1539-18e9-4c34-b3ac-bb7a0181213c"},"vehicle_type_id":"4","last_reported":1732886399,"current_range_meters":37600,"station_id":"ce4bgm92rcd13ifvqbr0","pricing_plan_id":"cebpf4jnsgd1na2vs0mg"},{"bike_id":"43043987-d023-48c4-b123-40588d2dcf10","system_id":"levelo_inurba_marseille","lat":43.2957,"lon":5.37508,"is_reserved":false,"is_disabled":false,"rental_uris":{"android":"levelo://app?vid=43043987-d023-48c4-b123-40588d2dcf10","ios":"levelo://app?vid=43043987-d023-48c4-b123-40588d2dcf10"},"vehicle_type_id":"4","last_reported":1732886399,"current_range_meters":40000,"station_id":"ce4bgh92rcd13ifvqb50","pricing_plan_id":"cebpf4jnsgd1na2vs0mg"},{"bike_id":"a7d03a36-f2d2-4ec9-b8cc-dcb186ac26fd","system_id":"levelo_inurba_marseille","lat":43.30546,"lon":5.36727,"is_reserved":false,"is_disabled":true,"rental_uris":{"android":"levelo://app?vid=a7d03a36-f2d2-4ec9-b8cc-dcb186ac26fd","ios":"levelo://app?vid=a7d03a36-f2d2-4ec9-b8cc-dcb186ac26fd"},"vehicle_type_id":"4","last_reported":1732886399,"current_range_meters":36800,"station_id":"ce4bgrp2rcd13ifvqc9g","pricing_plan_id":"cebpf4jnsgd1na2vs0mg"},{"bike_id":"372dcf13-a9c5-4d94-8b71-13decc646750","system_id":"levelo_inurba_marseille","lat":43.30532,"lon":5.36544,"is_reserved":false,"is_disabled":false,"rental_uris":{"android":"levelo://app?vid=372dcf13-a9c5-4d94-8b71-13decc646750","ios":"levelo://app?vid=372dcf13-a9c5-4d94-8b71-13decc646750"},"vehicle_type_id":"4","last_reported":1732886399,"current_range_meters":7200,"station_id":"ce4bgs12rcd13ifvqcag","pricing_plan_id":"cebpf4jnsgd1na2vs0mg"},{"bike_id":"9e5deb92-88f7-47b2-9ca4-1eec45d8d6ab","system_id":"levelo_inurba_marseille","lat":43.31479,"lon":5.37307,"is_reserved":false,"is_disabled":false,"rental_uris":{"android":"levelo://app?vid=9e5deb92-88f7-47b2-9ca4-1eec45d8d6ab","ios":"levelo://app?vid=9e5deb92-88f7-47b2-9ca4-1eec45d8d6ab"},"vehicle_type_id":"4","last_reported":1732886399,"current_range_meters":24400,"station_id":"ce4bgt12rcd13ifvqcd0","pricing_plan_id":"cebpf4jnsgd1na2vs0mg"},{"bike_id":"a5909545-3e09-4859-9fda-9ffe4e6e4883","system_id":"levelo_inurba_marseille","lat":43.23066,"lon":5.35491,"is_reserved":false,"is_disabled":false,"rental_uris":{"android":"levelo://app?vid=a5909545-3e09-4859-9fda-9ffe4e6e4883","ios":"levelo://app?vid=a5909545-3e09-4859-9fda-9ffe4e6e4883"},"vehicle_type_id":"4","last_reported":1732886399,"current_range_meters":17200,"station_id":"cpo3342slgdg3j2ifvpg","pricing_plan_id":"cebpf4jnsgd1na2vs0mg"},{"bike_id":"50f7e2aa-92c2-4bd2-a2a0-3b5b70e10fb6","system_id":"levelo_inurba_marseille","lat":43.29707,"lon":5.36616,"is_reserved":false,"is_disabled":false,"rental_uris":{"android":"levelo://app?vid=50f7e2aa-92c2-4bd2-a2a0-3b5b70e10fb6","ios":"levelo://app?vid=50f7e2aa-92c2-4bd2-a2a0-3b5b70e10fb6"},"vehicle_type_id":"4","last_reported":1732886399,"current_range_meters":16800,"station_id":"ce4bgn12rcd13ifvqbt0","pricing_plan_id":"cebpf4jnsgd1na2vs0mg"},{"bike_id":"c79e9016-c771-4ca5-97b0-4cb56342be14","system_id":"levelo_inurba_marseille","lat":43.32466,"lon":5.36555,"is_reserved":false,"is_disabled":false,"rental_uris":{"android":"levelo://app?vid=c79e9016-c771-4ca5-97b0-4cb56342be14","ios":"levelo://app?vid=c79e9016-c771-4ca5-97b0-4cb56342be14"},"vehicle_type_id":"4","last_reported":1732886399,"current_range_meters":39200,"station_id":"ce4bhs12rcd13ifvqhvg","pricing_plan_id":"cebpf4jnsgd1na2vs0mg"},{"bike_id":"1f3be82a-39fb-49be-9f70-2df7092d6f3c","system_id":"levelo_inurba_marseille","lat":43.32466,"lon":5.36555,"is_reserved":false,"is_disabled":false,"rental_uris":{"android":"levelo://app?vid=1f3be82a-39fb-49be-9f70-2df7092d6f3c","ios":"levelo://app?vid=1f3be82a-39fb-49be-9f70-2df7092d6f3c"},"vehicle_type_id":"4","last_reported":1732886399,"current_range_meters":12000,"station_id":"ce4bhs12rcd13ifvqhvg","pricing_plan_id":"cebpf4jnsgd1na2vs0mg"},{"bike_id":"37475370-f09f-490e-a936-eb8359ed9c62","system_id":"levelo_inurba_marseille","lat":43.32543,"lon":5.4145,"is_reserved":false,"is_disabled":false,"rental_uris":{"android":"levelo://app?vid=37475370-f09f-490e-a936-eb8359ed9c62","ios":"levelo://app?vid=37475370-f09f-490e-a936-eb8359ed9c62"},"vehicle_type_id":"4","last_reported":1732886399,"current_range_meters":29600,"station_id":"ce4bhq12rcd13ifvqhhg","pricing_plan_id":"cebpf4jnsgd1na2vs0mg"},{"bike_id":"d232b51f-8a91-4fe2-8e93-1d5ea369822b","system_id":"levelo_inurba_marseille","lat":43.23145,"lon":5.4371,"is_reserved":false,"is_disabled":false,"rental_uris":{"android":"levelo://app?vid=d232b51f-8a91-4fe2-8e93-1d5ea369822b","ios":"levelo://app?vid=d232b51f-8a91-4fe2-8e93-1d5ea369822b"},"vehicle_type_id":"4","last_reported":1732886399,"current_range_meters":33200,"station_id":"ce4bhmp2rcd13ifvqgog","pricing_plan_id":"cebpf4jnsgd1na2vs0mg"},{"bike_id":"e5951ee3-4a5a-4ebb-b469-096c5188dfa3","system_id":"levelo_inurba_marseille","lat":43.23191,"lon":5.35581,"is_reserved":false,"is_disabled":false,"rental_uris":{"android":"levelo://app?vid=e5951ee3-4a5a-4ebb-b469-096c5188dfa3","ios":"levelo://app?vid=e5951ee3-4a5a-4ebb-b469-096c5188dfa3"},"vehicle_type_id":"4","last_reported":1732886399,"current_range_meters":24000,"station_id":"ce4bhu92rcd13ifvqi70","pricing_plan_id":"cebpf4jnsgd1na2vs0mg"},{"bike_id":"f9a63393-5401-4f98-ae5a-dfbb8291ab6d","system_id":"levelo_inurba_marseille","lat":43.3004,"lon":5.37551,"is_reserved":false,"is_disabled":true,"rental_uris":{"android":"levelo://app?vid=f9a63393-5401-4f98-ae5a-dfbb8291ab6d","ios":"levelo://app?vid=f9a63393-5401-4f98-ae5a-dfbb8291ab6d"},"vehicle_type_id":"4","last_reported":1732886399,"current_range_meters":0,"station_id":"","pricing_plan_id":"cebpf4jnsgd1na2vs0mg"},{"bike_id":"5f2fb45b-2796-481d-8fc6-5b88a4ff1318","system_id":"levelo_inurba_marseille","lat":43.28688,"lon":5.37392,"is_reserved":false,"is_disabled":false,"rental_uris":{"android":"levelo://app?vid=5f2fb45b-2796-481d-8fc6-5b88a4ff1318","ios":"levelo://app?vid=5f2fb45b-2796-481d-8fc6-5b88a4ff1318"},"vehicle_type_id":"4","last_reported":1732886399,"current_range_meters":16800,"station_id":"ce4bh3p2rcd13ifvqdq0","pricing_plan_id":"cebpf4jnsgd1na2vs0mg"},{"bike_id":"f6a89ac6-e5c8-412c-95fb-af2736b04af2","system_id":"levelo_inurba_marseille","lat":43.28845,"lon":5.35851,"is_reserved":false,"is_disabled":false,"rental_uris":{"android":"levelo://app?vid=f6a89ac6-e5c8-412c-95fb-af2736b04af2","ios":"levelo://app?vid=f6a89ac6-e5c8-412c-95fb-af2736b04af2"},"vehicle_type_id":"4","last_reported":1732886399,"current_range_meters":38400,"station_id":"ce4bhb12rcd13ifvqem0","pricing_plan_id":"cebpf4jnsgd1na2vs0mg"},{"bike_id":"ca4a62cc-0162-4867-baae-5fed586cc0f8","system_id":"levelo_inurba_marseille","lat":43.27176,"lon":5.40993,"is_reserved":false,"is_disabled":false,"rental_uris":{"android":"levelo://app?vid=ca4a62cc-0162-4867-baae-5fed586cc0f8","ios":"levelo://app?vid=ca4a62cc-0162-4867-baae-5fed586cc0f8"},"vehicle_type_id":"4","last_reported":1732886399,"current_range_meters":19600,"station_id":"ce4bhl12rcd13ifvqgf0","pricing_plan_id":"cebpf4jnsgd1na2vs0mg"},{"bike_id":"209edce5-94bd-42b7-894c-233f806592a5","system_id":"levelo_inurba_marseille","lat":43.3236,"lon":5.36759,"is_reserved":false,"is_disabled":false,"rental_uris":{"android":"levelo://app?vid=209edce5-94bd-42b7-894c-233f806592a5","ios":"levelo://app?vid=209edce5-94bd-42b7-894c-233f806592a5"},"vehicle_type_id":"4","last_reported":1732886399,"current_range_meters":34000,"station_id":"ce4bhsh2rcd13ifvqi2g","pricing_plan_id":"cebpf4jnsgd1na2vs0mg"},{"bike_id":"cb90edb8-6b97-4f13-aaf4-7fc553c35336","system_id":"levelo_inurba_marseille","lat":43.31721,"lon":5.37795,"is_reserved":false,"is_disabled":false,"rental_uris":{"android":"levelo://app?vid=cb90edb8-6b97-4f13-aaf4-7fc553c35336","ios":"levelo://app?vid=cb90edb8-6b97-4f13-aaf4-7fc553c35336"},"vehicle_type_id":"4","last_reported":1732886399,"current_range_meters":38000,"station_id":"ce4bgth2rcd13ifvqch0","pricing_plan_id":"cebpf4jnsgd1na2vs0mg"},{"bike_id":"cb591b45-0e8e-463f-b18b-b318f5f30bcf","system_id":"levelo_inurba_marseille","lat":43.303406,"lon":5.404368,"is_reserved":false,"is_disabled":false,"rental_uris":{"android":"levelo://app?vid=cb591b45-0e8e-463f-b18b-b318f5f30bcf","ios":"levelo://app?vid=cb591b45-0e8e-463f-b18b-b318f5f30bcf"},"vehicle_type_id":"4","last_reported":1732886399,"current_range_meters":34800,"station_id":"ce4bh012rcd13ifvqd10","pricing_plan_id":"cebpf4jnsgd1na2vs0mg"},{"bike_id":"574ba74e-ea23-46d4-a8f2-5a26caa49dfa","system_id":"levelo_inurba_marseille","lat":43.29894,"lon":5.43664,"is_reserved":false,"is_disabled":false,"rental_uris":{"android":"levelo://app?vid=574ba74e-ea23-46d4-a8f2-5a26caa49dfa","ios":"levelo://app?vid=574ba74e-ea23-46d4-a8f2-5a26caa49dfa"},"vehicle_type_id":"4","last_reported":1732886399,"current_range_meters":30000,"station_id":"ce4bhpp2rcd13ifvqhfg","pricing_plan_id":"cebpf4jnsgd1na2vs0mg"},{"bike_id":"de8dedfd-c65e-4ce5-b8ec-b5ab34a22a6e","system_id":"levelo_inurba_marseille","lat":43.27069,"lon":5.42279,"is_reserved":false,"is_disabled":true,"rental_uris":{"android":"levelo://app?vid=de8dedfd-c65e-4ce5-b8ec-b5ab34a22a6e","ios":"levelo://app?vid=de8dedfd-c65e-4ce5-b8ec-b5ab34a22a6e"},"vehicle_type_id":"4","last_reported":1732886399,"current_range_meters":40000,"station_id":"ce4bhk92rcd13ifvqgb0","pricing_plan_id":"cebpf4jnsgd1na2vs0mg"},{"bike_id":"c56462b0-0d83-40ff-b3da-0fad2f2a21ab","system_id":"levelo_inurba_marseille","lat":43.28614,"lon":5.35103,"is_reserved":false,"is_disabled":false,"rental_uris":{"android":"levelo://app?vid=c56462b0-0d83-40ff-b3da-0fad2f2a21ab","ios":"levelo://app?vid=c56462b0-0d83-40ff-b3da-0fad2f2a21ab"},"vehicle_type_id":"4","last_reported":1732886399,"current_range_meters":12000,"station_id":"ce4bhch2rcd13ifvqeug","pricing_plan_id":"cebpf4jnsgd1na2vs0mg"},{"bike_id":"9085d3b8-955c-41c5-b461-078a4523f2e0","system_id":"levelo_inurba_marseille","lat":43.28566,"lon":5.39502,"is_reserved":false,"is_disabled":false,"rental_uris":{"android":"levelo://app?vid=9085d3b8-955c-41c5-b461-078a4523f2e0","ios":"levelo://app?vid=9085d3b8-955c-41c5-b461-078a4523f2e0"},"vehicle_type_id":"4","last_reported":1732886399,"current_range_meters":33600,"station_id":"ce4bh292rcd13ifvqdg0","pricing_plan_id":"cebpf4jnsgd1na2vs0mg"},{"bike_id":"499759e4-ecf7-4f9a-aa86-c5cd0208e09a","system_id":"levelo_inurba_marseille","lat":43.25227,"lon":5.40256,"is_reserved":false,"is_disabled":false,"rental_uris":{"android":"levelo://app?vid=499759e4-ecf7-4f9a-aa86-c5cd0208e09a","ios":"levelo://app?vid=499759e4-ecf7-4f9a-aa86-c5cd0208e09a"},"vehicle_type_id":"4","last_reported":1732886399,"current_range_meters":20400,"station_id":"ce4bhlh2rcd13ifvqgig","pricing_plan_id":"cebpf4jnsgd1na2vs0mg"},{"bike_id":"f576f1ac-9441-4aaf-9239-99d550cb7b55","system_id":"levelo_inurba_marseille","lat":43.31711,"lon":5.37746,"is_reserved":false,"is_disabled":true,"rental_uris":{"android":"levelo://app?vid=f576f1ac-9441-4aaf-9239-99d550cb7b55","ios":"levelo://app?vid=f576f1ac-9441-4aaf-9239-99d550cb7b55"},"vehicle_type_id":"4","last_reported":1732886399,"current_range_meters":28000,"station_id":"ce4bgth2rcd13ifvqch0","pricing_plan_id":"cebpf4jnsgd1na2vs0mg"},{"bike_id":"47a43e08-c0ab-48e4-8264-39798859023a","system_id":"levelo_inurba_marseille","lat":43.29236,"lon":5.3609,"is_reserved":false,"is_disabled":false,"rental_uris":{"android":"levelo://app?vid=47a43e08-c0ab-48e4-8264-39798859023a","ios":"levelo://app?vid=47a43e08-c0ab-48e4-8264-39798859023a"},"vehicle_type_id":"4","last_reported":1732886399,"current_range_meters":27600,"station_id":"ce4bhbh2rcd13ifvqeqg","pricing_plan_id":"cebpf4jnsgd1na2vs0mg"},{"bike_id":"d1fd7c18-081f-4165-90f6-fbb5157ea749","system_id":"levelo_inurba_marseille","lat":43.27974,"lon":5.38755,"is_reserved":false,"is_disabled":true,"rental_uris":{"android":"levelo://app?vid=d1fd7c18-081f-4165-90f6-fbb5157ea749","ios":"levelo://app?vid=d1fd7c18-081f-4165-90f6-fbb5157ea749"},"vehicle_type_id":"4","last_reported":1732886399,"current_range_meters":0,"station_id":"ce4bhg12rcd13ifvqf80","pricing_plan_id":"cebpf4jnsgd1na2vs0mg"},{"bike_id":"e8ed374e-7eef-490d-82c4-99d6f9a19e35","system_id":"levelo_inurba_marseille","lat":43.26568,"lon":5.39008,"is_reserved":false,"is_disabled":false,"rental_uris":{"android":"levelo://app?vid=e8ed374e-7eef-490d-82c4-99d6f9a19e35","ios":"levelo://app?vid=e8ed374e-7eef-490d-82c4-99d6f9a19e35"},"vehicle_type_id":"4","last_reported":1732886399,"current_range_meters":12400,"station_id":"ce4bhe12rcd13ifvqf30","pricing_plan_id":"cebpf4jnsgd1na2vs0mg"},{"bike_id":"6566ed95-6be6-4f77-aa33-c02f465823a7","system_id":"levelo_inurba_marseille","lat":43.33887,"lon":5.38096,"is_reserved":false,"is_disabled":true,"rental_uris":{"android":"levelo://app?vid=6566ed95-6be6-4f77-aa33-c02f465823a7","ios":"levelo://app?vid=6566ed95-6be6-4f77-aa33-c02f465823a7"},"vehicle_type_id":"4","last_reported":1732886399,"current_range_meters":8000,"station_id":"","pricing_plan_id":"cebpf4jnsgd1na2vs0mg"},{"bike_id":"cf002d38-17c9-44fd-9354-c7910c4bd3ff","system_id":"levelo_inurba_marseille","lat":43.33028,"lon":5.3904,"is_reserved":false,"is_disabled":false,"rental_uris":{"android":"levelo://app?vid=cf002d38-17c9-44fd-9354-c7910c4bd3ff","ios":"levelo://app?vid=cf002d38-17c9-44fd-9354-c7910c4bd3ff"},"vehicle_type_id":"4","last_reported":1732886399,"current_range_meters":28000,"station_id":"ce4bhr92rcd13ifvqhrg","pricing_plan_id":"cebpf4jnsgd1na2vs0mg"},{"bike_id":"c0091e9d-d71c-485d-a091-a465eed155dc","system_id":"levelo_inurba_marseille","lat":43.23961,"lon":5.36634,"is_reserved":false,"is_disabled":false,"rental_uris":{"android":"levelo://app?vid=c0091e9d-d71c-485d-a091-a465eed155dc","ios":"levelo://app?vid=c0091e9d-d71c-485d-a091-a465eed155dc"},"vehicle_type_id":"4","last_reported":1732886399,"current_range_meters":19600,"station_id":"ce4bhi12rcd13ifvqfp0","pricing_plan_id":"cebpf4jnsgd1na2vs0mg"},{"bike_id":"43746d86-8a13-4845-9faf-ae69b548d714","system_id":"levelo_inurba_marseille","lat":43.29459,"lon":5.37917,"is_reserved":false,"is_disabled":true,"rental_uris":{"android":"levelo://app?vid=43746d86-8a13-4845-9faf-ae69b548d714","ios":"levelo://app?vid=43746d86-8a13-4845-9faf-ae69b548d714"},"vehicle_type_id":"4","last_reported":1732886399,"current_range_meters":0,"station_id":"","pricing_plan_id":"cebpf4jnsgd1na2vs0mg"},{"bike_id":"c41e9656-284b-4495-ac9b-461982f10d89","system_id":"levelo_inurba_marseille","lat":43.268033,"lon":5.402563,"is_reserved":false,"is_disabled":false,"rental_uris":{"android":"levelo://app?vid=c41e9656-284b-4495-ac9b-461982f10d89","ios":"levelo://app?vid=c41e9656-284b-4495-ac9b-461982f10d89"},"vehicle_type_id":"4","last_reported":1732886399,"current_range_meters":35600,"station_id":"ce501612rcd8frsf0b60","pricing_plan_id":"cebpf4jnsgd1na2vs0mg"},{"bike_id":"b3d47772-058e-4a8e-91f3-3d5c2a953fbb","system_id":"levelo_inurba_marseille","lat":43.25868,"lon":5.39897,"is_reserved":false,"is_disabled":false,"rental_uris":{"android":"levelo://app?vid=b3d47772-058e-4a8e-91f3-3d5c2a953fbb","ios":"levelo://app?vid=b3d47772-058e-4a8e-91f3-3d5c2a953fbb"},"vehicle_type_id":"4","last_reported":1732886399,"current_range_meters":37600,"station_id":"ce4bhl92rcd13ifvqghg","pricing_plan_id":"cebpf4jnsgd1na2vs0mg"},{"bike_id":"124ff083-de96-48c3-be8a-967f23c1e374","system_id":"levelo_inurba_marseille","lat":43.25083,"lon":5.39519,"is_reserved":false,"is_disabled":false,"rental_uris":{"android":"levelo://app?vid=124ff083-de96-48c3-be8a-967f23c1e374","ios":"levelo://app?vid=124ff083-de96-48c3-be8a-967f23c1e374"},"vehicle_type_id":"4","last_reported":1732886399,"current_range_meters":32000,"station_id":"ce4bhm12rcd13ifvqgkg","pricing_plan_id":"cebpf4jnsgd1na2vs0mg"},{"bike_id":"5dde6864-6705-4fe1-9e79-ee4ed65a6a50","system_id":"levelo_inurba_marseille","lat":43.24553,"lon":5.39526,"is_reserved":false,"is_disabled":false,"rental_uris":{"android":"levelo://app?vid=5dde6864-6705-4fe1-9e79-ee4ed65a6a50","ios":"levelo://app?vid=5dde6864-6705-4fe1-9e79-ee4ed65a6a50"},"vehicle_type_id":"4","last_reported":1732886399,"current_range_meters":38800,"station_id":"ce4bhlp2rcd13ifvqgjg","pricing_plan_id":"cebpf4jnsgd1na2vs0mg"},{"bike_id":"cbc09d15-cbe6-4fdb-b51f-29ae26f0c164","system_id":"levelo_inurba_marseille","lat":43.30425,"lon":5.39733,"is_reserved":false,"is_disabled":false,"rental_uris":{"android":"levelo://app?vid=cbc09d15-cbe6-4fdb-b51f-29ae26f0c164","ios":"levelo://app?vid=cbc09d15-cbe6-4fdb-b51f-29ae26f0c164"},"vehicle_type_id":"4","last_reported":1732886399,"current_range_meters":22400,"station_id":"ce4bh092rcd13ifvqd20","pricing_plan_id":"cebpf4jnsgd1na2vs0mg"},{"bike_id":"14287adc-de41-45e7-980d-038993d4cbdf","system_id":"levelo_inurba_marseille","lat":43.29421,"lon":5.38617,"is_reserved":false,"is_disabled":false,"rental_uris":{"android":"levelo://app?vid=14287adc-de41-45e7-980d-038993d4cbdf","ios":"levelo://app?vid=14287adc-de41-45e7-980d-038993d4cbdf"},"vehicle_type_id":"4","last_reported":1732886399,"current_range_meters":16400,"station_id":"ce4bh2h2rcd13ifvqdh0","pricing_plan_id":"cebpf4jnsgd1na2vs0mg"},{"bike_id":"ce2cbe83-d655-42ce-9474-8c63e0a4885d","system_id":"levelo_inurba_marseille","lat":43.25502,"lon":5.37652,"is_reserved":false,"is_disabled":false,"rental_uris":{"android":"levelo://app?vid=ce2cbe83-d655-42ce-9474-8c63e0a4885d","ios":"levelo://app?vid=ce2cbe83-d655-42ce-9474-8c63e0a4885d"},"vehicle_type_id":"4","last_reported":1732886399,"current_range_meters":37600,"station_id":"ce4bhh12rcd13ifvqff0","pricing_plan_id":"cebpf4jnsgd1na2vs0mg"},{"bike_id":"878ce170-a694-4ee0-ad4a-9db0615642b5","system_id":"levelo_inurba_marseille","lat":43.27053,"lon":5.40269,"is_reserved":false,"is_disabled":false,"rental_uris":{"android":"levelo://app?vid=878ce170-a694-4ee0-ad4a-9db0615642b5","ios":"levelo://app?vid=878ce170-a694-4ee0-ad4a-9db0615642b5"},"vehicle_type_id":"4","last_reported":1732886399,"current_range_meters":36800,"station_id":"ce4bhk92rcd13ifvqgc0","pricing_plan_id":"cebpf4jnsgd1na2vs0mg"},{"bike_id":"af56207f-0eb5-4af5-a980-e98104e8cfd6","system_id":"levelo_inurba_marseille","lat":43.26567,"lon":5.3901,"is_reserved":false,"is_disabled":true,"rental_uris":{"android":"levelo://app?vid=af56207f-0eb5-4af5-a980-e98104e8cfd6","ios":"levelo://app?vid=af56207f-0eb5-4af5-a980-e98104e8cfd6"},"vehicle_type_id":"4","last_reported":1732886399,"current_range_meters":800,"station_id":"ce4bhe12rcd13ifvqf30","pricing_plan_id":"cebpf4jnsgd1na2vs0mg"},{"bike_id":"23ca8048-d8f8-4e44-b33c-fae53215af9c","system_id":"levelo_inurba_marseille","lat":43.2621,"lon":5.37439,"is_reserved":false,"is_disabled":false,"rental_uris":{"android":"levelo://app?vid=23ca8048-d8f8-4e44-b33c-fae53215af9c","ios":"levelo://app?vid=23ca8048-d8f8-4e44-b33c-fae53215af9c"},"vehicle_type_id":"4","last_reported":1732886399,"current_range_meters":14400,"station_id":"ce4bhgp2rcd13ifvqfc0","pricing_plan_id":"cebpf4jnsgd1na2vs0mg"},{"bike_id":"56c05e12-e2c5-4e7b-b2fe-223399f95133","system_id":"levelo_inurba_marseille","lat":43.26562,"lon":5.3901,"is_reserved":false,"is_disabled":false,"rental_uris":{"android":"levelo://app?vid=56c05e12-e2c5-4e7b-b2fe-223399f95133","ios":"levelo://app?vid=56c05e12-e2c5-4e7b-b2fe-223399f95133"},"vehicle_type_id":"4","last_reported":1732886399,"current_range_meters":6800,"station_id":"ce4bhe12rcd13ifvqf30","pricing_plan_id":"cebpf4jnsgd1na2vs0mg"},{"bike_id":"fc4d15f5-6256-45a3-90d6-77bb4c676955","system_id":"levelo_inurba_marseille","lat":43.296284,"lon":5.377877,"is_reserved":false,"is_disabled":true,"rental_uris":{"android":"levelo://app?vid=fc4d15f5-6256-45a3-90d6-77bb4c676955","ios":"levelo://app?vid=fc4d15f5-6256-45a3-90d6-77bb4c676955"},"vehicle_type_id":"4","last_reported":1732886399,"current_range_meters":28800,"station_id":"","pricing_plan_id":"cebpf4jnsgd1na2vs0mg"},{"bike_id":"c88f8730-1176-4717-97e2-17c27b15274f","system_id":"levelo_inurba_marseille","lat":43.23198,"lon":5.35549,"is_reserved":false,"is_disabled":false,"rental_uris":{"android":"levelo://app?vid=c88f8730-1176-4717-97e2-17c27b15274f","ios":"levelo://app?vid=c88f8730-1176-4717-97e2-17c27b15274f"},"vehicle_type_id":"4","last_reported":1732886399,"current_range_meters":39200,"station_id":"ce4bhu92rcd13ifvqi70","pricing_plan_id":"cebpf4jnsgd1na2vs0mg"},{"bike_id":"faf30a4c-11fd-4622-999c-0261f23280bf","system_id":"levelo_inurba_marseille","lat":43.308099,"lon":5.381482,"is_reserved":false,"is_disabled":false,"rental_uris":{"android":"levelo://app?vid=faf30a4c-11fd-4622-999c-0261f23280bf","ios":"levelo://app?vid=faf30a4c-11fd-4622-999c-0261f23280bf"},"vehicle_type_id":"4","last_reported":1732886399,"current_range_meters":8800,"station_id":"ce4bgt12rcd13ifvqce0","pricing_plan_id":"cebpf4jnsgd1na2vs0mg"},{"bike_id":"e9b9e2a2-8ccb-4a7b-b43b-4ab2fc5fe2cd","system_id":"levelo_inurba_marseille","lat":43.28351,"lon":5.3811,"is_reserved":false,"is_disabled":false,"rental_uris":{"android":"levelo://app?vid=e9b9e2a2-8ccb-4a7b-b43b-4ab2fc5fe2cd","ios":"levelo://app?vid=e9b9e2a2-8ccb-4a7b-b43b-4ab2fc5fe2cd"},"vehicle_type_id":"4","last_reported":1732886399,"current_range_meters":3600,"station_id":"ce4bh412rcd13ifvqdr0","pricing_plan_id":"cebpf4jnsgd1na2vs0mg"},{"bike_id":"6efcd3b3-109d-411c-9c82-ac1c338aa322","system_id":"levelo_inurba_marseille","lat":43.2993,"lon":5.36538,"is_reserved":false,"is_disabled":false,"rental_uris":{"android":"levelo://app?vid=6efcd3b3-109d-411c-9c82-ac1c338aa322","ios":"levelo://app?vid=6efcd3b3-109d-411c-9c82-ac1c338aa322"},"vehicle_type_id":"4","last_reported":1732886399,"current_range_meters":22400,"station_id":"ce4bgm92rcd13ifvqbr0","pricing_plan_id":"cebpf4jnsgd1na2vs0mg"},{"bike_id":"5547a441-9653-482c-905c-97a54076438b","system_id":"levelo_inurba_marseille","lat":43.32363,"lon":5.36757,"is_reserved":false,"is_disabled":false,"rental_uris":{"android":"levelo://app?vid=5547a441-9653-482c-905c-97a54076438b","ios":"levelo://app?vid=5547a441-9653-482c-905c-97a54076438b"},"vehicle_type_id":"4","last_reported":1732886399,"current_range_meters":21600,"station_id":"ce4bhsh2rcd13ifvqi2g","pricing_plan_id":"cebpf4jnsgd1na2vs0mg"},{"bike_id":"e2e99e42-ed6d-4f02-abba-c3f5cf725b4e","system_id":"levelo_inurba_marseille","lat":43.27996,"lon":5.41667,"is_reserved":false,"is_disabled":true,"rental_uris":{"android":"levelo://app?vid=e2e99e42-ed6d-4f02-abba-c3f5cf725b4e","ios":"levelo://app?vid=e2e99e42-ed6d-4f02-abba-c3f5cf725b4e"},"vehicle_type_id":"4","last_reported":1732886399,"current_range_meters":1600,"station_id":"ce4bho12rcd13ifvqh1g","pricing_plan_id":"cebpf4jnsgd1na2vs0mg"},{"bike_id":"8153fba5-77b7-4398-853f-58f1d8c5b75a","system_id":"levelo_inurba_marseille","lat":43.25002,"lon":5.38915,"is_reserved":false,"is_disabled":false,"rental_uris":{"android":"levelo://app?vid=8153fba5-77b7-4398-853f-58f1d8c5b75a","ios":"levelo://app?vid=8153fba5-77b7-4398-853f-58f1d8c5b75a"},"vehicle_type_id":"4","last_reported":1732886399,"current_range_meters":28000,"station_id":"ce4bhgp2rcd13ifvqfd0","pricing_plan_id":"cebpf4jnsgd1na2vs0mg"},{"bike_id":"b0b2b06e-bae2-48f5-9681-49c5c3ebcac9","system_id":"levelo_inurba_marseille","lat":43.29879,"lon":5.38914,"is_reserved":false,"is_disabled":true,"rental_uris":{"android":"levelo://app?vid=b0b2b06e-bae2-48f5-9681-49c5c3ebcac9","ios":"levelo://app?vid=b0b2b06e-bae2-48f5-9681-49c5c3ebcac9"},"vehicle_type_id":"4","last_reported":1732886399,"current_range_meters":23200,"station_id":"ce4bh392rcd13ifvqdl0","pricing_plan_id":"cebpf4jnsgd1na2vs0mg"},{"bike_id":"3a4e6c41-3f77-4254-abd4-29776dd71545","system_id":"levelo_inurba_marseille","lat":43.30534,"lon":5.3655,"is_reserved":false,"is_disabled":false,"rental_uris":{"android":"levelo://app?vid=3a4e6c41-3f77-4254-abd4-29776dd71545","ios":"levelo://app?vid=3a4e6c41-3f77-4254-abd4-29776dd71545"},"vehicle_type_id":"4","last_reported":1732886399,"current_range_meters":38800,"station_id":"ce4bgs12rcd13ifvqcag","pricing_plan_id":"cebpf4jnsgd1na2vs0mg"},{"bike_id":"2545b486-f597-4ecd-8508-05df785b0c49","system_id":"levelo_inurba_marseille","lat":43.33022,"lon":5.39042,"is_reserved":false,"is_disabled":false,"rental_uris":{"android":"levelo://app?vid=2545b486-f597-4ecd-8508-05df785b0c49","ios":"levelo://app?vid=2545b486-f597-4ecd-8508-05df785b0c49"},"vehicle_type_id":"4","last_reported":1732886399,"current_range_meters":30800,"station_id":"ce4bhr92rcd13ifvqhrg","pricing_plan_id":"cebpf4jnsgd1na2vs0mg"},{"bike_id":"53832248-7ea6-4cc6-856c-2b60c3f17998","system_id":"levelo_inurba_marseille","lat":43.2955,"lon":5.42299,"is_reserved":false,"is_disabled":true,"rental_uris":{"android":"levelo://app?vid=53832248-7ea6-4cc6-856c-2b60c3f17998","ios":"levelo://app?vid=53832248-7ea6-4cc6-856c-2b60c3f17998"},"vehicle_type_id":"4","last_reported":1732886399,"current_range_meters":38800,"station_id":"ce4bhph2rcd13ifvqhdg","pricing_plan_id":"cebpf4jnsgd1na2vs0mg"},{"bike_id":"cccf368c-bc21-47a3-97ca-067b09d4d5e1","system_id":"levelo_inurba_marseille","lat":43.29567,"lon":5.37529,"is_reserved":false,"is_disabled":false,"rental_uris":{"android":"levelo://app?vid=cccf368c-bc21-47a3-97ca-067b09d4d5e1","ios":"levelo://app?vid=cccf368c-bc21-47a3-97ca-067b09d4d5e1"},"vehicle_type_id":"4","last_reported":1732886399,"current_range_meters":20400,"station_id":"ce4bgh92rcd13ifvqb50","pricing_plan_id":"cebpf4jnsgd1na2vs0mg"},{"bike_id":"0ed4d3d5-6983-442d-bf3b-d66024847d0f","system_id":"levelo_inurba_marseille","lat":43.28723,"lon":5.36089,"is_reserved":false,"is_disabled":false,"rental_uris":{"android":"levelo://app?vid=0ed4d3d5-6983-442d-bf3b-d66024847d0f","ios":"levelo://app?vid=0ed4d3d5-6983-442d-bf3b-d66024847d0f"},"vehicle_type_id":"4","last_reported":1732886399,"current_range_meters":38000,"station_id":"cki0cbj6b192h4jlfktg","pricing_plan_id":"cebpf4jnsgd1na2vs0mg"},{"bike_id":"e540d39f-f384-4f93-9d9a-3423da1e5b7d","system_id":"levelo_inurba_marseille","lat":43.2606,"lon":5.394,"is_reserved":false,"is_disabled":false,"rental_uris":{"android":"levelo://app?vid=e540d39f-f384-4f93-9d9a-3423da1e5b7d","ios":"levelo://app?vid=e540d39f-f384-4f93-9d9a-3423da1e5b7d"},"vehicle_type_id":"4","last_reported":1732886399,"current_range_meters":28000,"station_id":"ce4bhh92rcd13ifvqfj0","pricing_plan_id":"cebpf4jnsgd1na2vs0mg"},{"bike_id":"92defe58-ac95-4158-a899-a1890c4e5262","system_id":"levelo_inurba_marseille","lat":43.26814,"lon":5.37126,"is_reserved":false,"is_disabled":true,"rental_uris":{"android":"levelo://app?vid=92defe58-ac95-4158-a899-a1890c4e5262","ios":"levelo://app?vid=92defe58-ac95-4158-a899-a1890c4e5262"},"vehicle_type_id":"4","last_reported":1732886399,"current_range_meters":0,"station_id":"","pricing_plan_id":"cebpf4jnsgd1na2vs0mg"},{"bike_id":"b7a23fb8-618b-4ad6-8050-42e15cecbd69","system_id":"levelo_inurba_marseille","lat":43.31355,"lon":5.38497,"is_reserved":false,"is_disabled":false,"rental_uris":{"android":"levelo://app?vid=b7a23fb8-618b-4ad6-8050-42e15cecbd69","ios":"levelo://app?vid=b7a23fb8-618b-4ad6-8050-42e15cecbd69"},"vehicle_type_id":"4","last_reported":1732886399,"current_range_meters":12800,"station_id":"ce4bgt92rcd13ifvqcf0","pricing_plan_id":"cebpf4jnsgd1na2vs0mg"},{"bike_id":"801d6fa7-20c3-4d2f-a606-397f784396cc","system_id":"levelo_inurba_marseille","lat":43.30526,"lon":5.36548,"is_reserved":false,"is_disabled":false,"rental_uris":{"android":"levelo://app?vid=801d6fa7-20c3-4d2f-a606-397f784396cc","ios":"levelo://app?vid=801d6fa7-20c3-4d2f-a606-397f784396cc"},"vehicle_type_id":"4","last_reported":1732886399,"current_range_meters":38800,"station_id":"ce4bgs12rcd13ifvqcag","pricing_plan_id":"cebpf4jnsgd1na2vs0mg"},{"bike_id":"3e09f67d-946e-423b-babf-d15387a85b28","system_id":"levelo_inurba_marseille","lat":43.29795,"lon":5.3811,"is_reserved":false,"is_disabled":false,"rental_uris":{"android":"levelo://app?vid=3e09f67d-946e-423b-babf-d15387a85b28","ios":"levelo://app?vid=3e09f67d-946e-423b-babf-d15387a85b28"},"vehicle_type_id":"4","last_reported":1732886399,"current_range_meters":20800,"station_id":"ce4bgip2rcd13ifvqbb0","pricing_plan_id":"cebpf4jnsgd1na2vs0mg"},{"bike_id":"5561d8d2-5b80-45be-85e3-5900dadb75d8","system_id":"levelo_inurba_marseille","lat":43.28415,"lon":5.34976,"is_reserved":false,"is_disabled":false,"rental_uris":{"android":"levelo://app?vid=5561d8d2-5b80-45be-85e3-5900dadb75d8","ios":"levelo://app?vid=5561d8d2-5b80-45be-85e3-5900dadb75d8"},"vehicle_type_id":"4","last_reported":1732886399,"current_range_meters":22800,"station_id":"ce4bhbh2rcd13ifvqepg","pricing_plan_id":"cebpf4jnsgd1na2vs0mg"},{"bike_id":"429eee6d-41fa-4a90-8562-87898bf23b3b","system_id":"levelo_inurba_marseille","lat":43.32477,"lon":5.3657,"is_reserved":false,"is_disabled":false,"rental_uris":{"android":"levelo://app?vid=429eee6d-41fa-4a90-8562-87898bf23b3b","ios":"levelo://app?vid=429eee6d-41fa-4a90-8562-87898bf23b3b"},"vehicle_type_id":"4","last_reported":1732886399,"current_range_meters":7200,"station_id":"ce4bhs12rcd13ifvqhvg","pricing_plan_id":"cebpf4jnsgd1na2vs0mg"},{"bike_id":"10bd7429-3f56-4a14-9f0c-a2d1b9a51f6b","system_id":"levelo_inurba_marseille","lat":43.266858,"lon":5.382756,"is_reserved":false,"is_disabled":false,"rental_uris":{"android":"levelo://app?vid=10bd7429-3f56-4a14-9f0c-a2d1b9a51f6b","ios":"levelo://app?vid=10bd7429-3f56-4a14-9f0c-a2d1b9a51f6b"},"vehicle_type_id":"4","last_reported":1732886399,"current_range_meters":24800,"station_id":"ce4bhg92rcd13ifvqf90","pricing_plan_id":"cebpf4jnsgd1na2vs0mg"},{"bike_id":"6b383577-fb8d-4c92-9bd4-fc137f4c2981","system_id":"levelo_inurba_marseille","lat":43.33717,"lon":5.39204,"is_reserved":false,"is_disabled":false,"rental_uris":{"android":"levelo://app?vid=6b383577-fb8d-4c92-9bd4-fc137f4c2981","ios":"levelo://app?vid=6b383577-fb8d-4c92-9bd4-fc137f4c2981"},"vehicle_type_id":"4","last_reported":1732886399,"current_range_meters":20000,"station_id":"ce4bhr92rcd13ifvqhsg","pricing_plan_id":"cebpf4jnsgd1na2vs0mg"},{"bike_id":"992bfbd8-2b8c-440e-8ed5-746df8826c03","system_id":"levelo_inurba_marseille","lat":43.29593,"lon":5.38099,"is_reserved":false,"is_disabled":false,"rental_uris":{"android":"levelo://app?vid=992bfbd8-2b8c-440e-8ed5-746df8826c03","ios":"levelo://app?vid=992bfbd8-2b8c-440e-8ed5-746df8826c03"},"vehicle_type_id":"4","last_reported":1732886399,"current_range_meters":30800,"station_id":"ce4bgl12rcd13ifvqbo0","pricing_plan_id":"cebpf4jnsgd1na2vs0mg"},{"bike_id":"8da00c91-5c50-4e89-a866-9cc01848d01c","system_id":"levelo_inurba_marseille","lat":43.32326,"lon":5.40636,"is_reserved":false,"is_disabled":false,"rental_uris":{"android":"levelo://app?vid=8da00c91-5c50-4e89-a866-9cc01848d01c","ios":"levelo://app?vid=8da00c91-5c50-4e89-a866-9cc01848d01c"},"vehicle_type_id":"4","last_reported":1732886399,"current_range_meters":28000,"station_id":"ce4bhq92rcd13ifvqhjg","pricing_plan_id":"cebpf4jnsgd1na2vs0mg"},{"bike_id":"4ee053d8-e119-4815-bad9-c2bb99a8ee74","system_id":"levelo_inurba_marseille","lat":43.28441,"lon":5.39207,"is_reserved":false,"is_disabled":false,"rental_uris":{"android":"levelo://app?vid=4ee053d8-e119-4815-bad9-c2bb99a8ee74","ios":"levelo://app?vid=4ee053d8-e119-4815-bad9-c2bb99a8ee74"},"vehicle_type_id":"4","last_reported":1732886399,"current_range_meters":24400,"station_id":"ce4bhoh2rcd13ifvqh5g","pricing_plan_id":"cebpf4jnsgd1na2vs0mg"},{"bike_id":"fbb69a76-9f06-4ea3-954f-7f4b2f1d4bea","system_id":"levelo_inurba_marseille","lat":43.22926,"lon":5.35376,"is_reserved":false,"is_disabled":false,"rental_uris":{"android":"levelo://app?vid=fbb69a76-9f06-4ea3-954f-7f4b2f1d4bea","ios":"levelo://app?vid=fbb69a76-9f06-4ea3-954f-7f4b2f1d4bea"},"vehicle_type_id":"4","last_reported":1732886399,"current_range_meters":37600,"station_id":"cpo3532slgdg3j2ikp40","pricing_plan_id":"cebpf4jnsgd1na2vs0mg"},{"bike_id":"7f40d311-925e-4569-bfac-14159180b7a5","system_id":"levelo_inurba_marseille","lat":43.25868,"lon":5.399,"is_reserved":false,"is_disabled":false,"rental_uris":{"android":"levelo://app?vid=7f40d311-925e-4569-bfac-14159180b7a5","ios":"levelo://app?vid=7f40d311-925e-4569-bfac-14159180b7a5"},"vehicle_type_id":"4","last_reported":1732886399,"current_range_meters":38800,"station_id":"ce4bhl92rcd13ifvqghg","pricing_plan_id":"cebpf4jnsgd1na2vs0mg"},{"bike_id":"9e944db9-d48e-4848-b5fa-4af701aee80b","system_id":"levelo_inurba_marseille","lat":48.80797,"lon":2.40127,"is_reserved":false,"is_disabled":true,"rental_uris":{"android":"levelo://app?vid=9e944db9-d48e-4848-b5fa-4af701aee80b","ios":"levelo://app?vid=9e944db9-d48e-4848-b5fa-4af701aee80b"},"vehicle_type_id":"4","last_reported":1732886399,"current_range_meters":19200,"station_id":"","pricing_plan_id":"cebpf4jnsgd1na2vs0mg"},{"bike_id":"4455a78f-0893-4871-adb5-cb36246e80c9","system_id":"levelo_inurba_marseille","lat":43.23154,"lon":5.43719,"is_reserved":false,"is_disabled":false,"rental_uris":{"android":"levelo://app?vid=4455a78f-0893-4871-adb5-cb36246e80c9","ios":"levelo://app?vid=4455a78f-0893-4871-adb5-cb36246e80c9"},"vehicle_type_id":"4","last_reported":1732886399,"current_range_meters":7200,"station_id":"ce4bhmp2rcd13ifvqgog","pricing_plan_id":"cebpf4jnsgd1na2vs0mg"},{"bike_id":"9f9389d1-0a23-44d9-a6a2-c1a6bf8ddae7","system_id":"levelo_inurba_marseille","lat":43.29784,"lon":5.39341,"is_reserved":false,"is_disabled":false,"rental_uris":{"android":"levelo://app?vid=9f9389d1-0a23-44d9-a6a2-c1a6bf8ddae7","ios":"levelo://app?vid=9f9389d1-0a23-44d9-a6a2-c1a6bf8ddae7"},"vehicle_type_id":"4","last_reported":1732886399,"current_range_meters":22800,"station_id":"chh1huq6cuj3fo74tm60","pricing_plan_id":"cebpf4jnsgd1na2vs0mg"},{"bike_id":"66d83529-a29a-4480-ac7a-6e5820ed86e7","system_id":"levelo_inurba_marseille","lat":43.29847,"lon":5.36287,"is_reserved":false,"is_disabled":false,"rental_uris":{"android":"levelo://app?vid=66d83529-a29a-4480-ac7a-6e5820ed86e7","ios":"levelo://app?vid=66d83529-a29a-4480-ac7a-6e5820ed86e7"},"vehicle_type_id":"4","last_reported":1732886399,"current_range_meters":33200,"station_id":"ce4bgpp2rcd13ifvqc3g","pricing_plan_id":"cebpf4jnsgd1na2vs0mg"},{"bike_id":"513174f9-8400-446c-9ecb-cb2c8b665b67","system_id":"levelo_inurba_marseille","lat":43.24071,"lon":5.3776,"is_reserved":false,"is_disabled":false,"rental_uris":{"android":"levelo://app?vid=513174f9-8400-446c-9ecb-cb2c8b665b67","ios":"levelo://app?vid=513174f9-8400-446c-9ecb-cb2c8b665b67"},"vehicle_type_id":"4","last_reported":1732886399,"current_range_meters":2000,"station_id":"ce4bhnp2rcd13ifvqgvg","pricing_plan_id":"cebpf4jnsgd1na2vs0mg"},{"bike_id":"c030decd-11be-4119-810a-9ec743dccc87","system_id":"levelo_inurba_marseille","lat":43.29704,"lon":5.36613,"is_reserved":false,"is_disabled":false,"rental_uris":{"android":"levelo://app?vid=c030decd-11be-4119-810a-9ec743dccc87","ios":"levelo://app?vid=c030decd-11be-4119-810a-9ec743dccc87"},"vehicle_type_id":"4","last_reported":1732886399,"current_range_meters":37600,"station_id":"ce4bgn12rcd13ifvqbt0","pricing_plan_id":"cebpf4jnsgd1na2vs0mg"},{"bike_id":"c357b476-34b1-4241-b06a-701851e1e8a2","system_id":"levelo_inurba_marseille","lat":43.29591,"lon":5.36747,"is_reserved":false,"is_disabled":false,"rental_uris":{"android":"levelo://app?vid=c357b476-34b1-4241-b06a-701851e1e8a2","ios":"levelo://app?vid=c357b476-34b1-4241-b06a-701851e1e8a2"},"vehicle_type_id":"4","last_reported":1732886399,"current_range_meters":38400,"station_id":"ce4bgph2rcd13ifvqc2g","pricing_plan_id":"cebpf4jnsgd1na2vs0mg"},{"bike_id":"5a56ca44-45bb-4715-9f86-d09b7796fd4b","system_id":"levelo_inurba_marseille","lat":43.28944,"lon":5.3663,"is_reserved":false,"is_disabled":false,"rental_uris":{"android":"levelo://app?vid=5a56ca44-45bb-4715-9f86-d09b7796fd4b","ios":"levelo://app?vid=5a56ca44-45bb-4715-9f86-d09b7796fd4b"},"vehicle_type_id":"4","last_reported":1732886399,"current_range_meters":38800,"station_id":"ce4bhap2rcd13ifvqek0","pricing_plan_id":"cebpf4jnsgd1na2vs0mg"},{"bike_id":"a7b6818e-21a8-464b-94c0-f3d9f8a1c31a","system_id":"levelo_inurba_marseille","lat":43.29277,"lon":5.40121,"is_reserved":false,"is_disabled":false,"rental_uris":{"android":"levelo://app?vid=a7b6818e-21a8-464b-94c0-f3d9f8a1c31a","ios":"levelo://app?vid=a7b6818e-21a8-464b-94c0-f3d9f8a1c31a"},"vehicle_type_id":"4","last_reported":1732886399,"current_range_meters":26800,"station_id":"ce4bh312rcd13ifvqdk0","pricing_plan_id":"cebpf4jnsgd1na2vs0mg"},{"bike_id":"b4a8605d-c615-4b87-8f90-59fb9a8a944e","system_id":"levelo_inurba_marseille","lat":43.27178,"lon":5.40996,"is_reserved":false,"is_disabled":false,"rental_uris":{"android":"levelo://app?vid=b4a8605d-c615-4b87-8f90-59fb9a8a944e","ios":"levelo://app?vid=b4a8605d-c615-4b87-8f90-59fb9a8a944e"},"vehicle_type_id":"4","last_reported":1732886399,"current_range_meters":11200,"station_id":"ce4bhl12rcd13ifvqgf0","pricing_plan_id":"cebpf4jnsgd1na2vs0mg"},{"bike_id":"718cee5d-5eec-49cc-affe-06e8d4297bab","system_id":"levelo_inurba_marseille","lat":43.29368,"lon":5.37868,"is_reserved":false,"is_disabled":true,"rental_uris":{"android":"levelo://app?vid=718cee5d-5eec-49cc-affe-06e8d4297bab","ios":"levelo://app?vid=718cee5d-5eec-49cc-affe-06e8d4297bab"},"vehicle_type_id":"4","last_reported":1732886399,"current_range_meters":36000,"station_id":"ce4bgjh2rcd13ifvqbf0","pricing_plan_id":"cebpf4jnsgd1na2vs0mg"},{"bike_id":"3fb0cd18-492b-4404-8c66-d85138ed9acc","system_id":"levelo_inurba_marseille","lat":43.28265,"lon":5.35074,"is_reserved":false,"is_disabled":false,"rental_uris":{"android":"levelo://app?vid=3fb0cd18-492b-4404-8c66-d85138ed9acc","ios":"levelo://app?vid=3fb0cd18-492b-4404-8c66-d85138ed9acc"},"vehicle_type_id":"4","last_reported":1732886399,"current_range_meters":22000,"station_id":"ce4bhbp2rcd13ifvqerg","pricing_plan_id":"cebpf4jnsgd1na2vs0mg"},{"bike_id":"e992ddc2-85e7-4753-8a06-1e0bdf6ae135","system_id":"levelo_inurba_marseille","lat":43.29001,"lon":5.35615,"is_reserved":false,"is_disabled":false,"rental_uris":{"android":"levelo://app?vid=e992ddc2-85e7-4753-8a06-1e0bdf6ae135","ios":"levelo://app?vid=e992ddc2-85e7-4753-8a06-1e0bdf6ae135"},"vehicle_type_id":"4","last_reported":1732886399,"current_range_meters":2800,"station_id":"ce4bhb92rcd13ifvqen0","pricing_plan_id":"cebpf4jnsgd1na2vs0mg"},{"bike_id":"95f0b1d7-3bab-4e66-b219-aa890b69b102","system_id":"levelo_inurba_marseille","lat":43.29692,"lon":5.36619,"is_reserved":false,"is_disabled":false,"rental_uris":{"android":"levelo://app?vid=95f0b1d7-3bab-4e66-b219-aa890b69b102","ios":"levelo://app?vid=95f0b1d7-3bab-4e66-b219-aa890b69b102"},"vehicle_type_id":"4","last_reported":1732886399,"current_range_meters":33200,"station_id":"ce4bgn12rcd13ifvqbt0","pricing_plan_id":"cebpf4jnsgd1na2vs0mg"},{"bike_id":"a81fe2e9-188b-4b50-b2db-bbda51577084","system_id":"levelo_inurba_marseille","lat":43.26814,"lon":5.40249,"is_reserved":false,"is_disabled":false,"rental_uris":{"android":"levelo://app?vid=a81fe2e9-188b-4b50-b2db-bbda51577084","ios":"levelo://app?vid=a81fe2e9-188b-4b50-b2db-bbda51577084"},"vehicle_type_id":"4","last_reported":1732886399,"current_range_meters":26000,"station_id":"ce501612rcd8frsf0b60","pricing_plan_id":"cebpf4jnsgd1na2vs0mg"},{"bike_id":"ae3817ed-117b-4ae4-bc47-be03692973ed","system_id":"levelo_inurba_marseille","lat":43.23198,"lon":5.35557,"is_reserved":false,"is_disabled":false,"rental_uris":{"android":"levelo://app?vid=ae3817ed-117b-4ae4-bc47-be03692973ed","ios":"levelo://app?vid=ae3817ed-117b-4ae4-bc47-be03692973ed"},"vehicle_type_id":"4","last_reported":1732886399,"current_range_meters":39200,"station_id":"ce4bhu92rcd13ifvqi70","pricing_plan_id":"cebpf4jnsgd1na2vs0mg"},{"bike_id":"5c3c9295-6d1e-4fe8-93bd-7bc91b148d34","system_id":"levelo_inurba_marseille","lat":43.29617,"lon":5.37148,"is_reserved":false,"is_disabled":false,"rental_uris":{"android":"levelo://app?vid=5c3c9295-6d1e-4fe8-93bd-7bc91b148d34","ios":"levelo://app?vid=5c3c9295-6d1e-4fe8-93bd-7bc91b148d34"},"vehicle_type_id":"4","last_reported":1732886399,"current_range_meters":38000,"station_id":"ce4bgnh2rcd13ifvqc0g","pricing_plan_id":"cebpf4jnsgd1na2vs0mg"},{"bike_id":"155f9dfd-372f-46b0-bea0-a3a937ac2886","system_id":"levelo_inurba_marseille","lat":43.30139,"lon":5.37419,"is_reserved":false,"is_disabled":true,"rental_uris":{"android":"levelo://app?vid=155f9dfd-372f-46b0-bea0-a3a937ac2886","ios":"levelo://app?vid=155f9dfd-372f-46b0-bea0-a3a937ac2886"},"vehicle_type_id":"4","last_reported":1732886399,"current_range_meters":24000,"station_id":"ce4bgs92rcd13ifvqcc0","pricing_plan_id":"cebpf4jnsgd1na2vs0mg"},{"bike_id":"543bf7b3-585d-475f-8df4-f832207e7738","system_id":"levelo_inurba_marseille","lat":43.29039,"lon":5.35913,"is_reserved":false,"is_disabled":false,"rental_uris":{"android":"levelo://app?vid=543bf7b3-585d-475f-8df4-f832207e7738","ios":"levelo://app?vid=543bf7b3-585d-475f-8df4-f832207e7738"},"vehicle_type_id":"4","last_reported":1732886399,"current_range_meters":21600,"station_id":"ce4bha92rcd13ifvqeg0","pricing_plan_id":"cebpf4jnsgd1na2vs0mg"},{"bike_id":"a0a36287-9950-4047-84cf-94821759d1c9","system_id":"levelo_inurba_marseille","lat":43.25588,"lon":5.38229,"is_reserved":false,"is_disabled":true,"rental_uris":{"android":"levelo://app?vid=a0a36287-9950-4047-84cf-94821759d1c9","ios":"levelo://app?vid=a0a36287-9950-4047-84cf-94821759d1c9"},"vehicle_type_id":"4","last_reported":1732886399,"current_range_meters":1600,"station_id":"ce4bhih2rcd13ifvqfs0","pricing_plan_id":"cebpf4jnsgd1na2vs0mg"},{"bike_id":"202ceef9-7259-48a9-aa1e-d8da8494241e","system_id":"levelo_inurba_marseille","lat":43.2834,"lon":5.38109,"is_reserved":false,"is_disabled":true,"rental_uris":{"android":"levelo://app?vid=202ceef9-7259-48a9-aa1e-d8da8494241e","ios":"levelo://app?vid=202ceef9-7259-48a9-aa1e-d8da8494241e"},"vehicle_type_id":"4","last_reported":1732886399,"current_range_meters":2800,"station_id":"","pricing_plan_id":"cebpf4jnsgd1na2vs0mg"},{"bike_id":"ad0e6ee2-5441-47e5-9c91-3052637a5dee","system_id":"levelo_inurba_marseille","lat":43.243773,"lon":5.370533,"is_reserved":false,"is_disabled":false,"rental_uris":{"android":"levelo://app?vid=ad0e6ee2-5441-47e5-9c91-3052637a5dee","ios":"levelo://app?vid=ad0e6ee2-5441-47e5-9c91-3052637a5dee"},"vehicle_type_id":"4","last_reported":1732886399,"current_range_meters":30400,"station_id":"ce4bhhh2rcd13ifvqfk0","pricing_plan_id":"cebpf4jnsgd1na2vs0mg"},{"bike_id":"b4d58e23-01ae-4c65-b568-c25ecb787930","system_id":"levelo_inurba_marseille","lat":43.26451,"lon":5.39491,"is_reserved":false,"is_disabled":true,"rental_uris":{"android":"levelo://app?vid=b4d58e23-01ae-4c65-b568-c25ecb787930","ios":"levelo://app?vid=b4d58e23-01ae-4c65-b568-c25ecb787930"},"vehicle_type_id":"4","last_reported":1732886399,"current_range_meters":0,"station_id":"","pricing_plan_id":"cebpf4jnsgd1na2vs0mg"},{"bike_id":"839c6504-c3ad-4a81-a876-be05cea51952","system_id":"levelo_inurba_marseille","lat":43.23154,"lon":5.43702,"is_reserved":false,"is_disabled":true,"rental_uris":{"android":"levelo://app?vid=839c6504-c3ad-4a81-a876-be05cea51952","ios":"levelo://app?vid=839c6504-c3ad-4a81-a876-be05cea51952"},"vehicle_type_id":"4","last_reported":1732886399,"current_range_meters":0,"station_id":"ce4bhmp2rcd13ifvqgog","pricing_plan_id":"cebpf4jnsgd1na2vs0mg"},{"bike_id":"12533eb5-9b23-4b35-b237-492d7c2a9edc","system_id":"levelo_inurba_marseille","lat":43.29778,"lon":5.37109,"is_reserved":false,"is_disabled":false,"rental_uris":{"android":"levelo://app?vid=12533eb5-9b23-4b35-b237-492d7c2a9edc","ios":"levelo://app?vid=12533eb5-9b23-4b35-b237-492d7c2a9edc"},"vehicle_type_id":"4","last_reported":1732886399,"current_range_meters":27200,"station_id":"ce4bgop2rcd13ifvqc1g","pricing_plan_id":"cebpf4jnsgd1na2vs0mg"},{"bike_id":"1d636a12-c3fb-40e7-be61-b53dd94bff83","system_id":"levelo_inurba_marseille","lat":43.27838,"lon":5.39212,"is_reserved":false,"is_disabled":false,"rental_uris":{"android":"levelo://app?vid=1d636a12-c3fb-40e7-be61-b53dd94bff83","ios":"levelo://app?vid=1d636a12-c3fb-40e7-be61-b53dd94bff83"},