{"last_updated":1728335315,"ttl":60,"version":"2.2","data":{"bikes":[{"bike_id":"57553b10-65c5-4902-93ea-d1debdf4f122","system_id":"levelo_inurba_marseille","lat":43.28271,"lon":5.35072,"is_reserved":false,"is_disabled":false,"rental_uris":{"android":"levelo://app?vid=57553b10-65c5-4902-93ea-d1debdf4f122","ios":"levelo://app?vid=57553b10-65c5-4902-93ea-d1debdf4f122"},"vehicle_type_id":"4","last_reported":1728335315,"current_range_meters":35600,"station_id":"ce4bhbp2rcd13ifvqerg","pricing_plan_id":"cebpf4jnsgd1na2vs0mg"},{"bike_id":"f388f7a0-ce81-424e-81ff-f56071b4276d","system_id":"levelo_inurba_marseille","lat":43.25726,"lon":5.41108,"is_reserved":false,"is_disabled":false,"rental_uris":{"android":"levelo://app?vid=f388f7a0-ce81-424e-81ff-f56071b4276d","ios":"levelo://app?vid=f388f7a0-ce81-424e-81ff-f56071b4276d"},"vehicle_type_id":"4","last_reported":1728335315,"current_range_meters":30000,"station_id":"ce4bhkp2rcd13ifvqgd0","pricing_plan_id":"cebpf4jnsgd1na2vs0mg"},{"bike_id":"7bc0edb0-6b5e-4d7c-902b-887146e19bc0","system_id":"levelo_inurba_marseille","lat":43.29041,"lon":5.38648,"is_reserved":false,"is_disabled":false,"rental_uris":{"android":"levelo://app?vid=7bc0edb0-6b5e-4d7c-902b-887146e19bc0","ios":"levelo://app?vid=7bc0edb0-6b5e-4d7c-902b-887146e19bc0"},"vehicle_type_id":"4","last_reported":1728335315,"current_range_meters":38800,"station_id":"ce4bh4p2rcd13ifvqe0g","pricing_plan_id":"cebpf4jnsgd1na2vs0mg"},{"bike_id":"6ea71e61-0162-482a-8abc-aba97e9028bf","system_id":"levelo_inurba_marseille","lat":43.28152,"lon":5.42651,"is_reserved":false,"is_disabled":false,"rental_uris":{"android":"levelo://app?vid=6ea71e61-0162-482a-8abc-aba97e9028bf","ios":"levelo://app?vid=6ea71e61-0162-482a-8abc-aba97e9028bf"},"vehicle_type_id":"4","last_reported":1728335315,"current_range_meters":38800,"station_id":"ce4bhnh2rcd13ifvqgug","pricing_plan_id":"cebpf4jnsgd1na2vs0mg"},{"bike_id":"9c4c72c6-a204-4ec6-b60f-4072f9a90ddd","system_id":"levelo_inurba_marseille","lat":43.28701,"lon":5.37385,"is_reserved":false,"is_disabled":false,"rental_uris":{"android":"levelo://app?vid=9c4c72c6-a204-4ec6-b60f-4072f9a90ddd","ios":"levelo://app?vid=9c4c72c6-a204-4ec6-b60f-4072f9a90ddd"},"vehicle_type_id":"4","last_reported":1728335315,"current_range_meters":38800,"station_id":"ce4bh3p2rcd13ifvqdq0","pricing_plan_id":"cebpf4jnsgd1na2vs0mg"},{"bike_id":"8b62dff5-b91f-4ec9-a3d6-bbc7d69721fd","system_id":"levelo_inurba_marseille","lat":43.29062,"lon":5.37187,"is_reserved":false,"is_disabled":false,"rental_uris":{"android":"levelo://app?vid=8b62dff5-b91f-4ec9-a3d6-bbc7d69721fd","ios":"levelo://app?vid=8b62dff5-b91f-4ec9-a3d6-bbc7d69721fd"},"vehicle_type_id":"4","last_reported":1728335315,"current_range_meters":26000,"station_id":"ce4bh5p2rcd13ifvqe4g","pricing_plan_id":"cebpf4jnsgd1na2vs0mg"},{"bike_id":"3edccbad-c604-40df-acb2-6e9d91b67298","system_id":"levelo_inurba_marseille","lat":43.23052,"lon":5.35496,"is_reserved":false,"is_disabled":false,"rental_uris":{"android":"levelo://app?vid=3edccbad-c604-40df-acb2-6e9d91b67298","ios":"levelo://app?vid=3edccbad-c604-40df-acb2-6e9d91b67298"},"vehicle_type_id":"4","last_reported":1728335315,"current_range_meters":18800,"station_id":"cpo3342slgdg3j2ifvpg","pricing_plan_id":"cebpf4jnsgd1na2vs0mg"},{"bike_id":"a989dcd4-4f7f-42a6-b472-767b8e02677c","system_id":"levelo_inurba_marseille","lat":43.28457,"lon":5.35882,"is_reserved":false,"is_disabled":false,"rental_uris":{"android":"levelo://app?vid=a989dcd4-4f7f-42a6-b472-767b8e02677c","ios":"levelo://app?vid=a989dcd4-4f7f-42a6-b472-767b8e02677c"},"vehicle_type_id":"4","last_reported":1728335315,"current_range_meters":27600,"station_id":"ce4bhah2rcd13ifvqei0","pricing_plan_id":"cebpf4jnsgd1na2vs0mg"},{"bike_id":"56d3a2c1-cbab-4447-a367-83dfb2dbdacd","system_id":"levelo_inurba_marseille","lat":43.30883,"lon":5.39652,"is_reserved":false,"is_disabled":false,"rental_uris":{"android":"levelo://app?vid=56d3a2c1-cbab-4447-a367-83dfb2dbdacd","ios":"levelo://app?vid=56d3a2c1-cbab-4447-a367-83dfb2dbdacd"},"vehicle_type_id":"4","last_reported":1728335315,"current_range_meters":10800,"station_id":"ce4bh012rcd13ifvqcv0","pricing_plan_id":"cebpf4jnsgd1na2vs0mg"},{"bike_id":"6f011674-22a2-48c6-9f3c-a4692e4becfb","system_id":"levelo_inurba_marseille","lat":43.31363,"lon":5.38489,"is_reserved":false,"is_disabled":false,"rental_uris":{"android":"levelo://app?vid=6f011674-22a2-48c6-9f3c-a4692e4becfb","ios":"levelo://app?vid=6f011674-22a2-48c6-9f3c-a4692e4becfb"},"vehicle_type_id":"4","last_reported":1728335315,"current_range_meters":22400,"station_id":"ce4bgt92rcd13ifvqcf0","pricing_plan_id":"cebpf4jnsgd1na2vs0mg"},{"bike_id":"1a32a4f3-e168-4a5d-843d-6a77f72dac35","system_id":"levelo_inurba_marseille","lat":43.282397,"lon":5.439696,"is_reserved":false,"is_disabled":false,"rental_uris":{"android":"levelo://app?vid=1a32a4f3-e168-4a5d-843d-6a77f72dac35","ios":"levelo://app?vid=1a32a4f3-e168-4a5d-843d-6a77f72dac35"},"vehicle_type_id":"4","last_reported":1728335315,"current_range_meters":25600,"station_id":"ce4bh692rcd13ifvqea0","pricing_plan_id":"cebpf4jnsgd1na2vs0mg"},{"bike_id":"52f0b8b5-6eaf-4c1c-bebf-564bf53fe900","system_id":"levelo_inurba_marseille","lat":43.29628,"lon":5.40589,"is_reserved":false,"is_disabled":false,"rental_uris":{"android":"levelo://app?vid=52f0b8b5-6eaf-4c1c-bebf-564bf53fe900","ios":"levelo://app?vid=52f0b8b5-6eaf-4c1c-bebf-564bf53fe900"},"vehicle_type_id":"4","last_reported":1728335315,"current_range_meters":18800,"station_id":"ce4bh0h2rcd13ifvqd60","pricing_plan_id":"cebpf4jnsgd1na2vs0mg"},{"bike_id":"194545a4-9a17-410e-84e8-f3516539e740","system_id":"levelo_inurba_marseille","lat":43.28265,"lon":5.35073,"is_reserved":false,"is_disabled":false,"rental_uris":{"android":"levelo://app?vid=194545a4-9a17-410e-84e8-f3516539e740","ios":"levelo://app?vid=194545a4-9a17-410e-84e8-f3516539e740"},"vehicle_type_id":"4","last_reported":1728335315,"current_range_meters":39200,"station_id":"ce4bhbp2rcd13ifvqerg","pricing_plan_id":"cebpf4jnsgd1na2vs0mg"},{"bike_id":"16c52e8b-36b9-4e33-9149-6046d7ca6a07","system_id":"levelo_inurba_marseille","lat":43.29016,"lon":5.38646,"is_reserved":false,"is_disabled":false,"rental_uris":{"android":"levelo://app?vid=16c52e8b-36b9-4e33-9149-6046d7ca6a07","ios":"levelo://app?vid=16c52e8b-36b9-4e33-9149-6046d7ca6a07"},"vehicle_type_id":"4","last_reported":1728335315,"current_range_meters":36400,"station_id":"ce4bh4p2rcd13ifvqe0g","pricing_plan_id":"cebpf4jnsgd1na2vs0mg"},{"bike_id":"c858ed28-a106-4b45-8e36-d5c3219226e7","system_id":"levelo_inurba_marseille","lat":43.30263,"lon":5.39846,"is_reserved":false,"is_disabled":false,"rental_uris":{"android":"levelo://app?vid=c858ed28-a106-4b45-8e36-d5c3219226e7","ios":"levelo://app?vid=c858ed28-a106-4b45-8e36-d5c3219226e7"},"vehicle_type_id":"4","last_reported":1728335315,"current_range_meters":23200,"station_id":"ce4bgqh2rcd13ifvqc5g","pricing_plan_id":"cebpf4jnsgd1na2vs0mg"},{"bike_id":"5cbc9c45-d090-40f0-bf46-98bb0454ae1f","system_id":"levelo_inurba_marseille","lat":43.29209,"lon":5.39321,"is_reserved":false,"is_disabled":false,"rental_uris":{"android":"levelo://app?vid=5cbc9c45-d090-40f0-bf46-98bb0454ae1f","ios":"levelo://app?vid=5cbc9c45-d090-40f0-bf46-98bb0454ae1f"},"vehicle_type_id":"4","last_reported":1728335315,"current_range_meters":39200,"station_id":"ce4bh192rcd13ifvqdd0","pricing_plan_id":"cebpf4jnsgd1na2vs0mg"},{"bike_id":"58f7bd81-5dbf-4e8d-aa85-ccbbf33a2e0a","system_id":"levelo_inurba_marseille","lat":43.29895,"lon":5.38142,"is_reserved":false,"is_disabled":false,"rental_uris":{"android":"levelo://app?vid=58f7bd81-5dbf-4e8d-aa85-ccbbf33a2e0a","ios":"levelo://app?vid=58f7bd81-5dbf-4e8d-aa85-ccbbf33a2e0a"},"vehicle_type_id":"4","last_reported":1728335315,"current_range_meters":39200,"station_id":"ce4bgj12rcd13ifvqbc0","pricing_plan_id":"cebpf4jnsgd1na2vs0mg"},{"bike_id":"11b35691-6b69-4e44-9896-778a89c5f594","system_id":"levelo_inurba_marseille","lat":43.28845,"lon":5.35858,"is_reserved":false,"is_disabled":false,"rental_uris":{"android":"levelo://app?vid=11b35691-6b69-4e44-9896-778a89c5f594","ios":"levelo://app?vid=11b35691-6b69-4e44-9896-778a89c5f594"},"vehicle_type_id":"4","last_reported":1728335315,"current_range_meters":39200,"station_id":"ce4bhb12rcd13ifvqem0","pricing_plan_id":"cebpf4jnsgd1na2vs0mg"},{"bike_id":"81b07a05-4c57-4e76-99d6-5f6e3acbb201","system_id":"levelo_inurba_marseille","lat":43.23066,"lon":5.35494,"is_reserved":false,"is_disabled":false,"rental_uris":{"android":"levelo://app?vid=81b07a05-4c57-4e76-99d6-5f6e3acbb201","ios":"levelo://app?vid=81b07a05-4c57-4e76-99d6-5f6e3acbb201"},"vehicle_type_id":"4","last_reported":1728335315,"current_range_meters":10000,"station_id":"cpo3342slgdg3j2ifvpg","pricing_plan_id":"cebpf4jnsgd1na2vs0mg"},{"bike_id":"916e1af9-c1d9-41a9-9255-f150f266a51c","system_id":"levelo_inurba_marseille","lat":43.25114,"lon":5.40319,"is_reserved":false,"is_disabled":false,"rental_uris":{"android":"levelo://app?vid=916e1af9-c1d9-41a9-9255-f150f266a51c","ios":"levelo://app?vid=916e1af9-c1d9-41a9-9255-f150f266a51c"},"vehicle_type_id":"4","last_reported":1728335315,"current_range_meters":38800,"station_id":"ce4bhlh2rcd13ifvqgig","pricing_plan_id":"cebpf4jnsgd1na2vs0mg"},{"bike_id":"f6f735b2-2c7f-4bda-80c2-a88a32bd651a","system_id":"levelo_inurba_marseille","lat":43.28459,"lon":5.35885,"is_reserved":false,"is_disabled":false,"rental_uris":{"android":"levelo://app?vid=f6f735b2-2c7f-4bda-80c2-a88a32bd651a","ios":"levelo://app?vid=f6f735b2-2c7f-4bda-80c2-a88a32bd651a"},"vehicle_type_id":"4","last_reported":1728335315,"current_range_meters":17200,"station_id":"ce4bhah2rcd13ifvqei0","pricing_plan_id":"cebpf4jnsgd1na2vs0mg"},{"bike_id":"e04bac3b-3017-4264-87e3-39689488fd05","system_id":"levelo_inurba_marseille","lat":43.28452,"lon":5.35894,"is_reserved":false,"is_disabled":false,"rental_uris":{"android":"levelo://app?vid=e04bac3b-3017-4264-87e3-39689488fd05","ios":"levelo://app?vid=e04bac3b-3017-4264-87e3-39689488fd05"},"vehicle_type_id":"4","last_reported":1728335315,"current_range_meters":29600,"station_id":"ce4bhah2rcd13ifvqei0","pricing_plan_id":"cebpf4jnsgd1na2vs0mg"},{"bike_id":"b014f02c-99bd-498f-a572-9a513a2b9a99","system_id":"levelo_inurba_marseille","lat":43.28702,"lon":5.39998,"is_reserved":false,"is_disabled":false,"rental_uris":{"android":"levelo://app?vid=b014f02c-99bd-498f-a572-9a513a2b9a99","ios":"levelo://app?vid=b014f02c-99bd-498f-a572-9a513a2b9a99"},"vehicle_type_id":"4","last_reported":1728335315,"current_range_meters":9200,"station_id":"ce4bho92rcd13ifvqh3g","pricing_plan_id":"cebpf4jnsgd1na2vs0mg"},{"bike_id":"dcb0f448-2134-46dd-912a-ba72f0d7ccf2","system_id":"levelo_inurba_marseille","lat":43.28155,"lon":5.4265,"is_reserved":false,"is_disabled":false,"rental_uris":{"android":"levelo://app?vid=dcb0f448-2134-46dd-912a-ba72f0d7ccf2","ios":"levelo://app?vid=dcb0f448-2134-46dd-912a-ba72f0d7ccf2"},"vehicle_type_id":"4","last_reported":1728335315,"current_range_meters":38800,"station_id":"ce4bhnh2rcd13ifvqgug","pricing_plan_id":"cebpf4jnsgd1na2vs0mg"},{"bike_id":"3ef37b24-db49-4571-8903-257e514e9f58","system_id":"levelo_inurba_marseille","lat":43.28732,"lon":5.3609,"is_reserved":false,"is_disabled":false,"rental_uris":{"android":"levelo://app?vid=3ef37b24-db49-4571-8903-257e514e9f58","ios":"levelo://app?vid=3ef37b24-db49-4571-8903-257e514e9f58"},"vehicle_type_id":"4","last_reported":1728335315,"current_range_meters":38800,"station_id":"cki0cbj6b192h4jlfktg","pricing_plan_id":"cebpf4jnsgd1na2vs0mg"},{"bike_id":"97859cce-2739-4870-920f-9160c684d214","system_id":"levelo_inurba_marseille","lat":43.29549,"lon":5.4228,"is_reserved":false,"is_disabled":false,"rental_uris":{"android":"levelo://app?vid=97859cce-2739-4870-920f-9160c684d214","ios":"levelo://app?vid=97859cce-2739-4870-920f-9160c684d214"},"vehicle_type_id":"4","last_reported":1728335315,"current_range_meters":38800,"station_id":"ce4bhph2rcd13ifvqhdg","pricing_plan_id":"cebpf4jnsgd1na2vs0mg"},{"bike_id":"1353961b-833b-4034-9c64-7bda01fbcbcd","system_id":"levelo_inurba_marseille","lat":43.30804,"lon":5.3814,"is_reserved":false,"is_disabled":false,"rental_uris":{"android":"levelo://app?vid=1353961b-833b-4034-9c64-7bda01fbcbcd","ios":"levelo://app?vid=1353961b-833b-4034-9c64-7bda01fbcbcd"},"vehicle_type_id":"4","last_reported":1728335315,"current_range_meters":30800,"station_id":"ce4bgt12rcd13ifvqce0","pricing_plan_id":"cebpf4jnsgd1na2vs0mg"},{"bike_id":"c2dbe9fe-42fc-49ee-8f65-625ce0153505","system_id":"levelo_inurba_marseille","lat":43.28716,"lon":5.36087,"is_reserved":false,"is_disabled":false,"rental_uris":{"android":"levelo://app?vid=c2dbe9fe-42fc-49ee-8f65-625ce0153505","ios":"levelo://app?vid=c2dbe9fe-42fc-49ee-8f65-625ce0153505"},"vehicle_type_id":"4","last_reported":1728335315,"current_range_meters":14000,"station_id":"cki0cbj6b192h4jlfktg","pricing_plan_id":"cebpf4jnsgd1na2vs0mg"},{"bike_id":"663d807d-5236-4795-8907-d41427101515","system_id":"levelo_inurba_marseille","lat":43.33028,"lon":5.39042,"is_reserved":false,"is_disabled":false,"rental_uris":{"android":"levelo://app?vid=663d807d-5236-4795-8907-d41427101515","ios":"levelo://app?vid=663d807d-5236-4795-8907-d41427101515"},"vehicle_type_id":"4","last_reported":1728335315,"current_range_meters":37600,"station_id":"ce4bhr92rcd13ifvqhrg","pricing_plan_id":"cebpf4jnsgd1na2vs0mg"},{"bike_id":"0190a491-52c0-46a5-be20-b72d156a36de","system_id":"levelo_inurba_marseille","lat":43.31262,"lon":5.40165,"is_reserved":false,"is_disabled":false,"rental_uris":{"android":"levelo://app?vid=0190a491-52c0-46a5-be20-b72d156a36de","ios":"levelo://app?vid=0190a491-52c0-46a5-be20-b72d156a36de"},"vehicle_type_id":"4","last_reported":1728335315,"current_range_meters":36400,"station_id":"ce4bh092rcd13ifvqd30","pricing_plan_id":"cebpf4jnsgd1na2vs0mg"},{"bike_id":"066ccb90-6b9a-4302-bde4-9c97dfce747d","system_id":"levelo_inurba_marseille","lat":43.33725,"lon":5.39193,"is_reserved":false,"is_disabled":false,"rental_uris":{"android":"levelo://app?vid=066ccb90-6b9a-4302-bde4-9c97dfce747d","ios":"levelo://app?vid=066ccb90-6b9a-4302-bde4-9c97dfce747d"},"vehicle_type_id":"4","last_reported":1728335315,"current_range_meters":38800,"station_id":"ce4bhr92rcd13ifvqhsg","pricing_plan_id":"cebpf4jnsgd1na2vs0mg"},{"bike_id":"b4d02727-53c8-4bdd-9a62-9536bf1ccec0","system_id":"levelo_inurba_marseille","lat":43.30781,"lon":5.37657,"is_reserved":false,"is_disabled":false,"rental_uris":{"android":"levelo://app?vid=b4d02727-53c8-4bdd-9a62-9536bf1ccec0","ios":"levelo://app?vid=b4d02727-53c8-4bdd-9a62-9536bf1ccec0"},"vehicle_type_id":"4","last_reported":1728335315,"current_range_meters":29600,"station_id":"ce4bgv92rcd13ifvqcq0","pricing_plan_id":"cebpf4jnsgd1na2vs0mg"},{"bike_id":"5c2bcc0a-e55f-4af2-a6b6-c4b6b21a6591","system_id":"levelo_inurba_marseille","lat":43.25493,"lon":5.37652,"is_reserved":false,"is_disabled":false,"rental_uris":{"android":"levelo://app?vid=5c2bcc0a-e55f-4af2-a6b6-c4b6b21a6591","ios":"levelo://app?vid=5c2bcc0a-e55f-4af2-a6b6-c4b6b21a6591"},"vehicle_type_id":"4","last_reported":1728335315,"current_range_meters":10000,"station_id":"ce4bhh12rcd13ifvqff0","pricing_plan_id":"cebpf4jnsgd1na2vs0mg"},{"bike_id":"a031a740-e40c-4609-ab41-f160c724e97a","system_id":"levelo_inurba_marseille","lat":43.29977,"lon":5.37176,"is_reserved":false,"is_disabled":false,"rental_uris":{"android":"levelo://app?vid=a031a740-e40c-4609-ab41-f160c724e97a","ios":"levelo://app?vid=a031a740-e40c-4609-ab41-f160c724e97a"},"vehicle_type_id":"4","last_reported":1728335315,"current_range_meters":39200,"station_id":"ce4bgr92rcd13ifvqc7g","pricing_plan_id":"cebpf4jnsgd1na2vs0mg"},{"bike_id":"12974a0f-2544-4d26-91a5-435eae1a2365","system_id":"levelo_inurba_marseille","lat":43.31683,"lon":5.40479,"is_reserved":false,"is_disabled":false,"rental_uris":{"android":"levelo://app?vid=12974a0f-2544-4d26-91a5-435eae1a2365","ios":"levelo://app?vid=12974a0f-2544-4d26-91a5-435eae1a2365"},"vehicle_type_id":"4","last_reported":1728335315,"current_range_meters":38800,"station_id":"ce4bh012rcd13ifvqd00","pricing_plan_id":"cebpf4jnsgd1na2vs0mg"},{"bike_id":"f44a0142-05f1-4a99-80bf-c703ade1ad74","system_id":"levelo_inurba_marseille","lat":43.28666,"lon":5.36354,"is_reserved":false,"is_disabled":false,"rental_uris":{"android":"levelo://app?vid=f44a0142-05f1-4a99-80bf-c703ade1ad74","ios":"levelo://app?vid=f44a0142-05f1-4a99-80bf-c703ade1ad74"},"vehicle_type_id":"4","last_reported":1728335315,"current_range_meters":20800,"station_id":"ce4bhah2rcd13ifvqej0","pricing_plan_id":"cebpf4jnsgd1na2vs0mg"},{"bike_id":"ec307642-e1af-46bf-bf9a-6c367a642997","system_id":"levelo_inurba_marseille","lat":43.28341,"lon":5.38115,"is_reserved":false,"is_disabled":false,"rental_uris":{"android":"levelo://app?vid=ec307642-e1af-46bf-bf9a-6c367a642997","ios":"levelo://app?vid=ec307642-e1af-46bf-bf9a-6c367a642997"},"vehicle_type_id":"4","last_reported":1728335315,"current_range_meters":19200,"station_id":"ce4bh412rcd13ifvqdr0","pricing_plan_id":"cebpf4jnsgd1na2vs0mg"},{"bike_id":"a8ce887c-a758-454e-9c1a-6b6577112135","system_id":"levelo_inurba_marseille","lat":43.27187,"lon":5.40998,"is_reserved":false,"is_disabled":false,"rental_uris":{"android":"levelo://app?vid=a8ce887c-a758-454e-9c1a-6b6577112135","ios":"levelo://app?vid=a8ce887c-a758-454e-9c1a-6b6577112135"},"vehicle_type_id":"4","last_reported":1728335315,"current_range_meters":38800,"station_id":"ce4bhl12rcd13ifvqgf0","pricing_plan_id":"cebpf4jnsgd1na2vs0mg"},{"bike_id":"35db5aab-a536-4286-87d7-90ec43783f24","system_id":"levelo_inurba_marseille","lat":43.23193,"lon":5.35557,"is_reserved":false,"is_disabled":false,"rental_uris":{"android":"levelo://app?vid=35db5aab-a536-4286-87d7-90ec43783f24","ios":"levelo://app?vid=35db5aab-a536-4286-87d7-90ec43783f24"},"vehicle_type_id":"4","last_reported":1728335315,"current_range_meters":34000,"station_id":"ce4bhu92rcd13ifvqi70","pricing_plan_id":"cebpf4jnsgd1na2vs0mg"},{"bike_id":"62b408b5-3333-4a16-b2cd-51fe4850b102","system_id":"levelo_inurba_marseille","lat":43.2997,"lon":5.3719,"is_reserved":false,"is_disabled":false,"rental_uris":{"android":"levelo://app?vid=62b408b5-3333-4a16-b2cd-51fe4850b102","ios":"levelo://app?vid=62b408b5-3333-4a16-b2cd-51fe4850b102"},"vehicle_type_id":"4","last_reported":1728335315,"current_range_meters":28400,"station_id":"ce4bgr92rcd13ifvqc7g","pricing_plan_id":"cebpf4jnsgd1na2vs0mg"},{"bike_id":"860c37f5-ffde-4aa9-95ed-4f2ed1f0a5e2","system_id":"levelo_inurba_marseille","lat":43.25112,"lon":5.40324,"is_reserved":false,"is_disabled":false,"rental_uris":{"android":"levelo://app?vid=860c37f5-ffde-4aa9-95ed-4f2ed1f0a5e2","ios":"levelo://app?vid=860c37f5-ffde-4aa9-95ed-4f2ed1f0a5e2"},"vehicle_type_id":"4","last_reported":1728335315,"current_range_meters":39200,"station_id":"ce4bhlh2rcd13ifvqgig","pricing_plan_id":"cebpf4jnsgd1na2vs0mg"},{"bike_id":"62dfd99c-f976-4937-b2d0-5b50f5ae699f","system_id":"levelo_inurba_marseille","lat":43.24175,"lon":5.364,"is_reserved":false,"is_disabled":false,"rental_uris":{"android":"levelo://app?vid=62dfd99c-f976-4937-b2d0-5b50f5ae699f","ios":"levelo://app?vid=62dfd99c-f976-4937-b2d0-5b50f5ae699f"},"vehicle_type_id":"4","last_reported":1728335315,"current_range_meters":8800,"station_id":"cpo36qri1sfpv3e86is0","pricing_plan_id":"cebpf4jnsgd1na2vs0mg"},{"bike_id":"d5b8bfb4-409c-4850-a69d-4732b5060224","system_id":"levelo_inurba_marseille","lat":43.31342,"lon":5.36727,"is_reserved":false,"is_disabled":false,"rental_uris":{"android":"levelo://app?vid=d5b8bfb4-409c-4850-a69d-4732b5060224","ios":"levelo://app?vid=d5b8bfb4-409c-4850-a69d-4732b5060224"},"vehicle_type_id":"4","last_reported":1728335315,"current_range_meters":38800,"station_id":"ce4bgr92rcd13ifvqc6g","pricing_plan_id":"cebpf4jnsgd1na2vs0mg"},{"bike_id":"f4793b99-7728-4628-8857-6672386d2140","system_id":"levelo_inurba_marseille","lat":43.30185,"lon":5.36629,"is_reserved":false,"is_disabled":false,"rental_uris":{"android":"levelo://app?vid=f4793b99-7728-4628-8857-6672386d2140","ios":"levelo://app?vid=f4793b99-7728-4628-8857-6672386d2140"},"vehicle_type_id":"4","last_reported":1728335315,"current_range_meters":38800,"station_id":"ce4bgrh2rcd13ifvqc8g","pricing_plan_id":"cebpf4jnsgd1na2vs0mg"},{"bike_id":"3ed1ecfc-83e5-47ee-9ec5-7ce7dd4f15a0","system_id":"levelo_inurba_marseille","lat":43.25723,"lon":5.41101,"is_reserved":false,"is_disabled":false,"rental_uris":{"android":"levelo://app?vid=3ed1ecfc-83e5-47ee-9ec5-7ce7dd4f15a0","ios":"levelo://app?vid=3ed1ecfc-83e5-47ee-9ec5-7ce7dd4f15a0"},"vehicle_type_id":"4","last_reported":1728335315,"current_range_meters":38800,"station_id":"ce4bhkp2rcd13ifvqgd0","pricing_plan_id":"cebpf4jnsgd1na2vs0mg"},{"bike_id":"74e3cf56-2968-4ce7-bb1a-6073197f7427","system_id":"levelo_inurba_marseille","lat":43.28404,"lon":5.37511,"is_reserved":false,"is_disabled":false,"rental_uris":{"android":"levelo://app?vid=74e3cf56-2968-4ce7-bb1a-6073197f7427","ios":"levelo://app?vid=74e3cf56-2968-4ce7-bb1a-6073197f7427"},"vehicle_type_id":"4","last_reported":1728335315,"current_range_meters":19600,"station_id":"ce4bh412rcd13ifvqds0","pricing_plan_id":"cebpf4jnsgd1na2vs0mg"},{"bike_id":"e2ccf4a1-3a30-455f-aee7-06171700f2b9","system_id":"levelo_inurba_marseille","lat":43.32656,"lon":5.40991,"is_reserved":false,"is_disabled":false,"rental_uris":{"android":"levelo://app?vid=e2ccf4a1-3a30-455f-aee7-06171700f2b9","ios":"levelo://app?vid=e2ccf4a1-3a30-455f-aee7-06171700f2b9"},"vehicle_type_id":"4","last_reported":1728335315,"current_range_meters":7200,"station_id":"ce4bhpp2rcd13ifvqhgg","pricing_plan_id":"cebpf4jnsgd1na2vs0mg"},{"bike_id":"e2ccd035-e2f6-4b13-8c3b-407f63e2c6d1","system_id":"levelo_inurba_marseille","lat":43.33024,"lon":5.39044,"is_reserved":false,"is_disabled":false,"rental_uris":{"android":"levelo://app?vid=e2ccd035-e2f6-4b13-8c3b-407f63e2c6d1","ios":"levelo://app?vid=e2ccd035-e2f6-4b13-8c3b-407f63e2c6d1"},"vehicle_type_id":"4","last_reported":1728335315,"current_range_meters":6000,"station_id":"ce4bhr92rcd13ifvqhrg","pricing_plan_id":"cebpf4jnsgd1na2vs0mg"},{"bike_id":"51ea515d-944c-489c-8a74-b1f09acd3971","system_id":"levelo_inurba_marseille","lat":43.25585,"lon":5.38239,"is_reserved":false,"is_disabled":false,"rental_uris":{"android":"levelo://app?vid=51ea515d-944c-489c-8a74-b1f09acd3971","ios":"levelo://app?vid=51ea515d-944c-489c-8a74-b1f09acd3971"},"vehicle_type_id":"4","last_reported":1728335315,"current_range_meters":21600,"station_id":"ce4bhih2rcd13ifvqfs0","pricing_plan_id":"cebpf4jnsgd1na2vs0mg"},{"bike_id":"b529e2ad-1671-4a23-ac2f-9c56fba2035b","system_id":"levelo_inurba_marseille","lat":43.29044,"lon":5.39978,"is_reserved":false,"is_disabled":false,"rental_uris":{"android":"levelo://app?vid=b529e2ad-1671-4a23-ac2f-9c56fba2035b","ios":"levelo://app?vid=b529e2ad-1671-4a23-ac2f-9c56fba2035b"},"vehicle_type_id":"4","last_reported":1728335315,"current_range_meters":14400,"station_id":"ce4bh392rcd13ifvqdm0","pricing_plan_id":"cebpf4jnsgd1na2vs0mg"},{"bike_id":"677f605d-69c8-4382-98b6-5ffff180ce39","system_id":"levelo_inurba_marseille","lat":43.26928,"lon":5.40317,"is_reserved":false,"is_disabled":false,"rental_uris":{"android":"levelo://app?vid=677f605d-69c8-4382-98b6-5ffff180ce39","ios":"levelo://app?vid=677f605d-69c8-4382-98b6-5ffff180ce39"},"vehicle_type_id":"4","last_reported":1728335315,"current_range_meters":24800,"station_id":"","pricing_plan_id":"cebpf4jnsgd1na2vs0mg"},{"bike_id":"e7ca1121-dfae-49ab-95f7-00c35a3a4f04","system_id":"levelo_inurba_marseille","lat":43.30775,"lon":5.37658,"is_reserved":false,"is_disabled":false,"rental_uris":{"android":"levelo://app?vid=e7ca1121-dfae-49ab-95f7-00c35a3a4f04","ios":"levelo://app?vid=e7ca1121-dfae-49ab-95f7-00c35a3a4f04"},"vehicle_type_id":"4","last_reported":1728335315,"current_range_meters":38800,"station_id":"ce4bgv92rcd13ifvqcq0","pricing_plan_id":"cebpf4jnsgd1na2vs0mg"},{"bike_id":"a854f9eb-d697-4507-b33a-9376691b2f9b","system_id":"levelo_inurba_marseille","lat":43.2799,"lon":5.40021,"is_reserved":false,"is_disabled":false,"rental_uris":{"android":"levelo://app?vid=a854f9eb-d697-4507-b33a-9376691b2f9b","ios":"levelo://app?vid=a854f9eb-d697-4507-b33a-9376691b2f9b"},"vehicle_type_id":"4","last_reported":1728335315,"current_range_meters":39200,"station_id":"ce4bho92rcd13ifvqh4g","pricing_plan_id":"cebpf4jnsgd1na2vs0mg"},{"bike_id":"dc2e07b6-2d88-4c3a-9e54-908d68323f78","system_id":"levelo_inurba_marseille","lat":43.29518,"lon":5.394,"is_reserved":false,"is_disabled":false,"rental_uris":{"android":"levelo://app?vid=dc2e07b6-2d88-4c3a-9e54-908d68323f78","ios":"levelo://app?vid=dc2e07b6-2d88-4c3a-9e54-908d68323f78"},"vehicle_type_id":"4","last_reported":1728335315,"current_range_meters":38800,"station_id":"ce4bh292rcd13ifvqdf0","pricing_plan_id":"cebpf4jnsgd1na2vs0mg"},{"bike_id":"71557b2f-0cba-4338-83db-d8c00bdfcacb","system_id":"levelo_inurba_marseille","lat":43.31717,"lon":5.37754,"is_reserved":false,"is_disabled":false,"rental_uris":{"android":"levelo://app?vid=71557b2f-0cba-4338-83db-d8c00bdfcacb","ios":"levelo://app?vid=71557b2f-0cba-4338-83db-d8c00bdfcacb"},"vehicle_type_id":"4","last_reported":1728335315,"current_range_meters":24000,"station_id":"ce4bgth2rcd13ifvqch0","pricing_plan_id":"cebpf4jnsgd1na2vs0mg"},{"bike_id":"e94f3760-34b3-4503-bb94-a753f8233f74","system_id":"levelo_inurba_marseille","lat":43.31326,"lon":5.39692,"is_reserved":false,"is_disabled":false,"rental_uris":{"android":"levelo://app?vid=e94f3760-34b3-4503-bb94-a753f8233f74","ios":"levelo://app?vid=e94f3760-34b3-4503-bb94-a753f8233f74"},"vehicle_type_id":"4","last_reported":1728335315,"current_range_meters":24400,"station_id":"ce4bgvp2rcd13ifvqcu0","pricing_plan_id":"cebpf4jnsgd1na2vs0mg"},{"bike_id":"3e1d0942-6577-476b-971c-b0a91ff7c57b","system_id":"levelo_inurba_marseille","lat":43.27179,"lon":5.40993,"is_reserved":false,"is_disabled":false,"rental_uris":{"android":"levelo://app?vid=3e1d0942-6577-476b-971c-b0a91ff7c57b","ios":"levelo://app?vid=3e1d0942-6577-476b-971c-b0a91ff7c57b"},"vehicle_type_id":"4","last_reported":1728335315,"current_range_meters":38000,"station_id":"ce4bhl12rcd13ifvqgf0","pricing_plan_id":"cebpf4jnsgd1na2vs0mg"},{"bike_id":"4af55307-045f-4c66-a045-a91d88bb4c16","system_id":"levelo_inurba_marseille","lat":43.22933,"lon":5.3538,"is_reserved":false,"is_disabled":false,"rental_uris":{"android":"levelo://app?vid=4af55307-045f-4c66-a045-a91d88bb4c16","ios":"levelo://app?vid=4af55307-045f-4c66-a045-a91d88bb4c16"},"vehicle_type_id":"4","last_reported":1728335315,"current_range_meters":25200,"station_id":"cpo3532slgdg3j2ikp40","pricing_plan_id":"cebpf4jnsgd1na2vs0mg"},{"bike_id":"aa598db1-3c3a-48c0-acd0-1929a2b13407","system_id":"levelo_inurba_marseille","lat":43.31716,"lon":5.43709,"is_reserved":false,"is_disabled":false,"rental_uris":{"android":"levelo://app?vid=aa598db1-3c3a-48c0-acd0-1929a2b13407","ios":"levelo://app?vid=aa598db1-3c3a-48c0-acd0-1929a2b13407"},"vehicle_type_id":"4","last_reported":1728335315,"current_range_meters":38800,"station_id":"ce4bhp92rcd13ifvqhcg","pricing_plan_id":"cebpf4jnsgd1na2vs0mg"},{"bike_id":"47efe985-66e3-4fb1-a00d-60851f779f19","system_id":"levelo_inurba_marseille","lat":43.32551,"lon":5.41441,"is_reserved":false,"is_disabled":false,"rental_uris":{"android":"levelo://app?vid=47efe985-66e3-4fb1-a00d-60851f779f19","ios":"levelo://app?vid=47efe985-66e3-4fb1-a00d-60851f779f19"},"vehicle_type_id":"4","last_reported":1728335315,"current_range_meters":28800,"station_id":"ce4bhq12rcd13ifvqhhg","pricing_plan_id":"cebpf4jnsgd1na2vs0mg"},{"bike_id":"6482b1fb-67cb-4384-a7c9-6c0a7b56e3b4","system_id":"levelo_inurba_marseille","lat":43.28843,"lon":5.43329,"is_reserved":false,"is_disabled":false,"rental_uris":{"android":"levelo://app?vid=6482b1fb-67cb-4384-a7c9-6c0a7b56e3b4","ios":"levelo://app?vid=6482b1fb-67cb-4384-a7c9-6c0a7b56e3b4"},"vehicle_type_id":"4","last_reported":1728335315,"current_range_meters":3600,"station_id":"","pricing_plan_id":"cebpf4jnsgd1na2vs0mg"},{"bike_id":"cfeef54d-740d-46a2-915c-b05018f3cae4","system_id":"levelo_inurba_marseille","lat":43.28703,"lon":5.39984,"is_reserved":false,"is_disabled":false,"rental_uris":{"android":"levelo://app?vid=cfeef54d-740d-46a2-915c-b05018f3cae4","ios":"levelo://app?vid=cfeef54d-740d-46a2-915c-b05018f3cae4"},"vehicle_type_id":"4","last_reported":1728335315,"current_range_meters":35200,"station_id":"ce4bho92rcd13ifvqh3g","pricing_plan_id":"cebpf4jnsgd1na2vs0mg"},{"bike_id":"294882e4-04ea-4ba9-8d89-0381ed6bba4d","system_id":"levelo_inurba_marseille","lat":43.31327,"lon":5.39692,"is_reserved":false,"is_disabled":false,"rental_uris":{"android":"levelo://app?vid=294882e4-04ea-4ba9-8d89-0381ed6bba4d","ios":"levelo://app?vid=294882e4-04ea-4ba9-8d89-0381ed6bba4d"},"vehicle_type_id":"4","last_reported":1728335315,"current_range_meters":33200,"station_id":"ce4bgvp2rcd13ifvqcu0","pricing_plan_id":"cebpf4jnsgd1na2vs0mg"},{"bike_id":"480eecf8-5d47-4f93-815e-826c050e484c","system_id":"levelo_inurba_marseille","lat":43.31326,"lon":5.39693,"is_reserved":false,"is_disabled":false,"rental_uris":{"android":"levelo://app?vid=480eecf8-5d47-4f93-815e-826c050e484c","ios":"levelo://app?vid=480eecf8-5d47-4f93-815e-826c050e484c"},"vehicle_type_id":"4","last_reported":1728335315,"current_range_meters":39200,"station_id":"ce4bgvp2rcd13ifvqcu0","pricing_plan_id":"cebpf4jnsgd1na2vs0mg"},{"bike_id":"c12c46a4-bd86-493d-803e-5d507cd7924b","system_id":"levelo_inurba_marseille","lat":43.23209,"lon":5.35544,"is_reserved":false,"is_disabled":false,"rental_uris":{"android":"levelo://app?vid=c12c46a4-bd86-493d-803e-5d507cd7924b","ios":"levelo://app?vid=c12c46a4-bd86-493d-803e-5d507cd7924b"},"vehicle_type_id":"4","last_reported":1728335315,"current_range_meters":23200,"station_id":"ce4bhu92rcd13ifvqi70","pricing_plan_id":"cebpf4jnsgd1na2vs0mg"},{"bike_id":"1e22ea5d-d406-4b63-92d6-06a783dc0af8","system_id":"levelo_inurba_marseille","lat":43.23185,"lon":5.39983,"is_reserved":false,"is_disabled":false,"rental_uris":{"android":"levelo://app?vid=1e22ea5d-d406-4b63-92d6-06a783dc0af8","ios":"levelo://app?vid=1e22ea5d-d406-4b63-92d6-06a783dc0af8"},"vehicle_type_id":"4","last_reported":1728335315,"current_range_meters":22400,"station_id":"ce4bhn12rcd13ifvqgqg","pricing_plan_id":"cebpf4jnsgd1na2vs0mg"},{"bike_id":"e0ef52ca-c7fa-41d7-a3ea-c3e5235a2597","system_id":"levelo_inurba_marseille","lat":43.25084,"lon":5.3952,"is_reserved":false,"is_disabled":false,"rental_uris":{"android":"levelo://app?vid=e0ef52ca-c7fa-41d7-a3ea-c3e5235a2597","ios":"levelo://app?vid=e0ef52ca-c7fa-41d7-a3ea-c3e5235a2597"},"vehicle_type_id":"4","last_reported":1728335315,"current_range_meters":28800,"station_id":"ce4bhm12rcd13ifvqgkg","pricing_plan_id":"cebpf4jnsgd1na2vs0mg"},{"bike_id":"237592fa-b0be-4d9c-be4c-18a8ce2ca851","system_id":"levelo_inurba_marseille","lat":43.26558,"lon":5.37284,"is_reserved":false,"is_disabled":false,"rental_uris":{"android":"levelo://app?vid=237592fa-b0be-4d9c-be4c-18a8ce2ca851","ios":"levelo://app?vid=237592fa-b0be-4d9c-be4c-18a8ce2ca851"},"vehicle_type_id":"4","last_reported":1728335315,"current_range_meters":37600,"station_id":"ce4bhg12rcd13ifvqf70","pricing_plan_id":"cebpf4jnsgd1na2vs0mg"},{"bike_id":"efaa63e6-238b-4680-b467-c821bc6b76fb","system_id":"levelo_inurba_marseille","lat":43.30142,"lon":5.3985,"is_reserved":false,"is_disabled":false,"rental_uris":{"android":"levelo://app?vid=efaa63e6-238b-4680-b467-c821bc6b76fb","ios":"levelo://app?vid=efaa63e6-238b-4680-b467-c821bc6b76fb"},"vehicle_type_id":"4","last_reported":1728335315,"current_range_meters":4400,"station_id":"ce4bh0h2rcd13ifvqd40","pricing_plan_id":"cebpf4jnsgd1na2vs0mg"},{"bike_id":"85a8b07e-682b-4725-800e-b0749654fba5","system_id":"levelo_inurba_marseille","lat":43.24171,"lon":5.36396,"is_reserved":false,"is_disabled":false,"rental_uris":{"android":"levelo://app?vid=85a8b07e-682b-4725-800e-b0749654fba5","ios":"levelo://app?vid=85a8b07e-682b-4725-800e-b0749654fba5"},"vehicle_type_id":"4","last_reported":1728335315,"current_range_meters":22400,"station_id":"cpo36qri1sfpv3e86is0","pricing_plan_id":"cebpf4jnsgd1na2vs0mg"},{"bike_id":"19c6dacc-bcb8-4e79-b8b4-d18a54cc1928","system_id":"levelo_inurba_marseille","lat":43.27987,"lon":5.41662,"is_reserved":false,"is_disabled":false,"rental_uris":{"android":"levelo://app?vid=19c6dacc-bcb8-4e79-b8b4-d18a54cc1928","ios":"levelo://app?vid=19c6dacc-bcb8-4e79-b8b4-d18a54cc1928"},"vehicle_type_id":"4","last_reported":1728335315,"current_range_meters":38800,"station_id":"ce4bho12rcd13ifvqh1g","pricing_plan_id":"cebpf4jnsgd1na2vs0mg"},{"bike_id":"eb8fc8ee-c5fc-4298-a869-d0284f45a890","system_id":"levelo_inurba_marseille","lat":43.32365,"lon":5.38885,"is_reserved":false,"is_disabled":false,"rental_uris":{"android":"levelo://app?vid=eb8fc8ee-c5fc-4298-a869-d0284f45a890","ios":"levelo://app?vid=eb8fc8ee-c5fc-4298-a869-d0284f45a890"},"vehicle_type_id":"4","last_reported":1728335315,"current_range_meters":36800,"station_id":"ce4bhqp2rcd13ifvqhog","pricing_plan_id":"cebpf4jnsgd1na2vs0mg"},{"bike_id":"b6640f17-7ab3-4932-bbd1-5fe22e83845e","system_id":"levelo_inurba_marseille","lat":43.32292,"lon":5.38272,"is_reserved":false,"is_disabled":false,"rental_uris":{"android":"levelo://app?vid=b6640f17-7ab3-4932-bbd1-5fe22e83845e","ios":"levelo://app?vid=b6640f17-7ab3-4932-bbd1-5fe22e83845e"},"vehicle_type_id":"4","last_reported":1728335315,"current_range_meters":32000,"station_id":"ce4bhr12rcd13ifvqhqg","pricing_plan_id":"cebpf4jnsgd1na2vs0mg"},{"bike_id":"b5d0d5d7-5971-4c5e-bed9-a155ed94b0cf","system_id":"levelo_inurba_marseille","lat":43.306447,"lon":5.400958,"is_reserved":false,"is_disabled":false,"rental_uris":{"android":"levelo://app?vid=b5d0d5d7-5971-4c5e-bed9-a155ed94b0cf","ios":"levelo://app?vid=b5d0d5d7-5971-4c5e-bed9-a155ed94b0cf"},"vehicle_type_id":"4","last_reported":1728335315,"current_range_meters":37600,"station_id":"ce4bh112rcd13ifvqda0","pricing_plan_id":"cebpf4jnsgd1na2vs0mg"},{"bike_id":"6c5fa1c1-e4ab-438c-b3c6-bbf101b21f39","system_id":"levelo_inurba_marseille","lat":43.289612,"lon":5.363773,"is_reserved":false,"is_disabled":false,"rental_uris":{"android":"levelo://app?vid=6c5fa1c1-e4ab-438c-b3c6-bbf101b21f39","ios":"levelo://app?vid=6c5fa1c1-e4ab-438c-b3c6-bbf101b21f39"},"vehicle_type_id":"4","last_reported":1728335315,"current_range_meters":24800,"station_id":"ce4bhc92rcd13ifvqetg","pricing_plan_id":"cebpf4jnsgd1na2vs0mg"},{"bike_id":"9342845a-8090-4f9a-97db-07c6a543cf2b","system_id":"levelo_inurba_marseille","lat":43.29508,"lon":5.39399,"is_reserved":false,"is_disabled":false,"rental_uris":{"android":"levelo://app?vid=9342845a-8090-4f9a-97db-07c6a543cf2b","ios":"levelo://app?vid=9342845a-8090-4f9a-97db-07c6a543cf2b"},"vehicle_type_id":"4","last_reported":1728335315,"current_range_meters":2800,"station_id":"ce4bh292rcd13ifvqdf0","pricing_plan_id":"cebpf4jnsgd1na2vs0mg"},{"bike_id":"aa77d5fb-8989-4713-80a5-2c3ab7ee1a19","system_id":"levelo_inurba_marseille","lat":43.2926,"lon":5.40905,"is_reserved":false,"is_disabled":false,"rental_uris":{"android":"levelo://app?vid=aa77d5fb-8989-4713-80a5-2c3ab7ee1a19","ios":"levelo://app?vid=aa77d5fb-8989-4713-80a5-2c3ab7ee1a19"},"vehicle_type_id":"4","last_reported":1728335315,"current_range_meters":19600,"station_id":"ce4bh192rcd13ifvqdc0","pricing_plan_id":"cebpf4jnsgd1na2vs0mg"},{"bike_id":"f87c1dd0-d204-4a41-ae92-687c3cddfed1","system_id":"levelo_inurba_marseille","lat":43.2466,"lon":5.38168,"is_reserved":false,"is_disabled":false,"rental_uris":{"android":"levelo://app?vid=f87c1dd0-d204-4a41-ae92-687c3cddfed1","ios":"levelo://app?vid=f87c1dd0-d204-4a41-ae92-687c3cddfed1"},"vehicle_type_id":"4","last_reported":1728335315,"current_range_meters":6000,"station_id":"ce4bhih2rcd13ifvqfr0","pricing_plan_id":"cebpf4jnsgd1na2vs0mg"},{"bike_id":"80771c91-a7e6-46c5-8168-115408374db8","system_id":"levelo_inurba_marseille","lat":43.27997,"lon":5.40013,"is_reserved":false,"is_disabled":false,"rental_uris":{"android":"levelo://app?vid=80771c91-a7e6-46c5-8168-115408374db8","ios":"levelo://app?vid=80771c91-a7e6-46c5-8168-115408374db8"},"vehicle_type_id":"4","last_reported":1728335315,"current_range_meters":28400,"station_id":"ce4bho92rcd13ifvqh4g","pricing_plan_id":"cebpf4jnsgd1na2vs0mg"},{"bike_id":"62c20907-37b0-4a30-9212-04239ba69697","system_id":"levelo_inurba_marseille","lat":43.3133,"lon":5.39699,"is_reserved":false,"is_disabled":false,"rental_uris":{"android":"levelo://app?vid=62c20907-37b0-4a30-9212-04239ba69697","ios":"levelo://app?vid=62c20907-37b0-4a30-9212-04239ba69697"},"vehicle_type_id":"4","last_reported":1728335315,"current_range_meters":39200,"station_id":"ce4bgvp2rcd13ifvqcu0","pricing_plan_id":"cebpf4jnsgd1na2vs0mg"},{"bike_id":"d00a3477-782a-4de0-b711-15ed9dd434f4","system_id":"levelo_inurba_marseille","lat":43.23052,"lon":5.35497,"is_reserved":false,"is_disabled":false,"rental_uris":{"android":"levelo://app?vid=d00a3477-782a-4de0-b711-15ed9dd434f4","ios":"levelo://app?vid=d00a3477-782a-4de0-b711-15ed9dd434f4"},"vehicle_type_id":"4","last_reported":1728335315,"current_range_meters":8400,"station_id":"cpo3342slgdg3j2ifvpg","pricing_plan_id":"cebpf4jnsgd1na2vs0mg"},{"bike_id":"723a9ecd-2170-48ac-aed2-47ee1acfbf4e","system_id":"levelo_inurba_marseille","lat":43.30935,"lon":5.4014,"is_reserved":false,"is_disabled":false,"rental_uris":{"android":"levelo://app?vid=723a9ecd-2170-48ac-aed2-47ee1acfbf4e","ios":"levelo://app?vid=723a9ecd-2170-48ac-aed2-47ee1acfbf4e"},"vehicle_type_id":"4","last_reported":1728335315,"current_range_meters":39200,"station_id":"ce4bgvp2rcd13ifvqct0","pricing_plan_id":"cebpf4jnsgd1na2vs0mg"},{"bike_id":"d702d83d-fc8f-401a-b86a-fea9c5c03cd2","system_id":"levelo_inurba_marseille","lat":43.30883,"lon":5.39634,"is_reserved":false,"is_disabled":false,"rental_uris":{"android":"levelo://app?vid=d702d83d-fc8f-401a-b86a-fea9c5c03cd2","ios":"levelo://app?vid=d702d83d-fc8f-401a-b86a-fea9c5c03cd2"},"vehicle_type_id":"4","last_reported":1728335315,"current_range_meters":38800,"station_id":"ce4bh012rcd13ifvqcv0","pricing_plan_id":"cebpf4jnsgd1na2vs0mg"},{"bike_id":"9c5d863a-5a7e-4174-aa67-2817a0e74f57","system_id":"levelo_inurba_marseille","lat":43.28456,"lon":5.35885,"is_reserved":false,"is_disabled":false,"rental_uris":{"android":"levelo://app?vid=9c5d863a-5a7e-4174-aa67-2817a0e74f57","ios":"levelo://app?vid=9c5d863a-5a7e-4174-aa67-2817a0e74f57"},"vehicle_type_id":"4","last_reported":1728335315,"current_range_meters":33200,"station_id":"ce4bhah2rcd13ifvqei0","pricing_plan_id":"cebpf4jnsgd1na2vs0mg"},{"bike_id":"c41645cc-9ca8-4599-a273-1dfae7017ffb","system_id":"levelo_inurba_marseille","lat":43.31268,"lon":5.40175,"is_reserved":false,"is_disabled":false,"rental_uris":{"android":"levelo://app?vid=c41645cc-9ca8-4599-a273-1dfae7017ffb","ios":"levelo://app?vid=c41645cc-9ca8-4599-a273-1dfae7017ffb"},"vehicle_type_id":"4","last_reported":1728335315,"current_range_meters":16400,"station_id":"ce4bh092rcd13ifvqd30","pricing_plan_id":"cebpf4jnsgd1na2vs0mg"},{"bike_id":"0addcf89-f5f6-4899-92b3-5cd2981eb4de","system_id":"levelo_inurba_marseille","lat":43.31712,"lon":5.37767,"is_reserved":false,"is_disabled":false,"rental_uris":{"android":"levelo://app?vid=0addcf89-f5f6-4899-92b3-5cd2981eb4de","ios":"levelo://app?vid=0addcf89-f5f6-4899-92b3-5cd2981eb4de"},"vehicle_type_id":"4","last_reported":1728335315,"current_range_meters":38800,"station_id":"ce4bgth2rcd13ifvqch0","pricing_plan_id":"cebpf4jnsgd1na2vs0mg"},{"bike_id":"383e6238-5106-499a-8e26-d16b81b00a77","system_id":"levelo_inurba_marseille","lat":43.299626,"lon":5.413329,"is_reserved":false,"is_disabled":false,"rental_uris":{"android":"levelo://app?vid=383e6238-5106-499a-8e26-d16b81b00a77","ios":"levelo://app?vid=383e6238-5106-499a-8e26-d16b81b00a77"},"vehicle_type_id":"4","last_reported":1728335315,"current_range_meters":20000,"station_id":"ce4bhp12rcd13ifvqh9g","pricing_plan_id":"cebpf4jnsgd1na2vs0mg"},{"bike_id":"e8f38f77-6572-42be-9296-0cbe6e7cb972","system_id":"levelo_inurba_marseille","lat":43.23054,"lon":5.35492,"is_reserved":false,"is_disabled":false,"rental_uris":{"android":"levelo://app?vid=e8f38f77-6572-42be-9296-0cbe6e7cb972","ios":"levelo://app?vid=e8f38f77-6572-42be-9296-0cbe6e7cb972"},"vehicle_type_id":"4","last_reported":1728335315,"current_range_meters":35600,"station_id":"cpo3342slgdg3j2ifvpg","pricing_plan_id":"cebpf4jnsgd1na2vs0mg"},{"bike_id":"da2bef50-9604-4ee2-b6fe-7fbad7a1e331","system_id":"levelo_inurba_marseille","lat":43.31712,"lon":5.37768,"is_reserved":false,"is_disabled":false,"rental_uris":{"android":"levelo://app?vid=da2bef50-9604-4ee2-b6fe-7fbad7a1e331","ios":"levelo://app?vid=da2bef50-9604-4ee2-b6fe-7fbad7a1e331"},"vehicle_type_id":"4","last_reported":1728335315,"current_range_meters":38800,"station_id":"ce4bgth2rcd13ifvqch0","pricing_plan_id":"cebpf4jnsgd1na2vs0mg"},{"bike_id":"6383107e-a90b-48e5-ad67-a00f3da06e6b","system_id":"levelo_inurba_marseille","lat":43.28087,"lon":5.3966,"is_reserved":false,"is_disabled":false,"rental_uris":{"android":"levelo://app?vid=6383107e-a90b-48e5-ad67-a00f3da06e6b","ios":"levelo://app?vid=6383107e-a90b-48e5-ad67-a00f3da06e6b"},"vehicle_type_id":"4","last_reported":1728335315,"current_range_meters":16800,"station_id":"ce4bho12rcd13ifvqh2g","pricing_plan_id":"cebpf4jnsgd1na2vs0mg"},{"bike_id":"a8a49a1e-e355-4c00-a15e-72bc8ea4727f","system_id":"levelo_inurba_marseille","lat":43.2979,"lon":5.39359,"is_reserved":false,"is_disabled":false,"rental_uris":{"android":"levelo://app?vid=a8a49a1e-e355-4c00-a15e-72bc8ea4727f","ios":"levelo://app?vid=a8a49a1e-e355-4c00-a15e-72bc8ea4727f"},"vehicle_type_id":"4","last_reported":1728335315,"current_range_meters":31200,"station_id":"chh1huq6cuj3fo74tm60","pricing_plan_id":"cebpf4jnsgd1na2vs0mg"},{"bike_id":"aba7126a-32fe-4f2d-8597-35f362949104","system_id":"levelo_inurba_marseille","lat":43.28104,"lon":5.37848,"is_reserved":false,"is_disabled":false,"rental_uris":{"android":"levelo://app?vid=aba7126a-32fe-4f2d-8597-35f362949104","ios":"levelo://app?vid=aba7126a-32fe-4f2d-8597-35f362949104"},"vehicle_type_id":"4","last_reported":1728335315,"current_range_meters":38800,"station_id":"ce4bha12rcd13ifvqee0","pricing_plan_id":"cebpf4jnsgd1na2vs0mg"},{"bike_id":"7c32bc19-83af-4528-a85d-e8d00aa22fa2","system_id":"levelo_inurba_marseille","lat":43.32496,"lon":5.36569,"is_reserved":false,"is_disabled":false,"rental_uris":{"android":"levelo://app?vid=7c32bc19-83af-4528-a85d-e8d00aa22fa2","ios":"levelo://app?vid=7c32bc19-83af-4528-a85d-e8d00aa22fa2"},"vehicle_type_id":"4","last_reported":1728335315,"current_range_meters":13600,"station_id":"ce4bhs12rcd13ifvqhvg","pricing_plan_id":"cebpf4jnsgd1na2vs0mg"},{"bike_id":"26b10502-c168-4dc5-b070-1f18ddc4f76e","system_id":"levelo_inurba_marseille","lat":43.33024,"lon":5.39041,"is_reserved":false,"is_disabled":false,"rental_uris":{"android":"levelo://app?vid=26b10502-c168-4dc5-b070-1f18ddc4f76e","ios":"levelo://app?vid=26b10502-c168-4dc5-b070-1f18ddc4f76e"},"vehicle_type_id":"4","last_reported":1728335315,"current_range_meters":36400,"station_id":"ce4bhr92rcd13ifvqhrg","pricing_plan_id":"cebpf4jnsgd1na2vs0mg"},{"bike_id":"2fe9a872-9d35-432b-917d-ada3867c3c80","system_id":"levelo_inurba_marseille","lat":43.31533,"lon":5.38038,"is_reserved":false,"is_disabled":false,"rental_uris":{"android":"levelo://app?vid=2fe9a872-9d35-432b-917d-ada3867c3c80","ios":"levelo://app?vid=2fe9a872-9d35-432b-917d-ada3867c3c80"},"vehicle_type_id":"4","last_reported":1728335315,"current_range_meters":28800,"station_id":"ce4bhsp2rcd13ifvqi50","pricing_plan_id":"cebpf4jnsgd1na2vs0mg"},{"bike_id":"aa601155-2306-483c-91c1-5b8c5bc2381a","system_id":"levelo_inurba_marseille","lat":43.30637,"lon":5.40084,"is_reserved":false,"is_disabled":false,"rental_uris":{"android":"levelo://app?vid=aa601155-2306-483c-91c1-5b8c5bc2381a","ios":"levelo://app?vid=aa601155-2306-483c-91c1-5b8c5bc2381a"},"vehicle_type_id":"4","last_reported":1728335315,"current_range_meters":36800,"station_id":"ce4bh112rcd13ifvqda0","pricing_plan_id":"cebpf4jnsgd1na2vs0mg"},{"bike_id":"f015bd54-21f5-44e5-9eea-f82cf322db89","system_id":"levelo_inurba_marseille","lat":43.31996,"lon":5.38162,"is_reserved":false,"is_disabled":false,"rental_uris":{"android":"levelo://app?vid=f015bd54-21f5-44e5-9eea-f82cf322db89","ios":"levelo://app?vid=f015bd54-21f5-44e5-9eea-f82cf322db89"},"vehicle_type_id":"4","last_reported":1728335315,"current_range_meters":16800,"station_id":"ce4bhr12rcd13ifvqhpg","pricing_plan_id":"cebpf4jnsgd1na2vs0mg"},{"bike_id":"1d458ef6-e087-49c9-a1c6-43605559605c","system_id":"levelo_inurba_marseille","lat":43.289001,"lon":5.394685,"is_reserved":false,"is_disabled":false,"rental_uris":{"android":"levelo://app?vid=1d458ef6-e087-49c9-a1c6-43605559605c","ios":"levelo://app?vid=1d458ef6-e087-49c9-a1c6-43605559605c"},"vehicle_type_id":"4","last_reported":1728335315,"current_range_meters":30400,"station_id":"ce4bh092rcd13ifvqd30","pricing_plan_id":"cebpf4jnsgd1na2vs0mg"},{"bike_id":"2f4b888d-5c74-4153-900e-18576b429381","system_id":"levelo_inurba_marseille","lat":43.31688,"lon":5.40465,"is_reserved":false,"is_disabled":false,"rental_uris":{"android":"levelo://app?vid=2f4b888d-5c74-4153-900e-18576b429381","ios":"levelo://app?vid=2f4b888d-5c74-4153-900e-18576b429381"},"vehicle_type_id":"4","last_reported":1728335315,"current_range_meters":38400,"station_id":"ce4bh012rcd13ifvqd00","pricing_plan_id":"cebpf4jnsgd1na2vs0mg"},{"bike_id":"d0edae7e-7f2f-48a4-bab7-915ac2cfe93c","system_id":"levelo_inurba_marseille","lat":43.29509,"lon":5.39403,"is_reserved":false,"is_disabled":false,"rental_uris":{"android":"levelo://app?vid=d0edae7e-7f2f-48a4-bab7-915ac2cfe93c","ios":"levelo://app?vid=d0edae7e-7f2f-48a4-bab7-915ac2cfe93c"},"vehicle_type_id":"4","last_reported":1728335315,"current_range_meters":12800,"station_id":"ce4bh292rcd13ifvqdf0","pricing_plan_id":"cebpf4jnsgd1na2vs0mg"},{"bike_id":"6d4525a1-4df9-4bde-8481-acf85ddf64a9","system_id":"levelo_inurba_marseille","lat":43.31724,"lon":5.42406,"is_reserved":false,"is_disabled":false,"rental_uris":{"android":"levelo://app?vid=6d4525a1-4df9-4bde-8481-acf85ddf64a9","ios":"levelo://app?vid=6d4525a1-4df9-4bde-8481-acf85ddf64a9"},"vehicle_type_id":"4","last_reported":1728335315,"current_range_meters":8800,"station_id":"ce4bhp92rcd13ifvqhbg","pricing_plan_id":"cebpf4jnsgd1na2vs0mg"},{"bike_id":"73cf4d72-80f9-4cf2-a2ea-6dd7e6ac64f3","system_id":"levelo_inurba_marseille","lat":43.28343,"lon":5.38092,"is_reserved":false,"is_disabled":false,"rental_uris":{"android":"levelo://app?vid=73cf4d72-80f9-4cf2-a2ea-6dd7e6ac64f3","ios":"levelo://app?vid=73cf4d72-80f9-4cf2-a2ea-6dd7e6ac64f3"},"vehicle_type_id":"4","last_reported":1728335315,"current_range_meters":24800,"station_id":"ce4bh412rcd13ifvqdr0","pricing_plan_id":"cebpf4jnsgd1na2vs0mg"},{"bike_id":"c81cddcb-75c0-4784-9949-c209e28f7c17","system_id":"levelo_inurba_marseille","lat":43.23198,"lon":5.35554,"is_reserved":false,"is_disabled":false,"rental_uris":{"android":"levelo://app?vid=c81cddcb-75c0-4784-9949-c209e28f7c17","ios":"levelo://app?vid=c81cddcb-75c0-4784-9949-c209e28f7c17"},"vehicle_type_id":"4","last_reported":1728335315,"current_range_meters":3200,"station_id":"ce4bhu92rcd13ifvqi70","pricing_plan_id":"cebpf4jnsgd1na2vs0mg"},{"bike_id":"559befd4-2954-4f80-af08-dbea1929f927","system_id":"levelo_inurba_marseille","lat":43.29191,"lon":5.39326,"is_reserved":false,"is_disabled":false,"rental_uris":{"android":"levelo://app?vid=559befd4-2954-4f80-af08-dbea1929f927","ios":"levelo://app?vid=559befd4-2954-4f80-af08-dbea1929f927"},"vehicle_type_id":"4","last_reported":1728335315,"current_range_meters":12000,"station_id":"ce4bh192rcd13ifvqdd0","pricing_plan_id":"cebpf4jnsgd1na2vs0mg"},{"bike_id":"c4bcf820-9ca8-4dd7-b67e-513aac5608f8","system_id":"levelo_inurba_marseille","lat":43.27909,"lon":5.39587,"is_reserved":false,"is_disabled":false,"rental_uris":{"android":"levelo://app?vid=c4bcf820-9ca8-4dd7-b67e-513aac5608f8","ios":"levelo://app?vid=c4bcf820-9ca8-4dd7-b67e-513aac5608f8"},"vehicle_type_id":"4","last_reported":1728335315,"current_range_meters":4000,"station_id":"ce4bhf92rcd13ifvqf40","pricing_plan_id":"cebpf4jnsgd1na2vs0mg"},{"bike_id":"513184d9-4a6b-49fd-81e0-1b13bcd19fd6","system_id":"levelo_inurba_marseille","lat":43.28422,"lon":5.40027,"is_reserved":false,"is_disabled":false,"rental_uris":{"android":"levelo://app?vid=513184d9-4a6b-49fd-81e0-1b13bcd19fd6","ios":"levelo://app?vid=513184d9-4a6b-49fd-81e0-1b13bcd19fd6"},"vehicle_type_id":"4","last_reported":1728335315,"current_range_meters":25600,"station_id":"","pricing_plan_id":"cebpf4jnsgd1na2vs0mg"},{"bike_id":"f15e7e2e-a7e1-47b2-877a-c595706545c7","system_id":"levelo_inurba_marseille","lat":43.28154,"lon":5.42646,"is_reserved":false,"is_disabled":false,"rental_uris":{"android":"levelo://app?vid=f15e7e2e-a7e1-47b2-877a-c595706545c7","ios":"levelo://app?vid=f15e7e2e-a7e1-47b2-877a-c595706545c7"},"vehicle_type_id":"4","last_reported":1728335315,"current_range_meters":39200,"station_id":"ce4bhnh2rcd13ifvqgug","pricing_plan_id":"cebpf4jnsgd1na2vs0mg"},{"bike_id":"93d45870-2e1c-4ed1-9664-7b219a4ed443","system_id":"levelo_inurba_marseille","lat":43.22931,"lon":5.35382,"is_reserved":false,"is_disabled":false,"rental_uris":{"android":"levelo://app?vid=93d45870-2e1c-4ed1-9664-7b219a4ed443","ios":"levelo://app?vid=93d45870-2e1c-4ed1-9664-7b219a4ed443"},"vehicle_type_id":"4","last_reported":1728335315,"current_range_meters":35200,"station_id":"cpo3532slgdg3j2ikp40","pricing_plan_id":"cebpf4jnsgd1na2vs0mg"},{"bike_id":"d4dfa52e-76b8-410b-b129-46d068df677c","system_id":"levelo_inurba_marseille","lat":43.31537,"lon":5.3803,"is_reserved":false,"is_disabled":false,"rental_uris":{"android":"levelo://app?vid=d4dfa52e-76b8-410b-b129-46d068df677c","ios":"levelo://app?vid=d4dfa52e-76b8-410b-b129-46d068df677c"},"vehicle_type_id":"4","last_reported":1728335315,"current_range_meters":28000,"station_id":"ce4bhsp2rcd13ifvqi50","pricing_plan_id":"cebpf4jnsgd1na2vs0mg"},{"bike_id":"4a7a48a7-ee41-4f0c-a47a-1a51fae4c62e","system_id":"levelo_inurba_marseille","lat":43.27429,"lon":5.39413,"is_reserved":false,"is_disabled":false,"rental_uris":{"android":"levelo://app?vid=4a7a48a7-ee41-4f0c-a47a-1a51fae4c62e","ios":"levelo://app?vid=4a7a48a7-ee41-4f0c-a47a-1a51fae4c62e"},"vehicle_type_id":"4","last_reported":1728335315,"current_range_meters":38800,"station_id":"ce4bhdp2rcd13ifvqf20","pricing_plan_id":"cebpf4jnsgd1na2vs0mg"},{"bike_id":"0e3bfff6-2bee-4be5-8568-766c0160a493","system_id":"levelo_inurba_marseille","lat":43.31713,"lon":5.43706,"is_reserved":false,"is_disabled":false,"rental_uris":{"android":"levelo://app?vid=0e3bfff6-2bee-4be5-8568-766c0160a493","ios":"levelo://app?vid=0e3bfff6-2bee-4be5-8568-766c0160a493"},"vehicle_type_id":"4","last_reported":1728335315,"current_range_meters":10800,"station_id":"ce4bhp92rcd13ifvqhcg","pricing_plan_id":"cebpf4jnsgd1na2vs0mg"},{"bike_id":"6e512044-ef12-457b-bcca-26bd86c5618a","system_id":"levelo_inurba_marseille","lat":43.23061,"lon":5.3549,"is_reserved":false,"is_disabled":false,"rental_uris":{"android":"levelo://app?vid=6e512044-ef12-457b-bcca-26bd86c5618a","ios":"levelo://app?vid=6e512044-ef12-457b-bcca-26bd86c5618a"},"vehicle_type_id":"4","last_reported":1728335315,"current_range_meters":35600,"station_id":"cpo3342slgdg3j2ifvpg","pricing_plan_id":"cebpf4jnsgd1na2vs0mg"},{"bike_id":"7cf6d405-7c7a-4fff-b767-33947faeb342","system_id":"levelo_inurba_marseille","lat":43.28369,"lon":5.38619,"is_reserved":false,"is_disabled":false,"rental_uris":{"android":"levelo://app?vid=7cf6d405-7c7a-4fff-b767-33947faeb342","ios":"levelo://app?vid=7cf6d405-7c7a-4fff-b767-33947faeb342"},"vehicle_type_id":"4","last_reported":1728335315,"current_range_meters":35600,"station_id":"ce4bh492rcd13ifvqdvg","pricing_plan_id":"cebpf4jnsgd1na2vs0mg"},{"bike_id":"baba4cb0-5224-4c87-9a3d-c3e70a3aff74","system_id":"levelo_inurba_marseille","lat":43.28413,"lon":5.37518,"is_reserved":false,"is_disabled":false,"rental_uris":{"android":"levelo://app?vid=baba4cb0-5224-4c87-9a3d-c3e70a3aff74","ios":"levelo://app?vid=baba4cb0-5224-4c87-9a3d-c3e70a3aff74"},"vehicle_type_id":"4","last_reported":1728335315,"current_range_meters":12800,"station_id":"ce4bh412rcd13ifvqds0","pricing_plan_id":"cebpf4jnsgd1na2vs0mg"},{"bike_id":"93a538e2-33d2-44e2-ac66-feb42e05dfad","system_id":"levelo_inurba_marseille","lat":43.24166,"lon":5.36399,"is_reserved":false,"is_disabled":false,"rental_uris":{"android":"levelo://app?vid=93a538e2-33d2-44e2-ac66-feb42e05dfad","ios":"levelo://app?vid=93a538e2-33d2-44e2-ac66-feb42e05dfad"},"vehicle_type_id":"4","last_reported":1728335315,"current_range_meters":27600,"station_id":"cpo36qri1sfpv3e86is0","pricing_plan_id":"cebpf4jnsgd1na2vs0mg"},{"bike_id":"0459141a-cc24-4e8c-b966-1ce7a4ce76ac","system_id":"levelo_inurba_marseille","lat":43.30898,"lon":5.39631,"is_reserved":false,"is_disabled":false,"rental_uris":{"android":"levelo://app?vid=0459141a-cc24-4e8c-b966-1ce7a4ce76ac","ios":"levelo://app?vid=0459141a-cc24-4e8c-b966-1ce7a4ce76ac"},"vehicle_type_id":"4","last_reported":1728335315,"current_range_meters":14400,"station_id":"ce4bh012rcd13ifvqcv0","pricing_plan_id":"cebpf4jnsgd1na2vs0mg"},{"bike_id":"b8c34910-bedb-4fbe-8bb0-a9baebff9f55","system_id":"levelo_inurba_marseille","lat":43.30601,"lon":5.39363,"is_reserved":false,"is_disabled":false,"rental_uris":{"android":"levelo://app?vid=b8c34910-bedb-4fbe-8bb0-a9baebff9f55","ios":"levelo://app?vid=b8c34910-bedb-4fbe-8bb0-a9baebff9f55"},"vehicle_type_id":"4","last_reported":1728335315,"current_range_meters":9200,"station_id":"ce4bh0p2rcd13ifvqd80","pricing_plan_id":"cebpf4jnsgd1na2vs0mg"},{"bike_id":"9cbda05b-bb81-4871-ad52-677b5984fbf3","system_id":"levelo_inurba_marseille","lat":43.30597,"lon":5.39354,"is_reserved":false,"is_disabled":false,"rental_uris":{"android":"levelo://app?vid=9cbda05b-bb81-4871-ad52-677b5984fbf3","ios":"levelo://app?vid=9cbda05b-bb81-4871-ad52-677b5984fbf3"},"vehicle_type_id":"4","last_reported":1728335315,"current_range_meters":28800,"station_id":"ce4bh0p2rcd13ifvqd80","pricing_plan_id":"cebpf4jnsgd1na2vs0mg"},{"bike_id":"2a9899af-5714-4404-b731-ffd6243bebc6","system_id":"levelo_inurba_marseille","lat":43.29065,"lon":5.380212,"is_reserved":false,"is_disabled":false,"rental_uris":{"android":"levelo://app?vid=2a9899af-5714-4404-b731-ffd6243bebc6","ios":"levelo://app?vid=2a9899af-5714-4404-b731-ffd6243bebc6"},"vehicle_type_id":"4","last_reported":1728335315,"current_range_meters":38800,"station_id":"ce4bh512rcd13ifvqe2g","pricing_plan_id":"cebpf4jnsgd1na2vs0mg"},{"bike_id":"29966f94-93ce-4253-868a-a618db9926bb","system_id":"levelo_inurba_marseille","lat":43.25118,"lon":5.40316,"is_reserved":false,"is_disabled":false,"rental_uris":{"android":"levelo://app?vid=29966f94-93ce-4253-868a-a618db9926bb","ios":"levelo://app?vid=29966f94-93ce-4253-868a-a618db9926bb"},"vehicle_type_id":"4","last_reported":1728335315,"current_range_meters":38800,"station_id":"ce4bhlh2rcd13ifvqgig","pricing_plan_id":"cebpf4jnsgd1na2vs0mg"},{"bike_id":"1a383471-4bf5-44f2-be81-c70c25951d1e","system_id":"levelo_inurba_marseille","lat":43.2742,"lon":5.39416,"is_reserved":false,"is_disabled":false,"rental_uris":{"android":"levelo://app?vid=1a383471-4bf5-44f2-be81-c70c25951d1e","ios":"levelo://app?vid=1a383471-4bf5-44f2-be81-c70c25951d1e"},"vehicle_type_id":"4","last_reported":1728335315,"current_range_meters":38800,"station_id":"ce4bhdp2rcd13ifvqf20","pricing_plan_id":"cebpf4jnsgd1na2vs0mg"},{"bike_id":"f3b8d033-a992-4b7a-8d9a-4edae3486b52","system_id":"levelo_inurba_marseille","lat":43.295873,"lon":5.399743,"is_reserved":false,"is_disabled":false,"rental_uris":{"android":"levelo://app?vid=f3b8d033-a992-4b7a-8d9a-4edae3486b52","ios":"levelo://app?vid=f3b8d033-a992-4b7a-8d9a-4edae3486b52"},"vehicle_type_id":"4","last_reported":1728335315,"current_range_meters":38000,"station_id":"ce4bh312rcd13ifvqdj0","pricing_plan_id":"cebpf4jnsgd1na2vs0mg"},{"bike_id":"f72a7e61-6a77-4ec8-baa6-83065951bb84","system_id":"levelo_inurba_marseille","lat":43.25865,"lon":5.39903,"is_reserved":false,"is_disabled":false,"rental_uris":{"android":"levelo://app?vid=f72a7e61-6a77-4ec8-baa6-83065951bb84","ios":"levelo://app?vid=f72a7e61-6a77-4ec8-baa6-83065951bb84"},"vehicle_type_id":"4","last_reported":1728335315,"current_range_meters":39200,"station_id":"ce4bhl92rcd13ifvqghg","pricing_plan_id":"cebpf4jnsgd1na2vs0mg"},{"bike_id":"5860f3b2-f051-4a4c-8c56-9c5e6381f8e9","system_id":"levelo_inurba_marseille","lat":43.28454,"lon":5.35895,"is_reserved":false,"is_disabled":false,"rental_uris":{"android":"levelo://app?vid=5860f3b2-f051-4a4c-8c56-9c5e6381f8e9","ios":"levelo://app?vid=5860f3b2-f051-4a4c-8c56-9c5e6381f8e9"},"vehicle_type_id":"4","last_reported":1728335315,"current_range_meters":6800,"station_id":"ce4bhah2rcd13ifvqei0","pricing_plan_id":"cebpf4jnsgd1na2vs0mg"},{"bike_id":"d8423ceb-ab39-4641-959d-007170ecd69d","system_id":"levelo_inurba_marseille","lat":43.29628,"lon":5.406,"is_reserved":false,"is_disabled":false,"rental_uris":{"android":"levelo://app?vid=d8423ceb-ab39-4641-959d-007170ecd69d","ios":"levelo://app?vid=d8423ceb-ab39-4641-959d-007170ecd69d"},"vehicle_type_id":"4","last_reported":1728335315,"current_range_meters":16400,"station_id":"ce4bh0h2rcd13ifvqd60","pricing_plan_id":"cebpf4jnsgd1na2vs0mg"},{"bike_id":"69f263f7-4998-4914-88a5-81abd83e74be","system_id":"levelo_inurba_marseille","lat":43.30431,"lon":5.38885,"is_reserved":false,"is_disabled":false,"rental_uris":{"android":"levelo://app?vid=69f263f7-4998-4914-88a5-81abd83e74be","ios":"levelo://app?vid=69f263f7-4998-4914-88a5-81abd83e74be"},"vehicle_type_id":"4","last_reported":1728335315,"current_range_meters":2000,"station_id":"ce4bgk12rcd13ifvqbi0","pricing_plan_id":"cebpf4jnsgd1na2vs0mg"},{"bike_id":"17dbb085-5164-41ed-87e1-785561e83a63","system_id":"levelo_inurba_marseille","lat":43.3066,"lon":5.4008,"is_reserved":false,"is_disabled":false,"rental_uris":{"android":"levelo://app?vid=17dbb085-5164-41ed-87e1-785561e83a63","ios":"levelo://app?vid=17dbb085-5164-41ed-87e1-785561e83a63"},"vehicle_type_id":"4","last_reported":1728335315,"current_range_meters":36800,"station_id":"ce4bh112rcd13ifvqda0","pricing_plan_id":"cebpf4jnsgd1na2vs0mg"},{"bike_id":"b7d05dde-7300-4340-ba3e-7a357ef4dfc2","system_id":"levelo_inurba_marseille","lat":43.29879,"lon":5.389,"is_reserved":false,"is_disabled":false,"rental_uris":{"android":"levelo://app?vid=b7d05dde-7300-4340-ba3e-7a357ef4dfc2","ios":"levelo://app?vid=b7d05dde-7300-4340-ba3e-7a357ef4dfc2"},"vehicle_type_id":"4","last_reported":1728335315,"current_range_meters":18000,"station_id":"ce4bh392rcd13ifvqdl0","pricing_plan_id":"cebpf4jnsgd1na2vs0mg"},{"bike_id":"e63a6167-0912-47bd-9bd2-92b36a9b595f","system_id":"levelo_inurba_marseille","lat":43.30892,"lon":5.37191,"is_reserved":false,"is_disabled":false,"rental_uris":{"android":"levelo://app?vid=e63a6167-0912-47bd-9bd2-92b36a9b595f","ios":"levelo://app?vid=e63a6167-0912-47bd-9bd2-92b36a9b595f"},"vehicle_type_id":"4","last_reported":1728335315,"current_range_meters":36400,"station_id":"ce4bguh2rcd13ifvqckg","pricing_plan_id":"cebpf4jnsgd1na2vs0mg"},{"bike_id":"08b86dd2-eb8a-47fa-a598-4218310a9dcc","system_id":"levelo_inurba_marseille","lat":43.28268,"lon":5.35073,"is_reserved":false,"is_disabled":false,"rental_uris":{"android":"levelo://app?vid=08b86dd2-eb8a-47fa-a598-4218310a9dcc","ios":"levelo://app?vid=08b86dd2-eb8a-47fa-a598-4218310a9dcc"},"vehicle_type_id":"4","last_reported":1728335315,"current_range_meters":27600,"station_id":"ce4bhbp2rcd13ifvqerg","pricing_plan_id":"cebpf4jnsgd1na2vs0mg"},{"bike_id":"ab0ef8f6-2d64-477f-ab35-7e54daa51f0f","system_id":"levelo_inurba_marseille","lat":43.31712,"lon":5.4371,"is_reserved":false,"is_disabled":false,"rental_uris":{"android":"levelo://app?vid=ab0ef8f6-2d64-477f-ab35-7e54daa51f0f","ios":"levelo://app?vid=ab0ef8f6-2d64-477f-ab35-7e54daa51f0f"},"vehicle_type_id":"4","last_reported":1728335315,"current_range_meters":24400,"station_id":"ce4bhp92rcd13ifvqhcg","pricing_plan_id":"cebpf4jnsgd1na2vs0mg"},{"bike_id":"c45340a7-5257-408a-897a-01994bd38219","system_id":"levelo_inurba_marseille","lat":43.28454,"lon":5.35893,"is_reserved":false,"is_disabled":false,"rental_uris":{"android":"levelo://app?vid=c45340a7-5257-408a-897a-01994bd38219","ios":"levelo://app?vid=c45340a7-5257-408a-897a-01994bd38219"},"vehicle_type_id":"4","last_reported":1728335315,"current_range_meters":4400,"station_id":"ce4bhah2rcd13ifvqei0","pricing_plan_id":"cebpf4jnsgd1na2vs0mg"},{"bike_id":"22e357fa-c099-46f6-b123-0f532103db8c","system_id":"levelo_inurba_marseille","lat":43.31331,"lon":5.39698,"is_reserved":false,"is_disabled":false,"rental_uris":{"android":"levelo://app?vid=22e357fa-c099-46f6-b123-0f532103db8c","ios":"levelo://app?vid=22e357fa-c099-46f6-b123-0f532103db8c"},"vehicle_type_id":"4","last_reported":1728335315,"current_range_meters":20000,"station_id":"ce4bgvp2rcd13ifvqcu0","pricing_plan_id":"cebpf4jnsgd1na2vs0mg"},{"bike_id":"4c4ea176-7858-45f0-bee1-610fc6cd7bf9","system_id":"levelo_inurba_marseille","lat":43.3055,"lon":5.38421,"is_reserved":false,"is_disabled":false,"rental_uris":{"android":"levelo://app?vid=4c4ea176-7858-45f0-bee1-610fc6cd7bf9","ios":"levelo://app?vid=4c4ea176-7858-45f0-bee1-610fc6cd7bf9"},"vehicle_type_id":"4","last_reported":1728335315,"current_range_meters":38400,"station_id":"ce4bgg92rcd13ifvqb30","pricing_plan_id":"cebpf4jnsgd1na2vs0mg"},{"bike_id":"b9644df2-b234-4f72-b771-b50713752d5c","system_id":"levelo_inurba_marseille","lat":43.31073,"lon":5.40091,"is_reserved":false,"is_disabled":false,"rental_uris":{"android":"levelo://app?vid=b9644df2-b234-4f72-b771-b50713752d5c","ios":"levelo://app?vid=b9644df2-b234-4f72-b771-b50713752d5c"},"vehicle_type_id":"4","last_reported":1728335315,"current_range_meters":2800,"station_id":"","pricing_plan_id":"cebpf4jnsgd1na2vs0mg"},{"bike_id":"f7612392-4f4b-453b-a64c-499de3c2600f","system_id":"levelo_inurba_marseille","lat":43.24167,"lon":5.36402,"is_reserved":false,"is_disabled":false,"rental_uris":{"android":"levelo://app?vid=f7612392-4f4b-453b-a64c-499de3c2600f","ios":"levelo://app?vid=f7612392-4f4b-453b-a64c-499de3c2600f"},"vehicle_type_id":"4","last_reported":1728335315,"current_range_meters":35200,"station_id":"cpo36qri1sfpv3e86is0","pricing_plan_id":"cebpf4jnsgd1na2vs0mg"},{"bike_id":"b9f7e217-2396-4f17-99e6-316574934f3f","system_id":"levelo_inurba_marseille","lat":43.2846,"lon":5.35884,"is_reserved":false,"is_disabled":false,"rental_uris":{"android":"levelo://app?vid=b9f7e217-2396-4f17-99e6-316574934f3f","ios":"levelo://app?vid=b9f7e217-2396-4f17-99e6-316574934f3f"},"vehicle_type_id":"4","last_reported":1728335315,"current_range_meters":39200,"station_id":"ce4bhah2rcd13ifvqei0","pricing_plan_id":"cebpf4jnsgd1na2vs0mg"},{"bike_id":"9a873b21-4325-4346-9f74-80b6d80ab720","system_id":"levelo_inurba_marseille","lat":43.2694,"lon":5.38636,"is_reserved":false,"is_disabled":false,"rental_uris":{"android":"levelo://app?vid=9a873b21-4325-4346-9f74-80b6d80ab720","ios":"levelo://app?vid=9a873b21-4325-4346-9f74-80b6d80ab720"},"vehicle_type_id":"4","last_reported":1728335315,"current_range_meters":20400,"station_id":"ce4bhh92rcd13ifvqfh0","pricing_plan_id":"cebpf4jnsgd1na2vs0mg"},{"bike_id":"e7244c4d-5cb8-439c-ad7b-ed13b630c5ff","system_id":"levelo_inurba_marseille","lat":43.32292,"lon":5.38266,"is_reserved":false,"is_disabled":false,"rental_uris":{"android":"levelo://app?vid=e7244c4d-5cb8-439c-ad7b-ed13b630c5ff","ios":"levelo://app?vid=e7244c4d-5cb8-439c-ad7b-ed13b630c5ff"},"vehicle_type_id":"4","last_reported":1728335315,"current_range_meters":35600,"station_id":"ce4bhr12rcd13ifvqhqg","pricing_plan_id":"cebpf4jnsgd1na2vs0mg"},{"bike_id":"1adffda0-7d1a-494c-9d26-ebb4817fef44","system_id":"levelo_inurba_marseille","lat":43.309692,"lon":5.382655,"is_reserved":false,"is_disabled":false,"rental_uris":{"android":"levelo://app?vid=1adffda0-7d1a-494c-9d26-ebb4817fef44","ios":"levelo://app?vid=1adffda0-7d1a-494c-9d26-ebb4817fef44"},"vehicle_type_id":"4","last_reported":1728335315,"current_range_meters":29600,"station_id":"ce4bh392rcd13ifvqdl0","pricing_plan_id":"cebpf4jnsgd1na2vs0mg"},{"bike_id":"62ffd9a6-6954-4d30-82e9-c6d501fe541b","system_id":"levelo_inurba_marseille","lat":43.31332,"lon":5.397,"is_reserved":false,"is_disabled":false,"rental_uris":{"android":"levelo://app?vid=62ffd9a6-6954-4d30-82e9-c6d501fe541b","ios":"levelo://app?vid=62ffd9a6-6954-4d30-82e9-c6d501fe541b"},"vehicle_type_id":"4","last_reported":1728335315,"current_range_meters":10000,"station_id":"ce4bgvp2rcd13ifvqcu0","pricing_plan_id":"cebpf4jnsgd1na2vs0mg"},{"bike_id":"e592fa8f-aa5a-46f1-b2f4-aa0aa5f30808","system_id":"levelo_inurba_marseille","lat":43.24658,"lon":5.38164,"is_reserved":false,"is_disabled":false,"rental_uris":{"android":"levelo://app?vid=e592fa8f-aa5a-46f1-b2f4-aa0aa5f30808","ios":"levelo://app?vid=e592fa8f-aa5a-46f1-b2f4-aa0aa5f30808"},"vehicle_type_id":"4","last_reported":1728335315,"current_range_meters":18000,"station_id":"ce4bhih2rcd13ifvqfr0","pricing_plan_id":"cebpf4jnsgd1na2vs0mg"},{"bike_id":"5005bbdf-c11c-46c5-8e2f-61b3caedfbd1","system_id":"levelo_inurba_marseille","lat":43.2781,"lon":5.40719,"is_reserved":false,"is_disabled":false,"rental_uris":{"android":"levelo://app?vid=5005bbdf-c11c-46c5-8e2f-61b3caedfbd1","ios":"levelo://app?vid=5005bbdf-c11c-46c5-8e2f-61b3caedfbd1"},"vehicle_type_id":"4","last_reported":1728335315,"current_range_meters":37600,"station_id":"ce4bhnh2rcd13ifvqgtg","pricing_plan_id":"cebpf4jnsgd1na2vs0mg"},{"bike_id":"56db9344-a034-485c-ae82-57c3e91166bb","system_id":"levelo_inurba_marseille","lat":43.27059,"lon":5.40267,"is_reserved":false,"is_disabled":false,"rental_uris":{"android":"levelo://app?vid=56db9344-a034-485c-ae82-57c3e91166bb","ios":"levelo://app?vid=56db9344-a034-485c-ae82-57c3e91166bb"},"vehicle_type_id":"4","last_reported":1728335315,"current_range_meters":38800,"station_id":"ce4bhk92rcd13ifvqgc0","pricing_plan_id":"cebpf4jnsgd1na2vs0mg"},{"bike_id":"9926b2cd-cda9-472b-beeb-c01e9ccfae0f","system_id":"levelo_inurba_marseille","lat":43.29609,"lon":5.38109,"is_reserved":false,"is_disabled":false,"rental_uris":{"android":"levelo://app?vid=9926b2cd-cda9-472b-beeb-c01e9ccfae0f","ios":"levelo://app?vid=9926b2cd-cda9-472b-beeb-c01e9ccfae0f"},"vehicle_type_id":"4","last_reported":1728335315,"current_range_meters":37600,"station_id":"ce4bgl12rcd13ifvqbo0","pricing_plan_id":"cebpf4jnsgd1na2vs0mg"},{"bike_id":"e1c9d18b-2a8a-45d7-a26f-341b63761362","system_id":"levelo_inurba_marseille","lat":43.34303,"lon":5.40869,"is_reserved":false,"is_disabled":false,"rental_uris":{"android":"levelo://app?vid=e1c9d18b-2a8a-45d7-a26f-341b63761362","ios":"levelo://app?vid=e1c9d18b-2a8a-45d7-a26f-341b63761362"},"vehicle_type_id":"4","last_reported":1728335315,"current_range_meters":7200,"station_id":"","pricing_plan_id":"cebpf4jnsgd1na2vs0mg"},{"bike_id":"f4d095d8-cdc6-47d4-b61e-2df237994e68","system_id":"levelo_inurba_marseille","lat":43.26914,"lon":5.3894,"is_reserved":false,"is_disabled":false,"rental_uris":{"android":"levelo://app?vid=f4d095d8-cdc6-47d4-b61e-2df237994e68","ios":"levelo://app?vid=f4d095d8-cdc6-47d4-b61e-2df237994e68"},"vehicle_type_id":"4","last_reported":1728335315,"current_range_meters":22400,"station_id":"ce4bhhh2rcd13ifvqfl0","pricing_plan_id":"cebpf4jnsgd1na2vs0mg"},{"bike_id":"908a6a8f-fe51-456d-8950-79ae85ea5537","system_id":"levelo_inurba_marseille","lat":43.25119,"lon":5.40318,"is_reserved":false,"is_disabled":false,"rental_uris":{"android":"levelo://app?vid=908a6a8f-fe51-456d-8950-79ae85ea5537","ios":"levelo://app?vid=908a6a8f-fe51-456d-8950-79ae85ea5537"},"vehicle_type_id":"4","last_reported":1728335315,"current_range_meters":27600,"station_id":"ce4bhlh2rcd13ifvqgig","pricing_plan_id":"cebpf4jnsgd1na2vs0mg"},{"bike_id":"30ad7e28-62d7-4826-8ab4-6cd253fbe1f7","system_id":"levelo_inurba_marseille","lat":43.30542,"lon":5.38431,"is_reserved":false,"is_disabled":false,"rental_uris":{"android":"levelo://app?vid=30ad7e28-62d7-4826-8ab4-6cd253fbe1f7","ios":"levelo://app?vid=30ad7e28-62d7-4826-8ab4-6cd253fbe1f7"},"vehicle_type_id":"4","last_reported":1728335315,"current_range_meters":25600,"station_id":"ce4bgg92rcd13ifvqb30","pricing_plan_id":"cebpf4jnsgd1na2vs0mg"},{"bike_id":"c99142a8-9bc4-4fda-b727-c3f121942b33","system_id":"levelo_inurba_marseille","lat":43.29799,"lon":5.40405,"is_reserved":false,"is_disabled":false,"rental_uris":{"android":"levelo://app?vid=c99142a8-9bc4-4fda-b727-c3f121942b33","ios":"levelo://app?vid=c99142a8-9bc4-4fda-b727-c3f121942b33"},"vehicle_type_id":"4","last_reported":1728335315,"current_range_meters":18000,"station_id":"ce4bh112rcd13ifvqd90","pricing_plan_id":"cebpf4jnsgd1na2vs0mg"},{"bike_id":"12cfbe49-322e-4e6e-8e64-3f34de285b4f","system_id":"levelo_inurba_marseille","lat":43.313342,"lon":5.396964,"is_reserved":false,"is_disabled":false,"rental_uris":{"android":"levelo://app?vid=12cfbe49-322e-4e6e-8e64-3f34de285b4f","ios":"levelo://app?vid=12cfbe49-322e-4e6e-8e64-3f34de285b4f"},"vehicle_type_id":"4","last_reported":1728335315,"current_range_meters":33200,"station_id":"ce4bgvp2rcd13ifvqcu0","pricing_plan_id":"cebpf4jnsgd1na2vs0mg"},{"bike_id":"20d1726b-8240-4411-9d91-ee6a94082428","system_id":"levelo_inurba_marseille","lat":43.23962,"lon":5.36631,"is_reserved":false,"is_disabled":false,"rental_uris":{"android":"levelo://app?vid=20d1726b-8240-4411-9d91-ee6a94082428","ios":"levelo://app?vid=20d1726b-8240-4411-9d91-ee6a94082428"},"vehicle_type_id":"4","last_reported":1728335315,"current_range_meters":14400,"station_id":"ce4bhi12rcd13ifvqfp0","pricing_plan_id":"cebpf4jnsgd1na2vs0mg"},{"bike_id":"f89ffac7-188e-4d3b-94e4-106f4f8956d0","system_id":"levelo_inurba_marseille","lat":43.30423,"lon":5.38894,"is_reserved":false,"is_disabled":false,"rental_uris":{"android":"levelo://app?vid=f89ffac7-188e-4d3b-94e4-106f4f8956d0","ios":"levelo://app?vid=f89ffac7-188e-4d3b-94e4-106f4f8956d0"},"vehicle_type_id":"4","last_reported":1728335315,"current_range_meters":8800,"station_id":"ce4bgk12rcd13ifvqbi0","pricing_plan_id":"cebpf4jnsgd1na2vs0mg"},{"bike_id":"550b9f1b-76f2-4979-a430-35bd0d1101bd","system_id":"levelo_inurba_marseille","lat":43.32365,"lon":5.38883,"is_reserved":false,"is_disabled":false,"rental_uris":{"android":"levelo://app?vid=550b9f1b-76f2-4979-a430-35bd0d1101bd","ios":"levelo://app?vid=550b9f1b-76f2-4979-a430-35bd0d1101bd"},"vehicle_type_id":"4","last_reported":1728335315,"current_range_meters":38800,"station_id":"ce4bhqp2rcd13ifvqhog","pricing_plan_id":"cebpf4jnsgd1na2vs0mg"},{"bike_id":"e6c13b0d-61b0-4cd5-b927-f4673881a7ed","system_id":"levelo_inurba_marseille","lat":43.2827,"lon":5.35061,"is_reserved":false,"is_disabled":false,"rental_uris":{"android":"levelo://app?vid=e6c13b0d-61b0-4cd5-b927-f4673881a7ed","ios":"levelo://app?vid=e6c13b0d-61b0-4cd5-b927-f4673881a7ed"},"vehicle_type_id":"4","last_reported":1728335315,"current_range_meters":10000,"station_id":"ce4bhbp2rcd13ifvqerg","pricing_plan_id":"cebpf4jnsgd1na2vs0mg"},{"bike_id":"542404d0-7ad8-4d88-9837-14b7ea9cdc5a","system_id":"levelo_inurba_marseille","lat":43.31715,"lon":5.43703,"is_reserved":false,"is_disabled":false,"rental_uris":{"android":"levelo://app?vid=542404d0-7ad8-4d88-9837-14b7ea9cdc5a","ios":"levelo://app?vid=542404d0-7ad8-4d88-9837-14b7ea9cdc5a"},"vehicle_type_id":"4","last_reported":1728335315,"current_range_meters":38800,"station_id":"ce4bhp92rcd13ifvqhcg","pricing_plan_id":"cebpf4jnsgd1na2vs0mg"},{"bike_id":"0d5796fb-87ef-472d-940f-653fb21948cf","system_id":"levelo_inurba_marseille","lat":43.29552,"lon":5.4229,"is_reserved":false,"is_disabled":false,"rental_uris":{"android":"levelo://app?vid=0d5796fb-87ef-472d-940f-653fb21948cf","ios":"levelo://app?vid=0d5796fb-87ef-472d-940f-653fb21948cf"},"vehicle_type_id":"4","last_reported":1728335315,"current_range_meters":38800,"station_id":"ce4bhph2rcd13ifvqhdg","pricing_plan_id":"cebpf4jnsgd1na2vs0mg"},{"bike_id":"a774f550-3ce3-43eb-9d80-b5fdc228d567","system_id":"levelo_inurba_marseille","lat":43.31063,"lon":5.38353,"is_reserved":false,"is_disabled":false,"rental_uris":{"android":"levelo://app?vid=a774f550-3ce3-43eb-9d80-b5fdc228d567","ios":"levelo://app?vid=a774f550-3ce3-43eb-9d80-b5fdc228d567"},"vehicle_type_id":"4","last_reported":1728335315,"current_range_meters":38800,"station_id":"ce4bgv92rcd13ifvqcr0","pricing_plan_id":"cebpf4jnsgd1na2vs0mg"},{"bike_id":"6731d1b1-b391-47f7-84a2-e5222ded00d2","system_id":"levelo_inurba_marseille","lat":43.33023,"lon":5.39043,"is_reserved":false,"is_disabled":false,"rental_uris":{"android":"levelo://app?vid=6731d1b1-b391-47f7-84a2-e5222ded00d2","ios":"levelo://app?vid=6731d1b1-b391-47f7-84a2-e5222ded00d2"},"vehicle_type_id":"4","last_reported":1728335315,"current_range_meters":28000,"station_id":"ce4bhr92rcd13ifvqhrg","pricing_plan_id":"cebpf4jnsgd1na2vs0mg"},{"bike_id":"bdbea2c8-d6fa-4dea-bb0d-46c273f8832f","system_id":"levelo_inurba_marseille","lat":43.30305,"lon":5.39204,"is_reserved":false,"is_disabled":false,"rental_uris":{"android":"levelo://app?vid=bdbea2c8-d6fa-4dea-bb0d-46c273f8832f","ios":"levelo://app?vid=bdbea2c8-d6fa-4dea-bb0d-46c273f8832f"},"vehicle_type_id":"4","last_reported":1728335315,"current_range_meters":22000,"station_id":"ce4bgkh2rcd13ifvqbk0","pricing_plan_id":"cebpf4jnsgd1na2vs0mg"},{"bike_id":"54a538c6-ff8c-4fa6-a908-43972cc779a7","system_id":"levelo_inurba_marseille","lat":43.263794,"lon":5.378053,"is_reserved":false,"is_disabled":false,"rental_uris":{"android":"levelo://app?vid=54a538c6-ff8c-4fa6-a908-43972cc779a7","ios":"levelo://app?vid=54a538c6-ff8c-4fa6-a908-43972cc779a7"},"vehicle_type_id":"4","last_reported":1728335315,"current_range_meters":6800,"station_id":"ce4bhjp2rcd13ifvqg90","pricing_plan_id":"cebpf4jnsgd1na2vs0mg"},{"bike_id":"d2ab88d2-c26b-4ca1-9b2d-11e524a27e4d","system_id":"levelo_inurba_marseille","lat":43.28715,"lon":5.37372,"is_reserved":false,"is_disabled":false,"rental_uris":{"android":"levelo://app?vid=d2ab88d2-c26b-4ca1-9b2d-11e524a27e4d","ios":"levelo://app?vid=d2ab88d2-c26b-4ca1-9b2d-11e524a27e4d"},"vehicle_type_id":"4","last_reported":1728335315,"current_range_meters":37600,"station_id":"ce4bh3p2rcd13ifvqdq0","pricing_plan_id":"cebpf4jnsgd1na2vs0mg"},{"bike_id":"be5795e8-257a-45b4-bff2-25e2ba0fdf45","system_id":"levelo_inurba_marseille","lat":43.30539,"lon":5.38433,"is_reserved":false,"is_disabled":false,"rental_uris":{"android":"levelo://app?vid=be5795e8-257a-45b4-bff2-25e2ba0fdf45","ios":"levelo://app?vid=be5795e8-257a-45b4-bff2-25e2ba0fdf45"},"vehicle_type_id":"4","last_reported":1728335315,"current_range_meters":17600,"station_id":"ce4bgg92rcd13ifvqb30","pricing_plan_id":"cebpf4jnsgd1na2vs0mg"},{"bike_id":"2d543eca-c8bf-427c-a3fa-e17e301f5c9b","system_id":"levelo_inurba_marseille","lat":43.26081,"lon":5.40325,"is_reserved":false,"is_disabled":false,"rental_uris":{"android":"levelo://app?vid=2d543eca-c8bf-427c-a3fa-e17e301f5c9b","ios":"levelo://app?vid=2d543eca-c8bf-427c-a3fa-e17e301f5c9b"},"vehicle_type_id":"4","last_reported":1728335315,"current_range_meters":6000,"station_id":"","pricing_plan_id":"cebpf4jnsgd1na2vs0mg"},{"bike_id":"89bbdcb0-0d4b-45a3-ae3e-b367660213be","system_id":"levelo_inurba_marseille","lat":43.29554,"lon":5.42295,"is_reserved":false,"is_disabled":false,"rental_uris":{"android":"levelo://app?vid=89bbdcb0-0d4b-45a3-ae3e-b367660213be","ios":"levelo://app?vid=89bbdcb0-0d4b-45a3-ae3e-b367660213be"},"vehicle_type_id":"4","last_reported":1728335315,"current_range_meters":38400,"station_id":"ce4bhph2rcd13ifvqhdg","pricing_plan_id":"cebpf4jnsgd1na2vs0mg"},{"bike_id":"c1975eeb-029e-4d79-92b5-3c802b1901e0","system_id":"levelo_inurba_marseille","lat":43.28459,"lon":5.35892,"is_reserved":false,"is_disabled":false,"rental_uris":{"android":"levelo://app?vid=c1975eeb-029e-4d79-92b5-3c802b1901e0","ios":"levelo://app?vid=c1975eeb-029e-4d79-92b5-3c802b1901e0"},"vehicle_type_id":"4","last_reported":1728335315,"current_range_meters":33200,"station_id":"ce4bhah2rcd13ifvqei0","pricing_plan_id":"cebpf4jnsgd1na2vs0mg"},{"bike_id":"dc67eb8e-efc8-4251-a6f2-8b76ca5a1908","system_id":"levelo_inurba_marseille","lat":43.32044,"lon":5.41579,"is_reserved":false,"is_disabled":false,"rental_uris":{"android":"levelo://app?vid=dc67eb8e-efc8-4251-a6f2-8b76ca5a1908","ios":"levelo://app?vid=dc67eb8e-efc8-4251-a6f2-8b76ca5a1908"},"vehicle_type_id":"4","last_reported":1728335315,"current_range_meters":22800,"station_id":"ce4bhq92rcd13ifvqhkg","pricing_plan_id":"cebpf4jnsgd1na2vs0mg"},{"bike_id":"09ef71aa-0817-4eb5-83ac-bde0ebd31387","system_id":"levelo_inurba_marseille","lat":43.32371,"lon":5.38888,"is_reserved":false,"is_disabled":false,"rental_uris":{"android":"levelo://app?vid=09ef71aa-0817-4eb5-83ac-bde0ebd31387","ios":"levelo://app?vid=09ef71aa-0817-4eb5-83ac-bde0ebd31387"},"vehicle_type_id":"4","last_reported":1728335315,"current_range_meters":38800,"station_id":"ce4bhqp2rcd13ifvqhog","pricing_plan_id":"cebpf4jnsgd1na2vs0mg"},{"bike_id":"6e14ac97-d5ce-4f91-b9ed-3d3c9175f77d","system_id":"levelo_inurba_marseille","lat":43.30645,"lon":5.40098,"is_reserved":false,"is_disabled":false,"rental_uris":{"android":"levelo://app?vid=6e14ac97-d5ce-4f91-b9ed-3d3c9175f77d","ios":"levelo://app?vid=6e14ac97-d5ce-4f91-b9ed-3d3c9175f77d"},"vehicle_type_id":"4","last_reported":1728335315,"current_range_meters":32400,"station_id":"ce4bh112rcd13ifvqda0","pricing_plan_id":"cebpf4jnsgd1na2vs0mg"},{"bike_id":"6826c930-8aa2-4db5-96a6-4b67fd5214fe","system_id":"levelo_inurba_marseille","lat":43.28276,"lon":5.35062,"is_reserved":false,"is_disabled":false,"rental_uris":{"android":"levelo://app?vid=6826c930-8aa2-4db5-96a6-4b67fd5214fe","ios":"levelo://app?vid=6826c930-8aa2-4db5-96a6-4b67fd5214fe"},"vehicle_type_id":"4","last_reported":1728335315,"current_range_meters":8800,"station_id":"ce4bhbp2rcd13ifvqerg","pricing_plan_id":"cebpf4jnsgd1na2vs0mg"},{"bike_id":"c7c933ea-453c-4444-a304-2fa069327739","system_id":"levelo_inurba_marseille","lat":43.23066,"lon":5.3549,"is_reserved":false,"is_disabled":false,"rental_uris":{"android":"levelo://app?vid=c7c933ea-453c-4444-a304-2fa069327739","ios":"levelo://app?vid=c7c933ea-453c-4444-a304-2fa069327739"},"vehicle_type_id":"4","last_reported":1728335315,"current_range_meters":9600,"station_id":"cpo3342slgdg3j2ifvpg","pricing_plan_id":"cebpf4jnsgd1na2vs0mg"},{"bike_id":"a6d70310-27ce-49a4-a3c6-5ed786684119","system_id":"levelo_inurba_marseille","lat":43.28463,"lon":5.35877,"is_reserved":false,"is_disabled":false,"rental_uris":{"android":"levelo://app?vid=a6d70310-27ce-49a4-a3c6-5ed786684119","ios":"levelo://app?vid=a6d70310-27ce-49a4-a3c6-5ed786684119"},"vehicle_type_id":"4","last_reported":1728335315,"current_range_meters":12000,"station_id":"ce4bhah2rcd13ifvqei0","pricing_plan_id":"cebpf4jnsgd1na2vs0mg"},{"bike_id":"e4e6b146-35bd-418a-8588-83b650d0215a","system_id":"levelo_inurba_marseille","lat":43.293092,"lon":5.371711,"is_reserved":false,"is_disabled":false,"rental_uris":{"android":"levelo://app?vid=e4e6b146-35bd-418a-8588-83b650d0215a","ios":"levelo://app?vid=e4e6b146-35bd-418a-8588-83b650d0215a"},"vehicle_type_id":"4","last_reported":1728335315,"current_range_meters":17600,"station_id":"ce4bhb92rcd13ifvqen0","pricing_plan_id":"cebpf4jnsgd1na2vs0mg"},{"bike_id":"589f1824-3363-4ff3-be43-92e81d3f7ccb","system_id":"levelo_inurba_marseille","lat":43.28275,"lon":5.35073,"is_reserved":false,"is_disabled":false,"rental_uris":{"android":"levelo://app?vid=589f1824-3363-4ff3-be43-92e81d3f7ccb","ios":"levelo://app?vid=589f1824-3363-4ff3-be43-92e81d3f7ccb"},"vehicle_type_id":"4","last_reported":1728335315,"current_range_meters":28000,"station_id":"ce4bhbp2rcd13ifvqerg","pricing_plan_id":"cebpf4jnsgd1na2vs0mg"},{"bike_id":"1e89ff62-86ea-4d9b-83e6-20ce97cfea76","system_id":"levelo_inurba_marseille","lat":43.28456,"lon":5.3588,"is_reserved":false,"is_disabled":false,"rental_uris":{"android":"levelo://app?vid=1e89ff62-86ea-4d9b-83e6-20ce97cfea76","ios":"levelo://app?vid=1e89ff62-86ea-4d9b-83e6-20ce97cfea76"},"vehicle_type_id":"4","last_reported":1728335315,"current_range_meters":38800,"station_id":"ce4bhah2rcd13ifvqei0","pricing_plan_id":"cebpf4jnsgd1na2vs0mg"},{"bike_id":"eac0ea91-2230-46a9-bf6c-0a918e577cec","system_id":"levelo_inurba_marseille","lat":43.2467,"lon":5.38167,"is_reserved":false,"is_disabled":false,"rental_uris":{"android":"levelo://app?vid=eac0ea91-2230-46a9-bf6c-0a918e577cec","ios":"levelo://app?vid=eac0ea91-2230-46a9-bf6c-0a918e577cec"},"vehicle_type_id":"4","last_reported":1728335315,"current_range_meters":12400,"station_id":"ce4bhih2rcd13ifvqfr0","pricing_plan_id":"cebpf4jnsgd1na2vs0mg"},{"bike_id":"60c4638f-f2e4-4dec-bdad-a9069e9499fb","system_id":"levelo_inurba_marseille","lat":43.298824,"lon":5.397783,"is_reserved":false,"is_disabled":false,"rental_uris":{"android":"levelo://app?vid=60c4638f-f2e4-4dec-bdad-a9069e9499fb","ios":"levelo://app?vid=60c4638f-f2e4-4dec-bdad-a9069e9499fb"},"vehicle_type_id":"4","last_reported":1728335315,"current_range_meters":8800,"station_id":"ce4bh0h2rcd13ifvqd50","pricing_plan_id":"cebpf4jnsgd1na2vs0mg"},{"bike_id":"282fd314-a587-400e-9604-92e306a21a11","system_id":"levelo_inurba_marseille","lat":43.2871,"lon":5.37394,"is_reserved":false,"is_disabled":false,"rental_uris":{"android":"levelo://app?vid=282fd314-a587-400e-9604-92e306a21a11","ios":"levelo://app?vid=282fd314-a587-400e-9604-92e306a21a11"},"vehicle_type_id":"4","last_reported":1728335315,"current_range_meters":38000,"station_id":"ce4bhh92rcd13ifvqfi0","pricing_plan_id":"cebpf4jnsgd1na2vs0mg"},{"bike_id":"7a284141-427f-4b3a-b279-a9138bc649ca","system_id":"levelo_inurba_marseille","lat":43.33024,"lon":5.39043,"is_reserved":false,"is_disabled":false,"rental_uris":{"android":"levelo://app?vid=7a284141-427f-4b3a-b279-a9138bc649ca","ios":"levelo://app?vid=7a284141-427f-4b3a-b279-a9138bc649ca"},"vehicle_type_id":"4","last_reported":1728335315,"current_range_meters":38800,"station_id":"ce4bhr92rcd13ifvqhrg","pricing_plan_id":"cebpf4jnsgd1na2vs0mg"},{"bike_id":"c190b4a1-ea1d-47e2-b2e8-eefa3099f9cc","system_id":"levelo_inurba_marseille","lat":43.232,"lon":5.3556,"is_reserved":false,"is_disabled":false,"rental_uris":{"android":"levelo://app?vid=c190b4a1-ea1d-47e2-b2e8-eefa3099f9cc","ios":"levelo://app?vid=c190b4a1-ea1d-47e2-b2e8-eefa3099f9cc"},"vehicle_type_id":"4","last_reported":1728335315,"current_range_meters":38400,"station_id":"ce4bhu92rcd13ifvqi70","pricing_plan_id":"cebpf4jnsgd1na2vs0mg"},{"bike_id":"38a20d7a-dae1-4df2-949c-4c41da90639b","system_id":"levelo_inurba_marseille","lat":43.28266,"lon":5.35059,"is_reserved":false,"is_disabled":false,"rental_uris":{"android":"levelo://app?vid=38a20d7a-dae1-4df2-949c-4c41da90639b","ios":"levelo://app?vid=38a20d7a-dae1-4df2-949c-4c41da90639b"},"vehicle_type_id":"4","last_reported":1728335315,"current_range_meters":16000,"station_id":"ce4bhbp2rcd13ifvqerg","pricing_plan_id":"cebpf4jnsgd1na2vs0mg"},{"bike_id":"f0655ef3-b8ec-45e4-9e27-ad5610781ae0","system_id":"levelo_inurba_marseille","lat":43.30325,"lon":5.40442,"is_reserved":false,"is_disabled":false,"rental_uris":{"android":"levelo://app?vid=f0655ef3-b8ec-45e4-9e27-ad5610781ae0","ios":"levelo://app?vid=f0655ef3-b8ec-45e4-9e27-ad5610781ae0"},"vehicle_type_id":"4","last_reported":1728335315,"current_range_meters":23200,"station_id":"ce4bh012rcd13ifvqd10","pricing_plan_id":"cebpf4jnsgd1na2vs0mg"},{"bike_id":"fce0682f-45d4-4f2f-945f-00fcd9ebed5f","system_id":"levelo_inurba_marseille","lat":43.28726,"lon":5.40005,"is_reserved":false,"is_disabled":false,"rental_uris":{"android":"levelo://app?vid=fce0682f-45d4-4f2f-945f-00fcd9ebed5f","ios":"levelo://app?vid=fce0682f-45d4-4f2f-945f-00fcd9ebed5f"},"vehicle_type_id":"4","last_reported":1728335315,"current_range_meters":32000,"station_id":"ce4bho92rcd13ifvqh3g","pricing_plan_id":"cebpf4jnsgd1na2vs0mg"},{"bike_id":"cd48f049-e430-4bd3-8223-33221c4c486c","system_id":"levelo_inurba_marseille","lat":43.30278,"lon":5.38451,"is_reserved":false,"is_disabled":false,"rental_uris":{"android":"levelo://app?vid=cd48f049-e430-4bd3-8223-33221c4c486c","ios":"levelo://app?vid=cd48f049-e430-4bd3-8223-33221c4c486c"},"vehicle_type_id":"4","last_reported":1728335315,"current_range_meters":38400,"station_id":"","pricing_plan_id":"cebpf4jnsgd1na2vs0mg"},{"bike_id":"1350fd2c-b9e9-43cd-9325-cd67b9835ac5","system_id":"levelo_inurba_marseille","lat":43.28452,"lon":5.35887,"is_reserved":false,"is_disabled":false,"rental_uris":{"android":"levelo://app?vid=1350fd2c-b9e9-43cd-9325-cd67b9835ac5","ios":"levelo://app?vid=1350fd2c-b9e9-43cd-9325-cd67b9835ac5"},"vehicle_type_id":"4","last_reported":1728335315,"current_range_meters":39200,"station_id":"ce4bhah2rcd13ifvqei0","pricing_plan_id":"cebpf4jnsgd1na2vs0mg"},{"bike_id":"f1a587de-a4d9-42a8-8fe6-d4518f6dd1b0","system_id":"levelo_inurba_marseille","lat":43.23063,"lon":5.35493,"is_reserved":false,"is_disabled":false,"rental_uris":{"android":"levelo://app?vid=f1a587de-a4d9-42a8-8fe6-d4518f6dd1b0","ios":"levelo://app?vid=f1a587de-a4d9-42a8-8fe6-d4518f6dd1b0"},"vehicle_type_id":"4","last_reported":1728335315,"current_range_meters":10000,"station_id":"cpo3342slgdg3j2ifvpg","pricing_plan_id":"cebpf4jnsgd1na2vs0mg"},{"bike_id":"6b4618ac-bf15-42bd-b8ce-f62f3e28352b","system_id":"levelo_inurba_marseille","lat":43.23194,"lon":5.35552,"is_reserved":false,"is_disabled":false,"rental_uris":{"android":"levelo://app?vid=6b4618ac-bf15-42bd-b8ce-f62f3e28352b","ios":"levelo://app?vid=6b4618ac-bf15-42bd-b8ce-f62f3e28352b"},"vehicle_type_id":"4","last_reported":1728335315,"current_range_meters":31200,"station_id":"ce4bhu92rcd13ifvqi70","pricing_plan_id":"cebpf4jnsgd1na2vs0mg"},{"bike_id":"cc98bb88-7ebe-43d2-8874-28ef16a178b2","system_id":"levelo_inurba_marseille","lat":43.23172,"lon":5.39986,"is_reserved":false,"is_disabled":false,"rental_uris":{"android":"levelo://app?vid=cc98bb88-7ebe-43d2-8874-28ef16a178b2","ios":"levelo://app?vid=cc98bb88-7ebe-43d2-8874-28ef16a178b2"},"vehicle_type_id":"4","last_reported":1728335315,"current_range_meters":22800,"station_id":"ce4bhn12rcd13ifvqgqg","pricing_plan_id":"cebpf4jnsgd1na2vs0mg"},{"bike_id":"c1c8973f-cba6-4e8d-8db6-6ffbb650fd9f","system_id":"levelo_inurba_marseille","lat":43.27905,"lon":5.38019,"is_reserved":false,"is_disabled":false,"rental_uris":{"android":"levelo://app?vid=c1c8973f-cba6-4e8d-8db6-6ffbb650fd9f","ios":"levelo://app?vid=c1c8973f-cba6-4e8d-8db6-6ffbb650fd9f"},"vehicle_type_id":"4","last_reported":1728335315,"current_range_meters":8000,"station_id":"ce4bhf92rcd13ifvqf50","pricing_plan_id":"cebpf4jnsgd1na2vs0mg"},{"bike_id":"24de9f65-9f62-46f2-a55b-39194eb1533d","system_id":"levelo_inurba_marseille","lat":43.31321,"lon":5.39698,"is_reserved":false,"is_disabled":false,"rental_uris":{"android":"levelo://app?vid=24de9f65-9f62-46f2-a55b-39194eb1533d","ios":"levelo://app?vid=24de9f65-9f62-46f2-a55b-39194eb1533d"},"vehicle_type_id":"4","last_reported":1728335315,"current_range_meters":12400,"station_id":"ce4bgvp2rcd13ifvqcu0","pricing_plan_id":"cebpf4jnsgd1na2vs0mg"},{"bike_id":"5cb07fad-9609-46b3-ad52-39ff30f85547","system_id":"levelo_inurba_marseille","lat":43.28714,"lon":5.36087,"is_reserved":false,"is_disabled":false,"rental_uris":{"android":"levelo://app?vid=5cb07fad-9609-46b3-ad52-39ff30f85547","ios":"levelo://app?vid=5cb07fad-9609-46b3-ad52-39ff30f85547"},"vehicle_type_id":"4","last_reported":1728335315,"current_range_meters":8800,"station_id":"cki0cbj6b192h4jlfktg","pricing_plan_id":"cebpf4jnsgd1na2vs0mg"},{"bike_id":"29564967-44a6-43df-861d-037e6511af6d","system_id":"levelo_inurba_marseille","lat":43.32366,"lon":5.38888,"is_reserved":false,"is_disabled":false,"rental_uris":{"android":"levelo://app?vid=29564967-44a6-43df-861d-037e6511af6d","ios":"levelo://app?vid=29564967-44a6-43df-861d-037e6511af6d"},"vehicle_type_id":"4","last_reported":1728335315,"current_range_meters":31200,"station_id":"ce4bhqp2rcd13ifvqhog","pricing_plan_id":"cebpf4jnsgd1na2vs0mg"},{"bike_id":"8f03373a-690f-4d11-807c-cff8e7b5629a","system_id":"levelo_inurba_marseille","lat":43.29789,"lon":5.3936,"is_reserved":false,"is_disabled":false,"rental_uris":{"android":"levelo://app?vid=8f03373a-690f-4d11-807c-cff8e7b5629a","ios":"levelo://app?vid=8f03373a-690f-4d11-807c-cff8e7b5629a"},"vehicle_type_id":"4","last_reported":1728335315,"current_range_meters":30400,"station_id":"chh1huq6cuj3fo74tm60","pricing_plan_id":"cebpf4jnsgd1na2vs0mg"},{"bike_id":"53513d49-767a-489e-bc05-bba357052c28","system_id":"levelo_inurba_marseille","lat":43.29879,"lon":5.39737,"is_reserved":false,"is_disabled":false,"rental_uris":{"android":"levelo://app?vid=53513d49-767a-489e-bc05-bba357052c28","ios":"levelo://app?vid=53513d49-767a-489e-bc05-bba357052c28"},"vehicle_type_id":"4","last_reported":1728335315,"current_range_meters":29600,"station_id":"ce4bh0h2rcd13ifvqd50","pricing_plan_id":"cebpf4jnsgd1na2vs0mg"},{"bike_id":"4dbc9b22-4c46-419e-b5a6-9c9438a9829f","system_id":"levelo_inurba_marseille","lat":43.31357,"lon":5.385,"is_reserved":false,"is_disabled":false,"rental_uris":{"android":"levelo://app?vid=4dbc9b22-4c46-419e-b5a6-9c9438a9829f","ios":"levelo://app?vid=4dbc9b22-4c46-419e-b5a6-9c9438a9829f"},"vehicle_type_id":"4","last_reported":1728335315,"current_range_meters":36800,"station_id":"ce4bgt92rcd13ifvqcf0","pricing_plan_id":"cebpf4jnsgd1na2vs0mg"},{"bike_id":"30ab7d88-30d8-4409-8d6c-b57095f57189","system_id":"levelo_inurba_marseille","lat":43.25863,"lon":5.39902,"is_reserved":false,"is_disabled":false,"rental_uris":{"android":"levelo://app?vid=30ab7d88-30d8-4409-8d6c-b57095f57189","ios":"levelo://app?vid=30ab7d88-30d8-4409-8d6c-b57095f57189"},"vehicle_type_id":"4","last_reported":1728335315,"current_range_meters":38800,"station_id":"ce4bhl92rcd13ifvqghg","pricing_plan_id":"cebpf4jnsgd1na2vs0mg"},{"bike_id":"3ed32f64-d7de-47e0-9877-21d78ea4e59d","system_id":"levelo_inurba_marseille","lat":43.25103,"lon":5.4029,"is_reserved":false,"is_disabled":false,"rental_uris":{"android":"levelo://app?vid=3ed32f64-d7de-47e0-9877-21d78ea4e59d","ios":"levelo://app?vid=3ed32f64-d7de-47e0-9877-21d78ea4e59d"},"vehicle_type_id":"4","last_reported":1728335315,"current_range_meters":38800,"station_id":"ce4bhlh2rcd13ifvqgig","pricing_plan_id":"cebpf4jnsgd1na2vs0mg"},{"bike_id":"9f7bb594-fb34-4e78-a4aa-b9e9b8fc8e6a","system_id":"levelo_inurba_marseille","lat":43.31325,"lon":5.397,"is_reserved":false,"is_disabled":false,"rental_uris":{"android":"levelo://app?vid=9f7bb594-fb34-4e78-a4aa-b9e9b8fc8e6a","ios":"levelo://app?vid=9f7bb594-fb34-4e78-a4aa-b9e9b8fc8e6a"},"vehicle_type_id":"4","last_reported":1728335315,"current_range_meters":28400,"station_id":"ce4bgvp2rcd13ifvqcu0","pricing_plan_id":"cebpf4jnsgd1na2vs0mg"},{"bike_id":"8ee955c4-b2c0-462f-b796-b61167412bfa","system_id":"levelo_inurba_marseille","lat":43.29054,"lon":5.3997,"is_reserved":false,"is_disabled":false,"rental_uris":{"android":"levelo://app?vid=8ee955c4-b2c0-462f-b796-b61167412bfa","ios":"levelo://app?vid=8ee955c4-b2c0-462f-b796-b61167412bfa"},"vehicle_type_id":"4","last_reported":1728335315,"current_range_meters":8000,"station_id":"ce4bh392rcd13ifvqdm0","pricing_plan_id":"cebpf4jnsgd1na2vs0mg"},{"bike_id":"926380f0-4ec2-45d5-8c58-de39b75f601e","system_id":"levelo_inurba_marseille","lat":43.23067,"lon":5.35489,"is_reserved":false,"is_disabled":false,"rental_uris":{"android":"levelo://app?vid=926380f0-4ec2-45d5-8c58-de39b75f601e","ios":"levelo://app?vid=926380f0-4ec2-45d5-8c58-de39b75f601e"},"vehicle_type_id":"4","last_reported":1728335315,"current_range_meters":13600,"station_id":"cpo3342slgdg3j2ifvpg","pricing_plan_id":"cebpf4jnsgd1na2vs0mg"},{"bike_id":"043eb5a6-5021-4443-9c24-3017c5a226e7","system_id":"levelo_inurba_marseille","lat":43.286041,"lon":5.351128,"is_reserved":false,"is_disabled":false,"rental_uris":{"android":"levelo://app?vid=043eb5a6-5021-4443-9c24-3017c5a226e7","ios":"levelo://app?vid=043eb5a6-5021-4443-9c24-3017c5a226e7"},"vehicle_type_id":"4","last_reported":1728335315,"current_range_meters":26000,"station_id":"ce4bhch2rcd13ifvqeug","pricing_plan_id":"cebpf4jnsgd1na2vs0mg"},{"bike_id":"f236458b-a68f-4be5-ae65-f5ccd4ea25a1","system_id":"levelo_inurba_marseille","lat":43.31999,"lon":5.3815,"is_reserved":false,"is_disabled":false,"rental_uris":{"android":"levelo://app?vid=f236458b-a68f-4be5-ae65-f5ccd4ea25a1","ios":"levelo://app?vid=f236458b-a68f-4be5-ae65-f5ccd4ea25a1"},"vehicle_type_id":"4","last_reported":1728335315,"current_range_meters":39200,"station_id":"ce4bhr12rcd13ifvqhpg","pricing_plan_id":"cebpf4jnsgd1na2vs0mg"},{"bike_id":"404b4697-2249-46d0-afb0-44351c2d122f","system_id":"levelo_inurba_marseille","lat":43.2955,"lon":5.42278,"is_reserved":false,"is_disabled":false,"rental_uris":{"android":"levelo://app?vid=404b4697-2249-46d0-afb0-44351c2d122f","ios":"levelo://app?vid=404b4697-2249-46d0-afb0-44351c2d122f"},"vehicle_type_id":"4","last_reported":1728335315,"current_range_meters":20400,"station_id":"ce4bhph2rcd13ifvqhdg","pricing_plan_id":"cebpf4jnsgd1na2vs0mg"},{"bike_id":"80cba1cf-0623-41c9-829a-3d860e526261","system_id":"levelo_inurba_marseille","lat":43.28611,"lon":5.37068,"is_reserved":false,"is_disabled":false,"rental_uris":{"android":"levelo://app?vid=80cba1cf-0623-41c9-829a-3d860e526261","ios":"levelo://app?vid=80cba1cf-0623-41c9-829a-3d860e526261"},"vehicle_type_id":"4","last_reported":1728335315,"current_range_meters":3600,"station_id":"ce4bht12rcd13ifvqi60","pricing_plan_id":"cebpf4jnsgd1na2vs0mg"},{"bike_id":"79c06d44-1cfb-4473-b0cd-9fc54eeab714","system_id":"levelo_inurba_marseille","lat":43.31117,"lon":5.3854,"is_reserved":false,"is_disabled":false,"rental_uris":{"android":"levelo://app?vid=79c06d44-1cfb-4473-b0cd-9fc54eeab714","ios":"levelo://app?vid=79c06d44-1cfb-4473-b0cd-9fc54eeab714"},"vehicle_type_id":"4","last_reported":1728335315,"current_range_meters":28000,"station_id":"","pricing_plan_id":"cebpf4jnsgd1na2vs0mg"},{"bike_id":"b625834a-54ef-4eab-8c9d-e8c85e149a97","system_id":"levelo_inurba_marseille","lat":43.31079,"lon":5.4243,"is_reserved":false,"is_disabled":false,"rental_uris":{"android":"levelo://app?vid=b625834a-54ef-4eab-8c9d-e8c85e149a97","ios":"levelo://app?vid=b625834a-54ef-4eab-8c9d-e8c85e149a97"},"vehicle_type_id":"4","last_reported":1728335315,"current_range_meters":38800,"station_id":"ce4bhp92rcd13ifvqhag","pricing_plan_id":"cebpf4jnsgd1na2vs0mg"},{"bike_id":"63592292-2dc9-4a32-9a4c-38846e6bd417","system_id":"levelo_inurba_marseille","lat":43.31059,"lon":5.38349,"is_reserved":false,"is_disabled":false,"rental_uris":{"android":"levelo://app?vid=63592292-2dc9-4a32-9a4c-38846e6bd417","ios":"levelo://app?vid=63592292-2dc9-4a32-9a4c-38846e6bd417"},"vehicle_type_id":"4","last_reported":1728335315,"current_range_meters":18000,"station_id":"ce4bgv92rcd13ifvqcr0","pricing_plan_id":"cebpf4jnsgd1na2vs0mg"},{"bike_id":"cd45fa6f-1279-4a3f-893c-968d70f8dedf","system_id":"levelo_inurba_marseille","lat":43.3111,"lon":5.37768,"is_reserved":false,"is_disabled":false,"rental_uris":{"android":"levelo://app?vid=cd45fa6f-1279-4a3f-893c-968d70f8dedf","ios":"levelo://app?vid=cd45fa6f-1279-4a3f-893c-968d70f8dedf"},"vehicle_type_id":"4","last_reported":1728335315,"current_range_meters":30000,"station_id":"ce4bgt92rcd13ifvqcg0","pricing_plan_id":"cebpf4jnsgd1na2vs0mg"},{"bike_id":"5033828f-25d8-4cd1-bd77-e9aa9d5c1adc","system_id":"levelo_inurba_marseille","lat":43.31898,"lon":5.40742,"is_reserved":false,"is_disabled":false,"rental_uris":{"android":"levelo://app?vid=5033828f-25d8-4cd1-bd77-e9aa9d5c1adc","ios":"levelo://app?vid=5033828f-25d8-4cd1-bd77-e9aa9d5c1adc"},"vehicle_type_id":"4","last_reported":1728335315,"current_range_meters":38800,"station_id":"ce4bhq12rcd13ifvqhig","pricing_plan_id":"cebpf4jnsgd1na2vs0mg"},{"bike_id":"59d39fdf-306d-4218-a19c-262b47728bed","system_id":"levelo_inurba_marseille","lat":43.27488,"lon":5.42455,"is_reserved":false,"is_disabled":false,"rental_uris":{"android":"levelo://app?vid=59d39fdf-306d-4218-a19c-262b47728bed","ios":"levelo://app?vid=59d39fdf-306d-4218-a19c-262b47728bed"},"vehicle_type_id":"4","last_reported":1728335315,"current_range_meters":39200,"station_id":"ce4bhn92rcd13ifvqgrg","pricing_plan_id":"cebpf4jnsgd1na2vs0mg"},{"bike_id":"2c4ab54a-cd06-4ee0-9f2a-f07e3c293d0e","system_id":"levelo_inurba_marseille","lat":43.30639,"lon":5.40088,"is_reserved":false,"is_disabled":false,"rental_uris":{"android":"levelo://app?vid=2c4ab54a-cd06-4ee0-9f2a-f07e3c293d0e","ios":"levelo://app?vid=2c4ab54a-cd06-4ee0-9f2a-f07e3c293d0e"},"vehicle_type_id":"4","last_reported":1728335315,"current_range_meters":32800,"station_id":"ce4bh112rcd13ifvqda0","pricing_plan_id":"cebpf4jnsgd1na2vs0mg"},{"bike_id":"2cfe37f6-d8a6-4a1f-8399-509dfcecb891","system_id":"levelo_inurba_marseille","lat":43.30942,"lon":5.4015,"is_reserved":false,"is_disabled":false,"rental_uris":{"android":"levelo://app?vid=2cfe37f6-d8a6-4a1f-8399-509dfcecb891","ios":"levelo://app?vid=2cfe37f6-d8a6-4a1f-8399-509dfcecb891"},"vehicle_type_id":"4","last_reported":1728335315,"current_range_meters":38800,"station_id":"ce4bgvp2rcd13ifvqct0","pricing_plan_id":"cebpf4jnsgd1na2vs0mg"},{"bike_id":"4c4a13d9-b018-490e-9161-25fc70279fd3","system_id":"levelo_inurba_marseille","lat":43.32376,"lon":5.38883,"is_reserved":false,"is_disabled":false,"rental_uris":{"android":"levelo://app?vid=4c4a13d9-b018-490e-9161-25fc70279fd3","ios":"levelo://app?vid=4c4a13d9-b018-490e-9161-25fc70279fd3"},"vehicle_type_id":"4","last_reported":1728335315,"current_range_meters":27600,"station_id":"ce4bhqp2rcd13ifvqhog","pricing_plan_id":"cebpf4jnsgd1na2vs0mg"},{"bike_id":"9fb315eb-4ef5-4fbe-90a3-2810bc30298a","system_id":"levelo_inurba_marseille","lat":43.27997,"lon":5.40017,"is_reserved":false,"is_disabled":false,"rental_uris":{"android":"levelo://app?vid=9fb315eb-4ef5-4fbe-90a3-2810bc30298a","ios":"levelo://app?vid=9fb315eb-4ef5-4fbe-90a3-2810bc30298a"},"vehicle_type_id":"4","last_reported":1728335315,"current_range_meters":37600,"station_id":"ce4bho92rcd13ifvqh4g","pricing_plan_id":"cebpf4jnsgd1na2vs0mg"},{"bike_id":"1af62aed-6bff-493d-b879-79631d7b1488","system_id":"levelo_inurba_marseille","lat":43.29881,"lon":5.38894,"is_reserved":false,"is_disabled":false,"rental_uris":{"android":"levelo://app?vid=1af62aed-6bff-493d-b879-79631d7b1488","ios":"levelo://app?vid=1af62aed-6bff-493d-b879-79631d7b1488"},"vehicle_type_id":"4","last_reported":1728335315,"current_range_meters":14400,"station_id":"ce4bh392rcd13ifvqdl0","pricing_plan_id":"cebpf4jnsgd1na2vs0mg"},{"bike_id":"06a0c286-126c-4a6f-84f5-e4d386c5007e","system_id":"levelo_inurba_marseille","lat":43.27988,"lon":5.41656,"is_reserved":false,"is_disabled":false,"rental_uris":{"android":"levelo://app?vid=06a0c286-126c-4a6f-84f5-e4d386c5007e","ios":"levelo://app?vid=06a0c286-126c-4a6f-84f5-e4d386c5007e"},"vehicle_type_id":"4","last_reported":1728335315,"current_range_meters":38800,"station_id":"ce4bho12rcd13ifvqh1g","pricing_plan_id":"cebpf4jnsgd1na2vs0mg"},{"bike_id":"450c248e-cb06-4d2b-9432-903ced06e598","system_id":"levelo_inurba_marseille","lat":43.29558,"lon":5.42282,"is_reserved":false,"is_disabled":false,"rental_uris":{"android":"levelo://app?vid=450c248e-cb06-4d2b-9432-903ced06e598","ios":"levelo://app?vid=450c248e-cb06-4d2b-9432-903ced06e598"},"vehicle_type_id":"4","last_reported":1728335315,"current_range_meters":37600,"station_id":"ce4bhph2rcd13ifvqhdg","pricing_plan_id":"cebpf4jnsgd1na2vs0mg"},{"bike_id":"0a412132-ca74-4b01-8817-9d25c2722c18","system_id":"levelo_inurba_marseille","lat":43.2808,"lon":5.39653,"is_reserved":false,"is_disabled":false,"rental_uris":{"android":"levelo://app?vid=0a412132-ca74-4b01-8817-9d25c2722c18","ios":"levelo://app?vid=0a412132-ca74-4b01-8817-9d25c2722c18"},"vehicle_type_id":"4","last_reported":1728335315,"current_range_meters":38800,"station_id":"ce4bho12rcd13ifvqh2g","pricing_plan_id":"cebpf4jnsgd1na2vs0mg"},{"bike_id":"fac92edd-ddf7-46fd-beff-2bf77e16f9c1","system_id":"levelo_inurba_marseille","lat":43.30321,"lon":5.40441,"is_reserved":false,"is_disabled":false,"rental_uris":{"android":"levelo://app?vid=fac92edd-ddf7-46fd-beff-2bf77e16f9c1","ios":"levelo://app?vid=fac92edd-ddf7-46fd-beff-2bf77e16f9c1"},"vehicle_type_id":"4","last_reported":1728335315,"current_range_meters":38000,"station_id":"ce4bh012rcd13ifvqd10","pricing_plan_id":"cebpf4jnsgd1na2vs0mg"},