{"last_updated":1741194536,"ttl":60,"version":"2.2","data":{"bikes":[{"bike_id":"a3a09a6d-5da4-442d-8bc5-4379edc288b7","system_id":"levelo_inurba_marseille","lat":43.26785,"lon":5.39413,"is_reserved":false,"is_disabled":false,"rental_uris":{"android":"levelo://app?vid=a3a09a6d-5da4-442d-8bc5-4379edc288b7","ios":"levelo://app?vid=a3a09a6d-5da4-442d-8bc5-4379edc288b7"},"vehicle_type_id":"4","last_reported":1741194537,"current_range_meters":2800,"station_id":"ce4bhh12rcd13ifvqfg0","pricing_plan_id":"cebpf4jnsgd1na2vs0mg"},{"bike_id":"4546e73d-9eef-4db5-abd7-0d173c879e73","system_id":"levelo_inurba_marseille","lat":43.28914,"lon":5.38413,"is_reserved":false,"is_disabled":false,"rental_uris":{"android":"levelo://app?vid=4546e73d-9eef-4db5-abd7-0d173c879e73","ios":"levelo://app?vid=4546e73d-9eef-4db5-abd7-0d173c879e73"},"vehicle_type_id":"4","last_reported":1741194537,"current_range_meters":2800,"station_id":"ce4bh612rcd13ifvqe6g","pricing_plan_id":"cebpf4jnsgd1na2vs0mg"},{"bike_id":"00eb836e-072c-43f5-9881-692474d250e8","system_id":"levelo_inurba_marseille","lat":43.31495,"lon":5.37282,"is_reserved":false,"is_disabled":false,"rental_uris":{"android":"levelo://app?vid=00eb836e-072c-43f5-9881-692474d250e8","ios":"levelo://app?vid=00eb836e-072c-43f5-9881-692474d250e8"},"vehicle_type_id":"4","last_reported":1741194537,"current_range_meters":2800,"station_id":"ce4bgt12rcd13ifvqcd0","pricing_plan_id":"cebpf4jnsgd1na2vs0mg"},{"bike_id":"4bfbdfa7-8ac2-4c81-9af6-4dfdd14106bb","system_id":"levelo_inurba_marseille","lat":43.28656,"lon":5.36343,"is_reserved":false,"is_disabled":false,"rental_uris":{"android":"levelo://app?vid=4bfbdfa7-8ac2-4c81-9af6-4dfdd14106bb","ios":"levelo://app?vid=4bfbdfa7-8ac2-4c81-9af6-4dfdd14106bb"},"vehicle_type_id":"4","last_reported":1741194537,"current_range_meters":2800,"station_id":"ce4bhah2rcd13ifvqej0","pricing_plan_id":"cebpf4jnsgd1na2vs0mg"},{"bike_id":"98d64e76-183a-4c31-8a8c-aab0869b5684","system_id":"levelo_inurba_marseille","lat":43.2943,"lon":5.39747,"is_reserved":false,"is_disabled":false,"rental_uris":{"android":"levelo://app?vid=98d64e76-183a-4c31-8a8c-aab0869b5684","ios":"levelo://app?vid=98d64e76-183a-4c31-8a8c-aab0869b5684"},"vehicle_type_id":"4","last_reported":1741194537,"current_range_meters":3200,"station_id":"ce4bh3h2rcd13ifvqdo0","pricing_plan_id":"cebpf4jnsgd1na2vs0mg"},{"bike_id":"f91295d1-528e-49a9-86a0-72733f278850","system_id":"levelo_inurba_marseille","lat":43.30313,"lon":5.36882,"is_reserved":false,"is_disabled":false,"rental_uris":{"android":"levelo://app?vid=f91295d1-528e-49a9-86a0-72733f278850","ios":"levelo://app?vid=f91295d1-528e-49a9-86a0-72733f278850"},"vehicle_type_id":"4","last_reported":1741194537,"current_range_meters":3200,"station_id":"ce4bgqh2rcd13ifvqc5g","pricing_plan_id":"cebpf4jnsgd1na2vs0mg"},{"bike_id":"91e4e33f-dfba-480d-82e2-096419454712","system_id":"levelo_inurba_marseille","lat":43.28144,"lon":5.42671,"is_reserved":false,"is_disabled":false,"rental_uris":{"android":"levelo://app?vid=91e4e33f-dfba-480d-82e2-096419454712","ios":"levelo://app?vid=91e4e33f-dfba-480d-82e2-096419454712"},"vehicle_type_id":"4","last_reported":1741194537,"current_range_meters":3600,"station_id":"ce4bhnh2rcd13ifvqgug","pricing_plan_id":"cebpf4jnsgd1na2vs0mg"},{"bike_id":"9fb9a046-8e94-41a1-9152-74e2dfbaf7b5","system_id":"levelo_inurba_marseille","lat":43.29282,"lon":5.4012,"is_reserved":false,"is_disabled":false,"rental_uris":{"android":"levelo://app?vid=9fb9a046-8e94-41a1-9152-74e2dfbaf7b5","ios":"levelo://app?vid=9fb9a046-8e94-41a1-9152-74e2dfbaf7b5"},"vehicle_type_id":"4","last_reported":1741194537,"current_range_meters":3600,"station_id":"ce4bh312rcd13ifvqdk0","pricing_plan_id":"cebpf4jnsgd1na2vs0mg"},{"bike_id":"189dbd42-2df0-4769-afc1-e1be462a903d","system_id":"levelo_inurba_marseille","lat":43.241798,"lon":5.364033,"is_reserved":false,"is_disabled":false,"rental_uris":{"android":"levelo://app?vid=189dbd42-2df0-4769-afc1-e1be462a903d","ios":"levelo://app?vid=189dbd42-2df0-4769-afc1-e1be462a903d"},"vehicle_type_id":"4","last_reported":1741194537,"current_range_meters":3600,"station_id":"cpo36qri1sfpv3e86is0","pricing_plan_id":"cebpf4jnsgd1na2vs0mg"},{"bike_id":"b7acd625-f9ff-43d7-96ae-cc7ef2ff209e","system_id":"levelo_inurba_marseille","lat":43.23213,"lon":5.35548,"is_reserved":false,"is_disabled":false,"rental_uris":{"android":"levelo://app?vid=b7acd625-f9ff-43d7-96ae-cc7ef2ff209e","ios":"levelo://app?vid=b7acd625-f9ff-43d7-96ae-cc7ef2ff209e"},"vehicle_type_id":"4","last_reported":1741194537,"current_range_meters":3600,"station_id":"ce4bhu92rcd13ifvqi70","pricing_plan_id":"cebpf4jnsgd1na2vs0mg"},{"bike_id":"13bc0cc1-9a93-4b47-a078-a83e52f36317","system_id":"levelo_inurba_marseille","lat":43.257101,"lon":5.378742,"is_reserved":false,"is_disabled":false,"rental_uris":{"android":"levelo://app?vid=13bc0cc1-9a93-4b47-a078-a83e52f36317","ios":"levelo://app?vid=13bc0cc1-9a93-4b47-a078-a83e52f36317"},"vehicle_type_id":"4","last_reported":1741194537,"current_range_meters":3600,"station_id":"ce4bhh12rcd13ifvqff0","pricing_plan_id":"cebpf4jnsgd1na2vs0mg"},{"bike_id":"6368fc6d-3004-4878-a101-0c4587430482","system_id":"levelo_inurba_marseille","lat":43.31163,"lon":5.38728,"is_reserved":false,"is_disabled":false,"rental_uris":{"android":"levelo://app?vid=6368fc6d-3004-4878-a101-0c4587430482","ios":"levelo://app?vid=6368fc6d-3004-4878-a101-0c4587430482"},"vehicle_type_id":"4","last_reported":1741194537,"current_range_meters":4000,"station_id":"ce4bgv12rcd13ifvqcp0","pricing_plan_id":"cebpf4jnsgd1na2vs0mg"},{"bike_id":"3f9fae04-f1f3-4869-8154-8b5321664179","system_id":"levelo_inurba_marseille","lat":43.230612,"lon":5.354985,"is_reserved":false,"is_disabled":false,"rental_uris":{"android":"levelo://app?vid=3f9fae04-f1f3-4869-8154-8b5321664179","ios":"levelo://app?vid=3f9fae04-f1f3-4869-8154-8b5321664179"},"vehicle_type_id":"4","last_reported":1741194537,"current_range_meters":4000,"station_id":"cpo3342slgdg3j2ifvpg","pricing_plan_id":"cebpf4jnsgd1na2vs0mg"},{"bike_id":"edbe0a54-1fbf-445e-86f5-e3fc5fd98a86","system_id":"levelo_inurba_marseille","lat":43.31334,"lon":5.39687,"is_reserved":false,"is_disabled":false,"rental_uris":{"android":"levelo://app?vid=edbe0a54-1fbf-445e-86f5-e3fc5fd98a86","ios":"levelo://app?vid=edbe0a54-1fbf-445e-86f5-e3fc5fd98a86"},"vehicle_type_id":"4","last_reported":1741194537,"current_range_meters":4000,"station_id":"ce4bgvp2rcd13ifvqcu0","pricing_plan_id":"cebpf4jnsgd1na2vs0mg"},{"bike_id":"eca31169-3972-4bf0-8e3f-0432d7c0d0dd","system_id":"levelo_inurba_marseille","lat":43.27067,"lon":5.42274,"is_reserved":false,"is_disabled":false,"rental_uris":{"android":"levelo://app?vid=eca31169-3972-4bf0-8e3f-0432d7c0d0dd","ios":"levelo://app?vid=eca31169-3972-4bf0-8e3f-0432d7c0d0dd"},"vehicle_type_id":"4","last_reported":1741194537,"current_range_meters":4000,"station_id":"ce4bhk92rcd13ifvqgb0","pricing_plan_id":"cebpf4jnsgd1na2vs0mg"},{"bike_id":"787758c7-19e3-466b-bcee-9e2f90859e93","system_id":"levelo_inurba_marseille","lat":43.31175,"lon":5.38717,"is_reserved":false,"is_disabled":false,"rental_uris":{"android":"levelo://app?vid=787758c7-19e3-466b-bcee-9e2f90859e93","ios":"levelo://app?vid=787758c7-19e3-466b-bcee-9e2f90859e93"},"vehicle_type_id":"4","last_reported":1741194537,"current_range_meters":4000,"station_id":"ce4bgv12rcd13ifvqcp0","pricing_plan_id":"cebpf4jnsgd1na2vs0mg"},{"bike_id":"647762ce-2332-4911-bb9f-bcf26927deb7","system_id":"levelo_inurba_marseille","lat":43.28467,"lon":5.35892,"is_reserved":false,"is_disabled":false,"rental_uris":{"android":"levelo://app?vid=647762ce-2332-4911-bb9f-bcf26927deb7","ios":"levelo://app?vid=647762ce-2332-4911-bb9f-bcf26927deb7"},"vehicle_type_id":"4","last_reported":1741194537,"current_range_meters":4400,"station_id":"ce4bhah2rcd13ifvqei0","pricing_plan_id":"cebpf4jnsgd1na2vs0mg"},{"bike_id":"835c4dae-47e1-4371-975f-fdec333bc87c","system_id":"levelo_inurba_marseille","lat":43.3062,"lon":5.3935,"is_reserved":false,"is_disabled":false,"rental_uris":{"android":"levelo://app?vid=835c4dae-47e1-4371-975f-fdec333bc87c","ios":"levelo://app?vid=835c4dae-47e1-4371-975f-fdec333bc87c"},"vehicle_type_id":"4","last_reported":1741194537,"current_range_meters":4400,"station_id":"ce4bh0p2rcd13ifvqd80","pricing_plan_id":"cebpf4jnsgd1na2vs0mg"},{"bike_id":"e4ed72d4-20aa-4d0f-ba40-b1b16f7077fe","system_id":"levelo_inurba_marseille","lat":43.28413,"lon":5.34992,"is_reserved":false,"is_disabled":false,"rental_uris":{"android":"levelo://app?vid=e4ed72d4-20aa-4d0f-ba40-b1b16f7077fe","ios":"levelo://app?vid=e4ed72d4-20aa-4d0f-ba40-b1b16f7077fe"},"vehicle_type_id":"4","last_reported":1741194537,"current_range_meters":4400,"station_id":"ce4bhbh2rcd13ifvqepg","pricing_plan_id":"cebpf4jnsgd1na2vs0mg"},{"bike_id":"b9321c53-ee89-4b28-8f67-ce3743d3126b","system_id":"levelo_inurba_marseille","lat":43.31114,"lon":5.37791,"is_reserved":false,"is_disabled":false,"rental_uris":{"android":"levelo://app?vid=b9321c53-ee89-4b28-8f67-ce3743d3126b","ios":"levelo://app?vid=b9321c53-ee89-4b28-8f67-ce3743d3126b"},"vehicle_type_id":"4","last_reported":1741194537,"current_range_meters":4800,"station_id":"ce4bgt92rcd13ifvqcg0","pricing_plan_id":"cebpf4jnsgd1na2vs0mg"},{"bike_id":"3a0eaa16-610c-4aab-922d-fd2b54272e56","system_id":"levelo_inurba_marseille","lat":43.313303,"lon":5.396941,"is_reserved":false,"is_disabled":false,"rental_uris":{"android":"levelo://app?vid=3a0eaa16-610c-4aab-922d-fd2b54272e56","ios":"levelo://app?vid=3a0eaa16-610c-4aab-922d-fd2b54272e56"},"vehicle_type_id":"4","last_reported":1741194537,"current_range_meters":4800,"station_id":"","pricing_plan_id":"cebpf4jnsgd1na2vs0mg"},{"bike_id":"542c2c35-3082-4b1b-8566-57ac43abe4d2","system_id":"levelo_inurba_marseille","lat":43.27616,"lon":5.36129,"is_reserved":false,"is_disabled":false,"rental_uris":{"android":"levelo://app?vid=542c2c35-3082-4b1b-8566-57ac43abe4d2","ios":"levelo://app?vid=542c2c35-3082-4b1b-8566-57ac43abe4d2"},"vehicle_type_id":"4","last_reported":1741194537,"current_range_meters":4800,"station_id":"ce4bgj92rcd13ifvqbe0","pricing_plan_id":"cebpf4jnsgd1na2vs0mg"},{"bike_id":"c6ea678f-8f2e-47ae-9c82-6c2cdb190161","system_id":"levelo_inurba_marseille","lat":43.24806,"lon":5.37452,"is_reserved":false,"is_disabled":false,"rental_uris":{"android":"levelo://app?vid=c6ea678f-8f2e-47ae-9c82-6c2cdb190161","ios":"levelo://app?vid=c6ea678f-8f2e-47ae-9c82-6c2cdb190161"},"vehicle_type_id":"4","last_reported":1741194537,"current_range_meters":5600,"station_id":"ce4bhgh2rcd13ifvqfb0","pricing_plan_id":"cebpf4jnsgd1na2vs0mg"},{"bike_id":"de7fd0d2-0ed3-44aa-a6d9-b778f01f12d3","system_id":"levelo_inurba_marseille","lat":43.29004,"lon":5.35618,"is_reserved":false,"is_disabled":true,"rental_uris":{"android":"levelo://app?vid=de7fd0d2-0ed3-44aa-a6d9-b778f01f12d3","ios":"levelo://app?vid=de7fd0d2-0ed3-44aa-a6d9-b778f01f12d3"},"vehicle_type_id":"4","last_reported":1741194537,"current_range_meters":5600,"station_id":"ce4bhb92rcd13ifvqen0","pricing_plan_id":"cebpf4jnsgd1na2vs0mg"},{"bike_id":"32907a51-37c0-4e0b-8c86-2b4c497990fb","system_id":"levelo_inurba_marseille","lat":43.29278,"lon":5.3845,"is_reserved":false,"is_disabled":false,"rental_uris":{"android":"levelo://app?vid=32907a51-37c0-4e0b-8c86-2b4c497990fb","ios":"levelo://app?vid=32907a51-37c0-4e0b-8c86-2b4c497990fb"},"vehicle_type_id":"4","last_reported":1741194537,"current_range_meters":5600,"station_id":"ce4bh692rcd13ifvqea0","pricing_plan_id":"cebpf4jnsgd1na2vs0mg"},{"bike_id":"c92f460e-8921-4d6c-8028-f9585e39e086","system_id":"levelo_inurba_marseille","lat":43.30588,"lon":5.39353,"is_reserved":false,"is_disabled":false,"rental_uris":{"android":"levelo://app?vid=c92f460e-8921-4d6c-8028-f9585e39e086","ios":"levelo://app?vid=c92f460e-8921-4d6c-8028-f9585e39e086"},"vehicle_type_id":"4","last_reported":1741194537,"current_range_meters":5600,"station_id":"ce4bh0p2rcd13ifvqd80","pricing_plan_id":"cebpf4jnsgd1na2vs0mg"},{"bike_id":"bf3346dd-e86d-4d9e-b7f4-060cf518f654","system_id":"levelo_inurba_marseille","lat":43.25721,"lon":5.41112,"is_reserved":false,"is_disabled":false,"rental_uris":{"android":"levelo://app?vid=bf3346dd-e86d-4d9e-b7f4-060cf518f654","ios":"levelo://app?vid=bf3346dd-e86d-4d9e-b7f4-060cf518f654"},"vehicle_type_id":"4","last_reported":1741194537,"current_range_meters":6000,"station_id":"ce4bhkp2rcd13ifvqgd0","pricing_plan_id":"cebpf4jnsgd1na2vs0mg"},{"bike_id":"b3bb7e38-7138-4859-b4ad-671bd73388a4","system_id":"levelo_inurba_marseille","lat":43.27961,"lon":5.41027,"is_reserved":false,"is_disabled":false,"rental_uris":{"android":"levelo://app?vid=b3bb7e38-7138-4859-b4ad-671bd73388a4","ios":"levelo://app?vid=b3bb7e38-7138-4859-b4ad-671bd73388a4"},"vehicle_type_id":"4","last_reported":1741194537,"current_range_meters":6000,"station_id":"ce4bhnp2rcd13ifvqh0g","pricing_plan_id":"cebpf4jnsgd1na2vs0mg"},{"bike_id":"36f8fce8-2445-4dab-b8b1-34a47748d7f1","system_id":"levelo_inurba_marseille","lat":43.28713,"lon":5.37391,"is_reserved":false,"is_disabled":false,"rental_uris":{"android":"levelo://app?vid=36f8fce8-2445-4dab-b8b1-34a47748d7f1","ios":"levelo://app?vid=36f8fce8-2445-4dab-b8b1-34a47748d7f1"},"vehicle_type_id":"4","last_reported":1741194537,"current_range_meters":5600,"station_id":"ce4bh3p2rcd13ifvqdq0","pricing_plan_id":"cebpf4jnsgd1na2vs0mg"},{"bike_id":"4d96a45d-8e1d-4f5c-846e-3a9ab83111fb","system_id":"levelo_inurba_marseille","lat":43.32362,"lon":5.36766,"is_reserved":false,"is_disabled":false,"rental_uris":{"android":"levelo://app?vid=4d96a45d-8e1d-4f5c-846e-3a9ab83111fb","ios":"levelo://app?vid=4d96a45d-8e1d-4f5c-846e-3a9ab83111fb"},"vehicle_type_id":"4","last_reported":1741194537,"current_range_meters":6000,"station_id":"ce4bhsh2rcd13ifvqi2g","pricing_plan_id":"cebpf4jnsgd1na2vs0mg"},{"bike_id":"21b19842-9ad9-4db0-bc46-3d2827c0069e","system_id":"levelo_inurba_marseille","lat":43.23198,"lon":5.35542,"is_reserved":false,"is_disabled":false,"rental_uris":{"android":"levelo://app?vid=21b19842-9ad9-4db0-bc46-3d2827c0069e","ios":"levelo://app?vid=21b19842-9ad9-4db0-bc46-3d2827c0069e"},"vehicle_type_id":"4","last_reported":1741194537,"current_range_meters":6000,"station_id":"ce4bhu92rcd13ifvqi70","pricing_plan_id":"cebpf4jnsgd1na2vs0mg"},{"bike_id":"fd863c23-9466-449f-bbde-3640f37c26fc","system_id":"levelo_inurba_marseille","lat":43.31705,"lon":5.37748,"is_reserved":false,"is_disabled":false,"rental_uris":{"android":"levelo://app?vid=fd863c23-9466-449f-bbde-3640f37c26fc","ios":"levelo://app?vid=fd863c23-9466-449f-bbde-3640f37c26fc"},"vehicle_type_id":"4","last_reported":1741194537,"current_range_meters":6400,"station_id":"ce4bgth2rcd13ifvqch0","pricing_plan_id":"cebpf4jnsgd1na2vs0mg"},{"bike_id":"d7184b7d-81b1-4152-8eec-6faee4073379","system_id":"levelo_inurba_marseille","lat":43.28429,"lon":5.37509,"is_reserved":false,"is_disabled":false,"rental_uris":{"android":"levelo://app?vid=d7184b7d-81b1-4152-8eec-6faee4073379","ios":"levelo://app?vid=d7184b7d-81b1-4152-8eec-6faee4073379"},"vehicle_type_id":"4","last_reported":1741194537,"current_range_meters":6400,"station_id":"ce4bh412rcd13ifvqds0","pricing_plan_id":"cebpf4jnsgd1na2vs0mg"},{"bike_id":"cb8b5570-1381-45e4-b6cf-26831847f4ba","system_id":"levelo_inurba_marseille","lat":43.28004,"lon":5.40006,"is_reserved":false,"is_disabled":false,"rental_uris":{"android":"levelo://app?vid=cb8b5570-1381-45e4-b6cf-26831847f4ba","ios":"levelo://app?vid=cb8b5570-1381-45e4-b6cf-26831847f4ba"},"vehicle_type_id":"4","last_reported":1741194537,"current_range_meters":6000,"station_id":"ce4bho92rcd13ifvqh4g","pricing_plan_id":"cebpf4jnsgd1na2vs0mg"},{"bike_id":"1996f8e8-d043-47c1-993d-9903656a28ca","system_id":"levelo_inurba_marseille","lat":43.27999,"lon":5.40021,"is_reserved":false,"is_disabled":false,"rental_uris":{"android":"levelo://app?vid=1996f8e8-d043-47c1-993d-9903656a28ca","ios":"levelo://app?vid=1996f8e8-d043-47c1-993d-9903656a28ca"},"vehicle_type_id":"4","last_reported":1741194537,"current_range_meters":1200,"station_id":"ce4bho92rcd13ifvqh4g","pricing_plan_id":"cebpf4jnsgd1na2vs0mg"},{"bike_id":"6e8e7297-5e09-460c-9a46-853ca6c1b339","system_id":"levelo_inurba_marseille","lat":43.2606,"lon":5.39389,"is_reserved":false,"is_disabled":false,"rental_uris":{"android":"levelo://app?vid=6e8e7297-5e09-460c-9a46-853ca6c1b339","ios":"levelo://app?vid=6e8e7297-5e09-460c-9a46-853ca6c1b339"},"vehicle_type_id":"4","last_reported":1741194537,"current_range_meters":6800,"station_id":"ce4bhh92rcd13ifvqfj0","pricing_plan_id":"cebpf4jnsgd1na2vs0mg"},{"bike_id":"ee1d2ad1-36ca-49dd-a328-f2a9a9994ecb","system_id":"levelo_inurba_marseille","lat":43.310748,"lon":5.381304,"is_reserved":false,"is_disabled":false,"rental_uris":{"android":"levelo://app?vid=ee1d2ad1-36ca-49dd-a328-f2a9a9994ecb","ios":"levelo://app?vid=ee1d2ad1-36ca-49dd-a328-f2a9a9994ecb"},"vehicle_type_id":"4","last_reported":1741194537,"current_range_meters":6800,"station_id":"","pricing_plan_id":"cebpf4jnsgd1na2vs0mg"},{"bike_id":"d3afe729-6967-4fbf-b683-e8da4ec69d05","system_id":"levelo_inurba_marseille","lat":43.30293,"lon":5.36887,"is_reserved":false,"is_disabled":false,"rental_uris":{"android":"levelo://app?vid=d3afe729-6967-4fbf-b683-e8da4ec69d05","ios":"levelo://app?vid=d3afe729-6967-4fbf-b683-e8da4ec69d05"},"vehicle_type_id":"4","last_reported":1741194537,"current_range_meters":6800,"station_id":"ce4bgqh2rcd13ifvqc5g","pricing_plan_id":"cebpf4jnsgd1na2vs0mg"},{"bike_id":"57e6a185-2428-4ef5-91d1-85cc93dd0e5f","system_id":"levelo_inurba_marseille","lat":43.23186,"lon":5.39992,"is_reserved":false,"is_disabled":true,"rental_uris":{"android":"levelo://app?vid=57e6a185-2428-4ef5-91d1-85cc93dd0e5f","ios":"levelo://app?vid=57e6a185-2428-4ef5-91d1-85cc93dd0e5f"},"vehicle_type_id":"4","last_reported":1741194537,"current_range_meters":6800,"station_id":"ce4bhn12rcd13ifvqgqg","pricing_plan_id":"cebpf4jnsgd1na2vs0mg"},{"bike_id":"3a5c4920-d99e-4041-b9cc-0f03c1ede2a5","system_id":"levelo_inurba_marseille","lat":43.30814,"lon":5.43518,"is_reserved":false,"is_disabled":false,"rental_uris":{"android":"levelo://app?vid=3a5c4920-d99e-4041-b9cc-0f03c1ede2a5","ios":"levelo://app?vid=3a5c4920-d99e-4041-b9cc-0f03c1ede2a5"},"vehicle_type_id":"4","last_reported":1741194537,"current_range_meters":6800,"station_id":"ce4bhph2rcd13ifvqheg","pricing_plan_id":"cebpf4jnsgd1na2vs0mg"},{"bike_id":"3900567e-2d0f-45ca-8bd8-7f75227aff43","system_id":"levelo_inurba_marseille","lat":43.2514,"lon":5.40339,"is_reserved":false,"is_disabled":false,"rental_uris":{"android":"levelo://app?vid=3900567e-2d0f-45ca-8bd8-7f75227aff43","ios":"levelo://app?vid=3900567e-2d0f-45ca-8bd8-7f75227aff43"},"vehicle_type_id":"4","last_reported":1741194537,"current_range_meters":6800,"station_id":"ce4bhlh2rcd13ifvqgig","pricing_plan_id":"cebpf4jnsgd1na2vs0mg"},{"bike_id":"f6662bde-1632-4b0f-a966-f86b33b7c3b9","system_id":"levelo_inurba_marseille","lat":43.3376,"lon":5.37492,"is_reserved":false,"is_disabled":false,"rental_uris":{"android":"levelo://app?vid=f6662bde-1632-4b0f-a966-f86b33b7c3b9","ios":"levelo://app?vid=f6662bde-1632-4b0f-a966-f86b33b7c3b9"},"vehicle_type_id":"4","last_reported":1741194537,"current_range_meters":7200,"station_id":"","pricing_plan_id":"cebpf4jnsgd1na2vs0mg"},{"bike_id":"5eeb3828-1f5f-499f-b2aa-9320ee03dcae","system_id":"levelo_inurba_marseille","lat":43.26557,"lon":5.37276,"is_reserved":false,"is_disabled":false,"rental_uris":{"android":"levelo://app?vid=5eeb3828-1f5f-499f-b2aa-9320ee03dcae","ios":"levelo://app?vid=5eeb3828-1f5f-499f-b2aa-9320ee03dcae"},"vehicle_type_id":"4","last_reported":1741194537,"current_range_meters":7200,"station_id":"ce4bhg12rcd13ifvqf70","pricing_plan_id":"cebpf4jnsgd1na2vs0mg"},{"bike_id":"0a74741e-eb56-482d-a4b2-0db8885b2823","system_id":"levelo_inurba_marseille","lat":43.2842,"lon":5.34991,"is_reserved":false,"is_disabled":false,"rental_uris":{"android":"levelo://app?vid=0a74741e-eb56-482d-a4b2-0db8885b2823","ios":"levelo://app?vid=0a74741e-eb56-482d-a4b2-0db8885b2823"},"vehicle_type_id":"4","last_reported":1741194537,"current_range_meters":7200,"station_id":"ce4bhbh2rcd13ifvqepg","pricing_plan_id":"cebpf4jnsgd1na2vs0mg"},{"bike_id":"6b4ccd0a-d8d4-47e8-a23e-db23c42b230c","system_id":"levelo_inurba_marseille","lat":43.24991,"lon":5.38942,"is_reserved":false,"is_disabled":false,"rental_uris":{"android":"levelo://app?vid=6b4ccd0a-d8d4-47e8-a23e-db23c42b230c","ios":"levelo://app?vid=6b4ccd0a-d8d4-47e8-a23e-db23c42b230c"},"vehicle_type_id":"4","last_reported":1741194537,"current_range_meters":7200,"station_id":"ce4bhgp2rcd13ifvqfd0","pricing_plan_id":"cebpf4jnsgd1na2vs0mg"},{"bike_id":"252df4c7-d512-47ea-b2b1-921ad71b8eeb","system_id":"levelo_inurba_marseille","lat":43.2928,"lon":5.40112,"is_reserved":false,"is_disabled":false,"rental_uris":{"android":"levelo://app?vid=252df4c7-d512-47ea-b2b1-921ad71b8eeb","ios":"levelo://app?vid=252df4c7-d512-47ea-b2b1-921ad71b8eeb"},"vehicle_type_id":"4","last_reported":1741194537,"current_range_meters":7200,"station_id":"ce4bh312rcd13ifvqdk0","pricing_plan_id":"cebpf4jnsgd1na2vs0mg"},{"bike_id":"4d078883-6560-4bcc-a104-49dab7094c7c","system_id":"levelo_inurba_marseille","lat":43.29966,"lon":5.38502,"is_reserved":false,"is_disabled":false,"rental_uris":{"android":"levelo://app?vid=4d078883-6560-4bcc-a104-49dab7094c7c","ios":"levelo://app?vid=4d078883-6560-4bcc-a104-49dab7094c7c"},"vehicle_type_id":"4","last_reported":1741194537,"current_range_meters":6800,"station_id":"ce4bgj92rcd13ifvqbd0","pricing_plan_id":"cebpf4jnsgd1na2vs0mg"},{"bike_id":"ac4728f1-96f8-4435-8734-f0700069397e","system_id":"levelo_inurba_marseille","lat":43.25495,"lon":5.37648,"is_reserved":false,"is_disabled":false,"rental_uris":{"android":"levelo://app?vid=ac4728f1-96f8-4435-8734-f0700069397e","ios":"levelo://app?vid=ac4728f1-96f8-4435-8734-f0700069397e"},"vehicle_type_id":"4","last_reported":1741194537,"current_range_meters":7200,"station_id":"ce4bhh12rcd13ifvqff0","pricing_plan_id":"cebpf4jnsgd1na2vs0mg"},{"bike_id":"44a7153b-0fd7-4509-836b-676bbf84fb06","system_id":"levelo_inurba_marseille","lat":43.23188,"lon":5.3556,"is_reserved":false,"is_disabled":false,"rental_uris":{"android":"levelo://app?vid=44a7153b-0fd7-4509-836b-676bbf84fb06","ios":"levelo://app?vid=44a7153b-0fd7-4509-836b-676bbf84fb06"},"vehicle_type_id":"4","last_reported":1741194537,"current_range_meters":7200,"station_id":"ce4bhu92rcd13ifvqi70","pricing_plan_id":"cebpf4jnsgd1na2vs0mg"},{"bike_id":"09d3cdde-305c-4d79-b8d4-59d68a850c2b","system_id":"levelo_inurba_marseille","lat":43.29274,"lon":5.36837,"is_reserved":false,"is_disabled":false,"rental_uris":{"android":"levelo://app?vid=09d3cdde-305c-4d79-b8d4-59d68a850c2b","ios":"levelo://app?vid=09d3cdde-305c-4d79-b8d4-59d68a850c2b"},"vehicle_type_id":"4","last_reported":1741194537,"current_range_meters":8000,"station_id":"ce4bhbp2rcd13ifvqesg","pricing_plan_id":"cebpf4jnsgd1na2vs0mg"},{"bike_id":"ed663efe-074b-4aba-b0e9-f846e4bd3747","system_id":"levelo_inurba_marseille","lat":43.29292,"lon":5.40915,"is_reserved":false,"is_disabled":false,"rental_uris":{"android":"levelo://app?vid=ed663efe-074b-4aba-b0e9-f846e4bd3747","ios":"levelo://app?vid=ed663efe-074b-4aba-b0e9-f846e4bd3747"},"vehicle_type_id":"4","last_reported":1741194537,"current_range_meters":8000,"station_id":"ce4bh192rcd13ifvqdc0","pricing_plan_id":"cebpf4jnsgd1na2vs0mg"},{"bike_id":"a1be7ac6-390c-4cdf-8e0c-2924e242ad05","system_id":"levelo_inurba_marseille","lat":43.27433,"lon":5.39421,"is_reserved":false,"is_disabled":false,"rental_uris":{"android":"levelo://app?vid=a1be7ac6-390c-4cdf-8e0c-2924e242ad05","ios":"levelo://app?vid=a1be7ac6-390c-4cdf-8e0c-2924e242ad05"},"vehicle_type_id":"4","last_reported":1741194537,"current_range_meters":7200,"station_id":"ce4bhdp2rcd13ifvqf20","pricing_plan_id":"cebpf4jnsgd1na2vs0mg"},{"bike_id":"de44d09a-d4db-4ce3-a2dd-62f4dc2e96ab","system_id":"levelo_inurba_marseille","lat":43.28196,"lon":5.4278,"is_reserved":false,"is_disabled":false,"rental_uris":{"android":"levelo://app?vid=de44d09a-d4db-4ce3-a2dd-62f4dc2e96ab","ios":"levelo://app?vid=de44d09a-d4db-4ce3-a2dd-62f4dc2e96ab"},"vehicle_type_id":"4","last_reported":1741194537,"current_range_meters":8000,"station_id":"","pricing_plan_id":"cebpf4jnsgd1na2vs0mg"},{"bike_id":"5f89f2b3-d9ab-49f4-bec4-b96c47bbf3a0","system_id":"levelo_inurba_marseille","lat":43.28896,"lon":5.36,"is_reserved":false,"is_disabled":false,"rental_uris":{"android":"levelo://app?vid=5f89f2b3-d9ab-49f4-bec4-b96c47bbf3a0","ios":"levelo://app?vid=5f89f2b3-d9ab-49f4-bec4-b96c47bbf3a0"},"vehicle_type_id":"4","last_reported":1741194537,"current_range_meters":8400,"station_id":"ce4bhb12rcd13ifvqem0","pricing_plan_id":"cebpf4jnsgd1na2vs0mg"},{"bike_id":"c9f9d009-1baf-4e72-882a-c807ce49c5b0","system_id":"levelo_inurba_marseille","lat":43.31226,"lon":5.36868,"is_reserved":false,"is_disabled":false,"rental_uris":{"android":"levelo://app?vid=c9f9d009-1baf-4e72-882a-c807ce49c5b0","ios":"levelo://app?vid=c9f9d009-1baf-4e72-882a-c807ce49c5b0"},"vehicle_type_id":"4","last_reported":1741194537,"current_range_meters":6800,"station_id":"ce4bgs12rcd13ifvqcag","pricing_plan_id":"cebpf4jnsgd1na2vs0mg"},{"bike_id":"6e2a9cd2-693c-415b-ae05-7cf6741de2f0","system_id":"levelo_inurba_marseille","lat":43.30143,"lon":5.37406,"is_reserved":false,"is_disabled":true,"rental_uris":{"android":"levelo://app?vid=6e2a9cd2-693c-415b-ae05-7cf6741de2f0","ios":"levelo://app?vid=6e2a9cd2-693c-415b-ae05-7cf6741de2f0"},"vehicle_type_id":"4","last_reported":1741194537,"current_range_meters":8400,"station_id":"ce4bgs92rcd13ifvqcc0","pricing_plan_id":"cebpf4jnsgd1na2vs0mg"},{"bike_id":"bc159653-cdb8-4f15-a9cc-b04cdbc21c83","system_id":"levelo_inurba_marseille","lat":43.27908,"lon":5.38024,"is_reserved":false,"is_disabled":false,"rental_uris":{"android":"levelo://app?vid=bc159653-cdb8-4f15-a9cc-b04cdbc21c83","ios":"levelo://app?vid=bc159653-cdb8-4f15-a9cc-b04cdbc21c83"},"vehicle_type_id":"4","last_reported":1741194537,"current_range_meters":8400,"station_id":"ce4bhf92rcd13ifvqf50","pricing_plan_id":"cebpf4jnsgd1na2vs0mg"},{"bike_id":"308d5b76-0e90-430b-bbb1-95ade74ff268","system_id":"levelo_inurba_marseille","lat":43.24814,"lon":5.37452,"is_reserved":false,"is_disabled":false,"rental_uris":{"android":"levelo://app?vid=308d5b76-0e90-430b-bbb1-95ade74ff268","ios":"levelo://app?vid=308d5b76-0e90-430b-bbb1-95ade74ff268"},"vehicle_type_id":"4","last_reported":1741194537,"current_range_meters":8400,"station_id":"ce4bhgh2rcd13ifvqfb0","pricing_plan_id":"cebpf4jnsgd1na2vs0mg"},{"bike_id":"9cbcbbe8-1622-4c22-a909-278000aaf7c3","system_id":"levelo_inurba_marseille","lat":43.296265,"lon":5.405978,"is_reserved":false,"is_disabled":false,"rental_uris":{"android":"levelo://app?vid=9cbcbbe8-1622-4c22-a909-278000aaf7c3","ios":"levelo://app?vid=9cbcbbe8-1622-4c22-a909-278000aaf7c3"},"vehicle_type_id":"4","last_reported":1741194537,"current_range_meters":8400,"station_id":"ce4bh012rcd13ifvqd10","pricing_plan_id":"cebpf4jnsgd1na2vs0mg"},{"bike_id":"7aa31772-e639-4731-be51-b737aca89201","system_id":"levelo_inurba_marseille","lat":43.30213,"lon":5.39461,"is_reserved":false,"is_disabled":false,"rental_uris":{"android":"levelo://app?vid=7aa31772-e639-4731-be51-b737aca89201","ios":"levelo://app?vid=7aa31772-e639-4731-be51-b737aca89201"},"vehicle_type_id":"4","last_reported":1741194537,"current_range_meters":8800,"station_id":"ce4bh0p2rcd13ifvqd70","pricing_plan_id":"cebpf4jnsgd1na2vs0mg"},{"bike_id":"97399946-e3e6-4c82-9064-b3472fe1a6d0","system_id":"levelo_inurba_marseille","lat":43.26184,"lon":5.40419,"is_reserved":false,"is_disabled":true,"rental_uris":{"android":"levelo://app?vid=97399946-e3e6-4c82-9064-b3472fe1a6d0","ios":"levelo://app?vid=97399946-e3e6-4c82-9064-b3472fe1a6d0"},"vehicle_type_id":"4","last_reported":1741194537,"current_range_meters":8800,"station_id":"","pricing_plan_id":"cebpf4jnsgd1na2vs0mg"},{"bike_id":"fbe927bb-62ff-43c4-95de-b1c2af7d4a50","system_id":"levelo_inurba_marseille","lat":43.26554,"lon":5.37285,"is_reserved":false,"is_disabled":false,"rental_uris":{"android":"levelo://app?vid=fbe927bb-62ff-43c4-95de-b1c2af7d4a50","ios":"levelo://app?vid=fbe927bb-62ff-43c4-95de-b1c2af7d4a50"},"vehicle_type_id":"4","last_reported":1741194537,"current_range_meters":8800,"station_id":"ce4bhg12rcd13ifvqf70","pricing_plan_id":"cebpf4jnsgd1na2vs0mg"},{"bike_id":"c14d580c-296b-4c55-9403-e7974c6d7a6f","system_id":"levelo_inurba_marseille","lat":43.27998,"lon":5.41661,"is_reserved":false,"is_disabled":false,"rental_uris":{"android":"levelo://app?vid=c14d580c-296b-4c55-9403-e7974c6d7a6f","ios":"levelo://app?vid=c14d580c-296b-4c55-9403-e7974c6d7a6f"},"vehicle_type_id":"4","last_reported":1741194537,"current_range_meters":8800,"station_id":"ce4bho12rcd13ifvqh1g","pricing_plan_id":"cebpf4jnsgd1na2vs0mg"},{"bike_id":"51f6f578-8898-487a-9da7-ff3d6d379d1b","system_id":"levelo_inurba_marseille","lat":43.32091,"lon":5.3677,"is_reserved":false,"is_disabled":false,"rental_uris":{"android":"levelo://app?vid=51f6f578-8898-487a-9da7-ff3d6d379d1b","ios":"levelo://app?vid=51f6f578-8898-487a-9da7-ff3d6d379d1b"},"vehicle_type_id":"4","last_reported":1741194537,"current_range_meters":8800,"station_id":"ce4bhrh2rcd13ifvqhug","pricing_plan_id":"cebpf4jnsgd1na2vs0mg"},{"bike_id":"695828ba-2cea-49da-8d0e-3782d691adc5","system_id":"levelo_inurba_marseille","lat":43.27187,"lon":5.40987,"is_reserved":false,"is_disabled":false,"rental_uris":{"android":"levelo://app?vid=695828ba-2cea-49da-8d0e-3782d691adc5","ios":"levelo://app?vid=695828ba-2cea-49da-8d0e-3782d691adc5"},"vehicle_type_id":"4","last_reported":1741194537,"current_range_meters":8800,"station_id":"ce4bhl12rcd13ifvqgf0","pricing_plan_id":"cebpf4jnsgd1na2vs0mg"},{"bike_id":"4c0e314a-87e2-48f0-a7b0-ec6605046de8","system_id":"levelo_inurba_marseille","lat":43.32086,"lon":5.36841,"is_reserved":false,"is_disabled":false,"rental_uris":{"android":"levelo://app?vid=4c0e314a-87e2-48f0-a7b0-ec6605046de8","ios":"levelo://app?vid=4c0e314a-87e2-48f0-a7b0-ec6605046de8"},"vehicle_type_id":"4","last_reported":1741194537,"current_range_meters":8800,"station_id":"ce4bhrh2rcd13ifvqhug","pricing_plan_id":"cebpf4jnsgd1na2vs0mg"},{"bike_id":"d2663c83-d4b2-4f50-a3cd-9b4bc5a8f741","system_id":"levelo_inurba_marseille","lat":43.28082,"lon":5.39652,"is_reserved":false,"is_disabled":false,"rental_uris":{"android":"levelo://app?vid=d2663c83-d4b2-4f50-a3cd-9b4bc5a8f741","ios":"levelo://app?vid=d2663c83-d4b2-4f50-a3cd-9b4bc5a8f741"},"vehicle_type_id":"4","last_reported":1741194537,"current_range_meters":9200,"station_id":"ce4bho12rcd13ifvqh2g","pricing_plan_id":"cebpf4jnsgd1na2vs0mg"},{"bike_id":"2c57ca77-f587-4fb7-baf7-553c5df662dc","system_id":"levelo_inurba_marseille","lat":43.28409,"lon":5.37523,"is_reserved":false,"is_disabled":false,"rental_uris":{"android":"levelo://app?vid=2c57ca77-f587-4fb7-baf7-553c5df662dc","ios":"levelo://app?vid=2c57ca77-f587-4fb7-baf7-553c5df662dc"},"vehicle_type_id":"4","last_reported":1741194537,"current_range_meters":9200,"station_id":"ce4bh412rcd13ifvqds0","pricing_plan_id":"cebpf4jnsgd1na2vs0mg"},{"bike_id":"c1b1fb92-60e5-47fc-aa65-178c500cdcf3","system_id":"levelo_inurba_marseille","lat":43.30638,"lon":5.40098,"is_reserved":false,"is_disabled":false,"rental_uris":{"android":"levelo://app?vid=c1b1fb92-60e5-47fc-aa65-178c500cdcf3","ios":"levelo://app?vid=c1b1fb92-60e5-47fc-aa65-178c500cdcf3"},"vehicle_type_id":"4","last_reported":1741194537,"current_range_meters":9200,"station_id":"ce4bh112rcd13ifvqda0","pricing_plan_id":"cebpf4jnsgd1na2vs0mg"},{"bike_id":"2e50be8f-eb7d-4381-b651-3bad2cfaf815","system_id":"levelo_inurba_marseille","lat":43.29629,"lon":5.37705,"is_reserved":false,"is_disabled":false,"rental_uris":{"android":"levelo://app?vid=2e50be8f-eb7d-4381-b651-3bad2cfaf815","ios":"levelo://app?vid=2e50be8f-eb7d-4381-b651-3bad2cfaf815"},"vehicle_type_id":"4","last_reported":1741194537,"current_range_meters":9200,"station_id":"ce4bgi92rcd13ifvqb90","pricing_plan_id":"cebpf4jnsgd1na2vs0mg"},{"bike_id":"ff22ac5f-4107-4c43-91dd-83932ff30650","system_id":"levelo_inurba_marseille","lat":43.26693,"lon":5.38286,"is_reserved":false,"is_disabled":true,"rental_uris":{"android":"levelo://app?vid=ff22ac5f-4107-4c43-91dd-83932ff30650","ios":"levelo://app?vid=ff22ac5f-4107-4c43-91dd-83932ff30650"},"vehicle_type_id":"4","last_reported":1741194537,"current_range_meters":9200,"station_id":"ce4bhg92rcd13ifvqf90","pricing_plan_id":"cebpf4jnsgd1na2vs0mg"},{"bike_id":"775f2163-21bb-4303-96b7-216631a75871","system_id":"levelo_inurba_marseille","lat":43.30252,"lon":5.40063,"is_reserved":false,"is_disabled":false,"rental_uris":{"android":"levelo://app?vid=775f2163-21bb-4303-96b7-216631a75871","ios":"levelo://app?vid=775f2163-21bb-4303-96b7-216631a75871"},"vehicle_type_id":"4","last_reported":1741194537,"current_range_meters":9200,"station_id":"ce4bgvh2rcd13ifvqcs0","pricing_plan_id":"cebpf4jnsgd1na2vs0mg"},{"bike_id":"f38d7d6a-5e15-470a-bcfd-c2ebe1ff35ee","system_id":"levelo_inurba_marseille","lat":43.29545,"lon":5.39039,"is_reserved":false,"is_disabled":false,"rental_uris":{"android":"levelo://app?vid=f38d7d6a-5e15-470a-bcfd-c2ebe1ff35ee","ios":"levelo://app?vid=f38d7d6a-5e15-470a-bcfd-c2ebe1ff35ee"},"vehicle_type_id":"4","last_reported":1741194537,"current_range_meters":9200,"station_id":"ce4bh3p2rcd13ifvqdp0","pricing_plan_id":"cebpf4jnsgd1na2vs0mg"},{"bike_id":"c55557ad-1ed5-4997-aee7-ac92107f14b6","system_id":"levelo_inurba_marseille","lat":43.26471,"lon":5.37485,"is_reserved":false,"is_disabled":false,"rental_uris":{"android":"levelo://app?vid=c55557ad-1ed5-4997-aee7-ac92107f14b6","ios":"levelo://app?vid=c55557ad-1ed5-4997-aee7-ac92107f14b6"},"vehicle_type_id":"4","last_reported":1741194537,"current_range_meters":9600,"station_id":"","pricing_plan_id":"cebpf4jnsgd1na2vs0mg"},{"bike_id":"455c399c-0a1b-4d03-b4c4-5b192ad40cd8","system_id":"levelo_inurba_marseille","lat":43.29892,"lon":5.39727,"is_reserved":false,"is_disabled":false,"rental_uris":{"android":"levelo://app?vid=455c399c-0a1b-4d03-b4c4-5b192ad40cd8","ios":"levelo://app?vid=455c399c-0a1b-4d03-b4c4-5b192ad40cd8"},"vehicle_type_id":"4","last_reported":1741194537,"current_range_meters":9600,"station_id":"ce4bh0h2rcd13ifvqd50","pricing_plan_id":"cebpf4jnsgd1na2vs0mg"},{"bike_id":"d571166c-77a4-4a91-b051-9cc34ad31336","system_id":"levelo_inurba_marseille","lat":43.30188,"lon":5.39328,"is_reserved":false,"is_disabled":false,"rental_uris":{"android":"levelo://app?vid=d571166c-77a4-4a91-b051-9cc34ad31336","ios":"levelo://app?vid=d571166c-77a4-4a91-b051-9cc34ad31336"},"vehicle_type_id":"4","last_reported":1741194537,"current_range_meters":9600,"station_id":"","pricing_plan_id":"cebpf4jnsgd1na2vs0mg"},{"bike_id":"2cb0f5e7-eb56-4d4a-9d79-993968c69b8b","system_id":"levelo_inurba_marseille","lat":43.27926,"lon":5.39573,"is_reserved":false,"is_disabled":false,"rental_uris":{"android":"levelo://app?vid=2cb0f5e7-eb56-4d4a-9d79-993968c69b8b","ios":"levelo://app?vid=2cb0f5e7-eb56-4d4a-9d79-993968c69b8b"},"vehicle_type_id":"4","last_reported":1741194537,"current_range_meters":9600,"station_id":"ce4bhf92rcd13ifvqf40","pricing_plan_id":"cebpf4jnsgd1na2vs0mg"},{"bike_id":"b8af6da8-0671-4b9f-b287-0e3b45c3b141","system_id":"levelo_inurba_marseille","lat":43.23149,"lon":5.43717,"is_reserved":false,"is_disabled":false,"rental_uris":{"android":"levelo://app?vid=b8af6da8-0671-4b9f-b287-0e3b45c3b141","ios":"levelo://app?vid=b8af6da8-0671-4b9f-b287-0e3b45c3b141"},"vehicle_type_id":"4","last_reported":1741194537,"current_range_meters":9600,"station_id":"ce4bhmp2rcd13ifvqgog","pricing_plan_id":"cebpf4jnsgd1na2vs0mg"},{"bike_id":"1bf68e27-eab8-4d77-a410-f96dc2cd8085","system_id":"levelo_inurba_marseille","lat":43.28723,"lon":5.36082,"is_reserved":false,"is_disabled":false,"rental_uris":{"android":"levelo://app?vid=1bf68e27-eab8-4d77-a410-f96dc2cd8085","ios":"levelo://app?vid=1bf68e27-eab8-4d77-a410-f96dc2cd8085"},"vehicle_type_id":"4","last_reported":1741194537,"current_range_meters":9600,"station_id":"cki0cbj6b192h4jlfktg","pricing_plan_id":"cebpf4jnsgd1na2vs0mg"},{"bike_id":"8879177b-c01f-4f86-8883-55d55e727aa3","system_id":"levelo_inurba_marseille","lat":43.28258,"lon":5.35072,"is_reserved":false,"is_disabled":false,"rental_uris":{"android":"levelo://app?vid=8879177b-c01f-4f86-8883-55d55e727aa3","ios":"levelo://app?vid=8879177b-c01f-4f86-8883-55d55e727aa3"},"vehicle_type_id":"4","last_reported":1741194537,"current_range_meters":9600,"station_id":"ce4bhbp2rcd13ifvqerg","pricing_plan_id":"cebpf4jnsgd1na2vs0mg"},{"bike_id":"bcde757a-fb8b-4dda-b6ca-78aff2c9b140","system_id":"levelo_inurba_marseille","lat":43.23067,"lon":5.35491,"is_reserved":false,"is_disabled":false,"rental_uris":{"android":"levelo://app?vid=bcde757a-fb8b-4dda-b6ca-78aff2c9b140","ios":"levelo://app?vid=bcde757a-fb8b-4dda-b6ca-78aff2c9b140"},"vehicle_type_id":"4","last_reported":1741194537,"current_range_meters":10000,"station_id":"cpo3342slgdg3j2ifvpg","pricing_plan_id":"cebpf4jnsgd1na2vs0mg"},{"bike_id":"55f3137e-de59-4df3-bc43-34575a42bfd9","system_id":"levelo_inurba_marseille","lat":43.24124,"lon":5.37694,"is_reserved":false,"is_disabled":false,"rental_uris":{"android":"levelo://app?vid=55f3137e-de59-4df3-bc43-34575a42bfd9","ios":"levelo://app?vid=55f3137e-de59-4df3-bc43-34575a42bfd9"},"vehicle_type_id":"4","last_reported":1741194537,"current_range_meters":10000,"station_id":"","pricing_plan_id":"cebpf4jnsgd1na2vs0mg"},{"bike_id":"d42aed35-7fd0-4756-98a4-c384630d40fd","system_id":"levelo_inurba_marseille","lat":43.25095,"lon":5.39512,"is_reserved":false,"is_disabled":false,"rental_uris":{"android":"levelo://app?vid=d42aed35-7fd0-4756-98a4-c384630d40fd","ios":"levelo://app?vid=d42aed35-7fd0-4756-98a4-c384630d40fd"},"vehicle_type_id":"4","last_reported":1741194537,"current_range_meters":10000,"station_id":"ce4bhm12rcd13ifvqgkg","pricing_plan_id":"cebpf4jnsgd1na2vs0mg"},{"bike_id":"31d5cfa5-d6f3-42ce-b179-b11d9dcb33af","system_id":"levelo_inurba_marseille","lat":43.29273,"lon":5.38448,"is_reserved":false,"is_disabled":false,"rental_uris":{"android":"levelo://app?vid=31d5cfa5-d6f3-42ce-b179-b11d9dcb33af","ios":"levelo://app?vid=31d5cfa5-d6f3-42ce-b179-b11d9dcb33af"},"vehicle_type_id":"4","last_reported":1741194537,"current_range_meters":10000,"station_id":"ce4bh692rcd13ifvqea0","pricing_plan_id":"cebpf4jnsgd1na2vs0mg"},{"bike_id":"fb2c7b8d-eca2-4e98-99a0-64dc13da4f8d","system_id":"levelo_inurba_marseille","lat":43.26958,"lon":5.38644,"is_reserved":false,"is_disabled":false,"rental_uris":{"android":"levelo://app?vid=fb2c7b8d-eca2-4e98-99a0-64dc13da4f8d","ios":"levelo://app?vid=fb2c7b8d-eca2-4e98-99a0-64dc13da4f8d"},"vehicle_type_id":"4","last_reported":1741194537,"current_range_meters":10800,"station_id":"ce4bhh92rcd13ifvqfh0","pricing_plan_id":"cebpf4jnsgd1na2vs0mg"},{"bike_id":"08a7f64c-d3d9-4794-ac2a-c2f772603dea","system_id":"levelo_inurba_marseille","lat":43.31116,"lon":5.37777,"is_reserved":false,"is_disabled":false,"rental_uris":{"android":"levelo://app?vid=08a7f64c-d3d9-4794-ac2a-c2f772603dea","ios":"levelo://app?vid=08a7f64c-d3d9-4794-ac2a-c2f772603dea"},"vehicle_type_id":"4","last_reported":1741194537,"current_range_meters":10800,"station_id":"ce4bgt92rcd13ifvqcg0","pricing_plan_id":"cebpf4jnsgd1na2vs0mg"},{"bike_id":"6dcd7069-97e1-4c34-83b8-ce6f544a9361","system_id":"levelo_inurba_marseille","lat":43.265627,"lon":5.372933,"is_reserved":false,"is_disabled":false,"rental_uris":{"android":"levelo://app?vid=6dcd7069-97e1-4c34-83b8-ce6f544a9361","ios":"levelo://app?vid=6dcd7069-97e1-4c34-83b8-ce6f544a9361"},"vehicle_type_id":"4","last_reported":1741194537,"current_range_meters":10800,"station_id":"ce4bhg12rcd13ifvqf70","pricing_plan_id":"cebpf4jnsgd1na2vs0mg"},{"bike_id":"c96fcab6-deaa-41a7-9b08-de24c44e4e9e","system_id":"levelo_inurba_marseille","lat":43.3112,"lon":5.37786,"is_reserved":false,"is_disabled":false,"rental_uris":{"android":"levelo://app?vid=c96fcab6-deaa-41a7-9b08-de24c44e4e9e","ios":"levelo://app?vid=c96fcab6-deaa-41a7-9b08-de24c44e4e9e"},"vehicle_type_id":"4","last_reported":1741194537,"current_range_meters":10800,"station_id":"ce4bgt92rcd13ifvqcg0","pricing_plan_id":"cebpf4jnsgd1na2vs0mg"},{"bike_id":"aa9ad1ee-2650-45f4-ae9e-620da23855fb","system_id":"levelo_inurba_marseille","lat":43.31123,"lon":5.37781,"is_reserved":false,"is_disabled":false,"rental_uris":{"android":"levelo://app?vid=aa9ad1ee-2650-45f4-ae9e-620da23855fb","ios":"levelo://app?vid=aa9ad1ee-2650-45f4-ae9e-620da23855fb"},"vehicle_type_id":"4","last_reported":1741194537,"current_range_meters":10800,"station_id":"ce4bgt92rcd13ifvqcg0","pricing_plan_id":"cebpf4jnsgd1na2vs0mg"},{"bike_id":"5db4b59d-8482-4779-ac60-85d13956fa4b","system_id":"levelo_inurba_marseille","lat":43.26781,"lon":5.39409,"is_reserved":false,"is_disabled":false,"rental_uris":{"android":"levelo://app?vid=5db4b59d-8482-4779-ac60-85d13956fa4b","ios":"levelo://app?vid=5db4b59d-8482-4779-ac60-85d13956fa4b"},"vehicle_type_id":"4","last_reported":1741194537,"current_range_meters":11200,"station_id":"ce4bhh12rcd13ifvqfg0","pricing_plan_id":"cebpf4jnsgd1na2vs0mg"},{"bike_id":"1d168c53-4edf-4662-9968-a83c957f7314","system_id":"levelo_inurba_marseille","lat":43.29547,"lon":5.38547,"is_reserved":false,"is_disabled":false,"rental_uris":{"android":"levelo://app?vid=1d168c53-4edf-4662-9968-a83c957f7314","ios":"levelo://app?vid=1d168c53-4edf-4662-9968-a83c957f7314"},"vehicle_type_id":"4","last_reported":1741194537,"current_range_meters":11200,"station_id":"ce4bgih2rcd13ifvqba0","pricing_plan_id":"cebpf4jnsgd1na2vs0mg"},{"bike_id":"bd1a57bd-d2fb-4cb8-8bc3-61ef4beca1b1","system_id":"levelo_inurba_marseille","lat":43.265683,"lon":5.372837,"is_reserved":false,"is_disabled":false,"rental_uris":{"android":"levelo://app?vid=bd1a57bd-d2fb-4cb8-8bc3-61ef4beca1b1","ios":"levelo://app?vid=bd1a57bd-d2fb-4cb8-8bc3-61ef4beca1b1"},"vehicle_type_id":"4","last_reported":1741194537,"current_range_meters":11200,"station_id":"ce4bhg12rcd13ifvqf70","pricing_plan_id":"cebpf4jnsgd1na2vs0mg"},{"bike_id":"8e67c6c2-1f86-420e-855b-676e159ed831","system_id":"levelo_inurba_marseille","lat":43.23045,"lon":5.35509,"is_reserved":false,"is_disabled":false,"rental_uris":{"android":"levelo://app?vid=8e67c6c2-1f86-420e-855b-676e159ed831","ios":"levelo://app?vid=8e67c6c2-1f86-420e-855b-676e159ed831"},"vehicle_type_id":"4","last_reported":1741194537,"current_range_meters":11600,"station_id":"cpo3342slgdg3j2ifvpg","pricing_plan_id":"cebpf4jnsgd1na2vs0mg"},{"bike_id":"8e5201bb-770a-4646-b983-7e01f6ecf179","system_id":"levelo_inurba_marseille","lat":43.28928,"lon":5.36385,"is_reserved":false,"is_disabled":false,"rental_uris":{"android":"levelo://app?vid=8e5201bb-770a-4646-b983-7e01f6ecf179","ios":"levelo://app?vid=8e5201bb-770a-4646-b983-7e01f6ecf179"},"vehicle_type_id":"4","last_reported":1741194537,"current_range_meters":11600,"station_id":"ce4bhc92rcd13ifvqetg","pricing_plan_id":"cebpf4jnsgd1na2vs0mg"},{"bike_id":"0656831c-99d8-4c93-abf1-0b8d641c60af","system_id":"levelo_inurba_marseille","lat":43.24667,"lon":5.38163,"is_reserved":false,"is_disabled":false,"rental_uris":{"android":"levelo://app?vid=0656831c-99d8-4c93-abf1-0b8d641c60af","ios":"levelo://app?vid=0656831c-99d8-4c93-abf1-0b8d641c60af"},"vehicle_type_id":"4","last_reported":1741194537,"current_range_meters":11200,"station_id":"ce4bhih2rcd13ifvqfr0","pricing_plan_id":"cebpf4jnsgd1na2vs0mg"},{"bike_id":"096f3379-de9c-4ed9-9eb1-687fd3153fa6","system_id":"levelo_inurba_marseille","lat":43.28149,"lon":5.42649,"is_reserved":false,"is_disabled":false,"rental_uris":{"android":"levelo://app?vid=096f3379-de9c-4ed9-9eb1-687fd3153fa6","ios":"levelo://app?vid=096f3379-de9c-4ed9-9eb1-687fd3153fa6"},"vehicle_type_id":"4","last_reported":1741194537,"current_range_meters":11600,"station_id":"ce4bhnh2rcd13ifvqgug","pricing_plan_id":"cebpf4jnsgd1na2vs0mg"},{"bike_id":"ea0bdf44-2a3f-44ee-a2cb-200c4231fd5e","system_id":"levelo_inurba_marseille","lat":43.28721,"lon":5.36069,"is_reserved":false,"is_disabled":false,"rental_uris":{"android":"levelo://app?vid=ea0bdf44-2a3f-44ee-a2cb-200c4231fd5e","ios":"levelo://app?vid=ea0bdf44-2a3f-44ee-a2cb-200c4231fd5e"},"vehicle_type_id":"4","last_reported":1741194537,"current_range_meters":12000,"station_id":"cki0cbj6b192h4jlfktg","pricing_plan_id":"cebpf4jnsgd1na2vs0mg"},{"bike_id":"4b37d7b2-e4f0-4881-ae4a-14e74b2ab8e7","system_id":"levelo_inurba_marseille","lat":43.29837,"lon":5.38895,"is_reserved":false,"is_disabled":true,"rental_uris":{"android":"levelo://app?vid=4b37d7b2-e4f0-4881-ae4a-14e74b2ab8e7","ios":"levelo://app?vid=4b37d7b2-e4f0-4881-ae4a-14e74b2ab8e7"},"vehicle_type_id":"4","last_reported":1741194537,"current_range_meters":12000,"station_id":"ce4bh392rcd13ifvqdl0","pricing_plan_id":"cebpf4jnsgd1na2vs0mg"},{"bike_id":"7dff46ff-9cda-4ba8-b4b2-61a1f5312afe","system_id":"levelo_inurba_marseille","lat":43.24163,"lon":5.36393,"is_reserved":false,"is_disabled":false,"rental_uris":{"android":"levelo://app?vid=7dff46ff-9cda-4ba8-b4b2-61a1f5312afe","ios":"levelo://app?vid=7dff46ff-9cda-4ba8-b4b2-61a1f5312afe"},"vehicle_type_id":"4","last_reported":1741194537,"current_range_meters":12000,"station_id":"cpo36qri1sfpv3e86is0","pricing_plan_id":"cebpf4jnsgd1na2vs0mg"},{"bike_id":"330426bc-0af9-4c3e-8e4c-6ec10833df11","system_id":"levelo_inurba_marseille","lat":43.29911,"lon":5.43657,"is_reserved":false,"is_disabled":false,"rental_uris":{"android":"levelo://app?vid=330426bc-0af9-4c3e-8e4c-6ec10833df11","ios":"levelo://app?vid=330426bc-0af9-4c3e-8e4c-6ec10833df11"},"vehicle_type_id":"4","last_reported":1741194537,"current_range_meters":12000,"station_id":"ce4bhpp2rcd13ifvqhfg","pricing_plan_id":"cebpf4jnsgd1na2vs0mg"},{"bike_id":"4098045b-5278-43ba-968d-f593e09868a8","system_id":"levelo_inurba_marseille","lat":43.28462,"lon":5.35889,"is_reserved":false,"is_disabled":false,"rental_uris":{"android":"levelo://app?vid=4098045b-5278-43ba-968d-f593e09868a8","ios":"levelo://app?vid=4098045b-5278-43ba-968d-f593e09868a8"},"vehicle_type_id":"4","last_reported":1741194537,"current_range_meters":12000,"station_id":"ce4bhah2rcd13ifvqei0","pricing_plan_id":"cebpf4jnsgd1na2vs0mg"},{"bike_id":"34c01a49-4d8f-44c3-9440-7f297c47f105","system_id":"levelo_inurba_marseille","lat":43.315283,"lon":5.380471,"is_reserved":false,"is_disabled":false,"rental_uris":{"android":"levelo://app?vid=34c01a49-4d8f-44c3-9440-7f297c47f105","ios":"levelo://app?vid=34c01a49-4d8f-44c3-9440-7f297c47f105"},"vehicle_type_id":"4","last_reported":1741194537,"current_range_meters":12000,"station_id":"ce4bgrp2rcd13ifvqc9g","pricing_plan_id":"cebpf4jnsgd1na2vs0mg"},{"bike_id":"4dda8d70-18f9-4b0d-bfdb-1a9a15ae139d","system_id":"levelo_inurba_marseille","lat":43.25074,"lon":5.39518,"is_reserved":false,"is_disabled":false,"rental_uris":{"android":"levelo://app?vid=4dda8d70-18f9-4b0d-bfdb-1a9a15ae139d","ios":"levelo://app?vid=4dda8d70-18f9-4b0d-bfdb-1a9a15ae139d"},"vehicle_type_id":"4","last_reported":1741194537,"current_range_meters":6400,"station_id":"ce4bhm12rcd13ifvqgkg","pricing_plan_id":"cebpf4jnsgd1na2vs0mg"},{"bike_id":"7f28341f-feb0-4710-b8d8-21005f3cfbb8","system_id":"levelo_inurba_marseille","lat":43.2655,"lon":5.3729,"is_reserved":false,"is_disabled":false,"rental_uris":{"android":"levelo://app?vid=7f28341f-feb0-4710-b8d8-21005f3cfbb8","ios":"levelo://app?vid=7f28341f-feb0-4710-b8d8-21005f3cfbb8"},"vehicle_type_id":"4","last_reported":1741194537,"current_range_meters":12400,"station_id":"ce4bhg12rcd13ifvqf70","pricing_plan_id":"cebpf4jnsgd1na2vs0mg"},{"bike_id":"1bbb6dc3-fb2f-4be8-9d01-ade8d9f3ccb6","system_id":"levelo_inurba_marseille","lat":43.28935,"lon":5.36644,"is_reserved":false,"is_disabled":false,"rental_uris":{"android":"levelo://app?vid=1bbb6dc3-fb2f-4be8-9d01-ade8d9f3ccb6","ios":"levelo://app?vid=1bbb6dc3-fb2f-4be8-9d01-ade8d9f3ccb6"},"vehicle_type_id":"4","last_reported":1741194537,"current_range_meters":12400,"station_id":"ce4bhap2rcd13ifvqek0","pricing_plan_id":"cebpf4jnsgd1na2vs0mg"},{"bike_id":"f939dc29-ba41-4ceb-8211-876a124c9979","system_id":"levelo_inurba_marseille","lat":43.28818,"lon":5.35252,"is_reserved":false,"is_disabled":false,"rental_uris":{"android":"levelo://app?vid=f939dc29-ba41-4ceb-8211-876a124c9979","ios":"levelo://app?vid=f939dc29-ba41-4ceb-8211-876a124c9979"},"vehicle_type_id":"4","last_reported":1741194537,"current_range_meters":12400,"station_id":"","pricing_plan_id":"cebpf4jnsgd1na2vs0mg"},{"bike_id":"328bbe88-3d06-4a4a-97d5-6037c95eec15","system_id":"levelo_inurba_marseille","lat":43.26931,"lon":5.38917,"is_reserved":false,"is_disabled":false,"rental_uris":{"android":"levelo://app?vid=328bbe88-3d06-4a4a-97d5-6037c95eec15","ios":"levelo://app?vid=328bbe88-3d06-4a4a-97d5-6037c95eec15"},"vehicle_type_id":"4","last_reported":1741194537,"current_range_meters":12400,"station_id":"ce4bhhh2rcd13ifvqfl0","pricing_plan_id":"cebpf4jnsgd1na2vs0mg"},{"bike_id":"5cb3e475-d1c3-4bea-bb58-71ceaca27c06","system_id":"levelo_inurba_marseille","lat":43.28417,"lon":5.34991,"is_reserved":false,"is_disabled":false,"rental_uris":{"android":"levelo://app?vid=5cb3e475-d1c3-4bea-bb58-71ceaca27c06","ios":"levelo://app?vid=5cb3e475-d1c3-4bea-bb58-71ceaca27c06"},"vehicle_type_id":"4","last_reported":1741194537,"current_range_meters":13600,"station_id":"ce4bhbh2rcd13ifvqepg","pricing_plan_id":"cebpf4jnsgd1na2vs0mg"},{"bike_id":"14f95c82-da66-4489-9290-d655cb6f94a0","system_id":"levelo_inurba_marseille","lat":43.28419,"lon":5.34985,"is_reserved":false,"is_disabled":false,"rental_uris":{"android":"levelo://app?vid=14f95c82-da66-4489-9290-d655cb6f94a0","ios":"levelo://app?vid=14f95c82-da66-4489-9290-d655cb6f94a0"},"vehicle_type_id":"4","last_reported":1741194537,"current_range_meters":12800,"station_id":"ce4bhbh2rcd13ifvqepg","pricing_plan_id":"cebpf4jnsgd1na2vs0mg"},{"bike_id":"21e1dd82-2d35-4714-8eac-ea1ee28219f4","system_id":"levelo_inurba_marseille","lat":43.28413,"lon":5.34992,"is_reserved":false,"is_disabled":false,"rental_uris":{"android":"levelo://app?vid=21e1dd82-2d35-4714-8eac-ea1ee28219f4","ios":"levelo://app?vid=21e1dd82-2d35-4714-8eac-ea1ee28219f4"},"vehicle_type_id":"4","last_reported":1741194537,"current_range_meters":12800,"station_id":"ce4bhbh2rcd13ifvqepg","pricing_plan_id":"cebpf4jnsgd1na2vs0mg"},{"bike_id":"fa98af60-ad58-4ccc-a5a0-6ebd1ae22394","system_id":"levelo_inurba_marseille","lat":43.28101,"lon":5.37853,"is_reserved":false,"is_disabled":false,"rental_uris":{"android":"levelo://app?vid=fa98af60-ad58-4ccc-a5a0-6ebd1ae22394","ios":"levelo://app?vid=fa98af60-ad58-4ccc-a5a0-6ebd1ae22394"},"vehicle_type_id":"4","last_reported":1741194537,"current_range_meters":12800,"station_id":"ce4bha12rcd13ifvqee0","pricing_plan_id":"cebpf4jnsgd1na2vs0mg"},{"bike_id":"19707f4e-57a0-487d-a0fd-b6e158a12fa5","system_id":"levelo_inurba_marseille","lat":43.28106,"lon":5.37827,"is_reserved":false,"is_disabled":false,"rental_uris":{"android":"levelo://app?vid=19707f4e-57a0-487d-a0fd-b6e158a12fa5","ios":"levelo://app?vid=19707f4e-57a0-487d-a0fd-b6e158a12fa5"},"vehicle_type_id":"4","last_reported":1741194537,"current_range_meters":13600,"station_id":"ce4bha12rcd13ifvqee0","pricing_plan_id":"cebpf4jnsgd1na2vs0mg"},{"bike_id":"384c3585-6428-4fef-8005-8c81519fed74","system_id":"levelo_inurba_marseille","lat":43.29262,"lon":5.37618,"is_reserved":false,"is_disabled":false,"rental_uris":{"android":"levelo://app?vid=384c3585-6428-4fef-8005-8c81519fed74","ios":"levelo://app?vid=384c3585-6428-4fef-8005-8c81519fed74"},"vehicle_type_id":"4","last_reported":1741194537,"current_range_meters":13600,"station_id":"ce4bgi12rcd13ifvqb80","pricing_plan_id":"cebpf4jnsgd1na2vs0mg"},{"bike_id":"5861a610-0d67-432e-8a77-d54811bbebbd","system_id":"levelo_inurba_marseille","lat":43.29979,"lon":5.38505,"is_reserved":false,"is_disabled":false,"rental_uris":{"android":"levelo://app?vid=5861a610-0d67-432e-8a77-d54811bbebbd","ios":"levelo://app?vid=5861a610-0d67-432e-8a77-d54811bbebbd"},"vehicle_type_id":"4","last_reported":1741194537,"current_range_meters":13600,"station_id":"ce4bgj92rcd13ifvqbd0","pricing_plan_id":"cebpf4jnsgd1na2vs0mg"},{"bike_id":"31612b36-fa20-4efd-b20a-31cda2214028","system_id":"levelo_inurba_marseille","lat":43.28101,"lon":5.37831,"is_reserved":false,"is_disabled":false,"rental_uris":{"android":"levelo://app?vid=31612b36-fa20-4efd-b20a-31cda2214028","ios":"levelo://app?vid=31612b36-fa20-4efd-b20a-31cda2214028"},"vehicle_type_id":"4","last_reported":1741194537,"current_range_meters":13600,"station_id":"ce4bha12rcd13ifvqee0","pricing_plan_id":"cebpf4jnsgd1na2vs0mg"},{"bike_id":"1cfc9c5f-54af-40e6-8245-4f580f3f70f1","system_id":"levelo_inurba_marseille","lat":43.33039,"lon":5.38998,"is_reserved":false,"is_disabled":false,"rental_uris":{"android":"levelo://app?vid=1cfc9c5f-54af-40e6-8245-4f580f3f70f1","ios":"levelo://app?vid=1cfc9c5f-54af-40e6-8245-4f580f3f70f1"},"vehicle_type_id":"4","last_reported":1741194537,"current_range_meters":14000,"station_id":"ce4bhr92rcd13ifvqhrg","pricing_plan_id":"cebpf4jnsgd1na2vs0mg"},{"bike_id":"5b22d8a6-65b3-4026-9ea1-bcaeb1fa38bb","system_id":"levelo_inurba_marseille","lat":43.27619,"lon":5.36109,"is_reserved":false,"is_disabled":false,"rental_uris":{"android":"levelo://app?vid=5b22d8a6-65b3-4026-9ea1-bcaeb1fa38bb","ios":"levelo://app?vid=5b22d8a6-65b3-4026-9ea1-bcaeb1fa38bb"},"vehicle_type_id":"4","last_reported":1741194537,"current_range_meters":14400,"station_id":"ce4bgj92rcd13ifvqbe0","pricing_plan_id":"cebpf4jnsgd1na2vs0mg"},{"bike_id":"087cc845-41c4-42fd-93c4-73cfa40a32bc","system_id":"levelo_inurba_marseille","lat":43.2956,"lon":5.39029,"is_reserved":false,"is_disabled":false,"rental_uris":{"android":"levelo://app?vid=087cc845-41c4-42fd-93c4-73cfa40a32bc","ios":"levelo://app?vid=087cc845-41c4-42fd-93c4-73cfa40a32bc"},"vehicle_type_id":"4","last_reported":1741194537,"current_range_meters":14400,"station_id":"ce4bh3p2rcd13ifvqdp0","pricing_plan_id":"cebpf4jnsgd1na2vs0mg"},{"bike_id":"3f8f0a71-eb48-45a1-b098-eae2d06cb13c","system_id":"levelo_inurba_marseille","lat":43.29797,"lon":5.40395,"is_reserved":false,"is_disabled":false,"rental_uris":{"android":"levelo://app?vid=3f8f0a71-eb48-45a1-b098-eae2d06cb13c","ios":"levelo://app?vid=3f8f0a71-eb48-45a1-b098-eae2d06cb13c"},"vehicle_type_id":"4","last_reported":1741194537,"current_range_meters":14400,"station_id":"ce4bh112rcd13ifvqd90","pricing_plan_id":"cebpf4jnsgd1na2vs0mg"},{"bike_id":"532eb279-a777-404d-9dae-b149a91cab08","system_id":"levelo_inurba_marseille","lat":43.24547,"lon":5.39518,"is_reserved":false,"is_disabled":false,"rental_uris":{"android":"levelo://app?vid=532eb279-a777-404d-9dae-b149a91cab08","ios":"levelo://app?vid=532eb279-a777-404d-9dae-b149a91cab08"},"vehicle_type_id":"4","last_reported":1741194537,"current_range_meters":14400,"station_id":"ce4bhlp2rcd13ifvqgjg","pricing_plan_id":"cebpf4jnsgd1na2vs0mg"},{"bike_id":"73a3c342-3e17-422a-bd1d-972c9597bb29","system_id":"levelo_inurba_marseille","lat":43.31084,"lon":5.42436,"is_reserved":false,"is_disabled":false,"rental_uris":{"android":"levelo://app?vid=73a3c342-3e17-422a-bd1d-972c9597bb29","ios":"levelo://app?vid=73a3c342-3e17-422a-bd1d-972c9597bb29"},"vehicle_type_id":"4","last_reported":1741194537,"current_range_meters":14400,"station_id":"ce4bhp92rcd13ifvqhag","pricing_plan_id":"cebpf4jnsgd1na2vs0mg"},{"bike_id":"3e0ecc17-6c68-4510-92fb-44e29be7300b","system_id":"levelo_inurba_marseille","lat":43.29542,"lon":5.38537,"is_reserved":false,"is_disabled":false,"rental_uris":{"android":"levelo://app?vid=3e0ecc17-6c68-4510-92fb-44e29be7300b","ios":"levelo://app?vid=3e0ecc17-6c68-4510-92fb-44e29be7300b"},"vehicle_type_id":"4","last_reported":1741194537,"current_range_meters":14400,"station_id":"ce4bgih2rcd13ifvqba0","pricing_plan_id":"cebpf4jnsgd1na2vs0mg"},{"bike_id":"5cccd927-e86b-4020-9894-5f1ad718832a","system_id":"levelo_inurba_marseille","lat":43.28398,"lon":5.34997,"is_reserved":false,"is_disabled":false,"rental_uris":{"android":"levelo://app?vid=5cccd927-e86b-4020-9894-5f1ad718832a","ios":"levelo://app?vid=5cccd927-e86b-4020-9894-5f1ad718832a"},"vehicle_type_id":"4","last_reported":1741194537,"current_range_meters":14400,"station_id":"ce4bhbh2rcd13ifvqepg","pricing_plan_id":"cebpf4jnsgd1na2vs0mg"},{"bike_id":"e64e3fd9-d2f1-4ab8-9bfe-777b61ebe7df","system_id":"levelo_inurba_marseille","lat":43.2954,"lon":5.3854,"is_reserved":false,"is_disabled":false,"rental_uris":{"android":"levelo://app?vid=e64e3fd9-d2f1-4ab8-9bfe-777b61ebe7df","ios":"levelo://app?vid=e64e3fd9-d2f1-4ab8-9bfe-777b61ebe7df"},"vehicle_type_id":"4","last_reported":1741194537,"current_range_meters":14400,"station_id":"ce4bgih2rcd13ifvqba0","pricing_plan_id":"cebpf4jnsgd1na2vs0mg"},{"bike_id":"0b3cb245-c1ab-4265-9e03-36f6b9bfa685","system_id":"levelo_inurba_marseille","lat":43.23065,"lon":5.35495,"is_reserved":false,"is_disabled":false,"rental_uris":{"android":"levelo://app?vid=0b3cb245-c1ab-4265-9e03-36f6b9bfa685","ios":"levelo://app?vid=0b3cb245-c1ab-4265-9e03-36f6b9bfa685"},"vehicle_type_id":"4","last_reported":1741194537,"current_range_meters":14400,"station_id":"cpo3342slgdg3j2ifvpg","pricing_plan_id":"cebpf4jnsgd1na2vs0mg"},{"bike_id":"254fc782-30ec-4bf7-bec0-02e8bb337b06","system_id":"levelo_inurba_marseille","lat":43.27177,"lon":5.4099,"is_reserved":false,"is_disabled":false,"rental_uris":{"android":"levelo://app?vid=254fc782-30ec-4bf7-bec0-02e8bb337b06","ios":"levelo://app?vid=254fc782-30ec-4bf7-bec0-02e8bb337b06"},"vehicle_type_id":"4","last_reported":1741194537,"current_range_meters":14800,"station_id":"ce4bhl12rcd13ifvqgf0","pricing_plan_id":"cebpf4jnsgd1na2vs0mg"},{"bike_id":"070f0b28-933a-491f-9593-eed632e613d2","system_id":"levelo_inurba_marseille","lat":43.33757,"lon":5.39117,"is_reserved":false,"is_disabled":false,"rental_uris":{"android":"levelo://app?vid=070f0b28-933a-491f-9593-eed632e613d2","ios":"levelo://app?vid=070f0b28-933a-491f-9593-eed632e613d2"},"vehicle_type_id":"4","last_reported":1741194537,"current_range_meters":14800,"station_id":"ce4bhr92rcd13ifvqhsg","pricing_plan_id":"cebpf4jnsgd1na2vs0mg"},{"bike_id":"7f1905bf-da4d-4f13-af14-c5d46804e585","system_id":"levelo_inurba_marseille","lat":43.23191,"lon":5.35547,"is_reserved":false,"is_disabled":false,"rental_uris":{"android":"levelo://app?vid=7f1905bf-da4d-4f13-af14-c5d46804e585","ios":"levelo://app?vid=7f1905bf-da4d-4f13-af14-c5d46804e585"},"vehicle_type_id":"4","last_reported":1741194537,"current_range_meters":14800,"station_id":"ce4bhu92rcd13ifvqi70","pricing_plan_id":"cebpf4jnsgd1na2vs0mg"},{"bike_id":"42f3fd83-d5cd-45ba-afcf-0a822294d812","system_id":"levelo_inurba_marseille","lat":43.2859,"lon":5.42984,"is_reserved":false,"is_disabled":true,"rental_uris":{"android":"levelo://app?vid=42f3fd83-d5cd-45ba-afcf-0a822294d812","ios":"levelo://app?vid=42f3fd83-d5cd-45ba-afcf-0a822294d812"},"vehicle_type_id":"4","last_reported":1741194537,"current_range_meters":15200,"station_id":"","pricing_plan_id":"cebpf4jnsgd1na2vs0mg"},{"bike_id":"5981e5fd-8ca3-4e17-921d-10437ee17d35","system_id":"levelo_inurba_marseille","lat":43.24173,"lon":5.36412,"is_reserved":false,"is_disabled":false,"rental_uris":{"android":"levelo://app?vid=5981e5fd-8ca3-4e17-921d-10437ee17d35","ios":"levelo://app?vid=5981e5fd-8ca3-4e17-921d-10437ee17d35"},"vehicle_type_id":"4","last_reported":1741194537,"current_range_meters":15200,"station_id":"cpo36qri1sfpv3e86is0","pricing_plan_id":"cebpf4jnsgd1na2vs0mg"},{"bike_id":"d47c030d-ba43-4b30-975c-4ccc65037571","system_id":"levelo_inurba_marseille","lat":43.2862,"lon":5.35106,"is_reserved":false,"is_disabled":false,"rental_uris":{"android":"levelo://app?vid=d47c030d-ba43-4b30-975c-4ccc65037571","ios":"levelo://app?vid=d47c030d-ba43-4b30-975c-4ccc65037571"},"vehicle_type_id":"4","last_reported":1741194537,"current_range_meters":15200,"station_id":"ce4bhch2rcd13ifvqeug","pricing_plan_id":"cebpf4jnsgd1na2vs0mg"},{"bike_id":"333ef0da-90d0-4b86-a84b-35288123d01e","system_id":"levelo_inurba_marseille","lat":43.29869,"lon":5.39723,"is_reserved":false,"is_disabled":false,"rental_uris":{"android":"levelo://app?vid=333ef0da-90d0-4b86-a84b-35288123d01e","ios":"levelo://app?vid=333ef0da-90d0-4b86-a84b-35288123d01e"},"vehicle_type_id":"4","last_reported":1741194537,"current_range_meters":15200,"station_id":"ce4bh0h2rcd13ifvqd50","pricing_plan_id":"cebpf4jnsgd1na2vs0mg"},{"bike_id":"1d925924-011c-4e11-934c-9537b7f688ca","system_id":"levelo_inurba_marseille","lat":43.24073,"lon":5.3776,"is_reserved":false,"is_disabled":false,"rental_uris":{"android":"levelo://app?vid=1d925924-011c-4e11-934c-9537b7f688ca","ios":"levelo://app?vid=1d925924-011c-4e11-934c-9537b7f688ca"},"vehicle_type_id":"4","last_reported":1741194537,"current_range_meters":15200,"station_id":"ce4bhnp2rcd13ifvqgvg","pricing_plan_id":"cebpf4jnsgd1na2vs0mg"},{"bike_id":"fe29eea0-d68f-4a80-9fd5-8be01fc1a3af","system_id":"levelo_inurba_marseille","lat":43.29728,"lon":5.36612,"is_reserved":false,"is_disabled":false,"rental_uris":{"android":"levelo://app?vid=fe29eea0-d68f-4a80-9fd5-8be01fc1a3af","ios":"levelo://app?vid=fe29eea0-d68f-4a80-9fd5-8be01fc1a3af"},"vehicle_type_id":"4","last_reported":1741194537,"current_range_meters":15200,"station_id":"ce4bgn12rcd13ifvqbt0","pricing_plan_id":"cebpf4jnsgd1na2vs0mg"},{"bike_id":"48dd4a66-c4e0-4334-8dbe-e71a1ce9eb4d","system_id":"levelo_inurba_marseille","lat":43.28097,"lon":5.37822,"is_reserved":false,"is_disabled":false,"rental_uris":{"android":"levelo://app?vid=48dd4a66-c4e0-4334-8dbe-e71a1ce9eb4d","ios":"levelo://app?vid=48dd4a66-c4e0-4334-8dbe-e71a1ce9eb4d"},"vehicle_type_id":"4","last_reported":1741194537,"current_range_meters":16000,"station_id":"ce4bha12rcd13ifvqee0","pricing_plan_id":"cebpf4jnsgd1na2vs0mg"},{"bike_id":"ff7d0048-50ee-45d1-b2bf-4dee74129e9f","system_id":"levelo_inurba_marseille","lat":43.28266,"lon":5.35078,"is_reserved":false,"is_disabled":false,"rental_uris":{"android":"levelo://app?vid=ff7d0048-50ee-45d1-b2bf-4dee74129e9f","ios":"levelo://app?vid=ff7d0048-50ee-45d1-b2bf-4dee74129e9f"},"vehicle_type_id":"4","last_reported":1741194537,"current_range_meters":16400,"station_id":"ce4bhbp2rcd13ifvqerg","pricing_plan_id":"cebpf4jnsgd1na2vs0mg"},{"bike_id":"a3a51ec8-9678-4dde-8a18-57e1d1512057","system_id":"levelo_inurba_marseille","lat":43.26952,"lon":5.38632,"is_reserved":false,"is_disabled":false,"rental_uris":{"android":"levelo://app?vid=a3a51ec8-9678-4dde-8a18-57e1d1512057","ios":"levelo://app?vid=a3a51ec8-9678-4dde-8a18-57e1d1512057"},"vehicle_type_id":"4","last_reported":1741194537,"current_range_meters":16400,"station_id":"ce4bhh92rcd13ifvqfh0","pricing_plan_id":"cebpf4jnsgd1na2vs0mg"},{"bike_id":"b6a42f2a-3f43-4db6-ae35-3f8d17777453","system_id":"levelo_inurba_marseille","lat":43.28415,"lon":5.34994,"is_reserved":false,"is_disabled":false,"rental_uris":{"android":"levelo://app?vid=b6a42f2a-3f43-4db6-ae35-3f8d17777453","ios":"levelo://app?vid=b6a42f2a-3f43-4db6-ae35-3f8d17777453"},"vehicle_type_id":"4","last_reported":1741194537,"current_range_meters":16400,"station_id":"ce4bhbh2rcd13ifvqepg","pricing_plan_id":"cebpf4jnsgd1na2vs0mg"},{"bike_id":"440bdf52-ad69-44c5-9310-d53b700dd600","system_id":"levelo_inurba_marseille","lat":43.29436,"lon":5.39752,"is_reserved":false,"is_disabled":false,"rental_uris":{"android":"levelo://app?vid=440bdf52-ad69-44c5-9310-d53b700dd600","ios":"levelo://app?vid=440bdf52-ad69-44c5-9310-d53b700dd600"},"vehicle_type_id":"4","last_reported":1741194537,"current_range_meters":16400,"station_id":"ce4bh3h2rcd13ifvqdo0","pricing_plan_id":"cebpf4jnsgd1na2vs0mg"},{"bike_id":"8a464a4a-bab1-4cfb-b50a-ac8a58d20315","system_id":"levelo_inurba_marseille","lat":43.29621,"lon":5.37166,"is_reserved":false,"is_disabled":false,"rental_uris":{"android":"levelo://app?vid=8a464a4a-bab1-4cfb-b50a-ac8a58d20315","ios":"levelo://app?vid=8a464a4a-bab1-4cfb-b50a-ac8a58d20315"},"vehicle_type_id":"4","last_reported":1741194537,"current_range_meters":16400,"station_id":"ce4bgnh2rcd13ifvqc0g","pricing_plan_id":"cebpf4jnsgd1na2vs0mg"},{"bike_id":"a0e95fb4-19fb-4a9d-86a4-dc00cc876c17","system_id":"levelo_inurba_marseille","lat":43.31117,"lon":5.37764,"is_reserved":false,"is_disabled":false,"rental_uris":{"android":"levelo://app?vid=a0e95fb4-19fb-4a9d-86a4-dc00cc876c17","ios":"levelo://app?vid=a0e95fb4-19fb-4a9d-86a4-dc00cc876c17"},"vehicle_type_id":"4","last_reported":1741194537,"current_range_meters":16400,"station_id":"ce4bgt92rcd13ifvqcg0","pricing_plan_id":"cebpf4jnsgd1na2vs0mg"},{"bike_id":"6df91e2a-6609-4855-802c-f2ee4ee0e5d1","system_id":"levelo_inurba_marseille","lat":43.299848,"lon":5.385057,"is_reserved":false,"is_disabled":false,"rental_uris":{"android":"levelo://app?vid=6df91e2a-6609-4855-802c-f2ee4ee0e5d1","ios":"levelo://app?vid=6df91e2a-6609-4855-802c-f2ee4ee0e5d1"},"vehicle_type_id":"4","last_reported":1741194537,"current_range_meters":16800,"station_id":"ce4bgj92rcd13ifvqbd0","pricing_plan_id":"cebpf4jnsgd1na2vs0mg"},{"bike_id":"5c49c68f-1cf9-46dd-8aae-90dc8f9122c9","system_id":"levelo_inurba_marseille","lat":43.29546,"lon":5.38304,"is_reserved":false,"is_disabled":false,"rental_uris":{"android":"levelo://app?vid=5c49c68f-1cf9-46dd-8aae-90dc8f9122c9","ios":"levelo://app?vid=5c49c68f-1cf9-46dd-8aae-90dc8f9122c9"},"vehicle_type_id":"4","last_reported":1741194537,"current_range_meters":16800,"station_id":"ce4bgj92rcd13ifvqbd0","pricing_plan_id":"cebpf4jnsgd1na2vs0mg"},{"bike_id":"87279dce-3944-49d7-8fd7-80b78c862603","system_id":"levelo_inurba_marseille","lat":43.279638,"lon":5.387395,"is_reserved":false,"is_disabled":false,"rental_uris":{"android":"levelo://app?vid=87279dce-3944-49d7-8fd7-80b78c862603","ios":"levelo://app?vid=87279dce-3944-49d7-8fd7-80b78c862603"},"vehicle_type_id":"4","last_reported":1741194537,"current_range_meters":16000,"station_id":"ce4bhg92rcd13ifvqf90","pricing_plan_id":"cebpf4jnsgd1na2vs0mg"},{"bike_id":"96e0007d-d446-4f61-bd98-a68b96e192ab","system_id":"levelo_inurba_marseille","lat":43.29266,"lon":5.3763,"is_reserved":false,"is_disabled":false,"rental_uris":{"android":"levelo://app?vid=96e0007d-d446-4f61-bd98-a68b96e192ab","ios":"levelo://app?vid=96e0007d-d446-4f61-bd98-a68b96e192ab"},"vehicle_type_id":"4","last_reported":1741194537,"current_range_meters":16800,"station_id":"ce4bgi12rcd13ifvqb80","pricing_plan_id":"cebpf4jnsgd1na2vs0mg"},{"bike_id":"6263676b-8a4e-4a9f-8e3f-51fb654c25cf","system_id":"levelo_inurba_marseille","lat":43.29539,"lon":5.3903,"is_reserved":false,"is_disabled":false,"rental_uris":{"android":"levelo://app?vid=6263676b-8a4e-4a9f-8e3f-51fb654c25cf","ios":"levelo://app?vid=6263676b-8a4e-4a9f-8e3f-51fb654c25cf"},"vehicle_type_id":"4","last_reported":1741194537,"current_range_meters":16800,"station_id":"ce4bh3p2rcd13ifvqdp0","pricing_plan_id":"cebpf4jnsgd1na2vs0mg"},{"bike_id":"836190d9-6bdb-49e1-9f74-e70fc92a9de1","system_id":"levelo_inurba_marseille","lat":43.29007,"lon":5.35605,"is_reserved":false,"is_disabled":false,"rental_uris":{"android":"levelo://app?vid=836190d9-6bdb-49e1-9f74-e70fc92a9de1","ios":"levelo://app?vid=836190d9-6bdb-49e1-9f74-e70fc92a9de1"},"vehicle_type_id":"4","last_reported":1741194537,"current_range_meters":16800,"station_id":"ce4bhb92rcd13ifvqen0","pricing_plan_id":"cebpf4jnsgd1na2vs0mg"},{"bike_id":"7cb5d2b6-f1df-489c-aae3-6fd46b81c378","system_id":"levelo_inurba_marseille","lat":43.308,"lon":5.43531,"is_reserved":false,"is_disabled":false,"rental_uris":{"android":"levelo://app?vid=7cb5d2b6-f1df-489c-aae3-6fd46b81c378","ios":"levelo://app?vid=7cb5d2b6-f1df-489c-aae3-6fd46b81c378"},"vehicle_type_id":"4","last_reported":1741194537,"current_range_meters":16800,"station_id":"ce4bhph2rcd13ifvqheg","pricing_plan_id":"cebpf4jnsgd1na2vs0mg"},{"bike_id":"08e327a3-d24e-46fb-a329-2ddf20aea774","system_id":"levelo_inurba_marseille","lat":43.32007,"lon":5.38173,"is_reserved":false,"is_disabled":false,"rental_uris":{"android":"levelo://app?vid=08e327a3-d24e-46fb-a329-2ddf20aea774","ios":"levelo://app?vid=08e327a3-d24e-46fb-a329-2ddf20aea774"},"vehicle_type_id":"4","last_reported":1741194537,"current_range_meters":16800,"station_id":"ce4bhr12rcd13ifvqhpg","pricing_plan_id":"cebpf4jnsgd1na2vs0mg"},{"bike_id":"ffb24a9e-fe83-41cf-9fe6-8887bf50630b","system_id":"levelo_inurba_marseille","lat":43.25582,"lon":5.38266,"is_reserved":false,"is_disabled":false,"rental_uris":{"android":"levelo://app?vid=ffb24a9e-fe83-41cf-9fe6-8887bf50630b","ios":"levelo://app?vid=ffb24a9e-fe83-41cf-9fe6-8887bf50630b"},"vehicle_type_id":"4","last_reported":1741194537,"current_range_meters":17200,"station_id":"ce4bhih2rcd13ifvqfs0","pricing_plan_id":"cebpf4jnsgd1na2vs0mg"},{"bike_id":"98cd288c-03b8-42b1-94f3-a7c40b93a933","system_id":"levelo_inurba_marseille","lat":43.31761,"lon":5.39013,"is_reserved":false,"is_disabled":false,"rental_uris":{"android":"levelo://app?vid=98cd288c-03b8-42b1-94f3-a7c40b93a933","ios":"levelo://app?vid=98cd288c-03b8-42b1-94f3-a7c40b93a933"},"vehicle_type_id":"4","last_reported":1741194537,"current_range_meters":16800,"station_id":"ce4bhqp2rcd13ifvqhng","pricing_plan_id":"cebpf4jnsgd1na2vs0mg"},{"bike_id":"5c3ed66f-7620-412d-a698-d6bf1340a913","system_id":"levelo_inurba_marseille","lat":43.250103,"lon":5.389123,"is_reserved":false,"is_disabled":false,"rental_uris":{"android":"levelo://app?vid=5c3ed66f-7620-412d-a698-d6bf1340a913","ios":"levelo://app?vid=5c3ed66f-7620-412d-a698-d6bf1340a913"},"vehicle_type_id":"4","last_reported":1741194537,"current_range_meters":17200,"station_id":"ce4bhgp2rcd13ifvqfd0","pricing_plan_id":"cebpf4jnsgd1na2vs0mg"},{"bike_id":"2c2bdef5-7675-495b-a784-9cb1086d8ea9","system_id":"levelo_inurba_marseille","lat":43.30241,"lon":5.40062,"is_reserved":false,"is_disabled":false,"rental_uris":{"android":"levelo://app?vid=2c2bdef5-7675-495b-a784-9cb1086d8ea9","ios":"levelo://app?vid=2c2bdef5-7675-495b-a784-9cb1086d8ea9"},"vehicle_type_id":"4","last_reported":1741194537,"current_range_meters":16800,"station_id":"ce4bgvh2rcd13ifvqcs0","pricing_plan_id":"cebpf4jnsgd1na2vs0mg"},{"bike_id":"98a1abc3-601b-4576-b2df-57cfbfeb024d","system_id":"levelo_inurba_marseille","lat":43.28109,"lon":5.37855,"is_reserved":false,"is_disabled":false,"rental_uris":{"android":"levelo://app?vid=98a1abc3-601b-4576-b2df-57cfbfeb024d","ios":"levelo://app?vid=98a1abc3-601b-4576-b2df-57cfbfeb024d"},"vehicle_type_id":"4","last_reported":1741194537,"current_range_meters":17200,"station_id":"ce4bha12rcd13ifvqee0","pricing_plan_id":"cebpf4jnsgd1na2vs0mg"},{"bike_id":"be8934b9-c5d6-456d-af5c-44c47db9ca86","system_id":"levelo_inurba_marseille","lat":43.28721,"lon":5.36077,"is_reserved":false,"is_disabled":false,"rental_uris":{"android":"levelo://app?vid=be8934b9-c5d6-456d-af5c-44c47db9ca86","ios":"levelo://app?vid=be8934b9-c5d6-456d-af5c-44c47db9ca86"},"vehicle_type_id":"4","last_reported":1741194537,"current_range_meters":17600,"station_id":"cki0cbj6b192h4jlfktg","pricing_plan_id":"cebpf4jnsgd1na2vs0mg"},{"bike_id":"64746d72-38f0-4b40-a235-a163e2a5bcaf","system_id":"levelo_inurba_marseille","lat":43.25505,"lon":5.37648,"is_reserved":false,"is_disabled":false,"rental_uris":{"android":"levelo://app?vid=64746d72-38f0-4b40-a235-a163e2a5bcaf","ios":"levelo://app?vid=64746d72-38f0-4b40-a235-a163e2a5bcaf"},"vehicle_type_id":"4","last_reported":1741194537,"current_range_meters":17200,"station_id":"ce4bhh12rcd13ifvqff0","pricing_plan_id":"cebpf4jnsgd1na2vs0mg"},{"bike_id":"a0a79aa2-3cf0-4b93-97ba-47394aee6a53","system_id":"levelo_inurba_marseille","lat":43.22928,"lon":5.3538,"is_reserved":false,"is_disabled":false,"rental_uris":{"android":"levelo://app?vid=a0a79aa2-3cf0-4b93-97ba-47394aee6a53","ios":"levelo://app?vid=a0a79aa2-3cf0-4b93-97ba-47394aee6a53"},"vehicle_type_id":"4","last_reported":1741194537,"current_range_meters":18000,"station_id":"cpo3532slgdg3j2ikp40","pricing_plan_id":"cebpf4jnsgd1na2vs0mg"},{"bike_id":"a860e371-a2c8-4792-90b3-5e4683e444dc","system_id":"levelo_inurba_marseille","lat":43.30133,"lon":5.3986,"is_reserved":false,"is_disabled":false,"rental_uris":{"android":"levelo://app?vid=a860e371-a2c8-4792-90b3-5e4683e444dc","ios":"levelo://app?vid=a860e371-a2c8-4792-90b3-5e4683e444dc"},"vehicle_type_id":"4","last_reported":1741194537,"current_range_meters":19200,"station_id":"ce4bh0h2rcd13ifvqd40","pricing_plan_id":"cebpf4jnsgd1na2vs0mg"},{"bike_id":"52b19b0a-896e-4508-971e-9b8862ef11d0","system_id":"levelo_inurba_marseille","lat":43.2306,"lon":5.35493,"is_reserved":false,"is_disabled":false,"rental_uris":{"android":"levelo://app?vid=52b19b0a-896e-4508-971e-9b8862ef11d0","ios":"levelo://app?vid=52b19b0a-896e-4508-971e-9b8862ef11d0"},"vehicle_type_id":"4","last_reported":1741194537,"current_range_meters":18000,"station_id":"cpo3342slgdg3j2ifvpg","pricing_plan_id":"cebpf4jnsgd1na2vs0mg"},{"bike_id":"647f693b-605b-4363-bcde-d2eec8f91163","system_id":"levelo_inurba_marseille","lat":43.28616,"lon":5.35101,"is_reserved":false,"is_disabled":false,"rental_uris":{"android":"levelo://app?vid=647f693b-605b-4363-bcde-d2eec8f91163","ios":"levelo://app?vid=647f693b-605b-4363-bcde-d2eec8f91163"},"vehicle_type_id":"4","last_reported":1741194537,"current_range_meters":18000,"station_id":"ce4bhch2rcd13ifvqeug","pricing_plan_id":"cebpf4jnsgd1na2vs0mg"},{"bike_id":"7940066d-cd24-41b6-836e-1355fc2b9e03","system_id":"levelo_inurba_marseille","lat":43.23191,"lon":5.35578,"is_reserved":false,"is_disabled":false,"rental_uris":{"android":"levelo://app?vid=7940066d-cd24-41b6-836e-1355fc2b9e03","ios":"levelo://app?vid=7940066d-cd24-41b6-836e-1355fc2b9e03"},"vehicle_type_id":"4","last_reported":1741194537,"current_range_meters":18000,"station_id":"ce4bhu92rcd13ifvqi70","pricing_plan_id":"cebpf4jnsgd1na2vs0mg"},{"bike_id":"2b119ee3-c766-4c1f-8988-daa51d99d43a","system_id":"levelo_inurba_marseille","lat":43.29542,"lon":5.38531,"is_reserved":false,"is_disabled":false,"rental_uris":{"android":"levelo://app?vid=2b119ee3-c766-4c1f-8988-daa51d99d43a","ios":"levelo://app?vid=2b119ee3-c766-4c1f-8988-daa51d99d43a"},"vehicle_type_id":"4","last_reported":1741194537,"current_range_meters":18000,"station_id":"ce4bgih2rcd13ifvqba0","pricing_plan_id":"cebpf4jnsgd1na2vs0mg"},{"bike_id":"96ec3648-4e5d-49a3-bb24-a3a9362642c1","system_id":"levelo_inurba_marseille","lat":43.29102,"lon":5.38114,"is_reserved":false,"is_disabled":false,"rental_uris":{"android":"levelo://app?vid=96ec3648-4e5d-49a3-bb24-a3a9362642c1","ios":"levelo://app?vid=96ec3648-4e5d-49a3-bb24-a3a9362642c1"},"vehicle_type_id":"4","last_reported":1741194537,"current_range_meters":18000,"station_id":"ce4bh512rcd13ifvqe2g","pricing_plan_id":"cebpf4jnsgd1na2vs0mg"},{"bike_id":"fb91413f-813d-4694-ae05-6eb6942629d4","system_id":"levelo_inurba_marseille","lat":43.27998,"lon":5.41662,"is_reserved":false,"is_disabled":false,"rental_uris":{"android":"levelo://app?vid=fb91413f-813d-4694-ae05-6eb6942629d4","ios":"levelo://app?vid=fb91413f-813d-4694-ae05-6eb6942629d4"},"vehicle_type_id":"4","last_reported":1741194537,"current_range_meters":18000,"station_id":"ce4bho12rcd13ifvqh1g","pricing_plan_id":"cebpf4jnsgd1na2vs0mg"},{"bike_id":"66d30770-79b3-4deb-9120-d3cfb0c58f90","system_id":"levelo_inurba_marseille","lat":43.29024,"lon":5.37767,"is_reserved":false,"is_disabled":false,"rental_uris":{"android":"levelo://app?vid=66d30770-79b3-4deb-9120-d3cfb0c58f90","ios":"levelo://app?vid=66d30770-79b3-4deb-9120-d3cfb0c58f90"},"vehicle_type_id":"4","last_reported":1741194537,"current_range_meters":18000,"station_id":"ce4bgip2rcd13ifvqbb0","pricing_plan_id":"cebpf4jnsgd1na2vs0mg"},{"bike_id":"bb9533a3-6562-475e-b873-d530ab422cda","system_id":"levelo_inurba_marseille","lat":43.29895,"lon":5.38901,"is_reserved":false,"is_disabled":false,"rental_uris":{"android":"levelo://app?vid=bb9533a3-6562-475e-b873-d530ab422cda","ios":"levelo://app?vid=bb9533a3-6562-475e-b873-d530ab422cda"},"vehicle_type_id":"4","last_reported":1741194537,"current_range_meters":18800,"station_id":"ce4bh392rcd13ifvqdl0","pricing_plan_id":"cebpf4jnsgd1na2vs0mg"},{"bike_id":"58adb6fb-aeda-45a9-9756-5f4b49c4cec5","system_id":"levelo_inurba_marseille","lat":43.295341,"lon":5.374962,"is_reserved":false,"is_disabled":false,"rental_uris":{"android":"levelo://app?vid=58adb6fb-aeda-45a9-9756-5f4b49c4cec5","ios":"levelo://app?vid=58adb6fb-aeda-45a9-9756-5f4b49c4cec5"},"vehicle_type_id":"4","last_reported":1741194537,"current_range_meters":16400,"station_id":"ce4bgkp2rcd13ifvqbmg","pricing_plan_id":"cebpf4jnsgd1na2vs0mg"},{"bike_id":"594cc1b1-cc9e-4a36-b127-5c66c54f3649","system_id":"levelo_inurba_marseille","lat":43.28096,"lon":5.37836,"is_reserved":false,"is_disabled":false,"rental_uris":{"android":"levelo://app?vid=594cc1b1-cc9e-4a36-b127-5c66c54f3649","ios":"levelo://app?vid=594cc1b1-cc9e-4a36-b127-5c66c54f3649"},"vehicle_type_id":"4","last_reported":1741194537,"current_range_meters":18800,"station_id":"ce4bha12rcd13ifvqee0","pricing_plan_id":"cebpf4jnsgd1na2vs0mg"},{"bike_id":"ef9d72fc-54ba-481d-841a-0433a295da7a","system_id":"levelo_inurba_marseille","lat":43.32467,"lon":5.36553,"is_reserved":false,"is_disabled":false,"rental_uris":{"android":"levelo://app?vid=ef9d72fc-54ba-481d-841a-0433a295da7a","ios":"levelo://app?vid=ef9d72fc-54ba-481d-841a-0433a295da7a"},"vehicle_type_id":"4","last_reported":1741194537,"current_range_meters":18800,"station_id":"ce4bhs12rcd13ifvqhvg","pricing_plan_id":"cebpf4jnsgd1na2vs0mg"},{"bike_id":"ec71a55b-5ea0-40c5-b5e9-886e9c88e9eb","system_id":"levelo_inurba_marseille","lat":43.31073,"lon":5.38335,"is_reserved":false,"is_disabled":false,"rental_uris":{"android":"levelo://app?vid=ec71a55b-5ea0-40c5-b5e9-886e9c88e9eb","ios":"levelo://app?vid=ec71a55b-5ea0-40c5-b5e9-886e9c88e9eb"},"vehicle_type_id":"4","last_reported":1741194537,"current_range_meters":18800,"station_id":"ce4bgr92rcd13ifvqc6g","pricing_plan_id":"cebpf4jnsgd1na2vs0mg"},{"bike_id":"f7f730ef-efb6-415e-8bff-92ed29a229be","system_id":"levelo_inurba_marseille","lat":43.270905,"lon":5.422755,"is_reserved":false,"is_disabled":false,"rental_uris":{"android":"levelo://app?vid=f7f730ef-efb6-415e-8bff-92ed29a229be","ios":"levelo://app?vid=f7f730ef-efb6-415e-8bff-92ed29a229be"},"vehicle_type_id":"4","last_reported":1741194537,"current_range_meters":18800,"station_id":"ce4bhk92rcd13ifvqgb0","pricing_plan_id":"cebpf4jnsgd1na2vs0mg"},{"bike_id":"4eed6cd8-8e52-47f7-a209-7df3ef797c2e","system_id":"levelo_inurba_marseille","lat":43.27622,"lon":5.36108,"is_reserved":false,"is_disabled":false,"rental_uris":{"android":"levelo://app?vid=4eed6cd8-8e52-47f7-a209-7df3ef797c2e","ios":"levelo://app?vid=4eed6cd8-8e52-47f7-a209-7df3ef797c2e"},"vehicle_type_id":"4","last_reported":1741194537,"current_range_meters":18800,"station_id":"ce4bgj92rcd13ifvqbe0","pricing_plan_id":"cebpf4jnsgd1na2vs0mg"},{"bike_id":"1679bff0-3415-43ee-b0b1-ce3112d971cc","system_id":"levelo_inurba_marseille","lat":43.2942,"lon":5.38617,"is_reserved":false,"is_disabled":false,"rental_uris":{"android":"levelo://app?vid=1679bff0-3415-43ee-b0b1-ce3112d971cc","ios":"levelo://app?vid=1679bff0-3415-43ee-b0b1-ce3112d971cc"},"vehicle_type_id":"4","last_reported":1741194537,"current_range_meters":19200,"station_id":"ce4bh2h2rcd13ifvqdh0","pricing_plan_id":"cebpf4jnsgd1na2vs0mg"},{"bike_id":"7c821f27-2cf0-422e-b03f-8ce33e478836","system_id":"levelo_inurba_marseille","lat":43.28919,"lon":5.38411,"is_reserved":false,"is_disabled":false,"rental_uris":{"android":"levelo://app?vid=7c821f27-2cf0-422e-b03f-8ce33e478836","ios":"levelo://app?vid=7c821f27-2cf0-422e-b03f-8ce33e478836"},"vehicle_type_id":"4","last_reported":1741194537,"current_range_meters":19200,"station_id":"ce4bh612rcd13ifvqe6g","pricing_plan_id":"cebpf4jnsgd1na2vs0mg"},{"bike_id":"bfab2619-5b6c-4377-8570-f4ac028372b0","system_id":"levelo_inurba_marseille","lat":43.25496,"lon":5.37653,"is_reserved":false,"is_disabled":false,"rental_uris":{"android":"levelo://app?vid=bfab2619-5b6c-4377-8570-f4ac028372b0","ios":"levelo://app?vid=bfab2619-5b6c-4377-8570-f4ac028372b0"},"vehicle_type_id":"4","last_reported":1741194537,"current_range_meters":19200,"station_id":"ce4bhh12rcd13ifvqff0","pricing_plan_id":"cebpf4jnsgd1na2vs0mg"},{"bike_id":"47d86303-7cad-4d5c-afc3-d07c63c01a17","system_id":"levelo_inurba_marseille","lat":43.2694,"lon":5.38921,"is_reserved":false,"is_disabled":false,"rental_uris":{"android":"levelo://app?vid=47d86303-7cad-4d5c-afc3-d07c63c01a17","ios":"levelo://app?vid=47d86303-7cad-4d5c-afc3-d07c63c01a17"},"vehicle_type_id":"4","last_reported":1741194537,"current_range_meters":19200,"station_id":"ce4bhhh2rcd13ifvqfl0","pricing_plan_id":"cebpf4jnsgd1na2vs0mg"},{"bike_id":"d9ff3617-2120-408e-a9c1-1c1d3bb9c3b6","system_id":"levelo_inurba_marseille","lat":43.27924,"lon":5.39579,"is_reserved":false,"is_disabled":false,"rental_uris":{"android":"levelo://app?vid=d9ff3617-2120-408e-a9c1-1c1d3bb9c3b6","ios":"levelo://app?vid=d9ff3617-2120-408e-a9c1-1c1d3bb9c3b6"},"vehicle_type_id":"4","last_reported":1741194537,"current_range_meters":19200,"station_id":"ce4bhf92rcd13ifvqf40","pricing_plan_id":"cebpf4jnsgd1na2vs0mg"},{"bike_id":"933ee07d-e34c-4de0-9bfe-7938fc0608fe","system_id":"levelo_inurba_marseille","lat":43.29785,"lon":5.37107,"is_reserved":false,"is_disabled":false,"rental_uris":{"android":"levelo://app?vid=933ee07d-e34c-4de0-9bfe-7938fc0608fe","ios":"levelo://app?vid=933ee07d-e34c-4de0-9bfe-7938fc0608fe"},"vehicle_type_id":"4","last_reported":1741194537,"current_range_meters":19200,"station_id":"ce4bgop2rcd13ifvqc1g","pricing_plan_id":"cebpf4jnsgd1na2vs0mg"},{"bike_id":"16691a65-0bce-4d4b-882e-c415ea548b45","system_id":"levelo_inurba_marseille","lat":43.25089,"lon":5.40338,"is_reserved":false,"is_disabled":false,"rental_uris":{"android":"levelo://app?vid=16691a65-0bce-4d4b-882e-c415ea548b45","ios":"levelo://app?vid=16691a65-0bce-4d4b-882e-c415ea548b45"},"vehicle_type_id":"4","last_reported":1741194537,"current_range_meters":19200,"station_id":"ce4bhlh2rcd13ifvqgig","pricing_plan_id":"cebpf4jnsgd1na2vs0mg"},{"bike_id":"88dc074a-0e00-4219-acf3-b2f890392769","system_id":"levelo_inurba_marseille","lat":43.29285,"lon":5.38443,"is_reserved":false,"is_disabled":false,"rental_uris":{"android":"levelo://app?vid=88dc074a-0e00-4219-acf3-b2f890392769","ios":"levelo://app?vid=88dc074a-0e00-4219-acf3-b2f890392769"},"vehicle_type_id":"4","last_reported":1741194537,"current_range_meters":19200,"station_id":"ce4bh692rcd13ifvqea0","pricing_plan_id":"cebpf4jnsgd1na2vs0mg"},{"bike_id":"dd515485-fc93-4f18-814f-ac64744a7df3","system_id":"levelo_inurba_marseille","lat":43.26569,"lon":5.39014,"is_reserved":false,"is_disabled":false,"rental_uris":{"android":"levelo://app?vid=dd515485-fc93-4f18-814f-ac64744a7df3","ios":"levelo://app?vid=dd515485-fc93-4f18-814f-ac64744a7df3"},"vehicle_type_id":"4","last_reported":1741194537,"current_range_meters":19200,"station_id":"ce4bhe12rcd13ifvqf30","pricing_plan_id":"cebpf4jnsgd1na2vs0mg"},{"bike_id":"00c9bea9-7d78-4435-8261-fa49c68fd27f","system_id":"levelo_inurba_marseille","lat":43.26037,"lon":5.41736,"is_reserved":false,"is_disabled":false,"rental_uris":{"android":"levelo://app?vid=00c9bea9-7d78-4435-8261-fa49c68fd27f","ios":"levelo://app?vid=00c9bea9-7d78-4435-8261-fa49c68fd27f"},"vehicle_type_id":"4","last_reported":1741194537,"current_range_meters":19200,"station_id":"","pricing_plan_id":"cebpf4jnsgd1na2vs0mg"},{"bike_id":"fddb011c-4842-431c-9400-d7b686a104e0","system_id":"levelo_inurba_marseille","lat":43.315027,"lon":5.373025,"is_reserved":false,"is_disabled":false,"rental_uris":{"android":"levelo://app?vid=fddb011c-4842-431c-9400-d7b686a104e0","ios":"levelo://app?vid=fddb011c-4842-431c-9400-d7b686a104e0"},"vehicle_type_id":"4","last_reported":1741194537,"current_range_meters":19200,"station_id":"ce4bhhh2rcd13ifvqfk0","pricing_plan_id":"cebpf4jnsgd1na2vs0mg"},{"bike_id":"05385afc-0cdf-4243-bccc-dec3cb01f3bf","system_id":"levelo_inurba_marseille","lat":43.28403,"lon":5.34996,"is_reserved":false,"is_disabled":false,"rental_uris":{"android":"levelo://app?vid=05385afc-0cdf-4243-bccc-dec3cb01f3bf","ios":"levelo://app?vid=05385afc-0cdf-4243-bccc-dec3cb01f3bf"},"vehicle_type_id":"4","last_reported":1741194537,"current_range_meters":19600,"station_id":"ce4bhbh2rcd13ifvqepg","pricing_plan_id":"cebpf4jnsgd1na2vs0mg"},{"bike_id":"a0519923-6d83-4441-923c-b3a1004171b9","system_id":"levelo_inurba_marseille","lat":43.3092,"lon":5.40147,"is_reserved":false,"is_disabled":false,"rental_uris":{"android":"levelo://app?vid=a0519923-6d83-4441-923c-b3a1004171b9","ios":"levelo://app?vid=a0519923-6d83-4441-923c-b3a1004171b9"},"vehicle_type_id":"4","last_reported":1741194537,"current_range_meters":19600,"station_id":"ce4bgvp2rcd13ifvqct0","pricing_plan_id":"cebpf4jnsgd1na2vs0mg"},{"bike_id":"54833c0a-a9a7-4c42-873b-474bce89055b","system_id":"levelo_inurba_marseille","lat":43.23055,"lon":5.35507,"is_reserved":false,"is_disabled":false,"rental_uris":{"android":"levelo://app?vid=54833c0a-a9a7-4c42-873b-474bce89055b","ios":"levelo://app?vid=54833c0a-a9a7-4c42-873b-474bce89055b"},"vehicle_type_id":"4","last_reported":1741194537,"current_range_meters":19600,"station_id":"cpo3342slgdg3j2ifvpg","pricing_plan_id":"cebpf4jnsgd1na2vs0mg"},{"bike_id":"16a29c46-1e67-49c7-8d7f-ce41b8db9ef6","system_id":"levelo_inurba_marseille","lat":43.29898,"lon":5.39762,"is_reserved":false,"is_disabled":false,"rental_uris":{"android":"levelo://app?vid=16a29c46-1e67-49c7-8d7f-ce41b8db9ef6","ios":"levelo://app?vid=16a29c46-1e67-49c7-8d7f-ce41b8db9ef6"},"vehicle_type_id":"4","last_reported":1741194537,"current_range_meters":19600,"station_id":"ce4bh0h2rcd13ifvqd50","pricing_plan_id":"cebpf4jnsgd1na2vs0mg"},{"bike_id":"c482ba06-643b-4d94-88b5-6c7e6e57f5af","system_id":"levelo_inurba_marseille","lat":43.279412,"lon":5.395799,"is_reserved":false,"is_disabled":false,"rental_uris":{"android":"levelo://app?vid=c482ba06-643b-4d94-88b5-6c7e6e57f5af","ios":"levelo://app?vid=c482ba06-643b-4d94-88b5-6c7e6e57f5af"},"vehicle_type_id":"4","last_reported":1741194537,"current_range_meters":19600,"station_id":"ce4bgih2rcd13ifvqba0","pricing_plan_id":"cebpf4jnsgd1na2vs0mg"},{"bike_id":"50063dcc-ad3a-4d0d-9548-76aec0987490","system_id":"levelo_inurba_marseille","lat":43.28543,"lon":5.37378,"is_reserved":false,"is_disabled":false,"rental_uris":{"android":"levelo://app?vid=50063dcc-ad3a-4d0d-9548-76aec0987490","ios":"levelo://app?vid=50063dcc-ad3a-4d0d-9548-76aec0987490"},"vehicle_type_id":"4","last_reported":1741194537,"current_range_meters":20000,"station_id":"","pricing_plan_id":"cebpf4jnsgd1na2vs0mg"},{"bike_id":"16a2419a-eebc-4662-afc6-ee1aaf888906","system_id":"levelo_inurba_marseille","lat":43.29512,"lon":5.39404,"is_reserved":false,"is_disabled":false,"rental_uris":{"android":"levelo://app?vid=16a2419a-eebc-4662-afc6-ee1aaf888906","ios":"levelo://app?vid=16a2419a-eebc-4662-afc6-ee1aaf888906"},"vehicle_type_id":"4","last_reported":1741194537,"current_range_meters":20000,"station_id":"ce4bh292rcd13ifvqdf0","pricing_plan_id":"cebpf4jnsgd1na2vs0mg"},{"bike_id":"d3dccc83-6dac-4f7b-a120-36a288877fc0","system_id":"levelo_inurba_marseille","lat":43.30189,"lon":5.36629,"is_reserved":false,"is_disabled":false,"rental_uris":{"android":"levelo://app?vid=d3dccc83-6dac-4f7b-a120-36a288877fc0","ios":"levelo://app?vid=d3dccc83-6dac-4f7b-a120-36a288877fc0"},"vehicle_type_id":"4","last_reported":1741194537,"current_range_meters":20000,"station_id":"ce4bgrh2rcd13ifvqc8g","pricing_plan_id":"cebpf4jnsgd1na2vs0mg"},{"bike_id":"5d4b9b40-7a73-4ab3-a4e2-de2a38e9f33a","system_id":"levelo_inurba_marseille","lat":43.29537,"lon":5.39017,"is_reserved":false,"is_disabled":false,"rental_uris":{"android":"levelo://app?vid=5d4b9b40-7a73-4ab3-a4e2-de2a38e9f33a","ios":"levelo://app?vid=5d4b9b40-7a73-4ab3-a4e2-de2a38e9f33a"},"vehicle_type_id":"4","last_reported":1741194537,"current_range_meters":20000,"station_id":"ce4bh3p2rcd13ifvqdp0","pricing_plan_id":"cebpf4jnsgd1na2vs0mg"},{"bike_id":"1bfc45c6-ae5c-4996-95c9-37b9fee1d169","system_id":"levelo_inurba_marseille","lat":43.29376,"lon":5.37838,"is_reserved":false,"is_disabled":false,"rental_uris":{"android":"levelo://app?vid=1bfc45c6-ae5c-4996-95c9-37b9fee1d169","ios":"levelo://app?vid=1bfc45c6-ae5c-4996-95c9-37b9fee1d169"},"vehicle_type_id":"4","last_reported":1741194537,"current_range_meters":20000,"station_id":"ce4bgjh2rcd13ifvqbf0","pricing_plan_id":"cebpf4jnsgd1na2vs0mg"},{"bike_id":"4445d856-1cce-474c-bc38-e73ae8964a99","system_id":"levelo_inurba_marseille","lat":43.25008,"lon":5.38928,"is_reserved":false,"is_disabled":false,"rental_uris":{"android":"levelo://app?vid=4445d856-1cce-474c-bc38-e73ae8964a99","ios":"levelo://app?vid=4445d856-1cce-474c-bc38-e73ae8964a99"},"vehicle_type_id":"4","last_reported":1741194537,"current_range_meters":20400,"station_id":"ce4bhgp2rcd13ifvqfd0","pricing_plan_id":"cebpf4jnsgd1na2vs0mg"},{"bike_id":"676e66ef-d0a4-40b4-8d66-e18009714e39","system_id":"levelo_inurba_marseille","lat":43.29536,"lon":5.38543,"is_reserved":false,"is_disabled":false,"rental_uris":{"android":"levelo://app?vid=676e66ef-d0a4-40b4-8d66-e18009714e39","ios":"levelo://app?vid=676e66ef-d0a4-40b4-8d66-e18009714e39"},"vehicle_type_id":"4","last_reported":1741194537,"current_range_meters":20400,"station_id":"ce4bgih2rcd13ifvqba0","pricing_plan_id":"cebpf4jnsgd1na2vs0mg"},{"bike_id":"c030e001-e69a-4062-871d-bb57895a5fd7","system_id":"levelo_inurba_marseille","lat":43.28271,"lon":5.350623,"is_reserved":false,"is_disabled":false,"rental_uris":{"android":"levelo://app?vid=c030e001-e69a-4062-871d-bb57895a5fd7","ios":"levelo://app?vid=c030e001-e69a-4062-871d-bb57895a5fd7"},"vehicle_type_id":"4","last_reported":1741194537,"current_range_meters":20400,"station_id":"ce4bhbp2rcd13ifvqerg","pricing_plan_id":"cebpf4jnsgd1na2vs0mg"},{"bike_id":"7fba493c-cd8e-4966-b698-ff30269ded03","system_id":"levelo_inurba_marseille","lat":43.28413,"lon":5.34986,"is_reserved":false,"is_disabled":false,"rental_uris":{"android":"levelo://app?vid=7fba493c-cd8e-4966-b698-ff30269ded03","ios":"levelo://app?vid=7fba493c-cd8e-4966-b698-ff30269ded03"},"vehicle_type_id":"4","last_reported":1741194537,"current_range_meters":20400,"station_id":"ce4bhbh2rcd13ifvqepg","pricing_plan_id":"cebpf4jnsgd1na2vs0mg"},{"bike_id":"7c6cf8b4-1429-415c-9a6f-44164864c2dd","system_id":"levelo_inurba_marseille","lat":43.27072,"lon":5.42278,"is_reserved":false,"is_disabled":false,"rental_uris":{"android":"levelo://app?vid=7c6cf8b4-1429-415c-9a6f-44164864c2dd","ios":"levelo://app?vid=7c6cf8b4-1429-415c-9a6f-44164864c2dd"},"vehicle_type_id":"4","last_reported":1741194537,"current_range_meters":20400,"station_id":"ce4bhk92rcd13ifvqgb0","pricing_plan_id":"cebpf4jnsgd1na2vs0mg"},{"bike_id":"e9fc4c56-9228-4625-a76b-97b2698e3892","system_id":"levelo_inurba_marseille","lat":43.27992,"lon":5.40013,"is_reserved":false,"is_disabled":false,"rental_uris":{"android":"levelo://app?vid=e9fc4c56-9228-4625-a76b-97b2698e3892","ios":"levelo://app?vid=e9fc4c56-9228-4625-a76b-97b2698e3892"},"vehicle_type_id":"4","last_reported":1741194537,"current_range_meters":20400,"station_id":"ce4bho92rcd13ifvqh4g","pricing_plan_id":"cebpf4jnsgd1na2vs0mg"},{"bike_id":"839d0fa6-db60-4b5b-a065-4d2756848f47","system_id":"levelo_inurba_marseille","lat":43.29968,"lon":5.37168,"is_reserved":false,"is_disabled":false,"rental_uris":{"android":"levelo://app?vid=839d0fa6-db60-4b5b-a065-4d2756848f47","ios":"levelo://app?vid=839d0fa6-db60-4b5b-a065-4d2756848f47"},"vehicle_type_id":"4","last_reported":1741194537,"current_range_meters":20400,"station_id":"ce4bgr92rcd13ifvqc7g","pricing_plan_id":"cebpf4jnsgd1na2vs0mg"},{"bike_id":"aa481d12-00ce-4eab-a1b6-b7d48d335525","system_id":"levelo_inurba_marseille","lat":43.29962,"lon":5.37166,"is_reserved":false,"is_disabled":false,"rental_uris":{"android":"levelo://app?vid=aa481d12-00ce-4eab-a1b6-b7d48d335525","ios":"levelo://app?vid=aa481d12-00ce-4eab-a1b6-b7d48d335525"},"vehicle_type_id":"4","last_reported":1741194537,"current_range_meters":20400,"station_id":"ce4bgn12rcd13ifvqbt0","pricing_plan_id":"cebpf4jnsgd1na2vs0mg"},{"bike_id":"a304f590-bb58-4d4e-a9c4-74c6b3d27d6d","system_id":"levelo_inurba_marseille","lat":43.31175,"lon":5.38716,"is_reserved":false,"is_disabled":false,"rental_uris":{"android":"levelo://app?vid=a304f590-bb58-4d4e-a9c4-74c6b3d27d6d","ios":"levelo://app?vid=a304f590-bb58-4d4e-a9c4-74c6b3d27d6d"},"vehicle_type_id":"4","last_reported":1741194537,"current_range_meters":20400,"station_id":"ce4bgv12rcd13ifvqcp0","pricing_plan_id":"cebpf4jnsgd1na2vs0mg"},{"bike_id":"d0a9e0b6-7460-48af-b167-fa241d6b44c3","system_id":"levelo_inurba_marseille","lat":43.32122,"lon":5.36764,"is_reserved":false,"is_disabled":false,"rental_uris":{"android":"levelo://app?vid=d0a9e0b6-7460-48af-b167-fa241d6b44c3","ios":"levelo://app?vid=d0a9e0b6-7460-48af-b167-fa241d6b44c3"},"vehicle_type_id":"4","last_reported":1741194537,"current_range_meters":20400,"station_id":"ce4bhrh2rcd13ifvqhug","pricing_plan_id":"cebpf4jnsgd1na2vs0mg"},{"bike_id":"2f30a016-ac3d-4e62-8dc9-f116ef799ea1","system_id":"levelo_inurba_marseille","lat":43.28905,"lon":5.36671,"is_reserved":false,"is_disabled":false,"rental_uris":{"android":"levelo://app?vid=2f30a016-ac3d-4e62-8dc9-f116ef799ea1","ios":"levelo://app?vid=2f30a016-ac3d-4e62-8dc9-f116ef799ea1"},"vehicle_type_id":"4","last_reported":1741194537,"current_range_meters":20400,"station_id":"ce4bhap2rcd13ifvqek0","pricing_plan_id":"cebpf4jnsgd1na2vs0mg"},{"bike_id":"c252ebb8-676f-47b3-9771-34c594d42c1f","system_id":"levelo_inurba_marseille","lat":43.301307,"lon":5.387817,"is_reserved":false,"is_disabled":false,"rental_uris":{"android":"levelo://app?vid=c252ebb8-676f-47b3-9771-34c594d42c1f","ios":"levelo://app?vid=c252ebb8-676f-47b3-9771-34c594d42c1f"},"vehicle_type_id":"4","last_reported":1741194537,"current_range_meters":20400,"station_id":"ce4bghh2rcd13ifvqb60","pricing_plan_id":"cebpf4jnsgd1na2vs0mg"},{"bike_id":"180e6d4f-e663-4115-8ad4-a38629ff8669","system_id":"levelo_inurba_marseille","lat":43.29535,"lon":5.3751,"is_reserved":false,"is_disabled":false,"rental_uris":{"android":"levelo://app?vid=180e6d4f-e663-4115-8ad4-a38629ff8669","ios":"levelo://app?vid=180e6d4f-e663-4115-8ad4-a38629ff8669"},"vehicle_type_id":"4","last_reported":1741194537,"current_range_meters":20400,"station_id":"ce4bgkp2rcd13ifvqbmg","pricing_plan_id":"cebpf4jnsgd1na2vs0mg"},{"bike_id":"dae817d9-db52-48b3-9204-2730bbf49024","system_id":"levelo_inurba_marseille","lat":43.26502,"lon":5.3955,"is_reserved":false,"is_disabled":false,"rental_uris":{"android":"levelo://app?vid=dae817d9-db52-48b3-9204-2730bbf49024","ios":"levelo://app?vid=dae817d9-db52-48b3-9204-2730bbf49024"},"vehicle_type_id":"4","last_reported":1741194537,"current_range_meters":20400,"station_id":"ce4bhi12rcd13ifvqfq0","pricing_plan_id":"cebpf4jnsgd1na2vs0mg"},{"bike_id":"25c1a166-59ce-409f-9485-d98b674989ed","system_id":"levelo_inurba_marseille","lat":43.29257,"lon":5.40905,"is_reserved":false,"is_disabled":false,"rental_uris":{"android":"levelo://app?vid=25c1a166-59ce-409f-9485-d98b674989ed","ios":"levelo://app?vid=25c1a166-59ce-409f-9485-d98b674989ed"},"vehicle_type_id":"4","last_reported":1741194537,"current_range_meters":20800,"station_id":"ce4bh192rcd13ifvqdc0","pricing_plan_id":"cebpf4jnsgd1na2vs0mg"},{"bike_id":"10b74c6d-04bc-43c8-b892-4a1d3e03c2bd","system_id":"levelo_inurba_marseille","lat":43.23067,"lon":5.35492,"is_reserved":false,"is_disabled":false,"rental_uris":{"android":"levelo://app?vid=10b74c6d-04bc-43c8-b892-4a1d3e03c2bd","ios":"levelo://app?vid=10b74c6d-04bc-43c8-b892-4a1d3e03c2bd"},"vehicle_type_id":"4","last_reported":1741194537,"current_range_meters":20800,"station_id":"cpo3342slgdg3j2ifvpg","pricing_plan_id":"cebpf4jnsgd1na2vs0mg"},{"bike_id":"3bab4bbb-7236-4520-a9b4-4800a622d201","system_id":"levelo_inurba_marseille","lat":43.28408,"lon":5.34991,"is_reserved":false,"is_disabled":false,"rental_uris":{"android":"levelo://app?vid=3bab4bbb-7236-4520-a9b4-4800a622d201","ios":"levelo://app?vid=3bab4bbb-7236-4520-a9b4-4800a622d201"},"vehicle_type_id":"4","last_reported":1741194537,"current_range_meters":20800,"station_id":"ce4bhbh2rcd13ifvqepg","pricing_plan_id":"cebpf4jnsgd1na2vs0mg"},{"bike_id":"54527b10-ad81-4d36-90cd-a38f258bdfc4","system_id":"levelo_inurba_marseille","lat":43.29798,"lon":5.37686,"is_reserved":false,"is_disabled":false,"rental_uris":{"android":"levelo://app?vid=54527b10-ad81-4d36-90cd-a38f258bdfc4","ios":"levelo://app?vid=54527b10-ad81-4d36-90cd-a38f258bdfc4"},"vehicle_type_id":"4","last_reported":1741194537,"current_range_meters":20800,"station_id":"","pricing_plan_id":"cebpf4jnsgd1na2vs0mg"},{"bike_id":"7a581c8d-d7e2-471d-b602-3fd767590af2","system_id":"levelo_inurba_marseille","lat":43.30663,"lon":5.401148,"is_reserved":false,"is_disabled":false,"rental_uris":{"android":"levelo://app?vid=7a581c8d-d7e2-471d-b602-3fd767590af2","ios":"levelo://app?vid=7a581c8d-d7e2-471d-b602-3fd767590af2"},"vehicle_type_id":"4","last_reported":1741194537,"current_range_meters":21600,"station_id":"ce4bh112rcd13ifvqda0","pricing_plan_id":"cebpf4jnsgd1na2vs0mg"},{"bike_id":"fc554a32-4448-403e-ae45-9e8466c1613f","system_id":"levelo_inurba_marseille","lat":43.28924,"lon":5.36645,"is_reserved":false,"is_disabled":false,"rental_uris":{"android":"levelo://app?vid=fc554a32-4448-403e-ae45-9e8466c1613f","ios":"levelo://app?vid=fc554a32-4448-403e-ae45-9e8466c1613f"},"vehicle_type_id":"4","last_reported":1741194537,"current_range_meters":21600,"station_id":"ce4bhap2rcd13ifvqek0","pricing_plan_id":"cebpf4jnsgd1na2vs0mg"},{"bike_id":"8f8ffd82-d094-4076-99ce-302d87adc130","system_id":"levelo_inurba_marseille","lat":43.30964,"lon":5.39045,"is_reserved":false,"is_disabled":true,"rental_uris":{"android":"levelo://app?vid=8f8ffd82-d094-4076-99ce-302d87adc130","ios":"levelo://app?vid=8f8ffd82-d094-4076-99ce-302d87adc130"},"vehicle_type_id":"4","last_reported":1741194537,"current_range_meters":21600,"station_id":"ce4bgup2rcd13ifvqco0","pricing_plan_id":"cebpf4jnsgd1na2vs0mg"},{"bike_id":"c485c751-2630-4734-8efc-fd5a33de8820","system_id":"levelo_inurba_marseille","lat":43.27669,"lon":5.3952,"is_reserved":false,"is_disabled":false,"rental_uris":{"android":"levelo://app?vid=c485c751-2630-4734-8efc-fd5a33de8820","ios":"levelo://app?vid=c485c751-2630-4734-8efc-fd5a33de8820"},"vehicle_type_id":"4","last_reported":1741194537,"current_range_meters":21600,"station_id":"","pricing_plan_id":"cebpf4jnsgd1na2vs0mg"},{"bike_id":"3dc276f9-b20f-4af2-8e4a-47a6d879b7ff","system_id":"levelo_inurba_marseille","lat":43.27965,"lon":5.38744,"is_reserved":false,"is_disabled":false,"rental_uris":{"android":"levelo://app?vid=3dc276f9-b20f-4af2-8e4a-47a6d879b7ff","ios":"levelo://app?vid=3dc276f9-b20f-4af2-8e4a-47a6d879b7ff"},"vehicle_type_id":"4","last_reported":1741194537,"current_range_meters":21600,"station_id":"ce4bhg12rcd13ifvqf80","pricing_plan_id":"cebpf4jnsgd1na2vs0mg"},{"bike_id":"53c5d4a6-cf03-42bf-8d24-3dc777794cf3","system_id":"levelo_inurba_marseille","lat":43.31889,"lon":5.4073,"is_reserved":false,"is_disabled":false,"rental_uris":{"android":"levelo://app?vid=53c5d4a6-cf03-42bf-8d24-3dc777794cf3","ios":"levelo://app?vid=53c5d4a6-cf03-42bf-8d24-3dc777794cf3"},"vehicle_type_id":"4","last_reported":1741194537,"current_range_meters":22000,"station_id":"ce4bhq12rcd13ifvqhig","pricing_plan_id":"cebpf4jnsgd1na2vs0mg"},{"bike_id":"09c68429-901e-415e-8ece-b1b4bea5e159","system_id":"levelo_inurba_marseille","lat":43.28156,"lon":5.42642,"is_reserved":false,"is_disabled":false,"rental_uris":{"android":"levelo://app?vid=09c68429-901e-415e-8ece-b1b4bea5e159","ios":"levelo://app?vid=09c68429-901e-415e-8ece-b1b4bea5e159"},"vehicle_type_id":"4","last_reported":1741194537,"current_range_meters":22000,"station_id":"ce4bhnh2rcd13ifvqgug","pricing_plan_id":"cebpf4jnsgd1na2vs0mg"},{"bike_id":"39536716-8903-49fd-80c2-c649c01de277","system_id":"levelo_inurba_marseille","lat":43.30804,"lon":5.4352,"is_reserved":false,"is_disabled":false,"rental_uris":{"android":"levelo://app?vid=39536716-8903-49fd-80c2-c649c01de277","ios":"levelo://app?vid=39536716-8903-49fd-80c2-c649c01de277"},"vehicle_type_id":"4","last_reported":1741194537,"current_range_meters":22000,"station_id":"ce4bhph2rcd13ifvqheg","pricing_plan_id":"cebpf4jnsgd1na2vs0mg"},