{"last_updated":1740039188,"ttl":60,"version":"2.2","data":{"bikes":[{"bike_id":"ddfc7e35-b580-47bf-8227-c1555bd5fb6f","system_id":"levelo_inurba_marseille","lat":43.295761,"lon":5.375121,"is_reserved":false,"is_disabled":false,"rental_uris":{"android":"levelo://app?vid=ddfc7e35-b580-47bf-8227-c1555bd5fb6f","ios":"levelo://app?vid=ddfc7e35-b580-47bf-8227-c1555bd5fb6f"},"vehicle_type_id":"4","last_reported":1740039188,"current_range_meters":2800,"station_id":"ce4bgpp2rcd13ifvqc3g","pricing_plan_id":"cebpf4jnsgd1na2vs0mg"},{"bike_id":"71c0f6e9-51dc-4d11-b507-e393d0b372dd","system_id":"levelo_inurba_marseille","lat":43.27494,"lon":5.42461,"is_reserved":false,"is_disabled":false,"rental_uris":{"android":"levelo://app?vid=71c0f6e9-51dc-4d11-b507-e393d0b372dd","ios":"levelo://app?vid=71c0f6e9-51dc-4d11-b507-e393d0b372dd"},"vehicle_type_id":"4","last_reported":1740039188,"current_range_meters":2800,"station_id":"ce4bhn92rcd13ifvqgrg","pricing_plan_id":"cebpf4jnsgd1na2vs0mg"},{"bike_id":"0f665ce8-0c8f-440c-85e8-380ef8e594f9","system_id":"levelo_inurba_marseille","lat":43.31197,"lon":5.36828,"is_reserved":false,"is_disabled":false,"rental_uris":{"android":"levelo://app?vid=0f665ce8-0c8f-440c-85e8-380ef8e594f9","ios":"levelo://app?vid=0f665ce8-0c8f-440c-85e8-380ef8e594f9"},"vehicle_type_id":"4","last_reported":1740039188,"current_range_meters":2800,"station_id":"ce4bgl92rcd13ifvqbq0","pricing_plan_id":"cebpf4jnsgd1na2vs0mg"},{"bike_id":"989a1c05-c74a-4632-af21-81b3f55f7909","system_id":"levelo_inurba_marseille","lat":43.29225,"lon":5.36047,"is_reserved":false,"is_disabled":true,"rental_uris":{"android":"levelo://app?vid=989a1c05-c74a-4632-af21-81b3f55f7909","ios":"levelo://app?vid=989a1c05-c74a-4632-af21-81b3f55f7909"},"vehicle_type_id":"4","last_reported":1740039188,"current_range_meters":2800,"station_id":"","pricing_plan_id":"cebpf4jnsgd1na2vs0mg"},{"bike_id":"8c012646-3a81-48c6-b458-12b81fa897b4","system_id":"levelo_inurba_marseille","lat":43.32104,"lon":5.36768,"is_reserved":false,"is_disabled":false,"rental_uris":{"android":"levelo://app?vid=8c012646-3a81-48c6-b458-12b81fa897b4","ios":"levelo://app?vid=8c012646-3a81-48c6-b458-12b81fa897b4"},"vehicle_type_id":"4","last_reported":1740039188,"current_range_meters":3200,"station_id":"ce4bhrh2rcd13ifvqhug","pricing_plan_id":"cebpf4jnsgd1na2vs0mg"},{"bike_id":"62fe02ff-a032-4e5d-9ece-d1a852bf63f0","system_id":"levelo_inurba_marseille","lat":43.29727,"lon":5.37683,"is_reserved":false,"is_disabled":false,"rental_uris":{"android":"levelo://app?vid=62fe02ff-a032-4e5d-9ece-d1a852bf63f0","ios":"levelo://app?vid=62fe02ff-a032-4e5d-9ece-d1a852bf63f0"},"vehicle_type_id":"4","last_reported":1740039188,"current_range_meters":3600,"station_id":"","pricing_plan_id":"cebpf4jnsgd1na2vs0mg"},{"bike_id":"1e050dc4-e43f-4926-a4c4-05801e1b94da","system_id":"levelo_inurba_marseille","lat":43.32072,"lon":5.37112,"is_reserved":false,"is_disabled":false,"rental_uris":{"android":"levelo://app?vid=1e050dc4-e43f-4926-a4c4-05801e1b94da","ios":"levelo://app?vid=1e050dc4-e43f-4926-a4c4-05801e1b94da"},"vehicle_type_id":"4","last_reported":1740039188,"current_range_meters":4000,"station_id":"","pricing_plan_id":"cebpf4jnsgd1na2vs0mg"},{"bike_id":"c650b050-c841-4aa6-8008-6f3087c8fbdb","system_id":"levelo_inurba_marseille","lat":43.3091,"lon":5.3796,"is_reserved":false,"is_disabled":false,"rental_uris":{"android":"levelo://app?vid=c650b050-c841-4aa6-8008-6f3087c8fbdb","ios":"levelo://app?vid=c650b050-c841-4aa6-8008-6f3087c8fbdb"},"vehicle_type_id":"4","last_reported":1740039188,"current_range_meters":4000,"station_id":"","pricing_plan_id":"cebpf4jnsgd1na2vs0mg"},{"bike_id":"050dccc5-6110-4bdb-a613-69fb6f31a6f4","system_id":"levelo_inurba_marseille","lat":43.28994,"lon":5.3771,"is_reserved":false,"is_disabled":false,"rental_uris":{"android":"levelo://app?vid=050dccc5-6110-4bdb-a613-69fb6f31a6f4","ios":"levelo://app?vid=050dccc5-6110-4bdb-a613-69fb6f31a6f4"},"vehicle_type_id":"4","last_reported":1740039188,"current_range_meters":4000,"station_id":"","pricing_plan_id":"cebpf4jnsgd1na2vs0mg"},{"bike_id":"6736d919-6b94-4636-9dc7-6414ff53170d","system_id":"levelo_inurba_marseille","lat":43.298258,"lon":5.363005,"is_reserved":false,"is_disabled":false,"rental_uris":{"android":"levelo://app?vid=6736d919-6b94-4636-9dc7-6414ff53170d","ios":"levelo://app?vid=6736d919-6b94-4636-9dc7-6414ff53170d"},"vehicle_type_id":"4","last_reported":1740039188,"current_range_meters":4000,"station_id":"ce4bgpp2rcd13ifvqc3g","pricing_plan_id":"cebpf4jnsgd1na2vs0mg"},{"bike_id":"5a3301fa-bbbd-4124-ae98-1973721e093b","system_id":"levelo_inurba_marseille","lat":43.28134,"lon":5.42648,"is_reserved":false,"is_disabled":false,"rental_uris":{"android":"levelo://app?vid=5a3301fa-bbbd-4124-ae98-1973721e093b","ios":"levelo://app?vid=5a3301fa-bbbd-4124-ae98-1973721e093b"},"vehicle_type_id":"4","last_reported":1740039188,"current_range_meters":4000,"station_id":"ce4bhnh2rcd13ifvqgug","pricing_plan_id":"cebpf4jnsgd1na2vs0mg"},{"bike_id":"7f929cc5-ac53-48dc-a9db-7d165e4c4e8f","system_id":"levelo_inurba_marseille","lat":43.272203,"lon":5.391168,"is_reserved":false,"is_disabled":false,"rental_uris":{"android":"levelo://app?vid=7f929cc5-ac53-48dc-a9db-7d165e4c4e8f","ios":"levelo://app?vid=7f929cc5-ac53-48dc-a9db-7d165e4c4e8f"},"vehicle_type_id":"4","last_reported":1740039188,"current_range_meters":4800,"station_id":"ce4bhhp2rcd13ifvqfm0","pricing_plan_id":"cebpf4jnsgd1na2vs0mg"},{"bike_id":"bb852df7-dd74-43f4-8582-0650a376dfcb","system_id":"levelo_inurba_marseille","lat":43.27481,"lon":5.42477,"is_reserved":false,"is_disabled":false,"rental_uris":{"android":"levelo://app?vid=bb852df7-dd74-43f4-8582-0650a376dfcb","ios":"levelo://app?vid=bb852df7-dd74-43f4-8582-0650a376dfcb"},"vehicle_type_id":"4","last_reported":1740039188,"current_range_meters":4800,"station_id":"ce4bhn92rcd13ifvqgrg","pricing_plan_id":"cebpf4jnsgd1na2vs0mg"},{"bike_id":"adb3d6df-7149-4295-84c9-8f4cb47f9c0e","system_id":"levelo_inurba_marseille","lat":43.27278,"lon":5.40673,"is_reserved":false,"is_disabled":true,"rental_uris":{"android":"levelo://app?vid=adb3d6df-7149-4295-84c9-8f4cb47f9c0e","ios":"levelo://app?vid=adb3d6df-7149-4295-84c9-8f4cb47f9c0e"},"vehicle_type_id":"4","last_reported":1740039188,"current_range_meters":4800,"station_id":"","pricing_plan_id":"cebpf4jnsgd1na2vs0mg"},{"bike_id":"cf64b7cd-4626-4d79-afac-2611db88ce28","system_id":"levelo_inurba_marseille","lat":43.27994,"lon":5.41661,"is_reserved":false,"is_disabled":false,"rental_uris":{"android":"levelo://app?vid=cf64b7cd-4626-4d79-afac-2611db88ce28","ios":"levelo://app?vid=cf64b7cd-4626-4d79-afac-2611db88ce28"},"vehicle_type_id":"4","last_reported":1740039188,"current_range_meters":5600,"station_id":"ce4bho12rcd13ifvqh1g","pricing_plan_id":"cebpf4jnsgd1na2vs0mg"},{"bike_id":"d08d77e0-da4d-4425-a05f-fab4f75ab593","system_id":"levelo_inurba_marseille","lat":43.24999,"lon":5.38938,"is_reserved":false,"is_disabled":false,"rental_uris":{"android":"levelo://app?vid=d08d77e0-da4d-4425-a05f-fab4f75ab593","ios":"levelo://app?vid=d08d77e0-da4d-4425-a05f-fab4f75ab593"},"vehicle_type_id":"4","last_reported":1740039188,"current_range_meters":5600,"station_id":"ce4bhgp2rcd13ifvqfd0","pricing_plan_id":"cebpf4jnsgd1na2vs0mg"},{"bike_id":"24101be3-34c2-4b5e-aaac-4b2d2d35967b","system_id":"levelo_inurba_marseille","lat":43.2417,"lon":5.39724,"is_reserved":false,"is_disabled":false,"rental_uris":{"android":"levelo://app?vid=24101be3-34c2-4b5e-aaac-4b2d2d35967b","ios":"levelo://app?vid=24101be3-34c2-4b5e-aaac-4b2d2d35967b"},"vehicle_type_id":"4","last_reported":1740039188,"current_range_meters":6000,"station_id":"ce4bhn12rcd13ifvqgpg","pricing_plan_id":"cebpf4jnsgd1na2vs0mg"},{"bike_id":"2dbc71c4-caa4-43c9-be0f-62f3ed4d514f","system_id":"levelo_inurba_marseille","lat":43.2397,"lon":5.36624,"is_reserved":false,"is_disabled":false,"rental_uris":{"android":"levelo://app?vid=2dbc71c4-caa4-43c9-be0f-62f3ed4d514f","ios":"levelo://app?vid=2dbc71c4-caa4-43c9-be0f-62f3ed4d514f"},"vehicle_type_id":"4","last_reported":1740039188,"current_range_meters":6000,"station_id":"ce4bhi12rcd13ifvqfp0","pricing_plan_id":"cebpf4jnsgd1na2vs0mg"},{"bike_id":"51ab539e-1825-4cf2-9196-1daa14daedf6","system_id":"levelo_inurba_marseille","lat":43.24995,"lon":5.38919,"is_reserved":false,"is_disabled":true,"rental_uris":{"android":"levelo://app?vid=51ab539e-1825-4cf2-9196-1daa14daedf6","ios":"levelo://app?vid=51ab539e-1825-4cf2-9196-1daa14daedf6"},"vehicle_type_id":"4","last_reported":1740039188,"current_range_meters":6000,"station_id":"ce4bhgp2rcd13ifvqfd0","pricing_plan_id":"cebpf4jnsgd1na2vs0mg"},{"bike_id":"81b56bef-84bf-4224-afe4-772001018859","system_id":"levelo_inurba_marseille","lat":43.25077,"lon":5.39518,"is_reserved":false,"is_disabled":false,"rental_uris":{"android":"levelo://app?vid=81b56bef-84bf-4224-afe4-772001018859","ios":"levelo://app?vid=81b56bef-84bf-4224-afe4-772001018859"},"vehicle_type_id":"4","last_reported":1740039188,"current_range_meters":6000,"station_id":"ce4bhm12rcd13ifvqgkg","pricing_plan_id":"cebpf4jnsgd1na2vs0mg"},{"bike_id":"ed356dd8-0353-427c-9cf0-284ca7b500d9","system_id":"levelo_inurba_marseille","lat":43.24442,"lon":5.39629,"is_reserved":false,"is_disabled":false,"rental_uris":{"android":"levelo://app?vid=ed356dd8-0353-427c-9cf0-284ca7b500d9","ios":"levelo://app?vid=ed356dd8-0353-427c-9cf0-284ca7b500d9"},"vehicle_type_id":"4","last_reported":1740039188,"current_range_meters":6000,"station_id":"","pricing_plan_id":"cebpf4jnsgd1na2vs0mg"},{"bike_id":"18fe3d06-df15-4747-b0a1-d25df88e009c","system_id":"levelo_inurba_marseille","lat":43.28158,"lon":5.42667,"is_reserved":false,"is_disabled":false,"rental_uris":{"android":"levelo://app?vid=18fe3d06-df15-4747-b0a1-d25df88e009c","ios":"levelo://app?vid=18fe3d06-df15-4747-b0a1-d25df88e009c"},"vehicle_type_id":"4","last_reported":1740039188,"current_range_meters":6000,"station_id":"ce4bhnh2rcd13ifvqgug","pricing_plan_id":"cebpf4jnsgd1na2vs0mg"},{"bike_id":"ddedcb69-0246-4b05-888b-0a67c9296519","system_id":"levelo_inurba_marseille","lat":43.28428,"lon":5.37522,"is_reserved":false,"is_disabled":false,"rental_uris":{"android":"levelo://app?vid=ddedcb69-0246-4b05-888b-0a67c9296519","ios":"levelo://app?vid=ddedcb69-0246-4b05-888b-0a67c9296519"},"vehicle_type_id":"4","last_reported":1740039188,"current_range_meters":6000,"station_id":"","pricing_plan_id":"cebpf4jnsgd1na2vs0mg"},{"bike_id":"695f27c4-ed26-438d-8d31-ca4076748d34","system_id":"levelo_inurba_marseille","lat":43.29847,"lon":5.36283,"is_reserved":false,"is_disabled":false,"rental_uris":{"android":"levelo://app?vid=695f27c4-ed26-438d-8d31-ca4076748d34","ios":"levelo://app?vid=695f27c4-ed26-438d-8d31-ca4076748d34"},"vehicle_type_id":"4","last_reported":1740039188,"current_range_meters":6400,"station_id":"ce4bgpp2rcd13ifvqc3g","pricing_plan_id":"cebpf4jnsgd1na2vs0mg"},{"bike_id":"21af5f97-1b39-4d35-8beb-e99b39c140a8","system_id":"levelo_inurba_marseille","lat":43.25938,"lon":5.40901,"is_reserved":false,"is_disabled":false,"rental_uris":{"android":"levelo://app?vid=21af5f97-1b39-4d35-8beb-e99b39c140a8","ios":"levelo://app?vid=21af5f97-1b39-4d35-8beb-e99b39c140a8"},"vehicle_type_id":"4","last_reported":1740039188,"current_range_meters":6400,"station_id":"ce4bhm92rcd13ifvqglg","pricing_plan_id":"cebpf4jnsgd1na2vs0mg"},{"bike_id":"bff8ebe4-4411-424d-a863-bdf68d2c7887","system_id":"levelo_inurba_marseille","lat":43.30481,"lon":5.3791,"is_reserved":false,"is_disabled":false,"rental_uris":{"android":"levelo://app?vid=bff8ebe4-4411-424d-a863-bdf68d2c7887","ios":"levelo://app?vid=bff8ebe4-4411-424d-a863-bdf68d2c7887"},"vehicle_type_id":"4","last_reported":1740039188,"current_range_meters":6400,"station_id":"ce4bgup2rcd13ifvqcn0","pricing_plan_id":"cebpf4jnsgd1na2vs0mg"},{"bike_id":"5f624f12-c92f-4447-87ae-fcd565c83c76","system_id":"levelo_inurba_marseille","lat":43.25002,"lon":5.38937,"is_reserved":false,"is_disabled":false,"rental_uris":{"android":"levelo://app?vid=5f624f12-c92f-4447-87ae-fcd565c83c76","ios":"levelo://app?vid=5f624f12-c92f-4447-87ae-fcd565c83c76"},"vehicle_type_id":"4","last_reported":1740039188,"current_range_meters":6400,"station_id":"ce4bhgp2rcd13ifvqfd0","pricing_plan_id":"cebpf4jnsgd1na2vs0mg"},{"bike_id":"0ca2293c-f5ac-4043-886c-b10c5757ff26","system_id":"levelo_inurba_marseille","lat":43.29032,"lon":5.39982,"is_reserved":false,"is_disabled":false,"rental_uris":{"android":"levelo://app?vid=0ca2293c-f5ac-4043-886c-b10c5757ff26","ios":"levelo://app?vid=0ca2293c-f5ac-4043-886c-b10c5757ff26"},"vehicle_type_id":"4","last_reported":1740039188,"current_range_meters":6400,"station_id":"ce4bh392rcd13ifvqdm0","pricing_plan_id":"cebpf4jnsgd1na2vs0mg"},{"bike_id":"d509421c-e85a-4eda-a6a3-1a75d75636ad","system_id":"levelo_inurba_marseille","lat":43.30537,"lon":5.36703,"is_reserved":false,"is_disabled":false,"rental_uris":{"android":"levelo://app?vid=d509421c-e85a-4eda-a6a3-1a75d75636ad","ios":"levelo://app?vid=d509421c-e85a-4eda-a6a3-1a75d75636ad"},"vehicle_type_id":"4","last_reported":1740039188,"current_range_meters":6400,"station_id":"ce4bgrp2rcd13ifvqc9g","pricing_plan_id":"cebpf4jnsgd1na2vs0mg"},{"bike_id":"4089f1a0-cd12-42d3-a6c3-01d445970a86","system_id":"levelo_inurba_marseille","lat":43.31067,"lon":5.36809,"is_reserved":false,"is_disabled":false,"rental_uris":{"android":"levelo://app?vid=4089f1a0-cd12-42d3-a6c3-01d445970a86","ios":"levelo://app?vid=4089f1a0-cd12-42d3-a6c3-01d445970a86"},"vehicle_type_id":"4","last_reported":1740039188,"current_range_meters":6400,"station_id":"","pricing_plan_id":"cebpf4jnsgd1na2vs0mg"},{"bike_id":"9198c6ef-bd5b-45d9-bd7b-e058d791d44b","system_id":"levelo_inurba_marseille","lat":43.24811,"lon":5.37464,"is_reserved":false,"is_disabled":false,"rental_uris":{"android":"levelo://app?vid=9198c6ef-bd5b-45d9-bd7b-e058d791d44b","ios":"levelo://app?vid=9198c6ef-bd5b-45d9-bd7b-e058d791d44b"},"vehicle_type_id":"4","last_reported":1740039188,"current_range_meters":6400,"station_id":"ce4bhgh2rcd13ifvqfb0","pricing_plan_id":"cebpf4jnsgd1na2vs0mg"},{"bike_id":"2294bf4d-9ae4-42eb-9224-953311c5bea1","system_id":"levelo_inurba_marseille","lat":43.29549,"lon":5.42288,"is_reserved":false,"is_disabled":false,"rental_uris":{"android":"levelo://app?vid=2294bf4d-9ae4-42eb-9224-953311c5bea1","ios":"levelo://app?vid=2294bf4d-9ae4-42eb-9224-953311c5bea1"},"vehicle_type_id":"4","last_reported":1740039188,"current_range_meters":6400,"station_id":"ce4bhph2rcd13ifvqhdg","pricing_plan_id":"cebpf4jnsgd1na2vs0mg"},{"bike_id":"77ff30b5-11e0-40c3-9e15-db9294287ac2","system_id":"levelo_inurba_marseille","lat":43.28463,"lon":5.38499,"is_reserved":false,"is_disabled":false,"rental_uris":{"android":"levelo://app?vid=77ff30b5-11e0-40c3-9e15-db9294287ac2","ios":"levelo://app?vid=77ff30b5-11e0-40c3-9e15-db9294287ac2"},"vehicle_type_id":"4","last_reported":1740039188,"current_range_meters":6800,"station_id":"ce4bh8p2rcd13ifvqeb0","pricing_plan_id":"cebpf4jnsgd1na2vs0mg"},{"bike_id":"c2896a85-bd03-44af-9ec9-88cf4b2c2bef","system_id":"levelo_inurba_marseille","lat":43.27372,"lon":5.36257,"is_reserved":false,"is_disabled":false,"rental_uris":{"android":"levelo://app?vid=c2896a85-bd03-44af-9ec9-88cf4b2c2bef","ios":"levelo://app?vid=c2896a85-bd03-44af-9ec9-88cf4b2c2bef"},"vehicle_type_id":"4","last_reported":1740039188,"current_range_meters":6800,"station_id":"","pricing_plan_id":"cebpf4jnsgd1na2vs0mg"},{"bike_id":"698aaa2b-08a8-4cef-ae7d-66edb1d27d16","system_id":"levelo_inurba_marseille","lat":43.27079,"lon":5.42291,"is_reserved":false,"is_disabled":false,"rental_uris":{"android":"levelo://app?vid=698aaa2b-08a8-4cef-ae7d-66edb1d27d16","ios":"levelo://app?vid=698aaa2b-08a8-4cef-ae7d-66edb1d27d16"},"vehicle_type_id":"4","last_reported":1740039188,"current_range_meters":6800,"station_id":"ce4bhk92rcd13ifvqgb0","pricing_plan_id":"cebpf4jnsgd1na2vs0mg"},{"bike_id":"5b993150-8199-423a-8f3d-bba99fc7ef76","system_id":"levelo_inurba_marseille","lat":43.2573,"lon":5.41113,"is_reserved":false,"is_disabled":false,"rental_uris":{"android":"levelo://app?vid=5b993150-8199-423a-8f3d-bba99fc7ef76","ios":"levelo://app?vid=5b993150-8199-423a-8f3d-bba99fc7ef76"},"vehicle_type_id":"4","last_reported":1740039188,"current_range_meters":6800,"station_id":"ce4bhkp2rcd13ifvqgd0","pricing_plan_id":"cebpf4jnsgd1na2vs0mg"},{"bike_id":"d36123b1-f8ec-4d7d-be6f-43c9c5b6ca51","system_id":"levelo_inurba_marseille","lat":43.28614,"lon":5.35102,"is_reserved":false,"is_disabled":false,"rental_uris":{"android":"levelo://app?vid=d36123b1-f8ec-4d7d-be6f-43c9c5b6ca51","ios":"levelo://app?vid=d36123b1-f8ec-4d7d-be6f-43c9c5b6ca51"},"vehicle_type_id":"4","last_reported":1740039188,"current_range_meters":6800,"station_id":"ce4bhch2rcd13ifvqeug","pricing_plan_id":"cebpf4jnsgd1na2vs0mg"},{"bike_id":"bed1ac87-e15f-45fd-a74a-675e82b5696b","system_id":"levelo_inurba_marseille","lat":43.29211,"lon":5.37726,"is_reserved":false,"is_disabled":false,"rental_uris":{"android":"levelo://app?vid=bed1ac87-e15f-45fd-a74a-675e82b5696b","ios":"levelo://app?vid=bed1ac87-e15f-45fd-a74a-675e82b5696b"},"vehicle_type_id":"4","last_reported":1740039188,"current_range_meters":9600,"station_id":"ce4bgl92rcd13ifvqbq0","pricing_plan_id":"cebpf4jnsgd1na2vs0mg"},{"bike_id":"ec2a2a80-692c-4e61-b758-ee418e5968e4","system_id":"levelo_inurba_marseille","lat":43.23967,"lon":5.36614,"is_reserved":false,"is_disabled":false,"rental_uris":{"android":"levelo://app?vid=ec2a2a80-692c-4e61-b758-ee418e5968e4","ios":"levelo://app?vid=ec2a2a80-692c-4e61-b758-ee418e5968e4"},"vehicle_type_id":"4","last_reported":1740039188,"current_range_meters":6800,"station_id":"ce4bhi12rcd13ifvqfp0","pricing_plan_id":"cebpf4jnsgd1na2vs0mg"},{"bike_id":"7f2b235d-b54a-4ba7-9884-b541f6dd74e7","system_id":"levelo_inurba_marseille","lat":43.2718,"lon":5.40989,"is_reserved":false,"is_disabled":false,"rental_uris":{"android":"levelo://app?vid=7f2b235d-b54a-4ba7-9884-b541f6dd74e7","ios":"levelo://app?vid=7f2b235d-b54a-4ba7-9884-b541f6dd74e7"},"vehicle_type_id":"4","last_reported":1740039188,"current_range_meters":6800,"station_id":"","pricing_plan_id":"cebpf4jnsgd1na2vs0mg"},{"bike_id":"05586fe4-5aad-4c15-ac65-9cfa19d3ee71","system_id":"levelo_inurba_marseille","lat":43.282532,"lon":5.402654,"is_reserved":false,"is_disabled":false,"rental_uris":{"android":"levelo://app?vid=05586fe4-5aad-4c15-ac65-9cfa19d3ee71","ios":"levelo://app?vid=05586fe4-5aad-4c15-ac65-9cfa19d3ee71"},"vehicle_type_id":"4","last_reported":1740039188,"current_range_meters":6400,"station_id":"ce4bgt12rcd13ifvqce0","pricing_plan_id":"cebpf4jnsgd1na2vs0mg"},{"bike_id":"0b1a3b32-459a-4ff9-a388-d16482304482","system_id":"levelo_inurba_marseille","lat":43.27998,"lon":5.40007,"is_reserved":false,"is_disabled":false,"rental_uris":{"android":"levelo://app?vid=0b1a3b32-459a-4ff9-a388-d16482304482","ios":"levelo://app?vid=0b1a3b32-459a-4ff9-a388-d16482304482"},"vehicle_type_id":"4","last_reported":1740039188,"current_range_meters":7200,"station_id":"","pricing_plan_id":"cebpf4jnsgd1na2vs0mg"},{"bike_id":"b171709b-645c-48a0-8c06-d8dee562d199","system_id":"levelo_inurba_marseille","lat":43.3046,"lon":5.37917,"is_reserved":false,"is_disabled":false,"rental_uris":{"android":"levelo://app?vid=b171709b-645c-48a0-8c06-d8dee562d199","ios":"levelo://app?vid=b171709b-645c-48a0-8c06-d8dee562d199"},"vehicle_type_id":"4","last_reported":1740039188,"current_range_meters":7200,"station_id":"ce4bgup2rcd13ifvqcn0","pricing_plan_id":"cebpf4jnsgd1na2vs0mg"},{"bike_id":"1fc4eb74-d232-4c23-9827-95f8bc004b53","system_id":"levelo_inurba_marseille","lat":43.26696,"lon":5.38304,"is_reserved":false,"is_disabled":true,"rental_uris":{"android":"levelo://app?vid=1fc4eb74-d232-4c23-9827-95f8bc004b53","ios":"levelo://app?vid=1fc4eb74-d232-4c23-9827-95f8bc004b53"},"vehicle_type_id":"4","last_reported":1740039188,"current_range_meters":7200,"station_id":"ce4bhg92rcd13ifvqf90","pricing_plan_id":"cebpf4jnsgd1na2vs0mg"},{"bike_id":"90de8971-db22-4d27-8c08-4575a12860f9","system_id":"levelo_inurba_marseille","lat":43.271765,"lon":5.409945,"is_reserved":false,"is_disabled":false,"rental_uris":{"android":"levelo://app?vid=90de8971-db22-4d27-8c08-4575a12860f9","ios":"levelo://app?vid=90de8971-db22-4d27-8c08-4575a12860f9"},"vehicle_type_id":"4","last_reported":1740039188,"current_range_meters":7200,"station_id":"ce4bhl12rcd13ifvqgf0","pricing_plan_id":"cebpf4jnsgd1na2vs0mg"},{"bike_id":"065fe6dc-045b-44ea-b19d-dc7780f853f5","system_id":"levelo_inurba_marseille","lat":43.26225,"lon":5.40445,"is_reserved":false,"is_disabled":false,"rental_uris":{"android":"levelo://app?vid=065fe6dc-045b-44ea-b19d-dc7780f853f5","ios":"levelo://app?vid=065fe6dc-045b-44ea-b19d-dc7780f853f5"},"vehicle_type_id":"4","last_reported":1740039188,"current_range_meters":7200,"station_id":"ce4bhmh2rcd13ifvqgmg","pricing_plan_id":"cebpf4jnsgd1na2vs0mg"},{"bike_id":"ea1519e7-b5fe-42ac-aa41-a04f66c121d4","system_id":"levelo_inurba_marseille","lat":43.24053,"lon":5.37745,"is_reserved":false,"is_disabled":false,"rental_uris":{"android":"levelo://app?vid=ea1519e7-b5fe-42ac-aa41-a04f66c121d4","ios":"levelo://app?vid=ea1519e7-b5fe-42ac-aa41-a04f66c121d4"},"vehicle_type_id":"4","last_reported":1740039188,"current_range_meters":7200,"station_id":"ce4bhnp2rcd13ifvqgvg","pricing_plan_id":"cebpf4jnsgd1na2vs0mg"},{"bike_id":"32575a4a-11d2-4e9c-8a24-b8e40ae2228c","system_id":"levelo_inurba_marseille","lat":43.29535,"lon":5.38541,"is_reserved":false,"is_disabled":false,"rental_uris":{"android":"levelo://app?vid=32575a4a-11d2-4e9c-8a24-b8e40ae2228c","ios":"levelo://app?vid=32575a4a-11d2-4e9c-8a24-b8e40ae2228c"},"vehicle_type_id":"4","last_reported":1740039188,"current_range_meters":8000,"station_id":"ce4bgih2rcd13ifvqba0","pricing_plan_id":"cebpf4jnsgd1na2vs0mg"},{"bike_id":"115a7adc-4ed6-4677-8751-fe0936112217","system_id":"levelo_inurba_marseille","lat":43.25575,"lon":5.38224,"is_reserved":false,"is_disabled":false,"rental_uris":{"android":"levelo://app?vid=115a7adc-4ed6-4677-8751-fe0936112217","ios":"levelo://app?vid=115a7adc-4ed6-4677-8751-fe0936112217"},"vehicle_type_id":"4","last_reported":1740039188,"current_range_meters":8000,"station_id":"","pricing_plan_id":"cebpf4jnsgd1na2vs0mg"},{"bike_id":"07750a48-0a12-4e33-89cd-d0f50529fa8e","system_id":"levelo_inurba_marseille","lat":43.2795,"lon":5.41058,"is_reserved":false,"is_disabled":false,"rental_uris":{"android":"levelo://app?vid=07750a48-0a12-4e33-89cd-d0f50529fa8e","ios":"levelo://app?vid=07750a48-0a12-4e33-89cd-d0f50529fa8e"},"vehicle_type_id":"4","last_reported":1740039188,"current_range_meters":8000,"station_id":"ce4bhnp2rcd13ifvqh0g","pricing_plan_id":"cebpf4jnsgd1na2vs0mg"},{"bike_id":"68ef60d6-0d8e-4170-801c-7af65c864b0f","system_id":"levelo_inurba_marseille","lat":43.23965,"lon":5.36628,"is_reserved":false,"is_disabled":false,"rental_uris":{"android":"levelo://app?vid=68ef60d6-0d8e-4170-801c-7af65c864b0f","ios":"levelo://app?vid=68ef60d6-0d8e-4170-801c-7af65c864b0f"},"vehicle_type_id":"4","last_reported":1740039188,"current_range_meters":8000,"station_id":"","pricing_plan_id":"cebpf4jnsgd1na2vs0mg"},{"bike_id":"dfa66656-cae3-47a2-b229-5c7d7d7c4204","system_id":"levelo_inurba_marseille","lat":43.31367,"lon":5.36705,"is_reserved":false,"is_disabled":false,"rental_uris":{"android":"levelo://app?vid=dfa66656-cae3-47a2-b229-5c7d7d7c4204","ios":"levelo://app?vid=dfa66656-cae3-47a2-b229-5c7d7d7c4204"},"vehicle_type_id":"4","last_reported":1740039188,"current_range_meters":8000,"station_id":"","pricing_plan_id":"cebpf4jnsgd1na2vs0mg"},{"bike_id":"952e7ca5-c9f0-4852-85ec-20488b0c9019","system_id":"levelo_inurba_marseille","lat":43.30269,"lon":5.37728,"is_reserved":false,"is_disabled":false,"rental_uris":{"android":"levelo://app?vid=952e7ca5-c9f0-4852-85ec-20488b0c9019","ios":"levelo://app?vid=952e7ca5-c9f0-4852-85ec-20488b0c9019"},"vehicle_type_id":"4","last_reported":1740039188,"current_range_meters":8000,"station_id":"ce4bguh2rcd13ifvqcj0","pricing_plan_id":"cebpf4jnsgd1na2vs0mg"},{"bike_id":"0a2931bd-de37-43ec-9e0f-b2dcc6934137","system_id":"levelo_inurba_marseille","lat":43.30947,"lon":5.39037,"is_reserved":false,"is_disabled":false,"rental_uris":{"android":"levelo://app?vid=0a2931bd-de37-43ec-9e0f-b2dcc6934137","ios":"levelo://app?vid=0a2931bd-de37-43ec-9e0f-b2dcc6934137"},"vehicle_type_id":"4","last_reported":1740039188,"current_range_meters":8000,"station_id":"ce4bgup2rcd13ifvqco0","pricing_plan_id":"cebpf4jnsgd1na2vs0mg"},{"bike_id":"d03b695d-5927-47da-a5d7-43fdb7f30613","system_id":"levelo_inurba_marseille","lat":43.29935,"lon":5.36541,"is_reserved":false,"is_disabled":false,"rental_uris":{"android":"levelo://app?vid=d03b695d-5927-47da-a5d7-43fdb7f30613","ios":"levelo://app?vid=d03b695d-5927-47da-a5d7-43fdb7f30613"},"vehicle_type_id":"4","last_reported":1740039188,"current_range_meters":8000,"station_id":"ce4bgm92rcd13ifvqbr0","pricing_plan_id":"cebpf4jnsgd1na2vs0mg"},{"bike_id":"0caa86c9-275f-45b3-9a12-c32b83479c40","system_id":"levelo_inurba_marseille","lat":43.29053,"lon":5.3996,"is_reserved":false,"is_disabled":true,"rental_uris":{"android":"levelo://app?vid=0caa86c9-275f-45b3-9a12-c32b83479c40","ios":"levelo://app?vid=0caa86c9-275f-45b3-9a12-c32b83479c40"},"vehicle_type_id":"4","last_reported":1740039188,"current_range_meters":8400,"station_id":"","pricing_plan_id":"cebpf4jnsgd1na2vs0mg"},{"bike_id":"f0b88713-2139-4e97-b426-2bd0f67d9c2a","system_id":"levelo_inurba_marseille","lat":43.24824,"lon":5.37429,"is_reserved":false,"is_disabled":false,"rental_uris":{"android":"levelo://app?vid=f0b88713-2139-4e97-b426-2bd0f67d9c2a","ios":"levelo://app?vid=f0b88713-2139-4e97-b426-2bd0f67d9c2a"},"vehicle_type_id":"4","last_reported":1740039188,"current_range_meters":8400,"station_id":"ce4bhgh2rcd13ifvqfb0","pricing_plan_id":"cebpf4jnsgd1na2vs0mg"},{"bike_id":"ba0a4dbe-d370-492e-a789-44c6ef69c02b","system_id":"levelo_inurba_marseille","lat":43.28604,"lon":5.35106,"is_reserved":false,"is_disabled":true,"rental_uris":{"android":"levelo://app?vid=ba0a4dbe-d370-492e-a789-44c6ef69c02b","ios":"levelo://app?vid=ba0a4dbe-d370-492e-a789-44c6ef69c02b"},"vehicle_type_id":"4","last_reported":1740039188,"current_range_meters":8400,"station_id":"ce4bhch2rcd13ifvqeug","pricing_plan_id":"cebpf4jnsgd1na2vs0mg"},{"bike_id":"79b89890-7586-4c94-8d6d-0ee7ae9d50c6","system_id":"levelo_inurba_marseille","lat":43.29594,"lon":5.38103,"is_reserved":false,"is_disabled":false,"rental_uris":{"android":"levelo://app?vid=79b89890-7586-4c94-8d6d-0ee7ae9d50c6","ios":"levelo://app?vid=79b89890-7586-4c94-8d6d-0ee7ae9d50c6"},"vehicle_type_id":"4","last_reported":1740039188,"current_range_meters":8400,"station_id":"ce4bgl12rcd13ifvqbo0","pricing_plan_id":"cebpf4jnsgd1na2vs0mg"},{"bike_id":"f027fe38-3f5d-42fa-b16a-68ca60104c09","system_id":"levelo_inurba_marseille","lat":43.24164,"lon":5.36409,"is_reserved":false,"is_disabled":false,"rental_uris":{"android":"levelo://app?vid=f027fe38-3f5d-42fa-b16a-68ca60104c09","ios":"levelo://app?vid=f027fe38-3f5d-42fa-b16a-68ca60104c09"},"vehicle_type_id":"4","last_reported":1740039188,"current_range_meters":8400,"station_id":"","pricing_plan_id":"cebpf4jnsgd1na2vs0mg"},{"bike_id":"81b1cfd1-d6c7-4566-a974-6436a3325a3c","system_id":"levelo_inurba_marseille","lat":43.30305,"lon":5.36894,"is_reserved":false,"is_disabled":false,"rental_uris":{"android":"levelo://app?vid=81b1cfd1-d6c7-4566-a974-6436a3325a3c","ios":"levelo://app?vid=81b1cfd1-d6c7-4566-a974-6436a3325a3c"},"vehicle_type_id":"4","last_reported":1740039188,"current_range_meters":8400,"station_id":"ce4bgqh2rcd13ifvqc5g","pricing_plan_id":"cebpf4jnsgd1na2vs0mg"},{"bike_id":"f8a1eefe-5190-4327-95c3-8138f343fe57","system_id":"levelo_inurba_marseille","lat":43.31178,"lon":5.39343,"is_reserved":false,"is_disabled":false,"rental_uris":{"android":"levelo://app?vid=f8a1eefe-5190-4327-95c3-8138f343fe57","ios":"levelo://app?vid=f8a1eefe-5190-4327-95c3-8138f343fe57"},"vehicle_type_id":"4","last_reported":1740039188,"current_range_meters":8400,"station_id":"ce4bgqh2rcd13ifvqc4g","pricing_plan_id":"cebpf4jnsgd1na2vs0mg"},{"bike_id":"d893b6ba-f71e-4882-855e-69bef51ee901","system_id":"levelo_inurba_marseille","lat":43.312054,"lon":5.368512,"is_reserved":false,"is_disabled":false,"rental_uris":{"android":"levelo://app?vid=d893b6ba-f71e-4882-855e-69bef51ee901","ios":"levelo://app?vid=d893b6ba-f71e-4882-855e-69bef51ee901"},"vehicle_type_id":"4","last_reported":1740039188,"current_range_meters":8400,"station_id":"ce4bgl92rcd13ifvqbq0","pricing_plan_id":"cebpf4jnsgd1na2vs0mg"},{"bike_id":"44cb7b59-37d0-4d03-b2e0-a7683c0e0c32","system_id":"levelo_inurba_marseille","lat":43.30542,"lon":5.36711,"is_reserved":false,"is_disabled":false,"rental_uris":{"android":"levelo://app?vid=44cb7b59-37d0-4d03-b2e0-a7683c0e0c32","ios":"levelo://app?vid=44cb7b59-37d0-4d03-b2e0-a7683c0e0c32"},"vehicle_type_id":"4","last_reported":1740039188,"current_range_meters":8800,"station_id":"ce4bgrp2rcd13ifvqc9g","pricing_plan_id":"cebpf4jnsgd1na2vs0mg"},{"bike_id":"63c4cf47-dbff-4d5e-a88a-080b99df99de","system_id":"levelo_inurba_marseille","lat":43.29535,"lon":5.38897,"is_reserved":false,"is_disabled":true,"rental_uris":{"android":"levelo://app?vid=63c4cf47-dbff-4d5e-a88a-080b99df99de","ios":"levelo://app?vid=63c4cf47-dbff-4d5e-a88a-080b99df99de"},"vehicle_type_id":"4","last_reported":1740039188,"current_range_meters":8800,"station_id":"","pricing_plan_id":"cebpf4jnsgd1na2vs0mg"},{"bike_id":"34d14ec0-9a1d-4d07-8158-52ff5d0c0371","system_id":"levelo_inurba_marseille","lat":43.29437,"lon":5.38042,"is_reserved":false,"is_disabled":false,"rental_uris":{"android":"levelo://app?vid=34d14ec0-9a1d-4d07-8158-52ff5d0c0371","ios":"levelo://app?vid=34d14ec0-9a1d-4d07-8158-52ff5d0c0371"},"vehicle_type_id":"4","last_reported":1740039188,"current_range_meters":8800,"station_id":"","pricing_plan_id":"cebpf4jnsgd1na2vs0mg"},{"bike_id":"1d63a175-89ef-49ff-9ead-dfe9ed6c22cf","system_id":"levelo_inurba_marseille","lat":43.24677,"lon":5.3944,"is_reserved":false,"is_disabled":false,"rental_uris":{"android":"levelo://app?vid=1d63a175-89ef-49ff-9ead-dfe9ed6c22cf","ios":"levelo://app?vid=1d63a175-89ef-49ff-9ead-dfe9ed6c22cf"},"vehicle_type_id":"4","last_reported":1740039188,"current_range_meters":8800,"station_id":"","pricing_plan_id":"cebpf4jnsgd1na2vs0mg"},{"bike_id":"c67fb496-8441-458a-af2d-8f07c087bdd0","system_id":"levelo_inurba_marseille","lat":43.241699,"lon":5.364044,"is_reserved":false,"is_disabled":true,"rental_uris":{"android":"levelo://app?vid=c67fb496-8441-458a-af2d-8f07c087bdd0","ios":"levelo://app?vid=c67fb496-8441-458a-af2d-8f07c087bdd0"},"vehicle_type_id":"4","last_reported":1740039188,"current_range_meters":8800,"station_id":"","pricing_plan_id":"cebpf4jnsgd1na2vs0mg"},{"bike_id":"4e2b468f-8f4a-4d73-8517-62fa28d3fb4c","system_id":"levelo_inurba_marseille","lat":43.248124,"lon":5.374607,"is_reserved":false,"is_disabled":false,"rental_uris":{"android":"levelo://app?vid=4e2b468f-8f4a-4d73-8517-62fa28d3fb4c","ios":"levelo://app?vid=4e2b468f-8f4a-4d73-8517-62fa28d3fb4c"},"vehicle_type_id":"4","last_reported":1740039188,"current_range_meters":9200,"station_id":"ce4bhgh2rcd13ifvqfb0","pricing_plan_id":"cebpf4jnsgd1na2vs0mg"},{"bike_id":"c323e2ff-640f-47b0-bbfe-fac4271a621c","system_id":"levelo_inurba_marseille","lat":43.28414,"lon":5.34986,"is_reserved":false,"is_disabled":true,"rental_uris":{"android":"levelo://app?vid=c323e2ff-640f-47b0-bbfe-fac4271a621c","ios":"levelo://app?vid=c323e2ff-640f-47b0-bbfe-fac4271a621c"},"vehicle_type_id":"4","last_reported":1740039188,"current_range_meters":9200,"station_id":"ce4bhbh2rcd13ifvqepg","pricing_plan_id":"cebpf4jnsgd1na2vs0mg"},{"bike_id":"6b265abd-250b-4f5e-a8f2-a04ae5584d15","system_id":"levelo_inurba_marseille","lat":43.24995,"lon":5.38952,"is_reserved":false,"is_disabled":false,"rental_uris":{"android":"levelo://app?vid=6b265abd-250b-4f5e-a8f2-a04ae5584d15","ios":"levelo://app?vid=6b265abd-250b-4f5e-a8f2-a04ae5584d15"},"vehicle_type_id":"4","last_reported":1740039188,"current_range_meters":9200,"station_id":"ce4bhgp2rcd13ifvqfd0","pricing_plan_id":"cebpf4jnsgd1na2vs0mg"},{"bike_id":"3fa131c8-d3bf-4fb9-b400-1daf371dcaa7","system_id":"levelo_inurba_marseille","lat":43.27189,"lon":5.40995,"is_reserved":false,"is_disabled":false,"rental_uris":{"android":"levelo://app?vid=3fa131c8-d3bf-4fb9-b400-1daf371dcaa7","ios":"levelo://app?vid=3fa131c8-d3bf-4fb9-b400-1daf371dcaa7"},"vehicle_type_id":"4","last_reported":1740039188,"current_range_meters":9200,"station_id":"ce4bhl12rcd13ifvqgf0","pricing_plan_id":"cebpf4jnsgd1na2vs0mg"},{"bike_id":"a00fb5cd-e0d2-4f96-befb-5275c0df0c87","system_id":"levelo_inurba_marseille","lat":43.28014,"lon":5.41637,"is_reserved":false,"is_disabled":false,"rental_uris":{"android":"levelo://app?vid=a00fb5cd-e0d2-4f96-befb-5275c0df0c87","ios":"levelo://app?vid=a00fb5cd-e0d2-4f96-befb-5275c0df0c87"},"vehicle_type_id":"4","last_reported":1740039188,"current_range_meters":9200,"station_id":"ce4bho12rcd13ifvqh1g","pricing_plan_id":"cebpf4jnsgd1na2vs0mg"},{"bike_id":"24dd12c1-4d8a-40c0-b521-a98d2d462c41","system_id":"levelo_inurba_marseille","lat":43.24166,"lon":5.36393,"is_reserved":false,"is_disabled":false,"rental_uris":{"android":"levelo://app?vid=24dd12c1-4d8a-40c0-b521-a98d2d462c41","ios":"levelo://app?vid=24dd12c1-4d8a-40c0-b521-a98d2d462c41"},"vehicle_type_id":"4","last_reported":1740039188,"current_range_meters":9200,"station_id":"","pricing_plan_id":"cebpf4jnsgd1na2vs0mg"},{"bike_id":"b64778c2-2434-4409-b125-e965a1fd469a","system_id":"levelo_inurba_marseille","lat":43.30316,"lon":5.36675,"is_reserved":false,"is_disabled":false,"rental_uris":{"android":"levelo://app?vid=b64778c2-2434-4409-b125-e965a1fd469a","ios":"levelo://app?vid=b64778c2-2434-4409-b125-e965a1fd469a"},"vehicle_type_id":"4","last_reported":1740039188,"current_range_meters":9200,"station_id":"ce4bgs12rcd13ifvqcag","pricing_plan_id":"cebpf4jnsgd1na2vs0mg"},{"bike_id":"3000f892-a131-4cdd-9747-7f905e493d11","system_id":"levelo_inurba_marseille","lat":43.30478,"lon":5.37952,"is_reserved":false,"is_disabled":false,"rental_uris":{"android":"levelo://app?vid=3000f892-a131-4cdd-9747-7f905e493d11","ios":"levelo://app?vid=3000f892-a131-4cdd-9747-7f905e493d11"},"vehicle_type_id":"4","last_reported":1740039188,"current_range_meters":9600,"station_id":"","pricing_plan_id":"cebpf4jnsgd1na2vs0mg"},{"bike_id":"5089bb88-a0cd-4434-a1a9-f3d5b67361c6","system_id":"levelo_inurba_marseille","lat":43.24368,"lon":5.38761,"is_reserved":false,"is_disabled":false,"rental_uris":{"android":"levelo://app?vid=5089bb88-a0cd-4434-a1a9-f3d5b67361c6","ios":"levelo://app?vid=5089bb88-a0cd-4434-a1a9-f3d5b67361c6"},"vehicle_type_id":"4","last_reported":1740039188,"current_range_meters":9600,"station_id":"","pricing_plan_id":"cebpf4jnsgd1na2vs0mg"},{"bike_id":"e2596add-e568-49b6-a063-b6868f5c61f8","system_id":"levelo_inurba_marseille","lat":43.24813,"lon":5.37459,"is_reserved":false,"is_disabled":false,"rental_uris":{"android":"levelo://app?vid=e2596add-e568-49b6-a063-b6868f5c61f8","ios":"levelo://app?vid=e2596add-e568-49b6-a063-b6868f5c61f8"},"vehicle_type_id":"4","last_reported":1740039188,"current_range_meters":9600,"station_id":"ce4bhgh2rcd13ifvqfb0","pricing_plan_id":"cebpf4jnsgd1na2vs0mg"},{"bike_id":"c19e833c-c3b8-408d-af33-af9f16cfecbe","system_id":"levelo_inurba_marseille","lat":43.26679,"lon":5.3827,"is_reserved":false,"is_disabled":false,"rental_uris":{"android":"levelo://app?vid=c19e833c-c3b8-408d-af33-af9f16cfecbe","ios":"levelo://app?vid=c19e833c-c3b8-408d-af33-af9f16cfecbe"},"vehicle_type_id":"4","last_reported":1740039188,"current_range_meters":9600,"station_id":"ce4bhg92rcd13ifvqf90","pricing_plan_id":"cebpf4jnsgd1na2vs0mg"},{"bike_id":"ade5d9f3-203c-4088-989b-d22120f0b887","system_id":"levelo_inurba_marseille","lat":43.27204,"lon":5.39193,"is_reserved":false,"is_disabled":false,"rental_uris":{"android":"levelo://app?vid=ade5d9f3-203c-4088-989b-d22120f0b887","ios":"levelo://app?vid=ade5d9f3-203c-4088-989b-d22120f0b887"},"vehicle_type_id":"4","last_reported":1740039188,"current_range_meters":9600,"station_id":"ce4bhhp2rcd13ifvqfm0","pricing_plan_id":"cebpf4jnsgd1na2vs0mg"},{"bike_id":"26779595-c177-40e8-a988-d5570ab1009d","system_id":"levelo_inurba_marseille","lat":43.29164,"lon":5.39781,"is_reserved":false,"is_disabled":false,"rental_uris":{"android":"levelo://app?vid=26779595-c177-40e8-a988-d5570ab1009d","ios":"levelo://app?vid=26779595-c177-40e8-a988-d5570ab1009d"},"vehicle_type_id":"4","last_reported":1740039188,"current_range_meters":9600,"station_id":"","pricing_plan_id":"cebpf4jnsgd1na2vs0mg"},{"bike_id":"e1635589-a58b-4a69-a272-7bcd776fbb53","system_id":"levelo_inurba_marseille","lat":43.25933,"lon":5.40869,"is_reserved":false,"is_disabled":false,"rental_uris":{"android":"levelo://app?vid=e1635589-a58b-4a69-a272-7bcd776fbb53","ios":"levelo://app?vid=e1635589-a58b-4a69-a272-7bcd776fbb53"},"vehicle_type_id":"4","last_reported":1740039188,"current_range_meters":9600,"station_id":"ce4bhm92rcd13ifvqglg","pricing_plan_id":"cebpf4jnsgd1na2vs0mg"},{"bike_id":"fc971b16-bef3-4b6d-813c-ffc8ffa48842","system_id":"levelo_inurba_marseille","lat":43.2841,"lon":5.34986,"is_reserved":false,"is_disabled":true,"rental_uris":{"android":"levelo://app?vid=fc971b16-bef3-4b6d-813c-ffc8ffa48842","ios":"levelo://app?vid=fc971b16-bef3-4b6d-813c-ffc8ffa48842"},"vehicle_type_id":"4","last_reported":1740039188,"current_range_meters":9600,"station_id":"","pricing_plan_id":"cebpf4jnsgd1na2vs0mg"},{"bike_id":"e77eb4e6-9e56-4a23-8181-0402dd56e8bb","system_id":"levelo_inurba_marseille","lat":43.30147,"lon":5.38097,"is_reserved":false,"is_disabled":false,"rental_uris":{"android":"levelo://app?vid=e77eb4e6-9e56-4a23-8181-0402dd56e8bb","ios":"levelo://app?vid=e77eb4e6-9e56-4a23-8181-0402dd56e8bb"},"vehicle_type_id":"4","last_reported":1740039188,"current_range_meters":9600,"station_id":"","pricing_plan_id":"cebpf4jnsgd1na2vs0mg"},{"bike_id":"efb58bf1-4403-4b9f-b67d-a8970e8c3a7f","system_id":"levelo_inurba_marseille","lat":43.250068,"lon":5.389163,"is_reserved":false,"is_disabled":false,"rental_uris":{"android":"levelo://app?vid=efb58bf1-4403-4b9f-b67d-a8970e8c3a7f","ios":"levelo://app?vid=efb58bf1-4403-4b9f-b67d-a8970e8c3a7f"},"vehicle_type_id":"4","last_reported":1740039188,"current_range_meters":9600,"station_id":"ce4bhgp2rcd13ifvqfd0","pricing_plan_id":"cebpf4jnsgd1na2vs0mg"},{"bike_id":"5180f318-4948-4085-aaf1-5f3160b57dbe","system_id":"levelo_inurba_marseille","lat":43.27605,"lon":5.36124,"is_reserved":false,"is_disabled":true,"rental_uris":{"android":"levelo://app?vid=5180f318-4948-4085-aaf1-5f3160b57dbe","ios":"levelo://app?vid=5180f318-4948-4085-aaf1-5f3160b57dbe"},"vehicle_type_id":"4","last_reported":1740039188,"current_range_meters":9600,"station_id":"","pricing_plan_id":"cebpf4jnsgd1na2vs0mg"},{"bike_id":"2b686d60-7f02-471f-899c-2704ef4283b5","system_id":"levelo_inurba_marseille","lat":43.25726,"lon":5.41108,"is_reserved":false,"is_disabled":false,"rental_uris":{"android":"levelo://app?vid=2b686d60-7f02-471f-899c-2704ef4283b5","ios":"levelo://app?vid=2b686d60-7f02-471f-899c-2704ef4283b5"},"vehicle_type_id":"4","last_reported":1740039188,"current_range_meters":10000,"station_id":"ce4bhkp2rcd13ifvqgd0","pricing_plan_id":"cebpf4jnsgd1na2vs0mg"},{"bike_id":"5108bbca-35db-4b4d-ac9d-18ce49b4cc20","system_id":"levelo_inurba_marseille","lat":43.30963,"lon":5.39035,"is_reserved":false,"is_disabled":false,"rental_uris":{"android":"levelo://app?vid=5108bbca-35db-4b4d-ac9d-18ce49b4cc20","ios":"levelo://app?vid=5108bbca-35db-4b4d-ac9d-18ce49b4cc20"},"vehicle_type_id":"4","last_reported":1740039188,"current_range_meters":10800,"station_id":"ce4bgup2rcd13ifvqco0","pricing_plan_id":"cebpf4jnsgd1na2vs0mg"},{"bike_id":"a0af3547-0f5a-4ee7-a39d-23ed992db956","system_id":"levelo_inurba_marseille","lat":43.23403,"lon":5.40496,"is_reserved":false,"is_disabled":false,"rental_uris":{"android":"levelo://app?vid=a0af3547-0f5a-4ee7-a39d-23ed992db956","ios":"levelo://app?vid=a0af3547-0f5a-4ee7-a39d-23ed992db956"},"vehicle_type_id":"4","last_reported":1740039188,"current_range_meters":10800,"station_id":"","pricing_plan_id":"cebpf4jnsgd1na2vs0mg"},{"bike_id":"f5f7c6b1-ac7b-4c52-8fac-fd91ff08ab83","system_id":"levelo_inurba_marseille","lat":43.29262,"lon":5.38418,"is_reserved":false,"is_disabled":true,"rental_uris":{"android":"levelo://app?vid=f5f7c6b1-ac7b-4c52-8fac-fd91ff08ab83","ios":"levelo://app?vid=f5f7c6b1-ac7b-4c52-8fac-fd91ff08ab83"},"vehicle_type_id":"4","last_reported":1740039188,"current_range_meters":10800,"station_id":"ce4bh692rcd13ifvqea0","pricing_plan_id":"cebpf4jnsgd1na2vs0mg"},{"bike_id":"c987ac6d-5952-4dc9-b045-c584b8bb8192","system_id":"levelo_inurba_marseille","lat":43.25116,"lon":5.40319,"is_reserved":false,"is_disabled":false,"rental_uris":{"android":"levelo://app?vid=c987ac6d-5952-4dc9-b045-c584b8bb8192","ios":"levelo://app?vid=c987ac6d-5952-4dc9-b045-c584b8bb8192"},"vehicle_type_id":"4","last_reported":1740039188,"current_range_meters":10800,"station_id":"ce4bhlh2rcd13ifvqgig","pricing_plan_id":"cebpf4jnsgd1na2vs0mg"},{"bike_id":"d011a3b6-ce01-4de4-b4d9-5c02cdb1f503","system_id":"levelo_inurba_marseille","lat":43.26691,"lon":5.3828,"is_reserved":false,"is_disabled":false,"rental_uris":{"android":"levelo://app?vid=d011a3b6-ce01-4de4-b4d9-5c02cdb1f503","ios":"levelo://app?vid=d011a3b6-ce01-4de4-b4d9-5c02cdb1f503"},"vehicle_type_id":"4","last_reported":1740039188,"current_range_meters":10800,"station_id":"ce4bhg92rcd13ifvqf90","pricing_plan_id":"cebpf4jnsgd1na2vs0mg"},{"bike_id":"0686e433-82b6-4ced-b364-39b66b6a0983","system_id":"levelo_inurba_marseille","lat":43.255799,"lon":5.382359,"is_reserved":false,"is_disabled":false,"rental_uris":{"android":"levelo://app?vid=0686e433-82b6-4ced-b364-39b66b6a0983","ios":"levelo://app?vid=0686e433-82b6-4ced-b364-39b66b6a0983"},"vehicle_type_id":"4","last_reported":1740039188,"current_range_meters":10800,"station_id":"ce4bhih2rcd13ifvqfs0","pricing_plan_id":"cebpf4jnsgd1na2vs0mg"},{"bike_id":"46e9f51e-b9ef-4a2b-b954-42af97c9998e","system_id":"levelo_inurba_marseille","lat":43.31705,"lon":5.43715,"is_reserved":false,"is_disabled":false,"rental_uris":{"android":"levelo://app?vid=46e9f51e-b9ef-4a2b-b954-42af97c9998e","ios":"levelo://app?vid=46e9f51e-b9ef-4a2b-b954-42af97c9998e"},"vehicle_type_id":"4","last_reported":1740039188,"current_range_meters":10800,"station_id":"","pricing_plan_id":"cebpf4jnsgd1na2vs0mg"},{"bike_id":"1e53252a-c6d9-4340-a17f-222aebfdeecb","system_id":"levelo_inurba_marseille","lat":43.28366,"lon":5.3863,"is_reserved":false,"is_disabled":false,"rental_uris":{"android":"levelo://app?vid=1e53252a-c6d9-4340-a17f-222aebfdeecb","ios":"levelo://app?vid=1e53252a-c6d9-4340-a17f-222aebfdeecb"},"vehicle_type_id":"4","last_reported":1740039188,"current_range_meters":10800,"station_id":"ce4bh492rcd13ifvqdvg","pricing_plan_id":"cebpf4jnsgd1na2vs0mg"},{"bike_id":"058213af-b61b-486b-8e0a-0a8fd78595de","system_id":"levelo_inurba_marseille","lat":43.24444,"lon":5.39632,"is_reserved":false,"is_disabled":false,"rental_uris":{"android":"levelo://app?vid=058213af-b61b-486b-8e0a-0a8fd78595de","ios":"levelo://app?vid=058213af-b61b-486b-8e0a-0a8fd78595de"},"vehicle_type_id":"4","last_reported":1740039188,"current_range_meters":10800,"station_id":"","pricing_plan_id":"cebpf4jnsgd1na2vs0mg"},{"bike_id":"5428c4a6-2268-45c5-aff9-a5f8e308d92b","system_id":"levelo_inurba_marseille","lat":43.30948,"lon":5.37234,"is_reserved":false,"is_disabled":false,"rental_uris":{"android":"levelo://app?vid=5428c4a6-2268-45c5-aff9-a5f8e308d92b","ios":"levelo://app?vid=5428c4a6-2268-45c5-aff9-a5f8e308d92b"},"vehicle_type_id":"4","last_reported":1740039188,"current_range_meters":11200,"station_id":"ce4bguh2rcd13ifvqckg","pricing_plan_id":"cebpf4jnsgd1na2vs0mg"},{"bike_id":"5f9ede52-c720-4107-a864-980fb2608395","system_id":"levelo_inurba_marseille","lat":43.24101,"lon":5.3866,"is_reserved":false,"is_disabled":false,"rental_uris":{"android":"levelo://app?vid=5f9ede52-c720-4107-a864-980fb2608395","ios":"levelo://app?vid=5f9ede52-c720-4107-a864-980fb2608395"},"vehicle_type_id":"4","last_reported":1740039188,"current_range_meters":11200,"station_id":"ce4bhb92rcd13ifvqen0","pricing_plan_id":"cebpf4jnsgd1na2vs0mg"},{"bike_id":"f4401739-f7dc-48fa-be4c-d1c9ae876f5b","system_id":"levelo_inurba_marseille","lat":43.28357,"lon":5.38632,"is_reserved":false,"is_disabled":false,"rental_uris":{"android":"levelo://app?vid=f4401739-f7dc-48fa-be4c-d1c9ae876f5b","ios":"levelo://app?vid=f4401739-f7dc-48fa-be4c-d1c9ae876f5b"},"vehicle_type_id":"4","last_reported":1740039188,"current_range_meters":11200,"station_id":"ce4bh492rcd13ifvqdvg","pricing_plan_id":"cebpf4jnsgd1na2vs0mg"},{"bike_id":"c828262d-e1fd-4efd-9072-b6c8f69622cf","system_id":"levelo_inurba_marseille","lat":43.279758,"lon":5.387419,"is_reserved":false,"is_disabled":false,"rental_uris":{"android":"levelo://app?vid=c828262d-e1fd-4efd-9072-b6c8f69622cf","ios":"levelo://app?vid=c828262d-e1fd-4efd-9072-b6c8f69622cf"},"vehicle_type_id":"4","last_reported":1740039188,"current_range_meters":11200,"station_id":"ce4bhoh2rcd13ifvqh6g","pricing_plan_id":"cebpf4jnsgd1na2vs0mg"},{"bike_id":"ac41cfcd-dee2-41e3-b88f-2febb04a5d13","system_id":"levelo_inurba_marseille","lat":43.290168,"lon":5.381378,"is_reserved":false,"is_disabled":false,"rental_uris":{"android":"levelo://app?vid=ac41cfcd-dee2-41e3-b88f-2febb04a5d13","ios":"levelo://app?vid=ac41cfcd-dee2-41e3-b88f-2febb04a5d13"},"vehicle_type_id":"4","last_reported":1740039188,"current_range_meters":11200,"station_id":"ce4bghh2rcd13ifvqb60","pricing_plan_id":"cebpf4jnsgd1na2vs0mg"},{"bike_id":"477ac2db-8f8c-4cbc-8427-0ab644b57a7a","system_id":"levelo_inurba_marseille","lat":43.25008,"lon":5.38915,"is_reserved":false,"is_disabled":false,"rental_uris":{"android":"levelo://app?vid=477ac2db-8f8c-4cbc-8427-0ab644b57a7a","ios":"levelo://app?vid=477ac2db-8f8c-4cbc-8427-0ab644b57a7a"},"vehicle_type_id":"4","last_reported":1740039188,"current_range_meters":11200,"station_id":"ce4bhgp2rcd13ifvqfd0","pricing_plan_id":"cebpf4jnsgd1na2vs0mg"},{"bike_id":"0b099f4c-9e59-406c-ad28-889f44a84661","system_id":"levelo_inurba_marseille","lat":43.29627,"lon":5.40601,"is_reserved":false,"is_disabled":false,"rental_uris":{"android":"levelo://app?vid=0b099f4c-9e59-406c-ad28-889f44a84661","ios":"levelo://app?vid=0b099f4c-9e59-406c-ad28-889f44a84661"},"vehicle_type_id":"4","last_reported":1740039188,"current_range_meters":11600,"station_id":"ce4bh0h2rcd13ifvqd60","pricing_plan_id":"cebpf4jnsgd1na2vs0mg"},{"bike_id":"ba379239-9216-4e46-a96c-a73988d910ff","system_id":"levelo_inurba_marseille","lat":43.26508,"lon":5.37149,"is_reserved":false,"is_disabled":false,"rental_uris":{"android":"levelo://app?vid=ba379239-9216-4e46-a96c-a73988d910ff","ios":"levelo://app?vid=ba379239-9216-4e46-a96c-a73988d910ff"},"vehicle_type_id":"4","last_reported":1740039188,"current_range_meters":11600,"station_id":"","pricing_plan_id":"cebpf4jnsgd1na2vs0mg"},{"bike_id":"a69cc7e6-b876-4dfe-a7b2-4aa9b7d4d3e3","system_id":"levelo_inurba_marseille","lat":43.28369,"lon":5.38625,"is_reserved":false,"is_disabled":false,"rental_uris":{"android":"levelo://app?vid=a69cc7e6-b876-4dfe-a7b2-4aa9b7d4d3e3","ios":"levelo://app?vid=a69cc7e6-b876-4dfe-a7b2-4aa9b7d4d3e3"},"vehicle_type_id":"4","last_reported":1740039188,"current_range_meters":11600,"station_id":"ce4bh492rcd13ifvqdvg","pricing_plan_id":"cebpf4jnsgd1na2vs0mg"},{"bike_id":"4da6cc22-4d46-4a7c-8914-7b17d72dd95a","system_id":"levelo_inurba_marseille","lat":43.27175,"lon":5.4099,"is_reserved":false,"is_disabled":false,"rental_uris":{"android":"levelo://app?vid=4da6cc22-4d46-4a7c-8914-7b17d72dd95a","ios":"levelo://app?vid=4da6cc22-4d46-4a7c-8914-7b17d72dd95a"},"vehicle_type_id":"4","last_reported":1740039188,"current_range_meters":11600,"station_id":"ce4bhl12rcd13ifvqgf0","pricing_plan_id":"cebpf4jnsgd1na2vs0mg"},{"bike_id":"fe322b84-57c4-482f-a58b-1f046617c90d","system_id":"levelo_inurba_marseille","lat":43.23198,"lon":5.35547,"is_reserved":false,"is_disabled":false,"rental_uris":{"android":"levelo://app?vid=fe322b84-57c4-482f-a58b-1f046617c90d","ios":"levelo://app?vid=fe322b84-57c4-482f-a58b-1f046617c90d"},"vehicle_type_id":"4","last_reported":1740039188,"current_range_meters":12000,"station_id":"ce4bhu92rcd13ifvqi70","pricing_plan_id":"cebpf4jnsgd1na2vs0mg"},{"bike_id":"b16cc8b9-5711-4ace-8b7b-74cb12ad156d","system_id":"levelo_inurba_marseille","lat":43.29293,"lon":5.37454,"is_reserved":false,"is_disabled":false,"rental_uris":{"android":"levelo://app?vid=b16cc8b9-5711-4ace-8b7b-74cb12ad156d","ios":"levelo://app?vid=b16cc8b9-5711-4ace-8b7b-74cb12ad156d"},"vehicle_type_id":"4","last_reported":1740039188,"current_range_meters":12000,"station_id":"ce4bgi12rcd13ifvqb70","pricing_plan_id":"cebpf4jnsgd1na2vs0mg"},{"bike_id":"a8b0e647-368b-4cef-b470-7c420c60668c","system_id":"levelo_inurba_marseille","lat":43.24978,"lon":5.3895,"is_reserved":false,"is_disabled":false,"rental_uris":{"android":"levelo://app?vid=a8b0e647-368b-4cef-b470-7c420c60668c","ios":"levelo://app?vid=a8b0e647-368b-4cef-b470-7c420c60668c"},"vehicle_type_id":"4","last_reported":1740039188,"current_range_meters":12400,"station_id":"ce4bhgp2rcd13ifvqfd0","pricing_plan_id":"cebpf4jnsgd1na2vs0mg"},{"bike_id":"282913c3-b1bc-47c4-a7af-35ce087375e5","system_id":"levelo_inurba_marseille","lat":43.295624,"lon":5.375798,"is_reserved":false,"is_disabled":false,"rental_uris":{"android":"levelo://app?vid=282913c3-b1bc-47c4-a7af-35ce087375e5","ios":"levelo://app?vid=282913c3-b1bc-47c4-a7af-35ce087375e5"},"vehicle_type_id":"4","last_reported":1740039188,"current_range_meters":12400,"station_id":"ce4bgr92rcd13ifvqc7g","pricing_plan_id":"cebpf4jnsgd1na2vs0mg"},{"bike_id":"3904da9c-2370-4925-9477-a21507c064ce","system_id":"levelo_inurba_marseille","lat":43.2396,"lon":5.36636,"is_reserved":false,"is_disabled":false,"rental_uris":{"android":"levelo://app?vid=3904da9c-2370-4925-9477-a21507c064ce","ios":"levelo://app?vid=3904da9c-2370-4925-9477-a21507c064ce"},"vehicle_type_id":"4","last_reported":1740039188,"current_range_meters":12400,"station_id":"ce4bhi12rcd13ifvqfp0","pricing_plan_id":"cebpf4jnsgd1na2vs0mg"},{"bike_id":"a330b606-87a3-49fc-88da-5bc1d12ab20e","system_id":"levelo_inurba_marseille","lat":43.30594,"lon":5.37266,"is_reserved":false,"is_disabled":false,"rental_uris":{"android":"levelo://app?vid=a330b606-87a3-49fc-88da-5bc1d12ab20e","ios":"levelo://app?vid=a330b606-87a3-49fc-88da-5bc1d12ab20e"},"vehicle_type_id":"4","last_reported":1740039188,"current_range_meters":12800,"station_id":"ce4bgqh2rcd13ifvqc4g","pricing_plan_id":"cebpf4jnsgd1na2vs0mg"},{"bike_id":"28d339d1-1236-4af3-8535-f9b0ef2f1e84","system_id":"levelo_inurba_marseille","lat":43.28329,"lon":5.43255,"is_reserved":false,"is_disabled":false,"rental_uris":{"android":"levelo://app?vid=28d339d1-1236-4af3-8535-f9b0ef2f1e84","ios":"levelo://app?vid=28d339d1-1236-4af3-8535-f9b0ef2f1e84"},"vehicle_type_id":"4","last_reported":1740039188,"current_range_meters":12800,"station_id":"","pricing_plan_id":"cebpf4jnsgd1na2vs0mg"},{"bike_id":"f6f2eebd-afe0-42c6-83aa-e630ce003429","system_id":"levelo_inurba_marseille","lat":43.28718,"lon":5.3874,"is_reserved":false,"is_disabled":true,"rental_uris":{"android":"levelo://app?vid=f6f2eebd-afe0-42c6-83aa-e630ce003429","ios":"levelo://app?vid=f6f2eebd-afe0-42c6-83aa-e630ce003429"},"vehicle_type_id":"4","last_reported":1740039188,"current_range_meters":12800,"station_id":"","pricing_plan_id":"cebpf4jnsgd1na2vs0mg"},{"bike_id":"713aa691-dcfa-4d18-86e5-ba295c6d53b5","system_id":"levelo_inurba_marseille","lat":43.31193,"lon":5.36832,"is_reserved":false,"is_disabled":false,"rental_uris":{"android":"levelo://app?vid=713aa691-dcfa-4d18-86e5-ba295c6d53b5","ios":"levelo://app?vid=713aa691-dcfa-4d18-86e5-ba295c6d53b5"},"vehicle_type_id":"4","last_reported":1740039188,"current_range_meters":13600,"station_id":"ce4bgl92rcd13ifvqbq0","pricing_plan_id":"cebpf4jnsgd1na2vs0mg"},{"bike_id":"94ce4c1f-b676-43e1-9e28-ed9f6f6c8e2b","system_id":"levelo_inurba_marseille","lat":43.23615,"lon":5.39186,"is_reserved":false,"is_disabled":false,"rental_uris":{"android":"levelo://app?vid=94ce4c1f-b676-43e1-9e28-ed9f6f6c8e2b","ios":"levelo://app?vid=94ce4c1f-b676-43e1-9e28-ed9f6f6c8e2b"},"vehicle_type_id":"4","last_reported":1740039188,"current_range_meters":13600,"station_id":"","pricing_plan_id":"cebpf4jnsgd1na2vs0mg"},{"bike_id":"7299c537-7488-4ed4-ac3c-8ce0a3999571","system_id":"levelo_inurba_marseille","lat":43.30905,"lon":5.36845,"is_reserved":false,"is_disabled":false,"rental_uris":{"android":"levelo://app?vid=7299c537-7488-4ed4-ac3c-8ce0a3999571","ios":"levelo://app?vid=7299c537-7488-4ed4-ac3c-8ce0a3999571"},"vehicle_type_id":"4","last_reported":1740039188,"current_range_meters":13600,"station_id":"","pricing_plan_id":"cebpf4jnsgd1na2vs0mg"},{"bike_id":"987de0c2-b9bd-4bef-ba52-5ce350e4cb1b","system_id":"levelo_inurba_marseille","lat":43.27985,"lon":5.41659,"is_reserved":false,"is_disabled":false,"rental_uris":{"android":"levelo://app?vid=987de0c2-b9bd-4bef-ba52-5ce350e4cb1b","ios":"levelo://app?vid=987de0c2-b9bd-4bef-ba52-5ce350e4cb1b"},"vehicle_type_id":"4","last_reported":1740039188,"current_range_meters":13600,"station_id":"ce4bho12rcd13ifvqh1g","pricing_plan_id":"cebpf4jnsgd1na2vs0mg"},{"bike_id":"2b04ec38-6ab8-43ab-83bd-32f35e879348","system_id":"levelo_inurba_marseille","lat":43.25936,"lon":5.409,"is_reserved":false,"is_disabled":false,"rental_uris":{"android":"levelo://app?vid=2b04ec38-6ab8-43ab-83bd-32f35e879348","ios":"levelo://app?vid=2b04ec38-6ab8-43ab-83bd-32f35e879348"},"vehicle_type_id":"4","last_reported":1740039188,"current_range_meters":13600,"station_id":"ce4bhm92rcd13ifvqglg","pricing_plan_id":"cebpf4jnsgd1na2vs0mg"},{"bike_id":"3629dd72-60a0-492c-b6d9-2f018585778b","system_id":"levelo_inurba_marseille","lat":43.30919,"lon":5.36841,"is_reserved":false,"is_disabled":false,"rental_uris":{"android":"levelo://app?vid=3629dd72-60a0-492c-b6d9-2f018585778b","ios":"levelo://app?vid=3629dd72-60a0-492c-b6d9-2f018585778b"},"vehicle_type_id":"4","last_reported":1740039188,"current_range_meters":13600,"station_id":"ce4bgn92rcd13ifvqbvg","pricing_plan_id":"cebpf4jnsgd1na2vs0mg"},{"bike_id":"ad47c7e9-f91e-4c76-a821-e7d2287689bf","system_id":"levelo_inurba_marseille","lat":43.27954,"lon":5.41046,"is_reserved":false,"is_disabled":false,"rental_uris":{"android":"levelo://app?vid=ad47c7e9-f91e-4c76-a821-e7d2287689bf","ios":"levelo://app?vid=ad47c7e9-f91e-4c76-a821-e7d2287689bf"},"vehicle_type_id":"4","last_reported":1740039188,"current_range_meters":13600,"station_id":"ce4bhnp2rcd13ifvqh0g","pricing_plan_id":"cebpf4jnsgd1na2vs0mg"},{"bike_id":"4dbc078c-d0fa-4f63-8979-5acbe6aa0756","system_id":"levelo_inurba_marseille","lat":43.32367,"lon":5.38887,"is_reserved":false,"is_disabled":false,"rental_uris":{"android":"levelo://app?vid=4dbc078c-d0fa-4f63-8979-5acbe6aa0756","ios":"levelo://app?vid=4dbc078c-d0fa-4f63-8979-5acbe6aa0756"},"vehicle_type_id":"4","last_reported":1740039188,"current_range_meters":13600,"station_id":"ce4bhqp2rcd13ifvqhog","pricing_plan_id":"cebpf4jnsgd1na2vs0mg"},{"bike_id":"635050f9-a2c9-4910-8267-ff5a32e2982d","system_id":"levelo_inurba_marseille","lat":43.24804,"lon":5.37459,"is_reserved":false,"is_disabled":false,"rental_uris":{"android":"levelo://app?vid=635050f9-a2c9-4910-8267-ff5a32e2982d","ios":"levelo://app?vid=635050f9-a2c9-4910-8267-ff5a32e2982d"},"vehicle_type_id":"4","last_reported":1740039188,"current_range_meters":13600,"station_id":"ce4bhgh2rcd13ifvqfb0","pricing_plan_id":"cebpf4jnsgd1na2vs0mg"},{"bike_id":"68bdc13b-9432-4c96-a9d2-ca12df460a8c","system_id":"levelo_inurba_marseille","lat":43.28425,"lon":5.34988,"is_reserved":false,"is_disabled":false,"rental_uris":{"android":"levelo://app?vid=68bdc13b-9432-4c96-a9d2-ca12df460a8c","ios":"levelo://app?vid=68bdc13b-9432-4c96-a9d2-ca12df460a8c"},"vehicle_type_id":"4","last_reported":1740039188,"current_range_meters":14000,"station_id":"ce4bhbh2rcd13ifvqepg","pricing_plan_id":"cebpf4jnsgd1na2vs0mg"},{"bike_id":"c8bd110f-6ca3-4ae3-bba5-55f38122e0a7","system_id":"levelo_inurba_marseille","lat":43.25,"lon":5.38929,"is_reserved":false,"is_disabled":false,"rental_uris":{"android":"levelo://app?vid=c8bd110f-6ca3-4ae3-bba5-55f38122e0a7","ios":"levelo://app?vid=c8bd110f-6ca3-4ae3-bba5-55f38122e0a7"},"vehicle_type_id":"4","last_reported":1740039188,"current_range_meters":14000,"station_id":"ce4bhgp2rcd13ifvqfd0","pricing_plan_id":"cebpf4jnsgd1na2vs0mg"},{"bike_id":"a7c0b1e1-9204-4ea2-93b2-ade5961eb58c","system_id":"levelo_inurba_marseille","lat":43.301388,"lon":5.369002,"is_reserved":false,"is_disabled":false,"rental_uris":{"android":"levelo://app?vid=a7c0b1e1-9204-4ea2-93b2-ade5961eb58c","ios":"levelo://app?vid=a7c0b1e1-9204-4ea2-93b2-ade5961eb58c"},"vehicle_type_id":"4","last_reported":1740039188,"current_range_meters":14000,"station_id":"ce4bh5p2rcd13ifvqe4g","pricing_plan_id":"cebpf4jnsgd1na2vs0mg"},{"bike_id":"fc18ab60-c9b0-46c3-b6ec-88f5f1d4cc4f","system_id":"levelo_inurba_marseille","lat":43.27172,"lon":5.40995,"is_reserved":false,"is_disabled":false,"rental_uris":{"android":"levelo://app?vid=fc18ab60-c9b0-46c3-b6ec-88f5f1d4cc4f","ios":"levelo://app?vid=fc18ab60-c9b0-46c3-b6ec-88f5f1d4cc4f"},"vehicle_type_id":"4","last_reported":1740039188,"current_range_meters":14000,"station_id":"ce4bhl12rcd13ifvqgf0","pricing_plan_id":"cebpf4jnsgd1na2vs0mg"},{"bike_id":"bfa1afdd-6221-4a91-82bd-d18819a67e02","system_id":"levelo_inurba_marseille","lat":43.244238,"lon":5.370237,"is_reserved":false,"is_disabled":false,"rental_uris":{"android":"levelo://app?vid=bfa1afdd-6221-4a91-82bd-d18819a67e02","ios":"levelo://app?vid=bfa1afdd-6221-4a91-82bd-d18819a67e02"},"vehicle_type_id":"4","last_reported":1740039188,"current_range_meters":14000,"station_id":"ce4bhnp2rcd13ifvqgvg","pricing_plan_id":"cebpf4jnsgd1na2vs0mg"},{"bike_id":"35938de5-ce32-4d46-ba2e-b3412310931e","system_id":"levelo_inurba_marseille","lat":43.28854,"lon":5.39322,"is_reserved":false,"is_disabled":false,"rental_uris":{"android":"levelo://app?vid=35938de5-ce32-4d46-ba2e-b3412310931e","ios":"levelo://app?vid=35938de5-ce32-4d46-ba2e-b3412310931e"},"vehicle_type_id":"4","last_reported":1740039188,"current_range_meters":14000,"station_id":"ce4bh2p2rcd13ifvqdi0","pricing_plan_id":"cebpf4jnsgd1na2vs0mg"},{"bike_id":"1ea0a8ce-232e-4a91-9b73-91d0e5e7efd3","system_id":"levelo_inurba_marseille","lat":43.25499,"lon":5.37663,"is_reserved":false,"is_disabled":false,"rental_uris":{"android":"levelo://app?vid=1ea0a8ce-232e-4a91-9b73-91d0e5e7efd3","ios":"levelo://app?vid=1ea0a8ce-232e-4a91-9b73-91d0e5e7efd3"},"vehicle_type_id":"4","last_reported":1740039188,"current_range_meters":14000,"station_id":"ce4bhh12rcd13ifvqff0","pricing_plan_id":"cebpf4jnsgd1na2vs0mg"},{"bike_id":"a1a2b460-b478-43af-913b-5e3f11e44138","system_id":"levelo_inurba_marseille","lat":43.27188,"lon":5.38276,"is_reserved":false,"is_disabled":false,"rental_uris":{"android":"levelo://app?vid=a1a2b460-b478-43af-913b-5e3f11e44138","ios":"levelo://app?vid=a1a2b460-b478-43af-913b-5e3f11e44138"},"vehicle_type_id":"4","last_reported":1740039188,"current_range_meters":14000,"station_id":"","pricing_plan_id":"cebpf4jnsgd1na2vs0mg"},{"bike_id":"e78bb37e-abd5-418e-a0b1-8824c121a6bf","system_id":"levelo_inurba_marseille","lat":43.30952,"lon":5.39057,"is_reserved":false,"is_disabled":false,"rental_uris":{"android":"levelo://app?vid=e78bb37e-abd5-418e-a0b1-8824c121a6bf","ios":"levelo://app?vid=e78bb37e-abd5-418e-a0b1-8824c121a6bf"},"vehicle_type_id":"4","last_reported":1740039188,"current_range_meters":14000,"station_id":"ce4bgup2rcd13ifvqco0","pricing_plan_id":"cebpf4jnsgd1na2vs0mg"},{"bike_id":"d9102e21-6294-472e-8da2-16dfb746ec2b","system_id":"levelo_inurba_marseille","lat":43.28134,"lon":5.44584,"is_reserved":false,"is_disabled":false,"rental_uris":{"android":"levelo://app?vid=d9102e21-6294-472e-8da2-16dfb746ec2b","ios":"levelo://app?vid=d9102e21-6294-472e-8da2-16dfb746ec2b"},"vehicle_type_id":"4","last_reported":1740039188,"current_range_meters":14000,"station_id":"ce4bhnh2rcd13ifvqgtg","pricing_plan_id":"cebpf4jnsgd1na2vs0mg"},{"bike_id":"1e95394a-cea9-44d2-91cc-d4d3ddb3a42f","system_id":"levelo_inurba_marseille","lat":43.24976,"lon":5.38962,"is_reserved":false,"is_disabled":false,"rental_uris":{"android":"levelo://app?vid=1e95394a-cea9-44d2-91cc-d4d3ddb3a42f","ios":"levelo://app?vid=1e95394a-cea9-44d2-91cc-d4d3ddb3a42f"},"vehicle_type_id":"4","last_reported":1740039188,"current_range_meters":14400,"station_id":"ce4bhgp2rcd13ifvqfd0","pricing_plan_id":"cebpf4jnsgd1na2vs0mg"},{"bike_id":"8becd64c-893d-4a08-8876-b1598e031c70","system_id":"levelo_inurba_marseille","lat":43.27963,"lon":5.38691,"is_reserved":false,"is_disabled":true,"rental_uris":{"android":"levelo://app?vid=8becd64c-893d-4a08-8876-b1598e031c70","ios":"levelo://app?vid=8becd64c-893d-4a08-8876-b1598e031c70"},"vehicle_type_id":"4","last_reported":1740039188,"current_range_meters":14400,"station_id":"","pricing_plan_id":"cebpf4jnsgd1na2vs0mg"},{"bike_id":"b992f9c6-8cd4-4847-bf21-0b493529cfb3","system_id":"levelo_inurba_marseille","lat":43.27493,"lon":5.42459,"is_reserved":false,"is_disabled":false,"rental_uris":{"android":"levelo://app?vid=b992f9c6-8cd4-4847-bf21-0b493529cfb3","ios":"levelo://app?vid=b992f9c6-8cd4-4847-bf21-0b493529cfb3"},"vehicle_type_id":"4","last_reported":1740039188,"current_range_meters":14400,"station_id":"ce4bhn92rcd13ifvqgrg","pricing_plan_id":"cebpf4jnsgd1na2vs0mg"},{"bike_id":"c78ac6f3-5b0a-4e30-aeae-3d56a961b3f3","system_id":"levelo_inurba_marseille","lat":43.23193,"lon":5.39982,"is_reserved":false,"is_disabled":false,"rental_uris":{"android":"levelo://app?vid=c78ac6f3-5b0a-4e30-aeae-3d56a961b3f3","ios":"levelo://app?vid=c78ac6f3-5b0a-4e30-aeae-3d56a961b3f3"},"vehicle_type_id":"4","last_reported":1740039188,"current_range_meters":14400,"station_id":"ce4bhn12rcd13ifvqgqg","pricing_plan_id":"cebpf4jnsgd1na2vs0mg"},{"bike_id":"eece383d-6a94-4ff4-9112-a7699feb1df1","system_id":"levelo_inurba_marseille","lat":43.30156,"lon":5.37389,"is_reserved":false,"is_disabled":false,"rental_uris":{"android":"levelo://app?vid=eece383d-6a94-4ff4-9112-a7699feb1df1","ios":"levelo://app?vid=eece383d-6a94-4ff4-9112-a7699feb1df1"},"vehicle_type_id":"4","last_reported":1740039188,"current_range_meters":14400,"station_id":"ce4bgs92rcd13ifvqcc0","pricing_plan_id":"cebpf4jnsgd1na2vs0mg"},{"bike_id":"a70af82e-abb1-4052-a908-3f6d7385acd1","system_id":"levelo_inurba_marseille","lat":43.28612,"lon":5.37077,"is_reserved":false,"is_disabled":false,"rental_uris":{"android":"levelo://app?vid=a70af82e-abb1-4052-a908-3f6d7385acd1","ios":"levelo://app?vid=a70af82e-abb1-4052-a908-3f6d7385acd1"},"vehicle_type_id":"4","last_reported":1740039188,"current_range_meters":14400,"station_id":"ce4bht12rcd13ifvqi60","pricing_plan_id":"cebpf4jnsgd1na2vs0mg"},{"bike_id":"3bad0b07-fa7a-4cc7-9650-b1214bfaef19","system_id":"levelo_inurba_marseille","lat":43.28152,"lon":5.4264,"is_reserved":false,"is_disabled":false,"rental_uris":{"android":"levelo://app?vid=3bad0b07-fa7a-4cc7-9650-b1214bfaef19","ios":"levelo://app?vid=3bad0b07-fa7a-4cc7-9650-b1214bfaef19"},"vehicle_type_id":"4","last_reported":1740039188,"current_range_meters":14800,"station_id":"ce4bhnh2rcd13ifvqgug","pricing_plan_id":"cebpf4jnsgd1na2vs0mg"},{"bike_id":"a510c1f8-0468-46de-bcdc-632a585330f0","system_id":"levelo_inurba_marseille","lat":43.30532,"lon":5.36716,"is_reserved":false,"is_disabled":false,"rental_uris":{"android":"levelo://app?vid=a510c1f8-0468-46de-bcdc-632a585330f0","ios":"levelo://app?vid=a510c1f8-0468-46de-bcdc-632a585330f0"},"vehicle_type_id":"4","last_reported":1740039188,"current_range_meters":14800,"station_id":"ce4bgrp2rcd13ifvqc9g","pricing_plan_id":"cebpf4jnsgd1na2vs0mg"},{"bike_id":"1c280d86-1002-452f-a3ba-58a2a78fd39d","system_id":"levelo_inurba_marseille","lat":43.28709,"lon":5.39991,"is_reserved":false,"is_disabled":false,"rental_uris":{"android":"levelo://app?vid=1c280d86-1002-452f-a3ba-58a2a78fd39d","ios":"levelo://app?vid=1c280d86-1002-452f-a3ba-58a2a78fd39d"},"vehicle_type_id":"4","last_reported":1740039188,"current_range_meters":14800,"station_id":"ce4bho92rcd13ifvqh3g","pricing_plan_id":"cebpf4jnsgd1na2vs0mg"},{"bike_id":"02294ecb-63f1-466c-86e6-f94378485dff","system_id":"levelo_inurba_marseille","lat":43.2817,"lon":5.42625,"is_reserved":false,"is_disabled":true,"rental_uris":{"android":"levelo://app?vid=02294ecb-63f1-466c-86e6-f94378485dff","ios":"levelo://app?vid=02294ecb-63f1-466c-86e6-f94378485dff"},"vehicle_type_id":"4","last_reported":1740039188,"current_range_meters":14800,"station_id":"ce4bhnh2rcd13ifvqgug","pricing_plan_id":"cebpf4jnsgd1na2vs0mg"},{"bike_id":"53324156-0b5f-4ee4-beb8-65d71f0308f4","system_id":"levelo_inurba_marseille","lat":43.2654,"lon":5.39029,"is_reserved":false,"is_disabled":true,"rental_uris":{"android":"levelo://app?vid=53324156-0b5f-4ee4-beb8-65d71f0308f4","ios":"levelo://app?vid=53324156-0b5f-4ee4-beb8-65d71f0308f4"},"vehicle_type_id":"4","last_reported":1740039188,"current_range_meters":14800,"station_id":"","pricing_plan_id":"cebpf4jnsgd1na2vs0mg"},{"bike_id":"367487e7-2b4b-4651-a00c-56774d09d459","system_id":"levelo_inurba_marseille","lat":43.25008,"lon":5.38942,"is_reserved":false,"is_disabled":false,"rental_uris":{"android":"levelo://app?vid=367487e7-2b4b-4651-a00c-56774d09d459","ios":"levelo://app?vid=367487e7-2b4b-4651-a00c-56774d09d459"},"vehicle_type_id":"4","last_reported":1740039188,"current_range_meters":14800,"station_id":"ce4bhgp2rcd13ifvqfd0","pricing_plan_id":"cebpf4jnsgd1na2vs0mg"},{"bike_id":"3addd8d2-327f-4e60-8639-267e28d7c956","system_id":"levelo_inurba_marseille","lat":43.28731,"lon":5.38627,"is_reserved":false,"is_disabled":true,"rental_uris":{"android":"levelo://app?vid=3addd8d2-327f-4e60-8639-267e28d7c956","ios":"levelo://app?vid=3addd8d2-327f-4e60-8639-267e28d7c956"},"vehicle_type_id":"4","last_reported":1740039188,"current_range_meters":15200,"station_id":"","pricing_plan_id":"cebpf4jnsgd1na2vs0mg"},{"bike_id":"c753badb-c861-454d-80ee-67cc6c99086f","system_id":"levelo_inurba_marseille","lat":43.28417,"lon":5.37535,"is_reserved":false,"is_disabled":true,"rental_uris":{"android":"levelo://app?vid=c753badb-c861-454d-80ee-67cc6c99086f","ios":"levelo://app?vid=c753badb-c861-454d-80ee-67cc6c99086f"},"vehicle_type_id":"4","last_reported":1740039188,"current_range_meters":14800,"station_id":"ce4bh412rcd13ifvqds0","pricing_plan_id":"cebpf4jnsgd1na2vs0mg"},{"bike_id":"4be223db-6d37-41cb-a4f6-bc1db137e77a","system_id":"levelo_inurba_marseille","lat":43.294183,"lon":5.386209,"is_reserved":false,"is_disabled":true,"rental_uris":{"android":"levelo://app?vid=4be223db-6d37-41cb-a4f6-bc1db137e77a","ios":"levelo://app?vid=4be223db-6d37-41cb-a4f6-bc1db137e77a"},"vehicle_type_id":"4","last_reported":1740039188,"current_range_meters":14800,"station_id":"ce4bh2h2rcd13ifvqdh0","pricing_plan_id":"cebpf4jnsgd1na2vs0mg"},{"bike_id":"0f119bb9-42f5-484d-a273-90a601312646","system_id":"levelo_inurba_marseille","lat":43.27072,"lon":5.42302,"is_reserved":false,"is_disabled":false,"rental_uris":{"android":"levelo://app?vid=0f119bb9-42f5-484d-a273-90a601312646","ios":"levelo://app?vid=0f119bb9-42f5-484d-a273-90a601312646"},"vehicle_type_id":"4","last_reported":1740039188,"current_range_meters":14800,"station_id":"ce4bhk92rcd13ifvqgb0","pricing_plan_id":"cebpf4jnsgd1na2vs0mg"},{"bike_id":"385b1916-a599-4df5-82e9-34d0cf56b978","system_id":"levelo_inurba_marseille","lat":43.30542,"lon":5.36543,"is_reserved":false,"is_disabled":false,"rental_uris":{"android":"levelo://app?vid=385b1916-a599-4df5-82e9-34d0cf56b978","ios":"levelo://app?vid=385b1916-a599-4df5-82e9-34d0cf56b978"},"vehicle_type_id":"4","last_reported":1740039188,"current_range_meters":15200,"station_id":"ce4bgs12rcd13ifvqcag","pricing_plan_id":"cebpf4jnsgd1na2vs0mg"},{"bike_id":"378a21a7-b1ec-4051-850d-b470f3510d96","system_id":"levelo_inurba_marseille","lat":43.26803,"lon":5.40249,"is_reserved":false,"is_disabled":true,"rental_uris":{"android":"levelo://app?vid=378a21a7-b1ec-4051-850d-b470f3510d96","ios":"levelo://app?vid=378a21a7-b1ec-4051-850d-b470f3510d96"},"vehicle_type_id":"4","last_reported":1740039188,"current_range_meters":15200,"station_id":"ce501612rcd8frsf0b60","pricing_plan_id":"cebpf4jnsgd1na2vs0mg"},{"bike_id":"867e49ca-1fcf-4c4a-b641-c20eee771353","system_id":"levelo_inurba_marseille","lat":43.28166,"lon":5.42641,"is_reserved":false,"is_disabled":false,"rental_uris":{"android":"levelo://app?vid=867e49ca-1fcf-4c4a-b641-c20eee771353","ios":"levelo://app?vid=867e49ca-1fcf-4c4a-b641-c20eee771353"},"vehicle_type_id":"4","last_reported":1740039188,"current_range_meters":15200,"station_id":"","pricing_plan_id":"cebpf4jnsgd1na2vs0mg"},{"bike_id":"20765ac3-78a5-423f-801d-01f8688d3b7a","system_id":"levelo_inurba_marseille","lat":43.337444,"lon":5.374475,"is_reserved":false,"is_disabled":false,"rental_uris":{"android":"levelo://app?vid=20765ac3-78a5-423f-801d-01f8688d3b7a","ios":"levelo://app?vid=20765ac3-78a5-423f-801d-01f8688d3b7a"},"vehicle_type_id":"4","last_reported":1740039188,"current_range_meters":15200,"station_id":"","pricing_plan_id":"cebpf4jnsgd1na2vs0mg"},{"bike_id":"c798b1f1-24c7-4922-ba1f-d0543ec78d87","system_id":"levelo_inurba_marseille","lat":43.28309,"lon":5.43223,"is_reserved":false,"is_disabled":false,"rental_uris":{"android":"levelo://app?vid=c798b1f1-24c7-4922-ba1f-d0543ec78d87","ios":"levelo://app?vid=c798b1f1-24c7-4922-ba1f-d0543ec78d87"},"vehicle_type_id":"4","last_reported":1740039188,"current_range_meters":15200,"station_id":"ce4bhnp2rcd13ifvqh0g","pricing_plan_id":"cebpf4jnsgd1na2vs0mg"},{"bike_id":"81192873-4d38-4061-82a0-70521ec3ade0","system_id":"levelo_inurba_marseille","lat":43.29413,"lon":5.38606,"is_reserved":false,"is_disabled":true,"rental_uris":{"android":"levelo://app?vid=81192873-4d38-4061-82a0-70521ec3ade0","ios":"levelo://app?vid=81192873-4d38-4061-82a0-70521ec3ade0"},"vehicle_type_id":"4","last_reported":1740039188,"current_range_meters":15200,"station_id":"","pricing_plan_id":"cebpf4jnsgd1na2vs0mg"},{"bike_id":"35cdc792-a7d5-4315-be5b-8aec986c50f8","system_id":"levelo_inurba_marseille","lat":43.29561,"lon":5.39975,"is_reserved":false,"is_disabled":true,"rental_uris":{"android":"levelo://app?vid=35cdc792-a7d5-4315-be5b-8aec986c50f8","ios":"levelo://app?vid=35cdc792-a7d5-4315-be5b-8aec986c50f8"},"vehicle_type_id":"4","last_reported":1740039188,"current_range_meters":16000,"station_id":"ce4bh312rcd13ifvqdj0","pricing_plan_id":"cebpf4jnsgd1na2vs0mg"},{"bike_id":"112fb3b8-1f13-43ef-9d04-fceb5f898039","system_id":"levelo_inurba_marseille","lat":43.30491,"lon":5.37973,"is_reserved":false,"is_disabled":false,"rental_uris":{"android":"levelo://app?vid=112fb3b8-1f13-43ef-9d04-fceb5f898039","ios":"levelo://app?vid=112fb3b8-1f13-43ef-9d04-fceb5f898039"},"vehicle_type_id":"4","last_reported":1740039188,"current_range_meters":16000,"station_id":"ce4bgup2rcd13ifvqcn0","pricing_plan_id":"cebpf4jnsgd1na2vs0mg"},{"bike_id":"834704e8-34ed-4ba2-a886-e9cfe5836af3","system_id":"levelo_inurba_marseille","lat":43.28415,"lon":5.34993,"is_reserved":false,"is_disabled":false,"rental_uris":{"android":"levelo://app?vid=834704e8-34ed-4ba2-a886-e9cfe5836af3","ios":"levelo://app?vid=834704e8-34ed-4ba2-a886-e9cfe5836af3"},"vehicle_type_id":"4","last_reported":1740039188,"current_range_meters":16000,"station_id":"ce4bhbh2rcd13ifvqepg","pricing_plan_id":"cebpf4jnsgd1na2vs0mg"},{"bike_id":"2248a686-da6b-4ef8-880e-8db6a1c23aab","system_id":"levelo_inurba_marseille","lat":43.2738,"lon":5.36258,"is_reserved":false,"is_disabled":false,"rental_uris":{"android":"levelo://app?vid=2248a686-da6b-4ef8-880e-8db6a1c23aab","ios":"levelo://app?vid=2248a686-da6b-4ef8-880e-8db6a1c23aab"},"vehicle_type_id":"4","last_reported":1740039188,"current_range_meters":16000,"station_id":"","pricing_plan_id":"cebpf4jnsgd1na2vs0mg"},{"bike_id":"9baceca5-80a8-4220-93d7-7a524912e6fd","system_id":"levelo_inurba_marseille","lat":43.30581,"lon":5.37262,"is_reserved":false,"is_disabled":false,"rental_uris":{"android":"levelo://app?vid=9baceca5-80a8-4220-93d7-7a524912e6fd","ios":"levelo://app?vid=9baceca5-80a8-4220-93d7-7a524912e6fd"},"vehicle_type_id":"4","last_reported":1740039188,"current_range_meters":16000,"station_id":"ce4bgqh2rcd13ifvqc4g","pricing_plan_id":"cebpf4jnsgd1na2vs0mg"},{"bike_id":"348b5c02-bc41-4f13-83c6-e59be8a75626","system_id":"levelo_inurba_marseille","lat":43.29553,"lon":5.37386,"is_reserved":false,"is_disabled":false,"rental_uris":{"android":"levelo://app?vid=348b5c02-bc41-4f13-83c6-e59be8a75626","ios":"levelo://app?vid=348b5c02-bc41-4f13-83c6-e59be8a75626"},"vehicle_type_id":"4","last_reported":1740039188,"current_range_meters":16000,"station_id":"ce4bgkp2rcd13ifvqbmg","pricing_plan_id":"cebpf4jnsgd1na2vs0mg"},{"bike_id":"dccea38a-2b0d-4e5a-bb39-bb2125673742","system_id":"levelo_inurba_marseille","lat":43.337444,"lon":5.374475,"is_reserved":false,"is_disabled":false,"rental_uris":{"android":"levelo://app?vid=dccea38a-2b0d-4e5a-bb39-bb2125673742","ios":"levelo://app?vid=dccea38a-2b0d-4e5a-bb39-bb2125673742"},"vehicle_type_id":"4","last_reported":1740039188,"current_range_meters":16000,"station_id":"","pricing_plan_id":"cebpf4jnsgd1na2vs0mg"},{"bike_id":"e53b91c8-67fd-4f40-acea-7f7adf31cf25","system_id":"levelo_inurba_marseille","lat":43.29751,"lon":5.38133,"is_reserved":false,"is_disabled":false,"rental_uris":{"android":"levelo://app?vid=e53b91c8-67fd-4f40-acea-7f7adf31cf25","ios":"levelo://app?vid=e53b91c8-67fd-4f40-acea-7f7adf31cf25"},"vehicle_type_id":"4","last_reported":1740039188,"current_range_meters":16000,"station_id":"","pricing_plan_id":"cebpf4jnsgd1na2vs0mg"},{"bike_id":"ec9b79b6-b712-4a75-b45c-0b550587adf7","system_id":"levelo_inurba_marseille","lat":43.24654,"lon":5.38179,"is_reserved":false,"is_disabled":false,"rental_uris":{"android":"levelo://app?vid=ec9b79b6-b712-4a75-b45c-0b550587adf7","ios":"levelo://app?vid=ec9b79b6-b712-4a75-b45c-0b550587adf7"},"vehicle_type_id":"4","last_reported":1740039188,"current_range_meters":16000,"station_id":"","pricing_plan_id":"cebpf4jnsgd1na2vs0mg"},{"bike_id":"03bb80d2-2d58-477e-8d77-d8a9b94a8f21","system_id":"levelo_inurba_marseille","lat":43.23785,"lon":5.40335,"is_reserved":false,"is_disabled":false,"rental_uris":{"android":"levelo://app?vid=03bb80d2-2d58-477e-8d77-d8a9b94a8f21","ios":"levelo://app?vid=03bb80d2-2d58-477e-8d77-d8a9b94a8f21"},"vehicle_type_id":"4","last_reported":1740039188,"current_range_meters":16000,"station_id":"","pricing_plan_id":"cebpf4jnsgd1na2vs0mg"},{"bike_id":"38df2ab2-2a3d-4116-ba30-e559275049a0","system_id":"levelo_inurba_marseille","lat":43.28619,"lon":5.35104,"is_reserved":false,"is_disabled":false,"rental_uris":{"android":"levelo://app?vid=38df2ab2-2a3d-4116-ba30-e559275049a0","ios":"levelo://app?vid=38df2ab2-2a3d-4116-ba30-e559275049a0"},"vehicle_type_id":"4","last_reported":1740039188,"current_range_meters":16400,"station_id":"ce4bhch2rcd13ifvqeug","pricing_plan_id":"cebpf4jnsgd1na2vs0mg"},{"bike_id":"fe85977b-a22e-4193-a152-c3144029e068","system_id":"levelo_inurba_marseille","lat":43.2396,"lon":5.36652,"is_reserved":false,"is_disabled":false,"rental_uris":{"android":"levelo://app?vid=fe85977b-a22e-4193-a152-c3144029e068","ios":"levelo://app?vid=fe85977b-a22e-4193-a152-c3144029e068"},"vehicle_type_id":"4","last_reported":1740039188,"current_range_meters":16400,"station_id":"ce4bhi12rcd13ifvqfp0","pricing_plan_id":"cebpf4jnsgd1na2vs0mg"},{"bike_id":"b1db732e-05f1-47a5-aa10-4721b25f0559","system_id":"levelo_inurba_marseille","lat":43.30784,"lon":5.37641,"is_reserved":false,"is_disabled":false,"rental_uris":{"android":"levelo://app?vid=b1db732e-05f1-47a5-aa10-4721b25f0559","ios":"levelo://app?vid=b1db732e-05f1-47a5-aa10-4721b25f0559"},"vehicle_type_id":"4","last_reported":1740039188,"current_range_meters":16000,"station_id":"ce4bgv92rcd13ifvqcq0","pricing_plan_id":"cebpf4jnsgd1na2vs0mg"},{"bike_id":"fe22554c-3b20-4eed-ade1-29921a73687a","system_id":"levelo_inurba_marseille","lat":43.29299,"lon":5.37463,"is_reserved":false,"is_disabled":false,"rental_uris":{"android":"levelo://app?vid=fe22554c-3b20-4eed-ade1-29921a73687a","ios":"levelo://app?vid=fe22554c-3b20-4eed-ade1-29921a73687a"},"vehicle_type_id":"4","last_reported":1740039188,"current_range_meters":16000,"station_id":"ce4bgi12rcd13ifvqb70","pricing_plan_id":"cebpf4jnsgd1na2vs0mg"},{"bike_id":"2b2271a1-6afb-4edf-ac74-f47811f194d2","system_id":"levelo_inurba_marseille","lat":43.26691,"lon":5.38257,"is_reserved":false,"is_disabled":false,"rental_uris":{"android":"levelo://app?vid=2b2271a1-6afb-4edf-ac74-f47811f194d2","ios":"levelo://app?vid=2b2271a1-6afb-4edf-ac74-f47811f194d2"},"vehicle_type_id":"4","last_reported":1740039188,"current_range_meters":16400,"station_id":"ce4bhg92rcd13ifvqf90","pricing_plan_id":"cebpf4jnsgd1na2vs0mg"},{"bike_id":"264f76d8-5221-4f90-8fd0-e3b407a67a5b","system_id":"levelo_inurba_marseille","lat":43.28261,"lon":5.35087,"is_reserved":false,"is_disabled":false,"rental_uris":{"android":"levelo://app?vid=264f76d8-5221-4f90-8fd0-e3b407a67a5b","ios":"levelo://app?vid=264f76d8-5221-4f90-8fd0-e3b407a67a5b"},"vehicle_type_id":"4","last_reported":1740039188,"current_range_meters":16800,"station_id":"ce4bhbp2rcd13ifvqerg","pricing_plan_id":"cebpf4jnsgd1na2vs0mg"},{"bike_id":"ce0caea6-6d1c-48ef-b0eb-fae6199eb4e1","system_id":"levelo_inurba_marseille","lat":43.23066,"lon":5.35508,"is_reserved":false,"is_disabled":false,"rental_uris":{"android":"levelo://app?vid=ce0caea6-6d1c-48ef-b0eb-fae6199eb4e1","ios":"levelo://app?vid=ce0caea6-6d1c-48ef-b0eb-fae6199eb4e1"},"vehicle_type_id":"4","last_reported":1740039188,"current_range_meters":16800,"station_id":"cpo3342slgdg3j2ifvpg","pricing_plan_id":"cebpf4jnsgd1na2vs0mg"},{"bike_id":"db38f802-4cd3-4ca5-bc7b-8b9b479cf972","system_id":"levelo_inurba_marseille","lat":43.337444,"lon":5.374475,"is_reserved":false,"is_disabled":false,"rental_uris":{"android":"levelo://app?vid=db38f802-4cd3-4ca5-bc7b-8b9b479cf972","ios":"levelo://app?vid=db38f802-4cd3-4ca5-bc7b-8b9b479cf972"},"vehicle_type_id":"4","last_reported":1740039188,"current_range_meters":16800,"station_id":"","pricing_plan_id":"cebpf4jnsgd1na2vs0mg"},{"bike_id":"ea745138-460b-4e17-a859-b1506abe4ed3","system_id":"levelo_inurba_marseille","lat":43.30143,"lon":5.37404,"is_reserved":false,"is_disabled":false,"rental_uris":{"android":"levelo://app?vid=ea745138-460b-4e17-a859-b1506abe4ed3","ios":"levelo://app?vid=ea745138-460b-4e17-a859-b1506abe4ed3"},"vehicle_type_id":"4","last_reported":1740039188,"current_range_meters":16800,"station_id":"ce4bgs92rcd13ifvqcc0","pricing_plan_id":"cebpf4jnsgd1na2vs0mg"},{"bike_id":"291dcf17-270c-42cb-8eb8-10db7ec4e070","system_id":"levelo_inurba_marseille","lat":43.27666,"lon":5.38881,"is_reserved":false,"is_disabled":false,"rental_uris":{"android":"levelo://app?vid=291dcf17-270c-42cb-8eb8-10db7ec4e070","ios":"levelo://app?vid=291dcf17-270c-42cb-8eb8-10db7ec4e070"},"vehicle_type_id":"4","last_reported":1740039188,"current_range_meters":16800,"station_id":"ce4bhi12rcd13ifvqfo0","pricing_plan_id":"cebpf4jnsgd1na2vs0mg"},{"bike_id":"4f9ad286-871e-4e75-a51f-a20b0c404616","system_id":"levelo_inurba_marseille","lat":43.30136,"lon":5.38071,"is_reserved":false,"is_disabled":false,"rental_uris":{"android":"levelo://app?vid=4f9ad286-871e-4e75-a51f-a20b0c404616","ios":"levelo://app?vid=4f9ad286-871e-4e75-a51f-a20b0c404616"},"vehicle_type_id":"4","last_reported":1740039188,"current_range_meters":16800,"station_id":"ce4bgjp2rcd13ifvqbh0","pricing_plan_id":"cebpf4jnsgd1na2vs0mg"},{"bike_id":"5a001ab7-5813-41f4-b1cb-bc211d4e2327","system_id":"levelo_inurba_marseille","lat":43.28008,"lon":5.39968,"is_reserved":false,"is_disabled":false,"rental_uris":{"android":"levelo://app?vid=5a001ab7-5813-41f4-b1cb-bc211d4e2327","ios":"levelo://app?vid=5a001ab7-5813-41f4-b1cb-bc211d4e2327"},"vehicle_type_id":"4","last_reported":1740039188,"current_range_meters":16800,"station_id":"ce4bho92rcd13ifvqh4g","pricing_plan_id":"cebpf4jnsgd1na2vs0mg"},{"bike_id":"9859809e-d6c2-4be6-9400-fa22eb3d3fc6","system_id":"levelo_inurba_marseille","lat":43.296814,"lon":5.372861,"is_reserved":false,"is_disabled":false,"rental_uris":{"android":"levelo://app?vid=9859809e-d6c2-4be6-9400-fa22eb3d3fc6","ios":"levelo://app?vid=9859809e-d6c2-4be6-9400-fa22eb3d3fc6"},"vehicle_type_id":"4","last_reported":1740039188,"current_range_meters":17200,"station_id":"ce4bgup2rcd13ifvqco0","pricing_plan_id":"cebpf4jnsgd1na2vs0mg"},{"bike_id":"ee65d27d-4913-4761-b473-f0870f0c77ab","system_id":"levelo_inurba_marseille","lat":43.30876,"lon":5.3721,"is_reserved":false,"is_disabled":false,"rental_uris":{"android":"levelo://app?vid=ee65d27d-4913-4761-b473-f0870f0c77ab","ios":"levelo://app?vid=ee65d27d-4913-4761-b473-f0870f0c77ab"},"vehicle_type_id":"4","last_reported":1740039188,"current_range_meters":17200,"station_id":"ce4bguh2rcd13ifvqckg","pricing_plan_id":"cebpf4jnsgd1na2vs0mg"},{"bike_id":"c9831263-5ae1-4a4d-8305-bcfa6890cf59","system_id":"levelo_inurba_marseille","lat":43.26785,"lon":5.39413,"is_reserved":false,"is_disabled":false,"rental_uris":{"android":"levelo://app?vid=c9831263-5ae1-4a4d-8305-bcfa6890cf59","ios":"levelo://app?vid=c9831263-5ae1-4a4d-8305-bcfa6890cf59"},"vehicle_type_id":"4","last_reported":1740039188,"current_range_meters":16800,"station_id":"ce4bhh12rcd13ifvqfg0","pricing_plan_id":"cebpf4jnsgd1na2vs0mg"},{"bike_id":"b02d7f8e-9bf2-4203-bdc8-c6ce1c1079e7","system_id":"levelo_inurba_marseille","lat":43.23193,"lon":5.39973,"is_reserved":false,"is_disabled":false,"rental_uris":{"android":"levelo://app?vid=b02d7f8e-9bf2-4203-bdc8-c6ce1c1079e7","ios":"levelo://app?vid=b02d7f8e-9bf2-4203-bdc8-c6ce1c1079e7"},"vehicle_type_id":"4","last_reported":1740039188,"current_range_meters":17200,"station_id":"","pricing_plan_id":"cebpf4jnsgd1na2vs0mg"},{"bike_id":"6106393f-3645-48aa-b132-3d2def6b4674","system_id":"levelo_inurba_marseille","lat":43.304574,"lon":5.380846,"is_reserved":false,"is_disabled":false,"rental_uris":{"android":"levelo://app?vid=6106393f-3645-48aa-b132-3d2def6b4674","ios":"levelo://app?vid=6106393f-3645-48aa-b132-3d2def6b4674"},"vehicle_type_id":"4","last_reported":1740039188,"current_range_meters":17200,"station_id":"ce4bgv92rcd13ifvqcq0","pricing_plan_id":"cebpf4jnsgd1na2vs0mg"},{"bike_id":"1736bdf7-065e-458a-8be8-137efe82e48a","system_id":"levelo_inurba_marseille","lat":43.33097,"lon":5.39055,"is_reserved":false,"is_disabled":false,"rental_uris":{"android":"levelo://app?vid=1736bdf7-065e-458a-8be8-137efe82e48a","ios":"levelo://app?vid=1736bdf7-065e-458a-8be8-137efe82e48a"},"vehicle_type_id":"4","last_reported":1740039188,"current_range_meters":17600,"station_id":"ce4bhqp2rcd13ifvqhog","pricing_plan_id":"cebpf4jnsgd1na2vs0mg"},{"bike_id":"b5599697-e1bb-4dc1-8d29-75db65d5ac6b","system_id":"levelo_inurba_marseille","lat":43.27605,"lon":5.36141,"is_reserved":false,"is_disabled":false,"rental_uris":{"android":"levelo://app?vid=b5599697-e1bb-4dc1-8d29-75db65d5ac6b","ios":"levelo://app?vid=b5599697-e1bb-4dc1-8d29-75db65d5ac6b"},"vehicle_type_id":"4","last_reported":1740039188,"current_range_meters":17600,"station_id":"ce4bgj92rcd13ifvqbe0","pricing_plan_id":"cebpf4jnsgd1na2vs0mg"},{"bike_id":"b253065d-1074-4a51-bc2b-4e15dba86004","system_id":"levelo_inurba_marseille","lat":43.230584,"lon":5.355079,"is_reserved":false,"is_disabled":false,"rental_uris":{"android":"levelo://app?vid=b253065d-1074-4a51-bc2b-4e15dba86004","ios":"levelo://app?vid=b253065d-1074-4a51-bc2b-4e15dba86004"},"vehicle_type_id":"4","last_reported":1740039188,"current_range_meters":17600,"station_id":"cpo3342slgdg3j2ifvpg","pricing_plan_id":"cebpf4jnsgd1na2vs0mg"},{"bike_id":"c553d44f-d793-4d64-a657-5a6642225c5e","system_id":"levelo_inurba_marseille","lat":43.30942,"lon":5.40128,"is_reserved":false,"is_disabled":true,"rental_uris":{"android":"levelo://app?vid=c553d44f-d793-4d64-a657-5a6642225c5e","ios":"levelo://app?vid=c553d44f-d793-4d64-a657-5a6642225c5e"},"vehicle_type_id":"4","last_reported":1740039188,"current_range_meters":18000,"station_id":"ce4bgvp2rcd13ifvqct0","pricing_plan_id":"cebpf4jnsgd1na2vs0mg"},{"bike_id":"97228b5f-44d0-41b2-a8e6-0b2fee9b3608","system_id":"levelo_inurba_marseille","lat":43.260284,"lon":5.375284,"is_reserved":false,"is_disabled":false,"rental_uris":{"android":"levelo://app?vid=97228b5f-44d0-41b2-a8e6-0b2fee9b3608","ios":"levelo://app?vid=97228b5f-44d0-41b2-a8e6-0b2fee9b3608"},"vehicle_type_id":"4","last_reported":1740039188,"current_range_meters":18000,"station_id":"ce4bhgh2rcd13ifvqfa0","pricing_plan_id":"cebpf4jnsgd1na2vs0mg"},{"bike_id":"56834599-2949-4368-8c7c-ea0cffd718b2","system_id":"levelo_inurba_marseille","lat":43.270679,"lon":5.422784,"is_reserved":false,"is_disabled":false,"rental_uris":{"android":"levelo://app?vid=56834599-2949-4368-8c7c-ea0cffd718b2","ios":"levelo://app?vid=56834599-2949-4368-8c7c-ea0cffd718b2"},"vehicle_type_id":"4","last_reported":1740039188,"current_range_meters":18000,"station_id":"ce4bhk92rcd13ifvqgb0","pricing_plan_id":"cebpf4jnsgd1na2vs0mg"},{"bike_id":"58206dea-4735-4629-a822-357652996102","system_id":"levelo_inurba_marseille","lat":43.30947,"lon":5.39037,"is_reserved":false,"is_disabled":false,"rental_uris":{"android":"levelo://app?vid=58206dea-4735-4629-a822-357652996102","ios":"levelo://app?vid=58206dea-4735-4629-a822-357652996102"},"vehicle_type_id":"4","last_reported":1740039188,"current_range_meters":18000,"station_id":"ce4bgup2rcd13ifvqco0","pricing_plan_id":"cebpf4jnsgd1na2vs0mg"},{"bike_id":"790b0ff7-55c5-4c35-9f2a-78c4076d7d17","system_id":"levelo_inurba_marseille","lat":43.2797,"lon":5.38483,"is_reserved":false,"is_disabled":false,"rental_uris":{"android":"levelo://app?vid=790b0ff7-55c5-4c35-9f2a-78c4076d7d17","ios":"levelo://app?vid=790b0ff7-55c5-4c35-9f2a-78c4076d7d17"},"vehicle_type_id":"4","last_reported":1740039188,"current_range_meters":18000,"station_id":"","pricing_plan_id":"cebpf4jnsgd1na2vs0mg"},{"bike_id":"8565daea-baa6-4321-894c-509f6e4e988a","system_id":"levelo_inurba_marseille","lat":43.289448,"lon":5.366274,"is_reserved":false,"is_disabled":true,"rental_uris":{"android":"levelo://app?vid=8565daea-baa6-4321-894c-509f6e4e988a","ios":"levelo://app?vid=8565daea-baa6-4321-894c-509f6e4e988a"},"vehicle_type_id":"4","last_reported":1740039188,"current_range_meters":18000,"station_id":"ce4bhap2rcd13ifvqek0","pricing_plan_id":"cebpf4jnsgd1na2vs0mg"},{"bike_id":"366447db-c70d-4f8d-9a36-a856c2f20aef","system_id":"levelo_inurba_marseille","lat":43.23148,"lon":5.43722,"is_reserved":false,"is_disabled":false,"rental_uris":{"android":"levelo://app?vid=366447db-c70d-4f8d-9a36-a856c2f20aef","ios":"levelo://app?vid=366447db-c70d-4f8d-9a36-a856c2f20aef"},"vehicle_type_id":"4","last_reported":1740039188,"current_range_meters":18000,"station_id":"ce4bhmp2rcd13ifvqgog","pricing_plan_id":"cebpf4jnsgd1na2vs0mg"},{"bike_id":"d45585d8-77f4-47bd-be76-b7e632289413","system_id":"levelo_inurba_marseille","lat":43.29572,"lon":5.3752,"is_reserved":false,"is_disabled":false,"rental_uris":{"android":"levelo://app?vid=d45585d8-77f4-47bd-be76-b7e632289413","ios":"levelo://app?vid=d45585d8-77f4-47bd-be76-b7e632289413"},"vehicle_type_id":"4","last_reported":1740039188,"current_range_meters":18000,"station_id":"ce4bgh92rcd13ifvqb50","pricing_plan_id":"cebpf4jnsgd1na2vs0mg"},{"bike_id":"a09c6f41-ac63-4d7b-b531-090ecd408bf6","system_id":"levelo_inurba_marseille","lat":43.30908,"lon":5.36844,"is_reserved":false,"is_disabled":true,"rental_uris":{"android":"levelo://app?vid=a09c6f41-ac63-4d7b-b531-090ecd408bf6","ios":"levelo://app?vid=a09c6f41-ac63-4d7b-b531-090ecd408bf6"},"vehicle_type_id":"4","last_reported":1740039188,"current_range_meters":18000,"station_id":"ce4bgn92rcd13ifvqbvg","pricing_plan_id":"cebpf4jnsgd1na2vs0mg"},{"bike_id":"e535759a-b908-46f6-a050-9bf8b29360a7","system_id":"levelo_inurba_marseille","lat":43.27632,"lon":5.42629,"is_reserved":false,"is_disabled":false,"rental_uris":{"android":"levelo://app?vid=e535759a-b908-46f6-a050-9bf8b29360a7","ios":"levelo://app?vid=e535759a-b908-46f6-a050-9bf8b29360a7"},"vehicle_type_id":"4","last_reported":1740039188,"current_range_meters":18000,"station_id":"","pricing_plan_id":"cebpf4jnsgd1na2vs0mg"},{"bike_id":"4e11b30d-0226-4b04-813f-4404772688cd","system_id":"levelo_inurba_marseille","lat":43.28968,"lon":5.37175,"is_reserved":false,"is_disabled":false,"rental_uris":{"android":"levelo://app?vid=4e11b30d-0226-4b04-813f-4404772688cd","ios":"levelo://app?vid=4e11b30d-0226-4b04-813f-4404772688cd"},"vehicle_type_id":"4","last_reported":1740039188,"current_range_meters":18000,"station_id":"","pricing_plan_id":"cebpf4jnsgd1na2vs0mg"},{"bike_id":"7c9cf0df-f4ab-4fb9-ba4d-6c802db49a48","system_id":"levelo_inurba_marseille","lat":43.30411,"lon":5.37947,"is_reserved":false,"is_disabled":false,"rental_uris":{"android":"levelo://app?vid=7c9cf0df-f4ab-4fb9-ba4d-6c802db49a48","ios":"levelo://app?vid=7c9cf0df-f4ab-4fb9-ba4d-6c802db49a48"},"vehicle_type_id":"4","last_reported":1740039188,"current_range_meters":18800,"station_id":"ce4bgup2rcd13ifvqcn0","pricing_plan_id":"cebpf4jnsgd1na2vs0mg"},{"bike_id":"bd34e1cf-a515-4bb3-ba40-8b5a9874c72e","system_id":"levelo_inurba_marseille","lat":43.2318,"lon":5.39983,"is_reserved":false,"is_disabled":false,"rental_uris":{"android":"levelo://app?vid=bd34e1cf-a515-4bb3-ba40-8b5a9874c72e","ios":"levelo://app?vid=bd34e1cf-a515-4bb3-ba40-8b5a9874c72e"},"vehicle_type_id":"4","last_reported":1740039188,"current_range_meters":18800,"station_id":"ce4bhn12rcd13ifvqgqg","pricing_plan_id":"cebpf4jnsgd1na2vs0mg"},{"bike_id":"3a18a060-43b3-487c-bb23-8493264d5ba4","system_id":"levelo_inurba_marseille","lat":43.2418,"lon":5.36407,"is_reserved":false,"is_disabled":true,"rental_uris":{"android":"levelo://app?vid=3a18a060-43b3-487c-bb23-8493264d5ba4","ios":"levelo://app?vid=3a18a060-43b3-487c-bb23-8493264d5ba4"},"vehicle_type_id":"4","last_reported":1740039188,"current_range_meters":19200,"station_id":"","pricing_plan_id":"cebpf4jnsgd1na2vs0mg"},{"bike_id":"e1ba1927-eee1-42c1-8a10-9138116f030d","system_id":"levelo_inurba_marseille","lat":43.29259,"lon":5.38436,"is_reserved":false,"is_disabled":false,"rental_uris":{"android":"levelo://app?vid=e1ba1927-eee1-42c1-8a10-9138116f030d","ios":"levelo://app?vid=e1ba1927-eee1-42c1-8a10-9138116f030d"},"vehicle_type_id":"4","last_reported":1740039188,"current_range_meters":18800,"station_id":"ce4bh692rcd13ifvqea0","pricing_plan_id":"cebpf4jnsgd1na2vs0mg"},{"bike_id":"6ac01c27-4e57-4962-954d-04b7361441dd","system_id":"levelo_inurba_marseille","lat":43.30779,"lon":5.37323,"is_reserved":false,"is_disabled":false,"rental_uris":{"android":"levelo://app?vid=6ac01c27-4e57-4962-954d-04b7361441dd","ios":"levelo://app?vid=6ac01c27-4e57-4962-954d-04b7361441dd"},"vehicle_type_id":"4","last_reported":1740039188,"current_range_meters":18800,"station_id":"ce4bgt92rcd13ifvqcg0","pricing_plan_id":"cebpf4jnsgd1na2vs0mg"},{"bike_id":"6599394d-3dfd-45df-9cee-cd73320743d0","system_id":"levelo_inurba_marseille","lat":43.31574,"lon":5.3891,"is_reserved":false,"is_disabled":false,"rental_uris":{"android":"levelo://app?vid=6599394d-3dfd-45df-9cee-cd73320743d0","ios":"levelo://app?vid=6599394d-3dfd-45df-9cee-cd73320743d0"},"vehicle_type_id":"4","last_reported":1740039188,"current_range_meters":19200,"station_id":"","pricing_plan_id":"cebpf4jnsgd1na2vs0mg"},{"bike_id":"8c659c14-b958-4e7d-8a21-e615cb42a1da","system_id":"levelo_inurba_marseille","lat":43.25003,"lon":5.38926,"is_reserved":false,"is_disabled":false,"rental_uris":{"android":"levelo://app?vid=8c659c14-b958-4e7d-8a21-e615cb42a1da","ios":"levelo://app?vid=8c659c14-b958-4e7d-8a21-e615cb42a1da"},"vehicle_type_id":"4","last_reported":1740039188,"current_range_meters":19200,"station_id":"ce4bhgp2rcd13ifvqfd0","pricing_plan_id":"cebpf4jnsgd1na2vs0mg"},{"bike_id":"e6bd1c62-ca1b-47bb-b95c-d3a87dc972eb","system_id":"levelo_inurba_marseille","lat":43.30306,"lon":5.36899,"is_reserved":false,"is_disabled":false,"rental_uris":{"android":"levelo://app?vid=e6bd1c62-ca1b-47bb-b95c-d3a87dc972eb","ios":"levelo://app?vid=e6bd1c62-ca1b-47bb-b95c-d3a87dc972eb"},"vehicle_type_id":"4","last_reported":1740039188,"current_range_meters":19200,"station_id":"ce4bgqh2rcd13ifvqc5g","pricing_plan_id":"cebpf4jnsgd1na2vs0mg"},{"bike_id":"ba2a18ab-3d13-4c1c-bcdb-1ea5a8ff8ebb","system_id":"levelo_inurba_marseille","lat":43.26493,"lon":5.39538,"is_reserved":false,"is_disabled":false,"rental_uris":{"android":"levelo://app?vid=ba2a18ab-3d13-4c1c-bcdb-1ea5a8ff8ebb","ios":"levelo://app?vid=ba2a18ab-3d13-4c1c-bcdb-1ea5a8ff8ebb"},"vehicle_type_id":"4","last_reported":1740039188,"current_range_meters":19200,"station_id":"ce4bhi12rcd13ifvqfq0","pricing_plan_id":"cebpf4jnsgd1na2vs0mg"},{"bike_id":"91b65d6c-4a0d-4f72-adf3-7b0efceda63d","system_id":"levelo_inurba_marseille","lat":43.28152,"lon":5.42646,"is_reserved":false,"is_disabled":false,"rental_uris":{"android":"levelo://app?vid=91b65d6c-4a0d-4f72-adf3-7b0efceda63d","ios":"levelo://app?vid=91b65d6c-4a0d-4f72-adf3-7b0efceda63d"},"vehicle_type_id":"4","last_reported":1740039188,"current_range_meters":19200,"station_id":"ce4bhnh2rcd13ifvqgug","pricing_plan_id":"cebpf4jnsgd1na2vs0mg"},{"bike_id":"2a30a8a9-551f-4ea3-bab0-10232670ec38","system_id":"levelo_inurba_marseille","lat":43.28422,"lon":5.349943,"is_reserved":false,"is_disabled":false,"rental_uris":{"android":"levelo://app?vid=2a30a8a9-551f-4ea3-bab0-10232670ec38","ios":"levelo://app?vid=2a30a8a9-551f-4ea3-bab0-10232670ec38"},"vehicle_type_id":"4","last_reported":1740039188,"current_range_meters":19200,"station_id":"","pricing_plan_id":"cebpf4jnsgd1na2vs0mg"},{"bike_id":"f800bf4a-a88e-43ea-b4b8-11875d2f53c7","system_id":"levelo_inurba_marseille","lat":43.24821,"lon":5.37457,"is_reserved":false,"is_disabled":false,"rental_uris":{"android":"levelo://app?vid=f800bf4a-a88e-43ea-b4b8-11875d2f53c7","ios":"levelo://app?vid=f800bf4a-a88e-43ea-b4b8-11875d2f53c7"},"vehicle_type_id":"4","last_reported":1740039188,"current_range_meters":19200,"station_id":"ce4bhgh2rcd13ifvqfb0","pricing_plan_id":"cebpf4jnsgd1na2vs0mg"},{"bike_id":"3528b811-51e2-44a0-8b97-4a85037d7f3b","system_id":"levelo_inurba_marseille","lat":43.30923,"lon":5.36833,"is_reserved":false,"is_disabled":false,"rental_uris":{"android":"levelo://app?vid=3528b811-51e2-44a0-8b97-4a85037d7f3b","ios":"levelo://app?vid=3528b811-51e2-44a0-8b97-4a85037d7f3b"},"vehicle_type_id":"4","last_reported":1740039188,"current_range_meters":19200,"station_id":"ce4bgn92rcd13ifvqbvg","pricing_plan_id":"cebpf4jnsgd1na2vs0mg"},{"bike_id":"44e45a0d-80e4-4777-b789-c9ff84761c0c","system_id":"levelo_inurba_marseille","lat":43.29281,"lon":5.39446,"is_reserved":false,"is_disabled":false,"rental_uris":{"android":"levelo://app?vid=44e45a0d-80e4-4777-b789-c9ff84761c0c","ios":"levelo://app?vid=44e45a0d-80e4-4777-b789-c9ff84761c0c"},"vehicle_type_id":"4","last_reported":1740039188,"current_range_meters":19200,"station_id":"","pricing_plan_id":"cebpf4jnsgd1na2vs0mg"},{"bike_id":"6904c78a-83fa-4938-bd7e-392918b7c615","system_id":"levelo_inurba_marseille","lat":43.28489,"lon":5.36885,"is_reserved":false,"is_disabled":false,"rental_uris":{"android":"levelo://app?vid=6904c78a-83fa-4938-bd7e-392918b7c615","ios":"levelo://app?vid=6904c78a-83fa-4938-bd7e-392918b7c615"},"vehicle_type_id":"4","last_reported":1740039188,"current_range_meters":19200,"station_id":"","pricing_plan_id":"cebpf4jnsgd1na2vs0mg"},{"bike_id":"cff7e479-9e10-47df-b1cb-df926e2a5d1f","system_id":"levelo_inurba_marseille","lat":43.27187,"lon":5.40989,"is_reserved":false,"is_disabled":false,"rental_uris":{"android":"levelo://app?vid=cff7e479-9e10-47df-b1cb-df926e2a5d1f","ios":"levelo://app?vid=cff7e479-9e10-47df-b1cb-df926e2a5d1f"},"vehicle_type_id":"4","last_reported":1740039188,"current_range_meters":19600,"station_id":"ce4bhl12rcd13ifvqgf0","pricing_plan_id":"cebpf4jnsgd1na2vs0mg"},{"bike_id":"da0d8a57-dc35-4cad-a584-68768284fc4a","system_id":"levelo_inurba_marseille","lat":43.29595,"lon":5.37504,"is_reserved":false,"is_disabled":false,"rental_uris":{"android":"levelo://app?vid=da0d8a57-dc35-4cad-a584-68768284fc4a","ios":"levelo://app?vid=da0d8a57-dc35-4cad-a584-68768284fc4a"},"vehicle_type_id":"4","last_reported":1740039188,"current_range_meters":19600,"station_id":"","pricing_plan_id":"cebpf4jnsgd1na2vs0mg"},{"bike_id":"198ce9d5-ada6-4b89-bcc1-5d7191cc35c0","system_id":"levelo_inurba_marseille","lat":43.28452,"lon":5.3919,"is_reserved":false,"is_disabled":false,"rental_uris":{"android":"levelo://app?vid=198ce9d5-ada6-4b89-bcc1-5d7191cc35c0","ios":"levelo://app?vid=198ce9d5-ada6-4b89-bcc1-5d7191cc35c0"},"vehicle_type_id":"4","last_reported":1740039188,"current_range_meters":19600,"station_id":"ce4bhg92rcd13ifvqf90","pricing_plan_id":"cebpf4jnsgd1na2vs0mg"},{"bike_id":"e5f37763-8aaa-4e6a-ab96-fa2d7dc9d4f4","system_id":"levelo_inurba_marseille","lat":43.25007,"lon":5.38928,"is_reserved":false,"is_disabled":false,"rental_uris":{"android":"levelo://app?vid=e5f37763-8aaa-4e6a-ab96-fa2d7dc9d4f4","ios":"levelo://app?vid=e5f37763-8aaa-4e6a-ab96-fa2d7dc9d4f4"},"vehicle_type_id":"4","last_reported":1740039188,"current_range_meters":19600,"station_id":"ce4bhgp2rcd13ifvqfd0","pricing_plan_id":"cebpf4jnsgd1na2vs0mg"},{"bike_id":"8018f0d3-a0b0-4208-b883-412688510e21","system_id":"levelo_inurba_marseille","lat":43.27998,"lon":5.4166,"is_reserved":false,"is_disabled":false,"rental_uris":{"android":"levelo://app?vid=8018f0d3-a0b0-4208-b883-412688510e21","ios":"levelo://app?vid=8018f0d3-a0b0-4208-b883-412688510e21"},"vehicle_type_id":"4","last_reported":1740039188,"current_range_meters":19600,"station_id":"ce4bho12rcd13ifvqh1g","pricing_plan_id":"cebpf4jnsgd1na2vs0mg"},{"bike_id":"f75ad1db-ec6e-4122-a311-f808740b9a76","system_id":"levelo_inurba_marseille","lat":43.281256,"lon":5.37839,"is_reserved":false,"is_disabled":true,"rental_uris":{"android":"levelo://app?vid=f75ad1db-ec6e-4122-a311-f808740b9a76","ios":"levelo://app?vid=f75ad1db-ec6e-4122-a311-f808740b9a76"},"vehicle_type_id":"4","last_reported":1740039188,"current_range_meters":19600,"station_id":"","pricing_plan_id":"cebpf4jnsgd1na2vs0mg"},{"bike_id":"27bf7068-d3ec-460d-b841-474879eedb1d","system_id":"levelo_inurba_marseille","lat":43.2903,"lon":5.39975,"is_reserved":false,"is_disabled":false,"rental_uris":{"android":"levelo://app?vid=27bf7068-d3ec-460d-b841-474879eedb1d","ios":"levelo://app?vid=27bf7068-d3ec-460d-b841-474879eedb1d"},"vehicle_type_id":"4","last_reported":1740039188,"current_range_meters":20000,"station_id":"ce4bh392rcd13ifvqdm0","pricing_plan_id":"cebpf4jnsgd1na2vs0mg"},{"bike_id":"4425d015-adec-4c1e-bd9b-0894e4035698","system_id":"levelo_inurba_marseille","lat":43.25,"lon":5.38923,"is_reserved":false,"is_disabled":false,"rental_uris":{"android":"levelo://app?vid=4425d015-adec-4c1e-bd9b-0894e4035698","ios":"levelo://app?vid=4425d015-adec-4c1e-bd9b-0894e4035698"},"vehicle_type_id":"4","last_reported":1740039188,"current_range_meters":20000,"station_id":"ce4bhgp2rcd13ifvqfd0","pricing_plan_id":"cebpf4jnsgd1na2vs0mg"},{"bike_id":"a8edee09-6698-482d-8987-2d4181a26366","system_id":"levelo_inurba_marseille","lat":43.30251,"lon":5.40065,"is_reserved":false,"is_disabled":false,"rental_uris":{"android":"levelo://app?vid=a8edee09-6698-482d-8987-2d4181a26366","ios":"levelo://app?vid=a8edee09-6698-482d-8987-2d4181a26366"},"vehicle_type_id":"4","last_reported":1740039188,"current_range_meters":20000,"station_id":"ce4bgvh2rcd13ifvqcs0","pricing_plan_id":"cebpf4jnsgd1na2vs0mg"},{"bike_id":"798277c0-0781-4857-a213-2acfd33465d4","system_id":"levelo_inurba_marseille","lat":43.24175,"lon":5.39729,"is_reserved":false,"is_disabled":false,"rental_uris":{"android":"levelo://app?vid=798277c0-0781-4857-a213-2acfd33465d4","ios":"levelo://app?vid=798277c0-0781-4857-a213-2acfd33465d4"},"vehicle_type_id":"4","last_reported":1740039188,"current_range_meters":20000,"station_id":"ce4bhn12rcd13ifvqgpg","pricing_plan_id":"cebpf4jnsgd1na2vs0mg"},