{"last_updated":1758312671,"ttl":60,"version":"2.2","data":{"bikes":[{"bike_id":"4d3c1d04-0bfc-46cd-a6ae-13b805402cae","system_id":"levelo_inurba_marseille","lat":43.29291,"lon":5.37455,"is_reserved":false,"is_disabled":false,"rental_uris":{"android":"levelo://app?vid=4d3c1d04-0bfc-46cd-a6ae-13b805402cae","ios":"levelo://app?vid=4d3c1d04-0bfc-46cd-a6ae-13b805402cae"},"vehicle_type_id":"4","last_reported":1758312671,"current_range_meters":2800,"station_id":"ce4bgi12rcd13ifvqb70","pricing_plan_id":"cebpf4jnsgd1na2vs0mg"},{"bike_id":"6a8b12d1-6fce-43b9-9abf-29648b2dfb32","system_id":"levelo_inurba_marseille","lat":43.26557,"lon":5.37292,"is_reserved":false,"is_disabled":true,"rental_uris":{"android":"levelo://app?vid=6a8b12d1-6fce-43b9-9abf-29648b2dfb32","ios":"levelo://app?vid=6a8b12d1-6fce-43b9-9abf-29648b2dfb32"},"vehicle_type_id":"4","last_reported":1758312671,"current_range_meters":2800,"station_id":"ce4bhg12rcd13ifvqf70","pricing_plan_id":"cebpf4jnsgd1na2vs0mg"},{"bike_id":"893899fa-98e7-44cf-83bf-537276e3f2f6","system_id":"levelo_inurba_marseille","lat":43.305037,"lon":5.393373,"is_reserved":false,"is_disabled":false,"rental_uris":{"android":"levelo://app?vid=893899fa-98e7-44cf-83bf-537276e3f2f6","ios":"levelo://app?vid=893899fa-98e7-44cf-83bf-537276e3f2f6"},"vehicle_type_id":"4","last_reported":1758312671,"current_range_meters":3200,"station_id":"ce4bh0p2rcd13ifvqd80","pricing_plan_id":"cebpf4jnsgd1na2vs0mg"},{"bike_id":"d4e42fed-b7d1-4743-b033-42e94790e119","system_id":"levelo_inurba_marseille","lat":43.24039,"lon":5.37689,"is_reserved":false,"is_disabled":false,"rental_uris":{"android":"levelo://app?vid=d4e42fed-b7d1-4743-b033-42e94790e119","ios":"levelo://app?vid=d4e42fed-b7d1-4743-b033-42e94790e119"},"vehicle_type_id":"4","last_reported":1758312671,"current_range_meters":3600,"station_id":"","pricing_plan_id":"cebpf4jnsgd1na2vs0mg"},{"bike_id":"ae7b8959-af31-45f0-904e-9efb0dff29b0","system_id":"levelo_inurba_marseille","lat":43.31063,"lon":5.38357,"is_reserved":false,"is_disabled":false,"rental_uris":{"android":"levelo://app?vid=ae7b8959-af31-45f0-904e-9efb0dff29b0","ios":"levelo://app?vid=ae7b8959-af31-45f0-904e-9efb0dff29b0"},"vehicle_type_id":"4","last_reported":1758312671,"current_range_meters":3600,"station_id":"ce4bgv92rcd13ifvqcr0","pricing_plan_id":"cebpf4jnsgd1na2vs0mg"},{"bike_id":"71b807c9-d8bd-4040-b330-15e82b72da53","system_id":"levelo_inurba_marseille","lat":43.3059,"lon":5.39361,"is_reserved":false,"is_disabled":false,"rental_uris":{"android":"levelo://app?vid=71b807c9-d8bd-4040-b330-15e82b72da53","ios":"levelo://app?vid=71b807c9-d8bd-4040-b330-15e82b72da53"},"vehicle_type_id":"4","last_reported":1758312671,"current_range_meters":2000,"station_id":"ce4bh0p2rcd13ifvqd80","pricing_plan_id":"cebpf4jnsgd1na2vs0mg"},{"bike_id":"059c0ba7-1dcb-4f29-8d05-6060640937cc","system_id":"levelo_inurba_marseille","lat":43.31066,"lon":5.37428,"is_reserved":false,"is_disabled":true,"rental_uris":{"android":"levelo://app?vid=059c0ba7-1dcb-4f29-8d05-6060640937cc","ios":"levelo://app?vid=059c0ba7-1dcb-4f29-8d05-6060640937cc"},"vehicle_type_id":"4","last_reported":1758312671,"current_range_meters":4000,"station_id":"","pricing_plan_id":"cebpf4jnsgd1na2vs0mg"},{"bike_id":"7918c8ea-f7f4-4157-b837-0cbefe2a77c9","system_id":"levelo_inurba_marseille","lat":43.27481,"lon":5.42457,"is_reserved":false,"is_disabled":true,"rental_uris":{"android":"levelo://app?vid=7918c8ea-f7f4-4157-b837-0cbefe2a77c9","ios":"levelo://app?vid=7918c8ea-f7f4-4157-b837-0cbefe2a77c9"},"vehicle_type_id":"4","last_reported":1758312671,"current_range_meters":4000,"station_id":"ce4bhn92rcd13ifvqgrg","pricing_plan_id":"cebpf4jnsgd1na2vs0mg"},{"bike_id":"7b51a36e-d3c1-400a-a130-b00f35dc0b10","system_id":"levelo_inurba_marseille","lat":43.225343,"lon":5.348357,"is_reserved":false,"is_disabled":false,"rental_uris":{"android":"levelo://app?vid=7b51a36e-d3c1-400a-a130-b00f35dc0b10","ios":"levelo://app?vid=7b51a36e-d3c1-400a-a130-b00f35dc0b10"},"vehicle_type_id":"4","last_reported":1758312671,"current_range_meters":4000,"station_id":"","pricing_plan_id":"cebpf4jnsgd1na2vs0mg"},{"bike_id":"8be53c8c-f9d0-4375-8dc1-afd47afaa1b3","system_id":"levelo_inurba_marseille","lat":43.3303,"lon":5.39046,"is_reserved":false,"is_disabled":false,"rental_uris":{"android":"levelo://app?vid=8be53c8c-f9d0-4375-8dc1-afd47afaa1b3","ios":"levelo://app?vid=8be53c8c-f9d0-4375-8dc1-afd47afaa1b3"},"vehicle_type_id":"4","last_reported":1758312671,"current_range_meters":4000,"station_id":"ce4bhr92rcd13ifvqhrg","pricing_plan_id":"cebpf4jnsgd1na2vs0mg"},{"bike_id":"45afe5f4-5cbe-49c2-a913-33c967100178","system_id":"levelo_inurba_marseille","lat":43.29776,"lon":5.380931,"is_reserved":false,"is_disabled":false,"rental_uris":{"android":"levelo://app?vid=45afe5f4-5cbe-49c2-a913-33c967100178","ios":"levelo://app?vid=45afe5f4-5cbe-49c2-a913-33c967100178"},"vehicle_type_id":"4","last_reported":1758312671,"current_range_meters":4000,"station_id":"","pricing_plan_id":"cebpf4jnsgd1na2vs0mg"},{"bike_id":"6e89d1ff-c084-48fc-a2d3-90498832234e","system_id":"levelo_inurba_marseille","lat":43.30743,"lon":5.38057,"is_reserved":false,"is_disabled":false,"rental_uris":{"android":"levelo://app?vid=6e89d1ff-c084-48fc-a2d3-90498832234e","ios":"levelo://app?vid=6e89d1ff-c084-48fc-a2d3-90498832234e"},"vehicle_type_id":"4","last_reported":1758312671,"current_range_meters":4400,"station_id":"","pricing_plan_id":"cebpf4jnsgd1na2vs0mg"},{"bike_id":"ec753155-ece3-46e9-a454-41b891d4be01","system_id":"levelo_inurba_marseille","lat":43.29897,"lon":5.43667,"is_reserved":false,"is_disabled":false,"rental_uris":{"android":"levelo://app?vid=ec753155-ece3-46e9-a454-41b891d4be01","ios":"levelo://app?vid=ec753155-ece3-46e9-a454-41b891d4be01"},"vehicle_type_id":"4","last_reported":1758312671,"current_range_meters":4400,"station_id":"ce4bhpp2rcd13ifvqhfg","pricing_plan_id":"cebpf4jnsgd1na2vs0mg"},{"bike_id":"83fa453f-1a16-46b3-b2e1-c725ad9e7bf3","system_id":"levelo_inurba_marseille","lat":43.2881,"lon":5.37907,"is_reserved":false,"is_disabled":false,"rental_uris":{"android":"levelo://app?vid=83fa453f-1a16-46b3-b2e1-c725ad9e7bf3","ios":"levelo://app?vid=83fa453f-1a16-46b3-b2e1-c725ad9e7bf3"},"vehicle_type_id":"4","last_reported":1758312671,"current_range_meters":4800,"station_id":"","pricing_plan_id":"cebpf4jnsgd1na2vs0mg"},{"bike_id":"9963a081-3d47-45c3-9a5f-f912abc0ffc5","system_id":"levelo_inurba_marseille","lat":43.25,"lon":5.38927,"is_reserved":false,"is_disabled":true,"rental_uris":{"android":"levelo://app?vid=9963a081-3d47-45c3-9a5f-f912abc0ffc5","ios":"levelo://app?vid=9963a081-3d47-45c3-9a5f-f912abc0ffc5"},"vehicle_type_id":"4","last_reported":1758312671,"current_range_meters":4800,"station_id":"ce4bhgp2rcd13ifvqfd0","pricing_plan_id":"cebpf4jnsgd1na2vs0mg"},{"bike_id":"f9cdcd48-d466-4089-996d-cbdb89c93a29","system_id":"levelo_inurba_marseille","lat":43.32366,"lon":5.38888,"is_reserved":false,"is_disabled":false,"rental_uris":{"android":"levelo://app?vid=f9cdcd48-d466-4089-996d-cbdb89c93a29","ios":"levelo://app?vid=f9cdcd48-d466-4089-996d-cbdb89c93a29"},"vehicle_type_id":"4","last_reported":1758312671,"current_range_meters":4800,"station_id":"ce4bhqp2rcd13ifvqhog","pricing_plan_id":"cebpf4jnsgd1na2vs0mg"},{"bike_id":"b226432c-4325-49ae-beab-6405c4c744d0","system_id":"levelo_inurba_marseille","lat":43.28036,"lon":5.36937,"is_reserved":false,"is_disabled":false,"rental_uris":{"android":"levelo://app?vid=b226432c-4325-49ae-beab-6405c4c744d0","ios":"levelo://app?vid=b226432c-4325-49ae-beab-6405c4c744d0"},"vehicle_type_id":"4","last_reported":1758312671,"current_range_meters":5600,"station_id":"ce4bha12rcd13ifvqef0","pricing_plan_id":"cebpf4jnsgd1na2vs0mg"},{"bike_id":"1e8915bb-3562-4a8f-931b-1b9caab43a93","system_id":"levelo_inurba_marseille","lat":43.298392,"lon":5.362682,"is_reserved":false,"is_disabled":false,"rental_uris":{"android":"levelo://app?vid=1e8915bb-3562-4a8f-931b-1b9caab43a93","ios":"levelo://app?vid=1e8915bb-3562-4a8f-931b-1b9caab43a93"},"vehicle_type_id":"4","last_reported":1758312671,"current_range_meters":4800,"station_id":"ce4bgpp2rcd13ifvqc3g","pricing_plan_id":"cebpf4jnsgd1na2vs0mg"},{"bike_id":"91d75646-396b-4e35-8c7f-b572fede9fd4","system_id":"levelo_inurba_marseille","lat":43.3079,"lon":5.43512,"is_reserved":false,"is_disabled":false,"rental_uris":{"android":"levelo://app?vid=91d75646-396b-4e35-8c7f-b572fede9fd4","ios":"levelo://app?vid=91d75646-396b-4e35-8c7f-b572fede9fd4"},"vehicle_type_id":"4","last_reported":1758312671,"current_range_meters":5600,"station_id":"ce4bhph2rcd13ifvqheg","pricing_plan_id":"cebpf4jnsgd1na2vs0mg"},{"bike_id":"7745eab8-3d48-4349-b863-861b7cc7cbd1","system_id":"levelo_inurba_marseille","lat":43.290054,"lon":5.381405,"is_reserved":false,"is_disabled":false,"rental_uris":{"android":"levelo://app?vid=7745eab8-3d48-4349-b863-861b7cc7cbd1","ios":"levelo://app?vid=7745eab8-3d48-4349-b863-861b7cc7cbd1"},"vehicle_type_id":"4","last_reported":1758312671,"current_range_meters":5600,"station_id":"","pricing_plan_id":"cebpf4jnsgd1na2vs0mg"},{"bike_id":"ccd44948-7c00-492e-b618-36105a29ab8f","system_id":"levelo_inurba_marseille","lat":43.32676,"lon":5.40989,"is_reserved":false,"is_disabled":true,"rental_uris":{"android":"levelo://app?vid=ccd44948-7c00-492e-b618-36105a29ab8f","ios":"levelo://app?vid=ccd44948-7c00-492e-b618-36105a29ab8f"},"vehicle_type_id":"4","last_reported":1758312671,"current_range_meters":5600,"station_id":"ce4bhpp2rcd13ifvqhgg","pricing_plan_id":"cebpf4jnsgd1na2vs0mg"},{"bike_id":"560be3ff-4c68-49e6-9383-b541e0a08aab","system_id":"levelo_inurba_marseille","lat":43.295333,"lon":5.385409,"is_reserved":false,"is_disabled":false,"rental_uris":{"android":"levelo://app?vid=560be3ff-4c68-49e6-9383-b541e0a08aab","ios":"levelo://app?vid=560be3ff-4c68-49e6-9383-b541e0a08aab"},"vehicle_type_id":"4","last_reported":1758312671,"current_range_meters":5600,"station_id":"ce4bgih2rcd13ifvqba0","pricing_plan_id":"cebpf4jnsgd1na2vs0mg"},{"bike_id":"2dbfe08c-c3c1-4d5c-bf7b-29c8b6e02ccc","system_id":"levelo_inurba_marseille","lat":43.26617,"lon":5.39381,"is_reserved":false,"is_disabled":false,"rental_uris":{"android":"levelo://app?vid=2dbfe08c-c3c1-4d5c-bf7b-29c8b6e02ccc","ios":"levelo://app?vid=2dbfe08c-c3c1-4d5c-bf7b-29c8b6e02ccc"},"vehicle_type_id":"4","last_reported":1758312671,"current_range_meters":5600,"station_id":"","pricing_plan_id":"cebpf4jnsgd1na2vs0mg"},{"bike_id":"c383a25a-46d3-4686-afad-e874823b853e","system_id":"levelo_inurba_marseille","lat":43.27447,"lon":5.40743,"is_reserved":false,"is_disabled":false,"rental_uris":{"android":"levelo://app?vid=c383a25a-46d3-4686-afad-e874823b853e","ios":"levelo://app?vid=c383a25a-46d3-4686-afad-e874823b853e"},"vehicle_type_id":"4","last_reported":1758312671,"current_range_meters":5600,"station_id":"","pricing_plan_id":"cebpf4jnsgd1na2vs0mg"},{"bike_id":"79ae7946-4ce7-4cc4-b2d5-558959a7f3a3","system_id":"levelo_inurba_marseille","lat":43.29819,"lon":5.38093,"is_reserved":false,"is_disabled":false,"rental_uris":{"android":"levelo://app?vid=79ae7946-4ce7-4cc4-b2d5-558959a7f3a3","ios":"levelo://app?vid=79ae7946-4ce7-4cc4-b2d5-558959a7f3a3"},"vehicle_type_id":"4","last_reported":1758312671,"current_range_meters":5600,"station_id":"ce4bgip2rcd13ifvqbb0","pricing_plan_id":"cebpf4jnsgd1na2vs0mg"},{"bike_id":"c1bdeac8-5868-4cce-b2be-da815bb0daa3","system_id":"levelo_inurba_marseille","lat":43.297415,"lon":5.380388,"is_reserved":false,"is_disabled":false,"rental_uris":{"android":"levelo://app?vid=c1bdeac8-5868-4cce-b2be-da815bb0daa3","ios":"levelo://app?vid=c1bdeac8-5868-4cce-b2be-da815bb0daa3"},"vehicle_type_id":"4","last_reported":1758312671,"current_range_meters":6000,"station_id":"ce4bgj12rcd13ifvqbc0","pricing_plan_id":"cebpf4jnsgd1na2vs0mg"},{"bike_id":"15d1ecdf-c080-4aaa-90eb-c6c2ea3d3057","system_id":"levelo_inurba_marseille","lat":43.31482,"lon":5.37312,"is_reserved":false,"is_disabled":false,"rental_uris":{"android":"levelo://app?vid=15d1ecdf-c080-4aaa-90eb-c6c2ea3d3057","ios":"levelo://app?vid=15d1ecdf-c080-4aaa-90eb-c6c2ea3d3057"},"vehicle_type_id":"4","last_reported":1758312671,"current_range_meters":6000,"station_id":"ce4bgt12rcd13ifvqcd0","pricing_plan_id":"cebpf4jnsgd1na2vs0mg"},{"bike_id":"a306596c-7fb8-4c2b-a1df-daa9d194bd20","system_id":"levelo_inurba_marseille","lat":43.31753,"lon":5.39022,"is_reserved":false,"is_disabled":false,"rental_uris":{"android":"levelo://app?vid=a306596c-7fb8-4c2b-a1df-daa9d194bd20","ios":"levelo://app?vid=a306596c-7fb8-4c2b-a1df-daa9d194bd20"},"vehicle_type_id":"4","last_reported":1758312671,"current_range_meters":6400,"station_id":"ce4bhqp2rcd13ifvqhng","pricing_plan_id":"cebpf4jnsgd1na2vs0mg"},{"bike_id":"d4d82e53-a447-4041-87c8-e19959f9890b","system_id":"levelo_inurba_marseille","lat":43.29602,"lon":5.38103,"is_reserved":false,"is_disabled":false,"rental_uris":{"android":"levelo://app?vid=d4d82e53-a447-4041-87c8-e19959f9890b","ios":"levelo://app?vid=d4d82e53-a447-4041-87c8-e19959f9890b"},"vehicle_type_id":"4","last_reported":1758312671,"current_range_meters":6000,"station_id":"ce4bgl12rcd13ifvqbo0","pricing_plan_id":"cebpf4jnsgd1na2vs0mg"},{"bike_id":"76fc89d5-9c35-47f8-88d9-793b1f11c853","system_id":"levelo_inurba_marseille","lat":43.24806,"lon":5.37456,"is_reserved":false,"is_disabled":false,"rental_uris":{"android":"levelo://app?vid=76fc89d5-9c35-47f8-88d9-793b1f11c853","ios":"levelo://app?vid=76fc89d5-9c35-47f8-88d9-793b1f11c853"},"vehicle_type_id":"4","last_reported":1758312671,"current_range_meters":6400,"station_id":"ce4bhgh2rcd13ifvqfb0","pricing_plan_id":"cebpf4jnsgd1na2vs0mg"},{"bike_id":"e4a09106-64f5-4bdc-ade3-971c63507324","system_id":"levelo_inurba_marseille","lat":43.29011,"lon":5.3562,"is_reserved":false,"is_disabled":false,"rental_uris":{"android":"levelo://app?vid=e4a09106-64f5-4bdc-ade3-971c63507324","ios":"levelo://app?vid=e4a09106-64f5-4bdc-ade3-971c63507324"},"vehicle_type_id":"4","last_reported":1758312671,"current_range_meters":6400,"station_id":"ce4bhb92rcd13ifvqen0","pricing_plan_id":"cebpf4jnsgd1na2vs0mg"},{"bike_id":"3688bd32-bcb7-47fa-b180-621477c3b449","system_id":"levelo_inurba_marseille","lat":43.2957,"lon":5.37511,"is_reserved":false,"is_disabled":false,"rental_uris":{"android":"levelo://app?vid=3688bd32-bcb7-47fa-b180-621477c3b449","ios":"levelo://app?vid=3688bd32-bcb7-47fa-b180-621477c3b449"},"vehicle_type_id":"4","last_reported":1758312671,"current_range_meters":6400,"station_id":"ce4bgh92rcd13ifvqb50","pricing_plan_id":"cebpf4jnsgd1na2vs0mg"},{"bike_id":"b03963e7-f165-473d-a43d-a68e09ff2d96","system_id":"levelo_inurba_marseille","lat":43.25688,"lon":5.41937,"is_reserved":false,"is_disabled":false,"rental_uris":{"android":"levelo://app?vid=b03963e7-f165-473d-a43d-a68e09ff2d96","ios":"levelo://app?vid=b03963e7-f165-473d-a43d-a68e09ff2d96"},"vehicle_type_id":"4","last_reported":1758312671,"current_range_meters":6400,"station_id":"","pricing_plan_id":"cebpf4jnsgd1na2vs0mg"},{"bike_id":"c8df185d-72ec-4d4f-b49e-e1df8802e59a","system_id":"levelo_inurba_marseille","lat":43.24072,"lon":5.37764,"is_reserved":false,"is_disabled":false,"rental_uris":{"android":"levelo://app?vid=c8df185d-72ec-4d4f-b49e-e1df8802e59a","ios":"levelo://app?vid=c8df185d-72ec-4d4f-b49e-e1df8802e59a"},"vehicle_type_id":"4","last_reported":1758312671,"current_range_meters":6800,"station_id":"ce4bhnp2rcd13ifvqgvg","pricing_plan_id":"cebpf4jnsgd1na2vs0mg"},{"bike_id":"ca25f82d-2e4d-4573-9f7e-3b01b0bd904f","system_id":"levelo_inurba_marseille","lat":43.23186,"lon":5.39991,"is_reserved":false,"is_disabled":false,"rental_uris":{"android":"levelo://app?vid=ca25f82d-2e4d-4573-9f7e-3b01b0bd904f","ios":"levelo://app?vid=ca25f82d-2e4d-4573-9f7e-3b01b0bd904f"},"vehicle_type_id":"4","last_reported":1758312671,"current_range_meters":6800,"station_id":"ce4bhn12rcd13ifvqgqg","pricing_plan_id":"cebpf4jnsgd1na2vs0mg"},{"bike_id":"e045e22c-4b8c-4825-aaa2-3876406b12d3","system_id":"levelo_inurba_marseille","lat":43.29074,"lon":5.37177,"is_reserved":false,"is_disabled":false,"rental_uris":{"android":"levelo://app?vid=e045e22c-4b8c-4825-aaa2-3876406b12d3","ios":"levelo://app?vid=e045e22c-4b8c-4825-aaa2-3876406b12d3"},"vehicle_type_id":"4","last_reported":1758312671,"current_range_meters":6800,"station_id":"ce4bh5p2rcd13ifvqe4g","pricing_plan_id":"cebpf4jnsgd1na2vs0mg"},{"bike_id":"a39ec062-8917-4e4c-8311-0cca5c95f897","system_id":"levelo_inurba_marseille","lat":43.29162,"lon":5.37155,"is_reserved":false,"is_disabled":false,"rental_uris":{"android":"levelo://app?vid=a39ec062-8917-4e4c-8311-0cca5c95f897","ios":"levelo://app?vid=a39ec062-8917-4e4c-8311-0cca5c95f897"},"vehicle_type_id":"4","last_reported":1758312671,"current_range_meters":6800,"station_id":"ce4bha92rcd13ifvqeh0","pricing_plan_id":"cebpf4jnsgd1na2vs0mg"},{"bike_id":"cf66592a-d8fa-4c6c-9927-5d7a9fef5026","system_id":"levelo_inurba_marseille","lat":43.262111,"lon":5.397344,"is_reserved":false,"is_disabled":false,"rental_uris":{"android":"levelo://app?vid=cf66592a-d8fa-4c6c-9927-5d7a9fef5026","ios":"levelo://app?vid=cf66592a-d8fa-4c6c-9927-5d7a9fef5026"},"vehicle_type_id":"4","last_reported":1758312671,"current_range_meters":6800,"station_id":"","pricing_plan_id":"cebpf4jnsgd1na2vs0mg"},{"bike_id":"ac486569-538f-49c3-bed7-7376c7c5a54e","system_id":"levelo_inurba_marseille","lat":43.30888,"lon":5.39652,"is_reserved":false,"is_disabled":false,"rental_uris":{"android":"levelo://app?vid=ac486569-538f-49c3-bed7-7376c7c5a54e","ios":"levelo://app?vid=ac486569-538f-49c3-bed7-7376c7c5a54e"},"vehicle_type_id":"4","last_reported":1758312671,"current_range_meters":6800,"station_id":"ce4bh012rcd13ifvqcv0","pricing_plan_id":"cebpf4jnsgd1na2vs0mg"},{"bike_id":"ce6b8c1b-0bcc-4959-8e3a-9deb72a58a33","system_id":"levelo_inurba_marseille","lat":43.27946,"lon":5.41049,"is_reserved":false,"is_disabled":false,"rental_uris":{"android":"levelo://app?vid=ce6b8c1b-0bcc-4959-8e3a-9deb72a58a33","ios":"levelo://app?vid=ce6b8c1b-0bcc-4959-8e3a-9deb72a58a33"},"vehicle_type_id":"4","last_reported":1758312671,"current_range_meters":6800,"station_id":"ce4bhnp2rcd13ifvqh0g","pricing_plan_id":"cebpf4jnsgd1na2vs0mg"},{"bike_id":"7678fb24-3830-4bd8-8ecc-61705238118d","system_id":"levelo_inurba_marseille","lat":43.30896,"lon":5.39636,"is_reserved":false,"is_disabled":false,"rental_uris":{"android":"levelo://app?vid=7678fb24-3830-4bd8-8ecc-61705238118d","ios":"levelo://app?vid=7678fb24-3830-4bd8-8ecc-61705238118d"},"vehicle_type_id":"4","last_reported":1758312671,"current_range_meters":4000,"station_id":"ce4bh012rcd13ifvqcv0","pricing_plan_id":"cebpf4jnsgd1na2vs0mg"},{"bike_id":"6d4b4e9d-ea6b-4178-a854-5cd9a6f5ce01","system_id":"levelo_inurba_marseille","lat":43.30825,"lon":5.372366,"is_reserved":false,"is_disabled":false,"rental_uris":{"android":"levelo://app?vid=6d4b4e9d-ea6b-4178-a854-5cd9a6f5ce01","ios":"levelo://app?vid=6d4b4e9d-ea6b-4178-a854-5cd9a6f5ce01"},"vehicle_type_id":"4","last_reported":1758312671,"current_range_meters":8000,"station_id":"ce4bguh2rcd13ifvqckg","pricing_plan_id":"cebpf4jnsgd1na2vs0mg"},{"bike_id":"56a4f75d-eaf2-44b4-aa02-4a439b19699b","system_id":"levelo_inurba_marseille","lat":43.33756,"lon":5.37422,"is_reserved":false,"is_disabled":false,"rental_uris":{"android":"levelo://app?vid=56a4f75d-eaf2-44b4-aa02-4a439b19699b","ios":"levelo://app?vid=56a4f75d-eaf2-44b4-aa02-4a439b19699b"},"vehicle_type_id":"4","last_reported":1758312671,"current_range_meters":8000,"station_id":"","pricing_plan_id":"cebpf4jnsgd1na2vs0mg"},{"bike_id":"42323a1a-489c-43cb-90ae-c675b27444d5","system_id":"levelo_inurba_marseille","lat":43.216431,"lon":5.343721,"is_reserved":false,"is_disabled":false,"rental_uris":{"android":"levelo://app?vid=42323a1a-489c-43cb-90ae-c675b27444d5","ios":"levelo://app?vid=42323a1a-489c-43cb-90ae-c675b27444d5"},"vehicle_type_id":"4","last_reported":1758312671,"current_range_meters":8000,"station_id":"","pricing_plan_id":"cebpf4jnsgd1na2vs0mg"},{"bike_id":"f9636a44-11a8-49d6-9b1c-12db7ad64ee3","system_id":"levelo_inurba_marseille","lat":43.24183,"lon":5.39722,"is_reserved":false,"is_disabled":true,"rental_uris":{"android":"levelo://app?vid=f9636a44-11a8-49d6-9b1c-12db7ad64ee3","ios":"levelo://app?vid=f9636a44-11a8-49d6-9b1c-12db7ad64ee3"},"vehicle_type_id":"4","last_reported":1758312671,"current_range_meters":8000,"station_id":"ce4bhn12rcd13ifvqgpg","pricing_plan_id":"cebpf4jnsgd1na2vs0mg"},{"bike_id":"e6f8489d-fe42-4015-a82c-b604c2c8b33e","system_id":"levelo_inurba_marseille","lat":43.29795,"lon":5.36682,"is_reserved":false,"is_disabled":false,"rental_uris":{"android":"levelo://app?vid=e6f8489d-fe42-4015-a82c-b604c2c8b33e","ios":"levelo://app?vid=e6f8489d-fe42-4015-a82c-b604c2c8b33e"},"vehicle_type_id":"4","last_reported":1758312671,"current_range_meters":8400,"station_id":"","pricing_plan_id":"cebpf4jnsgd1na2vs0mg"},{"bike_id":"07460a34-5745-46ad-aeb8-d5e57e17d231","system_id":"levelo_inurba_marseille","lat":43.28696,"lon":5.38674,"is_reserved":false,"is_disabled":false,"rental_uris":{"android":"levelo://app?vid=07460a34-5745-46ad-aeb8-d5e57e17d231","ios":"levelo://app?vid=07460a34-5745-46ad-aeb8-d5e57e17d231"},"vehicle_type_id":"4","last_reported":1758312671,"current_range_meters":8400,"station_id":"ce4bh492rcd13ifvqdug","pricing_plan_id":"cebpf4jnsgd1na2vs0mg"},{"bike_id":"cad97885-b582-49b2-8b83-0a6c3d079fc6","system_id":"levelo_inurba_marseille","lat":43.297018,"lon":5.365873,"is_reserved":false,"is_disabled":false,"rental_uris":{"android":"levelo://app?vid=cad97885-b582-49b2-8b83-0a6c3d079fc6","ios":"levelo://app?vid=cad97885-b582-49b2-8b83-0a6c3d079fc6"},"vehicle_type_id":"4","last_reported":1758312671,"current_range_meters":8800,"station_id":"ce4bgn12rcd13ifvqbt0","pricing_plan_id":"cebpf4jnsgd1na2vs0mg"},{"bike_id":"b0020f2a-6da3-4e11-9113-5b3ff108e803","system_id":"levelo_inurba_marseille","lat":43.29182,"lon":5.3715,"is_reserved":false,"is_disabled":false,"rental_uris":{"android":"levelo://app?vid=b0020f2a-6da3-4e11-9113-5b3ff108e803","ios":"levelo://app?vid=b0020f2a-6da3-4e11-9113-5b3ff108e803"},"vehicle_type_id":"4","last_reported":1758312671,"current_range_meters":8800,"station_id":"ce4bha92rcd13ifvqeh0","pricing_plan_id":"cebpf4jnsgd1na2vs0mg"},{"bike_id":"37b2e69e-361b-43ba-9e7c-c10348eea93b","system_id":"levelo_inurba_marseille","lat":43.30603,"lon":5.37237,"is_reserved":false,"is_disabled":false,"rental_uris":{"android":"levelo://app?vid=37b2e69e-361b-43ba-9e7c-c10348eea93b","ios":"levelo://app?vid=37b2e69e-361b-43ba-9e7c-c10348eea93b"},"vehicle_type_id":"4","last_reported":1758312671,"current_range_meters":8400,"station_id":"ce4bgqh2rcd13ifvqc4g","pricing_plan_id":"cebpf4jnsgd1na2vs0mg"},{"bike_id":"a4faa1fd-62ee-404a-aff8-b79ea6b6b5d2","system_id":"levelo_inurba_marseille","lat":43.32986,"lon":5.39245,"is_reserved":false,"is_disabled":false,"rental_uris":{"android":"levelo://app?vid=a4faa1fd-62ee-404a-aff8-b79ea6b6b5d2","ios":"levelo://app?vid=a4faa1fd-62ee-404a-aff8-b79ea6b6b5d2"},"vehicle_type_id":"4","last_reported":1758312671,"current_range_meters":9200,"station_id":"","pricing_plan_id":"cebpf4jnsgd1na2vs0mg"},{"bike_id":"ef0b2799-8bcd-4130-9ad4-983afc544348","system_id":"levelo_inurba_marseille","lat":43.31991,"lon":5.38167,"is_reserved":false,"is_disabled":false,"rental_uris":{"android":"levelo://app?vid=ef0b2799-8bcd-4130-9ad4-983afc544348","ios":"levelo://app?vid=ef0b2799-8bcd-4130-9ad4-983afc544348"},"vehicle_type_id":"4","last_reported":1758312671,"current_range_meters":9200,"station_id":"ce4bhr12rcd13ifvqhpg","pricing_plan_id":"cebpf4jnsgd1na2vs0mg"},{"bike_id":"e942f984-8fe7-48d1-8f04-3806656b9996","system_id":"levelo_inurba_marseille","lat":43.33617,"lon":5.37965,"is_reserved":false,"is_disabled":false,"rental_uris":{"android":"levelo://app?vid=e942f984-8fe7-48d1-8f04-3806656b9996","ios":"levelo://app?vid=e942f984-8fe7-48d1-8f04-3806656b9996"},"vehicle_type_id":"4","last_reported":1758312671,"current_range_meters":9200,"station_id":"","pricing_plan_id":"cebpf4jnsgd1na2vs0mg"},{"bike_id":"22f0687d-25d3-4094-9c4a-293a61e189a6","system_id":"levelo_inurba_marseille","lat":43.2463,"lon":5.39626,"is_reserved":false,"is_disabled":false,"rental_uris":{"android":"levelo://app?vid=22f0687d-25d3-4094-9c4a-293a61e189a6","ios":"levelo://app?vid=22f0687d-25d3-4094-9c4a-293a61e189a6"},"vehicle_type_id":"4","last_reported":1758312671,"current_range_meters":9200,"station_id":"","pricing_plan_id":"cebpf4jnsgd1na2vs0mg"},{"bike_id":"09072e22-69e4-4626-b463-ded44cfd8e7d","system_id":"levelo_inurba_marseille","lat":43.298127,"lon":5.417095,"is_reserved":false,"is_disabled":false,"rental_uris":{"android":"levelo://app?vid=09072e22-69e4-4626-b463-ded44cfd8e7d","ios":"levelo://app?vid=09072e22-69e4-4626-b463-ded44cfd8e7d"},"vehicle_type_id":"4","last_reported":1758312671,"current_range_meters":9600,"station_id":"","pricing_plan_id":"cebpf4jnsgd1na2vs0mg"},{"bike_id":"cc05a417-a31a-48d1-9578-4fe3ddce0fcd","system_id":"levelo_inurba_marseille","lat":43.28927,"lon":5.38392,"is_reserved":false,"is_disabled":true,"rental_uris":{"android":"levelo://app?vid=cc05a417-a31a-48d1-9578-4fe3ddce0fcd","ios":"levelo://app?vid=cc05a417-a31a-48d1-9578-4fe3ddce0fcd"},"vehicle_type_id":"4","last_reported":1758312671,"current_range_meters":9600,"station_id":"ce4bh612rcd13ifvqe6g","pricing_plan_id":"cebpf4jnsgd1na2vs0mg"},{"bike_id":"c03db5d6-931c-41e0-bfa5-6550a106fb99","system_id":"levelo_inurba_marseille","lat":43.23291,"lon":5.36017,"is_reserved":false,"is_disabled":false,"rental_uris":{"android":"levelo://app?vid=c03db5d6-931c-41e0-bfa5-6550a106fb99","ios":"levelo://app?vid=c03db5d6-931c-41e0-bfa5-6550a106fb99"},"vehicle_type_id":"4","last_reported":1758312671,"current_range_meters":9600,"station_id":"","pricing_plan_id":"cebpf4jnsgd1na2vs0mg"},{"bike_id":"c3897c00-e950-4044-8f08-e0b1f3ccd977","system_id":"levelo_inurba_marseille","lat":43.229362,"lon":5.353868,"is_reserved":false,"is_disabled":true,"rental_uris":{"android":"levelo://app?vid=c3897c00-e950-4044-8f08-e0b1f3ccd977","ios":"levelo://app?vid=c3897c00-e950-4044-8f08-e0b1f3ccd977"},"vehicle_type_id":"4","last_reported":1758312671,"current_range_meters":9600,"station_id":"cpo3532slgdg3j2ikp40","pricing_plan_id":"cebpf4jnsgd1na2vs0mg"},{"bike_id":"80b8e852-4228-47fd-a634-44af01dc764f","system_id":"levelo_inurba_marseille","lat":43.295336,"lon":5.385451,"is_reserved":false,"is_disabled":false,"rental_uris":{"android":"levelo://app?vid=80b8e852-4228-47fd-a634-44af01dc764f","ios":"levelo://app?vid=80b8e852-4228-47fd-a634-44af01dc764f"},"vehicle_type_id":"4","last_reported":1758312671,"current_range_meters":9600,"station_id":"ce4bgih2rcd13ifvqba0","pricing_plan_id":"cebpf4jnsgd1na2vs0mg"},{"bike_id":"3d29cdf5-8ce1-4473-9cc2-5a2090008b5a","system_id":"levelo_inurba_marseille","lat":43.30799,"lon":5.3816,"is_reserved":false,"is_disabled":false,"rental_uris":{"android":"levelo://app?vid=3d29cdf5-8ce1-4473-9cc2-5a2090008b5a","ios":"levelo://app?vid=3d29cdf5-8ce1-4473-9cc2-5a2090008b5a"},"vehicle_type_id":"4","last_reported":1758312671,"current_range_meters":9200,"station_id":"ce4bgt12rcd13ifvqce0","pricing_plan_id":"cebpf4jnsgd1na2vs0mg"},{"bike_id":"95a62c10-7ca9-4348-809a-c3089ad076d3","system_id":"levelo_inurba_marseille","lat":43.29848,"lon":5.39753,"is_reserved":false,"is_disabled":true,"rental_uris":{"android":"levelo://app?vid=95a62c10-7ca9-4348-809a-c3089ad076d3","ios":"levelo://app?vid=95a62c10-7ca9-4348-809a-c3089ad076d3"},"vehicle_type_id":"4","last_reported":1758312671,"current_range_meters":10000,"station_id":"ce4bh0h2rcd13ifvqd50","pricing_plan_id":"cebpf4jnsgd1na2vs0mg"},{"bike_id":"49b4454a-a78e-42a3-a24b-fe5a333025c6","system_id":"levelo_inurba_marseille","lat":43.31988,"lon":5.38142,"is_reserved":false,"is_disabled":false,"rental_uris":{"android":"levelo://app?vid=49b4454a-a78e-42a3-a24b-fe5a333025c6","ios":"levelo://app?vid=49b4454a-a78e-42a3-a24b-fe5a333025c6"},"vehicle_type_id":"4","last_reported":1758312671,"current_range_meters":10000,"station_id":"ce4bhr12rcd13ifvqhpg","pricing_plan_id":"cebpf4jnsgd1na2vs0mg"},{"bike_id":"626b6093-634e-4cbb-b2d9-40fd2760e802","system_id":"levelo_inurba_marseille","lat":43.25825,"lon":5.39426,"is_reserved":false,"is_disabled":false,"rental_uris":{"android":"levelo://app?vid=626b6093-634e-4cbb-b2d9-40fd2760e802","ios":"levelo://app?vid=626b6093-634e-4cbb-b2d9-40fd2760e802"},"vehicle_type_id":"4","last_reported":1758312671,"current_range_meters":10000,"station_id":"ce4bhip2rcd13ifvqft0","pricing_plan_id":"cebpf4jnsgd1na2vs0mg"},{"bike_id":"2309274e-a54a-4fba-88db-f61693bf71d2","system_id":"levelo_inurba_marseille","lat":43.29259,"lon":5.37617,"is_reserved":false,"is_disabled":false,"rental_uris":{"android":"levelo://app?vid=2309274e-a54a-4fba-88db-f61693bf71d2","ios":"levelo://app?vid=2309274e-a54a-4fba-88db-f61693bf71d2"},"vehicle_type_id":"4","last_reported":1758312671,"current_range_meters":10000,"station_id":"ce4bgi12rcd13ifvqb80","pricing_plan_id":"cebpf4jnsgd1na2vs0mg"},{"bike_id":"34f8aae4-f8db-43e4-a6fb-eca624308160","system_id":"levelo_inurba_marseille","lat":43.30556,"lon":5.36686,"is_reserved":false,"is_disabled":false,"rental_uris":{"android":"levelo://app?vid=34f8aae4-f8db-43e4-a6fb-eca624308160","ios":"levelo://app?vid=34f8aae4-f8db-43e4-a6fb-eca624308160"},"vehicle_type_id":"4","last_reported":1758312671,"current_range_meters":10000,"station_id":"ce4bgrp2rcd13ifvqc9g","pricing_plan_id":"cebpf4jnsgd1na2vs0mg"},{"bike_id":"f9418cc9-c64d-43d9-9060-3aeedd69cdee","system_id":"levelo_inurba_marseille","lat":43.33062,"lon":5.37838,"is_reserved":false,"is_disabled":false,"rental_uris":{"android":"levelo://app?vid=f9418cc9-c64d-43d9-9060-3aeedd69cdee","ios":"levelo://app?vid=f9418cc9-c64d-43d9-9060-3aeedd69cdee"},"vehicle_type_id":"4","last_reported":1758312671,"current_range_meters":10000,"station_id":"","pricing_plan_id":"cebpf4jnsgd1na2vs0mg"},{"bike_id":"cc48539f-3363-44f7-9041-3eea5291a9db","system_id":"levelo_inurba_marseille","lat":43.21193,"lon":5.3508,"is_reserved":false,"is_disabled":true,"rental_uris":{"android":"levelo://app?vid=cc48539f-3363-44f7-9041-3eea5291a9db","ios":"levelo://app?vid=cc48539f-3363-44f7-9041-3eea5291a9db"},"vehicle_type_id":"4","last_reported":1758312671,"current_range_meters":10000,"station_id":"st_cvj6sg6p6f1abm77japg","pricing_plan_id":"cebpf4jnsgd1na2vs0mg"},{"bike_id":"3e682cf4-5ea7-4563-9004-71435c031ec4","system_id":"levelo_inurba_marseille","lat":43.21167,"lon":5.35074,"is_reserved":false,"is_disabled":true,"rental_uris":{"android":"levelo://app?vid=3e682cf4-5ea7-4563-9004-71435c031ec4","ios":"levelo://app?vid=3e682cf4-5ea7-4563-9004-71435c031ec4"},"vehicle_type_id":"4","last_reported":1758312671,"current_range_meters":10800,"station_id":"st_cvj6sg6p6f1abm77japg","pricing_plan_id":"cebpf4jnsgd1na2vs0mg"},{"bike_id":"7ce07e9a-8f7d-4115-a8ca-d4fd3eb6e60b","system_id":"levelo_inurba_marseille","lat":43.31326,"lon":5.39692,"is_reserved":false,"is_disabled":false,"rental_uris":{"android":"levelo://app?vid=7ce07e9a-8f7d-4115-a8ca-d4fd3eb6e60b","ios":"levelo://app?vid=7ce07e9a-8f7d-4115-a8ca-d4fd3eb6e60b"},"vehicle_type_id":"4","last_reported":1758312671,"current_range_meters":10800,"station_id":"ce4bgvp2rcd13ifvqcu0","pricing_plan_id":"cebpf4jnsgd1na2vs0mg"},{"bike_id":"fb78ea42-e26f-45b3-a617-d3474b811b72","system_id":"levelo_inurba_marseille","lat":43.29873,"lon":5.37934,"is_reserved":false,"is_disabled":false,"rental_uris":{"android":"levelo://app?vid=fb78ea42-e26f-45b3-a617-d3474b811b72","ios":"levelo://app?vid=fb78ea42-e26f-45b3-a617-d3474b811b72"},"vehicle_type_id":"4","last_reported":1758312671,"current_range_meters":10800,"station_id":"","pricing_plan_id":"cebpf4jnsgd1na2vs0mg"},{"bike_id":"4d18fd22-ad2f-4fa2-ae0a-8c6a01ddcdcc","system_id":"levelo_inurba_marseille","lat":43.29269,"lon":5.38436,"is_reserved":false,"is_disabled":false,"rental_uris":{"android":"levelo://app?vid=4d18fd22-ad2f-4fa2-ae0a-8c6a01ddcdcc","ios":"levelo://app?vid=4d18fd22-ad2f-4fa2-ae0a-8c6a01ddcdcc"},"vehicle_type_id":"4","last_reported":1758312671,"current_range_meters":10800,"station_id":"ce4bh692rcd13ifvqea0","pricing_plan_id":"cebpf4jnsgd1na2vs0mg"},{"bike_id":"2aa1e690-fb47-41f4-87b4-95b056172a1a","system_id":"levelo_inurba_marseille","lat":43.22937,"lon":5.35381,"is_reserved":false,"is_disabled":true,"rental_uris":{"android":"levelo://app?vid=2aa1e690-fb47-41f4-87b4-95b056172a1a","ios":"levelo://app?vid=2aa1e690-fb47-41f4-87b4-95b056172a1a"},"vehicle_type_id":"4","last_reported":1758312671,"current_range_meters":10800,"station_id":"cpo3532slgdg3j2ikp40","pricing_plan_id":"cebpf4jnsgd1na2vs0mg"},{"bike_id":"129693f1-bec1-405c-a566-241911c46a01","system_id":"levelo_inurba_marseille","lat":43.279915,"lon":5.365039,"is_reserved":false,"is_disabled":false,"rental_uris":{"android":"levelo://app?vid=129693f1-bec1-405c-a566-241911c46a01","ios":"levelo://app?vid=129693f1-bec1-405c-a566-241911c46a01"},"vehicle_type_id":"4","last_reported":1758312671,"current_range_meters":10800,"station_id":"","pricing_plan_id":"cebpf4jnsgd1na2vs0mg"},{"bike_id":"1cac732b-ad2e-4612-aa18-489bb2bf3bc9","system_id":"levelo_inurba_marseille","lat":43.30142,"lon":5.39865,"is_reserved":false,"is_disabled":false,"rental_uris":{"android":"levelo://app?vid=1cac732b-ad2e-4612-aa18-489bb2bf3bc9","ios":"levelo://app?vid=1cac732b-ad2e-4612-aa18-489bb2bf3bc9"},"vehicle_type_id":"4","last_reported":1758312671,"current_range_meters":10800,"station_id":"ce4bh0h2rcd13ifvqd40","pricing_plan_id":"cebpf4jnsgd1na2vs0mg"},{"bike_id":"c627b34a-8e81-4438-af3b-4fd0aab1c160","system_id":"levelo_inurba_marseille","lat":43.29598,"lon":5.36039,"is_reserved":false,"is_disabled":false,"rental_uris":{"android":"levelo://app?vid=c627b34a-8e81-4438-af3b-4fd0aab1c160","ios":"levelo://app?vid=c627b34a-8e81-4438-af3b-4fd0aab1c160"},"vehicle_type_id":"4","last_reported":1758312671,"current_range_meters":10800,"station_id":"","pricing_plan_id":"cebpf4jnsgd1na2vs0mg"},{"bike_id":"4a571329-2cb9-4122-8a51-9d09579b5532","system_id":"levelo_inurba_marseille","lat":43.32673,"lon":5.39161,"is_reserved":false,"is_disabled":false,"rental_uris":{"android":"levelo://app?vid=4a571329-2cb9-4122-8a51-9d09579b5532","ios":"levelo://app?vid=4a571329-2cb9-4122-8a51-9d09579b5532"},"vehicle_type_id":"4","last_reported":1758312671,"current_range_meters":10800,"station_id":"","pricing_plan_id":"cebpf4jnsgd1na2vs0mg"},{"bike_id":"9b9f6315-958e-4e43-8771-5ee5f050185e","system_id":"levelo_inurba_marseille","lat":43.24816,"lon":5.3747,"is_reserved":false,"is_disabled":true,"rental_uris":{"android":"levelo://app?vid=9b9f6315-958e-4e43-8771-5ee5f050185e","ios":"levelo://app?vid=9b9f6315-958e-4e43-8771-5ee5f050185e"},"vehicle_type_id":"4","last_reported":1758312671,"current_range_meters":11200,"station_id":"ce4bhgh2rcd13ifvqfb0","pricing_plan_id":"cebpf4jnsgd1na2vs0mg"},{"bike_id":"6415954d-29b1-478e-b16c-6d7e7bd2a2d5","system_id":"levelo_inurba_marseille","lat":43.29281,"lon":5.37131,"is_reserved":false,"is_disabled":false,"rental_uris":{"android":"levelo://app?vid=6415954d-29b1-478e-b16c-6d7e7bd2a2d5","ios":"levelo://app?vid=6415954d-29b1-478e-b16c-6d7e7bd2a2d5"},"vehicle_type_id":"4","last_reported":1758312671,"current_range_meters":11200,"station_id":"ce4bgh92rcd13ifvqb40","pricing_plan_id":"cebpf4jnsgd1na2vs0mg"},{"bike_id":"6f28235e-3f31-4c9c-9456-a4ed29864072","system_id":"levelo_inurba_marseille","lat":43.28925,"lon":5.36633,"is_reserved":false,"is_disabled":false,"rental_uris":{"android":"levelo://app?vid=6f28235e-3f31-4c9c-9456-a4ed29864072","ios":"levelo://app?vid=6f28235e-3f31-4c9c-9456-a4ed29864072"},"vehicle_type_id":"4","last_reported":1758312671,"current_range_meters":11200,"station_id":"ce4bhap2rcd13ifvqek0","pricing_plan_id":"cebpf4jnsgd1na2vs0mg"},{"bike_id":"70d0695a-e7b3-42da-a976-06c91ff95e97","system_id":"levelo_inurba_marseille","lat":43.30546,"lon":5.36544,"is_reserved":false,"is_disabled":false,"rental_uris":{"android":"levelo://app?vid=70d0695a-e7b3-42da-a976-06c91ff95e97","ios":"levelo://app?vid=70d0695a-e7b3-42da-a976-06c91ff95e97"},"vehicle_type_id":"4","last_reported":1758312671,"current_range_meters":11600,"station_id":"ce4bgs12rcd13ifvqcag","pricing_plan_id":"cebpf4jnsgd1na2vs0mg"},{"bike_id":"15e41297-8723-4d6c-b456-fbb7eae6474c","system_id":"levelo_inurba_marseille","lat":43.271746,"lon":5.409991,"is_reserved":false,"is_disabled":false,"rental_uris":{"android":"levelo://app?vid=15e41297-8723-4d6c-b456-fbb7eae6474c","ios":"levelo://app?vid=15e41297-8723-4d6c-b456-fbb7eae6474c"},"vehicle_type_id":"4","last_reported":1758312671,"current_range_meters":11200,"station_id":"ce4bhl12rcd13ifvqgf0","pricing_plan_id":"cebpf4jnsgd1na2vs0mg"},{"bike_id":"4bbb8e4b-8415-4755-924b-7c4f87fc83dd","system_id":"levelo_inurba_marseille","lat":43.21731,"lon":5.34619,"is_reserved":false,"is_disabled":false,"rental_uris":{"android":"levelo://app?vid=4bbb8e4b-8415-4755-924b-7c4f87fc83dd","ios":"levelo://app?vid=4bbb8e4b-8415-4755-924b-7c4f87fc83dd"},"vehicle_type_id":"4","last_reported":1758312671,"current_range_meters":11600,"station_id":"","pricing_plan_id":"cebpf4jnsgd1na2vs0mg"},{"bike_id":"b09d6ca5-499c-4846-9339-c11544949b71","system_id":"levelo_inurba_marseille","lat":43.29246,"lon":5.38452,"is_reserved":false,"is_disabled":false,"rental_uris":{"android":"levelo://app?vid=b09d6ca5-499c-4846-9339-c11544949b71","ios":"levelo://app?vid=b09d6ca5-499c-4846-9339-c11544949b71"},"vehicle_type_id":"4","last_reported":1758312671,"current_range_meters":11600,"station_id":"ce4bh692rcd13ifvqea0","pricing_plan_id":"cebpf4jnsgd1na2vs0mg"},{"bike_id":"c01f88fc-a824-4814-adf6-4a51b73aa6a9","system_id":"levelo_inurba_marseille","lat":43.29269,"lon":5.38449,"is_reserved":false,"is_disabled":false,"rental_uris":{"android":"levelo://app?vid=c01f88fc-a824-4814-adf6-4a51b73aa6a9","ios":"levelo://app?vid=c01f88fc-a824-4814-adf6-4a51b73aa6a9"},"vehicle_type_id":"4","last_reported":1758312671,"current_range_meters":11600,"station_id":"ce4bh692rcd13ifvqea0","pricing_plan_id":"cebpf4jnsgd1na2vs0mg"},{"bike_id":"bf6e6d27-c09e-4725-9fbc-20073fd5a515","system_id":"levelo_inurba_marseille","lat":43.289376,"lon":5.396214,"is_reserved":false,"is_disabled":false,"rental_uris":{"android":"levelo://app?vid=bf6e6d27-c09e-4725-9fbc-20073fd5a515","ios":"levelo://app?vid=bf6e6d27-c09e-4725-9fbc-20073fd5a515"},"vehicle_type_id":"4","last_reported":1758312671,"current_range_meters":11600,"station_id":"","pricing_plan_id":"cebpf4jnsgd1na2vs0mg"},{"bike_id":"0960e3dd-c358-4474-bd10-8223758e1f6b","system_id":"levelo_inurba_marseille","lat":43.296996,"lon":5.376855,"is_reserved":false,"is_disabled":false,"rental_uris":{"android":"levelo://app?vid=0960e3dd-c358-4474-bd10-8223758e1f6b","ios":"levelo://app?vid=0960e3dd-c358-4474-bd10-8223758e1f6b"},"vehicle_type_id":"4","last_reported":1758312671,"current_range_meters":11600,"station_id":"","pricing_plan_id":"cebpf4jnsgd1na2vs0mg"},{"bike_id":"0765f1d1-081b-48ff-b4ce-50191a579599","system_id":"levelo_inurba_marseille","lat":43.24183,"lon":5.39703,"is_reserved":false,"is_disabled":false,"rental_uris":{"android":"levelo://app?vid=0765f1d1-081b-48ff-b4ce-50191a579599","ios":"levelo://app?vid=0765f1d1-081b-48ff-b4ce-50191a579599"},"vehicle_type_id":"4","last_reported":1758312671,"current_range_meters":12000,"station_id":"ce4bhn12rcd13ifvqgpg","pricing_plan_id":"cebpf4jnsgd1na2vs0mg"},{"bike_id":"41855bc9-a0b6-4b3d-a1dc-6e9024caaec7","system_id":"levelo_inurba_marseille","lat":43.29016,"lon":5.38151,"is_reserved":false,"is_disabled":false,"rental_uris":{"android":"levelo://app?vid=41855bc9-a0b6-4b3d-a1dc-6e9024caaec7","ios":"levelo://app?vid=41855bc9-a0b6-4b3d-a1dc-6e9024caaec7"},"vehicle_type_id":"4","last_reported":1758312671,"current_range_meters":12000,"station_id":"ce4bh4p2rcd13ifvqe1g","pricing_plan_id":"cebpf4jnsgd1na2vs0mg"},{"bike_id":"fe9db630-a991-4391-8668-6e44730b87a8","system_id":"levelo_inurba_marseille","lat":43.29304,"lon":5.37168,"is_reserved":false,"is_disabled":false,"rental_uris":{"android":"levelo://app?vid=fe9db630-a991-4391-8668-6e44730b87a8","ios":"levelo://app?vid=fe9db630-a991-4391-8668-6e44730b87a8"},"vehicle_type_id":"4","last_reported":1758312671,"current_range_meters":12000,"station_id":"ce4bgh92rcd13ifvqb40","pricing_plan_id":"cebpf4jnsgd1na2vs0mg"},{"bike_id":"7acae3dc-4a35-4795-a73c-b6ee3d0aa090","system_id":"levelo_inurba_marseille","lat":43.29596,"lon":5.38095,"is_reserved":false,"is_disabled":false,"rental_uris":{"android":"levelo://app?vid=7acae3dc-4a35-4795-a73c-b6ee3d0aa090","ios":"levelo://app?vid=7acae3dc-4a35-4795-a73c-b6ee3d0aa090"},"vehicle_type_id":"4","last_reported":1758312671,"current_range_meters":12000,"station_id":"ce4bgl12rcd13ifvqbo0","pricing_plan_id":"cebpf4jnsgd1na2vs0mg"},{"bike_id":"ddd0c6de-ab84-4ea8-ad27-a731087c8ea3","system_id":"levelo_inurba_marseille","lat":43.30545,"lon":5.36531,"is_reserved":false,"is_disabled":false,"rental_uris":{"android":"levelo://app?vid=ddd0c6de-ab84-4ea8-ad27-a731087c8ea3","ios":"levelo://app?vid=ddd0c6de-ab84-4ea8-ad27-a731087c8ea3"},"vehicle_type_id":"4","last_reported":1758312671,"current_range_meters":12000,"station_id":"ce4bgs12rcd13ifvqcag","pricing_plan_id":"cebpf4jnsgd1na2vs0mg"},{"bike_id":"89f9cc06-e7bf-4e7f-b5f7-eb008f67ed23","system_id":"levelo_inurba_marseille","lat":43.29268,"lon":5.36852,"is_reserved":false,"is_disabled":false,"rental_uris":{"android":"levelo://app?vid=89f9cc06-e7bf-4e7f-b5f7-eb008f67ed23","ios":"levelo://app?vid=89f9cc06-e7bf-4e7f-b5f7-eb008f67ed23"},"vehicle_type_id":"4","last_reported":1758312671,"current_range_meters":12000,"station_id":"ce4bhbp2rcd13ifvqesg","pricing_plan_id":"cebpf4jnsgd1na2vs0mg"},{"bike_id":"4dcfa230-ff49-4055-bf67-d4723b707802","system_id":"levelo_inurba_marseille","lat":43.29852,"lon":5.36286,"is_reserved":false,"is_disabled":false,"rental_uris":{"android":"levelo://app?vid=4dcfa230-ff49-4055-bf67-d4723b707802","ios":"levelo://app?vid=4dcfa230-ff49-4055-bf67-d4723b707802"},"vehicle_type_id":"4","last_reported":1758312671,"current_range_meters":12000,"station_id":"ce4bgpp2rcd13ifvqc3g","pricing_plan_id":"cebpf4jnsgd1na2vs0mg"},{"bike_id":"ecb4db07-3d66-43d9-9133-5f91fc082720","system_id":"levelo_inurba_marseille","lat":43.29518,"lon":5.38544,"is_reserved":false,"is_disabled":false,"rental_uris":{"android":"levelo://app?vid=ecb4db07-3d66-43d9-9133-5f91fc082720","ios":"levelo://app?vid=ecb4db07-3d66-43d9-9133-5f91fc082720"},"vehicle_type_id":"4","last_reported":1758312671,"current_range_meters":12000,"station_id":"ce4bgih2rcd13ifvqba0","pricing_plan_id":"cebpf4jnsgd1na2vs0mg"},{"bike_id":"6969112e-a655-475d-b120-995cac7f4cc8","system_id":"levelo_inurba_marseille","lat":43.31161,"lon":5.3872,"is_reserved":false,"is_disabled":false,"rental_uris":{"android":"levelo://app?vid=6969112e-a655-475d-b120-995cac7f4cc8","ios":"levelo://app?vid=6969112e-a655-475d-b120-995cac7f4cc8"},"vehicle_type_id":"4","last_reported":1758312671,"current_range_meters":12400,"station_id":"ce4bgv12rcd13ifvqcp0","pricing_plan_id":"cebpf4jnsgd1na2vs0mg"},{"bike_id":"6dc49f8f-31b8-485c-b489-e3fd253e6676","system_id":"levelo_inurba_marseille","lat":43.333009,"lon":5.410255,"is_reserved":false,"is_disabled":true,"rental_uris":{"android":"levelo://app?vid=6dc49f8f-31b8-485c-b489-e3fd253e6676","ios":"levelo://app?vid=6dc49f8f-31b8-485c-b489-e3fd253e6676"},"vehicle_type_id":"4","last_reported":1758312671,"current_range_meters":12400,"station_id":"","pricing_plan_id":"cebpf4jnsgd1na2vs0mg"},{"bike_id":"e0fa618d-316c-40f0-84a4-361066b627a3","system_id":"levelo_inurba_marseille","lat":43.21759,"lon":5.34605,"is_reserved":false,"is_disabled":true,"rental_uris":{"android":"levelo://app?vid=e0fa618d-316c-40f0-84a4-361066b627a3","ios":"levelo://app?vid=e0fa618d-316c-40f0-84a4-361066b627a3"},"vehicle_type_id":"4","last_reported":1758312671,"current_range_meters":12400,"station_id":"st_cvj6r9ubvosntc0bgbag","pricing_plan_id":"cebpf4jnsgd1na2vs0mg"},{"bike_id":"4073a58c-a8b3-4f73-b608-9c258d5d1795","system_id":"levelo_inurba_marseille","lat":43.29978,"lon":5.38495,"is_reserved":false,"is_disabled":false,"rental_uris":{"android":"levelo://app?vid=4073a58c-a8b3-4f73-b608-9c258d5d1795","ios":"levelo://app?vid=4073a58c-a8b3-4f73-b608-9c258d5d1795"},"vehicle_type_id":"4","last_reported":1758312671,"current_range_meters":12400,"station_id":"ce4bgj92rcd13ifvqbd0","pricing_plan_id":"cebpf4jnsgd1na2vs0mg"},{"bike_id":"931664d9-a1f9-4b23-9426-5b3082bf7d09","system_id":"levelo_inurba_marseille","lat":43.30923,"lon":5.40158,"is_reserved":false,"is_disabled":true,"rental_uris":{"android":"levelo://app?vid=931664d9-a1f9-4b23-9426-5b3082bf7d09","ios":"levelo://app?vid=931664d9-a1f9-4b23-9426-5b3082bf7d09"},"vehicle_type_id":"4","last_reported":1758312671,"current_range_meters":12800,"station_id":"ce4bgvp2rcd13ifvqct0","pricing_plan_id":"cebpf4jnsgd1na2vs0mg"},{"bike_id":"27245587-82ed-48d8-b73e-02c57fe2aecd","system_id":"levelo_inurba_marseille","lat":43.28152,"lon":5.42648,"is_reserved":false,"is_disabled":false,"rental_uris":{"android":"levelo://app?vid=27245587-82ed-48d8-b73e-02c57fe2aecd","ios":"levelo://app?vid=27245587-82ed-48d8-b73e-02c57fe2aecd"},"vehicle_type_id":"4","last_reported":1758312671,"current_range_meters":12800,"station_id":"ce4bhnh2rcd13ifvqgug","pricing_plan_id":"cebpf4jnsgd1na2vs0mg"},{"bike_id":"518eef5b-9e3c-4b06-94a9-56e70af9d262","system_id":"levelo_inurba_marseille","lat":43.308,"lon":5.38151,"is_reserved":false,"is_disabled":true,"rental_uris":{"android":"levelo://app?vid=518eef5b-9e3c-4b06-94a9-56e70af9d262","ios":"levelo://app?vid=518eef5b-9e3c-4b06-94a9-56e70af9d262"},"vehicle_type_id":"4","last_reported":1758312671,"current_range_meters":12800,"station_id":"ce4bgt12rcd13ifvqce0","pricing_plan_id":"cebpf4jnsgd1na2vs0mg"},{"bike_id":"1835b825-2b28-461d-b8f7-a2b3804e765d","system_id":"levelo_inurba_marseille","lat":43.29243,"lon":5.38435,"is_reserved":false,"is_disabled":false,"rental_uris":{"android":"levelo://app?vid=1835b825-2b28-461d-b8f7-a2b3804e765d","ios":"levelo://app?vid=1835b825-2b28-461d-b8f7-a2b3804e765d"},"vehicle_type_id":"4","last_reported":1758312671,"current_range_meters":12800,"station_id":"ce4bh692rcd13ifvqea0","pricing_plan_id":"cebpf4jnsgd1na2vs0mg"},{"bike_id":"61d6bd44-8373-44dd-a68f-835ab26f25d7","system_id":"levelo_inurba_marseille","lat":43.29261,"lon":5.38464,"is_reserved":false,"is_disabled":false,"rental_uris":{"android":"levelo://app?vid=61d6bd44-8373-44dd-a68f-835ab26f25d7","ios":"levelo://app?vid=61d6bd44-8373-44dd-a68f-835ab26f25d7"},"vehicle_type_id":"4","last_reported":1758312671,"current_range_meters":12800,"station_id":"ce4bh692rcd13ifvqea0","pricing_plan_id":"cebpf4jnsgd1na2vs0mg"},{"bike_id":"9c0693b2-33f4-40d9-85fa-754a770a9d54","system_id":"levelo_inurba_marseille","lat":43.295188,"lon":5.390328,"is_reserved":false,"is_disabled":false,"rental_uris":{"android":"levelo://app?vid=9c0693b2-33f4-40d9-85fa-754a770a9d54","ios":"levelo://app?vid=9c0693b2-33f4-40d9-85fa-754a770a9d54"},"vehicle_type_id":"4","last_reported":1758312671,"current_range_meters":12800,"station_id":"ce4bh312rcd13ifvqdj0","pricing_plan_id":"cebpf4jnsgd1na2vs0mg"},{"bike_id":"63b11244-ad32-4a85-a54f-b82e9260d15b","system_id":"levelo_inurba_marseille","lat":43.28725,"lon":5.3795,"is_reserved":false,"is_disabled":false,"rental_uris":{"android":"levelo://app?vid=63b11244-ad32-4a85-a54f-b82e9260d15b","ios":"levelo://app?vid=63b11244-ad32-4a85-a54f-b82e9260d15b"},"vehicle_type_id":"4","last_reported":1758312671,"current_range_meters":13600,"station_id":"ce4bh9p2rcd13ifvqec0","pricing_plan_id":"cebpf4jnsgd1na2vs0mg"},{"bike_id":"f85a8c4d-f9d0-4136-9b57-8bfb28db950c","system_id":"levelo_inurba_marseille","lat":43.31914,"lon":5.37457,"is_reserved":false,"is_disabled":false,"rental_uris":{"android":"levelo://app?vid=f85a8c4d-f9d0-4136-9b57-8bfb28db950c","ios":"levelo://app?vid=f85a8c4d-f9d0-4136-9b57-8bfb28db950c"},"vehicle_type_id":"4","last_reported":1758312671,"current_range_meters":14000,"station_id":"","pricing_plan_id":"cebpf4jnsgd1na2vs0mg"},{"bike_id":"a8047d47-fd09-4760-8a45-096c29d829a5","system_id":"levelo_inurba_marseille","lat":43.29528,"lon":5.39034,"is_reserved":false,"is_disabled":false,"rental_uris":{"android":"levelo://app?vid=a8047d47-fd09-4760-8a45-096c29d829a5","ios":"levelo://app?vid=a8047d47-fd09-4760-8a45-096c29d829a5"},"vehicle_type_id":"4","last_reported":1758312671,"current_range_meters":14000,"station_id":"ce4bh3p2rcd13ifvqdp0","pricing_plan_id":"cebpf4jnsgd1na2vs0mg"},{"bike_id":"a01ecd35-d010-4a3e-96bd-c37d7623bd9c","system_id":"levelo_inurba_marseille","lat":43.287211,"lon":5.37942,"is_reserved":false,"is_disabled":false,"rental_uris":{"android":"levelo://app?vid=a01ecd35-d010-4a3e-96bd-c37d7623bd9c","ios":"levelo://app?vid=a01ecd35-d010-4a3e-96bd-c37d7623bd9c"},"vehicle_type_id":"4","last_reported":1758312671,"current_range_meters":14000,"station_id":"ce4bh9p2rcd13ifvqec0","pricing_plan_id":"cebpf4jnsgd1na2vs0mg"},{"bike_id":"fbf8b3ef-fab4-496b-9171-97052b3bc0bd","system_id":"levelo_inurba_marseille","lat":43.30611,"lon":5.37198,"is_reserved":false,"is_disabled":true,"rental_uris":{"android":"levelo://app?vid=fbf8b3ef-fab4-496b-9171-97052b3bc0bd","ios":"levelo://app?vid=fbf8b3ef-fab4-496b-9171-97052b3bc0bd"},"vehicle_type_id":"4","last_reported":1758312671,"current_range_meters":14400,"station_id":"ce4bgqh2rcd13ifvqc4g","pricing_plan_id":"cebpf4jnsgd1na2vs0mg"},{"bike_id":"cf33be8c-1038-43e0-9344-a00f5b253b34","system_id":"levelo_inurba_marseille","lat":43.30591,"lon":5.39362,"is_reserved":false,"is_disabled":false,"rental_uris":{"android":"levelo://app?vid=cf33be8c-1038-43e0-9344-a00f5b253b34","ios":"levelo://app?vid=cf33be8c-1038-43e0-9344-a00f5b253b34"},"vehicle_type_id":"4","last_reported":1758312671,"current_range_meters":14400,"station_id":"ce4bh0p2rcd13ifvqd80","pricing_plan_id":"cebpf4jnsgd1na2vs0mg"},{"bike_id":"3c70ac7d-f6f1-4b32-a730-a5dfc2e234bf","system_id":"levelo_inurba_marseille","lat":43.29262,"lon":5.37627,"is_reserved":false,"is_disabled":true,"rental_uris":{"android":"levelo://app?vid=3c70ac7d-f6f1-4b32-a730-a5dfc2e234bf","ios":"levelo://app?vid=3c70ac7d-f6f1-4b32-a730-a5dfc2e234bf"},"vehicle_type_id":"4","last_reported":1758312671,"current_range_meters":14400,"station_id":"ce4bgi12rcd13ifvqb80","pricing_plan_id":"cebpf4jnsgd1na2vs0mg"},{"bike_id":"0ff155ae-152d-4f51-b7b4-a835435ad73e","system_id":"levelo_inurba_marseille","lat":43.28431,"lon":5.3919,"is_reserved":false,"is_disabled":false,"rental_uris":{"android":"levelo://app?vid=0ff155ae-152d-4f51-b7b4-a835435ad73e","ios":"levelo://app?vid=0ff155ae-152d-4f51-b7b4-a835435ad73e"},"vehicle_type_id":"4","last_reported":1758312671,"current_range_meters":14000,"station_id":"ce4bhoh2rcd13ifvqh5g","pricing_plan_id":"cebpf4jnsgd1na2vs0mg"},{"bike_id":"438ead59-de14-4fa0-a61d-03a70a4122ae","system_id":"levelo_inurba_marseille","lat":43.97296,"lon":4.89142,"is_reserved":false,"is_disabled":true,"rental_uris":{"android":"levelo://app?vid=438ead59-de14-4fa0-a61d-03a70a4122ae","ios":"levelo://app?vid=438ead59-de14-4fa0-a61d-03a70a4122ae"},"vehicle_type_id":"4","last_reported":1758312671,"current_range_meters":14400,"station_id":"","pricing_plan_id":"cebpf4jnsgd1na2vs0mg"},{"bike_id":"2499a65f-106c-4cee-823e-c9d939ffbc5f","system_id":"levelo_inurba_marseille","lat":43.31089,"lon":5.38605,"is_reserved":false,"is_disabled":false,"rental_uris":{"android":"levelo://app?vid=2499a65f-106c-4cee-823e-c9d939ffbc5f","ios":"levelo://app?vid=2499a65f-106c-4cee-823e-c9d939ffbc5f"},"vehicle_type_id":"4","last_reported":1758312671,"current_range_meters":14400,"station_id":"","pricing_plan_id":"cebpf4jnsgd1na2vs0mg"},{"bike_id":"359acfdd-6088-470c-a135-df2f79f8c3d6","system_id":"levelo_inurba_marseille","lat":43.28723,"lon":5.37937,"is_reserved":false,"is_disabled":false,"rental_uris":{"android":"levelo://app?vid=359acfdd-6088-470c-a135-df2f79f8c3d6","ios":"levelo://app?vid=359acfdd-6088-470c-a135-df2f79f8c3d6"},"vehicle_type_id":"4","last_reported":1758312671,"current_range_meters":14400,"station_id":"ce4bh9p2rcd13ifvqec0","pricing_plan_id":"cebpf4jnsgd1na2vs0mg"},{"bike_id":"bb9e9cd2-ad5e-46d9-8e26-c060e9d2ef0b","system_id":"levelo_inurba_marseille","lat":43.29589,"lon":5.37506,"is_reserved":false,"is_disabled":false,"rental_uris":{"android":"levelo://app?vid=bb9e9cd2-ad5e-46d9-8e26-c060e9d2ef0b","ios":"levelo://app?vid=bb9e9cd2-ad5e-46d9-8e26-c060e9d2ef0b"},"vehicle_type_id":"4","last_reported":1758312671,"current_range_meters":14800,"station_id":"ce4bgh92rcd13ifvqb50","pricing_plan_id":"cebpf4jnsgd1na2vs0mg"},{"bike_id":"27156dcc-607f-4ed0-a801-a55617a2f736","system_id":"levelo_inurba_marseille","lat":43.29172,"lon":5.3715,"is_reserved":false,"is_disabled":false,"rental_uris":{"android":"levelo://app?vid=27156dcc-607f-4ed0-a801-a55617a2f736","ios":"levelo://app?vid=27156dcc-607f-4ed0-a801-a55617a2f736"},"vehicle_type_id":"4","last_reported":1758312671,"current_range_meters":14800,"station_id":"ce4bha92rcd13ifvqeh0","pricing_plan_id":"cebpf4jnsgd1na2vs0mg"},{"bike_id":"82b66571-865c-45ea-b9ac-c78bf1d0c455","system_id":"levelo_inurba_marseille","lat":43.29517,"lon":5.39037,"is_reserved":false,"is_disabled":false,"rental_uris":{"android":"levelo://app?vid=82b66571-865c-45ea-b9ac-c78bf1d0c455","ios":"levelo://app?vid=82b66571-865c-45ea-b9ac-c78bf1d0c455"},"vehicle_type_id":"4","last_reported":1758312671,"current_range_meters":14400,"station_id":"ce4bh3p2rcd13ifvqdp0","pricing_plan_id":"cebpf4jnsgd1na2vs0mg"},{"bike_id":"50a98a41-9d7c-4671-909b-e200471756f8","system_id":"levelo_inurba_marseille","lat":43.29932,"lon":5.36546,"is_reserved":false,"is_disabled":false,"rental_uris":{"android":"levelo://app?vid=50a98a41-9d7c-4671-909b-e200471756f8","ios":"levelo://app?vid=50a98a41-9d7c-4671-909b-e200471756f8"},"vehicle_type_id":"4","last_reported":1758312671,"current_range_meters":14800,"station_id":"ce4bgm92rcd13ifvqbr0","pricing_plan_id":"cebpf4jnsgd1na2vs0mg"},{"bike_id":"27c89e66-0e5a-40a7-b36e-943decb8e903","system_id":"levelo_inurba_marseille","lat":43.30413,"lon":5.39748,"is_reserved":false,"is_disabled":false,"rental_uris":{"android":"levelo://app?vid=27c89e66-0e5a-40a7-b36e-943decb8e903","ios":"levelo://app?vid=27c89e66-0e5a-40a7-b36e-943decb8e903"},"vehicle_type_id":"4","last_reported":1758312671,"current_range_meters":14400,"station_id":"ce4bh092rcd13ifvqd20","pricing_plan_id":"cebpf4jnsgd1na2vs0mg"},{"bike_id":"e00142e9-608a-4c4e-bbc3-b3a0cd2fbb86","system_id":"levelo_inurba_marseille","lat":43.31361,"lon":5.38487,"is_reserved":false,"is_disabled":false,"rental_uris":{"android":"levelo://app?vid=e00142e9-608a-4c4e-bbc3-b3a0cd2fbb86","ios":"levelo://app?vid=e00142e9-608a-4c4e-bbc3-b3a0cd2fbb86"},"vehicle_type_id":"4","last_reported":1758312671,"current_range_meters":14800,"station_id":"ce4bgt92rcd13ifvqcf0","pricing_plan_id":"cebpf4jnsgd1na2vs0mg"},{"bike_id":"bcb6dacc-f3c1-4961-8267-7f6dc1482c4a","system_id":"levelo_inurba_marseille","lat":43.29267,"lon":5.38441,"is_reserved":false,"is_disabled":false,"rental_uris":{"android":"levelo://app?vid=bcb6dacc-f3c1-4961-8267-7f6dc1482c4a","ios":"levelo://app?vid=bcb6dacc-f3c1-4961-8267-7f6dc1482c4a"},"vehicle_type_id":"4","last_reported":1758312671,"current_range_meters":14800,"station_id":"ce4bh692rcd13ifvqea0","pricing_plan_id":"cebpf4jnsgd1na2vs0mg"},{"bike_id":"dccefeab-758e-4850-a415-f18571ed0a71","system_id":"levelo_inurba_marseille","lat":43.29527,"lon":5.3854,"is_reserved":false,"is_disabled":true,"rental_uris":{"android":"levelo://app?vid=dccefeab-758e-4850-a415-f18571ed0a71","ios":"levelo://app?vid=dccefeab-758e-4850-a415-f18571ed0a71"},"vehicle_type_id":"4","last_reported":1758312671,"current_range_meters":14800,"station_id":"ce4bgih2rcd13ifvqba0","pricing_plan_id":"cebpf4jnsgd1na2vs0mg"},{"bike_id":"0bfe348e-6459-4dea-b9d4-f1251d15e612","system_id":"levelo_inurba_marseille","lat":43.31992,"lon":5.38158,"is_reserved":false,"is_disabled":false,"rental_uris":{"android":"levelo://app?vid=0bfe348e-6459-4dea-b9d4-f1251d15e612","ios":"levelo://app?vid=0bfe348e-6459-4dea-b9d4-f1251d15e612"},"vehicle_type_id":"4","last_reported":1758312671,"current_range_meters":15200,"station_id":"ce4bhr12rcd13ifvqhpg","pricing_plan_id":"cebpf4jnsgd1na2vs0mg"},{"bike_id":"3cc6bf75-c7d4-4487-bae4-60a8eb9b79f7","system_id":"levelo_inurba_marseille","lat":43.30948,"lon":5.39029,"is_reserved":false,"is_disabled":false,"rental_uris":{"android":"levelo://app?vid=3cc6bf75-c7d4-4487-bae4-60a8eb9b79f7","ios":"levelo://app?vid=3cc6bf75-c7d4-4487-bae4-60a8eb9b79f7"},"vehicle_type_id":"4","last_reported":1758312671,"current_range_meters":15200,"station_id":"ce4bgup2rcd13ifvqco0","pricing_plan_id":"cebpf4jnsgd1na2vs0mg"},{"bike_id":"c4706891-6ce1-4440-91ff-a3ecf2ff007e","system_id":"levelo_inurba_marseille","lat":43.26374,"lon":5.40075,"is_reserved":false,"is_disabled":false,"rental_uris":{"android":"levelo://app?vid=c4706891-6ce1-4440-91ff-a3ecf2ff007e","ios":"levelo://app?vid=c4706891-6ce1-4440-91ff-a3ecf2ff007e"},"vehicle_type_id":"4","last_reported":1758312671,"current_range_meters":15200,"station_id":"","pricing_plan_id":"cebpf4jnsgd1na2vs0mg"},{"bike_id":"9186af57-f08c-4cc8-9050-a3582004c079","system_id":"levelo_inurba_marseille","lat":43.2534,"lon":5.4217,"is_reserved":false,"is_disabled":false,"rental_uris":{"android":"levelo://app?vid=9186af57-f08c-4cc8-9050-a3582004c079","ios":"levelo://app?vid=9186af57-f08c-4cc8-9050-a3582004c079"},"vehicle_type_id":"4","last_reported":1758312671,"current_range_meters":15200,"station_id":"st_d2m65c5bi1j21697t3ng","pricing_plan_id":"cebpf4jnsgd1na2vs0mg"},{"bike_id":"df0199ee-ab4f-48ab-bbe9-404b970e49dc","system_id":"levelo_inurba_marseille","lat":43.29057,"lon":5.37158,"is_reserved":false,"is_disabled":true,"rental_uris":{"android":"levelo://app?vid=df0199ee-ab4f-48ab-bbe9-404b970e49dc","ios":"levelo://app?vid=df0199ee-ab4f-48ab-bbe9-404b970e49dc"},"vehicle_type_id":"4","last_reported":1758312671,"current_range_meters":15200,"station_id":"ce4bh5p2rcd13ifvqe4g","pricing_plan_id":"cebpf4jnsgd1na2vs0mg"},{"bike_id":"23fac069-01cc-45b6-b24d-e676fd2da16a","system_id":"levelo_inurba_marseille","lat":43.29271,"lon":5.36859,"is_reserved":false,"is_disabled":true,"rental_uris":{"android":"levelo://app?vid=23fac069-01cc-45b6-b24d-e676fd2da16a","ios":"levelo://app?vid=23fac069-01cc-45b6-b24d-e676fd2da16a"},"vehicle_type_id":"4","last_reported":1758312671,"current_range_meters":15200,"station_id":"ce4bhbp2rcd13ifvqesg","pricing_plan_id":"cebpf4jnsgd1na2vs0mg"},{"bike_id":"5c7c2bf1-a8fd-45f2-90d6-7fa74078a8c5","system_id":"levelo_inurba_marseille","lat":43.31989,"lon":5.38158,"is_reserved":false,"is_disabled":false,"rental_uris":{"android":"levelo://app?vid=5c7c2bf1-a8fd-45f2-90d6-7fa74078a8c5","ios":"levelo://app?vid=5c7c2bf1-a8fd-45f2-90d6-7fa74078a8c5"},"vehicle_type_id":"4","last_reported":1758312671,"current_range_meters":16000,"station_id":"ce4bhr12rcd13ifvqhpg","pricing_plan_id":"cebpf4jnsgd1na2vs0mg"},{"bike_id":"35a93bfd-5830-4d6f-84cb-b1463186850a","system_id":"levelo_inurba_marseille","lat":43.28723,"lon":5.3794,"is_reserved":false,"is_disabled":false,"rental_uris":{"android":"levelo://app?vid=35a93bfd-5830-4d6f-84cb-b1463186850a","ios":"levelo://app?vid=35a93bfd-5830-4d6f-84cb-b1463186850a"},"vehicle_type_id":"4","last_reported":1758312671,"current_range_meters":15200,"station_id":"ce4bh9p2rcd13ifvqec0","pricing_plan_id":"cebpf4jnsgd1na2vs0mg"},{"bike_id":"54434623-de55-4c73-bed8-d4a2171d64e5","system_id":"levelo_inurba_marseille","lat":43.287262,"lon":5.379371,"is_reserved":false,"is_disabled":false,"rental_uris":{"android":"levelo://app?vid=54434623-de55-4c73-bed8-d4a2171d64e5","ios":"levelo://app?vid=54434623-de55-4c73-bed8-d4a2171d64e5"},"vehicle_type_id":"4","last_reported":1758312671,"current_range_meters":16000,"station_id":"ce4bh9p2rcd13ifvqec0","pricing_plan_id":"cebpf4jnsgd1na2vs0mg"},{"bike_id":"7c00454d-87e2-4622-8e26-0a709fe028eb","system_id":"levelo_inurba_marseille","lat":43.29254,"lon":5.38444,"is_reserved":false,"is_disabled":false,"rental_uris":{"android":"levelo://app?vid=7c00454d-87e2-4622-8e26-0a709fe028eb","ios":"levelo://app?vid=7c00454d-87e2-4622-8e26-0a709fe028eb"},"vehicle_type_id":"4","last_reported":1758312671,"current_range_meters":16000,"station_id":"ce4bh692rcd13ifvqea0","pricing_plan_id":"cebpf4jnsgd1na2vs0mg"},{"bike_id":"15056272-9948-4fb8-8a3f-0dce85d9f376","system_id":"levelo_inurba_marseille","lat":43.278244,"lon":5.391998,"is_reserved":false,"is_disabled":true,"rental_uris":{"android":"levelo://app?vid=15056272-9948-4fb8-8a3f-0dce85d9f376","ios":"levelo://app?vid=15056272-9948-4fb8-8a3f-0dce85d9f376"},"vehicle_type_id":"4","last_reported":1758312671,"current_range_meters":16000,"station_id":"ce4bhjp2rcd13ifvqga0","pricing_plan_id":"cebpf4jnsgd1na2vs0mg"},{"bike_id":"0d32671b-e095-4e26-99f5-ddbdb32068f9","system_id":"levelo_inurba_marseille","lat":43.28649,"lon":5.38652,"is_reserved":false,"is_disabled":false,"rental_uris":{"android":"levelo://app?vid=0d32671b-e095-4e26-99f5-ddbdb32068f9","ios":"levelo://app?vid=0d32671b-e095-4e26-99f5-ddbdb32068f9"},"vehicle_type_id":"4","last_reported":1758312671,"current_range_meters":16000,"station_id":"ce4bh492rcd13ifvqdug","pricing_plan_id":"cebpf4jnsgd1na2vs0mg"},{"bike_id":"18e3aeb1-b2cc-4222-967e-3fa218817483","system_id":"levelo_inurba_marseille","lat":43.29606,"lon":5.38076,"is_reserved":false,"is_disabled":false,"rental_uris":{"android":"levelo://app?vid=18e3aeb1-b2cc-4222-967e-3fa218817483","ios":"levelo://app?vid=18e3aeb1-b2cc-4222-967e-3fa218817483"},"vehicle_type_id":"4","last_reported":1758312671,"current_range_meters":16000,"station_id":"ce4bgl12rcd13ifvqbo0","pricing_plan_id":"cebpf4jnsgd1na2vs0mg"},{"bike_id":"835975a0-27c7-47e7-bc1c-b8ba0b505127","system_id":"levelo_inurba_marseille","lat":43.32591,"lon":5.3781,"is_reserved":false,"is_disabled":false,"rental_uris":{"android":"levelo://app?vid=835975a0-27c7-47e7-bc1c-b8ba0b505127","ios":"levelo://app?vid=835975a0-27c7-47e7-bc1c-b8ba0b505127"},"vehicle_type_id":"4","last_reported":1758312671,"current_range_meters":16000,"station_id":"","pricing_plan_id":"cebpf4jnsgd1na2vs0mg"},{"bike_id":"b1b9b7c3-9249-4533-a029-90c49e2bf642","system_id":"levelo_inurba_marseille","lat":43.29544,"lon":5.37524,"is_reserved":false,"is_disabled":false,"rental_uris":{"android":"levelo://app?vid=b1b9b7c3-9249-4533-a029-90c49e2bf642","ios":"levelo://app?vid=b1b9b7c3-9249-4533-a029-90c49e2bf642"},"vehicle_type_id":"4","last_reported":1758312671,"current_range_meters":16000,"station_id":"ce4bgkp2rcd13ifvqbmg","pricing_plan_id":"cebpf4jnsgd1na2vs0mg"},{"bike_id":"3a738d32-7d3d-4e70-a41c-d1bcf998b110","system_id":"levelo_inurba_marseille","lat":43.298013,"lon":5.380926,"is_reserved":false,"is_disabled":false,"rental_uris":{"android":"levelo://app?vid=3a738d32-7d3d-4e70-a41c-d1bcf998b110","ios":"levelo://app?vid=3a738d32-7d3d-4e70-a41c-d1bcf998b110"},"vehicle_type_id":"4","last_reported":1758312671,"current_range_meters":16000,"station_id":"ce4bgip2rcd13ifvqbb0","pricing_plan_id":"cebpf4jnsgd1na2vs0mg"},{"bike_id":"d367fabd-c2cd-4540-9efc-ecc1320b65f5","system_id":"levelo_inurba_marseille","lat":43.2953,"lon":5.38547,"is_reserved":false,"is_disabled":false,"rental_uris":{"android":"levelo://app?vid=d367fabd-c2cd-4540-9efc-ecc1320b65f5","ios":"levelo://app?vid=d367fabd-c2cd-4540-9efc-ecc1320b65f5"},"vehicle_type_id":"4","last_reported":1758312671,"current_range_meters":16000,"station_id":"ce4bgih2rcd13ifvqba0","pricing_plan_id":"cebpf4jnsgd1na2vs0mg"},{"bike_id":"2966fb98-fd0a-4e97-97f0-9ba68458b923","system_id":"levelo_inurba_marseille","lat":43.29533,"lon":5.38551,"is_reserved":false,"is_disabled":false,"rental_uris":{"android":"levelo://app?vid=2966fb98-fd0a-4e97-97f0-9ba68458b923","ios":"levelo://app?vid=2966fb98-fd0a-4e97-97f0-9ba68458b923"},"vehicle_type_id":"4","last_reported":1758312671,"current_range_meters":16000,"station_id":"ce4bgih2rcd13ifvqba0","pricing_plan_id":"cebpf4jnsgd1na2vs0mg"},{"bike_id":"43d57fd4-047e-4ac8-97e5-ec9b96239472","system_id":"levelo_inurba_marseille","lat":43.32611,"lon":5.38931,"is_reserved":false,"is_disabled":false,"rental_uris":{"android":"levelo://app?vid=43d57fd4-047e-4ac8-97e5-ec9b96239472","ios":"levelo://app?vid=43d57fd4-047e-4ac8-97e5-ec9b96239472"},"vehicle_type_id":"4","last_reported":1758312671,"current_range_meters":16000,"station_id":"","pricing_plan_id":"cebpf4jnsgd1na2vs0mg"},{"bike_id":"97508637-4b49-481d-b8e2-28918bfd0247","system_id":"levelo_inurba_marseille","lat":43.29966,"lon":5.38498,"is_reserved":false,"is_disabled":false,"rental_uris":{"android":"levelo://app?vid=97508637-4b49-481d-b8e2-28918bfd0247","ios":"levelo://app?vid=97508637-4b49-481d-b8e2-28918bfd0247"},"vehicle_type_id":"4","last_reported":1758312671,"current_range_meters":16400,"station_id":"ce4bgj92rcd13ifvqbd0","pricing_plan_id":"cebpf4jnsgd1na2vs0mg"},{"bike_id":"9e77d3e2-cf17-43a2-a24d-24b3a570138d","system_id":"levelo_inurba_marseille","lat":43.28664,"lon":5.38667,"is_reserved":false,"is_disabled":false,"rental_uris":{"android":"levelo://app?vid=9e77d3e2-cf17-43a2-a24d-24b3a570138d","ios":"levelo://app?vid=9e77d3e2-cf17-43a2-a24d-24b3a570138d"},"vehicle_type_id":"4","last_reported":1758312671,"current_range_meters":16400,"station_id":"ce4bh492rcd13ifvqdug","pricing_plan_id":"cebpf4jnsgd1na2vs0mg"},{"bike_id":"8e86fe12-b2d6-4764-9720-31f5ab462b7b","system_id":"levelo_inurba_marseille","lat":43.22542,"lon":5.41642,"is_reserved":false,"is_disabled":false,"rental_uris":{"android":"levelo://app?vid=8e86fe12-b2d6-4764-9720-31f5ab462b7b","ios":"levelo://app?vid=8e86fe12-b2d6-4764-9720-31f5ab462b7b"},"vehicle_type_id":"4","last_reported":1758312671,"current_range_meters":16400,"station_id":"st_d2o4gvlbi1j2169b742g","pricing_plan_id":"cebpf4jnsgd1na2vs0mg"},{"bike_id":"a1a12c71-6d96-4648-a25f-8df642a6dc66","system_id":"levelo_inurba_marseille","lat":43.284756,"lon":5.384324,"is_reserved":false,"is_disabled":true,"rental_uris":{"android":"levelo://app?vid=a1a12c71-6d96-4648-a25f-8df642a6dc66","ios":"levelo://app?vid=a1a12c71-6d96-4648-a25f-8df642a6dc66"},"vehicle_type_id":"4","last_reported":1758312671,"current_range_meters":16400,"station_id":"ce4bh512rcd13ifvqe3g","pricing_plan_id":"cebpf4jnsgd1na2vs0mg"},{"bike_id":"100fc699-7bc2-45de-9e70-967069e79569","system_id":"levelo_inurba_marseille","lat":43.2794,"lon":5.41052,"is_reserved":false,"is_disabled":false,"rental_uris":{"android":"levelo://app?vid=100fc699-7bc2-45de-9e70-967069e79569","ios":"levelo://app?vid=100fc699-7bc2-45de-9e70-967069e79569"},"vehicle_type_id":"4","last_reported":1758312671,"current_range_meters":16400,"station_id":"ce4bhnp2rcd13ifvqh0g","pricing_plan_id":"cebpf4jnsgd1na2vs0mg"},{"bike_id":"bd502d3e-7cc3-4606-82a7-c03886a352f2","system_id":"levelo_inurba_marseille","lat":43.29539,"lon":5.38545,"is_reserved":false,"is_disabled":false,"rental_uris":{"android":"levelo://app?vid=bd502d3e-7cc3-4606-82a7-c03886a352f2","ios":"levelo://app?vid=bd502d3e-7cc3-4606-82a7-c03886a352f2"},"vehicle_type_id":"4","last_reported":1758312671,"current_range_meters":16400,"station_id":"ce4bgih2rcd13ifvqba0","pricing_plan_id":"cebpf4jnsgd1na2vs0mg"},{"bike_id":"45b73b96-2568-4267-b40c-471be47af509","system_id":"levelo_inurba_marseille","lat":43.29858,"lon":5.36277,"is_reserved":false,"is_disabled":false,"rental_uris":{"android":"levelo://app?vid=45b73b96-2568-4267-b40c-471be47af509","ios":"levelo://app?vid=45b73b96-2568-4267-b40c-471be47af509"},"vehicle_type_id":"4","last_reported":1758312671,"current_range_meters":16400,"station_id":"ce4bgpp2rcd13ifvqc3g","pricing_plan_id":"cebpf4jnsgd1na2vs0mg"},{"bike_id":"b2f4ddb2-e31f-4070-9a5c-1b4e32136c2e","system_id":"levelo_inurba_marseille","lat":43.292365,"lon":5.380545,"is_reserved":false,"is_disabled":false,"rental_uris":{"android":"levelo://app?vid=b2f4ddb2-e31f-4070-9a5c-1b4e32136c2e","ios":"levelo://app?vid=b2f4ddb2-e31f-4070-9a5c-1b4e32136c2e"},"vehicle_type_id":"4","last_reported":1758312671,"current_range_meters":16400,"station_id":"ce4bgl12rcd13ifvqbo0","pricing_plan_id":"cebpf4jnsgd1na2vs0mg"},{"bike_id":"15d720a0-5a19-4aee-88e2-3b7e38d268c8","system_id":"levelo_inurba_marseille","lat":43.23177,"lon":5.39986,"is_reserved":false,"is_disabled":false,"rental_uris":{"android":"levelo://app?vid=15d720a0-5a19-4aee-88e2-3b7e38d268c8","ios":"levelo://app?vid=15d720a0-5a19-4aee-88e2-3b7e38d268c8"},"vehicle_type_id":"4","last_reported":1758312671,"current_range_meters":16000,"station_id":"ce4bhn12rcd13ifvqgqg","pricing_plan_id":"cebpf4jnsgd1na2vs0mg"},{"bike_id":"55b3fe62-7c57-41f7-ada5-d851fd455e1d","system_id":"levelo_inurba_marseille","lat":43.29518,"lon":5.39399,"is_reserved":false,"is_disabled":false,"rental_uris":{"android":"levelo://app?vid=55b3fe62-7c57-41f7-ada5-d851fd455e1d","ios":"levelo://app?vid=55b3fe62-7c57-41f7-ada5-d851fd455e1d"},"vehicle_type_id":"4","last_reported":1758312671,"current_range_meters":16800,"station_id":"ce4bh292rcd13ifvqdf0","pricing_plan_id":"cebpf4jnsgd1na2vs0mg"},{"bike_id":"1d8019b8-998e-47a5-9ffe-53c7e7525920","system_id":"levelo_inurba_marseille","lat":43.28686,"lon":5.37925,"is_reserved":false,"is_disabled":false,"rental_uris":{"android":"levelo://app?vid=1d8019b8-998e-47a5-9ffe-53c7e7525920","ios":"levelo://app?vid=1d8019b8-998e-47a5-9ffe-53c7e7525920"},"vehicle_type_id":"4","last_reported":1758312671,"current_range_meters":16400,"station_id":"ce4bh9p2rcd13ifvqec0","pricing_plan_id":"cebpf4jnsgd1na2vs0mg"},{"bike_id":"7c7c4b46-5392-4ccc-86a0-65f5f6a12af8","system_id":"levelo_inurba_marseille","lat":43.241749,"lon":5.397426,"is_reserved":false,"is_disabled":false,"rental_uris":{"android":"levelo://app?vid=7c7c4b46-5392-4ccc-86a0-65f5f6a12af8","ios":"levelo://app?vid=7c7c4b46-5392-4ccc-86a0-65f5f6a12af8"},"vehicle_type_id":"4","last_reported":1758312671,"current_range_meters":16800,"station_id":"ce4bhn12rcd13ifvqgpg","pricing_plan_id":"cebpf4jnsgd1na2vs0mg"},{"bike_id":"8f8458a7-d63f-485d-b4e8-7b4f14400c95","system_id":"levelo_inurba_marseille","lat":43.29254,"lon":5.38446,"is_reserved":false,"is_disabled":false,"rental_uris":{"android":"levelo://app?vid=8f8458a7-d63f-485d-b4e8-7b4f14400c95","ios":"levelo://app?vid=8f8458a7-d63f-485d-b4e8-7b4f14400c95"},"vehicle_type_id":"4","last_reported":1758312671,"current_range_meters":16800,"station_id":"ce4bh692rcd13ifvqea0","pricing_plan_id":"cebpf4jnsgd1na2vs0mg"},{"bike_id":"bbdb0b2f-bb6d-47cc-908f-75f08add81ea","system_id":"levelo_inurba_marseille","lat":43.29177,"lon":5.37158,"is_reserved":false,"is_disabled":false,"rental_uris":{"android":"levelo://app?vid=bbdb0b2f-bb6d-47cc-908f-75f08add81ea","ios":"levelo://app?vid=bbdb0b2f-bb6d-47cc-908f-75f08add81ea"},"vehicle_type_id":"4","last_reported":1758312671,"current_range_meters":16800,"station_id":"ce4bha92rcd13ifvqeh0","pricing_plan_id":"cebpf4jnsgd1na2vs0mg"},{"bike_id":"039c3eec-9f3a-4c2e-af73-085933b8065c","system_id":"levelo_inurba_marseille","lat":43.3117,"lon":5.38718,"is_reserved":false,"is_disabled":false,"rental_uris":{"android":"levelo://app?vid=039c3eec-9f3a-4c2e-af73-085933b8065c","ios":"levelo://app?vid=039c3eec-9f3a-4c2e-af73-085933b8065c"},"vehicle_type_id":"4","last_reported":1758312671,"current_range_meters":16800,"station_id":"ce4bgv12rcd13ifvqcp0","pricing_plan_id":"cebpf4jnsgd1na2vs0mg"},{"bike_id":"0199f79d-4ea5-4aeb-bc01-0823c6a659a9","system_id":"levelo_inurba_marseille","lat":43.29266,"lon":5.38453,"is_reserved":false,"is_disabled":false,"rental_uris":{"android":"levelo://app?vid=0199f79d-4ea5-4aeb-bc01-0823c6a659a9","ios":"levelo://app?vid=0199f79d-4ea5-4aeb-bc01-0823c6a659a9"},"vehicle_type_id":"4","last_reported":1758312671,"current_range_meters":16800,"station_id":"ce4bh692rcd13ifvqea0","pricing_plan_id":"cebpf4jnsgd1na2vs0mg"},{"bike_id":"05ca0aa0-5596-4971-a0c3-94e65df6bd50","system_id":"levelo_inurba_marseille","lat":43.22569,"lon":5.41634,"is_reserved":false,"is_disabled":false,"rental_uris":{"android":"levelo://app?vid=05ca0aa0-5596-4971-a0c3-94e65df6bd50","ios":"levelo://app?vid=05ca0aa0-5596-4971-a0c3-94e65df6bd50"},"vehicle_type_id":"4","last_reported":1758312671,"current_range_meters":16800,"station_id":"st_d2o4gvlbi1j2169b742g","pricing_plan_id":"cebpf4jnsgd1na2vs0mg"},{"bike_id":"fe88b160-fe9b-426c-9532-d75c476c785a","system_id":"levelo_inurba_marseille","lat":43.28943,"lon":5.36628,"is_reserved":false,"is_disabled":false,"rental_uris":{"android":"levelo://app?vid=fe88b160-fe9b-426c-9532-d75c476c785a","ios":"levelo://app?vid=fe88b160-fe9b-426c-9532-d75c476c785a"},"vehicle_type_id":"4","last_reported":1758312671,"current_range_meters":16800,"station_id":"ce4bhap2rcd13ifvqek0","pricing_plan_id":"cebpf4jnsgd1na2vs0mg"},{"bike_id":"7c6c39b1-f16d-4724-96c0-57f2da0d0a53","system_id":"levelo_inurba_marseille","lat":43.30196,"lon":5.39467,"is_reserved":false,"is_disabled":false,"rental_uris":{"android":"levelo://app?vid=7c6c39b1-f16d-4724-96c0-57f2da0d0a53","ios":"levelo://app?vid=7c6c39b1-f16d-4724-96c0-57f2da0d0a53"},"vehicle_type_id":"4","last_reported":1758312671,"current_range_meters":16800,"station_id":"ce4bh0p2rcd13ifvqd70","pricing_plan_id":"cebpf4jnsgd1na2vs0mg"},{"bike_id":"6594bb4d-c8f1-4e49-92de-4d91ca112026","system_id":"levelo_inurba_marseille","lat":43.26191,"lon":5.37448,"is_reserved":false,"is_disabled":false,"rental_uris":{"android":"levelo://app?vid=6594bb4d-c8f1-4e49-92de-4d91ca112026","ios":"levelo://app?vid=6594bb4d-c8f1-4e49-92de-4d91ca112026"},"vehicle_type_id":"4","last_reported":1758312671,"current_range_meters":16800,"station_id":"ce4bhgp2rcd13ifvqfc0","pricing_plan_id":"cebpf4jnsgd1na2vs0mg"},{"bike_id":"83b539a3-91bf-4656-97e2-97f2b59ec8d1","system_id":"levelo_inurba_marseille","lat":43.293134,"lon":5.371819,"is_reserved":false,"is_disabled":false,"rental_uris":{"android":"levelo://app?vid=83b539a3-91bf-4656-97e2-97f2b59ec8d1","ios":"levelo://app?vid=83b539a3-91bf-4656-97e2-97f2b59ec8d1"},"vehicle_type_id":"4","last_reported":1758312671,"current_range_meters":16800,"station_id":"ce4bgh92rcd13ifvqb40","pricing_plan_id":"cebpf4jnsgd1na2vs0mg"},{"bike_id":"63dcd695-0ebb-493b-b771-f0687d25bd43","system_id":"levelo_inurba_marseille","lat":43.29249,"lon":5.37641,"is_reserved":false,"is_disabled":false,"rental_uris":{"android":"levelo://app?vid=63dcd695-0ebb-493b-b771-f0687d25bd43","ios":"levelo://app?vid=63dcd695-0ebb-493b-b771-f0687d25bd43"},"vehicle_type_id":"4","last_reported":1758312671,"current_range_meters":16800,"station_id":"ce4bgi12rcd13ifvqb80","pricing_plan_id":"cebpf4jnsgd1na2vs0mg"},{"bike_id":"33a2c037-09e1-4c03-b75b-cb17a97ba9a7","system_id":"levelo_inurba_marseille","lat":43.28466,"lon":5.38422,"is_reserved":false,"is_disabled":false,"rental_uris":{"android":"levelo://app?vid=33a2c037-09e1-4c03-b75b-cb17a97ba9a7","ios":"levelo://app?vid=33a2c037-09e1-4c03-b75b-cb17a97ba9a7"},"vehicle_type_id":"4","last_reported":1758312671,"current_range_meters":17200,"station_id":"ce4bh512rcd13ifvqe3g","pricing_plan_id":"cebpf4jnsgd1na2vs0mg"},{"bike_id":"b810ec46-97ab-4356-95f9-0c9d02506d5a","system_id":"levelo_inurba_marseille","lat":43.24458,"lon":5.39039,"is_reserved":false,"is_disabled":false,"rental_uris":{"android":"levelo://app?vid=b810ec46-97ab-4356-95f9-0c9d02506d5a","ios":"levelo://app?vid=b810ec46-97ab-4356-95f9-0c9d02506d5a"},"vehicle_type_id":"4","last_reported":1758312671,"current_range_meters":17200,"station_id":"","pricing_plan_id":"cebpf4jnsgd1na2vs0mg"},{"bike_id":"56975eb0-de58-4eee-bb76-c1ecb40f5858","system_id":"levelo_inurba_marseille","lat":43.31111,"lon":5.3777,"is_reserved":false,"is_disabled":false,"rental_uris":{"android":"levelo://app?vid=56975eb0-de58-4eee-bb76-c1ecb40f5858","ios":"levelo://app?vid=56975eb0-de58-4eee-bb76-c1ecb40f5858"},"vehicle_type_id":"4","last_reported":1758312671,"current_range_meters":17200,"station_id":"ce4bgt92rcd13ifvqcg0","pricing_plan_id":"cebpf4jnsgd1na2vs0mg"},{"bike_id":"014b859c-8e48-4671-b9c1-4ee13801e82d","system_id":"levelo_inurba_marseille","lat":43.29283,"lon":5.38463,"is_reserved":false,"is_disabled":false,"rental_uris":{"android":"levelo://app?vid=014b859c-8e48-4671-b9c1-4ee13801e82d","ios":"levelo://app?vid=014b859c-8e48-4671-b9c1-4ee13801e82d"},"vehicle_type_id":"4","last_reported":1758312671,"current_range_meters":17200,"station_id":"ce4bh692rcd13ifvqea0","pricing_plan_id":"cebpf4jnsgd1na2vs0mg"},{"bike_id":"d5d23d0f-debb-4d52-ba83-86a84f2b45d4","system_id":"levelo_inurba_marseille","lat":43.29512,"lon":5.39405,"is_reserved":false,"is_disabled":false,"rental_uris":{"android":"levelo://app?vid=d5d23d0f-debb-4d52-ba83-86a84f2b45d4","ios":"levelo://app?vid=d5d23d0f-debb-4d52-ba83-86a84f2b45d4"},"vehicle_type_id":"4","last_reported":1758312671,"current_range_meters":17200,"station_id":"ce4bh292rcd13ifvqdf0","pricing_plan_id":"cebpf4jnsgd1na2vs0mg"},{"bike_id":"1b0b3f72-3ff3-49b0-a3e4-cc6be8e494bc","system_id":"levelo_inurba_marseille","lat":43.29786,"lon":5.38098,"is_reserved":false,"is_disabled":false,"rental_uris":{"android":"levelo://app?vid=1b0b3f72-3ff3-49b0-a3e4-cc6be8e494bc","ios":"levelo://app?vid=1b0b3f72-3ff3-49b0-a3e4-cc6be8e494bc"},"vehicle_type_id":"4","last_reported":1758312671,"current_range_meters":17200,"station_id":"ce4bgip2rcd13ifvqbb0","pricing_plan_id":"cebpf4jnsgd1na2vs0mg"},{"bike_id":"c06bcee9-4c48-4560-948b-c2c4741b91d9","system_id":"levelo_inurba_marseille","lat":43.28838,"lon":5.3933,"is_reserved":false,"is_disabled":false,"rental_uris":{"android":"levelo://app?vid=c06bcee9-4c48-4560-948b-c2c4741b91d9","ios":"levelo://app?vid=c06bcee9-4c48-4560-948b-c2c4741b91d9"},"vehicle_type_id":"4","last_reported":1758312671,"current_range_meters":17200,"station_id":"ce4bh2p2rcd13ifvqdi0","pricing_plan_id":"cebpf4jnsgd1na2vs0mg"},{"bike_id":"55d1bc08-fd54-4a82-afc7-2adcaa7b1c4e","system_id":"levelo_inurba_marseille","lat":43.30033,"lon":5.37702,"is_reserved":false,"is_disabled":false,"rental_uris":{"android":"levelo://app?vid=55d1bc08-fd54-4a82-afc7-2adcaa7b1c4e","ios":"levelo://app?vid=55d1bc08-fd54-4a82-afc7-2adcaa7b1c4e"},"vehicle_type_id":"4","last_reported":1758312671,"current_range_meters":17200,"station_id":"","pricing_plan_id":"cebpf4jnsgd1na2vs0mg"},{"bike_id":"74be8966-8d9f-4462-a6ee-04df0145586d","system_id":"levelo_inurba_marseille","lat":43.29251,"lon":5.40926,"is_reserved":false,"is_disabled":true,"rental_uris":{"android":"levelo://app?vid=74be8966-8d9f-4462-a6ee-04df0145586d","ios":"levelo://app?vid=74be8966-8d9f-4462-a6ee-04df0145586d"},"vehicle_type_id":"4","last_reported":1758312671,"current_range_meters":17200,"station_id":"ce4bh192rcd13ifvqdc0","pricing_plan_id":"cebpf4jnsgd1na2vs0mg"},{"bike_id":"7350bc28-cc44-46bb-be47-095f1c603137","system_id":"levelo_inurba_marseille","lat":43.29529,"lon":5.394,"is_reserved":false,"is_disabled":false,"rental_uris":{"android":"levelo://app?vid=7350bc28-cc44-46bb-be47-095f1c603137","ios":"levelo://app?vid=7350bc28-cc44-46bb-be47-095f1c603137"},"vehicle_type_id":"4","last_reported":1758312671,"current_range_meters":17200,"station_id":"ce4bh292rcd13ifvqdf0","pricing_plan_id":"cebpf4jnsgd1na2vs0mg"},{"bike_id":"2a00cb84-e9e6-4781-804d-0494d7480777","system_id":"levelo_inurba_marseille","lat":43.22554,"lon":5.41632,"is_reserved":false,"is_disabled":false,"rental_uris":{"android":"levelo://app?vid=2a00cb84-e9e6-4781-804d-0494d7480777","ios":"levelo://app?vid=2a00cb84-e9e6-4781-804d-0494d7480777"},"vehicle_type_id":"4","last_reported":1758312671,"current_range_meters":17600,"station_id":"st_d2o4gvlbi1j2169b742g","pricing_plan_id":"cebpf4jnsgd1na2vs0mg"},{"bike_id":"4c45a21d-0e8a-4611-8924-01ba8e4775bc","system_id":"levelo_inurba_marseille","lat":43.29307,"lon":5.37181,"is_reserved":false,"is_disabled":false,"rental_uris":{"android":"levelo://app?vid=4c45a21d-0e8a-4611-8924-01ba8e4775bc","ios":"levelo://app?vid=4c45a21d-0e8a-4611-8924-01ba8e4775bc"},"vehicle_type_id":"4","last_reported":1758312671,"current_range_meters":17600,"station_id":"ce4bgh92rcd13ifvqb40","pricing_plan_id":"cebpf4jnsgd1na2vs0mg"},{"bike_id":"0f7caa9f-1d1a-40d7-9b4a-2f8720e63681","system_id":"levelo_inurba_marseille","lat":43.30863,"lon":5.37526,"is_reserved":false,"is_disabled":false,"rental_uris":{"android":"levelo://app?vid=0f7caa9f-1d1a-40d7-9b4a-2f8720e63681","ios":"levelo://app?vid=0f7caa9f-1d1a-40d7-9b4a-2f8720e63681"},"vehicle_type_id":"4","last_reported":1758312671,"current_range_meters":17600,"station_id":"","pricing_plan_id":"cebpf4jnsgd1na2vs0mg"},{"bike_id":"2c734c36-442f-468e-ab47-e34ad5183e32","system_id":"levelo_inurba_marseille","lat":43.25772,"lon":5.41047,"is_reserved":false,"is_disabled":false,"rental_uris":{"android":"levelo://app?vid=2c734c36-442f-468e-ab47-e34ad5183e32","ios":"levelo://app?vid=2c734c36-442f-468e-ab47-e34ad5183e32"},"vehicle_type_id":"4","last_reported":1758312671,"current_range_meters":17600,"station_id":"","pricing_plan_id":"cebpf4jnsgd1na2vs0mg"},{"bike_id":"c127c150-5710-42e5-9e3e-b9dffaef2fdf","system_id":"levelo_inurba_marseille","lat":43.29043,"lon":5.38662,"is_reserved":false,"is_disabled":false,"rental_uris":{"android":"levelo://app?vid=c127c150-5710-42e5-9e3e-b9dffaef2fdf","ios":"levelo://app?vid=c127c150-5710-42e5-9e3e-b9dffaef2fdf"},"vehicle_type_id":"4","last_reported":1758312671,"current_range_meters":17600,"station_id":"ce4bh4p2rcd13ifvqe0g","pricing_plan_id":"cebpf4jnsgd1na2vs0mg"},{"bike_id":"55cfff58-e8f8-47d1-aea5-1cb432d24ecf","system_id":"levelo_inurba_marseille","lat":43.292624,"lon":5.384468,"is_reserved":false,"is_disabled":false,"rental_uris":{"android":"levelo://app?vid=55cfff58-e8f8-47d1-aea5-1cb432d24ecf","ios":"levelo://app?vid=55cfff58-e8f8-47d1-aea5-1cb432d24ecf"},"vehicle_type_id":"4","last_reported":1758312671,"current_range_meters":17600,"station_id":"ce4bh692rcd13ifvqea0","pricing_plan_id":"cebpf4jnsgd1na2vs0mg"},{"bike_id":"d39a9131-8908-4936-b47a-51dd08fb7815","system_id":"levelo_inurba_marseille","lat":43.29597,"lon":5.38106,"is_reserved":false,"is_disabled":false,"rental_uris":{"android":"levelo://app?vid=d39a9131-8908-4936-b47a-51dd08fb7815","ios":"levelo://app?vid=d39a9131-8908-4936-b47a-51dd08fb7815"},"vehicle_type_id":"4","last_reported":1758312671,"current_range_meters":17200,"station_id":"ce4bgl12rcd13ifvqbo0","pricing_plan_id":"cebpf4jnsgd1na2vs0mg"},{"bike_id":"375f1086-376e-46a4-ac8a-31c6cfb4cc1b","system_id":"levelo_inurba_marseille","lat":43.27992,"lon":5.4167,"is_reserved":false,"is_disabled":false,"rental_uris":{"android":"levelo://app?vid=375f1086-376e-46a4-ac8a-31c6cfb4cc1b","ios":"levelo://app?vid=375f1086-376e-46a4-ac8a-31c6cfb4cc1b"},"vehicle_type_id":"4","last_reported":1758312671,"current_range_meters":17600,"station_id":"ce4bho12rcd13ifvqh1g","pricing_plan_id":"cebpf4jnsgd1na2vs0mg"},{"bike_id":"40c2ecc5-9f78-492a-aaa4-dee93f068c4a","system_id":"levelo_inurba_marseille","lat":43.29611,"lon":5.37154,"is_reserved":false,"is_disabled":false,"rental_uris":{"android":"levelo://app?vid=40c2ecc5-9f78-492a-aaa4-dee93f068c4a","ios":"levelo://app?vid=40c2ecc5-9f78-492a-aaa4-dee93f068c4a"},"vehicle_type_id":"4","last_reported":1758312671,"current_range_meters":17600,"station_id":"ce4bgnh2rcd13ifvqc0g","pricing_plan_id":"cebpf4jnsgd1na2vs0mg"},{"bike_id":"58ec57d0-0fb6-4a89-9d42-84862117fe57","system_id":"levelo_inurba_marseille","lat":43.29278,"lon":5.38442,"is_reserved":false,"is_disabled":false,"rental_uris":{"android":"levelo://app?vid=58ec57d0-0fb6-4a89-9d42-84862117fe57","ios":"levelo://app?vid=58ec57d0-0fb6-4a89-9d42-84862117fe57"},"vehicle_type_id":"4","last_reported":1758312671,"current_range_meters":17600,"station_id":"ce4bh692rcd13ifvqea0","pricing_plan_id":"cebpf4jnsgd1na2vs0mg"},{"bike_id":"8e047761-4cb2-4fa7-920f-ce3feb6390f9","system_id":"levelo_inurba_marseille","lat":43.33759,"lon":5.37444,"is_reserved":false,"is_disabled":false,"rental_uris":{"android":"levelo://app?vid=8e047761-4cb2-4fa7-920f-ce3feb6390f9","ios":"levelo://app?vid=8e047761-4cb2-4fa7-920f-ce3feb6390f9"},"vehicle_type_id":"4","last_reported":1758312671,"current_range_meters":17600,"station_id":"","pricing_plan_id":"cebpf4jnsgd1na2vs0mg"},{"bike_id":"a07a513e-e5a9-4481-8592-d991379bc662","system_id":"levelo_inurba_marseille","lat":43.337536,"lon":5.374536,"is_reserved":false,"is_disabled":false,"rental_uris":{"android":"levelo://app?vid=a07a513e-e5a9-4481-8592-d991379bc662","ios":"levelo://app?vid=a07a513e-e5a9-4481-8592-d991379bc662"},"vehicle_type_id":"4","last_reported":1758312671,"current_range_meters":17600,"station_id":"","pricing_plan_id":"cebpf4jnsgd1na2vs0mg"},{"bike_id":"68adab37-f5ad-4072-b58a-fe6c68285ca6","system_id":"levelo_inurba_marseille","lat":43.30614,"lon":5.37668,"is_reserved":false,"is_disabled":false,"rental_uris":{"android":"levelo://app?vid=68adab37-f5ad-4072-b58a-fe6c68285ca6","ios":"levelo://app?vid=68adab37-f5ad-4072-b58a-fe6c68285ca6"},"vehicle_type_id":"4","last_reported":1758312671,"current_range_meters":18000,"station_id":"","pricing_plan_id":"cebpf4jnsgd1na2vs0mg"},{"bike_id":"2775b636-bdfc-4d28-af1a-13a8fb772790","system_id":"levelo_inurba_marseille","lat":43.29313,"lon":5.4016,"is_reserved":false,"is_disabled":false,"rental_uris":{"android":"levelo://app?vid=2775b636-bdfc-4d28-af1a-13a8fb772790","ios":"levelo://app?vid=2775b636-bdfc-4d28-af1a-13a8fb772790"},"vehicle_type_id":"4","last_reported":1758312671,"current_range_meters":18000,"station_id":"ce4bh312rcd13ifvqdk0","pricing_plan_id":"cebpf4jnsgd1na2vs0mg"},{"bike_id":"b4eb8ad2-3215-4100-8be8-4ebbc5c9ab6f","system_id":"levelo_inurba_marseille","lat":43.31112,"lon":5.38997,"is_reserved":false,"is_disabled":false,"rental_uris":{"android":"levelo://app?vid=b4eb8ad2-3215-4100-8be8-4ebbc5c9ab6f","ios":"levelo://app?vid=b4eb8ad2-3215-4100-8be8-4ebbc5c9ab6f"},"vehicle_type_id":"4","last_reported":1758312671,"current_range_meters":18000,"station_id":"","pricing_plan_id":"cebpf4jnsgd1na2vs0mg"},{"bike_id":"b290eb3f-d929-4235-876e-b7db3d0e5680","system_id":"levelo_inurba_marseille","lat":43.26197,"lon":5.37935,"is_reserved":false,"is_disabled":false,"rental_uris":{"android":"levelo://app?vid=b290eb3f-d929-4235-876e-b7db3d0e5680","ios":"levelo://app?vid=b290eb3f-d929-4235-876e-b7db3d0e5680"},"vehicle_type_id":"4","last_reported":1758312671,"current_range_meters":18000,"station_id":"ce4bhjp2rcd13ifvqg90","pricing_plan_id":"cebpf4jnsgd1na2vs0mg"},{"bike_id":"4806da5a-67b2-4245-853a-7c8de74bc531","system_id":"levelo_inurba_marseille","lat":43.27067,"lon":5.4227,"is_reserved":false,"is_disabled":false,"rental_uris":{"android":"levelo://app?vid=4806da5a-67b2-4245-853a-7c8de74bc531","ios":"levelo://app?vid=4806da5a-67b2-4245-853a-7c8de74bc531"},"vehicle_type_id":"4","last_reported":1758312671,"current_range_meters":18000,"station_id":"ce4bhk92rcd13ifvqgb0","pricing_plan_id":"cebpf4jnsgd1na2vs0mg"},{"bike_id":"c66b6f7a-c916-4531-b279-82e55e34611d","system_id":"levelo_inurba_marseille","lat":43.29063,"lon":5.37186,"is_reserved":false,"is_disabled":false,"rental_uris":{"android":"levelo://app?vid=c66b6f7a-c916-4531-b279-82e55e34611d","ios":"levelo://app?vid=c66b6f7a-c916-4531-b279-82e55e34611d"},"vehicle_type_id":"4","last_reported":1758312671,"current_range_meters":18000,"station_id":"ce4bh5p2rcd13ifvqe4g","pricing_plan_id":"cebpf4jnsgd1na2vs0mg"},{"bike_id":"820b6674-61f1-4f23-9e19-854ba826eb91","system_id":"levelo_inurba_marseille","lat":43.2926,"lon":5.38446,"is_reserved":false,"is_disabled":false,"rental_uris":{"android":"levelo://app?vid=820b6674-61f1-4f23-9e19-854ba826eb91","ios":"levelo://app?vid=820b6674-61f1-4f23-9e19-854ba826eb91"},"vehicle_type_id":"4","last_reported":1758312671,"current_range_meters":18000,"station_id":"ce4bh692rcd13ifvqea0","pricing_plan_id":"cebpf4jnsgd1na2vs0mg"},{"bike_id":"c7375894-39d4-4577-bb77-7d1d0849fd65","system_id":"levelo_inurba_marseille","lat":43.28705,"lon":5.37929,"is_reserved":false,"is_disabled":false,"rental_uris":{"android":"levelo://app?vid=c7375894-39d4-4577-bb77-7d1d0849fd65","ios":"levelo://app?vid=c7375894-39d4-4577-bb77-7d1d0849fd65"},"vehicle_type_id":"4","last_reported":1758312671,"current_range_meters":18000,"station_id":"ce4bh9p2rcd13ifvqec0","pricing_plan_id":"cebpf4jnsgd1na2vs0mg"},{"bike_id":"2d7a5f07-6cc7-4a21-a450-10b61914a1c5","system_id":"levelo_inurba_marseille","lat":43.29519,"lon":5.38536,"is_reserved":false,"is_disabled":false,"rental_uris":{"android":"levelo://app?vid=2d7a5f07-6cc7-4a21-a450-10b61914a1c5","ios":"levelo://app?vid=2d7a5f07-6cc7-4a21-a450-10b61914a1c5"},"vehicle_type_id":"4","last_reported":1758312671,"current_range_meters":18000,"station_id":"ce4bgih2rcd13ifvqba0","pricing_plan_id":"cebpf4jnsgd1na2vs0mg"},{"bike_id":"f81f7210-d076-4849-a5d3-3f41f004862e","system_id":"levelo_inurba_marseille","lat":43.28152,"lon":5.42639,"is_reserved":false,"is_disabled":false,"rental_uris":{"android":"levelo://app?vid=f81f7210-d076-4849-a5d3-3f41f004862e","ios":"levelo://app?vid=f81f7210-d076-4849-a5d3-3f41f004862e"},"vehicle_type_id":"4","last_reported":1758312671,"current_range_meters":18800,"station_id":"ce4bhnh2rcd13ifvqgug","pricing_plan_id":"cebpf4jnsgd1na2vs0mg"},{"bike_id":"30f843b6-e53c-438c-99ee-81ca85ffcac7","system_id":"levelo_inurba_marseille","lat":43.24072,"lon":5.37764,"is_reserved":false,"is_disabled":false,"rental_uris":{"android":"levelo://app?vid=30f843b6-e53c-438c-99ee-81ca85ffcac7","ios":"levelo://app?vid=30f843b6-e53c-438c-99ee-81ca85ffcac7"},"vehicle_type_id":"4","last_reported":1758312671,"current_range_meters":18800,"station_id":"ce4bhnp2rcd13ifvqgvg","pricing_plan_id":"cebpf4jnsgd1na2vs0mg"},{"bike_id":"2f63393c-edc6-4110-b7c8-f5528479d222","system_id":"levelo_inurba_marseille","lat":43.30349,"lon":5.41878,"is_reserved":false,"is_disabled":false,"rental_uris":{"android":"levelo://app?vid=2f63393c-edc6-4110-b7c8-f5528479d222","ios":"levelo://app?vid=2f63393c-edc6-4110-b7c8-f5528479d222"},"vehicle_type_id":"4","last_reported":1758312671,"current_range_meters":18800,"station_id":"ce4bhop2rcd13ifvqh7g","pricing_plan_id":"cebpf4jnsgd1na2vs0mg"},{"bike_id":"c9105593-d948-408e-93e4-0a4bf28fd505","system_id":"levelo_inurba_marseille","lat":43.31328,"lon":5.39697,"is_reserved":false,"is_disabled":false,"rental_uris":{"android":"levelo://app?vid=c9105593-d948-408e-93e4-0a4bf28fd505","ios":"levelo://app?vid=c9105593-d948-408e-93e4-0a4bf28fd505"},"vehicle_type_id":"4","last_reported":1758312671,"current_range_meters":18800,"station_id":"ce4bgvp2rcd13ifvqcu0","pricing_plan_id":"cebpf4jnsgd1na2vs0mg"},{"bike_id":"8d7f54fa-43d0-47a4-a8f9-4021e5dbe002","system_id":"levelo_inurba_marseille","lat":43.31366,"lon":5.384937,"is_reserved":false,"is_disabled":false,"rental_uris":{"android":"levelo://app?vid=8d7f54fa-43d0-47a4-a8f9-4021e5dbe002","ios":"levelo://app?vid=8d7f54fa-43d0-47a4-a8f9-4021e5dbe002"},"vehicle_type_id":"4","last_reported":1758312671,"current_range_meters":18000,"station_id":"ce4bgt92rcd13ifvqcf0","pricing_plan_id":"cebpf4jnsgd1na2vs0mg"},{"bike_id":"cfd86c30-f0f4-4ef8-9b87-f3baf9ba1bc6","system_id":"levelo_inurba_marseille","lat":43.28734,"lon":5.37936,"is_reserved":false,"is_disabled":false,"rental_uris":{"android":"levelo://app?vid=cfd86c30-f0f4-4ef8-9b87-f3baf9ba1bc6","ios":"levelo://app?vid=cfd86c30-f0f4-4ef8-9b87-f3baf9ba1bc6"},"vehicle_type_id":"4","last_reported":1758312671,"current_range_meters":18800,"station_id":"ce4bh9p2rcd13ifvqec0","pricing_plan_id":"cebpf4jnsgd1na2vs0mg"},{"bike_id":"5d08312c-780c-424c-aac9-65f8ccfb5ace","system_id":"levelo_inurba_marseille","lat":43.25075,"lon":5.39496,"is_reserved":false,"is_disabled":false,"rental_uris":{"android":"levelo://app?vid=5d08312c-780c-424c-aac9-65f8ccfb5ace","ios":"levelo://app?vid=5d08312c-780c-424c-aac9-65f8ccfb5ace"},"vehicle_type_id":"4","last_reported":1758312671,"current_range_meters":18800,"station_id":"ce4bhm12rcd13ifvqgkg","pricing_plan_id":"cebpf4jnsgd1na2vs0mg"},{"bike_id":"e9dc7b85-2d85-4b1f-af64-f53ed304bdef","system_id":"levelo_inurba_marseille","lat":43.27901,"lon":5.38022,"is_reserved":false,"is_disabled":false,"rental_uris":{"android":"levelo://app?vid=e9dc7b85-2d85-4b1f-af64-f53ed304bdef","ios":"levelo://app?vid=e9dc7b85-2d85-4b1f-af64-f53ed304bdef"},"vehicle_type_id":"4","last_reported":1758312671,"current_range_meters":18800,"station_id":"ce4bhf92rcd13ifvqf50","pricing_plan_id":"cebpf4jnsgd1na2vs0mg"},{"bike_id":"7ea2d879-b0ae-4031-a4e0-dc06eaaa28dd","system_id":"levelo_inurba_marseille","lat":43.29846,"lon":5.362817,"is_reserved":false,"is_disabled":false,"rental_uris":{"android":"levelo://app?vid=7ea2d879-b0ae-4031-a4e0-dc06eaaa28dd","ios":"levelo://app?vid=7ea2d879-b0ae-4031-a4e0-dc06eaaa28dd"},"vehicle_type_id":"4","last_reported":1758312671,"current_range_meters":18800,"station_id":"ce4bgpp2rcd13ifvqc3g","pricing_plan_id":"cebpf4jnsgd1na2vs0mg"},{"bike_id":"ae2257f0-3060-45f7-992c-9003f5f85f0a","system_id":"levelo_inurba_marseille","lat":43.29533,"lon":5.39047,"is_reserved":false,"is_disabled":false,"rental_uris":{"android":"levelo://app?vid=ae2257f0-3060-45f7-992c-9003f5f85f0a","ios":"levelo://app?vid=ae2257f0-3060-45f7-992c-9003f5f85f0a"},"vehicle_type_id":"4","last_reported":1758312671,"current_range_meters":18800,"station_id":"ce4bh3p2rcd13ifvqdp0","pricing_plan_id":"cebpf4jnsgd1na2vs0mg"},{"bike_id":"4c512c99-c603-406d-888d-f907a60cc397","system_id":"levelo_inurba_marseille","lat":43.2319,"lon":5.39983,"is_reserved":false,"is_disabled":false,"rental_uris":{"android":"levelo://app?vid=4c512c99-c603-406d-888d-f907a60cc397","ios":"levelo://app?vid=4c512c99-c603-406d-888d-f907a60cc397"},"vehicle_type_id":"4","last_reported":1758312671,"current_range_meters":18800,"station_id":"ce4bhn12rcd13ifvqgqg","pricing_plan_id":"cebpf4jnsgd1na2vs0mg"},{"bike_id":"6f72b99b-ce32-4a38-83bd-472379356bd1","system_id":"levelo_inurba_marseille","lat":43.28039,"lon":5.36932,"is_reserved":false,"is_disabled":true,"rental_uris":{"android":"levelo://app?vid=6f72b99b-ce32-4a38-83bd-472379356bd1","ios":"levelo://app?vid=6f72b99b-ce32-4a38-83bd-472379356bd1"},"vehicle_type_id":"4","last_reported":1758312671,"current_range_meters":19200,"station_id":"ce4bha12rcd13ifvqef0","pricing_plan_id":"cebpf4jnsgd1na2vs0mg"},{"bike_id":"8933c0fc-152c-4327-8bf9-3ac3b8b4b8b4","system_id":"levelo_inurba_marseille","lat":43.307531,"lon":5.40055,"is_reserved":false,"is_disabled":false,"rental_uris":{"android":"levelo://app?vid=8933c0fc-152c-4327-8bf9-3ac3b8b4b8b4","ios":"levelo://app?vid=8933c0fc-152c-4327-8bf9-3ac3b8b4b8b4"},"vehicle_type_id":"4","last_reported":1758312671,"current_range_meters":19200,"station_id":"ce4bgvp2rcd13ifvqct0","pricing_plan_id":"cebpf4jnsgd1na2vs0mg"},{"bike_id":"2f09573f-08b2-4c22-8ede-c6a99dcfc297","system_id":"levelo_inurba_marseille","lat":43.29793,"lon":5.38086,"is_reserved":false,"is_disabled":false,"rental_uris":{"android":"levelo://app?vid=2f09573f-08b2-4c22-8ede-c6a99dcfc297","ios":"levelo://app?vid=2f09573f-08b2-4c22-8ede-c6a99dcfc297"},"vehicle_type_id":"4","last_reported":1758312671,"current_range_meters":19200,"station_id":"ce4bgip2rcd13ifvqbb0","pricing_plan_id":"cebpf4jnsgd1na2vs0mg"},{"bike_id":"d963dee9-71ac-481c-b682-cddcf35ce028","system_id":"levelo_inurba_marseille","lat":43.29528,"lon":5.38545,"is_reserved":false,"is_disabled":false,"rental_uris":{"android":"levelo://app?vid=d963dee9-71ac-481c-b682-cddcf35ce028","ios":"levelo://app?vid=d963dee9-71ac-481c-b682-cddcf35ce028"},"vehicle_type_id":"4","last_reported":1758312671,"current_range_meters":19200,"station_id":"ce4bgih2rcd13ifvqba0","pricing_plan_id":"cebpf4jnsgd1na2vs0mg"},{"bike_id":"97514a44-1f4d-4ae1-a270-04ca7b75c621","system_id":"levelo_inurba_marseille","lat":43.28862,"lon":5.42534,"is_reserved":false,"is_disabled":false,"rental_uris":{"android":"levelo://app?vid=97514a44-1f4d-4ae1-a270-04ca7b75c621","ios":"levelo://app?vid=97514a44-1f4d-4ae1-a270-04ca7b75c621"},"vehicle_type_id":"4","last_reported":1758312671,"current_range_meters":19200,"station_id":"","pricing_plan_id":"cebpf4jnsgd1na2vs0mg"},{"bike_id":"350ecd1e-d3c9-4d77-b370-39417df324b3","system_id":"levelo_inurba_marseille","lat":43.2902,"lon":5.38095,"is_reserved":false,"is_disabled":true,"rental_uris":{"android":"levelo://app?vid=350ecd1e-d3c9-4d77-b370-39417df324b3","ios":"levelo://app?vid=350ecd1e-d3c9-4d77-b370-39417df324b3"},"vehicle_type_id":"4","last_reported":1758312671,"current_range_meters":19200,"station_id":"ce4bh4p2rcd13ifvqe1g","pricing_plan_id":"cebpf4jnsgd1na2vs0mg"},{"bike_id":"d52e36f5-bd8d-4e28-b19e-e93ec83a4af9","system_id":"levelo_inurba_marseille","lat":43.29571,"lon":5.37522,"is_reserved":false,"is_disabled":false,"rental_uris":{"android":"levelo://app?vid=d52e36f5-bd8d-4e28-b19e-e93ec83a4af9","ios":"levelo://app?vid=d52e36f5-bd8d-4e28-b19e-e93ec83a4af9"},"vehicle_type_id":"4","last_reported":1758312671,"current_range_meters":19200,"station_id":"ce4bgh92rcd13ifvqb50","pricing_plan_id":"cebpf4jnsgd1na2vs0mg"},{"bike_id":"5314d76e-6761-463c-9d7a-edcaa9c2da84","system_id":"levelo_inurba_marseille","lat":43.29605,"lon":5.38097,"is_reserved":false,"is_disabled":false,"rental_uris":{"android":"levelo://app?vid=5314d76e-6761-463c-9d7a-edcaa9c2da84","ios":"levelo://app?vid=5314d76e-6761-463c-9d7a-edcaa9c2da84"},"vehicle_type_id":"4","last_reported":1758312671,"current_range_meters":19200,"station_id":"ce4bgl12rcd13ifvqbo0","pricing_plan_id":"cebpf4jnsgd1na2vs0mg"},{"bike_id":"dbea8c8a-e447-4990-9cb6-0bd0eee78c1d","system_id":"levelo_inurba_marseille","lat":43.250839,"lon":5.395188,"is_reserved":false,"is_disabled":false,"rental_uris":{"android":"levelo://app?vid=dbea8c8a-e447-4990-9cb6-0bd0eee78c1d","ios":"levelo://app?vid=dbea8c8a-e447-4990-9cb6-0bd0eee78c1d"},"vehicle_type_id":"4","last_reported":1758312671,"current_range_meters":19200,"station_id":"ce4bhm12rcd13ifvqgkg","pricing_plan_id":"cebpf4jnsgd1na2vs0mg"},{"bike_id":"70842802-a0db-484c-8b86-d6b8df62242c","system_id":"levelo_inurba_marseille","lat":43.281506,"lon":5.426494,"is_reserved":false,"is_disabled":false,"rental_uris":{"android":"levelo://app?vid=70842802-a0db-484c-8b86-d6b8df62242c","ios":"levelo://app?vid=70842802-a0db-484c-8b86-d6b8df62242c"},"vehicle_type_id":"4","last_reported":1758312671,"current_range_meters":18800,"station_id":"ce4bhnh2rcd13ifvqgug","pricing_plan_id":"cebpf4jnsgd1na2vs0mg"},{"bike_id":"f88b4161-1b77-4f0f-9c24-5240a1215cc2","system_id":"levelo_inurba_marseille","lat":43.31709,"lon":5.3775,"is_reserved":false,"is_disabled":false,"rental_uris":{"android":"levelo://app?vid=f88b4161-1b77-4f0f-9c24-5240a1215cc2","ios":"levelo://app?vid=f88b4161-1b77-4f0f-9c24-5240a1215cc2"},"vehicle_type_id":"4","last_reported":1758312671,"current_range_meters":19200,"station_id":"ce4bgth2rcd13ifvqch0","pricing_plan_id":"cebpf4jnsgd1na2vs0mg"},{"bike_id":"19613896-b63a-44bc-92e8-994deaddf924","system_id":"levelo_inurba_marseille","lat":43.22571,"lon":5.41642,"is_reserved":false,"is_disabled":false,"rental_uris":{"android":"levelo://app?vid=19613896-b63a-44bc-92e8-994deaddf924","ios":"levelo://app?vid=19613896-b63a-44bc-92e8-994deaddf924"},"vehicle_type_id":"4","last_reported":1758312671,"current_range_meters":19200,"station_id":"st_d2o4gvlbi1j2169b742g","pricing_plan_id":"cebpf4jnsgd1na2vs0mg"},{"bike_id":"6c2aa27c-d6ee-4f13-a5eb-70a627a736cd","system_id":"levelo_inurba_marseille","lat":43.293084,"lon":5.371785,"is_reserved":false,"is_disabled":false,"rental_uris":{"android":"levelo://app?vid=6c2aa27c-d6ee-4f13-a5eb-70a627a736cd","ios":"levelo://app?vid=6c2aa27c-d6ee-4f13-a5eb-70a627a736cd"},"vehicle_type_id":"4","last_reported":1758312671,"current_range_meters":19600,"station_id":"ce4bgh92rcd13ifvqb40","pricing_plan_id":"cebpf4jnsgd1na2vs0mg"},{"bike_id":"805747b4-02c5-4c6b-9d7e-ca58d54b740f","system_id":"levelo_inurba_marseille","lat":43.29265,"lon":5.38455,"is_reserved":false,"is_disabled":false,"rental_uris":{"android":"levelo://app?vid=805747b4-02c5-4c6b-9d7e-ca58d54b740f","ios":"levelo://app?vid=805747b4-02c5-4c6b-9d7e-ca58d54b740f"},"vehicle_type_id":"4","last_reported":1758312671,"current_range_meters":19600,"station_id":"ce4bh692rcd13ifvqea0","pricing_plan_id":"cebpf4jnsgd1na2vs0mg"},