{"last_updated":1729430077,"ttl":60,"version":"2.2","data":{"bikes":[{"bike_id":"134fce6e-3baf-47a9-97ea-46f9455db0a4","system_id":"levelo_inurba_marseille","lat":43.3113,"lon":5.37752,"is_reserved":false,"is_disabled":false,"rental_uris":{"android":"levelo://app?vid=134fce6e-3baf-47a9-97ea-46f9455db0a4","ios":"levelo://app?vid=134fce6e-3baf-47a9-97ea-46f9455db0a4"},"vehicle_type_id":"4","last_reported":1729430077,"current_range_meters":22800,"station_id":"ce4bgt92rcd13ifvqcg0","pricing_plan_id":"cebpf4jnsgd1na2vs0mg"},{"bike_id":"fe93bfb2-7aeb-4c17-8248-6549ba71e9ff","system_id":"levelo_inurba_marseille","lat":43.28272,"lon":5.35066,"is_reserved":false,"is_disabled":false,"rental_uris":{"android":"levelo://app?vid=fe93bfb2-7aeb-4c17-8248-6549ba71e9ff","ios":"levelo://app?vid=fe93bfb2-7aeb-4c17-8248-6549ba71e9ff"},"vehicle_type_id":"4","last_reported":1729430077,"current_range_meters":38000,"station_id":"ce4bhbp2rcd13ifvqerg","pricing_plan_id":"cebpf4jnsgd1na2vs0mg"},{"bike_id":"079f0eb0-2f43-406f-bfbc-68285c577f87","system_id":"levelo_inurba_marseille","lat":43.2815,"lon":5.42639,"is_reserved":false,"is_disabled":false,"rental_uris":{"android":"levelo://app?vid=079f0eb0-2f43-406f-bfbc-68285c577f87","ios":"levelo://app?vid=079f0eb0-2f43-406f-bfbc-68285c577f87"},"vehicle_type_id":"4","last_reported":1729430077,"current_range_meters":6800,"station_id":"ce4bhnh2rcd13ifvqgug","pricing_plan_id":"cebpf4jnsgd1na2vs0mg"},{"bike_id":"814a8b4c-43f0-4f31-87f7-0f70c081bccd","system_id":"levelo_inurba_marseille","lat":43.24811,"lon":5.37459,"is_reserved":false,"is_disabled":false,"rental_uris":{"android":"levelo://app?vid=814a8b4c-43f0-4f31-87f7-0f70c081bccd","ios":"levelo://app?vid=814a8b4c-43f0-4f31-87f7-0f70c081bccd"},"vehicle_type_id":"4","last_reported":1729430077,"current_range_meters":37600,"station_id":"ce4bhgh2rcd13ifvqfb0","pricing_plan_id":"cebpf4jnsgd1na2vs0mg"},{"bike_id":"9001fb5d-98b5-4853-81c8-2d90592bcfcb","system_id":"levelo_inurba_marseille","lat":43.28621,"lon":5.35102,"is_reserved":false,"is_disabled":false,"rental_uris":{"android":"levelo://app?vid=9001fb5d-98b5-4853-81c8-2d90592bcfcb","ios":"levelo://app?vid=9001fb5d-98b5-4853-81c8-2d90592bcfcb"},"vehicle_type_id":"4","last_reported":1729430077,"current_range_meters":2800,"station_id":"ce4bhch2rcd13ifvqeug","pricing_plan_id":"cebpf4jnsgd1na2vs0mg"},{"bike_id":"b1b04550-ebf9-4146-8dde-b5808ba457c1","system_id":"levelo_inurba_marseille","lat":43.29849,"lon":5.36287,"is_reserved":false,"is_disabled":false,"rental_uris":{"android":"levelo://app?vid=b1b04550-ebf9-4146-8dde-b5808ba457c1","ios":"levelo://app?vid=b1b04550-ebf9-4146-8dde-b5808ba457c1"},"vehicle_type_id":"4","last_reported":1729430077,"current_range_meters":38000,"station_id":"ce4bgpp2rcd13ifvqc3g","pricing_plan_id":"cebpf4jnsgd1na2vs0mg"},{"bike_id":"481d201b-0f9b-4ded-8406-5042d6b7a84b","system_id":"levelo_inurba_marseille","lat":43.239614,"lon":5.366244,"is_reserved":false,"is_disabled":false,"rental_uris":{"android":"levelo://app?vid=481d201b-0f9b-4ded-8406-5042d6b7a84b","ios":"levelo://app?vid=481d201b-0f9b-4ded-8406-5042d6b7a84b"},"vehicle_type_id":"4","last_reported":1729430077,"current_range_meters":28800,"station_id":"ce4bhi12rcd13ifvqfp0","pricing_plan_id":"cebpf4jnsgd1na2vs0mg"},{"bike_id":"3c542d24-c53e-4899-8c72-748e72210bc5","system_id":"levelo_inurba_marseille","lat":43.22926,"lon":5.35375,"is_reserved":false,"is_disabled":false,"rental_uris":{"android":"levelo://app?vid=3c542d24-c53e-4899-8c72-748e72210bc5","ios":"levelo://app?vid=3c542d24-c53e-4899-8c72-748e72210bc5"},"vehicle_type_id":"4","last_reported":1729430077,"current_range_meters":38000,"station_id":"cpo3532slgdg3j2ikp40","pricing_plan_id":"cebpf4jnsgd1na2vs0mg"},{"bike_id":"6967c4c2-f057-49d9-80b0-41170e417f9c","system_id":"levelo_inurba_marseille","lat":43.24072,"lon":5.37756,"is_reserved":false,"is_disabled":false,"rental_uris":{"android":"levelo://app?vid=6967c4c2-f057-49d9-80b0-41170e417f9c","ios":"levelo://app?vid=6967c4c2-f057-49d9-80b0-41170e417f9c"},"vehicle_type_id":"4","last_reported":1729430077,"current_range_meters":36400,"station_id":"ce4bhnp2rcd13ifvqgvg","pricing_plan_id":"cebpf4jnsgd1na2vs0mg"},{"bike_id":"8a73e7ba-a0f3-44c6-966e-e18fb2e0d01f","system_id":"levelo_inurba_marseille","lat":43.2417,"lon":5.36403,"is_reserved":false,"is_disabled":false,"rental_uris":{"android":"levelo://app?vid=8a73e7ba-a0f3-44c6-966e-e18fb2e0d01f","ios":"levelo://app?vid=8a73e7ba-a0f3-44c6-966e-e18fb2e0d01f"},"vehicle_type_id":"4","last_reported":1729430077,"current_range_meters":24000,"station_id":"cpo36qri1sfpv3e86is0","pricing_plan_id":"cebpf4jnsgd1na2vs0mg"},{"bike_id":"dfa34bab-96b7-4f7c-89c2-301229ba8900","system_id":"levelo_inurba_marseille","lat":43.28263,"lon":5.3505,"is_reserved":false,"is_disabled":false,"rental_uris":{"android":"levelo://app?vid=dfa34bab-96b7-4f7c-89c2-301229ba8900","ios":"levelo://app?vid=dfa34bab-96b7-4f7c-89c2-301229ba8900"},"vehicle_type_id":"4","last_reported":1729430077,"current_range_meters":27600,"station_id":"ce4bhbp2rcd13ifvqerg","pricing_plan_id":"cebpf4jnsgd1na2vs0mg"},{"bike_id":"1241789b-8c40-4aba-971b-7ee6409f09e2","system_id":"levelo_inurba_marseille","lat":43.289474,"lon":5.366375,"is_reserved":false,"is_disabled":false,"rental_uris":{"android":"levelo://app?vid=1241789b-8c40-4aba-971b-7ee6409f09e2","ios":"levelo://app?vid=1241789b-8c40-4aba-971b-7ee6409f09e2"},"vehicle_type_id":"4","last_reported":1729430077,"current_range_meters":13600,"station_id":"ce4bhah2rcd13ifvqei0","pricing_plan_id":"cebpf4jnsgd1na2vs0mg"},{"bike_id":"474ccd54-d884-4c48-ac27-1f7190ae4438","system_id":"levelo_inurba_marseille","lat":43.337216,"lon":5.391907,"is_reserved":false,"is_disabled":false,"rental_uris":{"android":"levelo://app?vid=474ccd54-d884-4c48-ac27-1f7190ae4438","ios":"levelo://app?vid=474ccd54-d884-4c48-ac27-1f7190ae4438"},"vehicle_type_id":"4","last_reported":1729430077,"current_range_meters":7200,"station_id":"ce4bhr92rcd13ifvqhsg","pricing_plan_id":"cebpf4jnsgd1na2vs0mg"},{"bike_id":"f75bac43-de1c-46ee-b029-720a38aa18a4","system_id":"levelo_inurba_marseille","lat":43.28617,"lon":5.35101,"is_reserved":false,"is_disabled":false,"rental_uris":{"android":"levelo://app?vid=f75bac43-de1c-46ee-b029-720a38aa18a4","ios":"levelo://app?vid=f75bac43-de1c-46ee-b029-720a38aa18a4"},"vehicle_type_id":"4","last_reported":1729430077,"current_range_meters":37600,"station_id":"ce4bhch2rcd13ifvqeug","pricing_plan_id":"cebpf4jnsgd1na2vs0mg"},{"bike_id":"f3a1a98a-74e4-4381-a51e-aa9d0c68bc2b","system_id":"levelo_inurba_marseille","lat":43.27373,"lon":5.36256,"is_reserved":false,"is_disabled":false,"rental_uris":{"android":"levelo://app?vid=f3a1a98a-74e4-4381-a51e-aa9d0c68bc2b","ios":"levelo://app?vid=f3a1a98a-74e4-4381-a51e-aa9d0c68bc2b"},"vehicle_type_id":"4","last_reported":1729430077,"current_range_meters":17200,"station_id":"ce4bhbh2rcd13ifvqeo0","pricing_plan_id":"cebpf4jnsgd1na2vs0mg"},{"bike_id":"3a64d01e-4e00-4303-b286-a78621b5a2f0","system_id":"levelo_inurba_marseille","lat":43.28615,"lon":5.35105,"is_reserved":false,"is_disabled":false,"rental_uris":{"android":"levelo://app?vid=3a64d01e-4e00-4303-b286-a78621b5a2f0","ios":"levelo://app?vid=3a64d01e-4e00-4303-b286-a78621b5a2f0"},"vehicle_type_id":"4","last_reported":1729430077,"current_range_meters":19200,"station_id":"ce4bhch2rcd13ifvqeug","pricing_plan_id":"cebpf4jnsgd1na2vs0mg"},{"bike_id":"3e5e7d2c-d26e-4d28-8fc0-200041f7a54e","system_id":"levelo_inurba_marseille","lat":43.2558,"lon":5.38226,"is_reserved":false,"is_disabled":false,"rental_uris":{"android":"levelo://app?vid=3e5e7d2c-d26e-4d28-8fc0-200041f7a54e","ios":"levelo://app?vid=3e5e7d2c-d26e-4d28-8fc0-200041f7a54e"},"vehicle_type_id":"4","last_reported":1729430077,"current_range_meters":34800,"station_id":"ce4bhih2rcd13ifvqfs0","pricing_plan_id":"cebpf4jnsgd1na2vs0mg"},{"bike_id":"3b0cf2a3-688b-4956-9503-451da1caf620","system_id":"levelo_inurba_marseille","lat":43.23195,"lon":5.35548,"is_reserved":false,"is_disabled":false,"rental_uris":{"android":"levelo://app?vid=3b0cf2a3-688b-4956-9503-451da1caf620","ios":"levelo://app?vid=3b0cf2a3-688b-4956-9503-451da1caf620"},"vehicle_type_id":"4","last_reported":1729430077,"current_range_meters":8800,"station_id":"ce4bhu92rcd13ifvqi70","pricing_plan_id":"cebpf4jnsgd1na2vs0mg"},{"bike_id":"9d912eba-02a5-41c2-8d48-c02ba9a29689","system_id":"levelo_inurba_marseille","lat":43.274994,"lon":5.424509,"is_reserved":false,"is_disabled":false,"rental_uris":{"android":"levelo://app?vid=9d912eba-02a5-41c2-8d48-c02ba9a29689","ios":"levelo://app?vid=9d912eba-02a5-41c2-8d48-c02ba9a29689"},"vehicle_type_id":"4","last_reported":1729430077,"current_range_meters":36000,"station_id":"ce4bhn92rcd13ifvqgrg","pricing_plan_id":"cebpf4jnsgd1na2vs0mg"},{"bike_id":"737be057-9ba2-45b6-a853-26bd8f2ebeef","system_id":"levelo_inurba_marseille","lat":43.33608,"lon":5.41026,"is_reserved":false,"is_disabled":false,"rental_uris":{"android":"levelo://app?vid=737be057-9ba2-45b6-a853-26bd8f2ebeef","ios":"levelo://app?vid=737be057-9ba2-45b6-a853-26bd8f2ebeef"},"vehicle_type_id":"4","last_reported":1729430077,"current_range_meters":28800,"station_id":"ce4bhqh2rcd13ifvqhmg","pricing_plan_id":"cebpf4jnsgd1na2vs0mg"},{"bike_id":"d85aed35-4005-4c2e-863d-273016e09085","system_id":"levelo_inurba_marseille","lat":43.24394,"lon":5.37059,"is_reserved":false,"is_disabled":false,"rental_uris":{"android":"levelo://app?vid=d85aed35-4005-4c2e-863d-273016e09085","ios":"levelo://app?vid=d85aed35-4005-4c2e-863d-273016e09085"},"vehicle_type_id":"4","last_reported":1729430077,"current_range_meters":30000,"station_id":"ce4bhhh2rcd13ifvqfk0","pricing_plan_id":"cebpf4jnsgd1na2vs0mg"},{"bike_id":"3088a234-d965-41fe-b535-ce80764242c4","system_id":"levelo_inurba_marseille","lat":43.29196,"lon":5.39308,"is_reserved":false,"is_disabled":false,"rental_uris":{"android":"levelo://app?vid=3088a234-d965-41fe-b535-ce80764242c4","ios":"levelo://app?vid=3088a234-d965-41fe-b535-ce80764242c4"},"vehicle_type_id":"4","last_reported":1729430077,"current_range_meters":38800,"station_id":"ce4bh192rcd13ifvqdd0","pricing_plan_id":"cebpf4jnsgd1na2vs0mg"},{"bike_id":"5b47cbfd-3740-4a35-b9bd-478cf093a87d","system_id":"levelo_inurba_marseille","lat":43.23955,"lon":5.36631,"is_reserved":false,"is_disabled":false,"rental_uris":{"android":"levelo://app?vid=5b47cbfd-3740-4a35-b9bd-478cf093a87d","ios":"levelo://app?vid=5b47cbfd-3740-4a35-b9bd-478cf093a87d"},"vehicle_type_id":"4","last_reported":1729430077,"current_range_meters":27600,"station_id":"ce4bhi12rcd13ifvqfp0","pricing_plan_id":"cebpf4jnsgd1na2vs0mg"},{"bike_id":"6c4fed87-6be3-4d97-9301-4412accaca73","system_id":"levelo_inurba_marseille","lat":43.23962,"lon":5.36638,"is_reserved":false,"is_disabled":false,"rental_uris":{"android":"levelo://app?vid=6c4fed87-6be3-4d97-9301-4412accaca73","ios":"levelo://app?vid=6c4fed87-6be3-4d97-9301-4412accaca73"},"vehicle_type_id":"4","last_reported":1729430077,"current_range_meters":39200,"station_id":"ce4bhi12rcd13ifvqfp0","pricing_plan_id":"cebpf4jnsgd1na2vs0mg"},{"bike_id":"95ac6734-531e-408b-b3d9-a4c518cfffda","system_id":"levelo_inurba_marseille","lat":43.26564,"lon":5.39013,"is_reserved":false,"is_disabled":false,"rental_uris":{"android":"levelo://app?vid=95ac6734-531e-408b-b3d9-a4c518cfffda","ios":"levelo://app?vid=95ac6734-531e-408b-b3d9-a4c518cfffda"},"vehicle_type_id":"4","last_reported":1729430077,"current_range_meters":20800,"station_id":"ce4bhe12rcd13ifvqf30","pricing_plan_id":"cebpf4jnsgd1na2vs0mg"},{"bike_id":"ab25e50e-031e-49b2-92c3-bc31c1e4e638","system_id":"levelo_inurba_marseille","lat":43.27977,"lon":5.41675,"is_reserved":false,"is_disabled":false,"rental_uris":{"android":"levelo://app?vid=ab25e50e-031e-49b2-92c3-bc31c1e4e638","ios":"levelo://app?vid=ab25e50e-031e-49b2-92c3-bc31c1e4e638"},"vehicle_type_id":"4","last_reported":1729430077,"current_range_meters":8800,"station_id":"ce4bho12rcd13ifvqh1g","pricing_plan_id":"cebpf4jnsgd1na2vs0mg"},{"bike_id":"68c3b495-e7ee-4078-a8d5-f024f4325fe9","system_id":"levelo_inurba_marseille","lat":43.26028,"lon":5.37546,"is_reserved":false,"is_disabled":false,"rental_uris":{"android":"levelo://app?vid=68c3b495-e7ee-4078-a8d5-f024f4325fe9","ios":"levelo://app?vid=68c3b495-e7ee-4078-a8d5-f024f4325fe9"},"vehicle_type_id":"4","last_reported":1729430077,"current_range_meters":28800,"station_id":"ce4bhgh2rcd13ifvqfa0","pricing_plan_id":"cebpf4jnsgd1na2vs0mg"},{"bike_id":"62319591-138a-49cd-884f-06ae91460ffc","system_id":"levelo_inurba_marseille","lat":43.28256,"lon":5.35071,"is_reserved":false,"is_disabled":false,"rental_uris":{"android":"levelo://app?vid=62319591-138a-49cd-884f-06ae91460ffc","ios":"levelo://app?vid=62319591-138a-49cd-884f-06ae91460ffc"},"vehicle_type_id":"4","last_reported":1729430077,"current_range_meters":23200,"station_id":"ce4bhbp2rcd13ifvqerg","pricing_plan_id":"cebpf4jnsgd1na2vs0mg"},{"bike_id":"57dd0012-e7c2-43e3-90a1-087125ac63fa","system_id":"levelo_inurba_marseille","lat":43.33753,"lon":5.37454,"is_reserved":false,"is_disabled":false,"rental_uris":{"android":"levelo://app?vid=57dd0012-e7c2-43e3-90a1-087125ac63fa","ios":"levelo://app?vid=57dd0012-e7c2-43e3-90a1-087125ac63fa"},"vehicle_type_id":"4","last_reported":1729430077,"current_range_meters":35200,"station_id":"","pricing_plan_id":"cebpf4jnsgd1na2vs0mg"},{"bike_id":"2ce7e9c4-33eb-40f4-a578-5274a9c10cfd","system_id":"levelo_inurba_marseille","lat":43.30797,"lon":5.381558,"is_reserved":false,"is_disabled":false,"rental_uris":{"android":"levelo://app?vid=2ce7e9c4-33eb-40f4-a578-5274a9c10cfd","ios":"levelo://app?vid=2ce7e9c4-33eb-40f4-a578-5274a9c10cfd"},"vehicle_type_id":"4","last_reported":1729430077,"current_range_meters":16400,"station_id":"ce4bgt12rcd13ifvqce0","pricing_plan_id":"cebpf4jnsgd1na2vs0mg"},{"bike_id":"c338d18c-15a5-4b37-ac29-3edabf4c3b12","system_id":"levelo_inurba_marseille","lat":43.24812,"lon":5.37458,"is_reserved":false,"is_disabled":false,"rental_uris":{"android":"levelo://app?vid=c338d18c-15a5-4b37-ac29-3edabf4c3b12","ios":"levelo://app?vid=c338d18c-15a5-4b37-ac29-3edabf4c3b12"},"vehicle_type_id":"4","last_reported":1729430077,"current_range_meters":17200,"station_id":"ce4bhgh2rcd13ifvqfb0","pricing_plan_id":"cebpf4jnsgd1na2vs0mg"},{"bike_id":"ac934a92-02aa-49ef-9ac5-da84e1307de8","system_id":"levelo_inurba_marseille","lat":43.28034,"lon":5.36939,"is_reserved":false,"is_disabled":false,"rental_uris":{"android":"levelo://app?vid=ac934a92-02aa-49ef-9ac5-da84e1307de8","ios":"levelo://app?vid=ac934a92-02aa-49ef-9ac5-da84e1307de8"},"vehicle_type_id":"4","last_reported":1729430077,"current_range_meters":30400,"station_id":"ce4bha12rcd13ifvqef0","pricing_plan_id":"cebpf4jnsgd1na2vs0mg"},{"bike_id":"5694eb7f-ac74-444e-8124-7b93c24b932f","system_id":"levelo_inurba_marseille","lat":43.28615,"lon":5.35101,"is_reserved":false,"is_disabled":false,"rental_uris":{"android":"levelo://app?vid=5694eb7f-ac74-444e-8124-7b93c24b932f","ios":"levelo://app?vid=5694eb7f-ac74-444e-8124-7b93c24b932f"},"vehicle_type_id":"4","last_reported":1729430077,"current_range_meters":16800,"station_id":"ce4bhch2rcd13ifvqeug","pricing_plan_id":"cebpf4jnsgd1na2vs0mg"},{"bike_id":"970ce056-93b7-4b51-889b-8fcf2f52c05f","system_id":"levelo_inurba_marseille","lat":43.24544,"lon":5.39518,"is_reserved":false,"is_disabled":false,"rental_uris":{"android":"levelo://app?vid=970ce056-93b7-4b51-889b-8fcf2f52c05f","ios":"levelo://app?vid=970ce056-93b7-4b51-889b-8fcf2f52c05f"},"vehicle_type_id":"4","last_reported":1729430077,"current_range_meters":8000,"station_id":"ce4bhlp2rcd13ifvqgjg","pricing_plan_id":"cebpf4jnsgd1na2vs0mg"},{"bike_id":"400f182b-cdd9-43e1-90a7-f30ff73f0bea","system_id":"levelo_inurba_marseille","lat":43.28153,"lon":5.42643,"is_reserved":false,"is_disabled":false,"rental_uris":{"android":"levelo://app?vid=400f182b-cdd9-43e1-90a7-f30ff73f0bea","ios":"levelo://app?vid=400f182b-cdd9-43e1-90a7-f30ff73f0bea"},"vehicle_type_id":"4","last_reported":1729430077,"current_range_meters":35200,"station_id":"ce4bhnh2rcd13ifvqgug","pricing_plan_id":"cebpf4jnsgd1na2vs0mg"},{"bike_id":"f96afb0d-5274-414c-affa-e3f8ac202d49","system_id":"levelo_inurba_marseille","lat":43.29174,"lon":5.37162,"is_reserved":false,"is_disabled":false,"rental_uris":{"android":"levelo://app?vid=f96afb0d-5274-414c-affa-e3f8ac202d49","ios":"levelo://app?vid=f96afb0d-5274-414c-affa-e3f8ac202d49"},"vehicle_type_id":"4","last_reported":1729430077,"current_range_meters":38000,"station_id":"ce4bha92rcd13ifvqeh0","pricing_plan_id":"cebpf4jnsgd1na2vs0mg"},{"bike_id":"93551c06-5385-40ec-abc4-95ae66e14663","system_id":"levelo_inurba_marseille","lat":43.28615,"lon":5.35108,"is_reserved":false,"is_disabled":false,"rental_uris":{"android":"levelo://app?vid=93551c06-5385-40ec-abc4-95ae66e14663","ios":"levelo://app?vid=93551c06-5385-40ec-abc4-95ae66e14663"},"vehicle_type_id":"4","last_reported":1729430077,"current_range_meters":28800,"station_id":"ce4bhch2rcd13ifvqeug","pricing_plan_id":"cebpf4jnsgd1na2vs0mg"},{"bike_id":"196626cd-238d-4d33-b02f-5b68db337528","system_id":"levelo_inurba_marseille","lat":43.22929,"lon":5.35372,"is_reserved":false,"is_disabled":false,"rental_uris":{"android":"levelo://app?vid=196626cd-238d-4d33-b02f-5b68db337528","ios":"levelo://app?vid=196626cd-238d-4d33-b02f-5b68db337528"},"vehicle_type_id":"4","last_reported":1729430077,"current_range_meters":14000,"station_id":"cpo3532slgdg3j2ikp40","pricing_plan_id":"cebpf4jnsgd1na2vs0mg"},{"bike_id":"343aa4d1-f953-489c-ab86-dc9d91d2a18b","system_id":"levelo_inurba_marseille","lat":43.30404,"lon":5.37016,"is_reserved":false,"is_disabled":false,"rental_uris":{"android":"levelo://app?vid=343aa4d1-f953-489c-ab86-dc9d91d2a18b","ios":"levelo://app?vid=343aa4d1-f953-489c-ab86-dc9d91d2a18b"},"vehicle_type_id":"4","last_reported":1729430077,"current_range_meters":24000,"station_id":"ce4bgnh2rcd13ifvqc0g","pricing_plan_id":"cebpf4jnsgd1na2vs0mg"},{"bike_id":"3fc3344c-8b02-4a3d-b256-2e7a5003b4bf","system_id":"levelo_inurba_marseille","lat":43.23965,"lon":5.36638,"is_reserved":false,"is_disabled":false,"rental_uris":{"android":"levelo://app?vid=3fc3344c-8b02-4a3d-b256-2e7a5003b4bf","ios":"levelo://app?vid=3fc3344c-8b02-4a3d-b256-2e7a5003b4bf"},"vehicle_type_id":"4","last_reported":1729430077,"current_range_meters":11600,"station_id":"ce4bhi12rcd13ifvqfp0","pricing_plan_id":"cebpf4jnsgd1na2vs0mg"},{"bike_id":"2a1fde0e-bc71-4609-af07-da7be9a6c2e6","system_id":"levelo_inurba_marseille","lat":43.30147,"lon":5.38058,"is_reserved":false,"is_disabled":false,"rental_uris":{"android":"levelo://app?vid=2a1fde0e-bc71-4609-af07-da7be9a6c2e6","ios":"levelo://app?vid=2a1fde0e-bc71-4609-af07-da7be9a6c2e6"},"vehicle_type_id":"4","last_reported":1729430077,"current_range_meters":38800,"station_id":"ce4bgjp2rcd13ifvqbh0","pricing_plan_id":"cebpf4jnsgd1na2vs0mg"},{"bike_id":"5bfc7830-ad11-4790-9142-faf964af193d","system_id":"levelo_inurba_marseille","lat":43.30787,"lon":5.37646,"is_reserved":false,"is_disabled":false,"rental_uris":{"android":"levelo://app?vid=5bfc7830-ad11-4790-9142-faf964af193d","ios":"levelo://app?vid=5bfc7830-ad11-4790-9142-faf964af193d"},"vehicle_type_id":"4","last_reported":1729430077,"current_range_meters":29600,"station_id":"ce4bgl92rcd13ifvqbq0","pricing_plan_id":"cebpf4jnsgd1na2vs0mg"},{"bike_id":"29860774-23e5-4183-a121-a141069e636e","system_id":"levelo_inurba_marseille","lat":43.2694,"lon":5.40256,"is_reserved":false,"is_disabled":false,"rental_uris":{"android":"levelo://app?vid=29860774-23e5-4183-a121-a141069e636e","ios":"levelo://app?vid=29860774-23e5-4183-a121-a141069e636e"},"vehicle_type_id":"4","last_reported":1729430077,"current_range_meters":14400,"station_id":"cjm6bp8fraef2m0cb0m0","pricing_plan_id":"cebpf4jnsgd1na2vs0mg"},{"bike_id":"fca55886-769e-4104-8bc2-0030b8dbff79","system_id":"levelo_inurba_marseille","lat":43.24078,"lon":5.37741,"is_reserved":false,"is_disabled":false,"rental_uris":{"android":"levelo://app?vid=fca55886-769e-4104-8bc2-0030b8dbff79","ios":"levelo://app?vid=fca55886-769e-4104-8bc2-0030b8dbff79"},"vehicle_type_id":"4","last_reported":1729430077,"current_range_meters":37600,"station_id":"ce4bhnp2rcd13ifvqgvg","pricing_plan_id":"cebpf4jnsgd1na2vs0mg"},{"bike_id":"c052e5f3-0f87-4988-9be5-74b491b82108","system_id":"levelo_inurba_marseille","lat":43.3248,"lon":5.36557,"is_reserved":false,"is_disabled":false,"rental_uris":{"android":"levelo://app?vid=c052e5f3-0f87-4988-9be5-74b491b82108","ios":"levelo://app?vid=c052e5f3-0f87-4988-9be5-74b491b82108"},"vehicle_type_id":"4","last_reported":1729430077,"current_range_meters":38800,"station_id":"ce4bhs12rcd13ifvqhvg","pricing_plan_id":"cebpf4jnsgd1na2vs0mg"},{"bike_id":"0240f6db-b683-4d70-bbea-d58f54da7a64","system_id":"levelo_inurba_marseille","lat":43.31757,"lon":5.39009,"is_reserved":false,"is_disabled":false,"rental_uris":{"android":"levelo://app?vid=0240f6db-b683-4d70-bbea-d58f54da7a64","ios":"levelo://app?vid=0240f6db-b683-4d70-bbea-d58f54da7a64"},"vehicle_type_id":"4","last_reported":1729430077,"current_range_meters":25200,"station_id":"ce4bgj92rcd13ifvqbd0","pricing_plan_id":"cebpf4jnsgd1na2vs0mg"},{"bike_id":"55b3a8f5-19d1-4d08-bf99-ccf2c312bc04","system_id":"levelo_inurba_marseille","lat":43.23184,"lon":5.35555,"is_reserved":false,"is_disabled":false,"rental_uris":{"android":"levelo://app?vid=55b3a8f5-19d1-4d08-bf99-ccf2c312bc04","ios":"levelo://app?vid=55b3a8f5-19d1-4d08-bf99-ccf2c312bc04"},"vehicle_type_id":"4","last_reported":1729430077,"current_range_meters":38000,"station_id":"ce4bhu92rcd13ifvqi70","pricing_plan_id":"cebpf4jnsgd1na2vs0mg"},{"bike_id":"6fdb3408-9f81-427f-b7ad-2e38ed24200c","system_id":"levelo_inurba_marseille","lat":43.292386,"lon":5.365401,"is_reserved":false,"is_disabled":false,"rental_uris":{"android":"levelo://app?vid=6fdb3408-9f81-427f-b7ad-2e38ed24200c","ios":"levelo://app?vid=6fdb3408-9f81-427f-b7ad-2e38ed24200c"},"vehicle_type_id":"4","last_reported":1729430077,"current_range_meters":8400,"station_id":"ce4bhbh2rcd13ifvqepg","pricing_plan_id":"cebpf4jnsgd1na2vs0mg"},{"bike_id":"43d24770-4ece-4a77-a029-fe46e9bde13b","system_id":"levelo_inurba_marseille","lat":43.31567,"lon":5.37417,"is_reserved":false,"is_disabled":false,"rental_uris":{"android":"levelo://app?vid=43d24770-4ece-4a77-a029-fe46e9bde13b","ios":"levelo://app?vid=43d24770-4ece-4a77-a029-fe46e9bde13b"},"vehicle_type_id":"4","last_reported":1729430077,"current_range_meters":36800,"station_id":"","pricing_plan_id":"cebpf4jnsgd1na2vs0mg"},{"bike_id":"6fa6d0c6-b682-45e4-b2e4-6359e476baaa","system_id":"levelo_inurba_marseille","lat":43.29398,"lon":5.40144,"is_reserved":false,"is_disabled":false,"rental_uris":{"android":"levelo://app?vid=6fa6d0c6-b682-45e4-b2e4-6359e476baaa","ios":"levelo://app?vid=6fa6d0c6-b682-45e4-b2e4-6359e476baaa"},"vehicle_type_id":"4","last_reported":1729430077,"current_range_meters":7200,"station_id":"ce4bhn92rcd13ifvqgrg","pricing_plan_id":"cebpf4jnsgd1na2vs0mg"},{"bike_id":"36a22f0e-0404-4c45-82de-d845f80feea7","system_id":"levelo_inurba_marseille","lat":43.28269,"lon":5.35072,"is_reserved":false,"is_disabled":false,"rental_uris":{"android":"levelo://app?vid=36a22f0e-0404-4c45-82de-d845f80feea7","ios":"levelo://app?vid=36a22f0e-0404-4c45-82de-d845f80feea7"},"vehicle_type_id":"4","last_reported":1729430077,"current_range_meters":17200,"station_id":"ce4bhbp2rcd13ifvqerg","pricing_plan_id":"cebpf4jnsgd1na2vs0mg"},{"bike_id":"766da900-471d-42f5-8cfa-8db494f945d7","system_id":"levelo_inurba_marseille","lat":43.28912,"lon":5.4605,"is_reserved":false,"is_disabled":false,"rental_uris":{"android":"levelo://app?vid=766da900-471d-42f5-8cfa-8db494f945d7","ios":"levelo://app?vid=766da900-471d-42f5-8cfa-8db494f945d7"},"vehicle_type_id":"4","last_reported":1729430077,"current_range_meters":24800,"station_id":"","pricing_plan_id":"cebpf4jnsgd1na2vs0mg"},{"bike_id":"8e27a1bb-94f1-4044-8b2a-a44b88f9fae1","system_id":"levelo_inurba_marseille","lat":43.28415,"lon":5.34983,"is_reserved":false,"is_disabled":false,"rental_uris":{"android":"levelo://app?vid=8e27a1bb-94f1-4044-8b2a-a44b88f9fae1","ios":"levelo://app?vid=8e27a1bb-94f1-4044-8b2a-a44b88f9fae1"},"vehicle_type_id":"4","last_reported":1729430077,"current_range_meters":40000,"station_id":"ce4bhbh2rcd13ifvqepg","pricing_plan_id":"cebpf4jnsgd1na2vs0mg"},{"bike_id":"982fb709-67ae-49de-b275-46debf7c71a7","system_id":"levelo_inurba_marseille","lat":43.2872,"lon":5.37938,"is_reserved":false,"is_disabled":false,"rental_uris":{"android":"levelo://app?vid=982fb709-67ae-49de-b275-46debf7c71a7","ios":"levelo://app?vid=982fb709-67ae-49de-b275-46debf7c71a7"},"vehicle_type_id":"4","last_reported":1729430077,"current_range_meters":6800,"station_id":"ce4bh9p2rcd13ifvqec0","pricing_plan_id":"cebpf4jnsgd1na2vs0mg"},{"bike_id":"cc10d048-9360-4f1c-b075-bd6d08c1c67a","system_id":"levelo_inurba_marseille","lat":43.24158,"lon":5.36403,"is_reserved":false,"is_disabled":false,"rental_uris":{"android":"levelo://app?vid=cc10d048-9360-4f1c-b075-bd6d08c1c67a","ios":"levelo://app?vid=cc10d048-9360-4f1c-b075-bd6d08c1c67a"},"vehicle_type_id":"4","last_reported":1729430077,"current_range_meters":14000,"station_id":"cpo36qri1sfpv3e86is0","pricing_plan_id":"cebpf4jnsgd1na2vs0mg"},{"bike_id":"ac25bc9c-1292-46af-9213-5958a6a1c001","system_id":"levelo_inurba_marseille","lat":43.28271,"lon":5.35064,"is_reserved":false,"is_disabled":false,"rental_uris":{"android":"levelo://app?vid=ac25bc9c-1292-46af-9213-5958a6a1c001","ios":"levelo://app?vid=ac25bc9c-1292-46af-9213-5958a6a1c001"},"vehicle_type_id":"4","last_reported":1729430077,"current_range_meters":33200,"station_id":"ce4bhbp2rcd13ifvqerg","pricing_plan_id":"cebpf4jnsgd1na2vs0mg"},{"bike_id":"153d98b9-b5db-4e04-93d6-b84e46e0cee9","system_id":"levelo_inurba_marseille","lat":43.2846,"lon":5.35898,"is_reserved":false,"is_disabled":false,"rental_uris":{"android":"levelo://app?vid=153d98b9-b5db-4e04-93d6-b84e46e0cee9","ios":"levelo://app?vid=153d98b9-b5db-4e04-93d6-b84e46e0cee9"},"vehicle_type_id":"4","last_reported":1729430077,"current_range_meters":38800,"station_id":"ce4bhah2rcd13ifvqei0","pricing_plan_id":"cebpf4jnsgd1na2vs0mg"},{"bike_id":"61aab6bf-f1b0-4966-a148-ea1e7445d90f","system_id":"levelo_inurba_marseille","lat":43.23959,"lon":5.36626,"is_reserved":false,"is_disabled":false,"rental_uris":{"android":"levelo://app?vid=61aab6bf-f1b0-4966-a148-ea1e7445d90f","ios":"levelo://app?vid=61aab6bf-f1b0-4966-a148-ea1e7445d90f"},"vehicle_type_id":"4","last_reported":1729430077,"current_range_meters":32000,"station_id":"ce4bhi12rcd13ifvqfp0","pricing_plan_id":"cebpf4jnsgd1na2vs0mg"},{"bike_id":"6c382ac5-83de-4408-86f0-585cec990ebc","system_id":"levelo_inurba_marseille","lat":43.24803,"lon":5.37454,"is_reserved":false,"is_disabled":false,"rental_uris":{"android":"levelo://app?vid=6c382ac5-83de-4408-86f0-585cec990ebc","ios":"levelo://app?vid=6c382ac5-83de-4408-86f0-585cec990ebc"},"vehicle_type_id":"4","last_reported":1729430077,"current_range_meters":6000,"station_id":"ce4bhgh2rcd13ifvqfb0","pricing_plan_id":"cebpf4jnsgd1na2vs0mg"},{"bike_id":"86a11198-6982-43fc-90bd-f6b9523ebc43","system_id":"levelo_inurba_marseille","lat":43.24392,"lon":5.37057,"is_reserved":false,"is_disabled":false,"rental_uris":{"android":"levelo://app?vid=86a11198-6982-43fc-90bd-f6b9523ebc43","ios":"levelo://app?vid=86a11198-6982-43fc-90bd-f6b9523ebc43"},"vehicle_type_id":"4","last_reported":1729430077,"current_range_meters":24800,"station_id":"ce4bhhh2rcd13ifvqfk0","pricing_plan_id":"cebpf4jnsgd1na2vs0mg"},{"bike_id":"556c727f-6769-40b4-8f94-345fbd71ff17","system_id":"levelo_inurba_marseille","lat":43.24391,"lon":5.3705,"is_reserved":false,"is_disabled":false,"rental_uris":{"android":"levelo://app?vid=556c727f-6769-40b4-8f94-345fbd71ff17","ios":"levelo://app?vid=556c727f-6769-40b4-8f94-345fbd71ff17"},"vehicle_type_id":"4","last_reported":1729430077,"current_range_meters":28800,"station_id":"ce4bhhh2rcd13ifvqfk0","pricing_plan_id":"cebpf4jnsgd1na2vs0mg"},{"bike_id":"dacfc94d-6140-480f-845a-f5ed00233451","system_id":"levelo_inurba_marseille","lat":43.23957,"lon":5.36635,"is_reserved":false,"is_disabled":false,"rental_uris":{"android":"levelo://app?vid=dacfc94d-6140-480f-845a-f5ed00233451","ios":"levelo://app?vid=dacfc94d-6140-480f-845a-f5ed00233451"},"vehicle_type_id":"4","last_reported":1729430077,"current_range_meters":12400,"station_id":"ce4bhi12rcd13ifvqfp0","pricing_plan_id":"cebpf4jnsgd1na2vs0mg"},{"bike_id":"cbfffc54-a436-4a22-bcbc-15d5fff991f3","system_id":"levelo_inurba_marseille","lat":43.31363,"lon":5.38488,"is_reserved":false,"is_disabled":false,"rental_uris":{"android":"levelo://app?vid=cbfffc54-a436-4a22-bcbc-15d5fff991f3","ios":"levelo://app?vid=cbfffc54-a436-4a22-bcbc-15d5fff991f3"},"vehicle_type_id":"4","last_reported":1729430077,"current_range_meters":37600,"station_id":"ce4bgt92rcd13ifvqcf0","pricing_plan_id":"cebpf4jnsgd1na2vs0mg"},{"bike_id":"7772d39f-5e28-445c-af91-069b0cf63793","system_id":"levelo_inurba_marseille","lat":43.33765,"lon":5.37438,"is_reserved":false,"is_disabled":false,"rental_uris":{"android":"levelo://app?vid=7772d39f-5e28-445c-af91-069b0cf63793","ios":"levelo://app?vid=7772d39f-5e28-445c-af91-069b0cf63793"},"vehicle_type_id":"4","last_reported":1729430077,"current_range_meters":4400,"station_id":"","pricing_plan_id":"cebpf4jnsgd1na2vs0mg"},{"bike_id":"2d44932c-c29a-4ec3-a5bd-10c30d9078a1","system_id":"levelo_inurba_marseille","lat":43.31065,"lon":5.38349,"is_reserved":false,"is_disabled":false,"rental_uris":{"android":"levelo://app?vid=2d44932c-c29a-4ec3-a5bd-10c30d9078a1","ios":"levelo://app?vid=2d44932c-c29a-4ec3-a5bd-10c30d9078a1"},"vehicle_type_id":"4","last_reported":1729430077,"current_range_meters":30000,"station_id":"ce4bgv92rcd13ifvqcr0","pricing_plan_id":"cebpf4jnsgd1na2vs0mg"},{"bike_id":"3213665e-989c-4d22-9f5a-31c8522597dd","system_id":"levelo_inurba_marseille","lat":43.296,"lon":5.36142,"is_reserved":false,"is_disabled":false,"rental_uris":{"android":"levelo://app?vid=3213665e-989c-4d22-9f5a-31c8522597dd","ios":"levelo://app?vid=3213665e-989c-4d22-9f5a-31c8522597dd"},"vehicle_type_id":"4","last_reported":1729430077,"current_range_meters":14800,"station_id":"","pricing_plan_id":"cebpf4jnsgd1na2vs0mg"},{"bike_id":"23bad941-e7bc-4f53-853a-62bdf995de8f","system_id":"levelo_inurba_marseille","lat":43.33025,"lon":5.39042,"is_reserved":false,"is_disabled":false,"rental_uris":{"android":"levelo://app?vid=23bad941-e7bc-4f53-853a-62bdf995de8f","ios":"levelo://app?vid=23bad941-e7bc-4f53-853a-62bdf995de8f"},"vehicle_type_id":"4","last_reported":1729430077,"current_range_meters":32800,"station_id":"ce4bhr92rcd13ifvqhrg","pricing_plan_id":"cebpf4jnsgd1na2vs0mg"},{"bike_id":"3f3c663d-a6fd-4091-8533-6c09ca965902","system_id":"levelo_inurba_marseille","lat":43.31184,"lon":5.37696,"is_reserved":false,"is_disabled":false,"rental_uris":{"android":"levelo://app?vid=3f3c663d-a6fd-4091-8533-6c09ca965902","ios":"levelo://app?vid=3f3c663d-a6fd-4091-8533-6c09ca965902"},"vehicle_type_id":"4","last_reported":1729430077,"current_range_meters":13600,"station_id":"","pricing_plan_id":"cebpf4jnsgd1na2vs0mg"},{"bike_id":"9a2117f0-c5b0-4dc2-891b-026a24af23f1","system_id":"levelo_inurba_marseille","lat":43.3105,"lon":5.40092,"is_reserved":false,"is_disabled":false,"rental_uris":{"android":"levelo://app?vid=9a2117f0-c5b0-4dc2-891b-026a24af23f1","ios":"levelo://app?vid=9a2117f0-c5b0-4dc2-891b-026a24af23f1"},"vehicle_type_id":"4","last_reported":1729430077,"current_range_meters":35600,"station_id":"","pricing_plan_id":"cebpf4jnsgd1na2vs0mg"},{"bike_id":"7d0bbfce-633d-47d1-974f-f3a665459ca7","system_id":"levelo_inurba_marseille","lat":43.240784,"lon":5.3776,"is_reserved":false,"is_disabled":false,"rental_uris":{"android":"levelo://app?vid=7d0bbfce-633d-47d1-974f-f3a665459ca7","ios":"levelo://app?vid=7d0bbfce-633d-47d1-974f-f3a665459ca7"},"vehicle_type_id":"4","last_reported":1729430077,"current_range_meters":3600,"station_id":"ce4bhnp2rcd13ifvqgvg","pricing_plan_id":"cebpf4jnsgd1na2vs0mg"},{"bike_id":"d7b172ab-6560-4406-a773-673175399ede","system_id":"levelo_inurba_marseille","lat":43.29676,"lon":5.37674,"is_reserved":false,"is_disabled":false,"rental_uris":{"android":"levelo://app?vid=d7b172ab-6560-4406-a773-673175399ede","ios":"levelo://app?vid=d7b172ab-6560-4406-a773-673175399ede"},"vehicle_type_id":"4","last_reported":1729430077,"current_range_meters":36800,"station_id":"ce4bgkh2rcd13ifvqbl0","pricing_plan_id":"cebpf4jnsgd1na2vs0mg"},{"bike_id":"4f3564c8-45e3-4cf6-9af1-a092e0fd137d","system_id":"levelo_inurba_marseille","lat":43.29099,"lon":5.38137,"is_reserved":false,"is_disabled":false,"rental_uris":{"android":"levelo://app?vid=4f3564c8-45e3-4cf6-9af1-a092e0fd137d","ios":"levelo://app?vid=4f3564c8-45e3-4cf6-9af1-a092e0fd137d"},"vehicle_type_id":"4","last_reported":1729430077,"current_range_meters":38400,"station_id":"ce4bh512rcd13ifvqe2g","pricing_plan_id":"cebpf4jnsgd1na2vs0mg"},{"bike_id":"29cca8ae-7289-4b5a-acc5-24d958e68af1","system_id":"levelo_inurba_marseille","lat":43.26196,"lon":5.37933,"is_reserved":false,"is_disabled":false,"rental_uris":{"android":"levelo://app?vid=29cca8ae-7289-4b5a-acc5-24d958e68af1","ios":"levelo://app?vid=29cca8ae-7289-4b5a-acc5-24d958e68af1"},"vehicle_type_id":"4","last_reported":1729430077,"current_range_meters":8800,"station_id":"ce4bhjp2rcd13ifvqg90","pricing_plan_id":"cebpf4jnsgd1na2vs0mg"},{"bike_id":"2a429aa6-0197-4f73-9dbd-b2b190eba55b","system_id":"levelo_inurba_marseille","lat":43.24072,"lon":5.37756,"is_reserved":false,"is_disabled":false,"rental_uris":{"android":"levelo://app?vid=2a429aa6-0197-4f73-9dbd-b2b190eba55b","ios":"levelo://app?vid=2a429aa6-0197-4f73-9dbd-b2b190eba55b"},"vehicle_type_id":"4","last_reported":1729430077,"current_range_meters":30000,"station_id":"ce4bhnp2rcd13ifvqgvg","pricing_plan_id":"cebpf4jnsgd1na2vs0mg"},{"bike_id":"a8a282b1-9a50-4f25-9751-2990000e7945","system_id":"levelo_inurba_marseille","lat":43.27378,"lon":5.36251,"is_reserved":false,"is_disabled":false,"rental_uris":{"android":"levelo://app?vid=a8a282b1-9a50-4f25-9751-2990000e7945","ios":"levelo://app?vid=a8a282b1-9a50-4f25-9751-2990000e7945"},"vehicle_type_id":"4","last_reported":1729430077,"current_range_meters":36800,"station_id":"ce4bhbh2rcd13ifvqeo0","pricing_plan_id":"cebpf4jnsgd1na2vs0mg"},{"bike_id":"f7b5f56c-96a1-445f-b511-773f0f01cf87","system_id":"levelo_inurba_marseille","lat":43.28156,"lon":5.42645,"is_reserved":false,"is_disabled":false,"rental_uris":{"android":"levelo://app?vid=f7b5f56c-96a1-445f-b511-773f0f01cf87","ios":"levelo://app?vid=f7b5f56c-96a1-445f-b511-773f0f01cf87"},"vehicle_type_id":"4","last_reported":1729430077,"current_range_meters":38400,"station_id":"ce4bhnh2rcd13ifvqgug","pricing_plan_id":"cebpf4jnsgd1na2vs0mg"},{"bike_id":"dc50ecbe-3136-44fc-b086-84b8eb6916cb","system_id":"levelo_inurba_marseille","lat":43.27495,"lon":5.42456,"is_reserved":false,"is_disabled":false,"rental_uris":{"android":"levelo://app?vid=dc50ecbe-3136-44fc-b086-84b8eb6916cb","ios":"levelo://app?vid=dc50ecbe-3136-44fc-b086-84b8eb6916cb"},"vehicle_type_id":"4","last_reported":1729430077,"current_range_meters":32800,"station_id":"ce4bhn92rcd13ifvqgrg","pricing_plan_id":"cebpf4jnsgd1na2vs0mg"},{"bike_id":"fac9a3a2-2dd0-4efd-afd6-73cc4f4edd9a","system_id":"levelo_inurba_marseille","lat":43.24813,"lon":5.37456,"is_reserved":false,"is_disabled":false,"rental_uris":{"android":"levelo://app?vid=fac9a3a2-2dd0-4efd-afd6-73cc4f4edd9a","ios":"levelo://app?vid=fac9a3a2-2dd0-4efd-afd6-73cc4f4edd9a"},"vehicle_type_id":"4","last_reported":1729430077,"current_range_meters":36800,"station_id":"ce4bhgh2rcd13ifvqfb0","pricing_plan_id":"cebpf4jnsgd1na2vs0mg"},{"bike_id":"4e006b74-4f54-4390-b8c4-42a740498ea9","system_id":"levelo_inurba_marseille","lat":43.23961,"lon":5.36627,"is_reserved":false,"is_disabled":false,"rental_uris":{"android":"levelo://app?vid=4e006b74-4f54-4390-b8c4-42a740498ea9","ios":"levelo://app?vid=4e006b74-4f54-4390-b8c4-42a740498ea9"},"vehicle_type_id":"4","last_reported":1729430077,"current_range_meters":28000,"station_id":"ce4bhi12rcd13ifvqfp0","pricing_plan_id":"cebpf4jnsgd1na2vs0mg"},{"bike_id":"5cfe91df-93c4-4327-b9ff-7a54cef24ee8","system_id":"levelo_inurba_marseille","lat":43.29031,"lon":5.37555,"is_reserved":false,"is_disabled":false,"rental_uris":{"android":"levelo://app?vid=5cfe91df-93c4-4327-b9ff-7a54cef24ee8","ios":"levelo://app?vid=5cfe91df-93c4-4327-b9ff-7a54cef24ee8"},"vehicle_type_id":"4","last_reported":1729430077,"current_range_meters":3200,"station_id":"ce4bh692rcd13ifvqe90","pricing_plan_id":"cebpf4jnsgd1na2vs0mg"},{"bike_id":"65bdf8a7-581b-4618-bccb-c8132147d71a","system_id":"levelo_inurba_marseille","lat":43.27562,"lon":5.3601,"is_reserved":false,"is_disabled":false,"rental_uris":{"android":"levelo://app?vid=65bdf8a7-581b-4618-bccb-c8132147d71a","ios":"levelo://app?vid=65bdf8a7-581b-4618-bccb-c8132147d71a"},"vehicle_type_id":"4","last_reported":1729430077,"current_range_meters":12000,"station_id":"","pricing_plan_id":"cebpf4jnsgd1na2vs0mg"},{"bike_id":"d28957ac-c8d1-4c58-ab81-e47e0ee6d9db","system_id":"levelo_inurba_marseille","lat":43.26195,"lon":5.37448,"is_reserved":false,"is_disabled":false,"rental_uris":{"android":"levelo://app?vid=d28957ac-c8d1-4c58-ab81-e47e0ee6d9db","ios":"levelo://app?vid=d28957ac-c8d1-4c58-ab81-e47e0ee6d9db"},"vehicle_type_id":"4","last_reported":1729430077,"current_range_meters":38400,"station_id":"ce4bhgp2rcd13ifvqfc0","pricing_plan_id":"cebpf4jnsgd1na2vs0mg"},{"bike_id":"d9ae6715-30a5-47f5-877d-30c4fdc8f15e","system_id":"levelo_inurba_marseille","lat":43.255,"lon":5.37651,"is_reserved":false,"is_disabled":false,"rental_uris":{"android":"levelo://app?vid=d9ae6715-30a5-47f5-877d-30c4fdc8f15e","ios":"levelo://app?vid=d9ae6715-30a5-47f5-877d-30c4fdc8f15e"},"vehicle_type_id":"4","last_reported":1729430077,"current_range_meters":12000,"station_id":"ce4bhh12rcd13ifvqff0","pricing_plan_id":"cebpf4jnsgd1na2vs0mg"},{"bike_id":"528fef3b-bb8b-42d1-985d-ca1adbc390f0","system_id":"levelo_inurba_marseille","lat":43.24386,"lon":5.3706,"is_reserved":false,"is_disabled":false,"rental_uris":{"android":"levelo://app?vid=528fef3b-bb8b-42d1-985d-ca1adbc390f0","ios":"levelo://app?vid=528fef3b-bb8b-42d1-985d-ca1adbc390f0"},"vehicle_type_id":"4","last_reported":1729430077,"current_range_meters":10000,"station_id":"ce4bhhh2rcd13ifvqfk0","pricing_plan_id":"cebpf4jnsgd1na2vs0mg"},{"bike_id":"e120d26e-05e1-4715-ac19-c809b2dd28da","system_id":"levelo_inurba_marseille","lat":43.33451,"lon":5.38961,"is_reserved":false,"is_disabled":false,"rental_uris":{"android":"levelo://app?vid=e120d26e-05e1-4715-ac19-c809b2dd28da","ios":"levelo://app?vid=e120d26e-05e1-4715-ac19-c809b2dd28da"},"vehicle_type_id":"4","last_reported":1729430077,"current_range_meters":35200,"station_id":"","pricing_plan_id":"cebpf4jnsgd1na2vs0mg"},{"bike_id":"18c301ac-deaf-4343-8e49-fc189399ddc0","system_id":"levelo_inurba_marseille","lat":43.28932,"lon":5.36392,"is_reserved":false,"is_disabled":false,"rental_uris":{"android":"levelo://app?vid=18c301ac-deaf-4343-8e49-fc189399ddc0","ios":"levelo://app?vid=18c301ac-deaf-4343-8e49-fc189399ddc0"},"vehicle_type_id":"4","last_reported":1729430077,"current_range_meters":24800,"station_id":"ce4bhc92rcd13ifvqetg","pricing_plan_id":"cebpf4jnsgd1na2vs0mg"},{"bike_id":"4cf3e5d8-4f9a-4007-b965-622ecd99339e","system_id":"levelo_inurba_marseille","lat":43.31074,"lon":5.40085,"is_reserved":false,"is_disabled":false,"rental_uris":{"android":"levelo://app?vid=4cf3e5d8-4f9a-4007-b965-622ecd99339e","ios":"levelo://app?vid=4cf3e5d8-4f9a-4007-b965-622ecd99339e"},"vehicle_type_id":"4","last_reported":1729430077,"current_range_meters":8800,"station_id":"","pricing_plan_id":"cebpf4jnsgd1na2vs0mg"},{"bike_id":"a807915a-64c2-47ac-b29a-7c6229c3bfec","system_id":"levelo_inurba_marseille","lat":43.27995,"lon":5.41663,"is_reserved":false,"is_disabled":false,"rental_uris":{"android":"levelo://app?vid=a807915a-64c2-47ac-b29a-7c6229c3bfec","ios":"levelo://app?vid=a807915a-64c2-47ac-b29a-7c6229c3bfec"},"vehicle_type_id":"4","last_reported":1729430077,"current_range_meters":30800,"station_id":"ce4bho12rcd13ifvqh1g","pricing_plan_id":"cebpf4jnsgd1na2vs0mg"},{"bike_id":"11b5fcc1-d0bb-42ae-9b98-57df4381949e","system_id":"levelo_inurba_marseille","lat":43.33021,"lon":5.39044,"is_reserved":false,"is_disabled":false,"rental_uris":{"android":"levelo://app?vid=11b5fcc1-d0bb-42ae-9b98-57df4381949e","ios":"levelo://app?vid=11b5fcc1-d0bb-42ae-9b98-57df4381949e"},"vehicle_type_id":"4","last_reported":1729430077,"current_range_meters":38800,"station_id":"ce4bhr92rcd13ifvqhrg","pricing_plan_id":"cebpf4jnsgd1na2vs0mg"},{"bike_id":"08e8dbb9-74f8-411f-916e-13975e04037e","system_id":"levelo_inurba_marseille","lat":43.29575,"lon":5.37514,"is_reserved":false,"is_disabled":false,"rental_uris":{"android":"levelo://app?vid=08e8dbb9-74f8-411f-916e-13975e04037e","ios":"levelo://app?vid=08e8dbb9-74f8-411f-916e-13975e04037e"},"vehicle_type_id":"4","last_reported":1729430077,"current_range_meters":34000,"station_id":"ce4bgh92rcd13ifvqb50","pricing_plan_id":"cebpf4jnsgd1na2vs0mg"},{"bike_id":"f9928a1b-5e01-4359-8549-3825d8c7f41a","system_id":"levelo_inurba_marseille","lat":43.22928,"lon":5.35377,"is_reserved":false,"is_disabled":false,"rental_uris":{"android":"levelo://app?vid=f9928a1b-5e01-4359-8549-3825d8c7f41a","ios":"levelo://app?vid=f9928a1b-5e01-4359-8549-3825d8c7f41a"},"vehicle_type_id":"4","last_reported":1729430077,"current_range_meters":38000,"station_id":"cpo3532slgdg3j2ikp40","pricing_plan_id":"cebpf4jnsgd1na2vs0mg"},{"bike_id":"b3da6c3a-2a10-4172-a1ac-14d12204275b","system_id":"levelo_inurba_marseille","lat":43.27492,"lon":5.42452,"is_reserved":false,"is_disabled":false,"rental_uris":{"android":"levelo://app?vid=b3da6c3a-2a10-4172-a1ac-14d12204275b","ios":"levelo://app?vid=b3da6c3a-2a10-4172-a1ac-14d12204275b"},"vehicle_type_id":"4","last_reported":1729430077,"current_range_meters":40000,"station_id":"ce4bhn92rcd13ifvqgrg","pricing_plan_id":"cebpf4jnsgd1na2vs0mg"},{"bike_id":"76536070-92d5-4302-8e45-15c764d0c051","system_id":"levelo_inurba_marseille","lat":43.23189,"lon":5.35546,"is_reserved":false,"is_disabled":false,"rental_uris":{"android":"levelo://app?vid=76536070-92d5-4302-8e45-15c764d0c051","ios":"levelo://app?vid=76536070-92d5-4302-8e45-15c764d0c051"},"vehicle_type_id":"4","last_reported":1729430077,"current_range_meters":8400,"station_id":"ce4bhu92rcd13ifvqi70","pricing_plan_id":"cebpf4jnsgd1na2vs0mg"},{"bike_id":"a7933557-00af-4edd-b59e-5318c3b3c4ef","system_id":"levelo_inurba_marseille","lat":43.24802,"lon":5.37449,"is_reserved":false,"is_disabled":false,"rental_uris":{"android":"levelo://app?vid=a7933557-00af-4edd-b59e-5318c3b3c4ef","ios":"levelo://app?vid=a7933557-00af-4edd-b59e-5318c3b3c4ef"},"vehicle_type_id":"4","last_reported":1729430077,"current_range_meters":34800,"station_id":"ce4bhgh2rcd13ifvqfb0","pricing_plan_id":"cebpf4jnsgd1na2vs0mg"},{"bike_id":"df79050e-4b09-405e-be7e-48cf6c248ce9","system_id":"levelo_inurba_marseille","lat":43.24809,"lon":5.37459,"is_reserved":false,"is_disabled":false,"rental_uris":{"android":"levelo://app?vid=df79050e-4b09-405e-be7e-48cf6c248ce9","ios":"levelo://app?vid=df79050e-4b09-405e-be7e-48cf6c248ce9"},"vehicle_type_id":"4","last_reported":1729430077,"current_range_meters":36000,"station_id":"ce4bhgh2rcd13ifvqfb0","pricing_plan_id":"cebpf4jnsgd1na2vs0mg"},{"bike_id":"c73b1daf-27f9-4501-937a-fb865abec6ac","system_id":"levelo_inurba_marseille","lat":43.24164,"lon":5.36393,"is_reserved":false,"is_disabled":false,"rental_uris":{"android":"levelo://app?vid=c73b1daf-27f9-4501-937a-fb865abec6ac","ios":"levelo://app?vid=c73b1daf-27f9-4501-937a-fb865abec6ac"},"vehicle_type_id":"4","last_reported":1729430077,"current_range_meters":20400,"station_id":"cpo36qri1sfpv3e86is0","pricing_plan_id":"cebpf4jnsgd1na2vs0mg"},{"bike_id":"ed1e5003-3313-48b5-8d05-de760221319d","system_id":"levelo_inurba_marseille","lat":43.23063,"lon":5.3549,"is_reserved":false,"is_disabled":false,"rental_uris":{"android":"levelo://app?vid=ed1e5003-3313-48b5-8d05-de760221319d","ios":"levelo://app?vid=ed1e5003-3313-48b5-8d05-de760221319d"},"vehicle_type_id":"4","last_reported":1729430077,"current_range_meters":26800,"station_id":"cpo3342slgdg3j2ifvpg","pricing_plan_id":"cebpf4jnsgd1na2vs0mg"},{"bike_id":"0c505f5b-3af7-45fc-a063-ba27dbb0f0e3","system_id":"levelo_inurba_marseille","lat":43.27368,"lon":5.36263,"is_reserved":false,"is_disabled":false,"rental_uris":{"android":"levelo://app?vid=0c505f5b-3af7-45fc-a063-ba27dbb0f0e3","ios":"levelo://app?vid=0c505f5b-3af7-45fc-a063-ba27dbb0f0e3"},"vehicle_type_id":"4","last_reported":1729430077,"current_range_meters":6400,"station_id":"ce4bhbh2rcd13ifvqeo0","pricing_plan_id":"cebpf4jnsgd1na2vs0mg"},{"bike_id":"56a773a9-6569-46fe-8206-732f332aad52","system_id":"levelo_inurba_marseille","lat":43.28268,"lon":5.35061,"is_reserved":false,"is_disabled":false,"rental_uris":{"android":"levelo://app?vid=56a773a9-6569-46fe-8206-732f332aad52","ios":"levelo://app?vid=56a773a9-6569-46fe-8206-732f332aad52"},"vehicle_type_id":"4","last_reported":1729430077,"current_range_meters":29600,"station_id":"ce4bhbp2rcd13ifvqerg","pricing_plan_id":"cebpf4jnsgd1na2vs0mg"},{"bike_id":"ee4a202e-07fc-41f9-8e31-16048e7e4b13","system_id":"levelo_inurba_marseille","lat":43.23062,"lon":5.35488,"is_reserved":false,"is_disabled":false,"rental_uris":{"android":"levelo://app?vid=ee4a202e-07fc-41f9-8e31-16048e7e4b13","ios":"levelo://app?vid=ee4a202e-07fc-41f9-8e31-16048e7e4b13"},"vehicle_type_id":"4","last_reported":1729430077,"current_range_meters":16800,"station_id":"cpo3342slgdg3j2ifvpg","pricing_plan_id":"cebpf4jnsgd1na2vs0mg"},{"bike_id":"0c5a8ffc-288e-4479-94f1-d8c56baa0943","system_id":"levelo_inurba_marseille","lat":43.24809,"lon":5.37448,"is_reserved":false,"is_disabled":false,"rental_uris":{"android":"levelo://app?vid=0c5a8ffc-288e-4479-94f1-d8c56baa0943","ios":"levelo://app?vid=0c5a8ffc-288e-4479-94f1-d8c56baa0943"},"vehicle_type_id":"4","last_reported":1729430077,"current_range_meters":6800,"station_id":"ce4bhgh2rcd13ifvqfb0","pricing_plan_id":"cebpf4jnsgd1na2vs0mg"},{"bike_id":"595711b7-de3f-41c9-b47f-ff6c3f6c4612","system_id":"levelo_inurba_marseille","lat":43.2307,"lon":5.35491,"is_reserved":false,"is_disabled":false,"rental_uris":{"android":"levelo://app?vid=595711b7-de3f-41c9-b47f-ff6c3f6c4612","ios":"levelo://app?vid=595711b7-de3f-41c9-b47f-ff6c3f6c4612"},"vehicle_type_id":"4","last_reported":1729430077,"current_range_meters":29600,"station_id":"cpo3342slgdg3j2ifvpg","pricing_plan_id":"cebpf4jnsgd1na2vs0mg"},{"bike_id":"f3b18d4c-688e-4e02-9104-7f1d559134af","system_id":"levelo_inurba_marseille","lat":43.32099,"lon":5.36774,"is_reserved":false,"is_disabled":false,"rental_uris":{"android":"levelo://app?vid=f3b18d4c-688e-4e02-9104-7f1d559134af","ios":"levelo://app?vid=f3b18d4c-688e-4e02-9104-7f1d559134af"},"vehicle_type_id":"4","last_reported":1729430077,"current_range_meters":36800,"station_id":"ce4bhrh2rcd13ifvqhug","pricing_plan_id":"cebpf4jnsgd1na2vs0mg"},{"bike_id":"99a36e8e-83dc-4174-97c1-e95b5764b998","system_id":"levelo_inurba_marseille","lat":43.23956,"lon":5.36645,"is_reserved":false,"is_disabled":false,"rental_uris":{"android":"levelo://app?vid=99a36e8e-83dc-4174-97c1-e95b5764b998","ios":"levelo://app?vid=99a36e8e-83dc-4174-97c1-e95b5764b998"},"vehicle_type_id":"4","last_reported":1729430077,"current_range_meters":8800,"station_id":"ce4bhi12rcd13ifvqfp0","pricing_plan_id":"cebpf4jnsgd1na2vs0mg"},{"bike_id":"8a61b0d3-96ba-49fc-af75-dd8176297036","system_id":"levelo_inurba_marseille","lat":43.23952,"lon":5.36633,"is_reserved":false,"is_disabled":false,"rental_uris":{"android":"levelo://app?vid=8a61b0d3-96ba-49fc-af75-dd8176297036","ios":"levelo://app?vid=8a61b0d3-96ba-49fc-af75-dd8176297036"},"vehicle_type_id":"4","last_reported":1729430077,"current_range_meters":9200,"station_id":"ce4bhi12rcd13ifvqfp0","pricing_plan_id":"cebpf4jnsgd1na2vs0mg"},{"bike_id":"37fbad41-973a-4994-8bf5-4e6f82ad3854","system_id":"levelo_inurba_marseille","lat":43.23195,"lon":5.35555,"is_reserved":false,"is_disabled":false,"rental_uris":{"android":"levelo://app?vid=37fbad41-973a-4994-8bf5-4e6f82ad3854","ios":"levelo://app?vid=37fbad41-973a-4994-8bf5-4e6f82ad3854"},"vehicle_type_id":"4","last_reported":1729430077,"current_range_meters":22800,"station_id":"ce4bhu92rcd13ifvqi70","pricing_plan_id":"cebpf4jnsgd1na2vs0mg"},{"bike_id":"8a012e76-51ba-4bb4-bdd6-a47d24ba0a7e","system_id":"levelo_inurba_marseille","lat":43.33017,"lon":5.39041,"is_reserved":false,"is_disabled":false,"rental_uris":{"android":"levelo://app?vid=8a012e76-51ba-4bb4-bdd6-a47d24ba0a7e","ios":"levelo://app?vid=8a012e76-51ba-4bb4-bdd6-a47d24ba0a7e"},"vehicle_type_id":"4","last_reported":1729430077,"current_range_meters":38800,"station_id":"ce4bhr92rcd13ifvqhrg","pricing_plan_id":"cebpf4jnsgd1na2vs0mg"},{"bike_id":"9834b4fc-87bb-449a-aaaf-d9fa9b836f03","system_id":"levelo_inurba_marseille","lat":43.28417,"lon":5.34978,"is_reserved":false,"is_disabled":false,"rental_uris":{"android":"levelo://app?vid=9834b4fc-87bb-449a-aaaf-d9fa9b836f03","ios":"levelo://app?vid=9834b4fc-87bb-449a-aaaf-d9fa9b836f03"},"vehicle_type_id":"4","last_reported":1729430077,"current_range_meters":12400,"station_id":"ce4bhbh2rcd13ifvqepg","pricing_plan_id":"cebpf4jnsgd1na2vs0mg"},{"bike_id":"2130d4d9-d511-47a7-bf74-550f0efb9572","system_id":"levelo_inurba_marseille","lat":43.23196,"lon":5.35545,"is_reserved":false,"is_disabled":false,"rental_uris":{"android":"levelo://app?vid=2130d4d9-d511-47a7-bf74-550f0efb9572","ios":"levelo://app?vid=2130d4d9-d511-47a7-bf74-550f0efb9572"},"vehicle_type_id":"4","last_reported":1729430077,"current_range_meters":6000,"station_id":"ce4bhu92rcd13ifvqi70","pricing_plan_id":"cebpf4jnsgd1na2vs0mg"},{"bike_id":"0019ef31-6156-4d6c-9d14-177977cee9af","system_id":"levelo_inurba_marseille","lat":43.29005,"lon":5.35607,"is_reserved":false,"is_disabled":false,"rental_uris":{"android":"levelo://app?vid=0019ef31-6156-4d6c-9d14-177977cee9af","ios":"levelo://app?vid=0019ef31-6156-4d6c-9d14-177977cee9af"},"vehicle_type_id":"4","last_reported":1729430077,"current_range_meters":38400,"station_id":"ce4bhb92rcd13ifvqen0","pricing_plan_id":"cebpf4jnsgd1na2vs0mg"},{"bike_id":"e97c84f7-5665-481a-9997-f851ecacc49a","system_id":"levelo_inurba_marseille","lat":43.280457,"lon":5.387232,"is_reserved":false,"is_disabled":false,"rental_uris":{"android":"levelo://app?vid=e97c84f7-5665-481a-9997-f851ecacc49a","ios":"levelo://app?vid=e97c84f7-5665-481a-9997-f851ecacc49a"},"vehicle_type_id":"4","last_reported":1729430077,"current_range_meters":38800,"station_id":"ce4bh612rcd13ifvqe6g","pricing_plan_id":"cebpf4jnsgd1na2vs0mg"},{"bike_id":"e752cdad-39e6-471c-af6c-545201ecf9bc","system_id":"levelo_inurba_marseille","lat":43.29005,"lon":5.35613,"is_reserved":false,"is_disabled":false,"rental_uris":{"android":"levelo://app?vid=e752cdad-39e6-471c-af6c-545201ecf9bc","ios":"levelo://app?vid=e752cdad-39e6-471c-af6c-545201ecf9bc"},"vehicle_type_id":"4","last_reported":1729430077,"current_range_meters":35600,"station_id":"ce4bhb92rcd13ifvqen0","pricing_plan_id":"cebpf4jnsgd1na2vs0mg"},{"bike_id":"4f357a8f-803f-4ef1-b82a-19fa9f305e74","system_id":"levelo_inurba_marseille","lat":43.23188,"lon":5.35549,"is_reserved":false,"is_disabled":false,"rental_uris":{"android":"levelo://app?vid=4f357a8f-803f-4ef1-b82a-19fa9f305e74","ios":"levelo://app?vid=4f357a8f-803f-4ef1-b82a-19fa9f305e74"},"vehicle_type_id":"4","last_reported":1729430077,"current_range_meters":37600,"station_id":"ce4bhu92rcd13ifvqi70","pricing_plan_id":"cebpf4jnsgd1na2vs0mg"},{"bike_id":"870a0567-683b-4d05-928b-954fe947f3ad","system_id":"levelo_inurba_marseille","lat":43.30797,"lon":5.38167,"is_reserved":false,"is_disabled":false,"rental_uris":{"android":"levelo://app?vid=870a0567-683b-4d05-928b-954fe947f3ad","ios":"levelo://app?vid=870a0567-683b-4d05-928b-954fe947f3ad"},"vehicle_type_id":"4","last_reported":1729430077,"current_range_meters":36400,"station_id":"","pricing_plan_id":"cebpf4jnsgd1na2vs0mg"},{"bike_id":"57d6c459-9f04-4869-8203-b0341cdb2874","system_id":"levelo_inurba_marseille","lat":43.290009,"lon":5.356181,"is_reserved":false,"is_disabled":false,"rental_uris":{"android":"levelo://app?vid=57d6c459-9f04-4869-8203-b0341cdb2874","ios":"levelo://app?vid=57d6c459-9f04-4869-8203-b0341cdb2874"},"vehicle_type_id":"4","last_reported":1729430077,"current_range_meters":19600,"station_id":"","pricing_plan_id":"cebpf4jnsgd1na2vs0mg"},{"bike_id":"00628067-a533-4c3d-ba92-5303b07ceaf2","system_id":"levelo_inurba_marseille","lat":43.24387,"lon":5.37061,"is_reserved":false,"is_disabled":false,"rental_uris":{"android":"levelo://app?vid=00628067-a533-4c3d-ba92-5303b07ceaf2","ios":"levelo://app?vid=00628067-a533-4c3d-ba92-5303b07ceaf2"},"vehicle_type_id":"4","last_reported":1729430077,"current_range_meters":31200,"station_id":"ce4bhhh2rcd13ifvqfk0","pricing_plan_id":"cebpf4jnsgd1na2vs0mg"},{"bike_id":"0a7eb729-aaf9-489c-9bfe-0591cc36e9f3","system_id":"levelo_inurba_marseille","lat":43.27557,"lon":5.39487,"is_reserved":false,"is_disabled":false,"rental_uris":{"android":"levelo://app?vid=0a7eb729-aaf9-489c-9bfe-0591cc36e9f3","ios":"levelo://app?vid=0a7eb729-aaf9-489c-9bfe-0591cc36e9f3"},"vehicle_type_id":"4","last_reported":1729430077,"current_range_meters":5600,"station_id":"ce4bhdp2rcd13ifvqf20","pricing_plan_id":"cebpf4jnsgd1na2vs0mg"},{"bike_id":"e78e5b07-8aad-4233-8caa-3a2852780ccb","system_id":"levelo_inurba_marseille","lat":43.23963,"lon":5.36636,"is_reserved":false,"is_disabled":false,"rental_uris":{"android":"levelo://app?vid=e78e5b07-8aad-4233-8caa-3a2852780ccb","ios":"levelo://app?vid=e78e5b07-8aad-4233-8caa-3a2852780ccb"},"vehicle_type_id":"4","last_reported":1729430077,"current_range_meters":16800,"station_id":"ce4bhi12rcd13ifvqfp0","pricing_plan_id":"cebpf4jnsgd1na2vs0mg"},{"bike_id":"f84dc825-091c-4127-94bf-0680567bd94d","system_id":"levelo_inurba_marseille","lat":43.28259,"lon":5.35061,"is_reserved":false,"is_disabled":false,"rental_uris":{"android":"levelo://app?vid=f84dc825-091c-4127-94bf-0680567bd94d","ios":"levelo://app?vid=f84dc825-091c-4127-94bf-0680567bd94d"},"vehicle_type_id":"4","last_reported":1729430077,"current_range_meters":39200,"station_id":"ce4bhbp2rcd13ifvqerg","pricing_plan_id":"cebpf4jnsgd1na2vs0mg"},{"bike_id":"9362a3c1-a524-424a-8405-9c9a41216ff5","system_id":"levelo_inurba_marseille","lat":43.28263,"lon":5.35062,"is_reserved":false,"is_disabled":false,"rental_uris":{"android":"levelo://app?vid=9362a3c1-a524-424a-8405-9c9a41216ff5","ios":"levelo://app?vid=9362a3c1-a524-424a-8405-9c9a41216ff5"},"vehicle_type_id":"4","last_reported":1729430077,"current_range_meters":36800,"station_id":"ce4bhbp2rcd13ifvqerg","pricing_plan_id":"cebpf4jnsgd1na2vs0mg"},{"bike_id":"3c807220-758f-40c8-b4f1-96669d1b8d8b","system_id":"levelo_inurba_marseille","lat":43.23193,"lon":5.35557,"is_reserved":false,"is_disabled":false,"rental_uris":{"android":"levelo://app?vid=3c807220-758f-40c8-b4f1-96669d1b8d8b","ios":"levelo://app?vid=3c807220-758f-40c8-b4f1-96669d1b8d8b"},"vehicle_type_id":"4","last_reported":1729430077,"current_range_meters":33600,"station_id":"ce4bhu92rcd13ifvqi70","pricing_plan_id":"cebpf4jnsgd1na2vs0mg"},{"bike_id":"c11b0555-b997-4036-8536-79587f1a9f2e","system_id":"levelo_inurba_marseille","lat":43.27668,"lon":5.38915,"is_reserved":false,"is_disabled":false,"rental_uris":{"android":"levelo://app?vid=c11b0555-b997-4036-8536-79587f1a9f2e","ios":"levelo://app?vid=c11b0555-b997-4036-8536-79587f1a9f2e"},"vehicle_type_id":"4","last_reported":1729430077,"current_range_meters":32000,"station_id":"ce4bhi12rcd13ifvqfo0","pricing_plan_id":"cebpf4jnsgd1na2vs0mg"},{"bike_id":"82a00698-baf1-4c5e-9fb6-f2047fe95aea","system_id":"levelo_inurba_marseille","lat":43.28155,"lon":5.42642,"is_reserved":false,"is_disabled":false,"rental_uris":{"android":"levelo://app?vid=82a00698-baf1-4c5e-9fb6-f2047fe95aea","ios":"levelo://app?vid=82a00698-baf1-4c5e-9fb6-f2047fe95aea"},"vehicle_type_id":"4","last_reported":1729430077,"current_range_meters":21600,"station_id":"ce4bhnh2rcd13ifvqgug","pricing_plan_id":"cebpf4jnsgd1na2vs0mg"},{"bike_id":"03eb1a7a-6b4f-4ede-b7b4-76daf8714793","system_id":"levelo_inurba_marseille","lat":43.28613,"lon":5.35101,"is_reserved":false,"is_disabled":false,"rental_uris":{"android":"levelo://app?vid=03eb1a7a-6b4f-4ede-b7b4-76daf8714793","ios":"levelo://app?vid=03eb1a7a-6b4f-4ede-b7b4-76daf8714793"},"vehicle_type_id":"4","last_reported":1729430077,"current_range_meters":34800,"station_id":"ce4bhch2rcd13ifvqeug","pricing_plan_id":"cebpf4jnsgd1na2vs0mg"},{"bike_id":"6db1a0d6-80bf-4b09-bf63-f072fb8f8025","system_id":"levelo_inurba_marseille","lat":43.28608,"lon":5.35109,"is_reserved":false,"is_disabled":false,"rental_uris":{"android":"levelo://app?vid=6db1a0d6-80bf-4b09-bf63-f072fb8f8025","ios":"levelo://app?vid=6db1a0d6-80bf-4b09-bf63-f072fb8f8025"},"vehicle_type_id":"4","last_reported":1729430077,"current_range_meters":22000,"station_id":"ce4bhch2rcd13ifvqeug","pricing_plan_id":"cebpf4jnsgd1na2vs0mg"},{"bike_id":"4d120a57-913b-4a28-89c7-87dd16e4eb62","system_id":"levelo_inurba_marseille","lat":43.3136,"lon":5.38489,"is_reserved":false,"is_disabled":false,"rental_uris":{"android":"levelo://app?vid=4d120a57-913b-4a28-89c7-87dd16e4eb62","ios":"levelo://app?vid=4d120a57-913b-4a28-89c7-87dd16e4eb62"},"vehicle_type_id":"4","last_reported":1729430077,"current_range_meters":17200,"station_id":"ce4bgt92rcd13ifvqcf0","pricing_plan_id":"cebpf4jnsgd1na2vs0mg"},{"bike_id":"9c1a6dbf-e373-4094-8817-41bd864af871","system_id":"levelo_inurba_marseille","lat":43.31481,"lon":5.37307,"is_reserved":false,"is_disabled":false,"rental_uris":{"android":"levelo://app?vid=9c1a6dbf-e373-4094-8817-41bd864af871","ios":"levelo://app?vid=9c1a6dbf-e373-4094-8817-41bd864af871"},"vehicle_type_id":"4","last_reported":1729430077,"current_range_meters":25600,"station_id":"ce4bgt12rcd13ifvqcd0","pricing_plan_id":"cebpf4jnsgd1na2vs0mg"},{"bike_id":"77291753-8c8c-4497-aa81-5ef2d0e5d1d8","system_id":"levelo_inurba_marseille","lat":43.28425,"lon":5.34989,"is_reserved":false,"is_disabled":false,"rental_uris":{"android":"levelo://app?vid=77291753-8c8c-4497-aa81-5ef2d0e5d1d8","ios":"levelo://app?vid=77291753-8c8c-4497-aa81-5ef2d0e5d1d8"},"vehicle_type_id":"4","last_reported":1729430077,"current_range_meters":35200,"station_id":"ce4bhbh2rcd13ifvqepg","pricing_plan_id":"cebpf4jnsgd1na2vs0mg"},{"bike_id":"24c9f0e9-801c-46c0-88fe-602187435b87","system_id":"levelo_inurba_marseille","lat":43.24804,"lon":5.37452,"is_reserved":false,"is_disabled":false,"rental_uris":{"android":"levelo://app?vid=24c9f0e9-801c-46c0-88fe-602187435b87","ios":"levelo://app?vid=24c9f0e9-801c-46c0-88fe-602187435b87"},"vehicle_type_id":"4","last_reported":1729430077,"current_range_meters":9200,"station_id":"ce4bhgh2rcd13ifvqfb0","pricing_plan_id":"cebpf4jnsgd1na2vs0mg"},{"bike_id":"03915be9-7d18-4af4-bf25-b90d06512180","system_id":"levelo_inurba_marseille","lat":43.33023,"lon":5.3904,"is_reserved":false,"is_disabled":false,"rental_uris":{"android":"levelo://app?vid=03915be9-7d18-4af4-bf25-b90d06512180","ios":"levelo://app?vid=03915be9-7d18-4af4-bf25-b90d06512180"},"vehicle_type_id":"4","last_reported":1729430077,"current_range_meters":6400,"station_id":"ce4bhr92rcd13ifvqhrg","pricing_plan_id":"cebpf4jnsgd1na2vs0mg"},{"bike_id":"eb58ec26-2a24-4f9b-8643-f17c2e414c74","system_id":"levelo_inurba_marseille","lat":43.262197,"lon":5.379257,"is_reserved":false,"is_disabled":false,"rental_uris":{"android":"levelo://app?vid=eb58ec26-2a24-4f9b-8643-f17c2e414c74","ios":"levelo://app?vid=eb58ec26-2a24-4f9b-8643-f17c2e414c74"},"vehicle_type_id":"4","last_reported":1729430077,"current_range_meters":28400,"station_id":"ce4bhjp2rcd13ifvqg90","pricing_plan_id":"cebpf4jnsgd1na2vs0mg"},{"bike_id":"7407fe31-cebb-417f-be09-2c965c020e01","system_id":"levelo_inurba_marseille","lat":43.301387,"lon":5.380614,"is_reserved":false,"is_disabled":false,"rental_uris":{"android":"levelo://app?vid=7407fe31-cebb-417f-be09-2c965c020e01","ios":"levelo://app?vid=7407fe31-cebb-417f-be09-2c965c020e01"},"vehicle_type_id":"4","last_reported":1729430077,"current_range_meters":28800,"station_id":"","pricing_plan_id":"cebpf4jnsgd1na2vs0mg"},{"bike_id":"2d9e3df1-0dca-43ea-b82c-f5159aab9faa","system_id":"levelo_inurba_marseille","lat":43.23962,"lon":5.36641,"is_reserved":false,"is_disabled":false,"rental_uris":{"android":"levelo://app?vid=2d9e3df1-0dca-43ea-b82c-f5159aab9faa","ios":"levelo://app?vid=2d9e3df1-0dca-43ea-b82c-f5159aab9faa"},"vehicle_type_id":"4","last_reported":1729430077,"current_range_meters":18800,"station_id":"ce4bhi12rcd13ifvqfp0","pricing_plan_id":"cebpf4jnsgd1na2vs0mg"},{"bike_id":"50967d56-f784-4f57-9579-54ffda8de5d8","system_id":"levelo_inurba_marseille","lat":43.2558,"lon":5.38236,"is_reserved":false,"is_disabled":false,"rental_uris":{"android":"levelo://app?vid=50967d56-f784-4f57-9579-54ffda8de5d8","ios":"levelo://app?vid=50967d56-f784-4f57-9579-54ffda8de5d8"},"vehicle_type_id":"4","last_reported":1729430077,"current_range_meters":37600,"station_id":"ce4bhih2rcd13ifvqfs0","pricing_plan_id":"cebpf4jnsgd1na2vs0mg"},{"bike_id":"ae991653-93ec-4018-b7cd-5b69f6e1c682","system_id":"levelo_inurba_marseille","lat":43.26214,"lon":5.37442,"is_reserved":false,"is_disabled":false,"rental_uris":{"android":"levelo://app?vid=ae991653-93ec-4018-b7cd-5b69f6e1c682","ios":"levelo://app?vid=ae991653-93ec-4018-b7cd-5b69f6e1c682"},"vehicle_type_id":"4","last_reported":1729430077,"current_range_meters":14800,"station_id":"ce4bhgp2rcd13ifvqfc0","pricing_plan_id":"cebpf4jnsgd1na2vs0mg"},{"bike_id":"765477b4-7648-4c7a-8240-1916f126a509","system_id":"levelo_inurba_marseille","lat":43.2815,"lon":5.42653,"is_reserved":false,"is_disabled":false,"rental_uris":{"android":"levelo://app?vid=765477b4-7648-4c7a-8240-1916f126a509","ios":"levelo://app?vid=765477b4-7648-4c7a-8240-1916f126a509"},"vehicle_type_id":"4","last_reported":1729430077,"current_range_meters":37600,"station_id":"ce4bhnh2rcd13ifvqgug","pricing_plan_id":"cebpf4jnsgd1na2vs0mg"},{"bike_id":"5c28a995-646a-4a1d-888e-296e57e3c789","system_id":"levelo_inurba_marseille","lat":43.2396,"lon":5.36637,"is_reserved":false,"is_disabled":false,"rental_uris":{"android":"levelo://app?vid=5c28a995-646a-4a1d-888e-296e57e3c789","ios":"levelo://app?vid=5c28a995-646a-4a1d-888e-296e57e3c789"},"vehicle_type_id":"4","last_reported":1729430077,"current_range_meters":31200,"station_id":"ce4bhi12rcd13ifvqfp0","pricing_plan_id":"cebpf4jnsgd1na2vs0mg"},{"bike_id":"758c6577-fd26-423c-9903-150e329b236b","system_id":"levelo_inurba_marseille","lat":43.28426,"lon":5.34971,"is_reserved":false,"is_disabled":false,"rental_uris":{"android":"levelo://app?vid=758c6577-fd26-423c-9903-150e329b236b","ios":"levelo://app?vid=758c6577-fd26-423c-9903-150e329b236b"},"vehicle_type_id":"4","last_reported":1729430077,"current_range_meters":26000,"station_id":"ce4bhbh2rcd13ifvqepg","pricing_plan_id":"cebpf4jnsgd1na2vs0mg"},{"bike_id":"5c8a7539-6849-4b28-857a-b25ebe39c896","system_id":"levelo_inurba_marseille","lat":43.23177,"lon":5.39984,"is_reserved":false,"is_disabled":false,"rental_uris":{"android":"levelo://app?vid=5c8a7539-6849-4b28-857a-b25ebe39c896","ios":"levelo://app?vid=5c8a7539-6849-4b28-857a-b25ebe39c896"},"vehicle_type_id":"4","last_reported":1729430077,"current_range_meters":30800,"station_id":"ce4bhn12rcd13ifvqgqg","pricing_plan_id":"cebpf4jnsgd1na2vs0mg"},{"bike_id":"a6010299-fc44-4c1c-8b2b-43189f826eae","system_id":"levelo_inurba_marseille","lat":43.240723,"lon":5.3773,"is_reserved":false,"is_disabled":false,"rental_uris":{"android":"levelo://app?vid=a6010299-fc44-4c1c-8b2b-43189f826eae","ios":"levelo://app?vid=a6010299-fc44-4c1c-8b2b-43189f826eae"},"vehicle_type_id":"4","last_reported":1729430077,"current_range_meters":20000,"station_id":"ce4bhnp2rcd13ifvqgvg","pricing_plan_id":"cebpf4jnsgd1na2vs0mg"},{"bike_id":"73834f8c-ef12-4652-8f75-18c4940f7a00","system_id":"levelo_inurba_marseille","lat":43.3372,"lon":5.3918,"is_reserved":false,"is_disabled":false,"rental_uris":{"android":"levelo://app?vid=73834f8c-ef12-4652-8f75-18c4940f7a00","ios":"levelo://app?vid=73834f8c-ef12-4652-8f75-18c4940f7a00"},"vehicle_type_id":"4","last_reported":1729430077,"current_range_meters":25200,"station_id":"ce4bhr92rcd13ifvqhsg","pricing_plan_id":"cebpf4jnsgd1na2vs0mg"},{"bike_id":"8607dfae-0230-4a05-8be2-80542b6f7da9","system_id":"levelo_inurba_marseille","lat":43.24079,"lon":5.37758,"is_reserved":false,"is_disabled":false,"rental_uris":{"android":"levelo://app?vid=8607dfae-0230-4a05-8be2-80542b6f7da9","ios":"levelo://app?vid=8607dfae-0230-4a05-8be2-80542b6f7da9"},"vehicle_type_id":"4","last_reported":1729430077,"current_range_meters":25200,"station_id":"ce4bhnp2rcd13ifvqgvg","pricing_plan_id":"cebpf4jnsgd1na2vs0mg"},{"bike_id":"401d27b2-8f28-45bb-8c0a-e379ec341dd1","system_id":"levelo_inurba_marseille","lat":43.23961,"lon":5.36633,"is_reserved":false,"is_disabled":false,"rental_uris":{"android":"levelo://app?vid=401d27b2-8f28-45bb-8c0a-e379ec341dd1","ios":"levelo://app?vid=401d27b2-8f28-45bb-8c0a-e379ec341dd1"},"vehicle_type_id":"4","last_reported":1729430077,"current_range_meters":32800,"station_id":"ce4bhi12rcd13ifvqfp0","pricing_plan_id":"cebpf4jnsgd1na2vs0mg"},{"bike_id":"c60af85f-9592-4e88-a71c-3550e8cfd60b","system_id":"levelo_inurba_marseille","lat":43.29555,"lon":5.42288,"is_reserved":false,"is_disabled":false,"rental_uris":{"android":"levelo://app?vid=c60af85f-9592-4e88-a71c-3550e8cfd60b","ios":"levelo://app?vid=c60af85f-9592-4e88-a71c-3550e8cfd60b"},"vehicle_type_id":"4","last_reported":1729430077,"current_range_meters":36800,"station_id":"ce4bhph2rcd13ifvqhdg","pricing_plan_id":"cebpf4jnsgd1na2vs0mg"},{"bike_id":"4371b94a-1d01-4533-af2e-6f0207d79614","system_id":"levelo_inurba_marseille","lat":43.25089,"lon":5.39511,"is_reserved":false,"is_disabled":false,"rental_uris":{"android":"levelo://app?vid=4371b94a-1d01-4533-af2e-6f0207d79614","ios":"levelo://app?vid=4371b94a-1d01-4533-af2e-6f0207d79614"},"vehicle_type_id":"4","last_reported":1729430077,"current_range_meters":38800,"station_id":"ce4bhm12rcd13ifvqgkg","pricing_plan_id":"cebpf4jnsgd1na2vs0mg"},{"bike_id":"f5a9bb69-82ae-4c43-b537-73eea6feece1","system_id":"levelo_inurba_marseille","lat":43.28424,"lon":5.3499,"is_reserved":false,"is_disabled":false,"rental_uris":{"android":"levelo://app?vid=f5a9bb69-82ae-4c43-b537-73eea6feece1","ios":"levelo://app?vid=f5a9bb69-82ae-4c43-b537-73eea6feece1"},"vehicle_type_id":"4","last_reported":1729430077,"current_range_meters":36400,"station_id":"ce4bhbh2rcd13ifvqepg","pricing_plan_id":"cebpf4jnsgd1na2vs0mg"},{"bike_id":"6fc963f8-ac32-4115-b580-8bcdf13ae70c","system_id":"levelo_inurba_marseille","lat":43.24166,"lon":5.36389,"is_reserved":false,"is_disabled":false,"rental_uris":{"android":"levelo://app?vid=6fc963f8-ac32-4115-b580-8bcdf13ae70c","ios":"levelo://app?vid=6fc963f8-ac32-4115-b580-8bcdf13ae70c"},"vehicle_type_id":"4","last_reported":1729430077,"current_range_meters":6800,"station_id":"cpo36qri1sfpv3e86is0","pricing_plan_id":"cebpf4jnsgd1na2vs0mg"},{"bike_id":"a9ce46cd-10c6-4b0d-b262-2e01800c6b2c","system_id":"levelo_inurba_marseille","lat":43.23187,"lon":5.39982,"is_reserved":false,"is_disabled":false,"rental_uris":{"android":"levelo://app?vid=a9ce46cd-10c6-4b0d-b262-2e01800c6b2c","ios":"levelo://app?vid=a9ce46cd-10c6-4b0d-b262-2e01800c6b2c"},"vehicle_type_id":"4","last_reported":1729430077,"current_range_meters":26800,"station_id":"ce4bhn12rcd13ifvqgqg","pricing_plan_id":"cebpf4jnsgd1na2vs0mg"},{"bike_id":"f739c5a5-6cc1-4a10-9151-8d8447774477","system_id":"levelo_inurba_marseille","lat":43.28423,"lon":5.34983,"is_reserved":false,"is_disabled":false,"rental_uris":{"android":"levelo://app?vid=f739c5a5-6cc1-4a10-9151-8d8447774477","ios":"levelo://app?vid=f739c5a5-6cc1-4a10-9151-8d8447774477"},"vehicle_type_id":"4","last_reported":1729430077,"current_range_meters":40000,"station_id":"ce4bhbh2rcd13ifvqepg","pricing_plan_id":"cebpf4jnsgd1na2vs0mg"},{"bike_id":"4839a83f-e440-404c-b7e9-c62a7c5aee49","system_id":"levelo_inurba_marseille","lat":43.28266,"lon":5.35067,"is_reserved":false,"is_disabled":false,"rental_uris":{"android":"levelo://app?vid=4839a83f-e440-404c-b7e9-c62a7c5aee49","ios":"levelo://app?vid=4839a83f-e440-404c-b7e9-c62a7c5aee49"},"vehicle_type_id":"4","last_reported":1729430077,"current_range_meters":16000,"station_id":"ce4bhbp2rcd13ifvqerg","pricing_plan_id":"cebpf4jnsgd1na2vs0mg"},{"bike_id":"c61834e5-ab0c-4e12-b32f-eb9d3c1af5fe","system_id":"levelo_inurba_marseille","lat":43.23961,"lon":5.36643,"is_reserved":false,"is_disabled":false,"rental_uris":{"android":"levelo://app?vid=c61834e5-ab0c-4e12-b32f-eb9d3c1af5fe","ios":"levelo://app?vid=c61834e5-ab0c-4e12-b32f-eb9d3c1af5fe"},"vehicle_type_id":"4","last_reported":1729430077,"current_range_meters":15200,"station_id":"ce4bhi12rcd13ifvqfp0","pricing_plan_id":"cebpf4jnsgd1na2vs0mg"},{"bike_id":"07002e0a-bb11-43fc-bad8-256a5d239859","system_id":"levelo_inurba_marseille","lat":43.29001,"lon":5.35611,"is_reserved":false,"is_disabled":false,"rental_uris":{"android":"levelo://app?vid=07002e0a-bb11-43fc-bad8-256a5d239859","ios":"levelo://app?vid=07002e0a-bb11-43fc-bad8-256a5d239859"},"vehicle_type_id":"4","last_reported":1729430077,"current_range_meters":30000,"station_id":"ce4bhb92rcd13ifvqen0","pricing_plan_id":"cebpf4jnsgd1na2vs0mg"},{"bike_id":"1a23c1e3-754f-47d1-932a-7ccadc3e00d9","system_id":"levelo_inurba_marseille","lat":43.24805,"lon":5.37454,"is_reserved":false,"is_disabled":false,"rental_uris":{"android":"levelo://app?vid=1a23c1e3-754f-47d1-932a-7ccadc3e00d9","ios":"levelo://app?vid=1a23c1e3-754f-47d1-932a-7ccadc3e00d9"},"vehicle_type_id":"4","last_reported":1729430077,"current_range_meters":30000,"station_id":"ce4bhgh2rcd13ifvqfb0","pricing_plan_id":"cebpf4jnsgd1na2vs0mg"},{"bike_id":"8ad057e2-09b3-4882-9505-661b187fdfff","system_id":"levelo_inurba_marseille","lat":43.26935,"lon":5.40254,"is_reserved":false,"is_disabled":false,"rental_uris":{"android":"levelo://app?vid=8ad057e2-09b3-4882-9505-661b187fdfff","ios":"levelo://app?vid=8ad057e2-09b3-4882-9505-661b187fdfff"},"vehicle_type_id":"4","last_reported":1729430077,"current_range_meters":34800,"station_id":"cjm6bp8fraef2m0cb0m0","pricing_plan_id":"cebpf4jnsgd1na2vs0mg"},{"bike_id":"d4418a5f-a224-4573-8be4-789d8396df93","system_id":"levelo_inurba_marseille","lat":43.27497,"lon":5.42453,"is_reserved":false,"is_disabled":false,"rental_uris":{"android":"levelo://app?vid=d4418a5f-a224-4573-8be4-789d8396df93","ios":"levelo://app?vid=d4418a5f-a224-4573-8be4-789d8396df93"},"vehicle_type_id":"4","last_reported":1729430077,"current_range_meters":28800,"station_id":"ce4bhn92rcd13ifvqgrg","pricing_plan_id":"cebpf4jnsgd1na2vs0mg"},{"bike_id":"da3c1d06-5208-4652-833a-e31fe3594a51","system_id":"levelo_inurba_marseille","lat":43.24804,"lon":5.37455,"is_reserved":false,"is_disabled":false,"rental_uris":{"android":"levelo://app?vid=da3c1d06-5208-4652-833a-e31fe3594a51","ios":"levelo://app?vid=da3c1d06-5208-4652-833a-e31fe3594a51"},"vehicle_type_id":"4","last_reported":1729430077,"current_range_meters":38800,"station_id":"ce4bhgh2rcd13ifvqfb0","pricing_plan_id":"cebpf4jnsgd1na2vs0mg"},{"bike_id":"1c530c3b-9193-4777-ad8c-d59eb4acf097","system_id":"levelo_inurba_marseille","lat":43.32111,"lon":5.36767,"is_reserved":false,"is_disabled":false,"rental_uris":{"android":"levelo://app?vid=1c530c3b-9193-4777-ad8c-d59eb4acf097","ios":"levelo://app?vid=1c530c3b-9193-4777-ad8c-d59eb4acf097"},"vehicle_type_id":"4","last_reported":1729430077,"current_range_meters":26800,"station_id":"ce4bhrh2rcd13ifvqhug","pricing_plan_id":"cebpf4jnsgd1na2vs0mg"},{"bike_id":"40e60d57-70e1-4c7b-93c4-5ca3f16a5e16","system_id":"levelo_inurba_marseille","lat":43.24532,"lon":5.37542,"is_reserved":false,"is_disabled":false,"rental_uris":{"android":"levelo://app?vid=40e60d57-70e1-4c7b-93c4-5ca3f16a5e16","ios":"levelo://app?vid=40e60d57-70e1-4c7b-93c4-5ca3f16a5e16"},"vehicle_type_id":"4","last_reported":1729430077,"current_range_meters":16000,"station_id":"ce4bhih2rcd13ifvqfr0","pricing_plan_id":"cebpf4jnsgd1na2vs0mg"},{"bike_id":"70a9fa65-52d2-49ce-aeff-cff01b849181","system_id":"levelo_inurba_marseille","lat":43.231471,"lon":5.437296,"is_reserved":false,"is_disabled":false,"rental_uris":{"android":"levelo://app?vid=70a9fa65-52d2-49ce-aeff-cff01b849181","ios":"levelo://app?vid=70a9fa65-52d2-49ce-aeff-cff01b849181"},"vehicle_type_id":"4","last_reported":1729430077,"current_range_meters":22800,"station_id":"ce4bhmp2rcd13ifvqgog","pricing_plan_id":"cebpf4jnsgd1na2vs0mg"},{"bike_id":"c3f0c283-b452-4e4f-a5af-890f36eb2134","system_id":"levelo_inurba_marseille","lat":43.2417,"lon":5.36402,"is_reserved":false,"is_disabled":false,"rental_uris":{"android":"levelo://app?vid=c3f0c283-b452-4e4f-a5af-890f36eb2134","ios":"levelo://app?vid=c3f0c283-b452-4e4f-a5af-890f36eb2134"},"vehicle_type_id":"4","last_reported":1729430077,"current_range_meters":26800,"station_id":"cpo36qri1sfpv3e86is0","pricing_plan_id":"cebpf4jnsgd1na2vs0mg"},{"bike_id":"526786c0-12c6-4dc3-a415-c5c3eccedd1c","system_id":"levelo_inurba_marseille","lat":43.28409,"lon":5.34982,"is_reserved":false,"is_disabled":false,"rental_uris":{"android":"levelo://app?vid=526786c0-12c6-4dc3-a415-c5c3eccedd1c","ios":"levelo://app?vid=526786c0-12c6-4dc3-a415-c5c3eccedd1c"},"vehicle_type_id":"4","last_reported":1729430077,"current_range_meters":36800,"station_id":"ce4bhbh2rcd13ifvqepg","pricing_plan_id":"cebpf4jnsgd1na2vs0mg"},{"bike_id":"9607628f-1765-4d4c-bf7f-ec7512d6ee9b","system_id":"levelo_inurba_marseille","lat":43.2815,"lon":5.42637,"is_reserved":false,"is_disabled":false,"rental_uris":{"android":"levelo://app?vid=9607628f-1765-4d4c-bf7f-ec7512d6ee9b","ios":"levelo://app?vid=9607628f-1765-4d4c-bf7f-ec7512d6ee9b"},"vehicle_type_id":"4","last_reported":1729430077,"current_range_meters":38000,"station_id":"ce4bhnh2rcd13ifvqgug","pricing_plan_id":"cebpf4jnsgd1na2vs0mg"},{"bike_id":"996b68ea-a3b8-48c9-9cf2-f66df1d63882","system_id":"levelo_inurba_marseille","lat":43.23194,"lon":5.35547,"is_reserved":false,"is_disabled":false,"rental_uris":{"android":"levelo://app?vid=996b68ea-a3b8-48c9-9cf2-f66df1d63882","ios":"levelo://app?vid=996b68ea-a3b8-48c9-9cf2-f66df1d63882"},"vehicle_type_id":"4","last_reported":1729430077,"current_range_meters":10800,"station_id":"ce4bhu92rcd13ifvqi70","pricing_plan_id":"cebpf4jnsgd1na2vs0mg"},{"bike_id":"eec98611-20a2-4d13-a256-fcb8c41f9648","system_id":"levelo_inurba_marseille","lat":43.28776,"lon":5.36251,"is_reserved":false,"is_disabled":false,"rental_uris":{"android":"levelo://app?vid=eec98611-20a2-4d13-a256-fcb8c41f9648","ios":"levelo://app?vid=eec98611-20a2-4d13-a256-fcb8c41f9648"},"vehicle_type_id":"4","last_reported":1729430077,"current_range_meters":4400,"station_id":"","pricing_plan_id":"cebpf4jnsgd1na2vs0mg"},{"bike_id":"4b3496a2-d393-48e7-b24c-bc5f8d6f4d51","system_id":"levelo_inurba_marseille","lat":43.23955,"lon":5.36626,"is_reserved":false,"is_disabled":false,"rental_uris":{"android":"levelo://app?vid=4b3496a2-d393-48e7-b24c-bc5f8d6f4d51","ios":"levelo://app?vid=4b3496a2-d393-48e7-b24c-bc5f8d6f4d51"},"vehicle_type_id":"4","last_reported":1729430077,"current_range_meters":30800,"station_id":"ce4bhi12rcd13ifvqfp0","pricing_plan_id":"cebpf4jnsgd1na2vs0mg"},{"bike_id":"dd433c12-3d66-42a1-9012-217aa5975f6a","system_id":"levelo_inurba_marseille","lat":43.26057,"lon":5.394,"is_reserved":false,"is_disabled":false,"rental_uris":{"android":"levelo://app?vid=dd433c12-3d66-42a1-9012-217aa5975f6a","ios":"levelo://app?vid=dd433c12-3d66-42a1-9012-217aa5975f6a"},"vehicle_type_id":"4","last_reported":1729430077,"current_range_meters":16400,"station_id":"ce4bhh92rcd13ifvqfj0","pricing_plan_id":"cebpf4jnsgd1na2vs0mg"},{"bike_id":"e14d615c-73ea-431a-9ff6-0ed950a9fac7","system_id":"levelo_inurba_marseille","lat":43.24391,"lon":5.37061,"is_reserved":false,"is_disabled":false,"rental_uris":{"android":"levelo://app?vid=e14d615c-73ea-431a-9ff6-0ed950a9fac7","ios":"levelo://app?vid=e14d615c-73ea-431a-9ff6-0ed950a9fac7"},"vehicle_type_id":"4","last_reported":1729430077,"current_range_meters":32800,"station_id":"ce4bhhh2rcd13ifvqfk0","pricing_plan_id":"cebpf4jnsgd1na2vs0mg"},{"bike_id":"3c63acc5-e1f7-42b2-9526-3daa93ac094f","system_id":"levelo_inurba_marseille","lat":43.24386,"lon":5.37058,"is_reserved":false,"is_disabled":false,"rental_uris":{"android":"levelo://app?vid=3c63acc5-e1f7-42b2-9526-3daa93ac094f","ios":"levelo://app?vid=3c63acc5-e1f7-42b2-9526-3daa93ac094f"},"vehicle_type_id":"4","last_reported":1729430077,"current_range_meters":39200,"station_id":"ce4bhhh2rcd13ifvqfk0","pricing_plan_id":"cebpf4jnsgd1na2vs0mg"},{"bike_id":"046bf161-fb93-4ddf-b335-85018625f358","system_id":"levelo_inurba_marseille","lat":43.28613,"lon":5.35102,"is_reserved":false,"is_disabled":false,"rental_uris":{"android":"levelo://app?vid=046bf161-fb93-4ddf-b335-85018625f358","ios":"levelo://app?vid=046bf161-fb93-4ddf-b335-85018625f358"},"vehicle_type_id":"4","last_reported":1729430077,"current_range_meters":4000,"station_id":"ce4bhch2rcd13ifvqeug","pricing_plan_id":"cebpf4jnsgd1na2vs0mg"},{"bike_id":"ed61e08a-9541-4714-803a-5bb30e0bc28e","system_id":"levelo_inurba_marseille","lat":43.31322,"lon":5.39689,"is_reserved":false,"is_disabled":false,"rental_uris":{"android":"levelo://app?vid=ed61e08a-9541-4714-803a-5bb30e0bc28e","ios":"levelo://app?vid=ed61e08a-9541-4714-803a-5bb30e0bc28e"},"vehicle_type_id":"4","last_reported":1729430077,"current_range_meters":17600,"station_id":"ce4bgvp2rcd13ifvqcu0","pricing_plan_id":"cebpf4jnsgd1na2vs0mg"},{"bike_id":"68582689-c96a-4de9-9920-99c29107b8f3","system_id":"levelo_inurba_marseille","lat":43.30544,"lon":5.38425,"is_reserved":false,"is_disabled":false,"rental_uris":{"android":"levelo://app?vid=68582689-c96a-4de9-9920-99c29107b8f3","ios":"levelo://app?vid=68582689-c96a-4de9-9920-99c29107b8f3"},"vehicle_type_id":"4","last_reported":1729430077,"current_range_meters":23200,"station_id":"ce4bgg92rcd13ifvqb30","pricing_plan_id":"cebpf4jnsgd1na2vs0mg"},{"bike_id":"838e3ee8-b1c1-4b48-97d6-eb042ab736b7","system_id":"levelo_inurba_marseille","lat":43.23958,"lon":5.36628,"is_reserved":false,"is_disabled":false,"rental_uris":{"android":"levelo://app?vid=838e3ee8-b1c1-4b48-97d6-eb042ab736b7","ios":"levelo://app?vid=838e3ee8-b1c1-4b48-97d6-eb042ab736b7"},"vehicle_type_id":"4","last_reported":1729430077,"current_range_meters":28000,"station_id":"ce4bhi12rcd13ifvqfp0","pricing_plan_id":"cebpf4jnsgd1na2vs0mg"},{"bike_id":"e9a6d85d-70e2-402b-90eb-502b3aedbdb3","system_id":"levelo_inurba_marseille","lat":43.2917,"lon":5.37924,"is_reserved":false,"is_disabled":false,"rental_uris":{"android":"levelo://app?vid=e9a6d85d-70e2-402b-90eb-502b3aedbdb3","ios":"levelo://app?vid=e9a6d85d-70e2-402b-90eb-502b3aedbdb3"},"vehicle_type_id":"4","last_reported":1729430077,"current_range_meters":8800,"station_id":"","pricing_plan_id":"cebpf4jnsgd1na2vs0mg"},{"bike_id":"59c616fb-ad54-4f24-bbca-d26836e35d95","system_id":"levelo_inurba_marseille","lat":43.29901,"lon":5.43665,"is_reserved":false,"is_disabled":false,"rental_uris":{"android":"levelo://app?vid=59c616fb-ad54-4f24-bbca-d26836e35d95","ios":"levelo://app?vid=59c616fb-ad54-4f24-bbca-d26836e35d95"},"vehicle_type_id":"4","last_reported":1729430077,"current_range_meters":8800,"station_id":"ce4bhpp2rcd13ifvqhfg","pricing_plan_id":"cebpf4jnsgd1na2vs0mg"},{"bike_id":"551e4cae-27ad-43f8-bfc5-8e0a93c14612","system_id":"levelo_inurba_marseille","lat":43.3209,"lon":5.36799,"is_reserved":false,"is_disabled":false,"rental_uris":{"android":"levelo://app?vid=551e4cae-27ad-43f8-bfc5-8e0a93c14612","ios":"levelo://app?vid=551e4cae-27ad-43f8-bfc5-8e0a93c14612"},"vehicle_type_id":"4","last_reported":1729430077,"current_range_meters":38000,"station_id":"ce4bhrh2rcd13ifvqhug","pricing_plan_id":"cebpf4jnsgd1na2vs0mg"},{"bike_id":"d6b6d9c6-c04c-44c6-9708-54056b46823b","system_id":"levelo_inurba_marseille","lat":43.24176,"lon":5.38828,"is_reserved":false,"is_disabled":false,"rental_uris":{"android":"levelo://app?vid=d6b6d9c6-c04c-44c6-9708-54056b46823b","ios":"levelo://app?vid=d6b6d9c6-c04c-44c6-9708-54056b46823b"},"vehicle_type_id":"4","last_reported":1729430077,"current_range_meters":13600,"station_id":"","pricing_plan_id":"cebpf4jnsgd1na2vs0mg"},{"bike_id":"ea74435a-f760-4a93-8d70-8fcec129dfff","system_id":"levelo_inurba_marseille","lat":43.30909,"lon":5.37186,"is_reserved":false,"is_disabled":false,"rental_uris":{"android":"levelo://app?vid=ea74435a-f760-4a93-8d70-8fcec129dfff","ios":"levelo://app?vid=ea74435a-f760-4a93-8d70-8fcec129dfff"},"vehicle_type_id":"4","last_reported":1729430077,"current_range_meters":27600,"station_id":"ce4bguh2rcd13ifvqckg","pricing_plan_id":"cebpf4jnsgd1na2vs0mg"},{"bike_id":"49ff03c8-0cd7-4cba-98c7-61c447fcc96d","system_id":"levelo_inurba_marseille","lat":43.2481,"lon":5.37456,"is_reserved":false,"is_disabled":false,"rental_uris":{"android":"levelo://app?vid=49ff03c8-0cd7-4cba-98c7-61c447fcc96d","ios":"levelo://app?vid=49ff03c8-0cd7-4cba-98c7-61c447fcc96d"},"vehicle_type_id":"4","last_reported":1729430077,"current_range_meters":14000,"station_id":"ce4bhgh2rcd13ifvqfb0","pricing_plan_id":"cebpf4jnsgd1na2vs0mg"},{"bike_id":"88cb89b8-5871-4076-a45b-0a2ac0a037ed","system_id":"levelo_inurba_marseille","lat":43.27175,"lon":5.40986,"is_reserved":false,"is_disabled":false,"rental_uris":{"android":"levelo://app?vid=88cb89b8-5871-4076-a45b-0a2ac0a037ed","ios":"levelo://app?vid=88cb89b8-5871-4076-a45b-0a2ac0a037ed"},"vehicle_type_id":"4","last_reported":1729430077,"current_range_meters":28800,"station_id":"ce4bhl12rcd13ifvqgf0","pricing_plan_id":"cebpf4jnsgd1na2vs0mg"},{"bike_id":"73325757-bcec-4896-9227-2317d4faf9c9","system_id":"levelo_inurba_marseille","lat":43.231934,"lon":5.355558,"is_reserved":false,"is_disabled":false,"rental_uris":{"android":"levelo://app?vid=73325757-bcec-4896-9227-2317d4faf9c9","ios":"levelo://app?vid=73325757-bcec-4896-9227-2317d4faf9c9"},"vehicle_type_id":"4","last_reported":1729430077,"current_range_meters":13600,"station_id":"ce4bhu92rcd13ifvqi70","pricing_plan_id":"cebpf4jnsgd1na2vs0mg"},{"bike_id":"0a77df98-b7e7-417b-ae07-dddaa8159ac2","system_id":"levelo_inurba_marseille","lat":43.28256,"lon":5.35045,"is_reserved":false,"is_disabled":false,"rental_uris":{"android":"levelo://app?vid=0a77df98-b7e7-417b-ae07-dddaa8159ac2","ios":"levelo://app?vid=0a77df98-b7e7-417b-ae07-dddaa8159ac2"},"vehicle_type_id":"4","last_reported":1729430077,"current_range_meters":27200,"station_id":"ce4bhbp2rcd13ifvqerg","pricing_plan_id":"cebpf4jnsgd1na2vs0mg"},{"bike_id":"09b31df8-0590-412f-b4bd-135495c47bf6","system_id":"levelo_inurba_marseille","lat":43.26572,"lon":5.39007,"is_reserved":false,"is_disabled":false,"rental_uris":{"android":"levelo://app?vid=09b31df8-0590-412f-b4bd-135495c47bf6","ios":"levelo://app?vid=09b31df8-0590-412f-b4bd-135495c47bf6"},"vehicle_type_id":"4","last_reported":1729430077,"current_range_meters":32000,"station_id":"ce4bhe12rcd13ifvqf30","pricing_plan_id":"cebpf4jnsgd1na2vs0mg"},{"bike_id":"f9a0fe12-babf-42d9-8b16-bc39261a0ca4","system_id":"levelo_inurba_marseille","lat":43.27205,"lon":5.39192,"is_reserved":false,"is_disabled":false,"rental_uris":{"android":"levelo://app?vid=f9a0fe12-babf-42d9-8b16-bc39261a0ca4","ios":"levelo://app?vid=f9a0fe12-babf-42d9-8b16-bc39261a0ca4"},"vehicle_type_id":"4","last_reported":1729430077,"current_range_meters":29600,"station_id":"ce4bhhp2rcd13ifvqfm0","pricing_plan_id":"cebpf4jnsgd1na2vs0mg"},{"bike_id":"198a5deb-b45b-40f1-9958-7b9480af60a9","system_id":"levelo_inurba_marseille","lat":43.28411,"lon":5.34992,"is_reserved":false,"is_disabled":false,"rental_uris":{"android":"levelo://app?vid=198a5deb-b45b-40f1-9958-7b9480af60a9","ios":"levelo://app?vid=198a5deb-b45b-40f1-9958-7b9480af60a9"},"vehicle_type_id":"4","last_reported":1729430077,"current_range_meters":32800,"station_id":"ce4bhbh2rcd13ifvqepg","pricing_plan_id":"cebpf4jnsgd1na2vs0mg"},{"bike_id":"8b12738b-24ae-473b-8122-ef1857e18e60","system_id":"levelo_inurba_marseille","lat":43.25086,"lon":5.39523,"is_reserved":false,"is_disabled":false,"rental_uris":{"android":"levelo://app?vid=8b12738b-24ae-473b-8122-ef1857e18e60","ios":"levelo://app?vid=8b12738b-24ae-473b-8122-ef1857e18e60"},"vehicle_type_id":"4","last_reported":1729430077,"current_range_meters":26800,"station_id":"ce4bhm12rcd13ifvqgkg","pricing_plan_id":"cebpf4jnsgd1na2vs0mg"},{"bike_id":"17a9b2ef-bfc4-4b72-a04e-55c582974af4","system_id":"levelo_inurba_marseille","lat":43.23187,"lon":5.39991,"is_reserved":false,"is_disabled":false,"rental_uris":{"android":"levelo://app?vid=17a9b2ef-bfc4-4b72-a04e-55c582974af4","ios":"levelo://app?vid=17a9b2ef-bfc4-4b72-a04e-55c582974af4"},"vehicle_type_id":"4","last_reported":1729430077,"current_range_meters":29600,"station_id":"ce4bhn12rcd13ifvqgqg","pricing_plan_id":"cebpf4jnsgd1na2vs0mg"},{"bike_id":"239b6e4d-0545-467e-8037-5e69f0143c10","system_id":"levelo_inurba_marseille","lat":43.23967,"lon":5.3663,"is_reserved":false,"is_disabled":false,"rental_uris":{"android":"levelo://app?vid=239b6e4d-0545-467e-8037-5e69f0143c10","ios":"levelo://app?vid=239b6e4d-0545-467e-8037-5e69f0143c10"},"vehicle_type_id":"4","last_reported":1729430077,"current_range_meters":17200,"station_id":"ce4bhi12rcd13ifvqfp0","pricing_plan_id":"cebpf4jnsgd1na2vs0mg"},{"bike_id":"3efba5df-c492-459f-b740-dbbf8b24debd","system_id":"levelo_inurba_marseille","lat":43.23181,"lon":5.39982,"is_reserved":false,"is_disabled":false,"rental_uris":{"android":"levelo://app?vid=3efba5df-c492-459f-b740-dbbf8b24debd","ios":"levelo://app?vid=3efba5df-c492-459f-b740-dbbf8b24debd"},"vehicle_type_id":"4","last_reported":1729430077,"current_range_meters":16800,"station_id":"ce4bhn12rcd13ifvqgqg","pricing_plan_id":"cebpf4jnsgd1na2vs0mg"},{"bike_id":"d4843c4f-7763-4453-8879-d503da160cce","system_id":"levelo_inurba_marseille","lat":43.269397,"lon":5.40245,"is_reserved":false,"is_disabled":false,"rental_uris":{"android":"levelo://app?vid=d4843c4f-7763-4453-8879-d503da160cce","ios":"levelo://app?vid=d4843c4f-7763-4453-8879-d503da160cce"},"vehicle_type_id":"4","last_reported":1729430077,"current_range_meters":38000,"station_id":"cjm6bp8fraef2m0cb0m0","pricing_plan_id":"cebpf4jnsgd1na2vs0mg"},{"bike_id":"cec0b475-1e31-4fb4-8e3d-ef35fa6ff557","system_id":"levelo_inurba_marseille","lat":43.23965,"lon":5.36628,"is_reserved":false,"is_disabled":false,"rental_uris":{"android":"levelo://app?vid=cec0b475-1e31-4fb4-8e3d-ef35fa6ff557","ios":"levelo://app?vid=cec0b475-1e31-4fb4-8e3d-ef35fa6ff557"},"vehicle_type_id":"4","last_reported":1729430077,"current_range_meters":32400,"station_id":"ce4bhi12rcd13ifvqfp0","pricing_plan_id":"cebpf4jnsgd1na2vs0mg"},{"bike_id":"7d04ca57-82ca-4ec0-abc5-69a9b0453e03","system_id":"levelo_inurba_marseille","lat":43.23194,"lon":5.35552,"is_reserved":false,"is_disabled":false,"rental_uris":{"android":"levelo://app?vid=7d04ca57-82ca-4ec0-abc5-69a9b0453e03","ios":"levelo://app?vid=7d04ca57-82ca-4ec0-abc5-69a9b0453e03"},"vehicle_type_id":"4","last_reported":1729430077,"current_range_meters":31200,"station_id":"ce4bhu92rcd13ifvqi70","pricing_plan_id":"cebpf4jnsgd1na2vs0mg"},{"bike_id":"69663e99-fe51-4c5b-876a-882008f8d5d8","system_id":"levelo_inurba_marseille","lat":43.30186,"lon":5.39786,"is_reserved":false,"is_disabled":false,"rental_uris":{"android":"levelo://app?vid=69663e99-fe51-4c5b-876a-882008f8d5d8","ios":"levelo://app?vid=69663e99-fe51-4c5b-876a-882008f8d5d8"},"vehicle_type_id":"4","last_reported":1729430077,"current_range_meters":6400,"station_id":"","pricing_plan_id":"cebpf4jnsgd1na2vs0mg"},{"bike_id":"a29d8bd2-aafb-49d8-8500-52184463119c","system_id":"levelo_inurba_marseille","lat":43.28151,"lon":5.42639,"is_reserved":false,"is_disabled":false,"rental_uris":{"android":"levelo://app?vid=a29d8bd2-aafb-49d8-8500-52184463119c","ios":"levelo://app?vid=a29d8bd2-aafb-49d8-8500-52184463119c"},"vehicle_type_id":"4","last_reported":1729430077,"current_range_meters":15200,"station_id":"ce4bhnh2rcd13ifvqgug","pricing_plan_id":"cebpf4jnsgd1na2vs0mg"},{"bike_id":"537e8a22-c298-4ede-ace5-bf526297b84f","system_id":"levelo_inurba_marseille","lat":43.2481,"lon":5.37459,"is_reserved":false,"is_disabled":false,"rental_uris":{"android":"levelo://app?vid=537e8a22-c298-4ede-ace5-bf526297b84f","ios":"levelo://app?vid=537e8a22-c298-4ede-ace5-bf526297b84f"},"vehicle_type_id":"4","last_reported":1729430077,"current_range_meters":36400,"station_id":"ce4bhgh2rcd13ifvqfb0","pricing_plan_id":"cebpf4jnsgd1na2vs0mg"},{"bike_id":"e1005a16-8bf1-41a2-89f3-2bdce1b74800","system_id":"levelo_inurba_marseille","lat":43.23198,"lon":5.35552,"is_reserved":false,"is_disabled":false,"rental_uris":{"android":"levelo://app?vid=e1005a16-8bf1-41a2-89f3-2bdce1b74800","ios":"levelo://app?vid=e1005a16-8bf1-41a2-89f3-2bdce1b74800"},"vehicle_type_id":"4","last_reported":1729430077,"current_range_meters":28400,"station_id":"ce4bhu92rcd13ifvqi70","pricing_plan_id":"cebpf4jnsgd1na2vs0mg"},{"bike_id":"fe3b9c67-c7cb-47d4-9ba1-9ecb97378da2","system_id":"levelo_inurba_marseille","lat":43.24162,"lon":5.36391,"is_reserved":false,"is_disabled":false,"rental_uris":{"android":"levelo://app?vid=fe3b9c67-c7cb-47d4-9ba1-9ecb97378da2","ios":"levelo://app?vid=fe3b9c67-c7cb-47d4-9ba1-9ecb97378da2"},"vehicle_type_id":"4","last_reported":1729430077,"current_range_meters":18000,"station_id":"cpo36qri1sfpv3e86is0","pricing_plan_id":"cebpf4jnsgd1na2vs0mg"},{"bike_id":"39ed1b73-4fbe-4b7d-a0d3-85416eb4618e","system_id":"levelo_inurba_marseille","lat":43.23061,"lon":5.3549,"is_reserved":false,"is_disabled":false,"rental_uris":{"android":"levelo://app?vid=39ed1b73-4fbe-4b7d-a0d3-85416eb4618e","ios":"levelo://app?vid=39ed1b73-4fbe-4b7d-a0d3-85416eb4618e"},"vehicle_type_id":"4","last_reported":1729430077,"current_range_meters":11200,"station_id":"cpo3342slgdg3j2ifvpg","pricing_plan_id":"cebpf4jnsgd1na2vs0mg"},{"bike_id":"4190ca2f-f40d-4901-9f78-95cbcad7e28d","system_id":"levelo_inurba_marseille","lat":43.28269,"lon":5.35069,"is_reserved":false,"is_disabled":false,"rental_uris":{"android":"levelo://app?vid=4190ca2f-f40d-4901-9f78-95cbcad7e28d","ios":"levelo://app?vid=4190ca2f-f40d-4901-9f78-95cbcad7e28d"},"vehicle_type_id":"4","last_reported":1729430077,"current_range_meters":22400,"station_id":"ce4bhbp2rcd13ifvqerg","pricing_plan_id":"cebpf4jnsgd1na2vs0mg"},{"bike_id":"f357d317-303f-4db6-a6b2-a7c7395ce5d8","system_id":"levelo_inurba_marseille","lat":43.28098,"lon":5.37842,"is_reserved":false,"is_disabled":false,"rental_uris":{"android":"levelo://app?vid=f357d317-303f-4db6-a6b2-a7c7395ce5d8","ios":"levelo://app?vid=f357d317-303f-4db6-a6b2-a7c7395ce5d8"},"vehicle_type_id":"4","last_reported":1729430077,"current_range_meters":33600,"station_id":"ce4bha12rcd13ifvqee0","pricing_plan_id":"cebpf4jnsgd1na2vs0mg"},{"bike_id":"4d066589-d7f7-444d-87bf-eb705d2285d0","system_id":"levelo_inurba_marseille","lat":43.23191,"lon":5.35541,"is_reserved":false,"is_disabled":false,"rental_uris":{"android":"levelo://app?vid=4d066589-d7f7-444d-87bf-eb705d2285d0","ios":"levelo://app?vid=4d066589-d7f7-444d-87bf-eb705d2285d0"},"vehicle_type_id":"4","last_reported":1729430077,"current_range_meters":20000,"station_id":"ce4bhu92rcd13ifvqi70","pricing_plan_id":"cebpf4jnsgd1na2vs0mg"},{"bike_id":"c3a83c45-1b98-4a12-abd6-f61106e94115","system_id":"levelo_inurba_marseille","lat":43.27492,"lon":5.4245,"is_reserved":false,"is_disabled":false,"rental_uris":{"android":"levelo://app?vid=c3a83c45-1b98-4a12-abd6-f61106e94115","ios":"levelo://app?vid=c3a83c45-1b98-4a12-abd6-f61106e94115"},"vehicle_type_id":"4","last_reported":1729430077,"current_range_meters":40000,"station_id":"ce4bhn92rcd13ifvqgrg","pricing_plan_id":"cebpf4jnsgd1na2vs0mg"},{"bike_id":"94ff2d8d-da24-43ab-95b5-cb980c1c8671","system_id":"levelo_inurba_marseille","lat":43.28415,"lon":5.34993,"is_reserved":false,"is_disabled":false,"rental_uris":{"android":"levelo://app?vid=94ff2d8d-da24-43ab-95b5-cb980c1c8671","ios":"levelo://app?vid=94ff2d8d-da24-43ab-95b5-cb980c1c8671"},"vehicle_type_id":"4","last_reported":1729430077,"current_range_meters":33200,"station_id":"ce4bhbh2rcd13ifvqepg","pricing_plan_id":"cebpf4jnsgd1na2vs0mg"},{"bike_id":"70cfc1b1-18b1-4e0b-8a50-3fe44f6ef40b","system_id":"levelo_inurba_marseille","lat":43.24805,"lon":5.37456,"is_reserved":false,"is_disabled":false,"rental_uris":{"android":"levelo://app?vid=70cfc1b1-18b1-4e0b-8a50-3fe44f6ef40b","ios":"levelo://app?vid=70cfc1b1-18b1-4e0b-8a50-3fe44f6ef40b"},"vehicle_type_id":"4","last_reported":1729430077,"current_range_meters":19600,"station_id":"ce4bhgh2rcd13ifvqfb0","pricing_plan_id":"cebpf4jnsgd1na2vs0mg"},{"bike_id":"6adccd19-a5e1-449f-ba8b-6252d1ee71dd","system_id":"levelo_inurba_marseille","lat":43.27723,"lon":5.41395,"is_reserved":false,"is_disabled":false,"rental_uris":{"android":"levelo://app?vid=6adccd19-a5e1-449f-ba8b-6252d1ee71dd","ios":"levelo://app?vid=6adccd19-a5e1-449f-ba8b-6252d1ee71dd"},"vehicle_type_id":"4","last_reported":1729430077,"current_range_meters":24800,"station_id":"","pricing_plan_id":"cebpf4jnsgd1na2vs0mg"},{"bike_id":"b6beceaa-efb8-4a53-a17c-11e59bf738a9","system_id":"levelo_inurba_marseille","lat":43.321084,"lon":5.367676,"is_reserved":false,"is_disabled":false,"rental_uris":{"android":"levelo://app?vid=b6beceaa-efb8-4a53-a17c-11e59bf738a9","ios":"levelo://app?vid=b6beceaa-efb8-4a53-a17c-11e59bf738a9"},"vehicle_type_id":"4","last_reported":1729430077,"current_range_meters":30400,"station_id":"ce4bhrh2rcd13ifvqhug","pricing_plan_id":"cebpf4jnsgd1na2vs0mg"},{"bike_id":"ca2bcdce-b499-4244-85d5-e1165783f713","system_id":"levelo_inurba_marseille","lat":43.23187,"lon":5.35542,"is_reserved":false,"is_disabled":false,"rental_uris":{"android":"levelo://app?vid=ca2bcdce-b499-4244-85d5-e1165783f713","ios":"levelo://app?vid=ca2bcdce-b499-4244-85d5-e1165783f713"},"vehicle_type_id":"4","last_reported":1729430077,"current_range_meters":36800,"station_id":"ce4bhu92rcd13ifvqi70","pricing_plan_id":"cebpf4jnsgd1na2vs0mg"},{"bike_id":"4e011c89-952e-4135-be77-325014f48249","system_id":"levelo_inurba_marseille","lat":43.30144,"lon":5.3806,"is_reserved":false,"is_disabled":false,"rental_uris":{"android":"levelo://app?vid=4e011c89-952e-4135-be77-325014f48249","ios":"levelo://app?vid=4e011c89-952e-4135-be77-325014f48249"},"vehicle_type_id":"4","last_reported":1729430077,"current_range_meters":26000,"station_id":"ce4bgjp2rcd13ifvqbh0","pricing_plan_id":"cebpf4jnsgd1na2vs0mg"},{"bike_id":"a1596875-e208-43e5-a90d-2a6e5c9aeefb","system_id":"levelo_inurba_marseille","lat":43.23953,"lon":5.36624,"is_reserved":false,"is_disabled":false,"rental_uris":{"android":"levelo://app?vid=a1596875-e208-43e5-a90d-2a6e5c9aeefb","ios":"levelo://app?vid=a1596875-e208-43e5-a90d-2a6e5c9aeefb"},"vehicle_type_id":"4","last_reported":1729430077,"current_range_meters":37600,"station_id":"ce4bhi12rcd13ifvqfp0","pricing_plan_id":"cebpf4jnsgd1na2vs0mg"},{"bike_id":"dff34881-902f-4db3-a583-910747c14ed1","system_id":"levelo_inurba_marseille","lat":43.28265,"lon":5.35056,"is_reserved":false,"is_disabled":false,"rental_uris":{"android":"levelo://app?vid=dff34881-902f-4db3-a583-910747c14ed1","ios":"levelo://app?vid=dff34881-902f-4db3-a583-910747c14ed1"},"vehicle_type_id":"4","last_reported":1729430077,"current_range_meters":27200,"station_id":"ce4bhbp2rcd13ifvqerg","pricing_plan_id":"cebpf4jnsgd1na2vs0mg"},{"bike_id":"384dfe94-bec1-4894-a79e-87fdd4b0e786","system_id":"levelo_inurba_marseille","lat":43.30461,"lon":5.37905,"is_reserved":false,"is_disabled":false,"rental_uris":{"android":"levelo://app?vid=384dfe94-bec1-4894-a79e-87fdd4b0e786","ios":"levelo://app?vid=384dfe94-bec1-4894-a79e-87fdd4b0e786"},"vehicle_type_id":"4","last_reported":1729430077,"current_range_meters":14000,"station_id":"ce4bgup2rcd13ifvqcn0","pricing_plan_id":"cebpf4jnsgd1na2vs0mg"},{"bike_id":"233bb230-b374-48f6-9126-00d47ee68972","system_id":"levelo_inurba_marseille","lat":43.31886,"lon":5.40734,"is_reserved":false,"is_disabled":false,"rental_uris":{"android":"levelo://app?vid=233bb230-b374-48f6-9126-00d47ee68972","ios":"levelo://app?vid=233bb230-b374-48f6-9126-00d47ee68972"},"vehicle_type_id":"4","last_reported":1729430077,"current_range_meters":16800,"station_id":"ce4bhq12rcd13ifvqhig","pricing_plan_id":"cebpf4jnsgd1na2vs0mg"},{"bike_id":"c227adb1-824d-49e3-a9d5-37878a591666","system_id":"levelo_inurba_marseille","lat":43.24651,"lon":5.38896,"is_reserved":false,"is_disabled":false,"rental_uris":{"android":"levelo://app?vid=c227adb1-824d-49e3-a9d5-37878a591666","ios":"levelo://app?vid=c227adb1-824d-49e3-a9d5-37878a591666"},"vehicle_type_id":"4","last_reported":1729430077,"current_range_meters":11200,"station_id":"ce4bhg12rcd13ifvqf60","pricing_plan_id":"cebpf4jnsgd1na2vs0mg"},{"bike_id":"3bf115c6-8efa-475f-af9e-5ee9038c1b80","system_id":"levelo_inurba_marseille","lat":43.31065,"lon":5.40095,"is_reserved":false,"is_disabled":false,"rental_uris":{"android":"levelo://app?vid=3bf115c6-8efa-475f-af9e-5ee9038c1b80","ios":"levelo://app?vid=3bf115c6-8efa-475f-af9e-5ee9038c1b80"},"vehicle_type_id":"4","last_reported":1729430077,"current_range_meters":34800,"station_id":"","pricing_plan_id":"cebpf4jnsgd1na2vs0mg"},{"bike_id":"c332a59c-1dc0-41bb-8d4c-2138be2d95a6","system_id":"levelo_inurba_marseille","lat":43.30135,"lon":5.38782,"is_reserved":false,"is_disabled":false,"rental_uris":{"android":"levelo://app?vid=c332a59c-1dc0-41bb-8d4c-2138be2d95a6","ios":"levelo://app?vid=c332a59c-1dc0-41bb-8d4c-2138be2d95a6"},"vehicle_type_id":"4","last_reported":1729430077,"current_range_meters":26800,"station_id":"ce4bghh2rcd13ifvqb60","pricing_plan_id":"cebpf4jnsgd1na2vs0mg"},{"bike_id":"7651fbe0-4bc9-4312-919c-6985ca4094cf","system_id":"levelo_inurba_marseille","lat":43.2841,"lon":5.34977,"is_reserved":false,"is_disabled":false,"rental_uris":{"android":"levelo://app?vid=7651fbe0-4bc9-4312-919c-6985ca4094cf","ios":"levelo://app?vid=7651fbe0-4bc9-4312-919c-6985ca4094cf"},"vehicle_type_id":"4","last_reported":1729430077,"current_range_meters":30400,"station_id":"ce4bhbh2rcd13ifvqepg","pricing_plan_id":"cebpf4jnsgd1na2vs0mg"},{"bike_id":"b41a0c19-2750-4d29-a331-f8b85cfc2b04","system_id":"levelo_inurba_marseille","lat":43.26939,"lon":5.40244,"is_reserved":false,"is_disabled":false,"rental_uris":{"android":"levelo://app?vid=b41a0c19-2750-4d29-a331-f8b85cfc2b04","ios":"levelo://app?vid=b41a0c19-2750-4d29-a331-f8b85cfc2b04"},"vehicle_type_id":"4","last_reported":1729430077,"current_range_meters":28800,"station_id":"cjm6bp8fraef2m0cb0m0","pricing_plan_id":"cebpf4jnsgd1na2vs0mg"},{"bike_id":"46ee5aa4-451a-4a54-9f45-5f75427fe787","system_id":"levelo_inurba_marseille","lat":43.28415,"lon":5.34985,"is_reserved":false,"is_disabled":false,"rental_uris":{"android":"levelo://app?vid=46ee5aa4-451a-4a54-9f45-5f75427fe787","ios":"levelo://app?vid=46ee5aa4-451a-4a54-9f45-5f75427fe787"},"vehicle_type_id":"4","last_reported":1729430077,"current_range_meters":20400,"station_id":"ce4bhbh2rcd13ifvqepg","pricing_plan_id":"cebpf4jnsgd1na2vs0mg"},{"bike_id":"9dae002f-2149-4e6e-949e-9ed1133d5bb4","system_id":"levelo_inurba_marseille","lat":43.27968,"lon":5.40493,"is_reserved":false,"is_disabled":false,"rental_uris":{"android":"levelo://app?vid=9dae002f-2149-4e6e-949e-9ed1133d5bb4","ios":"levelo://app?vid=9dae002f-2149-4e6e-949e-9ed1133d5bb4"},"vehicle_type_id":"4","last_reported":1729430077,"current_range_meters":4000,"station_id":"","pricing_plan_id":"cebpf4jnsgd1na2vs0mg"},{"bike_id":"bed7037c-a50a-4852-9df0-d31268d8b814","system_id":"levelo_inurba_marseille","lat":43.24169,"lon":5.36394,"is_reserved":false,"is_disabled":false,"rental_uris":{"android":"levelo://app?vid=bed7037c-a50a-4852-9df0-d31268d8b814","ios":"levelo://app?vid=bed7037c-a50a-4852-9df0-d31268d8b814"},"vehicle_type_id":"4","last_reported":1729430077,"current_range_meters":28400,"station_id":"cpo36qri1sfpv3e86is0","pricing_plan_id":"cebpf4jnsgd1na2vs0mg"},