{"last_updated":1761913308,"ttl":60,"version":"2.2","data":{"bikes":[{"bike_id":"c6698ab8-b9c1-4ef6-8d1d-6b190a79e8e9","system_id":"levelo_inurba_marseille","lat":43.309596,"lon":5.37275,"is_reserved":false,"is_disabled":false,"rental_uris":{"android":"levelo://app?vid=c6698ab8-b9c1-4ef6-8d1d-6b190a79e8e9","ios":"levelo://app?vid=c6698ab8-b9c1-4ef6-8d1d-6b190a79e8e9"},"vehicle_type_id":"4","last_reported":1761913309,"current_range_meters":2800,"station_id":"","pricing_plan_id":"cebpf4jnsgd1na2vs0mg"},{"bike_id":"912304fb-9247-48f7-ac13-cc59a800d177","system_id":"levelo_inurba_marseille","lat":43.30134,"lon":5.38063,"is_reserved":false,"is_disabled":false,"rental_uris":{"android":"levelo://app?vid=912304fb-9247-48f7-ac13-cc59a800d177","ios":"levelo://app?vid=912304fb-9247-48f7-ac13-cc59a800d177"},"vehicle_type_id":"4","last_reported":1761913309,"current_range_meters":2800,"station_id":"ce4bgjp2rcd13ifvqbh0","pricing_plan_id":"cebpf4jnsgd1na2vs0mg"},{"bike_id":"3d993880-c09b-41b2-91f5-b025fa0f014d","system_id":"levelo_inurba_marseille","lat":43.29032,"lon":5.39963,"is_reserved":false,"is_disabled":false,"rental_uris":{"android":"levelo://app?vid=3d993880-c09b-41b2-91f5-b025fa0f014d","ios":"levelo://app?vid=3d993880-c09b-41b2-91f5-b025fa0f014d"},"vehicle_type_id":"4","last_reported":1761913309,"current_range_meters":2800,"station_id":"ce4bh392rcd13ifvqdm0","pricing_plan_id":"cebpf4jnsgd1na2vs0mg"},{"bike_id":"b418c441-0482-4c7f-9b94-2ec9c0964d99","system_id":"levelo_inurba_marseille","lat":43.27137,"lon":5.39179,"is_reserved":false,"is_disabled":false,"rental_uris":{"android":"levelo://app?vid=b418c441-0482-4c7f-9b94-2ec9c0964d99","ios":"levelo://app?vid=b418c441-0482-4c7f-9b94-2ec9c0964d99"},"vehicle_type_id":"4","last_reported":1761913309,"current_range_meters":3600,"station_id":"","pricing_plan_id":"cebpf4jnsgd1na2vs0mg"},{"bike_id":"9038c29f-6a34-4120-bb79-f434e4a87b1c","system_id":"levelo_inurba_marseille","lat":43.231474,"lon":5.437181,"is_reserved":false,"is_disabled":false,"rental_uris":{"android":"levelo://app?vid=9038c29f-6a34-4120-bb79-f434e4a87b1c","ios":"levelo://app?vid=9038c29f-6a34-4120-bb79-f434e4a87b1c"},"vehicle_type_id":"4","last_reported":1761913309,"current_range_meters":3600,"station_id":"ce4bhmp2rcd13ifvqgog","pricing_plan_id":"cebpf4jnsgd1na2vs0mg"},{"bike_id":"46b42fe4-f9d7-4475-8f07-9472affe2d6d","system_id":"levelo_inurba_marseille","lat":43.31114,"lon":5.37772,"is_reserved":false,"is_disabled":false,"rental_uris":{"android":"levelo://app?vid=46b42fe4-f9d7-4475-8f07-9472affe2d6d","ios":"levelo://app?vid=46b42fe4-f9d7-4475-8f07-9472affe2d6d"},"vehicle_type_id":"4","last_reported":1761913309,"current_range_meters":3600,"station_id":"ce4bgt92rcd13ifvqcg0","pricing_plan_id":"cebpf4jnsgd1na2vs0mg"},{"bike_id":"e5a10a7d-c520-4bfc-83f9-82fcb3c68a7b","system_id":"levelo_inurba_marseille","lat":43.29786,"lon":5.39345,"is_reserved":false,"is_disabled":false,"rental_uris":{"android":"levelo://app?vid=e5a10a7d-c520-4bfc-83f9-82fcb3c68a7b","ios":"levelo://app?vid=e5a10a7d-c520-4bfc-83f9-82fcb3c68a7b"},"vehicle_type_id":"4","last_reported":1761913309,"current_range_meters":3600,"station_id":"chh1huq6cuj3fo74tm60","pricing_plan_id":"cebpf4jnsgd1na2vs0mg"},{"bike_id":"0b0a5eda-84da-4db9-a53d-813a3230073d","system_id":"levelo_inurba_marseille","lat":43.26685,"lon":5.382705,"is_reserved":false,"is_disabled":false,"rental_uris":{"android":"levelo://app?vid=0b0a5eda-84da-4db9-a53d-813a3230073d","ios":"levelo://app?vid=0b0a5eda-84da-4db9-a53d-813a3230073d"},"vehicle_type_id":"4","last_reported":1761913309,"current_range_meters":4000,"station_id":"ce4bhg92rcd13ifvqf90","pricing_plan_id":"cebpf4jnsgd1na2vs0mg"},{"bike_id":"b194e015-2b99-4311-80aa-3902c944846e","system_id":"levelo_inurba_marseille","lat":43.289668,"lon":5.378281,"is_reserved":false,"is_disabled":true,"rental_uris":{"android":"levelo://app?vid=b194e015-2b99-4311-80aa-3902c944846e","ios":"levelo://app?vid=b194e015-2b99-4311-80aa-3902c944846e"},"vehicle_type_id":"4","last_reported":1761913309,"current_range_meters":4400,"station_id":"","pricing_plan_id":"cebpf4jnsgd1na2vs0mg"},{"bike_id":"80cde17b-197a-4666-8e1e-92c981f7a2d9","system_id":"levelo_inurba_marseille","lat":43.29554,"lon":5.42277,"is_reserved":false,"is_disabled":false,"rental_uris":{"android":"levelo://app?vid=80cde17b-197a-4666-8e1e-92c981f7a2d9","ios":"levelo://app?vid=80cde17b-197a-4666-8e1e-92c981f7a2d9"},"vehicle_type_id":"4","last_reported":1761913309,"current_range_meters":4800,"station_id":"ce4bhph2rcd13ifvqhdg","pricing_plan_id":"cebpf4jnsgd1na2vs0mg"},{"bike_id":"faee4aed-34d1-4e59-9f3e-bc2337688920","system_id":"levelo_inurba_marseille","lat":43.317167,"lon":5.437153,"is_reserved":false,"is_disabled":true,"rental_uris":{"android":"levelo://app?vid=faee4aed-34d1-4e59-9f3e-bc2337688920","ios":"levelo://app?vid=faee4aed-34d1-4e59-9f3e-bc2337688920"},"vehicle_type_id":"4","last_reported":1761913309,"current_range_meters":4800,"station_id":"ce4bhp92rcd13ifvqhcg","pricing_plan_id":"cebpf4jnsgd1na2vs0mg"},{"bike_id":"daf65524-099d-4005-a9d0-10bb49812b76","system_id":"levelo_inurba_marseille","lat":43.28482,"lon":5.386029,"is_reserved":false,"is_disabled":false,"rental_uris":{"android":"levelo://app?vid=daf65524-099d-4005-a9d0-10bb49812b76","ios":"levelo://app?vid=daf65524-099d-4005-a9d0-10bb49812b76"},"vehicle_type_id":"4","last_reported":1761913309,"current_range_meters":4800,"station_id":"ce4bh8p2rcd13ifvqeb0","pricing_plan_id":"cebpf4jnsgd1na2vs0mg"},{"bike_id":"10a399ac-445b-48ba-a9cb-2f1c8fe0f906","system_id":"levelo_inurba_marseille","lat":43.25118,"lon":5.40318,"is_reserved":false,"is_disabled":false,"rental_uris":{"android":"levelo://app?vid=10a399ac-445b-48ba-a9cb-2f1c8fe0f906","ios":"levelo://app?vid=10a399ac-445b-48ba-a9cb-2f1c8fe0f906"},"vehicle_type_id":"4","last_reported":1761913309,"current_range_meters":4800,"station_id":"ce4bhlh2rcd13ifvqgig","pricing_plan_id":"cebpf4jnsgd1na2vs0mg"},{"bike_id":"c8f28d0b-9faf-4f68-a02a-fc4fd31fc0c4","system_id":"levelo_inurba_marseille","lat":43.30087,"lon":5.39088,"is_reserved":false,"is_disabled":false,"rental_uris":{"android":"levelo://app?vid=c8f28d0b-9faf-4f68-a02a-fc4fd31fc0c4","ios":"levelo://app?vid=c8f28d0b-9faf-4f68-a02a-fc4fd31fc0c4"},"vehicle_type_id":"4","last_reported":1761913309,"current_range_meters":5600,"station_id":"ce4bh192rcd13ifvqdb0","pricing_plan_id":"cebpf4jnsgd1na2vs0mg"},{"bike_id":"b4e899d5-4dd9-40d0-aa6d-9fe1dd216eca","system_id":"levelo_inurba_marseille","lat":43.27204,"lon":5.39189,"is_reserved":false,"is_disabled":false,"rental_uris":{"android":"levelo://app?vid=b4e899d5-4dd9-40d0-aa6d-9fe1dd216eca","ios":"levelo://app?vid=b4e899d5-4dd9-40d0-aa6d-9fe1dd216eca"},"vehicle_type_id":"4","last_reported":1761913309,"current_range_meters":5600,"station_id":"ce4bhhp2rcd13ifvqfm0","pricing_plan_id":"cebpf4jnsgd1na2vs0mg"},{"bike_id":"e1eee645-e9d8-43ae-a838-e75bbf350976","system_id":"levelo_inurba_marseille","lat":43.29439,"lon":5.39761,"is_reserved":false,"is_disabled":false,"rental_uris":{"android":"levelo://app?vid=e1eee645-e9d8-43ae-a838-e75bbf350976","ios":"levelo://app?vid=e1eee645-e9d8-43ae-a838-e75bbf350976"},"vehicle_type_id":"4","last_reported":1761913309,"current_range_meters":6000,"station_id":"ce4bh3h2rcd13ifvqdo0","pricing_plan_id":"cebpf4jnsgd1na2vs0mg"},{"bike_id":"5ff51c07-e101-44cd-aadf-ec466fa249ec","system_id":"levelo_inurba_marseille","lat":43.295699,"lon":5.375334,"is_reserved":false,"is_disabled":false,"rental_uris":{"android":"levelo://app?vid=5ff51c07-e101-44cd-aadf-ec466fa249ec","ios":"levelo://app?vid=5ff51c07-e101-44cd-aadf-ec466fa249ec"},"vehicle_type_id":"4","last_reported":1761913309,"current_range_meters":6000,"station_id":"ce4bgh92rcd13ifvqb50","pricing_plan_id":"cebpf4jnsgd1na2vs0mg"},{"bike_id":"d22a83a3-8e51-473b-856c-ff6635733abc","system_id":"levelo_inurba_marseille","lat":43.2781,"lon":5.40713,"is_reserved":false,"is_disabled":false,"rental_uris":{"android":"levelo://app?vid=d22a83a3-8e51-473b-856c-ff6635733abc","ios":"levelo://app?vid=d22a83a3-8e51-473b-856c-ff6635733abc"},"vehicle_type_id":"4","last_reported":1761913309,"current_range_meters":6000,"station_id":"ce4bhnh2rcd13ifvqgtg","pricing_plan_id":"cebpf4jnsgd1na2vs0mg"},{"bike_id":"fcab4ddf-7c9a-4832-a957-af763c1f4abb","system_id":"levelo_inurba_marseille","lat":43.303754,"lon":5.424958,"is_reserved":false,"is_disabled":true,"rental_uris":{"android":"levelo://app?vid=fcab4ddf-7c9a-4832-a957-af763c1f4abb","ios":"levelo://app?vid=fcab4ddf-7c9a-4832-a957-af763c1f4abb"},"vehicle_type_id":"4","last_reported":1761913309,"current_range_meters":6800,"station_id":"","pricing_plan_id":"cebpf4jnsgd1na2vs0mg"},{"bike_id":"0825d5ba-430a-4e37-9b91-bbef3c3824fa","system_id":"levelo_inurba_marseille","lat":43.265641,"lon":5.390094,"is_reserved":false,"is_disabled":false,"rental_uris":{"android":"levelo://app?vid=0825d5ba-430a-4e37-9b91-bbef3c3824fa","ios":"levelo://app?vid=0825d5ba-430a-4e37-9b91-bbef3c3824fa"},"vehicle_type_id":"4","last_reported":1761913309,"current_range_meters":6800,"station_id":"ce4bhe12rcd13ifvqf30","pricing_plan_id":"cebpf4jnsgd1na2vs0mg"},{"bike_id":"1bdb0524-fd2f-434a-9e83-4b7a1a09b5bb","system_id":"levelo_inurba_marseille","lat":43.33402,"lon":5.41116,"is_reserved":false,"is_disabled":false,"rental_uris":{"android":"levelo://app?vid=1bdb0524-fd2f-434a-9e83-4b7a1a09b5bb","ios":"levelo://app?vid=1bdb0524-fd2f-434a-9e83-4b7a1a09b5bb"},"vehicle_type_id":"4","last_reported":1761913309,"current_range_meters":6800,"station_id":"","pricing_plan_id":"cebpf4jnsgd1na2vs0mg"},{"bike_id":"03157751-5626-49fb-a68b-34ac34e93a5c","system_id":"levelo_inurba_marseille","lat":43.211902,"lon":5.350697,"is_reserved":false,"is_disabled":false,"rental_uris":{"android":"levelo://app?vid=03157751-5626-49fb-a68b-34ac34e93a5c","ios":"levelo://app?vid=03157751-5626-49fb-a68b-34ac34e93a5c"},"vehicle_type_id":"4","last_reported":1761913309,"current_range_meters":6800,"station_id":"st_cvj6sg6p6f1abm77japg","pricing_plan_id":"cebpf4jnsgd1na2vs0mg"},{"bike_id":"815311a1-5277-497b-9d77-d9ad29113e72","system_id":"levelo_inurba_marseille","lat":43.273908,"lon":5.390302,"is_reserved":false,"is_disabled":false,"rental_uris":{"android":"levelo://app?vid=815311a1-5277-497b-9d77-d9ad29113e72","ios":"levelo://app?vid=815311a1-5277-497b-9d77-d9ad29113e72"},"vehicle_type_id":"4","last_reported":1761913309,"current_range_meters":7200,"station_id":"ce4bhgp2rcd13ifvqfe0","pricing_plan_id":"cebpf4jnsgd1na2vs0mg"},{"bike_id":"3a217d2d-0c7e-4d79-a702-b9135e90946e","system_id":"levelo_inurba_marseille","lat":43.2814,"lon":5.42637,"is_reserved":false,"is_disabled":true,"rental_uris":{"android":"levelo://app?vid=3a217d2d-0c7e-4d79-a702-b9135e90946e","ios":"levelo://app?vid=3a217d2d-0c7e-4d79-a702-b9135e90946e"},"vehicle_type_id":"4","last_reported":1761913309,"current_range_meters":7200,"station_id":"ce4bhnh2rcd13ifvqgug","pricing_plan_id":"cebpf4jnsgd1na2vs0mg"},{"bike_id":"4ea5c8d3-596b-4c15-9f77-2d54d14bff42","system_id":"levelo_inurba_marseille","lat":43.29875,"lon":5.3844,"is_reserved":false,"is_disabled":false,"rental_uris":{"android":"levelo://app?vid=4ea5c8d3-596b-4c15-9f77-2d54d14bff42","ios":"levelo://app?vid=4ea5c8d3-596b-4c15-9f77-2d54d14bff42"},"vehicle_type_id":"4","last_reported":1761913309,"current_range_meters":8000,"station_id":"","pricing_plan_id":"cebpf4jnsgd1na2vs0mg"},{"bike_id":"6fff56e2-dc33-4322-9554-e738206d1bc0","system_id":"levelo_inurba_marseille","lat":43.21212,"lon":5.35066,"is_reserved":false,"is_disabled":false,"rental_uris":{"android":"levelo://app?vid=6fff56e2-dc33-4322-9554-e738206d1bc0","ios":"levelo://app?vid=6fff56e2-dc33-4322-9554-e738206d1bc0"},"vehicle_type_id":"4","last_reported":1761913309,"current_range_meters":8000,"station_id":"st_cvj6sg6p6f1abm77japg","pricing_plan_id":"cebpf4jnsgd1na2vs0mg"},{"bike_id":"645ddecc-598c-43b9-986f-3be375a36e66","system_id":"levelo_inurba_marseille","lat":43.27805,"lon":5.40703,"is_reserved":false,"is_disabled":false,"rental_uris":{"android":"levelo://app?vid=645ddecc-598c-43b9-986f-3be375a36e66","ios":"levelo://app?vid=645ddecc-598c-43b9-986f-3be375a36e66"},"vehicle_type_id":"4","last_reported":1761913309,"current_range_meters":8000,"station_id":"ce4bhnh2rcd13ifvqgtg","pricing_plan_id":"cebpf4jnsgd1na2vs0mg"},{"bike_id":"86a14c73-a695-4685-9ede-3bdcd96cfdef","system_id":"levelo_inurba_marseille","lat":43.21164,"lon":5.35073,"is_reserved":false,"is_disabled":false,"rental_uris":{"android":"levelo://app?vid=86a14c73-a695-4685-9ede-3bdcd96cfdef","ios":"levelo://app?vid=86a14c73-a695-4685-9ede-3bdcd96cfdef"},"vehicle_type_id":"4","last_reported":1761913309,"current_range_meters":8400,"station_id":"st_cvj6sg6p6f1abm77japg","pricing_plan_id":"cebpf4jnsgd1na2vs0mg"},{"bike_id":"3126ce35-4101-4b06-a7b2-19548fb25089","system_id":"levelo_inurba_marseille","lat":43.22926,"lon":5.35383,"is_reserved":false,"is_disabled":false,"rental_uris":{"android":"levelo://app?vid=3126ce35-4101-4b06-a7b2-19548fb25089","ios":"levelo://app?vid=3126ce35-4101-4b06-a7b2-19548fb25089"},"vehicle_type_id":"4","last_reported":1761913309,"current_range_meters":8400,"station_id":"cpo3532slgdg3j2ikp40","pricing_plan_id":"cebpf4jnsgd1na2vs0mg"},{"bike_id":"e67c1b1c-690e-4357-ae99-12ac01951002","system_id":"levelo_inurba_marseille","lat":43.27811,"lon":5.40707,"is_reserved":false,"is_disabled":false,"rental_uris":{"android":"levelo://app?vid=e67c1b1c-690e-4357-ae99-12ac01951002","ios":"levelo://app?vid=e67c1b1c-690e-4357-ae99-12ac01951002"},"vehicle_type_id":"4","last_reported":1761913309,"current_range_meters":8400,"station_id":"ce4bhnh2rcd13ifvqgtg","pricing_plan_id":"cebpf4jnsgd1na2vs0mg"},{"bike_id":"c4f450bc-ebbb-453e-a00b-5e0ca0bd6e90","system_id":"levelo_inurba_marseille","lat":43.2987,"lon":5.39732,"is_reserved":false,"is_disabled":false,"rental_uris":{"android":"levelo://app?vid=c4f450bc-ebbb-453e-a00b-5e0ca0bd6e90","ios":"levelo://app?vid=c4f450bc-ebbb-453e-a00b-5e0ca0bd6e90"},"vehicle_type_id":"4","last_reported":1761913309,"current_range_meters":8800,"station_id":"ce4bh0h2rcd13ifvqd50","pricing_plan_id":"cebpf4jnsgd1na2vs0mg"},{"bike_id":"688e0991-23bb-4f67-a97d-b9bb7704a66a","system_id":"levelo_inurba_marseille","lat":43.29255,"lon":5.39101,"is_reserved":false,"is_disabled":false,"rental_uris":{"android":"levelo://app?vid=688e0991-23bb-4f67-a97d-b9bb7704a66a","ios":"levelo://app?vid=688e0991-23bb-4f67-a97d-b9bb7704a66a"},"vehicle_type_id":"4","last_reported":1761913309,"current_range_meters":8800,"station_id":"","pricing_plan_id":"cebpf4jnsgd1na2vs0mg"},{"bike_id":"2b17cb69-512a-42f3-b8f4-c0368fa3d5ca","system_id":"levelo_inurba_marseille","lat":43.30172,"lon":5.36604,"is_reserved":false,"is_disabled":false,"rental_uris":{"android":"levelo://app?vid=2b17cb69-512a-42f3-b8f4-c0368fa3d5ca","ios":"levelo://app?vid=2b17cb69-512a-42f3-b8f4-c0368fa3d5ca"},"vehicle_type_id":"4","last_reported":1761913309,"current_range_meters":8800,"station_id":"ce4bgrh2rcd13ifvqc8g","pricing_plan_id":"cebpf4jnsgd1na2vs0mg"},{"bike_id":"45dab813-760e-4f86-9e1b-d368f33d37b1","system_id":"levelo_inurba_marseille","lat":43.2781,"lon":5.40722,"is_reserved":false,"is_disabled":false,"rental_uris":{"android":"levelo://app?vid=45dab813-760e-4f86-9e1b-d368f33d37b1","ios":"levelo://app?vid=45dab813-760e-4f86-9e1b-d368f33d37b1"},"vehicle_type_id":"4","last_reported":1761913309,"current_range_meters":8800,"station_id":"ce4bhnh2rcd13ifvqgtg","pricing_plan_id":"cebpf4jnsgd1na2vs0mg"},{"bike_id":"6c3f8b32-c115-4971-ab70-7ce53698f0ed","system_id":"levelo_inurba_marseille","lat":43.281524,"lon":5.426343,"is_reserved":false,"is_disabled":true,"rental_uris":{"android":"levelo://app?vid=6c3f8b32-c115-4971-ab70-7ce53698f0ed","ios":"levelo://app?vid=6c3f8b32-c115-4971-ab70-7ce53698f0ed"},"vehicle_type_id":"4","last_reported":1761913309,"current_range_meters":8800,"station_id":"ce4bhnh2rcd13ifvqgug","pricing_plan_id":"cebpf4jnsgd1na2vs0mg"},{"bike_id":"42e53708-5b7f-466e-8fa6-6aa3341feea8","system_id":"levelo_inurba_marseille","lat":43.260559,"lon":5.394004,"is_reserved":false,"is_disabled":false,"rental_uris":{"android":"levelo://app?vid=42e53708-5b7f-466e-8fa6-6aa3341feea8","ios":"levelo://app?vid=42e53708-5b7f-466e-8fa6-6aa3341feea8"},"vehicle_type_id":"4","last_reported":1761913309,"current_range_meters":8800,"station_id":"ce4bhh92rcd13ifvqfj0","pricing_plan_id":"cebpf4jnsgd1na2vs0mg"},{"bike_id":"ef077506-ad53-48c6-96ed-57184394616c","system_id":"levelo_inurba_marseille","lat":43.308822,"lon":5.371966,"is_reserved":false,"is_disabled":false,"rental_uris":{"android":"levelo://app?vid=ef077506-ad53-48c6-96ed-57184394616c","ios":"levelo://app?vid=ef077506-ad53-48c6-96ed-57184394616c"},"vehicle_type_id":"4","last_reported":1761913309,"current_range_meters":9200,"station_id":"ce4bguh2rcd13ifvqckg","pricing_plan_id":"cebpf4jnsgd1na2vs0mg"},{"bike_id":"64525ade-aa6c-40f4-9ace-35768c8d6795","system_id":"levelo_inurba_marseille","lat":43.3172,"lon":5.37711,"is_reserved":false,"is_disabled":false,"rental_uris":{"android":"levelo://app?vid=64525ade-aa6c-40f4-9ace-35768c8d6795","ios":"levelo://app?vid=64525ade-aa6c-40f4-9ace-35768c8d6795"},"vehicle_type_id":"4","last_reported":1761913309,"current_range_meters":9200,"station_id":"ce4bgth2rcd13ifvqch0","pricing_plan_id":"cebpf4jnsgd1na2vs0mg"},{"bike_id":"6ba7148c-28ec-4586-a6b0-1a2fa6b9df63","system_id":"levelo_inurba_marseille","lat":43.27802,"lon":5.40718,"is_reserved":false,"is_disabled":false,"rental_uris":{"android":"levelo://app?vid=6ba7148c-28ec-4586-a6b0-1a2fa6b9df63","ios":"levelo://app?vid=6ba7148c-28ec-4586-a6b0-1a2fa6b9df63"},"vehicle_type_id":"4","last_reported":1761913309,"current_range_meters":9200,"station_id":"ce4bhnh2rcd13ifvqgtg","pricing_plan_id":"cebpf4jnsgd1na2vs0mg"},{"bike_id":"ead844a0-4454-40b3-a3a7-3f58b37506e7","system_id":"levelo_inurba_marseille","lat":43.30142,"lon":5.37388,"is_reserved":false,"is_disabled":false,"rental_uris":{"android":"levelo://app?vid=ead844a0-4454-40b3-a3a7-3f58b37506e7","ios":"levelo://app?vid=ead844a0-4454-40b3-a3a7-3f58b37506e7"},"vehicle_type_id":"4","last_reported":1761913309,"current_range_meters":9200,"station_id":"ce4bgs92rcd13ifvqcc0","pricing_plan_id":"cebpf4jnsgd1na2vs0mg"},{"bike_id":"741d4c93-3ee1-4632-83ba-0a07bd6e4609","system_id":"levelo_inurba_marseille","lat":43.31267,"lon":5.40169,"is_reserved":false,"is_disabled":false,"rental_uris":{"android":"levelo://app?vid=741d4c93-3ee1-4632-83ba-0a07bd6e4609","ios":"levelo://app?vid=741d4c93-3ee1-4632-83ba-0a07bd6e4609"},"vehicle_type_id":"4","last_reported":1761913309,"current_range_meters":9200,"station_id":"ce4bh092rcd13ifvqd30","pricing_plan_id":"cebpf4jnsgd1na2vs0mg"},{"bike_id":"c8d3bfda-75e4-4a7b-8d41-532c88430ba3","system_id":"levelo_inurba_marseille","lat":43.29168,"lon":5.37178,"is_reserved":false,"is_disabled":false,"rental_uris":{"android":"levelo://app?vid=c8d3bfda-75e4-4a7b-8d41-532c88430ba3","ios":"levelo://app?vid=c8d3bfda-75e4-4a7b-8d41-532c88430ba3"},"vehicle_type_id":"4","last_reported":1761913309,"current_range_meters":9200,"station_id":"ce4bha92rcd13ifvqeh0","pricing_plan_id":"cebpf4jnsgd1na2vs0mg"},{"bike_id":"d99505fe-d7a7-4e44-b7f5-f0065cd01a03","system_id":"levelo_inurba_marseille","lat":43.33377,"lon":5.42908,"is_reserved":false,"is_disabled":false,"rental_uris":{"android":"levelo://app?vid=d99505fe-d7a7-4e44-b7f5-f0065cd01a03","ios":"levelo://app?vid=d99505fe-d7a7-4e44-b7f5-f0065cd01a03"},"vehicle_type_id":"4","last_reported":1761913309,"current_range_meters":10000,"station_id":"","pricing_plan_id":"cebpf4jnsgd1na2vs0mg"},{"bike_id":"5bf81ccc-3f93-477c-b181-fa9e1b7b6e2f","system_id":"levelo_inurba_marseille","lat":43.30542,"lon":5.36554,"is_reserved":false,"is_disabled":false,"rental_uris":{"android":"levelo://app?vid=5bf81ccc-3f93-477c-b181-fa9e1b7b6e2f","ios":"levelo://app?vid=5bf81ccc-3f93-477c-b181-fa9e1b7b6e2f"},"vehicle_type_id":"4","last_reported":1761913309,"current_range_meters":10000,"station_id":"ce4bgs12rcd13ifvqcag","pricing_plan_id":"cebpf4jnsgd1na2vs0mg"},{"bike_id":"ab2ac691-ae6e-409d-b760-3d1729e45e58","system_id":"levelo_inurba_marseille","lat":43.24659,"lon":5.38161,"is_reserved":false,"is_disabled":false,"rental_uris":{"android":"levelo://app?vid=ab2ac691-ae6e-409d-b760-3d1729e45e58","ios":"levelo://app?vid=ab2ac691-ae6e-409d-b760-3d1729e45e58"},"vehicle_type_id":"4","last_reported":1761913309,"current_range_meters":10000,"station_id":"ce4bhih2rcd13ifvqfr0","pricing_plan_id":"cebpf4jnsgd1na2vs0mg"},{"bike_id":"41caab91-c44b-40e9-a8ed-5335d1fd14a9","system_id":"levelo_inurba_marseille","lat":43.29255,"lon":5.37629,"is_reserved":false,"is_disabled":false,"rental_uris":{"android":"levelo://app?vid=41caab91-c44b-40e9-a8ed-5335d1fd14a9","ios":"levelo://app?vid=41caab91-c44b-40e9-a8ed-5335d1fd14a9"},"vehicle_type_id":"4","last_reported":1761913309,"current_range_meters":10000,"station_id":"ce4bgi12rcd13ifvqb80","pricing_plan_id":"cebpf4jnsgd1na2vs0mg"},{"bike_id":"9b93b5e1-c939-4745-bf85-2d21945442dc","system_id":"levelo_inurba_marseille","lat":43.29984,"lon":5.36419,"is_reserved":false,"is_disabled":false,"rental_uris":{"android":"levelo://app?vid=9b93b5e1-c939-4745-bf85-2d21945442dc","ios":"levelo://app?vid=9b93b5e1-c939-4745-bf85-2d21945442dc"},"vehicle_type_id":"4","last_reported":1761913309,"current_range_meters":10800,"station_id":"","pricing_plan_id":"cebpf4jnsgd1na2vs0mg"},{"bike_id":"6031e130-bc2f-4945-be2d-739bc30e9d8e","system_id":"levelo_inurba_marseille","lat":43.28533,"lon":5.44101,"is_reserved":false,"is_disabled":false,"rental_uris":{"android":"levelo://app?vid=6031e130-bc2f-4945-be2d-739bc30e9d8e","ios":"levelo://app?vid=6031e130-bc2f-4945-be2d-739bc30e9d8e"},"vehicle_type_id":"4","last_reported":1761913309,"current_range_meters":10800,"station_id":"st_d3j3df2ikq2c7380ej80","pricing_plan_id":"cebpf4jnsgd1na2vs0mg"},{"bike_id":"8da2bf11-9bc4-4238-a344-ba852619a652","system_id":"levelo_inurba_marseille","lat":43.27815,"lon":5.40722,"is_reserved":false,"is_disabled":false,"rental_uris":{"android":"levelo://app?vid=8da2bf11-9bc4-4238-a344-ba852619a652","ios":"levelo://app?vid=8da2bf11-9bc4-4238-a344-ba852619a652"},"vehicle_type_id":"4","last_reported":1761913309,"current_range_meters":10800,"station_id":"ce4bhnh2rcd13ifvqgtg","pricing_plan_id":"cebpf4jnsgd1na2vs0mg"},{"bike_id":"a18dbf48-2c4d-4fa4-a4c5-c9871d73c9a0","system_id":"levelo_inurba_marseille","lat":43.301994,"lon":5.383462,"is_reserved":false,"is_disabled":false,"rental_uris":{"android":"levelo://app?vid=a18dbf48-2c4d-4fa4-a4c5-c9871d73c9a0","ios":"levelo://app?vid=a18dbf48-2c4d-4fa4-a4c5-c9871d73c9a0"},"vehicle_type_id":"4","last_reported":1761913309,"current_range_meters":10800,"station_id":"ce4bgup2rcd13ifvqcn0","pricing_plan_id":"cebpf4jnsgd1na2vs0mg"},{"bike_id":"aad731fe-f402-47a2-a9e2-d1ab53621c21","system_id":"levelo_inurba_marseille","lat":43.23788,"lon":5.36594,"is_reserved":false,"is_disabled":false,"rental_uris":{"android":"levelo://app?vid=aad731fe-f402-47a2-a9e2-d1ab53621c21","ios":"levelo://app?vid=aad731fe-f402-47a2-a9e2-d1ab53621c21"},"vehicle_type_id":"4","last_reported":1761913309,"current_range_meters":10800,"station_id":"st_d3nk18o9ro0c73en2l3g","pricing_plan_id":"cebpf4jnsgd1na2vs0mg"},{"bike_id":"b61e1e59-261f-4781-9885-10fc3dd1eaf7","system_id":"levelo_inurba_marseille","lat":43.30473,"lon":5.3691,"is_reserved":false,"is_disabled":false,"rental_uris":{"android":"levelo://app?vid=b61e1e59-261f-4781-9885-10fc3dd1eaf7","ios":"levelo://app?vid=b61e1e59-261f-4781-9885-10fc3dd1eaf7"},"vehicle_type_id":"4","last_reported":1761913309,"current_range_meters":10800,"station_id":"","pricing_plan_id":"cebpf4jnsgd1na2vs0mg"},{"bike_id":"45f46e23-7c09-43e8-9d95-fa5045c9e939","system_id":"levelo_inurba_marseille","lat":43.324806,"lon":5.365608,"is_reserved":false,"is_disabled":false,"rental_uris":{"android":"levelo://app?vid=45f46e23-7c09-43e8-9d95-fa5045c9e939","ios":"levelo://app?vid=45f46e23-7c09-43e8-9d95-fa5045c9e939"},"vehicle_type_id":"4","last_reported":1761913309,"current_range_meters":10800,"station_id":"ce4bhs12rcd13ifvqhvg","pricing_plan_id":"cebpf4jnsgd1na2vs0mg"},{"bike_id":"68f6cc4a-b8aa-40f6-b3ef-f3f1746889f5","system_id":"levelo_inurba_marseille","lat":43.27999,"lon":5.40015,"is_reserved":false,"is_disabled":false,"rental_uris":{"android":"levelo://app?vid=68f6cc4a-b8aa-40f6-b3ef-f3f1746889f5","ios":"levelo://app?vid=68f6cc4a-b8aa-40f6-b3ef-f3f1746889f5"},"vehicle_type_id":"4","last_reported":1761913309,"current_range_meters":10800,"station_id":"ce4bho92rcd13ifvqh4g","pricing_plan_id":"cebpf4jnsgd1na2vs0mg"},{"bike_id":"1e788146-485b-468f-be53-a0e444dfcab0","system_id":"levelo_inurba_marseille","lat":43.23173,"lon":5.39987,"is_reserved":false,"is_disabled":false,"rental_uris":{"android":"levelo://app?vid=1e788146-485b-468f-be53-a0e444dfcab0","ios":"levelo://app?vid=1e788146-485b-468f-be53-a0e444dfcab0"},"vehicle_type_id":"4","last_reported":1761913309,"current_range_meters":11200,"station_id":"ce4bhn12rcd13ifvqgqg","pricing_plan_id":"cebpf4jnsgd1na2vs0mg"},{"bike_id":"180e81ab-02b6-4ecc-8489-a4fcb903073e","system_id":"levelo_inurba_marseille","lat":43.29969,"lon":5.38498,"is_reserved":false,"is_disabled":false,"rental_uris":{"android":"levelo://app?vid=180e81ab-02b6-4ecc-8489-a4fcb903073e","ios":"levelo://app?vid=180e81ab-02b6-4ecc-8489-a4fcb903073e"},"vehicle_type_id":"4","last_reported":1761913309,"current_range_meters":11200,"station_id":"ce4bgj92rcd13ifvqbd0","pricing_plan_id":"cebpf4jnsgd1na2vs0mg"},{"bike_id":"06bd3920-933a-4962-b9fc-baaa064cc24b","system_id":"levelo_inurba_marseille","lat":43.27419,"lon":5.39419,"is_reserved":false,"is_disabled":false,"rental_uris":{"android":"levelo://app?vid=06bd3920-933a-4962-b9fc-baaa064cc24b","ios":"levelo://app?vid=06bd3920-933a-4962-b9fc-baaa064cc24b"},"vehicle_type_id":"4","last_reported":1761913309,"current_range_meters":11200,"station_id":"ce4bhdp2rcd13ifvqf20","pricing_plan_id":"cebpf4jnsgd1na2vs0mg"},{"bike_id":"4029e73b-612d-4b98-ae89-89c9601b408d","system_id":"levelo_inurba_marseille","lat":43.27971,"lon":5.38742,"is_reserved":false,"is_disabled":false,"rental_uris":{"android":"levelo://app?vid=4029e73b-612d-4b98-ae89-89c9601b408d","ios":"levelo://app?vid=4029e73b-612d-4b98-ae89-89c9601b408d"},"vehicle_type_id":"4","last_reported":1761913309,"current_range_meters":11200,"station_id":"ce4bhg12rcd13ifvqf80","pricing_plan_id":"cebpf4jnsgd1na2vs0mg"},{"bike_id":"13b5bebc-2277-4643-9efc-b419c3a09bbd","system_id":"levelo_inurba_marseille","lat":43.229309,"lon":5.353723,"is_reserved":false,"is_disabled":false,"rental_uris":{"android":"levelo://app?vid=13b5bebc-2277-4643-9efc-b419c3a09bbd","ios":"levelo://app?vid=13b5bebc-2277-4643-9efc-b419c3a09bbd"},"vehicle_type_id":"4","last_reported":1761913309,"current_range_meters":11600,"station_id":"cpo3532slgdg3j2ikp40","pricing_plan_id":"cebpf4jnsgd1na2vs0mg"},{"bike_id":"2cd521f6-2991-44c0-bc06-561b6360d1f2","system_id":"levelo_inurba_marseille","lat":43.30641,"lon":5.40106,"is_reserved":false,"is_disabled":false,"rental_uris":{"android":"levelo://app?vid=2cd521f6-2991-44c0-bc06-561b6360d1f2","ios":"levelo://app?vid=2cd521f6-2991-44c0-bc06-561b6360d1f2"},"vehicle_type_id":"4","last_reported":1761913309,"current_range_meters":11600,"station_id":"ce4bh112rcd13ifvqda0","pricing_plan_id":"cebpf4jnsgd1na2vs0mg"},{"bike_id":"2662fe9b-aa47-4e6a-8505-64d896678582","system_id":"levelo_inurba_marseille","lat":43.22565,"lon":5.41627,"is_reserved":false,"is_disabled":false,"rental_uris":{"android":"levelo://app?vid=2662fe9b-aa47-4e6a-8505-64d896678582","ios":"levelo://app?vid=2662fe9b-aa47-4e6a-8505-64d896678582"},"vehicle_type_id":"4","last_reported":1761913309,"current_range_meters":11600,"station_id":"st_d2o4gvlbi1j2169b742g","pricing_plan_id":"cebpf4jnsgd1na2vs0mg"},{"bike_id":"70d1402a-0807-4bad-8580-f77e413f9816","system_id":"levelo_inurba_marseille","lat":43.27978,"lon":5.3873,"is_reserved":false,"is_disabled":false,"rental_uris":{"android":"levelo://app?vid=70d1402a-0807-4bad-8580-f77e413f9816","ios":"levelo://app?vid=70d1402a-0807-4bad-8580-f77e413f9816"},"vehicle_type_id":"4","last_reported":1761913309,"current_range_meters":11600,"station_id":"ce4bhg12rcd13ifvqf80","pricing_plan_id":"cebpf4jnsgd1na2vs0mg"},{"bike_id":"d3e4191f-8708-4957-a7db-efe93d73dc66","system_id":"levelo_inurba_marseille","lat":43.28522,"lon":5.44103,"is_reserved":false,"is_disabled":false,"rental_uris":{"android":"levelo://app?vid=d3e4191f-8708-4957-a7db-efe93d73dc66","ios":"levelo://app?vid=d3e4191f-8708-4957-a7db-efe93d73dc66"},"vehicle_type_id":"4","last_reported":1761913309,"current_range_meters":12000,"station_id":"st_d3j3df2ikq2c7380ej80","pricing_plan_id":"cebpf4jnsgd1na2vs0mg"},{"bike_id":"88327406-ba65-4ce0-831c-3da476dbb691","system_id":"levelo_inurba_marseille","lat":43.23783,"lon":5.366295,"is_reserved":false,"is_disabled":false,"rental_uris":{"android":"levelo://app?vid=88327406-ba65-4ce0-831c-3da476dbb691","ios":"levelo://app?vid=88327406-ba65-4ce0-831c-3da476dbb691"},"vehicle_type_id":"4","last_reported":1761913309,"current_range_meters":12000,"station_id":"st_d3nk18o9ro0c73en2l3g","pricing_plan_id":"cebpf4jnsgd1na2vs0mg"},{"bike_id":"60ef5c64-5d03-41c7-afc2-aafc3eb32b64","system_id":"levelo_inurba_marseille","lat":43.26227,"lon":5.40447,"is_reserved":false,"is_disabled":false,"rental_uris":{"android":"levelo://app?vid=60ef5c64-5d03-41c7-afc2-aafc3eb32b64","ios":"levelo://app?vid=60ef5c64-5d03-41c7-afc2-aafc3eb32b64"},"vehicle_type_id":"4","last_reported":1761913309,"current_range_meters":12000,"station_id":"ce4bhmh2rcd13ifvqgmg","pricing_plan_id":"cebpf4jnsgd1na2vs0mg"},{"bike_id":"8a0ff850-cf9f-4e75-bc3f-994489f28f31","system_id":"levelo_inurba_marseille","lat":43.22556,"lon":5.41633,"is_reserved":false,"is_disabled":false,"rental_uris":{"android":"levelo://app?vid=8a0ff850-cf9f-4e75-bc3f-994489f28f31","ios":"levelo://app?vid=8a0ff850-cf9f-4e75-bc3f-994489f28f31"},"vehicle_type_id":"4","last_reported":1761913309,"current_range_meters":12000,"station_id":"st_d2o4gvlbi1j2169b742g","pricing_plan_id":"cebpf4jnsgd1na2vs0mg"},{"bike_id":"b8f404d3-62c4-4489-a471-d37212346558","system_id":"levelo_inurba_marseille","lat":43.3107,"lon":5.37856,"is_reserved":false,"is_disabled":false,"rental_uris":{"android":"levelo://app?vid=b8f404d3-62c4-4489-a471-d37212346558","ios":"levelo://app?vid=b8f404d3-62c4-4489-a471-d37212346558"},"vehicle_type_id":"4","last_reported":1761913309,"current_range_meters":12000,"station_id":"","pricing_plan_id":"cebpf4jnsgd1na2vs0mg"},{"bike_id":"6e612469-65bc-40ca-aa5f-190261514f1b","system_id":"levelo_inurba_marseille","lat":43.29579,"lon":5.39976,"is_reserved":false,"is_disabled":false,"rental_uris":{"android":"levelo://app?vid=6e612469-65bc-40ca-aa5f-190261514f1b","ios":"levelo://app?vid=6e612469-65bc-40ca-aa5f-190261514f1b"},"vehicle_type_id":"4","last_reported":1761913309,"current_range_meters":12000,"station_id":"ce4bh312rcd13ifvqdj0","pricing_plan_id":"cebpf4jnsgd1na2vs0mg"},{"bike_id":"82356bbf-0422-4b73-b79c-5579ddde5ef9","system_id":"levelo_inurba_marseille","lat":43.279673,"lon":5.387388,"is_reserved":false,"is_disabled":false,"rental_uris":{"android":"levelo://app?vid=82356bbf-0422-4b73-b79c-5579ddde5ef9","ios":"levelo://app?vid=82356bbf-0422-4b73-b79c-5579ddde5ef9"},"vehicle_type_id":"4","last_reported":1761913309,"current_range_meters":12400,"station_id":"ce4bhg12rcd13ifvqf80","pricing_plan_id":"cebpf4jnsgd1na2vs0mg"},{"bike_id":"7afafebc-9388-4b96-826a-eb1746b15f9a","system_id":"levelo_inurba_marseille","lat":43.27066,"lon":5.42271,"is_reserved":false,"is_disabled":false,"rental_uris":{"android":"levelo://app?vid=7afafebc-9388-4b96-826a-eb1746b15f9a","ios":"levelo://app?vid=7afafebc-9388-4b96-826a-eb1746b15f9a"},"vehicle_type_id":"4","last_reported":1761913309,"current_range_meters":12400,"station_id":"ce4bhk92rcd13ifvqgb0","pricing_plan_id":"cebpf4jnsgd1na2vs0mg"},{"bike_id":"7c39b2fb-7a03-43ab-804a-044e198793c9","system_id":"levelo_inurba_marseille","lat":43.286926,"lon":5.399806,"is_reserved":false,"is_disabled":false,"rental_uris":{"android":"levelo://app?vid=7c39b2fb-7a03-43ab-804a-044e198793c9","ios":"levelo://app?vid=7c39b2fb-7a03-43ab-804a-044e198793c9"},"vehicle_type_id":"4","last_reported":1761913309,"current_range_meters":12400,"station_id":"ce4bho92rcd13ifvqh3g","pricing_plan_id":"cebpf4jnsgd1na2vs0mg"},{"bike_id":"aed75571-3b22-4bd2-a39c-76a6d40a0994","system_id":"levelo_inurba_marseille","lat":43.27812,"lon":5.40708,"is_reserved":false,"is_disabled":false,"rental_uris":{"android":"levelo://app?vid=aed75571-3b22-4bd2-a39c-76a6d40a0994","ios":"levelo://app?vid=aed75571-3b22-4bd2-a39c-76a6d40a0994"},"vehicle_type_id":"4","last_reported":1761913309,"current_range_meters":12800,"station_id":"ce4bhnh2rcd13ifvqgtg","pricing_plan_id":"cebpf4jnsgd1na2vs0mg"},{"bike_id":"55dcd01c-d34a-47be-a3d6-36ce1a799b9c","system_id":"levelo_inurba_marseille","lat":43.29221,"lon":5.36068,"is_reserved":false,"is_disabled":false,"rental_uris":{"android":"levelo://app?vid=55dcd01c-d34a-47be-a3d6-36ce1a799b9c","ios":"levelo://app?vid=55dcd01c-d34a-47be-a3d6-36ce1a799b9c"},"vehicle_type_id":"4","last_reported":1761913309,"current_range_meters":12800,"station_id":"ce4bhbh2rcd13ifvqeqg","pricing_plan_id":"cebpf4jnsgd1na2vs0mg"},{"bike_id":"2f477f8f-972b-406c-841a-14096d9c76ee","system_id":"levelo_inurba_marseille","lat":43.297439,"lon":5.427865,"is_reserved":false,"is_disabled":false,"rental_uris":{"android":"levelo://app?vid=2f477f8f-972b-406c-841a-14096d9c76ee","ios":"levelo://app?vid=2f477f8f-972b-406c-841a-14096d9c76ee"},"vehicle_type_id":"4","last_reported":1761913309,"current_range_meters":12800,"station_id":"st_d3md5207bmas73dh9klg","pricing_plan_id":"cebpf4jnsgd1na2vs0mg"},{"bike_id":"80c53fab-d9fd-4b9a-94e7-e3f3183e35da","system_id":"levelo_inurba_marseille","lat":43.330245,"lon":5.390342,"is_reserved":false,"is_disabled":false,"rental_uris":{"android":"levelo://app?vid=80c53fab-d9fd-4b9a-94e7-e3f3183e35da","ios":"levelo://app?vid=80c53fab-d9fd-4b9a-94e7-e3f3183e35da"},"vehicle_type_id":"4","last_reported":1761913309,"current_range_meters":12800,"station_id":"ce4bhr92rcd13ifvqhrg","pricing_plan_id":"cebpf4jnsgd1na2vs0mg"},{"bike_id":"70b7527d-67eb-4818-84c6-51aae343ca97","system_id":"levelo_inurba_marseille","lat":43.28462,"lon":5.48425,"is_reserved":false,"is_disabled":false,"rental_uris":{"android":"levelo://app?vid=70b7527d-67eb-4818-84c6-51aae343ca97","ios":"levelo://app?vid=70b7527d-67eb-4818-84c6-51aae343ca97"},"vehicle_type_id":"4","last_reported":1761913309,"current_range_meters":12800,"station_id":"st_d3svhcjqgbts73a3dn0g","pricing_plan_id":"cebpf4jnsgd1na2vs0mg"},{"bike_id":"f00d2207-02e8-41f7-82f6-ea72ec5fcf21","system_id":"levelo_inurba_marseille","lat":43.31884,"lon":5.4074,"is_reserved":false,"is_disabled":false,"rental_uris":{"android":"levelo://app?vid=f00d2207-02e8-41f7-82f6-ea72ec5fcf21","ios":"levelo://app?vid=f00d2207-02e8-41f7-82f6-ea72ec5fcf21"},"vehicle_type_id":"4","last_reported":1761913309,"current_range_meters":12800,"station_id":"ce4bhq12rcd13ifvqhig","pricing_plan_id":"cebpf4jnsgd1na2vs0mg"},{"bike_id":"85800a16-60b2-47ff-8509-ea53cdf1e0af","system_id":"levelo_inurba_marseille","lat":43.21182,"lon":5.35075,"is_reserved":false,"is_disabled":false,"rental_uris":{"android":"levelo://app?vid=85800a16-60b2-47ff-8509-ea53cdf1e0af","ios":"levelo://app?vid=85800a16-60b2-47ff-8509-ea53cdf1e0af"},"vehicle_type_id":"4","last_reported":1761913309,"current_range_meters":12800,"station_id":"st_cvj6sg6p6f1abm77japg","pricing_plan_id":"cebpf4jnsgd1na2vs0mg"},{"bike_id":"e1374d14-ca8c-4d30-bf7a-1e91101e2cee","system_id":"levelo_inurba_marseille","lat":43.28536,"lon":5.441,"is_reserved":false,"is_disabled":false,"rental_uris":{"android":"levelo://app?vid=e1374d14-ca8c-4d30-bf7a-1e91101e2cee","ios":"levelo://app?vid=e1374d14-ca8c-4d30-bf7a-1e91101e2cee"},"vehicle_type_id":"4","last_reported":1761913309,"current_range_meters":13600,"station_id":"st_d3j3df2ikq2c7380ej80","pricing_plan_id":"cebpf4jnsgd1na2vs0mg"},{"bike_id":"759e2c24-b6f9-462a-849c-96322fe2b441","system_id":"levelo_inurba_marseille","lat":43.23149,"lon":5.43719,"is_reserved":false,"is_disabled":false,"rental_uris":{"android":"levelo://app?vid=759e2c24-b6f9-462a-849c-96322fe2b441","ios":"levelo://app?vid=759e2c24-b6f9-462a-849c-96322fe2b441"},"vehicle_type_id":"4","last_reported":1761913309,"current_range_meters":13600,"station_id":"ce4bhmp2rcd13ifvqgog","pricing_plan_id":"cebpf4jnsgd1na2vs0mg"},{"bike_id":"ee261a32-9de1-4b9e-a923-6c91e1e26176","system_id":"levelo_inurba_marseille","lat":43.284791,"lon":5.483862,"is_reserved":false,"is_disabled":false,"rental_uris":{"android":"levelo://app?vid=ee261a32-9de1-4b9e-a923-6c91e1e26176","ios":"levelo://app?vid=ee261a32-9de1-4b9e-a923-6c91e1e26176"},"vehicle_type_id":"4","last_reported":1761913309,"current_range_meters":13600,"station_id":"st_d3svhcjqgbts73a3dn0g","pricing_plan_id":"cebpf4jnsgd1na2vs0mg"},{"bike_id":"1213ff01-604d-4b83-b3a2-60440c4b245e","system_id":"levelo_inurba_marseille","lat":43.23779,"lon":5.36627,"is_reserved":false,"is_disabled":false,"rental_uris":{"android":"levelo://app?vid=1213ff01-604d-4b83-b3a2-60440c4b245e","ios":"levelo://app?vid=1213ff01-604d-4b83-b3a2-60440c4b245e"},"vehicle_type_id":"4","last_reported":1761913309,"current_range_meters":13600,"station_id":"st_d3nk18o9ro0c73en2l3g","pricing_plan_id":"cebpf4jnsgd1na2vs0mg"},{"bike_id":"96ad2f8e-1ff0-415a-a84a-9186f2a5baf6","system_id":"levelo_inurba_marseille","lat":43.29606,"lon":5.37672,"is_reserved":false,"is_disabled":false,"rental_uris":{"android":"levelo://app?vid=96ad2f8e-1ff0-415a-a84a-9186f2a5baf6","ios":"levelo://app?vid=96ad2f8e-1ff0-415a-a84a-9186f2a5baf6"},"vehicle_type_id":"4","last_reported":1761913309,"current_range_meters":13600,"station_id":"ce4bgi12rcd13ifvqb80","pricing_plan_id":"cebpf4jnsgd1na2vs0mg"},{"bike_id":"46835159-5dd5-4fc9-a732-591f6a5307e4","system_id":"levelo_inurba_marseille","lat":43.31351,"lon":5.37912,"is_reserved":false,"is_disabled":false,"rental_uris":{"android":"levelo://app?vid=46835159-5dd5-4fc9-a732-591f6a5307e4","ios":"levelo://app?vid=46835159-5dd5-4fc9-a732-591f6a5307e4"},"vehicle_type_id":"4","last_reported":1761913309,"current_range_meters":13600,"station_id":"","pricing_plan_id":"cebpf4jnsgd1na2vs0mg"},{"bike_id":"42bceda7-95b6-4a73-9ca3-b8057cdc4ce4","system_id":"levelo_inurba_marseille","lat":43.29589,"lon":5.36731,"is_reserved":false,"is_disabled":false,"rental_uris":{"android":"levelo://app?vid=42bceda7-95b6-4a73-9ca3-b8057cdc4ce4","ios":"levelo://app?vid=42bceda7-95b6-4a73-9ca3-b8057cdc4ce4"},"vehicle_type_id":"4","last_reported":1761913309,"current_range_meters":13600,"station_id":"ce4bgph2rcd13ifvqc2g","pricing_plan_id":"cebpf4jnsgd1na2vs0mg"},{"bike_id":"2a2feabc-1101-4140-aee3-30dcd7c2588d","system_id":"levelo_inurba_marseille","lat":43.31872,"lon":5.3999,"is_reserved":false,"is_disabled":false,"rental_uris":{"android":"levelo://app?vid=2a2feabc-1101-4140-aee3-30dcd7c2588d","ios":"levelo://app?vid=2a2feabc-1101-4140-aee3-30dcd7c2588d"},"vehicle_type_id":"4","last_reported":1761913309,"current_range_meters":14000,"station_id":"","pricing_plan_id":"cebpf4jnsgd1na2vs0mg"},{"bike_id":"a4dac4fa-66e6-48be-a654-6e17cdc7ca0b","system_id":"levelo_inurba_marseille","lat":43.337571,"lon":5.374323,"is_reserved":false,"is_disabled":false,"rental_uris":{"android":"levelo://app?vid=a4dac4fa-66e6-48be-a654-6e17cdc7ca0b","ios":"levelo://app?vid=a4dac4fa-66e6-48be-a654-6e17cdc7ca0b"},"vehicle_type_id":"4","last_reported":1761913309,"current_range_meters":14000,"station_id":"","pricing_plan_id":"cebpf4jnsgd1na2vs0mg"},{"bike_id":"a27d5970-27f8-4707-90e7-d0b59ce2f9a3","system_id":"levelo_inurba_marseille","lat":43.28486,"lon":5.38586,"is_reserved":false,"is_disabled":false,"rental_uris":{"android":"levelo://app?vid=a27d5970-27f8-4707-90e7-d0b59ce2f9a3","ios":"levelo://app?vid=a27d5970-27f8-4707-90e7-d0b59ce2f9a3"},"vehicle_type_id":"4","last_reported":1761913309,"current_range_meters":14000,"station_id":"ce4bh8p2rcd13ifvqeb0","pricing_plan_id":"cebpf4jnsgd1na2vs0mg"},{"bike_id":"c41a3ce6-b98c-4e59-bb2d-5167c807fcb4","system_id":"levelo_inurba_marseille","lat":43.25819,"lon":5.39441,"is_reserved":false,"is_disabled":false,"rental_uris":{"android":"levelo://app?vid=c41a3ce6-b98c-4e59-bb2d-5167c807fcb4","ios":"levelo://app?vid=c41a3ce6-b98c-4e59-bb2d-5167c807fcb4"},"vehicle_type_id":"4","last_reported":1761913309,"current_range_meters":14000,"station_id":"ce4bhip2rcd13ifvqft0","pricing_plan_id":"cebpf4jnsgd1na2vs0mg"},{"bike_id":"12c24c1a-5f34-4e4f-b6c0-f07cd6755b8d","system_id":"levelo_inurba_marseille","lat":43.249534,"lon":5.405083,"is_reserved":false,"is_disabled":false,"rental_uris":{"android":"levelo://app?vid=12c24c1a-5f34-4e4f-b6c0-f07cd6755b8d","ios":"levelo://app?vid=12c24c1a-5f34-4e4f-b6c0-f07cd6755b8d"},"vehicle_type_id":"4","last_reported":1761913309,"current_range_meters":14400,"station_id":"st_d2ngiaodas8pm72gd1h0","pricing_plan_id":"cebpf4jnsgd1na2vs0mg"},{"bike_id":"e2dfd24d-7db3-4c8e-ad84-f9e094410aad","system_id":"levelo_inurba_marseille","lat":43.29383,"lon":5.38569,"is_reserved":false,"is_disabled":false,"rental_uris":{"android":"levelo://app?vid=e2dfd24d-7db3-4c8e-ad84-f9e094410aad","ios":"levelo://app?vid=e2dfd24d-7db3-4c8e-ad84-f9e094410aad"},"vehicle_type_id":"4","last_reported":1761913309,"current_range_meters":14400,"station_id":"","pricing_plan_id":"cebpf4jnsgd1na2vs0mg"},{"bike_id":"040bb8e7-fa9b-4593-89be-dcc92bf6660b","system_id":"levelo_inurba_marseille","lat":43.25583,"lon":5.38228,"is_reserved":false,"is_disabled":false,"rental_uris":{"android":"levelo://app?vid=040bb8e7-fa9b-4593-89be-dcc92bf6660b","ios":"levelo://app?vid=040bb8e7-fa9b-4593-89be-dcc92bf6660b"},"vehicle_type_id":"4","last_reported":1761913309,"current_range_meters":14400,"station_id":"ce4bhih2rcd13ifvqfs0","pricing_plan_id":"cebpf4jnsgd1na2vs0mg"},{"bike_id":"beb5aeba-4e4d-4667-9243-ae63f411ac6a","system_id":"levelo_inurba_marseille","lat":43.305566,"lon":5.36565,"is_reserved":false,"is_disabled":false,"rental_uris":{"android":"levelo://app?vid=beb5aeba-4e4d-4667-9243-ae63f411ac6a","ios":"levelo://app?vid=beb5aeba-4e4d-4667-9243-ae63f411ac6a"},"vehicle_type_id":"4","last_reported":1761913309,"current_range_meters":14400,"station_id":"ce4bgs12rcd13ifvqcag","pricing_plan_id":"cebpf4jnsgd1na2vs0mg"},{"bike_id":"aad6a064-c048-4ba9-a156-1745b89548aa","system_id":"levelo_inurba_marseille","lat":43.28311,"lon":5.41099,"is_reserved":false,"is_disabled":false,"rental_uris":{"android":"levelo://app?vid=aad6a064-c048-4ba9-a156-1745b89548aa","ios":"levelo://app?vid=aad6a064-c048-4ba9-a156-1745b89548aa"},"vehicle_type_id":"4","last_reported":1761913309,"current_range_meters":14800,"station_id":"","pricing_plan_id":"cebpf4jnsgd1na2vs0mg"},{"bike_id":"1ffbeb0e-89b5-4484-800e-7b500ea5b19a","system_id":"levelo_inurba_marseille","lat":43.27808,"lon":5.40722,"is_reserved":false,"is_disabled":false,"rental_uris":{"android":"levelo://app?vid=1ffbeb0e-89b5-4484-800e-7b500ea5b19a","ios":"levelo://app?vid=1ffbeb0e-89b5-4484-800e-7b500ea5b19a"},"vehicle_type_id":"4","last_reported":1761913309,"current_range_meters":14800,"station_id":"ce4bhnh2rcd13ifvqgtg","pricing_plan_id":"cebpf4jnsgd1na2vs0mg"},{"bike_id":"8165f6ad-0457-4c12-8182-2c24600da263","system_id":"levelo_inurba_marseille","lat":43.26684,"lon":5.38236,"is_reserved":false,"is_disabled":false,"rental_uris":{"android":"levelo://app?vid=8165f6ad-0457-4c12-8182-2c24600da263","ios":"levelo://app?vid=8165f6ad-0457-4c12-8182-2c24600da263"},"vehicle_type_id":"4","last_reported":1761913309,"current_range_meters":15200,"station_id":"ce4bhg92rcd13ifvqf90","pricing_plan_id":"cebpf4jnsgd1na2vs0mg"},{"bike_id":"c6cc2ad5-87f3-46b4-954a-6b3fc4efe701","system_id":"levelo_inurba_marseille","lat":43.29848,"lon":5.362733,"is_reserved":false,"is_disabled":false,"rental_uris":{"android":"levelo://app?vid=c6cc2ad5-87f3-46b4-954a-6b3fc4efe701","ios":"levelo://app?vid=c6cc2ad5-87f3-46b4-954a-6b3fc4efe701"},"vehicle_type_id":"4","last_reported":1761913309,"current_range_meters":15200,"station_id":"ce4bgpp2rcd13ifvqc3g","pricing_plan_id":"cebpf4jnsgd1na2vs0mg"},{"bike_id":"25c9dff5-9a4a-4fad-bd25-d33551e5769f","system_id":"levelo_inurba_marseille","lat":43.290254,"lon":5.381343,"is_reserved":false,"is_disabled":false,"rental_uris":{"android":"levelo://app?vid=25c9dff5-9a4a-4fad-bd25-d33551e5769f","ios":"levelo://app?vid=25c9dff5-9a4a-4fad-bd25-d33551e5769f"},"vehicle_type_id":"4","last_reported":1761913309,"current_range_meters":15200,"station_id":"ce4bh4p2rcd13ifvqe1g","pricing_plan_id":"cebpf4jnsgd1na2vs0mg"},{"bike_id":"3b8d8128-20c3-4189-8013-ffc8bbfec252","system_id":"levelo_inurba_marseille","lat":43.28623,"lon":5.35082,"is_reserved":false,"is_disabled":false,"rental_uris":{"android":"levelo://app?vid=3b8d8128-20c3-4189-8013-ffc8bbfec252","ios":"levelo://app?vid=3b8d8128-20c3-4189-8013-ffc8bbfec252"},"vehicle_type_id":"4","last_reported":1761913309,"current_range_meters":15200,"station_id":"ce4bhch2rcd13ifvqeug","pricing_plan_id":"cebpf4jnsgd1na2vs0mg"},{"bike_id":"90cc4e35-1e9a-4d48-878d-a3997094c0ce","system_id":"levelo_inurba_marseille","lat":43.2463,"lon":5.43132,"is_reserved":false,"is_disabled":false,"rental_uris":{"android":"levelo://app?vid=90cc4e35-1e9a-4d48-878d-a3997094c0ce","ios":"levelo://app?vid=90cc4e35-1e9a-4d48-878d-a3997094c0ce"},"vehicle_type_id":"4","last_reported":1761913309,"current_range_meters":15200,"station_id":"st_d2m6c4gdas8pm72e190g","pricing_plan_id":"cebpf4jnsgd1na2vs0mg"},{"bike_id":"7f71708b-0ea1-4389-ad9e-9eb55c6a6cb9","system_id":"levelo_inurba_marseille","lat":43.288587,"lon":5.425236,"is_reserved":false,"is_disabled":false,"rental_uris":{"android":"levelo://app?vid=7f71708b-0ea1-4389-ad9e-9eb55c6a6cb9","ios":"levelo://app?vid=7f71708b-0ea1-4389-ad9e-9eb55c6a6cb9"},"vehicle_type_id":"4","last_reported":1761913309,"current_range_meters":15200,"station_id":"st_d3b462108ojc7389ooeg","pricing_plan_id":"cebpf4jnsgd1na2vs0mg"},{"bike_id":"319b8584-93f2-449c-b056-ea3f20ebc971","system_id":"levelo_inurba_marseille","lat":43.2852,"lon":5.43024,"is_reserved":false,"is_disabled":false,"rental_uris":{"android":"levelo://app?vid=319b8584-93f2-449c-b056-ea3f20ebc971","ios":"levelo://app?vid=319b8584-93f2-449c-b056-ea3f20ebc971"},"vehicle_type_id":"4","last_reported":1761913309,"current_range_meters":15200,"station_id":"","pricing_plan_id":"cebpf4jnsgd1na2vs0mg"},{"bike_id":"0dc930ae-88e6-493c-ab95-8df0b3ac1f8b","system_id":"levelo_inurba_marseille","lat":43.298972,"lon":5.43652,"is_reserved":false,"is_disabled":false,"rental_uris":{"android":"levelo://app?vid=0dc930ae-88e6-493c-ab95-8df0b3ac1f8b","ios":"levelo://app?vid=0dc930ae-88e6-493c-ab95-8df0b3ac1f8b"},"vehicle_type_id":"4","last_reported":1761913309,"current_range_meters":16000,"station_id":"ce4bhpp2rcd13ifvqhfg","pricing_plan_id":"cebpf4jnsgd1na2vs0mg"},{"bike_id":"08173caa-da0f-4493-a0dc-569af39d4af7","system_id":"levelo_inurba_marseille","lat":43.30113,"lon":5.43069,"is_reserved":false,"is_disabled":false,"rental_uris":{"android":"levelo://app?vid=08173caa-da0f-4493-a0dc-569af39d4af7","ios":"levelo://app?vid=08173caa-da0f-4493-a0dc-569af39d4af7"},"vehicle_type_id":"4","last_reported":1761913309,"current_range_meters":16000,"station_id":"st_d3js3co5814s73ftftug","pricing_plan_id":"cebpf4jnsgd1na2vs0mg"},{"bike_id":"b455b474-75e1-41e0-b3e3-a1449376f7ae","system_id":"levelo_inurba_marseille","lat":43.278108,"lon":5.407136,"is_reserved":false,"is_disabled":false,"rental_uris":{"android":"levelo://app?vid=b455b474-75e1-41e0-b3e3-a1449376f7ae","ios":"levelo://app?vid=b455b474-75e1-41e0-b3e3-a1449376f7ae"},"vehicle_type_id":"4","last_reported":1761913309,"current_range_meters":16000,"station_id":"ce4bhnh2rcd13ifvqgtg","pricing_plan_id":"cebpf4jnsgd1na2vs0mg"},{"bike_id":"a74ca4e6-9019-4ce4-a364-7a22bd8e206a","system_id":"levelo_inurba_marseille","lat":43.26486,"lon":5.38518,"is_reserved":false,"is_disabled":false,"rental_uris":{"android":"levelo://app?vid=a74ca4e6-9019-4ce4-a364-7a22bd8e206a","ios":"levelo://app?vid=a74ca4e6-9019-4ce4-a364-7a22bd8e206a"},"vehicle_type_id":"4","last_reported":1761913309,"current_range_meters":16000,"station_id":"","pricing_plan_id":"cebpf4jnsgd1na2vs0mg"},{"bike_id":"9669609d-d585-4b7d-8c2f-e5caf67a2994","system_id":"levelo_inurba_marseille","lat":43.28921,"lon":5.38392,"is_reserved":false,"is_disabled":false,"rental_uris":{"android":"levelo://app?vid=9669609d-d585-4b7d-8c2f-e5caf67a2994","ios":"levelo://app?vid=9669609d-d585-4b7d-8c2f-e5caf67a2994"},"vehicle_type_id":"4","last_reported":1761913309,"current_range_meters":16000,"station_id":"ce4bh612rcd13ifvqe6g","pricing_plan_id":"cebpf4jnsgd1na2vs0mg"},{"bike_id":"ec8e4f97-d500-4b79-b9f1-140344d7f670","system_id":"levelo_inurba_marseille","lat":43.2315,"lon":5.43717,"is_reserved":false,"is_disabled":false,"rental_uris":{"android":"levelo://app?vid=ec8e4f97-d500-4b79-b9f1-140344d7f670","ios":"levelo://app?vid=ec8e4f97-d500-4b79-b9f1-140344d7f670"},"vehicle_type_id":"4","last_reported":1761913309,"current_range_meters":16000,"station_id":"ce4bhmp2rcd13ifvqgog","pricing_plan_id":"cebpf4jnsgd1na2vs0mg"},{"bike_id":"3a1d0eea-ae5c-4952-a93a-b4ef07f03cc5","system_id":"levelo_inurba_marseille","lat":43.29953,"lon":5.41322,"is_reserved":false,"is_disabled":false,"rental_uris":{"android":"levelo://app?vid=3a1d0eea-ae5c-4952-a93a-b4ef07f03cc5","ios":"levelo://app?vid=3a1d0eea-ae5c-4952-a93a-b4ef07f03cc5"},"vehicle_type_id":"4","last_reported":1761913309,"current_range_meters":16000,"station_id":"ce4bhp12rcd13ifvqh9g","pricing_plan_id":"cebpf4jnsgd1na2vs0mg"},{"bike_id":"65f21baa-74e9-41fb-bd8d-b51991bbff21","system_id":"levelo_inurba_marseille","lat":43.27814,"lon":5.40698,"is_reserved":false,"is_disabled":false,"rental_uris":{"android":"levelo://app?vid=65f21baa-74e9-41fb-bd8d-b51991bbff21","ios":"levelo://app?vid=65f21baa-74e9-41fb-bd8d-b51991bbff21"},"vehicle_type_id":"4","last_reported":1761913309,"current_range_meters":16000,"station_id":"ce4bhnh2rcd13ifvqgtg","pricing_plan_id":"cebpf4jnsgd1na2vs0mg"},{"bike_id":"1282d74a-548d-440e-84c8-e15be2e1b590","system_id":"levelo_inurba_marseille","lat":43.26211,"lon":5.37918,"is_reserved":false,"is_disabled":false,"rental_uris":{"android":"levelo://app?vid=1282d74a-548d-440e-84c8-e15be2e1b590","ios":"levelo://app?vid=1282d74a-548d-440e-84c8-e15be2e1b590"},"vehicle_type_id":"4","last_reported":1761913309,"current_range_meters":16400,"station_id":"ce4bhjp2rcd13ifvqg90","pricing_plan_id":"cebpf4jnsgd1na2vs0mg"},{"bike_id":"b2ce8e73-e59b-4d30-b8e2-e59e2e1e3b22","system_id":"levelo_inurba_marseille","lat":43.33775,"lon":5.37482,"is_reserved":false,"is_disabled":false,"rental_uris":{"android":"levelo://app?vid=b2ce8e73-e59b-4d30-b8e2-e59e2e1e3b22","ios":"levelo://app?vid=b2ce8e73-e59b-4d30-b8e2-e59e2e1e3b22"},"vehicle_type_id":"4","last_reported":1761913309,"current_range_meters":16400,"station_id":"","pricing_plan_id":"cebpf4jnsgd1na2vs0mg"},{"bike_id":"6cd59db7-cb12-4301-8385-22b87d7a5cfd","system_id":"levelo_inurba_marseille","lat":43.28538,"lon":5.44114,"is_reserved":false,"is_disabled":false,"rental_uris":{"android":"levelo://app?vid=6cd59db7-cb12-4301-8385-22b87d7a5cfd","ios":"levelo://app?vid=6cd59db7-cb12-4301-8385-22b87d7a5cfd"},"vehicle_type_id":"4","last_reported":1761913309,"current_range_meters":16400,"station_id":"st_d3j3df2ikq2c7380ej80","pricing_plan_id":"cebpf4jnsgd1na2vs0mg"},{"bike_id":"a9cdbb07-222c-4ae2-b8a0-add1896b5ebf","system_id":"levelo_inurba_marseille","lat":43.260671,"lon":5.393849,"is_reserved":false,"is_disabled":false,"rental_uris":{"android":"levelo://app?vid=a9cdbb07-222c-4ae2-b8a0-add1896b5ebf","ios":"levelo://app?vid=a9cdbb07-222c-4ae2-b8a0-add1896b5ebf"},"vehicle_type_id":"4","last_reported":1761913309,"current_range_meters":16800,"station_id":"ce4bhh92rcd13ifvqfj0","pricing_plan_id":"cebpf4jnsgd1na2vs0mg"},{"bike_id":"0963a0f8-8a97-4d36-91dc-70e891d8de9a","system_id":"levelo_inurba_marseille","lat":43.28522,"lon":5.44103,"is_reserved":false,"is_disabled":false,"rental_uris":{"android":"levelo://app?vid=0963a0f8-8a97-4d36-91dc-70e891d8de9a","ios":"levelo://app?vid=0963a0f8-8a97-4d36-91dc-70e891d8de9a"},"vehicle_type_id":"4","last_reported":1761913309,"current_range_meters":16800,"station_id":"st_d3j3df2ikq2c7380ej80","pricing_plan_id":"cebpf4jnsgd1na2vs0mg"},{"bike_id":"6d639c5e-97cc-4639-b5b8-d32f299a017b","system_id":"levelo_inurba_marseille","lat":43.29257,"lon":5.37628,"is_reserved":false,"is_disabled":false,"rental_uris":{"android":"levelo://app?vid=6d639c5e-97cc-4639-b5b8-d32f299a017b","ios":"levelo://app?vid=6d639c5e-97cc-4639-b5b8-d32f299a017b"},"vehicle_type_id":"4","last_reported":1761913309,"current_range_meters":16800,"station_id":"ce4bgi12rcd13ifvqb80","pricing_plan_id":"cebpf4jnsgd1na2vs0mg"},{"bike_id":"f0b623d3-0945-4823-acd2-3859c939eb4d","system_id":"levelo_inurba_marseille","lat":43.27812,"lon":5.40724,"is_reserved":false,"is_disabled":false,"rental_uris":{"android":"levelo://app?vid=f0b623d3-0945-4823-acd2-3859c939eb4d","ios":"levelo://app?vid=f0b623d3-0945-4823-acd2-3859c939eb4d"},"vehicle_type_id":"4","last_reported":1761913309,"current_range_meters":16800,"station_id":"ce4bhnh2rcd13ifvqgtg","pricing_plan_id":"cebpf4jnsgd1na2vs0mg"},{"bike_id":"f2942712-3404-47e6-8e4f-4b56a1fa9762","system_id":"levelo_inurba_marseille","lat":43.2733,"lon":5.39091,"is_reserved":false,"is_disabled":false,"rental_uris":{"android":"levelo://app?vid=f2942712-3404-47e6-8e4f-4b56a1fa9762","ios":"levelo://app?vid=f2942712-3404-47e6-8e4f-4b56a1fa9762"},"vehicle_type_id":"4","last_reported":1761913309,"current_range_meters":16800,"station_id":"ce4bhgp2rcd13ifvqfe0","pricing_plan_id":"cebpf4jnsgd1na2vs0mg"},{"bike_id":"b1e81361-2b17-4ef1-8a58-6def5753471b","system_id":"levelo_inurba_marseille","lat":43.33753,"lon":5.37484,"is_reserved":false,"is_disabled":false,"rental_uris":{"android":"levelo://app?vid=b1e81361-2b17-4ef1-8a58-6def5753471b","ios":"levelo://app?vid=b1e81361-2b17-4ef1-8a58-6def5753471b"},"vehicle_type_id":"4","last_reported":1761913309,"current_range_meters":16800,"station_id":"","pricing_plan_id":"cebpf4jnsgd1na2vs0mg"},{"bike_id":"e7ead618-cc2b-4c53-bc61-330caff21889","system_id":"levelo_inurba_marseille","lat":43.25318,"lon":5.42159,"is_reserved":false,"is_disabled":false,"rental_uris":{"android":"levelo://app?vid=e7ead618-cc2b-4c53-bc61-330caff21889","ios":"levelo://app?vid=e7ead618-cc2b-4c53-bc61-330caff21889"},"vehicle_type_id":"4","last_reported":1761913309,"current_range_meters":16800,"station_id":"st_d2m65c5bi1j21697t3ng","pricing_plan_id":"cebpf4jnsgd1na2vs0mg"},{"bike_id":"d9879afc-1f3f-4d17-b24e-0f2dfeb42721","system_id":"levelo_inurba_marseille","lat":43.27184,"lon":5.40996,"is_reserved":false,"is_disabled":false,"rental_uris":{"android":"levelo://app?vid=d9879afc-1f3f-4d17-b24e-0f2dfeb42721","ios":"levelo://app?vid=d9879afc-1f3f-4d17-b24e-0f2dfeb42721"},"vehicle_type_id":"4","last_reported":1761913309,"current_range_meters":16800,"station_id":"ce4bhl12rcd13ifvqgf0","pricing_plan_id":"cebpf4jnsgd1na2vs0mg"},{"bike_id":"52b117f2-4c01-4f66-887d-006722496528","system_id":"levelo_inurba_marseille","lat":43.30873,"lon":5.37164,"is_reserved":false,"is_disabled":false,"rental_uris":{"android":"levelo://app?vid=52b117f2-4c01-4f66-887d-006722496528","ios":"levelo://app?vid=52b117f2-4c01-4f66-887d-006722496528"},"vehicle_type_id":"4","last_reported":1761913309,"current_range_meters":16800,"station_id":"ce4bguh2rcd13ifvqckg","pricing_plan_id":"cebpf4jnsgd1na2vs0mg"},{"bike_id":"efab51bb-2873-49b5-8a21-1850eb33cbaf","system_id":"levelo_inurba_marseille","lat":43.24071,"lon":5.37744,"is_reserved":false,"is_disabled":false,"rental_uris":{"android":"levelo://app?vid=efab51bb-2873-49b5-8a21-1850eb33cbaf","ios":"levelo://app?vid=efab51bb-2873-49b5-8a21-1850eb33cbaf"},"vehicle_type_id":"4","last_reported":1761913309,"current_range_meters":16800,"station_id":"ce4bhnp2rcd13ifvqgvg","pricing_plan_id":"cebpf4jnsgd1na2vs0mg"},{"bike_id":"00461132-9c40-4f28-b6b6-8e078ea78dba","system_id":"levelo_inurba_marseille","lat":43.29223,"lon":5.36058,"is_reserved":false,"is_disabled":false,"rental_uris":{"android":"levelo://app?vid=00461132-9c40-4f28-b6b6-8e078ea78dba","ios":"levelo://app?vid=00461132-9c40-4f28-b6b6-8e078ea78dba"},"vehicle_type_id":"4","last_reported":1761913309,"current_range_meters":16800,"station_id":"ce4bhbh2rcd13ifvqeqg","pricing_plan_id":"cebpf4jnsgd1na2vs0mg"},{"bike_id":"9426e984-d66a-46ec-83f8-e2f4059a3e57","system_id":"levelo_inurba_marseille","lat":43.298481,"lon":5.362874,"is_reserved":false,"is_disabled":false,"rental_uris":{"android":"levelo://app?vid=9426e984-d66a-46ec-83f8-e2f4059a3e57","ios":"levelo://app?vid=9426e984-d66a-46ec-83f8-e2f4059a3e57"},"vehicle_type_id":"4","last_reported":1761913309,"current_range_meters":16800,"station_id":"","pricing_plan_id":"cebpf4jnsgd1na2vs0mg"},{"bike_id":"e380d893-187c-4260-89f2-9f25fa6e3db0","system_id":"levelo_inurba_marseille","lat":43.28611,"lon":5.35099,"is_reserved":false,"is_disabled":false,"rental_uris":{"android":"levelo://app?vid=e380d893-187c-4260-89f2-9f25fa6e3db0","ios":"levelo://app?vid=e380d893-187c-4260-89f2-9f25fa6e3db0"},"vehicle_type_id":"4","last_reported":1761913309,"current_range_meters":17200,"station_id":"ce4bhch2rcd13ifvqeug","pricing_plan_id":"cebpf4jnsgd1na2vs0mg"},{"bike_id":"8b9daaea-726e-4546-9020-e8bbe62bd910","system_id":"levelo_inurba_marseille","lat":43.26925,"lon":5.38925,"is_reserved":false,"is_disabled":false,"rental_uris":{"android":"levelo://app?vid=8b9daaea-726e-4546-9020-e8bbe62bd910","ios":"levelo://app?vid=8b9daaea-726e-4546-9020-e8bbe62bd910"},"vehicle_type_id":"4","last_reported":1761913309,"current_range_meters":17200,"station_id":"ce4bhhh2rcd13ifvqfl0","pricing_plan_id":"cebpf4jnsgd1na2vs0mg"},{"bike_id":"5b725a3d-72a4-4b9d-935a-657520f375e0","system_id":"levelo_inurba_marseille","lat":43.27805,"lon":5.40713,"is_reserved":false,"is_disabled":false,"rental_uris":{"android":"levelo://app?vid=5b725a3d-72a4-4b9d-935a-657520f375e0","ios":"levelo://app?vid=5b725a3d-72a4-4b9d-935a-657520f375e0"},"vehicle_type_id":"4","last_reported":1761913309,"current_range_meters":17200,"station_id":"ce4bhnh2rcd13ifvqgtg","pricing_plan_id":"cebpf4jnsgd1na2vs0mg"},{"bike_id":"719cab00-fc05-4a10-b7e7-f67576adad60","system_id":"levelo_inurba_marseille","lat":43.23155,"lon":5.43704,"is_reserved":false,"is_disabled":false,"rental_uris":{"android":"levelo://app?vid=719cab00-fc05-4a10-b7e7-f67576adad60","ios":"levelo://app?vid=719cab00-fc05-4a10-b7e7-f67576adad60"},"vehicle_type_id":"4","last_reported":1761913309,"current_range_meters":17200,"station_id":"ce4bhmp2rcd13ifvqgog","pricing_plan_id":"cebpf4jnsgd1na2vs0mg"},{"bike_id":"a0fbeb00-c29e-42c3-8914-dc6c4bbbfd9f","system_id":"levelo_inurba_marseille","lat":43.298462,"lon":5.362734,"is_reserved":false,"is_disabled":false,"rental_uris":{"android":"levelo://app?vid=a0fbeb00-c29e-42c3-8914-dc6c4bbbfd9f","ios":"levelo://app?vid=a0fbeb00-c29e-42c3-8914-dc6c4bbbfd9f"},"vehicle_type_id":"4","last_reported":1761913309,"current_range_meters":17200,"station_id":"ce4bgpp2rcd13ifvqc3g","pricing_plan_id":"cebpf4jnsgd1na2vs0mg"},{"bike_id":"7879341b-94ad-42cb-ac12-62a0998eada0","system_id":"levelo_inurba_marseille","lat":43.29213,"lon":5.36061,"is_reserved":false,"is_disabled":false,"rental_uris":{"android":"levelo://app?vid=7879341b-94ad-42cb-ac12-62a0998eada0","ios":"levelo://app?vid=7879341b-94ad-42cb-ac12-62a0998eada0"},"vehicle_type_id":"4","last_reported":1761913309,"current_range_meters":17600,"station_id":"ce4bhbh2rcd13ifvqeqg","pricing_plan_id":"cebpf4jnsgd1na2vs0mg"},{"bike_id":"71379362-031b-4a55-b4f8-60317186885f","system_id":"levelo_inurba_marseille","lat":43.2655,"lon":5.37282,"is_reserved":false,"is_disabled":false,"rental_uris":{"android":"levelo://app?vid=71379362-031b-4a55-b4f8-60317186885f","ios":"levelo://app?vid=71379362-031b-4a55-b4f8-60317186885f"},"vehicle_type_id":"4","last_reported":1761913309,"current_range_meters":17600,"station_id":"ce4bhg12rcd13ifvqf70","pricing_plan_id":"cebpf4jnsgd1na2vs0mg"},{"bike_id":"f3be1fcb-f594-4572-b199-284acc9ab2d1","system_id":"levelo_inurba_marseille","lat":43.22553,"lon":5.41645,"is_reserved":false,"is_disabled":false,"rental_uris":{"android":"levelo://app?vid=f3be1fcb-f594-4572-b199-284acc9ab2d1","ios":"levelo://app?vid=f3be1fcb-f594-4572-b199-284acc9ab2d1"},"vehicle_type_id":"4","last_reported":1761913309,"current_range_meters":18000,"station_id":"st_d2o4gvlbi1j2169b742g","pricing_plan_id":"cebpf4jnsgd1na2vs0mg"},{"bike_id":"6ee0d9ff-4d47-4f65-91d7-fd40a218e0b3","system_id":"levelo_inurba_marseille","lat":43.23147,"lon":5.4372,"is_reserved":false,"is_disabled":false,"rental_uris":{"android":"levelo://app?vid=6ee0d9ff-4d47-4f65-91d7-fd40a218e0b3","ios":"levelo://app?vid=6ee0d9ff-4d47-4f65-91d7-fd40a218e0b3"},"vehicle_type_id":"4","last_reported":1761913309,"current_range_meters":18000,"station_id":"ce4bhmp2rcd13ifvqgog","pricing_plan_id":"cebpf4jnsgd1na2vs0mg"},{"bike_id":"5329277d-b696-4f32-9412-95d13ccb7cbb","system_id":"levelo_inurba_marseille","lat":43.29819,"lon":5.44043,"is_reserved":false,"is_disabled":false,"rental_uris":{"android":"levelo://app?vid=5329277d-b696-4f32-9412-95d13ccb7cbb","ios":"levelo://app?vid=5329277d-b696-4f32-9412-95d13ccb7cbb"},"vehicle_type_id":"4","last_reported":1761913309,"current_range_meters":18000,"station_id":"st_d3jp68qikq2c7381ktn0","pricing_plan_id":"cebpf4jnsgd1na2vs0mg"},{"bike_id":"1f7dcafe-4659-46ce-af71-a935c75b160c","system_id":"levelo_inurba_marseille","lat":43.29932,"lon":5.36572,"is_reserved":false,"is_disabled":false,"rental_uris":{"android":"levelo://app?vid=1f7dcafe-4659-46ce-af71-a935c75b160c","ios":"levelo://app?vid=1f7dcafe-4659-46ce-af71-a935c75b160c"},"vehicle_type_id":"4","last_reported":1761913309,"current_range_meters":18000,"station_id":"ce4bgm92rcd13ifvqbr0","pricing_plan_id":"cebpf4jnsgd1na2vs0mg"},{"bike_id":"e04f332d-b41c-47fd-b12f-6fdc7d63f429","system_id":"levelo_inurba_marseille","lat":43.308412,"lon":5.382893,"is_reserved":false,"is_disabled":false,"rental_uris":{"android":"levelo://app?vid=e04f332d-b41c-47fd-b12f-6fdc7d63f429","ios":"levelo://app?vid=e04f332d-b41c-47fd-b12f-6fdc7d63f429"},"vehicle_type_id":"4","last_reported":1761913309,"current_range_meters":18800,"station_id":"","pricing_plan_id":"cebpf4jnsgd1na2vs0mg"},{"bike_id":"f45972e9-fcd4-4530-be29-10f95eb977d2","system_id":"levelo_inurba_marseille","lat":43.296313,"lon":5.37703,"is_reserved":false,"is_disabled":true,"rental_uris":{"android":"levelo://app?vid=f45972e9-fcd4-4530-be29-10f95eb977d2","ios":"levelo://app?vid=f45972e9-fcd4-4530-be29-10f95eb977d2"},"vehicle_type_id":"4","last_reported":1761913309,"current_range_meters":18800,"station_id":"ce4bh492rcd13ifvqdug","pricing_plan_id":"cebpf4jnsgd1na2vs0mg"},{"bike_id":"c04ea6ec-c85d-4b9a-aa74-f0de2415a6d2","system_id":"levelo_inurba_marseille","lat":43.315451,"lon":5.382366,"is_reserved":false,"is_disabled":false,"rental_uris":{"android":"levelo://app?vid=c04ea6ec-c85d-4b9a-aa74-f0de2415a6d2","ios":"levelo://app?vid=c04ea6ec-c85d-4b9a-aa74-f0de2415a6d2"},"vehicle_type_id":"4","last_reported":1761913309,"current_range_meters":18800,"station_id":"","pricing_plan_id":"cebpf4jnsgd1na2vs0mg"},{"bike_id":"e303d2cc-b944-406a-8807-db11f38300d5","system_id":"levelo_inurba_marseille","lat":43.23165,"lon":5.3999,"is_reserved":false,"is_disabled":false,"rental_uris":{"android":"levelo://app?vid=e303d2cc-b944-406a-8807-db11f38300d5","ios":"levelo://app?vid=e303d2cc-b944-406a-8807-db11f38300d5"},"vehicle_type_id":"4","last_reported":1761913309,"current_range_meters":18800,"station_id":"ce4bhn12rcd13ifvqgqg","pricing_plan_id":"cebpf4jnsgd1na2vs0mg"},{"bike_id":"028cb5c8-c5c0-4b20-a938-ded0705e2410","system_id":"levelo_inurba_marseille","lat":43.254972,"lon":5.376487,"is_reserved":false,"is_disabled":false,"rental_uris":{"android":"levelo://app?vid=028cb5c8-c5c0-4b20-a938-ded0705e2410","ios":"levelo://app?vid=028cb5c8-c5c0-4b20-a938-ded0705e2410"},"vehicle_type_id":"4","last_reported":1761913309,"current_range_meters":19200,"station_id":"ce4bhh12rcd13ifvqff0","pricing_plan_id":"cebpf4jnsgd1na2vs0mg"},{"bike_id":"4476fb93-b41b-429c-b66e-779ffc5aabd1","system_id":"levelo_inurba_marseille","lat":43.25338,"lon":5.42151,"is_reserved":false,"is_disabled":false,"rental_uris":{"android":"levelo://app?vid=4476fb93-b41b-429c-b66e-779ffc5aabd1","ios":"levelo://app?vid=4476fb93-b41b-429c-b66e-779ffc5aabd1"},"vehicle_type_id":"4","last_reported":1761913309,"current_range_meters":19200,"station_id":"st_d2m65c5bi1j21697t3ng","pricing_plan_id":"cebpf4jnsgd1na2vs0mg"},{"bike_id":"fbcc5886-69e3-488f-96fd-e45314a075e6","system_id":"levelo_inurba_marseille","lat":43.28859,"lon":5.42508,"is_reserved":false,"is_disabled":false,"rental_uris":{"android":"levelo://app?vid=fbcc5886-69e3-488f-96fd-e45314a075e6","ios":"levelo://app?vid=fbcc5886-69e3-488f-96fd-e45314a075e6"},"vehicle_type_id":"4","last_reported":1761913309,"current_range_meters":19200,"station_id":"st_d3b462108ojc7389ooeg","pricing_plan_id":"cebpf4jnsgd1na2vs0mg"},{"bike_id":"3965660d-d019-448d-9ea6-ad76591ec156","system_id":"levelo_inurba_marseille","lat":43.32109,"lon":5.36767,"is_reserved":false,"is_disabled":false,"rental_uris":{"android":"levelo://app?vid=3965660d-d019-448d-9ea6-ad76591ec156","ios":"levelo://app?vid=3965660d-d019-448d-9ea6-ad76591ec156"},"vehicle_type_id":"4","last_reported":1761913309,"current_range_meters":19200,"station_id":"ce4bhrh2rcd13ifvqhug","pricing_plan_id":"cebpf4jnsgd1na2vs0mg"},{"bike_id":"fe20bdf3-f568-4f60-805e-86df3a1a5570","system_id":"levelo_inurba_marseille","lat":43.23186,"lon":5.39981,"is_reserved":false,"is_disabled":false,"rental_uris":{"android":"levelo://app?vid=fe20bdf3-f568-4f60-805e-86df3a1a5570","ios":"levelo://app?vid=fe20bdf3-f568-4f60-805e-86df3a1a5570"},"vehicle_type_id":"4","last_reported":1761913309,"current_range_meters":19200,"station_id":"ce4bhn12rcd13ifvqgqg","pricing_plan_id":"cebpf4jnsgd1na2vs0mg"},{"bike_id":"cf4238fc-98b8-412d-b0ad-f6703a45b448","system_id":"levelo_inurba_marseille","lat":43.30141,"lon":5.38767,"is_reserved":false,"is_disabled":false,"rental_uris":{"android":"levelo://app?vid=cf4238fc-98b8-412d-b0ad-f6703a45b448","ios":"levelo://app?vid=cf4238fc-98b8-412d-b0ad-f6703a45b448"},"vehicle_type_id":"4","last_reported":1761913309,"current_range_meters":19200,"station_id":"ce4bghh2rcd13ifvqb60","pricing_plan_id":"cebpf4jnsgd1na2vs0mg"},{"bike_id":"bca0e0cd-1a3b-41a2-ab86-134d58cdcb6d","system_id":"levelo_inurba_marseille","lat":43.28612,"lon":5.351,"is_reserved":false,"is_disabled":false,"rental_uris":{"android":"levelo://app?vid=bca0e0cd-1a3b-41a2-ab86-134d58cdcb6d","ios":"levelo://app?vid=bca0e0cd-1a3b-41a2-ab86-134d58cdcb6d"},"vehicle_type_id":"4","last_reported":1761913309,"current_range_meters":19600,"station_id":"ce4bhch2rcd13ifvqeug","pricing_plan_id":"cebpf4jnsgd1na2vs0mg"},{"bike_id":"6a6ff2e2-27bc-415f-8719-80fe99c253d8","system_id":"levelo_inurba_marseille","lat":43.29964,"lon":5.38496,"is_reserved":false,"is_disabled":false,"rental_uris":{"android":"levelo://app?vid=6a6ff2e2-27bc-415f-8719-80fe99c253d8","ios":"levelo://app?vid=6a6ff2e2-27bc-415f-8719-80fe99c253d8"},"vehicle_type_id":"4","last_reported":1761913309,"current_range_meters":19600,"station_id":"ce4bgj92rcd13ifvqbd0","pricing_plan_id":"cebpf4jnsgd1na2vs0mg"},{"bike_id":"33a611fa-e3d8-42f9-be73-4ba08065a767","system_id":"levelo_inurba_marseille","lat":43.28934,"lon":5.366343,"is_reserved":false,"is_disabled":false,"rental_uris":{"android":"levelo://app?vid=33a611fa-e3d8-42f9-be73-4ba08065a767","ios":"levelo://app?vid=33a611fa-e3d8-42f9-be73-4ba08065a767"},"vehicle_type_id":"4","last_reported":1761913309,"current_range_meters":19600,"station_id":"ce4bhap2rcd13ifvqek0","pricing_plan_id":"cebpf4jnsgd1na2vs0mg"},{"bike_id":"ff50002c-4520-4545-a663-079038ba1614","system_id":"levelo_inurba_marseille","lat":43.30599,"lon":5.37214,"is_reserved":false,"is_disabled":false,"rental_uris":{"android":"levelo://app?vid=ff50002c-4520-4545-a663-079038ba1614","ios":"levelo://app?vid=ff50002c-4520-4545-a663-079038ba1614"},"vehicle_type_id":"4","last_reported":1761913309,"current_range_meters":19600,"station_id":"ce4bgqh2rcd13ifvqc4g","pricing_plan_id":"cebpf4jnsgd1na2vs0mg"},{"bike_id":"0179aad9-8cf1-4065-b886-e1fdc3f62a49","system_id":"levelo_inurba_marseille","lat":43.2494,"lon":5.40503,"is_reserved":false,"is_disabled":false,"rental_uris":{"android":"levelo://app?vid=0179aad9-8cf1-4065-b886-e1fdc3f62a49","ios":"levelo://app?vid=0179aad9-8cf1-4065-b886-e1fdc3f62a49"},"vehicle_type_id":"4","last_reported":1761913309,"current_range_meters":19600,"station_id":"st_d2ngiaodas8pm72gd1h0","pricing_plan_id":"cebpf4jnsgd1na2vs0mg"},{"bike_id":"ead96e0a-c1a4-4e5d-950d-493f3c823d29","system_id":"levelo_inurba_marseille","lat":43.29919,"lon":5.37469,"is_reserved":false,"is_disabled":false,"rental_uris":{"android":"levelo://app?vid=ead96e0a-c1a4-4e5d-950d-493f3c823d29","ios":"levelo://app?vid=ead96e0a-c1a4-4e5d-950d-493f3c823d29"},"vehicle_type_id":"4","last_reported":1761913309,"current_range_meters":19600,"station_id":"ce4bgjh2rcd13ifvqbg0","pricing_plan_id":"cebpf4jnsgd1na2vs0mg"},{"bike_id":"661d1ac5-d28c-4d49-b650-17697c01f903","system_id":"levelo_inurba_marseille","lat":43.30141,"lon":5.37425,"is_reserved":false,"is_disabled":false,"rental_uris":{"android":"levelo://app?vid=661d1ac5-d28c-4d49-b650-17697c01f903","ios":"levelo://app?vid=661d1ac5-d28c-4d49-b650-17697c01f903"},"vehicle_type_id":"4","last_reported":1761913309,"current_range_meters":20000,"station_id":"ce4bgs92rcd13ifvqcc0","pricing_plan_id":"cebpf4jnsgd1na2vs0mg"},{"bike_id":"2819da96-e74b-4499-817d-c62867e34f4e","system_id":"levelo_inurba_marseille","lat":43.29823,"lon":5.36244,"is_reserved":false,"is_disabled":false,"rental_uris":{"android":"levelo://app?vid=2819da96-e74b-4499-817d-c62867e34f4e","ios":"levelo://app?vid=2819da96-e74b-4499-817d-c62867e34f4e"},"vehicle_type_id":"4","last_reported":1761913309,"current_range_meters":20000,"station_id":"ce4bgpp2rcd13ifvqc3g","pricing_plan_id":"cebpf4jnsgd1na2vs0mg"},{"bike_id":"4605960e-ce7d-4738-b867-8d48aafd9df7","system_id":"levelo_inurba_marseille","lat":43.30602,"lon":5.3722,"is_reserved":false,"is_disabled":true,"rental_uris":{"android":"levelo://app?vid=4605960e-ce7d-4738-b867-8d48aafd9df7","ios":"levelo://app?vid=4605960e-ce7d-4738-b867-8d48aafd9df7"},"vehicle_type_id":"4","last_reported":1761913309,"current_range_meters":20000,"station_id":"ce4bgqh2rcd13ifvqc4g","pricing_plan_id":"cebpf4jnsgd1na2vs0mg"},{"bike_id":"d5fd5d5b-44b3-4d17-beac-3229cfc7e688","system_id":"levelo_inurba_marseille","lat":43.29973,"lon":5.38489,"is_reserved":false,"is_disabled":false,"rental_uris":{"android":"levelo://app?vid=d5fd5d5b-44b3-4d17-beac-3229cfc7e688","ios":"levelo://app?vid=d5fd5d5b-44b3-4d17-beac-3229cfc7e688"},"vehicle_type_id":"4","last_reported":1761913309,"current_range_meters":20400,"station_id":"ce4bgj92rcd13ifvqbd0","pricing_plan_id":"cebpf4jnsgd1na2vs0mg"},{"bike_id":"32632625-b281-4348-990f-071d78c42b84","system_id":"levelo_inurba_marseille","lat":43.26569,"lon":5.39014,"is_reserved":false,"is_disabled":false,"rental_uris":{"android":"levelo://app?vid=32632625-b281-4348-990f-071d78c42b84","ios":"levelo://app?vid=32632625-b281-4348-990f-071d78c42b84"},"vehicle_type_id":"4","last_reported":1761913309,"current_range_meters":20400,"station_id":"","pricing_plan_id":"cebpf4jnsgd1na2vs0mg"},{"bike_id":"a5f9d115-2eb0-463d-bf65-9070eaddf3fb","system_id":"levelo_inurba_marseille","lat":43.23958,"lon":5.36624,"is_reserved":false,"is_disabled":false,"rental_uris":{"android":"levelo://app?vid=a5f9d115-2eb0-463d-bf65-9070eaddf3fb","ios":"levelo://app?vid=a5f9d115-2eb0-463d-bf65-9070eaddf3fb"},"vehicle_type_id":"4","last_reported":1761913309,"current_range_meters":20400,"station_id":"ce4bhi12rcd13ifvqfp0","pricing_plan_id":"cebpf4jnsgd1na2vs0mg"},{"bike_id":"28aa1f4a-e5ba-46af-be1c-d9836d8fe705","system_id":"levelo_inurba_marseille","lat":43.309143,"lon":5.368469,"is_reserved":false,"is_disabled":false,"rental_uris":{"android":"levelo://app?vid=28aa1f4a-e5ba-46af-be1c-d9836d8fe705","ios":"levelo://app?vid=28aa1f4a-e5ba-46af-be1c-d9836d8fe705"},"vehicle_type_id":"4","last_reported":1761913309,"current_range_meters":20400,"station_id":"ce4bgn92rcd13ifvqbvg","pricing_plan_id":"cebpf4jnsgd1na2vs0mg"},{"bike_id":"1fcfca9b-2442-421e-96d0-96c0dd4fe8d4","system_id":"levelo_inurba_marseille","lat":43.29596,"lon":5.38112,"is_reserved":false,"is_disabled":false,"rental_uris":{"android":"levelo://app?vid=1fcfca9b-2442-421e-96d0-96c0dd4fe8d4","ios":"levelo://app?vid=1fcfca9b-2442-421e-96d0-96c0dd4fe8d4"},"vehicle_type_id":"4","last_reported":1761913309,"current_range_meters":20400,"station_id":"ce4bgl12rcd13ifvqbo0","pricing_plan_id":"cebpf4jnsgd1na2vs0mg"},{"bike_id":"94084d75-b1ec-4cf5-8736-b1d0c7eed7ce","system_id":"levelo_inurba_marseille","lat":43.33023,"lon":5.39029,"is_reserved":false,"is_disabled":false,"rental_uris":{"android":"levelo://app?vid=94084d75-b1ec-4cf5-8736-b1d0c7eed7ce","ios":"levelo://app?vid=94084d75-b1ec-4cf5-8736-b1d0c7eed7ce"},"vehicle_type_id":"4","last_reported":1761913309,"current_range_meters":20800,"station_id":"ce4bhr92rcd13ifvqhrg","pricing_plan_id":"cebpf4jnsgd1na2vs0mg"},{"bike_id":"3150b169-6d8b-4786-81cd-4b890da98702","system_id":"levelo_inurba_marseille","lat":43.23793,"lon":5.36623,"is_reserved":false,"is_disabled":false,"rental_uris":{"android":"levelo://app?vid=3150b169-6d8b-4786-81cd-4b890da98702","ios":"levelo://app?vid=3150b169-6d8b-4786-81cd-4b890da98702"},"vehicle_type_id":"4","last_reported":1761913309,"current_range_meters":20800,"station_id":"st_d3nk18o9ro0c73en2l3g","pricing_plan_id":"cebpf4jnsgd1na2vs0mg"},{"bike_id":"41598790-345d-414f-9e87-720cb432f278","system_id":"levelo_inurba_marseille","lat":43.29477,"lon":5.36227,"is_reserved":false,"is_disabled":false,"rental_uris":{"android":"levelo://app?vid=41598790-345d-414f-9e87-720cb432f278","ios":"levelo://app?vid=41598790-345d-414f-9e87-720cb432f278"},"vehicle_type_id":"4","last_reported":1761913309,"current_range_meters":20800,"station_id":"","pricing_plan_id":"cebpf4jnsgd1na2vs0mg"},{"bike_id":"50c2c89c-4a9b-41f6-af05-b4e430e07029","system_id":"levelo_inurba_marseille","lat":43.24624,"lon":5.43162,"is_reserved":false,"is_disabled":false,"rental_uris":{"android":"levelo://app?vid=50c2c89c-4a9b-41f6-af05-b4e430e07029","ios":"levelo://app?vid=50c2c89c-4a9b-41f6-af05-b4e430e07029"},"vehicle_type_id":"4","last_reported":1761913309,"current_range_meters":20800,"station_id":"st_d2m6c4gdas8pm72e190g","pricing_plan_id":"cebpf4jnsgd1na2vs0mg"},{"bike_id":"cc0d6697-bf7c-4001-828f-c5cf42c80c59","system_id":"levelo_inurba_marseille","lat":43.211977,"lon":5.350665,"is_reserved":false,"is_disabled":false,"rental_uris":{"android":"levelo://app?vid=cc0d6697-bf7c-4001-828f-c5cf42c80c59","ios":"levelo://app?vid=cc0d6697-bf7c-4001-828f-c5cf42c80c59"},"vehicle_type_id":"4","last_reported":1761913309,"current_range_meters":20800,"station_id":"","pricing_plan_id":"cebpf4jnsgd1na2vs0mg"},{"bike_id":"42ee845a-4e54-4f5b-8729-bb3ec7276302","system_id":"levelo_inurba_marseille","lat":43.29444,"lon":5.40129,"is_reserved":false,"is_disabled":false,"rental_uris":{"android":"levelo://app?vid=42ee845a-4e54-4f5b-8729-bb3ec7276302","ios":"levelo://app?vid=42ee845a-4e54-4f5b-8729-bb3ec7276302"},"vehicle_type_id":"4","last_reported":1761913309,"current_range_meters":21600,"station_id":"","pricing_plan_id":"cebpf4jnsgd1na2vs0mg"},{"bike_id":"c311dcd7-8990-4d0c-b893-da6fc911ae2a","system_id":"levelo_inurba_marseille","lat":43.23191,"lon":5.4,"is_reserved":false,"is_disabled":false,"rental_uris":{"android":"levelo://app?vid=c311dcd7-8990-4d0c-b893-da6fc911ae2a","ios":"levelo://app?vid=c311dcd7-8990-4d0c-b893-da6fc911ae2a"},"vehicle_type_id":"4","last_reported":1761913309,"current_range_meters":21600,"station_id":"ce4bhn12rcd13ifvqgqg","pricing_plan_id":"cebpf4jnsgd1na2vs0mg"},{"bike_id":"9beb677c-9104-4746-893e-d550c268de2b","system_id":"levelo_inurba_marseille","lat":43.29959,"lon":5.38499,"is_reserved":false,"is_disabled":false,"rental_uris":{"android":"levelo://app?vid=9beb677c-9104-4746-893e-d550c268de2b","ios":"levelo://app?vid=9beb677c-9104-4746-893e-d550c268de2b"},"vehicle_type_id":"4","last_reported":1761913309,"current_range_meters":21600,"station_id":"ce4bgj92rcd13ifvqbd0","pricing_plan_id":"cebpf4jnsgd1na2vs0mg"},{"bike_id":"10f12583-5127-4698-a18b-cdcb74a0580a","system_id":"levelo_inurba_marseille","lat":43.29841,"lon":5.36271,"is_reserved":false,"is_disabled":false,"rental_uris":{"android":"levelo://app?vid=10f12583-5127-4698-a18b-cdcb74a0580a","ios":"levelo://app?vid=10f12583-5127-4698-a18b-cdcb74a0580a"},"vehicle_type_id":"4","last_reported":1761913309,"current_range_meters":21600,"station_id":"ce4bgpp2rcd13ifvqc3g","pricing_plan_id":"cebpf4jnsgd1na2vs0mg"},{"bike_id":"e35e0abe-4c2a-4cc0-a145-913ed5b94495","system_id":"levelo_inurba_marseille","lat":43.24167,"lon":5.36399,"is_reserved":false,"is_disabled":false,"rental_uris":{"android":"levelo://app?vid=e35e0abe-4c2a-4cc0-a145-913ed5b94495","ios":"levelo://app?vid=e35e0abe-4c2a-4cc0-a145-913ed5b94495"},"vehicle_type_id":"4","last_reported":1761913309,"current_range_meters":21600,"station_id":"cpo36qri1sfpv3e86is0","pricing_plan_id":"cebpf4jnsgd1na2vs0mg"},{"bike_id":"06fc4c44-20ba-493c-8944-d78c73d93c94","system_id":"levelo_inurba_marseille","lat":43.31193,"lon":5.39342,"is_reserved":false,"is_disabled":false,"rental_uris":{"android":"levelo://app?vid=06fc4c44-20ba-493c-8944-d78c73d93c94","ios":"levelo://app?vid=06fc4c44-20ba-493c-8944-d78c73d93c94"},"vehicle_type_id":"4","last_reported":1761913309,"current_range_meters":21600,"station_id":"","pricing_plan_id":"cebpf4jnsgd1na2vs0mg"},{"bike_id":"ea92126e-6da0-4f92-aa46-3aff3e009526","system_id":"levelo_inurba_marseille","lat":43.29783,"lon":5.38111,"is_reserved":false,"is_disabled":false,"rental_uris":{"android":"levelo://app?vid=ea92126e-6da0-4f92-aa46-3aff3e009526","ios":"levelo://app?vid=ea92126e-6da0-4f92-aa46-3aff3e009526"},"vehicle_type_id":"4","last_reported":1761913309,"current_range_meters":21600,"station_id":"ce4bgip2rcd13ifvqbb0","pricing_plan_id":"cebpf4jnsgd1na2vs0mg"},{"bike_id":"3ffbae57-8ecd-4e3d-96ad-932247e3fe54","system_id":"levelo_inurba_marseille","lat":43.318998,"lon":5.372965,"is_reserved":false,"is_disabled":false,"rental_uris":{"android":"levelo://app?vid=3ffbae57-8ecd-4e3d-96ad-932247e3fe54","ios":"levelo://app?vid=3ffbae57-8ecd-4e3d-96ad-932247e3fe54"},"vehicle_type_id":"4","last_reported":1761913309,"current_range_meters":21600,"station_id":"","pricing_plan_id":"cebpf4jnsgd1na2vs0mg"},{"bike_id":"30fe1658-7a14-463b-a80e-7a1b304d6740","system_id":"levelo_inurba_marseille","lat":43.21185,"lon":5.35077,"is_reserved":false,"is_disabled":false,"rental_uris":{"android":"levelo://app?vid=30fe1658-7a14-463b-a80e-7a1b304d6740","ios":"levelo://app?vid=30fe1658-7a14-463b-a80e-7a1b304d6740"},"vehicle_type_id":"4","last_reported":1761913309,"current_range_meters":21600,"station_id":"st_cvj6sg6p6f1abm77japg","pricing_plan_id":"cebpf4jnsgd1na2vs0mg"},{"bike_id":"5a8c403c-468d-43cc-aabd-16e48c942b9f","system_id":"levelo_inurba_marseille","lat":43.25582,"lon":5.38228,"is_reserved":false,"is_disabled":false,"rental_uris":{"android":"levelo://app?vid=5a8c403c-468d-43cc-aabd-16e48c942b9f","ios":"levelo://app?vid=5a8c403c-468d-43cc-aabd-16e48c942b9f"},"vehicle_type_id":"4","last_reported":1761913309,"current_range_meters":21600,"station_id":"ce4bhih2rcd13ifvqfs0","pricing_plan_id":"cebpf4jnsgd1na2vs0mg"},{"bike_id":"c5731db7-e312-4434-8f67-46881459330b","system_id":"levelo_inurba_marseille","lat":43.30193,"lon":5.36631,"is_reserved":false,"is_disabled":false,"rental_uris":{"android":"levelo://app?vid=c5731db7-e312-4434-8f67-46881459330b","ios":"levelo://app?vid=c5731db7-e312-4434-8f67-46881459330b"},"vehicle_type_id":"4","last_reported":1761913309,"current_range_meters":21600,"station_id":"ce4bgrh2rcd13ifvqc8g","pricing_plan_id":"cebpf4jnsgd1na2vs0mg"},{"bike_id":"7c19b7e9-393b-4fa2-b057-4dd7dff08f6d","system_id":"levelo_inurba_marseille","lat":43.211984,"lon":5.350672,"is_reserved":false,"is_disabled":false,"rental_uris":{"android":"levelo://app?vid=7c19b7e9-393b-4fa2-b057-4dd7dff08f6d","ios":"levelo://app?vid=7c19b7e9-393b-4fa2-b057-4dd7dff08f6d"},"vehicle_type_id":"4","last_reported":1761913309,"current_range_meters":21600,"station_id":"st_cvj6sg6p6f1abm77japg","pricing_plan_id":"cebpf4jnsgd1na2vs0mg"},{"bike_id":"a73a24c3-2218-4652-a302-2ad81b7034ad","system_id":"levelo_inurba_marseille","lat":43.31816,"lon":5.38775,"is_reserved":false,"is_disabled":false,"rental_uris":{"android":"levelo://app?vid=a73a24c3-2218-4652-a302-2ad81b7034ad","ios":"levelo://app?vid=a73a24c3-2218-4652-a302-2ad81b7034ad"},"vehicle_type_id":"4","last_reported":1761913309,"current_range_meters":21600,"station_id":"","pricing_plan_id":"cebpf4jnsgd1na2vs0mg"},{"bike_id":"cf7a8ce5-6096-4f39-86c5-cb2e7875b3f2","system_id":"levelo_inurba_marseille","lat":43.24542,"lon":5.39529,"is_reserved":false,"is_disabled":false,"rental_uris":{"android":"levelo://app?vid=cf7a8ce5-6096-4f39-86c5-cb2e7875b3f2","ios":"levelo://app?vid=cf7a8ce5-6096-4f39-86c5-cb2e7875b3f2"},"vehicle_type_id":"4","last_reported":1761913309,"current_range_meters":22000,"station_id":"ce4bhlp2rcd13ifvqgjg","pricing_plan_id":"cebpf4jnsgd1na2vs0mg"},{"bike_id":"f4c38a56-4a35-49a9-bdea-5d14ae1ba768","system_id":"levelo_inurba_marseille","lat":43.29748,"lon":5.42778,"is_reserved":false,"is_disabled":false,"rental_uris":{"android":"levelo://app?vid=f4c38a56-4a35-49a9-bdea-5d14ae1ba768","ios":"levelo://app?vid=f4c38a56-4a35-49a9-bdea-5d14ae1ba768"},"vehicle_type_id":"4","last_reported":1761913309,"current_range_meters":22000,"station_id":"st_d3md5207bmas73dh9klg","pricing_plan_id":"cebpf4jnsgd1na2vs0mg"},{"bike_id":"7776d34e-6db1-4a95-b64a-dfa1faf6c280","system_id":"levelo_inurba_marseille","lat":43.30176,"lon":5.36966,"is_reserved":false,"is_disabled":false,"rental_uris":{"android":"levelo://app?vid=7776d34e-6db1-4a95-b64a-dfa1faf6c280","ios":"levelo://app?vid=7776d34e-6db1-4a95-b64a-dfa1faf6c280"},"vehicle_type_id":"4","last_reported":1761913309,"current_range_meters":22000,"station_id":"","pricing_plan_id":"cebpf4jnsgd1na2vs0mg"},{"bike_id":"4b588c14-b6f1-45e5-835a-43dbf0c172de","system_id":"levelo_inurba_marseille","lat":43.29977,"lon":5.38486,"is_reserved":false,"is_disabled":false,"rental_uris":{"android":"levelo://app?vid=4b588c14-b6f1-45e5-835a-43dbf0c172de","ios":"levelo://app?vid=4b588c14-b6f1-45e5-835a-43dbf0c172de"},"vehicle_type_id":"4","last_reported":1761913309,"current_range_meters":22000,"station_id":"ce4bgj92rcd13ifvqbd0","pricing_plan_id":"cebpf4jnsgd1na2vs0mg"},{"bike_id":"9a97b330-5da2-4b6d-9040-48304bc213d4","system_id":"levelo_inurba_marseille","lat":43.31228,"lon":5.36847,"is_reserved":false,"is_disabled":false,"rental_uris":{"android":"levelo://app?vid=9a97b330-5da2-4b6d-9040-48304bc213d4","ios":"levelo://app?vid=9a97b330-5da2-4b6d-9040-48304bc213d4"},"vehicle_type_id":"4","last_reported":1761913309,"current_range_meters":22000,"station_id":"ce4bgl92rcd13ifvqbq0","pricing_plan_id":"cebpf4jnsgd1na2vs0mg"},{"bike_id":"deaa70f3-088f-484b-95aa-256a4ef000b4","system_id":"levelo_inurba_marseille","lat":43.29932,"lon":5.36553,"is_reserved":false,"is_disabled":false,"rental_uris":{"android":"levelo://app?vid=deaa70f3-088f-484b-95aa-256a4ef000b4","ios":"levelo://app?vid=deaa70f3-088f-484b-95aa-256a4ef000b4"},"vehicle_type_id":"4","last_reported":1761913309,"current_range_meters":22000,"station_id":"ce4bgm92rcd13ifvqbr0","pricing_plan_id":"cebpf4jnsgd1na2vs0mg"},{"bike_id":"e234df06-1f05-4887-b706-85c5b9955892","system_id":"levelo_inurba_marseille","lat":43.29854,"lon":5.36284,"is_reserved":false,"is_disabled":false,"rental_uris":{"android":"levelo://app?vid=e234df06-1f05-4887-b706-85c5b9955892","ios":"levelo://app?vid=e234df06-1f05-4887-b706-85c5b9955892"},"vehicle_type_id":"4","last_reported":1761913309,"current_range_meters":22000,"station_id":"ce4bgpp2rcd13ifvqc3g","pricing_plan_id":"cebpf4jnsgd1na2vs0mg"},{"bike_id":"36fbeaf3-e399-41a4-9363-30f6bf6c6c05","system_id":"levelo_inurba_marseille","lat":43.25929,"lon":5.40911,"is_reserved":false,"is_disabled":false,"rental_uris":{"android":"levelo://app?vid=36fbeaf3-e399-41a4-9363-30f6bf6c6c05","ios":"levelo://app?vid=36fbeaf3-e399-41a4-9363-30f6bf6c6c05"},"vehicle_type_id":"4","last_reported":1761913309,"current_range_meters":22400,"station_id":"ce4bhm92rcd13ifvqglg","pricing_plan_id":"cebpf4jnsgd1na2vs0mg"},{"bike_id":"62de671e-7a32-4ba9-9083-1401010c4da7","system_id":"levelo_inurba_marseille","lat":43.23153,"lon":5.43706,"is_reserved":false,"is_disabled":false,"rental_uris":{"android":"levelo://app?vid=62de671e-7a32-4ba9-9083-1401010c4da7","ios":"levelo://app?vid=62de671e-7a32-4ba9-9083-1401010c4da7"},"vehicle_type_id":"4","last_reported":1761913309,"current_range_meters":22400,"station_id":"ce4bhmp2rcd13ifvqgog","pricing_plan_id":"cebpf4jnsgd1na2vs0mg"},{"bike_id":"79c3e17b-6b52-40f3-829f-6b443681b1d3","system_id":"levelo_inurba_marseille","lat":43.28105,"lon":5.39662,"is_reserved":false,"is_disabled":false,"rental_uris":{"android":"levelo://app?vid=79c3e17b-6b52-40f3-829f-6b443681b1d3","ios":"levelo://app?vid=79c3e17b-6b52-40f3-829f-6b443681b1d3"},"vehicle_type_id":"4","last_reported":1761913309,"current_range_meters":22400,"station_id":"ce4bho12rcd13ifvqh2g","pricing_plan_id":"cebpf4jnsgd1na2vs0mg"},{"bike_id":"0e9ced9e-2b7b-4e4a-acdb-ddfcdb9a6ea9","system_id":"levelo_inurba_marseille","lat":43.29524,"lon":5.38552,"is_reserved":false,"is_disabled":false,"rental_uris":{"android":"levelo://app?vid=0e9ced9e-2b7b-4e4a-acdb-ddfcdb9a6ea9","ios":"levelo://app?vid=0e9ced9e-2b7b-4e4a-acdb-ddfcdb9a6ea9"},"vehicle_type_id":"4","last_reported":1761913309,"current_range_meters":22400,"station_id":"ce4bgih2rcd13ifvqba0","pricing_plan_id":"cebpf4jnsgd1na2vs0mg"},{"bike_id":"8ac4fbc9-ac0d-4af5-9421-6ac71f656b7f","system_id":"levelo_inurba_marseille","lat":43.2994,"lon":5.36541,"is_reserved":false,"is_disabled":false,"rental_uris":{"android":"levelo://app?vid=8ac4fbc9-ac0d-4af5-9421-6ac71f656b7f","ios":"levelo://app?vid=8ac4fbc9-ac0d-4af5-9421-6ac71f656b7f"},"vehicle_type_id":"4","last_reported":1761913309,"current_range_meters":22400,"station_id":"ce4bgm92rcd13ifvqbr0","pricing_plan_id":"cebpf4jnsgd1na2vs0mg"},{"bike_id":"aea69efe-0503-4b60-bce9-564bde7f7791","system_id":"levelo_inurba_marseille","lat":43.32079,"lon":5.36803,"is_reserved":false,"is_disabled":false,"rental_uris":{"android":"levelo://app?vid=aea69efe-0503-4b60-bce9-564bde7f7791","ios":"levelo://app?vid=aea69efe-0503-4b60-bce9-564bde7f7791"},"vehicle_type_id":"4","last_reported":1761913309,"current_range_meters":22400,"station_id":"ce4bhrh2rcd13ifvqhug","pricing_plan_id":"cebpf4jnsgd1na2vs0mg"},{"bike_id":"15eabd95-4639-4bd2-ac27-e38df8c429e0","system_id":"levelo_inurba_marseille","lat":43.24101,"lon":5.37738,"is_reserved":false,"is_disabled":false,"rental_uris":{"android":"levelo://app?vid=15eabd95-4639-4bd2-ac27-e38df8c429e0","ios":"levelo://app?vid=15eabd95-4639-4bd2-ac27-e38df8c429e0"},"vehicle_type_id":"4","last_reported":1761913309,"current_range_meters":22400,"station_id":"ce4bhnp2rcd13ifvqgvg","pricing_plan_id":"cebpf4jnsgd1na2vs0mg"},{"bike_id":"ee4ce399-508c-4dc9-a784-aa053c97d847","system_id":"levelo_inurba_marseille","lat":43.26487,"lon":5.3957,"is_reserved":false,"is_disabled":false,"rental_uris":{"android":"levelo://app?vid=ee4ce399-508c-4dc9-a784-aa053c97d847","ios":"levelo://app?vid=ee4ce399-508c-4dc9-a784-aa053c97d847"},"vehicle_type_id":"4","last_reported":1761913309,"current_range_meters":22400,"station_id":"ce4bhi12rcd13ifvqfq0","pricing_plan_id":"cebpf4jnsgd1na2vs0mg"},{"bike_id":"573193a4-5c8c-4bf6-8ecc-cc47b687778e","system_id":"levelo_inurba_marseille","lat":43.25109,"lon":5.40321,"is_reserved":false,"is_disabled":false,"rental_uris":{"android":"levelo://app?vid=573193a4-5c8c-4bf6-8ecc-cc47b687778e","ios":"levelo://app?vid=573193a4-5c8c-4bf6-8ecc-cc47b687778e"},"vehicle_type_id":"4","last_reported":1761913309,"current_range_meters":22400,"station_id":"ce4bhlh2rcd13ifvqgig","pricing_plan_id":"cebpf4jnsgd1na2vs0mg"},{"bike_id":"ba541a52-7e4e-4241-9791-ae6f1fb03dcd","system_id":"levelo_inurba_marseille","lat":43.319929,"lon":5.415977,"is_reserved":false,"is_disabled":false,"rental_uris":{"android":"levelo://app?vid=ba541a52-7e4e-4241-9791-ae6f1fb03dcd","ios":"levelo://app?vid=ba541a52-7e4e-4241-9791-ae6f1fb03dcd"},"vehicle_type_id":"4","last_reported":1761913309,"current_range_meters":22400,"station_id":"","pricing_plan_id":"cebpf4jnsgd1na2vs0mg"},{"bike_id":"52b04612-cd38-411f-a68e-6bb9cb24a90a","system_id":"levelo_inurba_marseille","lat":43.24164,"lon":5.36394,"is_reserved":false,"is_disabled":false,"rental_uris":{"android":"levelo://app?vid=52b04612-cd38-411f-a68e-6bb9cb24a90a","ios":"levelo://app?vid=52b04612-cd38-411f-a68e-6bb9cb24a90a"},"vehicle_type_id":"4","last_reported":1761913309,"current_range_meters":22800,"station_id":"cpo36qri1sfpv3e86is0","pricing_plan_id":"cebpf4jnsgd1na2vs0mg"},{"bike_id":"4e391c44-1911-4be7-a906-0c62db9e237c","system_id":"levelo_inurba_marseille","lat":43.24654,"lon":5.38894,"is_reserved":false,"is_disabled":false,"rental_uris":{"android":"levelo://app?vid=4e391c44-1911-4be7-a906-0c62db9e237c","ios":"levelo://app?vid=4e391c44-1911-4be7-a906-0c62db9e237c"},"vehicle_type_id":"4","last_reported":1761913309,"current_range_meters":22800,"station_id":"ce4bhg12rcd13ifvqf60","pricing_plan_id":"cebpf4jnsgd1na2vs0mg"},{"bike_id":"7b398713-e01c-4991-ac43-9a866f67d1f1","system_id":"levelo_inurba_marseille","lat":43.21193,"lon":5.35074,"is_reserved":false,"is_disabled":false,"rental_uris":{"android":"levelo://app?vid=7b398713-e01c-4991-ac43-9a866f67d1f1","ios":"levelo://app?vid=7b398713-e01c-4991-ac43-9a866f67d1f1"},"vehicle_type_id":"4","last_reported":1761913309,"current_range_meters":22800,"station_id":"st_cvj6sg6p6f1abm77japg","pricing_plan_id":"cebpf4jnsgd1na2vs0mg"},{"bike_id":"f7717510-cdf0-47dd-9204-be18f18669a8","system_id":"levelo_inurba_marseille","lat":43.29838,"lon":5.3627,"is_reserved":false,"is_disabled":false,"rental_uris":{"android":"levelo://app?vid=f7717510-cdf0-47dd-9204-be18f18669a8","ios":"levelo://app?vid=f7717510-cdf0-47dd-9204-be18f18669a8"},"vehicle_type_id":"4","last_reported":1761913309,"current_range_meters":23200,"station_id":"ce4bgpp2rcd13ifvqc3g","pricing_plan_id":"cebpf4jnsgd1na2vs0mg"},{"bike_id":"3c0ba2d8-f6ff-43e3-9904-5561cede41d3","system_id":"levelo_inurba_marseille","lat":43.278066,"lon":5.407065,"is_reserved":false,"is_disabled":false,"rental_uris":{"android":"levelo://app?vid=3c0ba2d8-f6ff-43e3-9904-5561cede41d3","ios":"levelo://app?vid=3c0ba2d8-f6ff-43e3-9904-5561cede41d3"},"vehicle_type_id":"4","last_reported":1761913309,"current_range_meters":23200,"station_id":"ce4bhnh2rcd13ifvqgtg","pricing_plan_id":"cebpf4jnsgd1na2vs0mg"},{"bike_id":"a58fc2eb-38af-4158-8dba-485b48d8fa78","system_id":"levelo_inurba_marseille","lat":43.29974,"lon":5.38479,"is_reserved":false,"is_disabled":false,"rental_uris":{"android":"levelo://app?vid=a58fc2eb-38af-4158-8dba-485b48d8fa78","ios":"levelo://app?vid=a58fc2eb-38af-4158-8dba-485b48d8fa78"},"vehicle_type_id":"4","last_reported":1761913309,"current_range_meters":23200,"station_id":"ce4bgj92rcd13ifvqbd0","pricing_plan_id":"cebpf4jnsgd1na2vs0mg"},{"bike_id":"e9179293-b44a-468d-b84a-4979d65ef7cb","system_id":"levelo_inurba_marseille","lat":43.26224,"lon":5.40456,"is_reserved":false,"is_disabled":false,"rental_uris":{"android":"levelo://app?vid=e9179293-b44a-468d-b84a-4979d65ef7cb","ios":"levelo://app?vid=e9179293-b44a-468d-b84a-4979d65ef7cb"},"vehicle_type_id":"4","last_reported":1761913309,"current_range_meters":23200,"station_id":"ce4bhmh2rcd13ifvqgmg","pricing_plan_id":"cebpf4jnsgd1na2vs0mg"},{"bike_id":"5b30b180-3ef8-441e-b8a9-d060e354d23b","system_id":"levelo_inurba_marseille","lat":43.29939,"lon":5.36544,"is_reserved":false,"is_disabled":false,"rental_uris":{"android":"levelo://app?vid=5b30b180-3ef8-441e-b8a9-d060e354d23b","ios":"levelo://app?vid=5b30b180-3ef8-441e-b8a9-d060e354d23b"},"vehicle_type_id":"4","last_reported":1761913309,"current_range_meters":23200,"station_id":"ce4bgm92rcd13ifvqbr0","pricing_plan_id":"cebpf4jnsgd1na2vs0mg"},{"bike_id":"e041c8e2-24d8-4cc4-adb1-a320948b151c","system_id":"levelo_inurba_marseille","lat":43.27938,"lon":5.41052,"is_reserved":false,"is_disabled":false,"rental_uris":{"android":"levelo://app?vid=e041c8e2-24d8-4cc4-adb1-a320948b151c","ios":"levelo://app?vid=e041c8e2-24d8-4cc4-adb1-a320948b151c"},"vehicle_type_id":"4","last_reported":1761913309,"current_range_meters":23200,"station_id":"ce4bhnp2rcd13ifvqh0g","pricing_plan_id":"cebpf4jnsgd1na2vs0mg"},{"bike_id":"5aae584d-1fc2-4f4e-a25d-6f6dabb248b2","system_id":"levelo_inurba_marseille","lat":43.30145,"lon":5.38778,"is_reserved":false,"is_disabled":false,"rental_uris":{"android":"levelo://app?vid=5aae584d-1fc2-4f4e-a25d-6f6dabb248b2","ios":"levelo://app?vid=5aae584d-1fc2-4f4e-a25d-6f6dabb248b2"},"vehicle_type_id":"4","last_reported":1761913309,"current_range_meters":23200,"station_id":"ce4bghh2rcd13ifvqb60","pricing_plan_id":"cebpf4jnsgd1na2vs0mg"},{"bike_id":"03e17c82-010c-496d-86ce-e808795faea8","system_id":"levelo_inurba_marseille","lat":43.24072,"lon":5.37759,"is_reserved":false,"is_disabled":false,"rental_uris":{"android":"levelo://app?vid=03e17c82-010c-496d-86ce-e808795faea8","ios":"levelo://app?vid=03e17c82-010c-496d-86ce-e808795faea8"},"vehicle_type_id":"4","last_reported":1761913309,"current_range_meters":23200,"station_id":"ce4bhnp2rcd13ifvqgvg","pricing_plan_id":"cebpf4jnsgd1na2vs0mg"},{"bike_id":"fd491628-87df-4048-bf7c-d3e1be7e47dd","system_id":"levelo_inurba_marseille","lat":43.24072,"lon":5.3776,"is_reserved":false,"is_disabled":false,"rental_uris":{"android":"levelo://app?vid=fd491628-87df-4048-bf7c-d3e1be7e47dd","ios":"levelo://app?vid=fd491628-87df-4048-bf7c-d3e1be7e47dd"},"vehicle_type_id":"4","last_reported":1761913309,"current_range_meters":23200,"station_id":"ce4bhnp2rcd13ifvqgvg","pricing_plan_id":"cebpf4jnsgd1na2vs0mg"},{"bike_id":"527db624-370d-409d-a74b-8292416f4b91","system_id":"levelo_inurba_marseille","lat":43.296642,"lon":5.378686,"is_reserved":false,"is_disabled":false,"rental_uris":{"android":"levelo://app?vid=527db624-370d-409d-a74b-8292416f4b91","ios":"levelo://app?vid=527db624-370d-409d-a74b-8292416f4b91"},"vehicle_type_id":"4","last_reported":1761913309,"current_range_meters":24000,"station_id":"ce4bgop2rcd13ifvqc1g","pricing_plan_id":"cebpf4jnsgd1na2vs0mg"},{"bike_id":"f77a28de-ba16-41bc-a3a4-ba36b0519b67","system_id":"levelo_inurba_marseille","lat":43.296346,"lon":5.373284,"is_reserved":false,"is_disabled":false,"rental_uris":{"android":"levelo://app?vid=f77a28de-ba16-41bc-a3a4-ba36b0519b67","ios":"levelo://app?vid=f77a28de-ba16-41bc-a3a4-ba36b0519b67"},"vehicle_type_id":"4","last_reported":1761913309,"current_range_meters":24000,"station_id":"","pricing_plan_id":"cebpf4jnsgd1na2vs0mg"},{"bike_id":"999e89c0-6c59-4e25-b353-b7e62a134369","system_id":"levelo_inurba_marseille","lat":43.259401,"lon":5.409031,"is_reserved":false,"is_disabled":false,"rental_uris":{"android":"levelo://app?vid=999e89c0-6c59-4e25-b353-b7e62a134369","ios":"levelo://app?vid=999e89c0-6c59-4e25-b353-b7e62a134369"},"vehicle_type_id":"4","last_reported":1761913309,"current_range_meters":24000,"station_id":"","pricing_plan_id":"cebpf4jnsgd1na2vs0mg"},{"bike_id":"2bd2206d-0a25-4c81-9589-a3c6ff92e70c","system_id":"levelo_inurba_marseille","lat":43.302967,"lon":5.392159,"is_reserved":false,"is_disabled":false,"rental_uris":{"android":"levelo://app?vid=2bd2206d-0a25-4c81-9589-a3c6ff92e70c","ios":"levelo://app?vid=2bd2206d-0a25-4c81-9589-a3c6ff92e70c"},"vehicle_type_id":"4","last_reported":1761913309,"current_range_meters":24000,"station_id":"ce4bgkh2rcd13ifvqbk0","pricing_plan_id":"cebpf4jnsgd1na2vs0mg"},{"bike_id":"ed45dc56-6434-4e21-be1b-a9fe6670e6a8","system_id":"levelo_inurba_marseille","lat":43.27667,"lon":5.38887,"is_reserved":false,"is_disabled":false,"rental_uris":{"android":"levelo://app?vid=ed45dc56-6434-4e21-be1b-a9fe6670e6a8","ios":"levelo://app?vid=ed45dc56-6434-4e21-be1b-a9fe6670e6a8"},"vehicle_type_id":"4","last_reported":1761913309,"current_range_meters":24000,"station_id":"ce4bhi12rcd13ifvqfo0","pricing_plan_id":"cebpf4jnsgd1na2vs0mg"},{"bike_id":"8e9ba9bd-9b5e-4c1e-990c-bd09f50407a4","system_id":"levelo_inurba_marseille","lat":43.281552,"lon":5.426452,"is_reserved":false,"is_disabled":false,"rental_uris":{"android":"levelo://app?vid=8e9ba9bd-9b5e-4c1e-990c-bd09f50407a4","ios":"levelo://app?vid=8e9ba9bd-9b5e-4c1e-990c-bd09f50407a4"},"vehicle_type_id":"4","last_reported":1761913309,"current_range_meters":24400,"station_id":"ce4bhnh2rcd13ifvqgug","pricing_plan_id":"cebpf4jnsgd1na2vs0mg"},{"bike_id":"2a4cca83-d1a6-420a-90e5-de7b2a7d34a6","system_id":"levelo_inurba_marseille","lat":43.25111,"lon":5.40329,"is_reserved":false,"is_disabled":false,"rental_uris":{"android":"levelo://app?vid=2a4cca83-d1a6-420a-90e5-de7b2a7d34a6","ios":"levelo://app?vid=2a4cca83-d1a6-420a-90e5-de7b2a7d34a6"},"vehicle_type_id":"4","last_reported":1761913309,"current_range_meters":24400,"station_id":"ce4bhlh2rcd13ifvqgig","pricing_plan_id":"cebpf4jnsgd1na2vs0mg"},{"bike_id":"885b29da-0796-452d-a46f-c91b2df7c0e7","system_id":"levelo_inurba_marseille","lat":43.30551,"lon":5.36531,"is_reserved":false,"is_disabled":false,"rental_uris":{"android":"levelo://app?vid=885b29da-0796-452d-a46f-c91b2df7c0e7","ios":"levelo://app?vid=885b29da-0796-452d-a46f-c91b2df7c0e7"},"vehicle_type_id":"4","last_reported":1761913309,"current_range_meters":24400,"station_id":"ce4bgs12rcd13ifvqcag","pricing_plan_id":"cebpf4jnsgd1na2vs0mg"},{"bike_id":"30890c1b-4dd6-40d1-b653-db5b612a4a99","system_id":"levelo_inurba_marseille","lat":43.26224,"lon":5.40463,"is_reserved":false,"is_disabled":false,"rental_uris":{"android":"levelo://app?vid=30890c1b-4dd6-40d1-b653-db5b612a4a99","ios":"levelo://app?vid=30890c1b-4dd6-40d1-b653-db5b612a4a99"},"vehicle_type_id":"4","last_reported":1761913309,"current_range_meters":24400,"station_id":"ce4bhmh2rcd13ifvqgmg","pricing_plan_id":"cebpf4jnsgd1na2vs0mg"},{"bike_id":"784e26e6-244f-4434-9266-9b741a39c3d7","system_id":"levelo_inurba_marseille","lat":43.2707,"lon":5.42279,"is_reserved":false,"is_disabled":false,"rental_uris":{"android":"levelo://app?vid=784e26e6-244f-4434-9266-9b741a39c3d7","ios":"levelo://app?vid=784e26e6-244f-4434-9266-9b741a39c3d7"},"vehicle_type_id":"4","last_reported":1761913309,"current_range_meters":24400,"station_id":"ce4bhk92rcd13ifvqgb0","pricing_plan_id":"cebpf4jnsgd1na2vs0mg"},{"bike_id":"370b01d4-1220-41bf-a063-6e5dbc4edce4","system_id":"levelo_inurba_marseille","lat":43.29099,"lon":5.38157,"is_reserved":false,"is_disabled":false,"rental_uris":{"android":"levelo://app?vid=370b01d4-1220-41bf-a063-6e5dbc4edce4","ios":"levelo://app?vid=370b01d4-1220-41bf-a063-6e5dbc4edce4"},"vehicle_type_id":"4","last_reported":1761913309,"current_range_meters":24400,"station_id":"ce4bh512rcd13ifvqe2g","pricing_plan_id":"cebpf4jnsgd1na2vs0mg"},{"bike_id":"6c665cd4-9d60-4ade-94da-3ec796f1d9dc","system_id":"levelo_inurba_marseille","lat":43.301634,"lon":5.366119,"is_reserved":false,"is_disabled":false,"rental_uris":{"android":"levelo://app?vid=6c665cd4-9d60-4ade-94da-3ec796f1d9dc","ios":"levelo://app?vid=6c665cd4-9d60-4ade-94da-3ec796f1d9dc"},"vehicle_type_id":"4","last_reported":1761913309,"current_range_meters":24400,"station_id":"ce4bgrh2rcd13ifvqc8g","pricing_plan_id":"cebpf4jnsgd1na2vs0mg"},{"bike_id":"3c803815-8c28-4a5d-86c2-48ed25e06ce0","system_id":"levelo_inurba_marseille","lat":43.24063,"lon":5.37793,"is_reserved":false,"is_disabled":false,"rental_uris":{"android":"levelo://app?vid=3c803815-8c28-4a5d-86c2-48ed25e06ce0","ios":"levelo://app?vid=3c803815-8c28-4a5d-86c2-48ed25e06ce0"},