{"last_updated":1703610362,"ttl":30,"version":"2.2","data":{"bikes":[{"bike_id":"2622af14-4a84-4c84-abfa-b6e648ae7b78","system_id":"levelo_inurba_marseille","lat":43.309039,"lon":5.371797,"is_reserved":false,"is_disabled":false,"rental_uris":{"android":"levelo://app?vid=2622af14-4a84-4c84-abfa-b6e648ae7b78","ios":"levelo://app?vid=2622af14-4a84-4c84-abfa-b6e648ae7b78"},"vehicle_type_id":"4","last_reported":1703610362,"current_range_meters":8000,"station_id":"ce4bguh2rcd13ifvqckg","pricing_plan_id":"free"},{"bike_id":"aa0076cc-4b31-408f-a458-f6ddbc914497","system_id":"levelo_inurba_marseille","lat":43.309039,"lon":5.371797,"is_reserved":false,"is_disabled":false,"rental_uris":{"android":"levelo://app?vid=aa0076cc-4b31-408f-a458-f6ddbc914497","ios":"levelo://app?vid=aa0076cc-4b31-408f-a458-f6ddbc914497"},"vehicle_type_id":"4","last_reported":1703610362,"current_range_meters":17200,"station_id":"ce4bguh2rcd13ifvqckg","pricing_plan_id":"free"},{"bike_id":"84703469-90ab-4cb5-be90-37e43a29701b","system_id":"levelo_inurba_marseille","lat":43.309039,"lon":5.371797,"is_reserved":false,"is_disabled":false,"rental_uris":{"android":"levelo://app?vid=84703469-90ab-4cb5-be90-37e43a29701b","ios":"levelo://app?vid=84703469-90ab-4cb5-be90-37e43a29701b"},"vehicle_type_id":"4","last_reported":1703610362,"current_range_meters":20800,"station_id":"ce4bguh2rcd13ifvqckg","pricing_plan_id":"free"},{"bike_id":"98fc8f36-009c-49c0-bde9-eaacf0237add","system_id":"levelo_inurba_marseille","lat":43.31494,"lon":5.373912,"is_reserved":false,"is_disabled":false,"rental_uris":{"android":"levelo://app?vid=98fc8f36-009c-49c0-bde9-eaacf0237add","ios":"levelo://app?vid=98fc8f36-009c-49c0-bde9-eaacf0237add"},"vehicle_type_id":"4","last_reported":1703610362,"current_range_meters":25200,"station_id":"","pricing_plan_id":"free"},{"bike_id":"437be774-9347-4f56-865e-861017296255","system_id":"levelo_inurba_marseille","lat":43.318964,"lon":5.36877,"is_reserved":false,"is_disabled":false,"rental_uris":{"android":"levelo://app?vid=437be774-9347-4f56-865e-861017296255","ios":"levelo://app?vid=437be774-9347-4f56-865e-861017296255"},"vehicle_type_id":"4","last_reported":1703610362,"current_range_meters":11200,"station_id":"","pricing_plan_id":"free"},{"bike_id":"7eab4427-b149-4c92-94c6-111787fa1142","system_id":"levelo_inurba_marseille","lat":43.305367,"lon":5.365623,"is_reserved":false,"is_disabled":false,"rental_uris":{"android":"levelo://app?vid=7eab4427-b149-4c92-94c6-111787fa1142","ios":"levelo://app?vid=7eab4427-b149-4c92-94c6-111787fa1142"},"vehicle_type_id":"4","last_reported":1703610362,"current_range_meters":9600,"station_id":"ce4bgs12rcd13ifvqcag","pricing_plan_id":"free"},{"bike_id":"ed0ee458-d167-4624-8c61-96e3c5ea9645","system_id":"levelo_inurba_marseille","lat":43.305706,"lon":5.365654,"is_reserved":false,"is_disabled":false,"rental_uris":{"android":"levelo://app?vid=ed0ee458-d167-4624-8c61-96e3c5ea9645","ios":"levelo://app?vid=ed0ee458-d167-4624-8c61-96e3c5ea9645"},"vehicle_type_id":"4","last_reported":1703610362,"current_range_meters":1200,"station_id":"ce4bgs12rcd13ifvqcag","pricing_plan_id":"free"},{"bike_id":"2c981de7-1003-4f87-b2ab-d2893970b9ea","system_id":"levelo_inurba_marseille","lat":43.305368,"lon":5.367343,"is_reserved":false,"is_disabled":false,"rental_uris":{"android":"levelo://app?vid=2c981de7-1003-4f87-b2ab-d2893970b9ea","ios":"levelo://app?vid=2c981de7-1003-4f87-b2ab-d2893970b9ea"},"vehicle_type_id":"4","last_reported":1703610362,"current_range_meters":13600,"station_id":"ce4bgrp2rcd13ifvqc9g","pricing_plan_id":"free"},{"bike_id":"f5485fb3-6908-4a19-9802-f3271733bbef","system_id":"levelo_inurba_marseille","lat":43.307945,"lon":5.376487,"is_reserved":false,"is_disabled":false,"rental_uris":{"android":"levelo://app?vid=f5485fb3-6908-4a19-9802-f3271733bbef","ios":"levelo://app?vid=f5485fb3-6908-4a19-9802-f3271733bbef"},"vehicle_type_id":"4","last_reported":1703610362,"current_range_meters":12400,"station_id":"ce4bgv92rcd13ifvqcq0","pricing_plan_id":"free"},{"bike_id":"eef00dbf-e193-463f-8cdc-a0714da52407","system_id":"levelo_inurba_marseille","lat":43.303046,"lon":5.368981,"is_reserved":false,"is_disabled":false,"rental_uris":{"android":"levelo://app?vid=eef00dbf-e193-463f-8cdc-a0714da52407","ios":"levelo://app?vid=eef00dbf-e193-463f-8cdc-a0714da52407"},"vehicle_type_id":"4","last_reported":1703610362,"current_range_meters":27600,"station_id":"ce4bgqh2rcd13ifvqc5g","pricing_plan_id":"free"},{"bike_id":"382b2c4a-4fd0-4c3a-acbf-6fa6ef0d9a2e","system_id":"levelo_inurba_marseille","lat":43.308012,"lon":5.381511,"is_reserved":false,"is_disabled":false,"rental_uris":{"android":"levelo://app?vid=382b2c4a-4fd0-4c3a-acbf-6fa6ef0d9a2e","ios":"levelo://app?vid=382b2c4a-4fd0-4c3a-acbf-6fa6ef0d9a2e"},"vehicle_type_id":"4","last_reported":1703610362,"current_range_meters":22400,"station_id":"ce4bgt12rcd13ifvqce0","pricing_plan_id":"free"},{"bike_id":"1b4419af-8c05-4d56-8daa-afe8e598a700","system_id":"levelo_inurba_marseille","lat":43.308012,"lon":5.381511,"is_reserved":false,"is_disabled":false,"rental_uris":{"android":"levelo://app?vid=1b4419af-8c05-4d56-8daa-afe8e598a700","ios":"levelo://app?vid=1b4419af-8c05-4d56-8daa-afe8e598a700"},"vehicle_type_id":"4","last_reported":1703610362,"current_range_meters":24000,"station_id":"ce4bgt12rcd13ifvqce0","pricing_plan_id":"free"},{"bike_id":"56f345dd-5057-49e4-9c2a-dc2a2de6ec7d","system_id":"levelo_inurba_marseille","lat":43.308012,"lon":5.381511,"is_reserved":false,"is_disabled":false,"rental_uris":{"android":"levelo://app?vid=56f345dd-5057-49e4-9c2a-dc2a2de6ec7d","ios":"levelo://app?vid=56f345dd-5057-49e4-9c2a-dc2a2de6ec7d"},"vehicle_type_id":"4","last_reported":1703610362,"current_range_meters":12000,"station_id":"ce4bgt12rcd13ifvqce0","pricing_plan_id":"free"},{"bike_id":"b35aaccb-8af9-4f9a-b783-732e331263f8","system_id":"levelo_inurba_marseille","lat":43.308012,"lon":5.381511,"is_reserved":false,"is_disabled":false,"rental_uris":{"android":"levelo://app?vid=b35aaccb-8af9-4f9a-b783-732e331263f8","ios":"levelo://app?vid=b35aaccb-8af9-4f9a-b783-732e331263f8"},"vehicle_type_id":"4","last_reported":1703610362,"current_range_meters":27600,"station_id":"ce4bgt12rcd13ifvqce0","pricing_plan_id":"free"},{"bike_id":"7b2e1957-3cd3-4484-989a-8daf9851cedf","system_id":"levelo_inurba_marseille","lat":43.308012,"lon":5.381511,"is_reserved":false,"is_disabled":false,"rental_uris":{"android":"levelo://app?vid=7b2e1957-3cd3-4484-989a-8daf9851cedf","ios":"levelo://app?vid=7b2e1957-3cd3-4484-989a-8daf9851cedf"},"vehicle_type_id":"4","last_reported":1703610362,"current_range_meters":18400,"station_id":"ce4bgt12rcd13ifvqce0","pricing_plan_id":"free"},{"bike_id":"d2209fd0-6e1e-4b46-89eb-44545c4f07f8","system_id":"levelo_inurba_marseille","lat":43.308012,"lon":5.381511,"is_reserved":false,"is_disabled":false,"rental_uris":{"android":"levelo://app?vid=d2209fd0-6e1e-4b46-89eb-44545c4f07f8","ios":"levelo://app?vid=d2209fd0-6e1e-4b46-89eb-44545c4f07f8"},"vehicle_type_id":"4","last_reported":1703610362,"current_range_meters":15600,"station_id":"ce4bgt12rcd13ifvqce0","pricing_plan_id":"free"},{"bike_id":"bb6049dc-99b6-46b9-960b-b6be12bd1a3d","system_id":"levelo_inurba_marseille","lat":43.308012,"lon":5.381511,"is_reserved":false,"is_disabled":false,"rental_uris":{"android":"levelo://app?vid=bb6049dc-99b6-46b9-960b-b6be12bd1a3d","ios":"levelo://app?vid=bb6049dc-99b6-46b9-960b-b6be12bd1a3d"},"vehicle_type_id":"4","last_reported":1703610362,"current_range_meters":17600,"station_id":"ce4bgt12rcd13ifvqce0","pricing_plan_id":"free"},{"bike_id":"c53191d7-23da-4221-a56e-c8c873fb90c8","system_id":"levelo_inurba_marseille","lat":43.304606,"lon":5.379026,"is_reserved":false,"is_disabled":false,"rental_uris":{"android":"levelo://app?vid=c53191d7-23da-4221-a56e-c8c873fb90c8","ios":"levelo://app?vid=c53191d7-23da-4221-a56e-c8c873fb90c8"},"vehicle_type_id":"4","last_reported":1703610362,"current_range_meters":21200,"station_id":"ce4bgup2rcd13ifvqcn0","pricing_plan_id":"free"},{"bike_id":"739a0065-36ea-4553-b1d0-a415d59c5662","system_id":"levelo_inurba_marseille","lat":43.304693,"lon":5.378963,"is_reserved":false,"is_disabled":false,"rental_uris":{"android":"levelo://app?vid=739a0065-36ea-4553-b1d0-a415d59c5662","ios":"levelo://app?vid=739a0065-36ea-4553-b1d0-a415d59c5662"},"vehicle_type_id":"4","last_reported":1703610362,"current_range_meters":31200,"station_id":"ce4bgup2rcd13ifvqcn0","pricing_plan_id":"free"},{"bike_id":"f9c0218b-5208-4023-a3a0-7953bfc9adf2","system_id":"levelo_inurba_marseille","lat":43.30473,"lon":5.379023,"is_reserved":false,"is_disabled":false,"rental_uris":{"android":"levelo://app?vid=f9c0218b-5208-4023-a3a0-7953bfc9adf2","ios":"levelo://app?vid=f9c0218b-5208-4023-a3a0-7953bfc9adf2"},"vehicle_type_id":"4","last_reported":1703610362,"current_range_meters":31200,"station_id":"ce4bgup2rcd13ifvqcn0","pricing_plan_id":"free"},{"bike_id":"aae06b8e-34c5-4dc3-b902-060a6c0755d4","system_id":"levelo_inurba_marseille","lat":43.30466,"lon":5.378947,"is_reserved":false,"is_disabled":false,"rental_uris":{"android":"levelo://app?vid=aae06b8e-34c5-4dc3-b902-060a6c0755d4","ios":"levelo://app?vid=aae06b8e-34c5-4dc3-b902-060a6c0755d4"},"vehicle_type_id":"4","last_reported":1703610362,"current_range_meters":21200,"station_id":"ce4bgup2rcd13ifvqcn0","pricing_plan_id":"free"},{"bike_id":"015f3b0c-adfc-4673-bcc3-428f9b23222e","system_id":"levelo_inurba_marseille","lat":43.30471,"lon":5.37901,"is_reserved":false,"is_disabled":false,"rental_uris":{"android":"levelo://app?vid=015f3b0c-adfc-4673-bcc3-428f9b23222e","ios":"levelo://app?vid=015f3b0c-adfc-4673-bcc3-428f9b23222e"},"vehicle_type_id":"4","last_reported":1703610362,"current_range_meters":20800,"station_id":"ce4bgup2rcd13ifvqcn0","pricing_plan_id":"free"},{"bike_id":"a9bb2618-5a29-43e2-b671-aa5febeaa61d","system_id":"levelo_inurba_marseille","lat":43.30469,"lon":5.37899,"is_reserved":false,"is_disabled":false,"rental_uris":{"android":"levelo://app?vid=a9bb2618-5a29-43e2-b671-aa5febeaa61d","ios":"levelo://app?vid=a9bb2618-5a29-43e2-b671-aa5febeaa61d"},"vehicle_type_id":"4","last_reported":1703610362,"current_range_meters":26800,"station_id":"ce4bgup2rcd13ifvqcn0","pricing_plan_id":"free"},{"bike_id":"22d71a78-2a5f-4c0b-882e-b54c45e425b9","system_id":"levelo_inurba_marseille","lat":43.304677,"lon":5.378975,"is_reserved":false,"is_disabled":false,"rental_uris":{"android":"levelo://app?vid=22d71a78-2a5f-4c0b-882e-b54c45e425b9","ios":"levelo://app?vid=22d71a78-2a5f-4c0b-882e-b54c45e425b9"},"vehicle_type_id":"4","last_reported":1703610362,"current_range_meters":31200,"station_id":"ce4bgup2rcd13ifvqcn0","pricing_plan_id":"free"},{"bike_id":"b46b8096-50b3-41a8-b354-7d98015e0e89","system_id":"levelo_inurba_marseille","lat":43.30468,"lon":5.37899,"is_reserved":false,"is_disabled":false,"rental_uris":{"android":"levelo://app?vid=b46b8096-50b3-41a8-b354-7d98015e0e89","ios":"levelo://app?vid=b46b8096-50b3-41a8-b354-7d98015e0e89"},"vehicle_type_id":"4","last_reported":1703610362,"current_range_meters":28800,"station_id":"ce4bgup2rcd13ifvqcn0","pricing_plan_id":"free"},{"bike_id":"2057a8fc-db08-47d0-9793-102ff4ba6305","system_id":"levelo_inurba_marseille","lat":43.304606,"lon":5.379026,"is_reserved":false,"is_disabled":false,"rental_uris":{"android":"levelo://app?vid=2057a8fc-db08-47d0-9793-102ff4ba6305","ios":"levelo://app?vid=2057a8fc-db08-47d0-9793-102ff4ba6305"},"vehicle_type_id":"4","last_reported":1703610362,"current_range_meters":31200,"station_id":"ce4bgup2rcd13ifvqcn0","pricing_plan_id":"free"},{"bike_id":"8e841090-071f-457e-a8e1-c9627e8f0686","system_id":"levelo_inurba_marseille","lat":43.30461,"lon":5.37903,"is_reserved":false,"is_disabled":false,"rental_uris":{"android":"levelo://app?vid=8e841090-071f-457e-a8e1-c9627e8f0686","ios":"levelo://app?vid=8e841090-071f-457e-a8e1-c9627e8f0686"},"vehicle_type_id":"4","last_reported":1703610362,"current_range_meters":8800,"station_id":"ce4bgup2rcd13ifvqcn0","pricing_plan_id":"free"},{"bike_id":"b4a7a16b-8b45-4d3a-8785-a833e0e10b15","system_id":"levelo_inurba_marseille","lat":43.304606,"lon":5.379026,"is_reserved":false,"is_disabled":false,"rental_uris":{"android":"levelo://app?vid=b4a7a16b-8b45-4d3a-8785-a833e0e10b15","ios":"levelo://app?vid=b4a7a16b-8b45-4d3a-8785-a833e0e10b15"},"vehicle_type_id":"4","last_reported":1703610362,"current_range_meters":19200,"station_id":"ce4bgup2rcd13ifvqcn0","pricing_plan_id":"free"},{"bike_id":"63288742-1230-4b84-a505-b68ceec032db","system_id":"levelo_inurba_marseille","lat":43.304606,"lon":5.379026,"is_reserved":false,"is_disabled":false,"rental_uris":{"android":"levelo://app?vid=63288742-1230-4b84-a505-b68ceec032db","ios":"levelo://app?vid=63288742-1230-4b84-a505-b68ceec032db"},"vehicle_type_id":"4","last_reported":1703610362,"current_range_meters":27600,"station_id":"ce4bgup2rcd13ifvqcn0","pricing_plan_id":"free"},{"bike_id":"f5c0e4d6-16bd-47eb-ba92-aa201d0984ce","system_id":"levelo_inurba_marseille","lat":43.324771,"lon":5.36557,"is_reserved":false,"is_disabled":false,"rental_uris":{"android":"levelo://app?vid=f5c0e4d6-16bd-47eb-ba92-aa201d0984ce","ios":"levelo://app?vid=f5c0e4d6-16bd-47eb-ba92-aa201d0984ce"},"vehicle_type_id":"4","last_reported":1703610362,"current_range_meters":28800,"station_id":"ce4bhs12rcd13ifvqhvg","pricing_plan_id":"free"},{"bike_id":"e101af2c-c501-4e28-8d72-12ad3a8d21a2","system_id":"levelo_inurba_marseille","lat":43.324771,"lon":5.36557,"is_reserved":false,"is_disabled":false,"rental_uris":{"android":"levelo://app?vid=e101af2c-c501-4e28-8d72-12ad3a8d21a2","ios":"levelo://app?vid=e101af2c-c501-4e28-8d72-12ad3a8d21a2"},"vehicle_type_id":"4","last_reported":1703610362,"current_range_meters":22800,"station_id":"ce4bhs12rcd13ifvqhvg","pricing_plan_id":"free"},{"bike_id":"dc885e1b-7bbd-41be-bbd5-ce0fb070891a","system_id":"levelo_inurba_marseille","lat":43.324771,"lon":5.36557,"is_reserved":false,"is_disabled":false,"rental_uris":{"android":"levelo://app?vid=dc885e1b-7bbd-41be-bbd5-ce0fb070891a","ios":"levelo://app?vid=dc885e1b-7bbd-41be-bbd5-ce0fb070891a"},"vehicle_type_id":"4","last_reported":1703610362,"current_range_meters":29600,"station_id":"ce4bhs12rcd13ifvqhvg","pricing_plan_id":"free"},{"bike_id":"0c59f0d3-677a-4ae0-8087-6c8dbf26e257","system_id":"levelo_inurba_marseille","lat":43.302784,"lon":5.377158,"is_reserved":false,"is_disabled":false,"rental_uris":{"android":"levelo://app?vid=0c59f0d3-677a-4ae0-8087-6c8dbf26e257","ios":"levelo://app?vid=0c59f0d3-677a-4ae0-8087-6c8dbf26e257"},"vehicle_type_id":"4","last_reported":1703610362,"current_range_meters":2000,"station_id":"ce4bguh2rcd13ifvqcj0","pricing_plan_id":"free"},{"bike_id":"dce5a95d-3708-473f-b69d-a5b6db17ba84","system_id":"levelo_inurba_marseille","lat":43.309047,"lon":5.396551,"is_reserved":false,"is_disabled":false,"rental_uris":{"android":"levelo://app?vid=dce5a95d-3708-473f-b69d-a5b6db17ba84","ios":"levelo://app?vid=dce5a95d-3708-473f-b69d-a5b6db17ba84"},"vehicle_type_id":"4","last_reported":1703610362,"current_range_meters":8000,"station_id":"ce4bh012rcd13ifvqcv0","pricing_plan_id":"free"},{"bike_id":"a75b9f04-2012-47a2-984c-22cefc29cb79","system_id":"levelo_inurba_marseille","lat":43.302784,"lon":5.377158,"is_reserved":false,"is_disabled":false,"rental_uris":{"android":"levelo://app?vid=a75b9f04-2012-47a2-984c-22cefc29cb79","ios":"levelo://app?vid=a75b9f04-2012-47a2-984c-22cefc29cb79"},"vehicle_type_id":"4","last_reported":1703610362,"current_range_meters":6800,"station_id":"ce4bguh2rcd13ifvqcj0","pricing_plan_id":"free"},{"bike_id":"9fd0f1fb-194c-4d6c-a7e1-13975396e81c","system_id":"levelo_inurba_marseille","lat":43.301453,"lon":5.37416,"is_reserved":false,"is_disabled":false,"rental_uris":{"android":"levelo://app?vid=9fd0f1fb-194c-4d6c-a7e1-13975396e81c","ios":"levelo://app?vid=9fd0f1fb-194c-4d6c-a7e1-13975396e81c"},"vehicle_type_id":"4","last_reported":1703610362,"current_range_meters":12800,"station_id":"","pricing_plan_id":"free"},{"bike_id":"70b0ad2a-6533-4324-9176-53aa3f1f6a7a","system_id":"levelo_inurba_marseille","lat":43.32,"lon":5.3814,"is_reserved":false,"is_disabled":false,"rental_uris":{"android":"levelo://app?vid=70b0ad2a-6533-4324-9176-53aa3f1f6a7a","ios":"levelo://app?vid=70b0ad2a-6533-4324-9176-53aa3f1f6a7a"},"vehicle_type_id":"4","last_reported":1703610362,"current_range_meters":2400,"station_id":"ce4bhr12rcd13ifvqhpg","pricing_plan_id":"free"},{"bike_id":"5c521df4-606b-455d-8167-e197a1f393bb","system_id":"levelo_inurba_marseille","lat":43.301087,"lon":5.374213,"is_reserved":false,"is_disabled":false,"rental_uris":{"android":"levelo://app?vid=5c521df4-606b-455d-8167-e197a1f393bb","ios":"levelo://app?vid=5c521df4-606b-455d-8167-e197a1f393bb"},"vehicle_type_id":"4","last_reported":1703610362,"current_range_meters":6800,"station_id":"ce4bgs92rcd13ifvqcc0","pricing_plan_id":"free"},{"bike_id":"d50a7df1-7e74-446f-b9f4-2754cff05bd9","system_id":"levelo_inurba_marseille","lat":43.319935,"lon":5.381699,"is_reserved":false,"is_disabled":false,"rental_uris":{"android":"levelo://app?vid=d50a7df1-7e74-446f-b9f4-2754cff05bd9","ios":"levelo://app?vid=d50a7df1-7e74-446f-b9f4-2754cff05bd9"},"vehicle_type_id":"4","last_reported":1703610362,"current_range_meters":9600,"station_id":"ce4bhr12rcd13ifvqhpg","pricing_plan_id":"free"},{"bike_id":"8aba050a-8811-4086-b8e8-4572cc6fcac0","system_id":"levelo_inurba_marseille","lat":43.319935,"lon":5.381699,"is_reserved":false,"is_disabled":false,"rental_uris":{"android":"levelo://app?vid=8aba050a-8811-4086-b8e8-4572cc6fcac0","ios":"levelo://app?vid=8aba050a-8811-4086-b8e8-4572cc6fcac0"},"vehicle_type_id":"4","last_reported":1703610362,"current_range_meters":22000,"station_id":"ce4bhr12rcd13ifvqhpg","pricing_plan_id":"free"},{"bike_id":"0eabe9de-edcc-4a33-b050-8eace971d019","system_id":"levelo_inurba_marseille","lat":43.313571,"lon":5.384829,"is_reserved":false,"is_disabled":false,"rental_uris":{"android":"levelo://app?vid=0eabe9de-edcc-4a33-b050-8eace971d019","ios":"levelo://app?vid=0eabe9de-edcc-4a33-b050-8eace971d019"},"vehicle_type_id":"4","last_reported":1703610362,"current_range_meters":30000,"station_id":"ce4bgt92rcd13ifvqcf0","pricing_plan_id":"free"},{"bike_id":"00224e63-2bd6-485a-8c12-dcec3d8f9c19","system_id":"levelo_inurba_marseille","lat":43.313571,"lon":5.384829,"is_reserved":false,"is_disabled":false,"rental_uris":{"android":"levelo://app?vid=00224e63-2bd6-485a-8c12-dcec3d8f9c19","ios":"levelo://app?vid=00224e63-2bd6-485a-8c12-dcec3d8f9c19"},"vehicle_type_id":"4","last_reported":1703610362,"current_range_meters":27200,"station_id":"ce4bgt92rcd13ifvqcf0","pricing_plan_id":"free"},{"bike_id":"c90a5cbf-09e3-4586-94d5-b0434082822b","system_id":"levelo_inurba_marseille","lat":43.299335,"lon":5.365403,"is_reserved":false,"is_disabled":false,"rental_uris":{"android":"levelo://app?vid=c90a5cbf-09e3-4586-94d5-b0434082822b","ios":"levelo://app?vid=c90a5cbf-09e3-4586-94d5-b0434082822b"},"vehicle_type_id":"4","last_reported":1703610362,"current_range_meters":21200,"station_id":"ce4bgm92rcd13ifvqbr0","pricing_plan_id":"free"},{"bike_id":"1cf95733-baeb-4982-96fb-a4413851cdf7","system_id":"levelo_inurba_marseille","lat":43.2993,"lon":5.36534,"is_reserved":false,"is_disabled":false,"rental_uris":{"android":"levelo://app?vid=1cf95733-baeb-4982-96fb-a4413851cdf7","ios":"levelo://app?vid=1cf95733-baeb-4982-96fb-a4413851cdf7"},"vehicle_type_id":"4","last_reported":1703610362,"current_range_meters":7600,"station_id":"ce4bgm92rcd13ifvqbr0","pricing_plan_id":"free"},{"bike_id":"6229263c-108d-4bd5-9b30-eff981ca1f5e","system_id":"levelo_inurba_marseille","lat":43.299282,"lon":5.365526,"is_reserved":false,"is_disabled":false,"rental_uris":{"android":"levelo://app?vid=6229263c-108d-4bd5-9b30-eff981ca1f5e","ios":"levelo://app?vid=6229263c-108d-4bd5-9b30-eff981ca1f5e"},"vehicle_type_id":"4","last_reported":1703610362,"current_range_meters":20000,"station_id":"ce4bgm92rcd13ifvqbr0","pricing_plan_id":"free"},{"bike_id":"a5172819-5ff6-4eaf-98c2-1162910b4ee0","system_id":"levelo_inurba_marseille","lat":43.305364,"lon":5.384119,"is_reserved":false,"is_disabled":false,"rental_uris":{"android":"levelo://app?vid=a5172819-5ff6-4eaf-98c2-1162910b4ee0","ios":"levelo://app?vid=a5172819-5ff6-4eaf-98c2-1162910b4ee0"},"vehicle_type_id":"4","last_reported":1703610362,"current_range_meters":28400,"station_id":"ce4bgg92rcd13ifvqb30","pricing_plan_id":"free"},{"bike_id":"92c2bae3-2746-4083-9cf5-f81d875df740","system_id":"levelo_inurba_marseille","lat":43.305364,"lon":5.384119,"is_reserved":false,"is_disabled":false,"rental_uris":{"android":"levelo://app?vid=92c2bae3-2746-4083-9cf5-f81d875df740","ios":"levelo://app?vid=92c2bae3-2746-4083-9cf5-f81d875df740"},"vehicle_type_id":"4","last_reported":1703610362,"current_range_meters":3600,"station_id":"ce4bgg92rcd13ifvqb30","pricing_plan_id":"free"},{"bike_id":"b7e64b69-9850-47e5-b937-dba600477927","system_id":"levelo_inurba_marseille","lat":43.2985,"lon":5.36289,"is_reserved":false,"is_disabled":false,"rental_uris":{"android":"levelo://app?vid=b7e64b69-9850-47e5-b937-dba600477927","ios":"levelo://app?vid=b7e64b69-9850-47e5-b937-dba600477927"},"vehicle_type_id":"4","last_reported":1703610362,"current_range_meters":31200,"station_id":"ce4bgpp2rcd13ifvqc3g","pricing_plan_id":"free"},{"bike_id":"6e33b6f2-797c-4e8c-8af1-3add54dba90a","system_id":"levelo_inurba_marseille","lat":43.298444,"lon":5.362951,"is_reserved":false,"is_disabled":false,"rental_uris":{"android":"levelo://app?vid=6e33b6f2-797c-4e8c-8af1-3add54dba90a","ios":"levelo://app?vid=6e33b6f2-797c-4e8c-8af1-3add54dba90a"},"vehicle_type_id":"4","last_reported":1703610362,"current_range_meters":19600,"station_id":"ce4bgpp2rcd13ifvqc3g","pricing_plan_id":"free"},{"bike_id":"1db135bc-4549-43e0-98ae-61e22e60a239","system_id":"levelo_inurba_marseille","lat":43.298433,"lon":5.362774,"is_reserved":false,"is_disabled":false,"rental_uris":{"android":"levelo://app?vid=1db135bc-4549-43e0-98ae-61e22e60a239","ios":"levelo://app?vid=1db135bc-4549-43e0-98ae-61e22e60a239"},"vehicle_type_id":"4","last_reported":1703610362,"current_range_meters":800,"station_id":"ce4bgpp2rcd13ifvqc3g","pricing_plan_id":"free"},{"bike_id":"2e62a883-3595-47d4-989b-8bd24dc06633","system_id":"levelo_inurba_marseille","lat":43.311722,"lon":5.387247,"is_reserved":false,"is_disabled":false,"rental_uris":{"android":"levelo://app?vid=2e62a883-3595-47d4-989b-8bd24dc06633","ios":"levelo://app?vid=2e62a883-3595-47d4-989b-8bd24dc06633"},"vehicle_type_id":"4","last_reported":1703610362,"current_range_meters":7200,"station_id":"ce4bgv12rcd13ifvqcp0","pricing_plan_id":"free"},{"bike_id":"702ba885-cbd7-4ae9-af14-d89902cde706","system_id":"levelo_inurba_marseille","lat":43.29791,"lon":5.37102,"is_reserved":false,"is_disabled":false,"rental_uris":{"android":"levelo://app?vid=702ba885-cbd7-4ae9-af14-d89902cde706","ios":"levelo://app?vid=702ba885-cbd7-4ae9-af14-d89902cde706"},"vehicle_type_id":"4","last_reported":1703610362,"current_range_meters":28000,"station_id":"ce4bgop2rcd13ifvqc1g","pricing_plan_id":"free"},{"bike_id":"81fa7433-a05e-4548-bd42-38f9aeabb88c","system_id":"levelo_inurba_marseille","lat":43.297794,"lon":5.370888,"is_reserved":false,"is_disabled":false,"rental_uris":{"android":"levelo://app?vid=81fa7433-a05e-4548-bd42-38f9aeabb88c","ios":"levelo://app?vid=81fa7433-a05e-4548-bd42-38f9aeabb88c"},"vehicle_type_id":"4","last_reported":1703610362,"current_range_meters":22800,"station_id":"ce4bgop2rcd13ifvqc1g","pricing_plan_id":"free"},{"bike_id":"deaa60e3-faa1-4618-a611-d4fd33052f5d","system_id":"levelo_inurba_marseille","lat":43.32816,"lon":5.36636,"is_reserved":false,"is_disabled":false,"rental_uris":{"android":"levelo://app?vid=deaa60e3-faa1-4618-a611-d4fd33052f5d","ios":"levelo://app?vid=deaa60e3-faa1-4618-a611-d4fd33052f5d"},"vehicle_type_id":"4","last_reported":1703610362,"current_range_meters":28800,"station_id":"","pricing_plan_id":"free"},{"bike_id":"5fed18d1-7f81-4167-a351-7c4be7bb7921","system_id":"levelo_inurba_marseille","lat":43.32822,"lon":5.36662,"is_reserved":false,"is_disabled":false,"rental_uris":{"android":"levelo://app?vid=5fed18d1-7f81-4167-a351-7c4be7bb7921","ios":"levelo://app?vid=5fed18d1-7f81-4167-a351-7c4be7bb7921"},"vehicle_type_id":"4","last_reported":1703610362,"current_range_meters":26000,"station_id":"ce4bhs92rcd13ifvqi0g","pricing_plan_id":"free"},{"bike_id":"51714c4a-3132-4951-88ec-80e85fa125e8","system_id":"levelo_inurba_marseille","lat":43.328237,"lon":5.366843,"is_reserved":false,"is_disabled":false,"rental_uris":{"android":"levelo://app?vid=51714c4a-3132-4951-88ec-80e85fa125e8","ios":"levelo://app?vid=51714c4a-3132-4951-88ec-80e85fa125e8"},"vehicle_type_id":"4","last_reported":1703610362,"current_range_meters":27600,"station_id":"ce4bhs92rcd13ifvqi0g","pricing_plan_id":"free"},{"bike_id":"acc7f1fe-f6d4-44df-8a2c-5075bd906f80","system_id":"levelo_inurba_marseille","lat":43.32826,"lon":5.36692,"is_reserved":false,"is_disabled":false,"rental_uris":{"android":"levelo://app?vid=acc7f1fe-f6d4-44df-8a2c-5075bd906f80","ios":"levelo://app?vid=acc7f1fe-f6d4-44df-8a2c-5075bd906f80"},"vehicle_type_id":"4","last_reported":1703610362,"current_range_meters":23200,"station_id":"ce4bhs92rcd13ifvqi0g","pricing_plan_id":"free"},{"bike_id":"5c89eee7-6e83-42b4-bd81-efdcf68f6666","system_id":"levelo_inurba_marseille","lat":43.32826,"lon":5.36684,"is_reserved":false,"is_disabled":false,"rental_uris":{"android":"levelo://app?vid=5c89eee7-6e83-42b4-bd81-efdcf68f6666","ios":"levelo://app?vid=5c89eee7-6e83-42b4-bd81-efdcf68f6666"},"vehicle_type_id":"4","last_reported":1703610362,"current_range_meters":28800,"station_id":"ce4bhs92rcd13ifvqi0g","pricing_plan_id":"free"},{"bike_id":"a448ca86-2b35-41e1-89c4-32a99bab0563","system_id":"levelo_inurba_marseille","lat":43.328371,"lon":5.366912,"is_reserved":false,"is_disabled":false,"rental_uris":{"android":"levelo://app?vid=a448ca86-2b35-41e1-89c4-32a99bab0563","ios":"levelo://app?vid=a448ca86-2b35-41e1-89c4-32a99bab0563"},"vehicle_type_id":"4","last_reported":1703610362,"current_range_meters":31200,"station_id":"ce4bhs92rcd13ifvqi0g","pricing_plan_id":"free"},{"bike_id":"904f83aa-e9ab-401d-84c1-9edfed82b884","system_id":"levelo_inurba_marseille","lat":43.328371,"lon":5.366909,"is_reserved":false,"is_disabled":false,"rental_uris":{"android":"levelo://app?vid=904f83aa-e9ab-401d-84c1-9edfed82b884","ios":"levelo://app?vid=904f83aa-e9ab-401d-84c1-9edfed82b884"},"vehicle_type_id":"4","last_reported":1703610362,"current_range_meters":18800,"station_id":"ce4bhs92rcd13ifvqi0g","pricing_plan_id":"free"},{"bike_id":"6f67326a-1664-406f-9978-902e013e2357","system_id":"levelo_inurba_marseille","lat":43.328371,"lon":5.366909,"is_reserved":false,"is_disabled":false,"rental_uris":{"android":"levelo://app?vid=6f67326a-1664-406f-9978-902e013e2357","ios":"levelo://app?vid=6f67326a-1664-406f-9978-902e013e2357"},"vehicle_type_id":"4","last_reported":1703610362,"current_range_meters":10400,"station_id":"ce4bhs92rcd13ifvqi0g","pricing_plan_id":"free"},{"bike_id":"de708f00-7118-4d7c-9021-d7dcbd798473","system_id":"levelo_inurba_marseille","lat":43.328371,"lon":5.366909,"is_reserved":false,"is_disabled":false,"rental_uris":{"android":"levelo://app?vid=de708f00-7118-4d7c-9021-d7dcbd798473","ios":"levelo://app?vid=de708f00-7118-4d7c-9021-d7dcbd798473"},"vehicle_type_id":"4","last_reported":1703610362,"current_range_meters":24400,"station_id":"ce4bhs92rcd13ifvqi0g","pricing_plan_id":"free"},{"bike_id":"40c2b532-aa81-4c78-b896-98260fc2f589","system_id":"levelo_inurba_marseille","lat":43.297163,"lon":5.365866,"is_reserved":false,"is_disabled":false,"rental_uris":{"android":"levelo://app?vid=40c2b532-aa81-4c78-b896-98260fc2f589","ios":"levelo://app?vid=40c2b532-aa81-4c78-b896-98260fc2f589"},"vehicle_type_id":"4","last_reported":1703610362,"current_range_meters":30800,"station_id":"ce4bgn12rcd13ifvqbt0","pricing_plan_id":"free"},{"bike_id":"7cd124e5-cd1f-48aa-b0d7-982c276a2779","system_id":"levelo_inurba_marseille","lat":43.2968,"lon":5.37291,"is_reserved":false,"is_disabled":false,"rental_uris":{"android":"levelo://app?vid=7cd124e5-cd1f-48aa-b0d7-982c276a2779","ios":"levelo://app?vid=7cd124e5-cd1f-48aa-b0d7-982c276a2779"},"vehicle_type_id":"4","last_reported":1703610362,"current_range_meters":10000,"station_id":"ce4bgk12rcd13ifvqbj0","pricing_plan_id":"free"},{"bike_id":"921b424d-ad0d-4c7a-9d74-66e3a49bfa19","system_id":"levelo_inurba_marseille","lat":43.32934,"lon":5.36612,"is_reserved":false,"is_disabled":false,"rental_uris":{"android":"levelo://app?vid=921b424d-ad0d-4c7a-9d74-66e3a49bfa19","ios":"levelo://app?vid=921b424d-ad0d-4c7a-9d74-66e3a49bfa19"},"vehicle_type_id":"4","last_reported":1703610362,"current_range_meters":20400,"station_id":"","pricing_plan_id":"free"},{"bike_id":"326f1d76-a2f8-41a2-a161-775171328d4b","system_id":"levelo_inurba_marseille","lat":43.296935,"lon":5.376544,"is_reserved":false,"is_disabled":false,"rental_uris":{"android":"levelo://app?vid=326f1d76-a2f8-41a2-a161-775171328d4b","ios":"levelo://app?vid=326f1d76-a2f8-41a2-a161-775171328d4b"},"vehicle_type_id":"4","last_reported":1703610362,"current_range_meters":14000,"station_id":"ce4bgkh2rcd13ifvqbl0","pricing_plan_id":"free"},{"bike_id":"43405f07-4445-4a35-b8ba-b7c1238cd4b6","system_id":"levelo_inurba_marseille","lat":43.296921,"lon":5.376579,"is_reserved":false,"is_disabled":false,"rental_uris":{"android":"levelo://app?vid=43405f07-4445-4a35-b8ba-b7c1238cd4b6","ios":"levelo://app?vid=43405f07-4445-4a35-b8ba-b7c1238cd4b6"},"vehicle_type_id":"4","last_reported":1703610362,"current_range_meters":21600,"station_id":"ce4bgkh2rcd13ifvqbl0","pricing_plan_id":"free"},{"bike_id":"1c7019fd-54d4-4c34-b4dc-6e41c34c6841","system_id":"levelo_inurba_marseille","lat":43.296921,"lon":5.376579,"is_reserved":false,"is_disabled":false,"rental_uris":{"android":"levelo://app?vid=1c7019fd-54d4-4c34-b4dc-6e41c34c6841","ios":"levelo://app?vid=1c7019fd-54d4-4c34-b4dc-6e41c34c6841"},"vehicle_type_id":"4","last_reported":1703610362,"current_range_meters":23600,"station_id":"ce4bgkh2rcd13ifvqbl0","pricing_plan_id":"free"},{"bike_id":"53f8da56-5f40-4385-a0cc-855f4266a43a","system_id":"levelo_inurba_marseille","lat":43.309589,"lon":5.390258,"is_reserved":false,"is_disabled":false,"rental_uris":{"android":"levelo://app?vid=53f8da56-5f40-4385-a0cc-855f4266a43a","ios":"levelo://app?vid=53f8da56-5f40-4385-a0cc-855f4266a43a"},"vehicle_type_id":"4","last_reported":1703610362,"current_range_meters":10400,"station_id":"ce4bgup2rcd13ifvqco0","pricing_plan_id":"free"},{"bike_id":"54767a07-ad31-413a-84dd-d2f8378ad899","system_id":"levelo_inurba_marseille","lat":43.299028,"lon":5.381509,"is_reserved":false,"is_disabled":false,"rental_uris":{"android":"levelo://app?vid=54767a07-ad31-413a-84dd-d2f8378ad899","ios":"levelo://app?vid=54767a07-ad31-413a-84dd-d2f8378ad899"},"vehicle_type_id":"4","last_reported":1703610362,"current_range_meters":24000,"station_id":"ce4bgj12rcd13ifvqbc0","pricing_plan_id":"free"},{"bike_id":"6a1097a2-d028-4694-8fd9-105667e31414","system_id":"levelo_inurba_marseille","lat":43.299028,"lon":5.381509,"is_reserved":false,"is_disabled":false,"rental_uris":{"android":"levelo://app?vid=6a1097a2-d028-4694-8fd9-105667e31414","ios":"levelo://app?vid=6a1097a2-d028-4694-8fd9-105667e31414"},"vehicle_type_id":"4","last_reported":1703610362,"current_range_meters":28000,"station_id":"ce4bgj12rcd13ifvqbc0","pricing_plan_id":"free"},{"bike_id":"14ab3560-2354-4f11-9358-4e47520a0c26","system_id":"levelo_inurba_marseille","lat":43.317557,"lon":5.390173,"is_reserved":false,"is_disabled":false,"rental_uris":{"android":"levelo://app?vid=14ab3560-2354-4f11-9358-4e47520a0c26","ios":"levelo://app?vid=14ab3560-2354-4f11-9358-4e47520a0c26"},"vehicle_type_id":"4","last_reported":1703610362,"current_range_meters":17600,"station_id":"ce4bhqp2rcd13ifvqhng","pricing_plan_id":"free"},{"bike_id":"702b7326-8feb-49b6-8f9f-eb8afb8f021d","system_id":"levelo_inurba_marseille","lat":43.317557,"lon":5.390173,"is_reserved":false,"is_disabled":false,"rental_uris":{"android":"levelo://app?vid=702b7326-8feb-49b6-8f9f-eb8afb8f021d","ios":"levelo://app?vid=702b7326-8feb-49b6-8f9f-eb8afb8f021d"},"vehicle_type_id":"4","last_reported":1703610362,"current_range_meters":17200,"station_id":"ce4bhqp2rcd13ifvqhng","pricing_plan_id":"free"},{"bike_id":"6630e8ed-1566-484d-9bc5-1cd9908d4453","system_id":"levelo_inurba_marseille","lat":43.317557,"lon":5.390173,"is_reserved":false,"is_disabled":false,"rental_uris":{"android":"levelo://app?vid=6630e8ed-1566-484d-9bc5-1cd9908d4453","ios":"levelo://app?vid=6630e8ed-1566-484d-9bc5-1cd9908d4453"},"vehicle_type_id":"4","last_reported":1703610362,"current_range_meters":31200,"station_id":"ce4bhqp2rcd13ifvqhng","pricing_plan_id":"free"},{"bike_id":"367ad9c8-571a-4b93-8f76-e1516ec3225d","system_id":"levelo_inurba_marseille","lat":43.317557,"lon":5.390173,"is_reserved":false,"is_disabled":false,"rental_uris":{"android":"levelo://app?vid=367ad9c8-571a-4b93-8f76-e1516ec3225d","ios":"levelo://app?vid=367ad9c8-571a-4b93-8f76-e1516ec3225d"},"vehicle_type_id":"4","last_reported":1703610362,"current_range_meters":18800,"station_id":"ce4bhqp2rcd13ifvqhng","pricing_plan_id":"free"},{"bike_id":"11a450a5-1df3-45ed-90fc-ffc21ef858f6","system_id":"levelo_inurba_marseille","lat":43.30394,"lon":5.38808,"is_reserved":false,"is_disabled":false,"rental_uris":{"android":"levelo://app?vid=11a450a5-1df3-45ed-90fc-ffc21ef858f6","ios":"levelo://app?vid=11a450a5-1df3-45ed-90fc-ffc21ef858f6"},"vehicle_type_id":"4","last_reported":1703610362,"current_range_meters":20800,"station_id":"","pricing_plan_id":"free"},{"bike_id":"b83c8fd4-a17a-4b11-9bb1-c71fbbfa6596","system_id":"levelo_inurba_marseille","lat":43.295906,"lon":5.374716,"is_reserved":false,"is_disabled":false,"rental_uris":{"android":"levelo://app?vid=b83c8fd4-a17a-4b11-9bb1-c71fbbfa6596","ios":"levelo://app?vid=b83c8fd4-a17a-4b11-9bb1-c71fbbfa6596"},"vehicle_type_id":"4","last_reported":1703610362,"current_range_meters":22800,"station_id":"","pricing_plan_id":"free"},{"bike_id":"26ba0bf8-bcdc-4522-9c8f-850e7bc2de96","system_id":"levelo_inurba_marseille","lat":43.295802,"lon":5.374756,"is_reserved":false,"is_disabled":false,"rental_uris":{"android":"levelo://app?vid=26ba0bf8-bcdc-4522-9c8f-850e7bc2de96","ios":"levelo://app?vid=26ba0bf8-bcdc-4522-9c8f-850e7bc2de96"},"vehicle_type_id":"4","last_reported":1703610362,"current_range_meters":21200,"station_id":"ce4bgi92rcd13ifvqb90","pricing_plan_id":"free"},{"bike_id":"128bb316-3020-4511-b440-62e5da882f23","system_id":"levelo_inurba_marseille","lat":43.298037,"lon":5.381066,"is_reserved":false,"is_disabled":false,"rental_uris":{"android":"levelo://app?vid=128bb316-3020-4511-b440-62e5da882f23","ios":"levelo://app?vid=128bb316-3020-4511-b440-62e5da882f23"},"vehicle_type_id":"4","last_reported":1703610362,"current_range_meters":19600,"station_id":"ce4bgip2rcd13ifvqbb0","pricing_plan_id":"free"},{"bike_id":"2cb4ca36-b7b6-49fe-bf4d-be86a4a54ec6","system_id":"levelo_inurba_marseille","lat":43.295279,"lon":5.375048,"is_reserved":false,"is_disabled":false,"rental_uris":{"android":"levelo://app?vid=2cb4ca36-b7b6-49fe-bf4d-be86a4a54ec6","ios":"levelo://app?vid=2cb4ca36-b7b6-49fe-bf4d-be86a4a54ec6"},"vehicle_type_id":"4","last_reported":1703610362,"current_range_meters":29600,"station_id":"ce4bgkp2rcd13ifvqbmg","pricing_plan_id":"free"},{"bike_id":"b3157eab-2aa0-4cac-8ab6-1955bab11b1e","system_id":"levelo_inurba_marseille","lat":43.32367,"lon":5.388836,"is_reserved":false,"is_disabled":false,"rental_uris":{"android":"levelo://app?vid=b3157eab-2aa0-4cac-8ab6-1955bab11b1e","ios":"levelo://app?vid=b3157eab-2aa0-4cac-8ab6-1955bab11b1e"},"vehicle_type_id":"4","last_reported":1703610362,"current_range_meters":0,"station_id":"ce4bhqp2rcd13ifvqhog","pricing_plan_id":"free"},{"bike_id":"0aeff03b-c088-4633-a9b9-ca0ac8a59c2c","system_id":"levelo_inurba_marseille","lat":43.32367,"lon":5.388836,"is_reserved":false,"is_disabled":false,"rental_uris":{"android":"levelo://app?vid=0aeff03b-c088-4633-a9b9-ca0ac8a59c2c","ios":"levelo://app?vid=0aeff03b-c088-4633-a9b9-ca0ac8a59c2c"},"vehicle_type_id":"4","last_reported":1703610362,"current_range_meters":5200,"station_id":"ce4bhqp2rcd13ifvqhog","pricing_plan_id":"free"},{"bike_id":"37b269ae-c476-4307-b23c-e4cc306f95be","system_id":"levelo_inurba_marseille","lat":43.323665,"lon":5.388852,"is_reserved":false,"is_disabled":false,"rental_uris":{"android":"levelo://app?vid=37b269ae-c476-4307-b23c-e4cc306f95be","ios":"levelo://app?vid=37b269ae-c476-4307-b23c-e4cc306f95be"},"vehicle_type_id":"4","last_reported":1703610362,"current_range_meters":22800,"station_id":"ce4bhqp2rcd13ifvqhog","pricing_plan_id":"free"},{"bike_id":"6229a11e-67ff-4128-994f-a106996e1234","system_id":"levelo_inurba_marseille","lat":43.32367,"lon":5.388836,"is_reserved":false,"is_disabled":false,"rental_uris":{"android":"levelo://app?vid=6229a11e-67ff-4128-994f-a106996e1234","ios":"levelo://app?vid=6229a11e-67ff-4128-994f-a106996e1234"},"vehicle_type_id":"4","last_reported":1703610362,"current_range_meters":14800,"station_id":"ce4bhqp2rcd13ifvqhog","pricing_plan_id":"free"},{"bike_id":"147b8e8a-15a9-4600-a6e6-936004ecdda7","system_id":"levelo_inurba_marseille","lat":43.292749,"lon":5.368402,"is_reserved":false,"is_disabled":false,"rental_uris":{"android":"levelo://app?vid=147b8e8a-15a9-4600-a6e6-936004ecdda7","ios":"levelo://app?vid=147b8e8a-15a9-4600-a6e6-936004ecdda7"},"vehicle_type_id":"4","last_reported":1703610362,"current_range_meters":2400,"station_id":"ce4bhbp2rcd13ifvqesg","pricing_plan_id":"free"},{"bike_id":"bad63b56-53cc-4291-aab7-feb910af0055","system_id":"levelo_inurba_marseille","lat":43.293249,"lon":5.371578,"is_reserved":false,"is_disabled":false,"rental_uris":{"android":"levelo://app?vid=bad63b56-53cc-4291-aab7-feb910af0055","ios":"levelo://app?vid=bad63b56-53cc-4291-aab7-feb910af0055"},"vehicle_type_id":"4","last_reported":1703610362,"current_range_meters":20000,"station_id":"ce4bgh92rcd13ifvqb40","pricing_plan_id":"free"},{"bike_id":"d23ab6ac-30a7-45b0-b962-19b185286346","system_id":"levelo_inurba_marseille","lat":43.292749,"lon":5.368402,"is_reserved":false,"is_disabled":false,"rental_uris":{"android":"levelo://app?vid=d23ab6ac-30a7-45b0-b962-19b185286346","ios":"levelo://app?vid=d23ab6ac-30a7-45b0-b962-19b185286346"},"vehicle_type_id":"4","last_reported":1703610362,"current_range_meters":30800,"station_id":"ce4bhbp2rcd13ifvqesg","pricing_plan_id":"free"},{"bike_id":"3ef581e0-879b-4839-9f13-e9e1e31c7f97","system_id":"levelo_inurba_marseille","lat":43.293009,"lon":5.374584,"is_reserved":false,"is_disabled":false,"rental_uris":{"android":"levelo://app?vid=3ef581e0-879b-4839-9f13-e9e1e31c7f97","ios":"levelo://app?vid=3ef581e0-879b-4839-9f13-e9e1e31c7f97"},"vehicle_type_id":"4","last_reported":1703610362,"current_range_meters":22400,"station_id":"ce4bgi12rcd13ifvqb70","pricing_plan_id":"free"},{"bike_id":"7df75a14-e796-4ec5-b426-fdf6d00906f4","system_id":"levelo_inurba_marseille","lat":43.293009,"lon":5.374584,"is_reserved":false,"is_disabled":false,"rental_uris":{"android":"levelo://app?vid=7df75a14-e796-4ec5-b426-fdf6d00906f4","ios":"levelo://app?vid=7df75a14-e796-4ec5-b426-fdf6d00906f4"},"vehicle_type_id":"4","last_reported":1703610362,"current_range_meters":16800,"station_id":"ce4bgi12rcd13ifvqb70","pricing_plan_id":"free"},{"bike_id":"a6c478e6-554c-4570-a53b-a57aeca6c785","system_id":"levelo_inurba_marseille","lat":43.292311,"lon":5.360731,"is_reserved":false,"is_disabled":false,"rental_uris":{"android":"levelo://app?vid=a6c478e6-554c-4570-a53b-a57aeca6c785","ios":"levelo://app?vid=a6c478e6-554c-4570-a53b-a57aeca6c785"},"vehicle_type_id":"4","last_reported":1703610362,"current_range_meters":18800,"station_id":"ce4bhbh2rcd13ifvqeqg","pricing_plan_id":"free"},{"bike_id":"389b2b5c-75e4-4f8b-8209-de11f9f8e70e","system_id":"levelo_inurba_marseille","lat":43.292311,"lon":5.360731,"is_reserved":false,"is_disabled":false,"rental_uris":{"android":"levelo://app?vid=389b2b5c-75e4-4f8b-8209-de11f9f8e70e","ios":"levelo://app?vid=389b2b5c-75e4-4f8b-8209-de11f9f8e70e"},"vehicle_type_id":"4","last_reported":1703610362,"current_range_meters":25600,"station_id":"ce4bhbh2rcd13ifvqeqg","pricing_plan_id":"free"},{"bike_id":"adcf9d60-7ace-476e-a407-0a8ade18cb37","system_id":"levelo_inurba_marseille","lat":43.292311,"lon":5.360731,"is_reserved":false,"is_disabled":false,"rental_uris":{"android":"levelo://app?vid=adcf9d60-7ace-476e-a407-0a8ade18cb37","ios":"levelo://app?vid=adcf9d60-7ace-476e-a407-0a8ade18cb37"},"vehicle_type_id":"4","last_reported":1703610362,"current_range_meters":30000,"station_id":"ce4bhbh2rcd13ifvqeqg","pricing_plan_id":"free"},{"bike_id":"5988ce9f-473a-4bf4-87d6-88005766eb18","system_id":"levelo_inurba_marseille","lat":43.291675,"lon":5.371583,"is_reserved":false,"is_disabled":false,"rental_uris":{"android":"levelo://app?vid=5988ce9f-473a-4bf4-87d6-88005766eb18","ios":"levelo://app?vid=5988ce9f-473a-4bf4-87d6-88005766eb18"},"vehicle_type_id":"4","last_reported":1703610362,"current_range_meters":13200,"station_id":"ce4bha92rcd13ifvqeh0","pricing_plan_id":"free"},{"bike_id":"1bb7557e-eac8-4579-af6c-b9683358fea4","system_id":"levelo_inurba_marseille","lat":43.29876,"lon":5.38903,"is_reserved":false,"is_disabled":false,"rental_uris":{"android":"levelo://app?vid=1bb7557e-eac8-4579-af6c-b9683358fea4","ios":"levelo://app?vid=1bb7557e-eac8-4579-af6c-b9683358fea4"},"vehicle_type_id":"4","last_reported":1703610362,"current_range_meters":24000,"station_id":"","pricing_plan_id":"free"},{"bike_id":"3bb8d376-dbd2-41c8-81d7-29c11ff68e70","system_id":"levelo_inurba_marseille","lat":43.298724,"lon":5.388993,"is_reserved":false,"is_disabled":false,"rental_uris":{"android":"levelo://app?vid=3bb8d376-dbd2-41c8-81d7-29c11ff68e70","ios":"levelo://app?vid=3bb8d376-dbd2-41c8-81d7-29c11ff68e70"},"vehicle_type_id":"4","last_reported":1703610362,"current_range_meters":20400,"station_id":"","pricing_plan_id":"free"},{"bike_id":"00adc04f-d541-4aac-9c27-7e0bf1935a73","system_id":"levelo_inurba_marseille","lat":43.29853,"lon":5.38887,"is_reserved":false,"is_disabled":false,"rental_uris":{"android":"levelo://app?vid=00adc04f-d541-4aac-9c27-7e0bf1935a73","ios":"levelo://app?vid=00adc04f-d541-4aac-9c27-7e0bf1935a73"},"vehicle_type_id":"4","last_reported":1703610362,"current_range_meters":15200,"station_id":"","pricing_plan_id":"free"},{"bike_id":"c72eb268-34a3-442d-a857-7a01ceb3d460","system_id":"levelo_inurba_marseille","lat":43.291671,"lon":5.371575,"is_reserved":false,"is_disabled":false,"rental_uris":{"android":"levelo://app?vid=c72eb268-34a3-442d-a857-7a01ceb3d460","ios":"levelo://app?vid=c72eb268-34a3-442d-a857-7a01ceb3d460"},"vehicle_type_id":"4","last_reported":1703610362,"current_range_meters":31200,"station_id":"ce4bha92rcd13ifvqeh0","pricing_plan_id":"free"},{"bike_id":"f8ad87fb-faf9-4310-8434-bc415fdf4816","system_id":"levelo_inurba_marseille","lat":43.29867,"lon":5.38909,"is_reserved":false,"is_disabled":false,"rental_uris":{"android":"levelo://app?vid=f8ad87fb-faf9-4310-8434-bc415fdf4816","ios":"levelo://app?vid=f8ad87fb-faf9-4310-8434-bc415fdf4816"},"vehicle_type_id":"4","last_reported":1703610362,"current_range_meters":22000,"station_id":"","pricing_plan_id":"free"},{"bike_id":"83da56ef-c98e-4a29-9845-cefd5b085f83","system_id":"levelo_inurba_marseille","lat":43.309038,"lon":5.396546,"is_reserved":false,"is_disabled":false,"rental_uris":{"android":"levelo://app?vid=83da56ef-c98e-4a29-9845-cefd5b085f83","ios":"levelo://app?vid=83da56ef-c98e-4a29-9845-cefd5b085f83"},"vehicle_type_id":"4","last_reported":1703610362,"current_range_meters":30800,"station_id":"ce4bh012rcd13ifvqcv0","pricing_plan_id":"free"},{"bike_id":"bc47746d-0234-4d39-878c-fbd9b9786e82","system_id":"levelo_inurba_marseille","lat":43.313291,"lon":5.396838,"is_reserved":false,"is_disabled":false,"rental_uris":{"android":"levelo://app?vid=bc47746d-0234-4d39-878c-fbd9b9786e82","ios":"levelo://app?vid=bc47746d-0234-4d39-878c-fbd9b9786e82"},"vehicle_type_id":"4","last_reported":1703610362,"current_range_meters":29600,"station_id":"ce4bgvp2rcd13ifvqcu0","pricing_plan_id":"free"},{"bike_id":"29a58c02-eb56-4eaf-af75-dcfdce352cd0","system_id":"levelo_inurba_marseille","lat":43.291994,"lon":5.357886,"is_reserved":false,"is_disabled":false,"rental_uris":{"android":"levelo://app?vid=29a58c02-eb56-4eaf-af75-dcfdce352cd0","ios":"levelo://app?vid=29a58c02-eb56-4eaf-af75-dcfdce352cd0"},"vehicle_type_id":"4","last_reported":1703610362,"current_range_meters":12000,"station_id":"ce4bhb12rcd13ifvqel0","pricing_plan_id":"free"},{"bike_id":"94113dfe-1841-4eb4-a206-dfb275cb371b","system_id":"levelo_inurba_marseille","lat":43.309047,"lon":5.396551,"is_reserved":false,"is_disabled":false,"rental_uris":{"android":"levelo://app?vid=94113dfe-1841-4eb4-a206-dfb275cb371b","ios":"levelo://app?vid=94113dfe-1841-4eb4-a206-dfb275cb371b"},"vehicle_type_id":"4","last_reported":1703610362,"current_range_meters":26800,"station_id":"ce4bh012rcd13ifvqcv0","pricing_plan_id":"free"},{"bike_id":"32e6c3f6-bd36-487e-aba2-da0886bfd5d0","system_id":"levelo_inurba_marseille","lat":43.309038,"lon":5.396546,"is_reserved":false,"is_disabled":false,"rental_uris":{"android":"levelo://app?vid=32e6c3f6-bd36-487e-aba2-da0886bfd5d0","ios":"levelo://app?vid=32e6c3f6-bd36-487e-aba2-da0886bfd5d0"},"vehicle_type_id":"4","last_reported":1703610362,"current_range_meters":10000,"station_id":"ce4bh012rcd13ifvqcv0","pricing_plan_id":"free"},{"bike_id":"a899b957-f31d-418b-8379-94ce35e00c0e","system_id":"levelo_inurba_marseille","lat":43.290631,"lon":5.359244,"is_reserved":false,"is_disabled":false,"rental_uris":{"android":"levelo://app?vid=a899b957-f31d-418b-8379-94ce35e00c0e","ios":"levelo://app?vid=a899b957-f31d-418b-8379-94ce35e00c0e"},"vehicle_type_id":"4","last_reported":1703610362,"current_range_meters":24800,"station_id":"ce4bha92rcd13ifvqeg0","pricing_plan_id":"free"},{"bike_id":"77c641a6-c20a-41e2-8868-e071203ff6ac","system_id":"levelo_inurba_marseille","lat":43.294153,"lon":5.386305,"is_reserved":false,"is_disabled":false,"rental_uris":{"android":"levelo://app?vid=77c641a6-c20a-41e2-8868-e071203ff6ac","ios":"levelo://app?vid=77c641a6-c20a-41e2-8868-e071203ff6ac"},"vehicle_type_id":"4","last_reported":1703610362,"current_range_meters":3200,"station_id":"ce4bh2h2rcd13ifvqdh0","pricing_plan_id":"free"},{"bike_id":"04a29f43-a762-4724-9b3b-a55c832cbf9e","system_id":"levelo_inurba_marseille","lat":43.289184,"lon":5.366408,"is_reserved":false,"is_disabled":false,"rental_uris":{"android":"levelo://app?vid=04a29f43-a762-4724-9b3b-a55c832cbf9e","ios":"levelo://app?vid=04a29f43-a762-4724-9b3b-a55c832cbf9e"},"vehicle_type_id":"4","last_reported":1703610362,"current_range_meters":24400,"station_id":"ce4bhap2rcd13ifvqek0","pricing_plan_id":"free"},{"bike_id":"8fc6dc51-1558-4258-8a5f-ce0063fbbaa3","system_id":"levelo_inurba_marseille","lat":43.289468,"lon":5.363719,"is_reserved":false,"is_disabled":false,"rental_uris":{"android":"levelo://app?vid=8fc6dc51-1558-4258-8a5f-ce0063fbbaa3","ios":"levelo://app?vid=8fc6dc51-1558-4258-8a5f-ce0063fbbaa3"},"vehicle_type_id":"4","last_reported":1703610362,"current_range_meters":20800,"station_id":"ce4bhc92rcd13ifvqetg","pricing_plan_id":"free"},{"bike_id":"757f3edb-e0fb-4ef1-8b5b-0739c77741e4","system_id":"levelo_inurba_marseille","lat":43.289184,"lon":5.366408,"is_reserved":false,"is_disabled":false,"rental_uris":{"android":"levelo://app?vid=757f3edb-e0fb-4ef1-8b5b-0739c77741e4","ios":"levelo://app?vid=757f3edb-e0fb-4ef1-8b5b-0739c77741e4"},"vehicle_type_id":"4","last_reported":1703610362,"current_range_meters":22800,"station_id":"ce4bhap2rcd13ifvqek0","pricing_plan_id":"free"},{"bike_id":"7889cc8f-0c30-4ca5-98e4-6085d0c91b9b","system_id":"levelo_inurba_marseille","lat":43.289184,"lon":5.366408,"is_reserved":false,"is_disabled":false,"rental_uris":{"android":"levelo://app?vid=7889cc8f-0c30-4ca5-98e4-6085d0c91b9b","ios":"levelo://app?vid=7889cc8f-0c30-4ca5-98e4-6085d0c91b9b"},"vehicle_type_id":"4","last_reported":1703610362,"current_range_meters":18800,"station_id":"ce4bhap2rcd13ifvqek0","pricing_plan_id":"free"},{"bike_id":"23b940c8-fb65-4e9d-9732-5f681e0dc944","system_id":"levelo_inurba_marseille","lat":43.292642,"lon":5.384254,"is_reserved":false,"is_disabled":false,"rental_uris":{"android":"levelo://app?vid=23b940c8-fb65-4e9d-9732-5f681e0dc944","ios":"levelo://app?vid=23b940c8-fb65-4e9d-9732-5f681e0dc944"},"vehicle_type_id":"4","last_reported":1703610362,"current_range_meters":8400,"station_id":"ce4bh692rcd13ifvqea0","pricing_plan_id":"free"},{"bike_id":"118daea5-c594-472b-8a67-18768d7d2478","system_id":"levelo_inurba_marseille","lat":43.292644,"lon":5.384257,"is_reserved":false,"is_disabled":false,"rental_uris":{"android":"levelo://app?vid=118daea5-c594-472b-8a67-18768d7d2478","ios":"levelo://app?vid=118daea5-c594-472b-8a67-18768d7d2478"},"vehicle_type_id":"4","last_reported":1703610362,"current_range_meters":30800,"station_id":"ce4bh692rcd13ifvqea0","pricing_plan_id":"free"},{"bike_id":"57660043-219f-4217-b852-ff00ae8d8b8a","system_id":"levelo_inurba_marseille","lat":43.304296,"lon":5.397513,"is_reserved":false,"is_disabled":false,"rental_uris":{"android":"levelo://app?vid=57660043-219f-4217-b852-ff00ae8d8b8a","ios":"levelo://app?vid=57660043-219f-4217-b852-ff00ae8d8b8a"},"vehicle_type_id":"4","last_reported":1703610362,"current_range_meters":24400,"station_id":"ce4bh092rcd13ifvqd20","pricing_plan_id":"free"},{"bike_id":"1c1d5994-15a9-40c3-bf46-3a1e1b6dcb49","system_id":"levelo_inurba_marseille","lat":43.290103,"lon":5.356114,"is_reserved":false,"is_disabled":false,"rental_uris":{"android":"levelo://app?vid=1c1d5994-15a9-40c3-bf46-3a1e1b6dcb49","ios":"levelo://app?vid=1c1d5994-15a9-40c3-bf46-3a1e1b6dcb49"},"vehicle_type_id":"4","last_reported":1703610362,"current_range_meters":14800,"station_id":"ce4bhb92rcd13ifvqen0","pricing_plan_id":"free"},{"bike_id":"e71befb7-aaae-402c-8663-c30ebfab9143","system_id":"levelo_inurba_marseille","lat":43.290104,"lon":5.356111,"is_reserved":false,"is_disabled":false,"rental_uris":{"android":"levelo://app?vid=e71befb7-aaae-402c-8663-c30ebfab9143","ios":"levelo://app?vid=e71befb7-aaae-402c-8663-c30ebfab9143"},"vehicle_type_id":"4","last_reported":1703610362,"current_range_meters":22000,"station_id":"ce4bhb92rcd13ifvqen0","pricing_plan_id":"free"},{"bike_id":"7dcaac89-8bff-44d9-9299-d4eec32b2f06","system_id":"levelo_inurba_marseille","lat":43.295169,"lon":5.390426,"is_reserved":false,"is_disabled":false,"rental_uris":{"android":"levelo://app?vid=7dcaac89-8bff-44d9-9299-d4eec32b2f06","ios":"levelo://app?vid=7dcaac89-8bff-44d9-9299-d4eec32b2f06"},"vehicle_type_id":"4","last_reported":1703610362,"current_range_meters":16000,"station_id":"ce4bh3p2rcd13ifvqdp0","pricing_plan_id":"free"},{"bike_id":"362e2f30-af6b-4221-90c8-d18da00c60f3","system_id":"levelo_inurba_marseille","lat":43.33023,"lon":5.39036,"is_reserved":false,"is_disabled":false,"rental_uris":{"android":"levelo://app?vid=362e2f30-af6b-4221-90c8-d18da00c60f3","ios":"levelo://app?vid=362e2f30-af6b-4221-90c8-d18da00c60f3"},"vehicle_type_id":"4","last_reported":1703610362,"current_range_meters":19200,"station_id":"","pricing_plan_id":"free"},{"bike_id":"f3c63c7b-09e2-4734-8986-14ad4d133994","system_id":"levelo_inurba_marseille","lat":43.33024,"lon":5.390383,"is_reserved":false,"is_disabled":false,"rental_uris":{"android":"levelo://app?vid=f3c63c7b-09e2-4734-8986-14ad4d133994","ios":"levelo://app?vid=f3c63c7b-09e2-4734-8986-14ad4d133994"},"vehicle_type_id":"4","last_reported":1703610362,"current_range_meters":10800,"station_id":"","pricing_plan_id":"free"},{"bike_id":"18ec1453-63e5-4b22-a54e-20e51e1a0d8d","system_id":"levelo_inurba_marseille","lat":43.330442,"lon":5.389148,"is_reserved":false,"is_disabled":false,"rental_uris":{"android":"levelo://app?vid=18ec1453-63e5-4b22-a54e-20e51e1a0d8d","ios":"levelo://app?vid=18ec1453-63e5-4b22-a54e-20e51e1a0d8d"},"vehicle_type_id":"4","last_reported":1703610362,"current_range_meters":19600,"station_id":"ce4bhr92rcd13ifvqhrg","pricing_plan_id":"free"},{"bike_id":"01eec893-cb22-47ea-ba6f-18aee64380c7","system_id":"levelo_inurba_marseille","lat":43.33026,"lon":5.39095,"is_reserved":false,"is_disabled":false,"rental_uris":{"android":"levelo://app?vid=01eec893-cb22-47ea-ba6f-18aee64380c7","ios":"levelo://app?vid=01eec893-cb22-47ea-ba6f-18aee64380c7"},"vehicle_type_id":"4","last_reported":1703610362,"current_range_meters":9600,"station_id":"","pricing_plan_id":"free"},{"bike_id":"7a543b19-90cd-4a87-b80d-37f423d89307","system_id":"levelo_inurba_marseille","lat":43.330418,"lon":5.3913,"is_reserved":false,"is_disabled":false,"rental_uris":{"android":"levelo://app?vid=7a543b19-90cd-4a87-b80d-37f423d89307","ios":"levelo://app?vid=7a543b19-90cd-4a87-b80d-37f423d89307"},"vehicle_type_id":"4","last_reported":1703610362,"current_range_meters":8000,"station_id":"","pricing_plan_id":"free"},{"bike_id":"690eccad-9069-43a9-a974-0f635be67caa","system_id":"levelo_inurba_marseille","lat":43.309371,"lon":5.401449,"is_reserved":false,"is_disabled":false,"rental_uris":{"android":"levelo://app?vid=690eccad-9069-43a9-a974-0f635be67caa","ios":"levelo://app?vid=690eccad-9069-43a9-a974-0f635be67caa"},"vehicle_type_id":"4","last_reported":1703610362,"current_range_meters":25600,"station_id":"ce4bgvp2rcd13ifvqct0","pricing_plan_id":"free"},{"bike_id":"088eacfa-022a-45c3-be1f-39a115813f60","system_id":"levelo_inurba_marseille","lat":43.306412,"lon":5.401035,"is_reserved":false,"is_disabled":false,"rental_uris":{"android":"levelo://app?vid=088eacfa-022a-45c3-be1f-39a115813f60","ios":"levelo://app?vid=088eacfa-022a-45c3-be1f-39a115813f60"},"vehicle_type_id":"4","last_reported":1703610362,"current_range_meters":23200,"station_id":"ce4bh112rcd13ifvqda0","pricing_plan_id":"free"},{"bike_id":"0ebaa983-400d-456b-a940-4c868baa118c","system_id":"levelo_inurba_marseille","lat":43.306412,"lon":5.401035,"is_reserved":false,"is_disabled":false,"rental_uris":{"android":"levelo://app?vid=0ebaa983-400d-456b-a940-4c868baa118c","ios":"levelo://app?vid=0ebaa983-400d-456b-a940-4c868baa118c"},"vehicle_type_id":"4","last_reported":1703610362,"current_range_meters":19200,"station_id":"ce4bh112rcd13ifvqda0","pricing_plan_id":"free"},{"bike_id":"70287e38-69e6-4505-be80-98ffdf42dbee","system_id":"levelo_inurba_marseille","lat":43.299028,"lon":5.381509,"is_reserved":false,"is_disabled":false,"rental_uris":{"android":"levelo://app?vid=70287e38-69e6-4505-be80-98ffdf42dbee","ios":"levelo://app?vid=70287e38-69e6-4505-be80-98ffdf42dbee"},"vehicle_type_id":"4","last_reported":1703610362,"current_range_meters":27200,"station_id":"ce4bgj12rcd13ifvqbc0","pricing_plan_id":"free"},{"bike_id":"714542d5-8bd5-43d5-891b-0a17e2345c5d","system_id":"levelo_inurba_marseille","lat":43.306412,"lon":5.401035,"is_reserved":false,"is_disabled":false,"rental_uris":{"android":"levelo://app?vid=714542d5-8bd5-43d5-891b-0a17e2345c5d","ios":"levelo://app?vid=714542d5-8bd5-43d5-891b-0a17e2345c5d"},"vehicle_type_id":"4","last_reported":1703610362,"current_range_meters":18400,"station_id":"ce4bh112rcd13ifvqda0","pricing_plan_id":"free"},{"bike_id":"395b4c6b-2846-48f8-adf3-a7b6e4defa20","system_id":"levelo_inurba_marseille","lat":43.28727,"lon":5.36078,"is_reserved":false,"is_disabled":false,"rental_uris":{"android":"levelo://app?vid=395b4c6b-2846-48f8-adf3-a7b6e4defa20","ios":"levelo://app?vid=395b4c6b-2846-48f8-adf3-a7b6e4defa20"},"vehicle_type_id":"4","last_reported":1703610362,"current_range_meters":20800,"station_id":"cki0cbj6b192h4jlfktg","pricing_plan_id":"free"},{"bike_id":"aa743935-8558-45a1-aa4e-06dd50e5fa89","system_id":"levelo_inurba_marseille","lat":43.28727,"lon":5.36078,"is_reserved":false,"is_disabled":false,"rental_uris":{"android":"levelo://app?vid=aa743935-8558-45a1-aa4e-06dd50e5fa89","ios":"levelo://app?vid=aa743935-8558-45a1-aa4e-06dd50e5fa89"},"vehicle_type_id":"4","last_reported":1703610362,"current_range_meters":25600,"station_id":"cki0cbj6b192h4jlfktg","pricing_plan_id":"free"},{"bike_id":"6a9724f8-2820-4b93-8043-c627fc954d0d","system_id":"levelo_inurba_marseille","lat":43.286591,"lon":5.363346,"is_reserved":false,"is_disabled":false,"rental_uris":{"android":"levelo://app?vid=6a9724f8-2820-4b93-8043-c627fc954d0d","ios":"levelo://app?vid=6a9724f8-2820-4b93-8043-c627fc954d0d"},"vehicle_type_id":"4","last_reported":1703610362,"current_range_meters":10000,"station_id":"ce4bhah2rcd13ifvqej0","pricing_plan_id":"free"},{"bike_id":"6a54f380-79c2-4609-8428-0adc0fc2bebe","system_id":"levelo_inurba_marseille","lat":43.286591,"lon":5.363346,"is_reserved":false,"is_disabled":false,"rental_uris":{"android":"levelo://app?vid=6a54f380-79c2-4609-8428-0adc0fc2bebe","ios":"levelo://app?vid=6a54f380-79c2-4609-8428-0adc0fc2bebe"},"vehicle_type_id":"4","last_reported":1703610362,"current_range_meters":0,"station_id":"ce4bhah2rcd13ifvqej0","pricing_plan_id":"free"},{"bike_id":"9010a516-95e6-406b-917f-5e2a36fd62b8","system_id":"levelo_inurba_marseille","lat":43.286591,"lon":5.363346,"is_reserved":false,"is_disabled":false,"rental_uris":{"android":"levelo://app?vid=9010a516-95e6-406b-917f-5e2a36fd62b8","ios":"levelo://app?vid=9010a516-95e6-406b-917f-5e2a36fd62b8"},"vehicle_type_id":"4","last_reported":1703610362,"current_range_meters":0,"station_id":"ce4bhah2rcd13ifvqej0","pricing_plan_id":"free"},{"bike_id":"d81737f4-e2c0-4302-90b1-a9dc2b367da7","system_id":"levelo_inurba_marseille","lat":43.286961,"lon":5.373785,"is_reserved":false,"is_disabled":false,"rental_uris":{"android":"levelo://app?vid=d81737f4-e2c0-4302-90b1-a9dc2b367da7","ios":"levelo://app?vid=d81737f4-e2c0-4302-90b1-a9dc2b367da7"},"vehicle_type_id":"4","last_reported":1703610362,"current_range_meters":14400,"station_id":"ce4bh3p2rcd13ifvqdq0","pricing_plan_id":"free"},{"bike_id":"700d44f9-64a0-43c6-97a7-12553c4ab997","system_id":"levelo_inurba_marseille","lat":43.302759,"lon":5.400793,"is_reserved":false,"is_disabled":false,"rental_uris":{"android":"levelo://app?vid=700d44f9-64a0-43c6-97a7-12553c4ab997","ios":"levelo://app?vid=700d44f9-64a0-43c6-97a7-12553c4ab997"},"vehicle_type_id":"4","last_reported":1703610362,"current_range_meters":20800,"station_id":"ce4bgvh2rcd13ifvqcs0","pricing_plan_id":"free"},{"bike_id":"d4155443-6106-4a1a-b52a-6a5463608c7b","system_id":"levelo_inurba_marseille","lat":43.302759,"lon":5.400793,"is_reserved":false,"is_disabled":false,"rental_uris":{"android":"levelo://app?vid=d4155443-6106-4a1a-b52a-6a5463608c7b","ios":"levelo://app?vid=d4155443-6106-4a1a-b52a-6a5463608c7b"},"vehicle_type_id":"4","last_reported":1703610362,"current_range_meters":5600,"station_id":"ce4bgvh2rcd13ifvqcs0","pricing_plan_id":"free"},{"bike_id":"1bafe52b-de01-4b2b-ba84-f729c4d660ef","system_id":"levelo_inurba_marseille","lat":43.286039,"lon":5.370679,"is_reserved":false,"is_disabled":false,"rental_uris":{"android":"levelo://app?vid=1bafe52b-de01-4b2b-ba84-f729c4d660ef","ios":"levelo://app?vid=1bafe52b-de01-4b2b-ba84-f729c4d660ef"},"vehicle_type_id":"4","last_reported":1703610362,"current_range_meters":16400,"station_id":"ce4bht12rcd13ifvqi60","pricing_plan_id":"free"},{"bike_id":"7260845c-a0df-4ce3-b635-e91590bb4f9a","system_id":"levelo_inurba_marseille","lat":43.286068,"lon":5.370688,"is_reserved":false,"is_disabled":false,"rental_uris":{"android":"levelo://app?vid=7260845c-a0df-4ce3-b635-e91590bb4f9a","ios":"levelo://app?vid=7260845c-a0df-4ce3-b635-e91590bb4f9a"},"vehicle_type_id":"4","last_reported":1703610362,"current_range_meters":19600,"station_id":"ce4bht12rcd13ifvqi60","pricing_plan_id":"free"},{"bike_id":"b8ae8959-d827-4ceb-8ce0-3e03906d250d","system_id":"levelo_inurba_marseille","lat":43.28605,"lon":5.37068,"is_reserved":false,"is_disabled":false,"rental_uris":{"android":"levelo://app?vid=b8ae8959-d827-4ceb-8ce0-3e03906d250d","ios":"levelo://app?vid=b8ae8959-d827-4ceb-8ce0-3e03906d250d"},"vehicle_type_id":"4","last_reported":1703610362,"current_range_meters":26000,"station_id":"ce4bht12rcd13ifvqi60","pricing_plan_id":"free"},{"bike_id":"e42f2d48-1eac-4ea9-97da-9a200b97c493","system_id":"levelo_inurba_marseille","lat":43.28604,"lon":5.37065,"is_reserved":false,"is_disabled":false,"rental_uris":{"android":"levelo://app?vid=e42f2d48-1eac-4ea9-97da-9a200b97c493","ios":"levelo://app?vid=e42f2d48-1eac-4ea9-97da-9a200b97c493"},"vehicle_type_id":"4","last_reported":1703610362,"current_range_meters":24000,"station_id":"ce4bht12rcd13ifvqi60","pricing_plan_id":"free"},{"bike_id":"0ade99fb-20fc-423b-a697-58876a6bf0b1","system_id":"levelo_inurba_marseille","lat":43.287036,"lon":5.37938,"is_reserved":false,"is_disabled":false,"rental_uris":{"android":"levelo://app?vid=0ade99fb-20fc-423b-a697-58876a6bf0b1","ios":"levelo://app?vid=0ade99fb-20fc-423b-a697-58876a6bf0b1"},"vehicle_type_id":"4","last_reported":1703610362,"current_range_meters":17200,"station_id":"ce4bh9p2rcd13ifvqec0","pricing_plan_id":"free"},{"bike_id":"295ae556-4899-4476-99c4-aeefcb87d56a","system_id":"levelo_inurba_marseille","lat":43.316828,"lon":5.404723,"is_reserved":false,"is_disabled":false,"rental_uris":{"android":"levelo://app?vid=295ae556-4899-4476-99c4-aeefcb87d56a","ios":"levelo://app?vid=295ae556-4899-4476-99c4-aeefcb87d56a"},"vehicle_type_id":"4","last_reported":1703610362,"current_range_meters":20000,"station_id":"ce4bh012rcd13ifvqd00","pricing_plan_id":"free"},{"bike_id":"fa7570f2-256e-4948-b3fc-55402630ffd7","system_id":"levelo_inurba_marseille","lat":43.291994,"lon":5.392907,"is_reserved":false,"is_disabled":false,"rental_uris":{"android":"levelo://app?vid=fa7570f2-256e-4948-b3fc-55402630ffd7","ios":"levelo://app?vid=fa7570f2-256e-4948-b3fc-55402630ffd7"},"vehicle_type_id":"4","last_reported":1703610362,"current_range_meters":0,"station_id":"ce4bh192rcd13ifvqdd0","pricing_plan_id":"free"},{"bike_id":"e2adfa7c-882e-48a1-9ee4-b36e6186ebbf","system_id":"levelo_inurba_marseille","lat":43.330912,"lon":5.396935,"is_reserved":false,"is_disabled":false,"rental_uris":{"android":"levelo://app?vid=e2adfa7c-882e-48a1-9ee4-b36e6186ebbf","ios":"levelo://app?vid=e2adfa7c-882e-48a1-9ee4-b36e6186ebbf"},"vehicle_type_id":"4","last_reported":1703610362,"current_range_meters":2400,"station_id":"","pricing_plan_id":"free"},{"bike_id":"d4a8c6f5-1913-4f5f-bcba-c2528c2f764a","system_id":"levelo_inurba_marseille","lat":43.284538,"lon":5.358657,"is_reserved":false,"is_disabled":false,"rental_uris":{"android":"levelo://app?vid=d4a8c6f5-1913-4f5f-bcba-c2528c2f764a","ios":"levelo://app?vid=d4a8c6f5-1913-4f5f-bcba-c2528c2f764a"},"vehicle_type_id":"4","last_reported":1703610362,"current_range_meters":31600,"station_id":"ce4bhah2rcd13ifvqei0","pricing_plan_id":"free"},{"bike_id":"ad28d462-7697-4caa-820c-1453694819f1","system_id":"levelo_inurba_marseille","lat":43.284538,"lon":5.358657,"is_reserved":false,"is_disabled":false,"rental_uris":{"android":"levelo://app?vid=ad28d462-7697-4caa-820c-1453694819f1","ios":"levelo://app?vid=ad28d462-7697-4caa-820c-1453694819f1"},"vehicle_type_id":"4","last_reported":1703610362,"current_range_meters":16400,"station_id":"ce4bhah2rcd13ifvqei0","pricing_plan_id":"free"},{"bike_id":"71283b06-6af7-41ae-a62c-e10dff701164","system_id":"levelo_inurba_marseille","lat":43.284538,"lon":5.358657,"is_reserved":false,"is_disabled":false,"rental_uris":{"android":"levelo://app?vid=71283b06-6af7-41ae-a62c-e10dff701164","ios":"levelo://app?vid=71283b06-6af7-41ae-a62c-e10dff701164"},"vehicle_type_id":"4","last_reported":1703610362,"current_range_meters":25600,"station_id":"ce4bhah2rcd13ifvqei0","pricing_plan_id":"free"},{"bike_id":"51e17138-6637-4300-b9a2-aa8c98496572","system_id":"levelo_inurba_marseille","lat":43.285856,"lon":5.350771,"is_reserved":false,"is_disabled":false,"rental_uris":{"android":"levelo://app?vid=51e17138-6637-4300-b9a2-aa8c98496572","ios":"levelo://app?vid=51e17138-6637-4300-b9a2-aa8c98496572"},"vehicle_type_id":"4","last_reported":1703610362,"current_range_meters":22400,"station_id":"ce4bhch2rcd13ifvqeug","pricing_plan_id":"free"},{"bike_id":"b3c74a90-056c-47f9-bf2e-21253b84e506","system_id":"levelo_inurba_marseille","lat":43.283998,"lon":5.375062,"is_reserved":false,"is_disabled":false,"rental_uris":{"android":"levelo://app?vid=b3c74a90-056c-47f9-bf2e-21253b84e506","ios":"levelo://app?vid=b3c74a90-056c-47f9-bf2e-21253b84e506"},"vehicle_type_id":"4","last_reported":1703610362,"current_range_meters":23200,"station_id":"ce4bh412rcd13ifvqds0","pricing_plan_id":"free"},{"bike_id":"5a2079b0-cf4b-4e37-9081-697d2ae2b8b5","system_id":"levelo_inurba_marseille","lat":43.283998,"lon":5.375062,"is_reserved":false,"is_disabled":false,"rental_uris":{"android":"levelo://app?vid=5a2079b0-cf4b-4e37-9081-697d2ae2b8b5","ios":"levelo://app?vid=5a2079b0-cf4b-4e37-9081-697d2ae2b8b5"},"vehicle_type_id":"4","last_reported":1703610362,"current_range_meters":18400,"station_id":"ce4bh412rcd13ifvqds0","pricing_plan_id":"free"},{"bike_id":"96b2ffa9-ebc1-4a7c-8400-482a164dc524","system_id":"levelo_inurba_marseille","lat":43.283998,"lon":5.375062,"is_reserved":false,"is_disabled":false,"rental_uris":{"android":"levelo://app?vid=96b2ffa9-ebc1-4a7c-8400-482a164dc524","ios":"levelo://app?vid=96b2ffa9-ebc1-4a7c-8400-482a164dc524"},"vehicle_type_id":"4","last_reported":1703610362,"current_range_meters":0,"station_id":"ce4bh412rcd13ifvqds0","pricing_plan_id":"free"},{"bike_id":"5f04d3dd-3688-4f4e-beda-19d871c9b670","system_id":"levelo_inurba_marseille","lat":43.283998,"lon":5.375062,"is_reserved":false,"is_disabled":false,"rental_uris":{"android":"levelo://app?vid=5f04d3dd-3688-4f4e-beda-19d871c9b670","ios":"levelo://app?vid=5f04d3dd-3688-4f4e-beda-19d871c9b670"},"vehicle_type_id":"4","last_reported":1703610362,"current_range_meters":15200,"station_id":"ce4bh412rcd13ifvqds0","pricing_plan_id":"free"},{"bike_id":"7717d7b1-7e7b-4091-b4f2-3e256534d197","system_id":"levelo_inurba_marseille","lat":43.295713,"lon":5.399639,"is_reserved":false,"is_disabled":false,"rental_uris":{"android":"levelo://app?vid=7717d7b1-7e7b-4091-b4f2-3e256534d197","ios":"levelo://app?vid=7717d7b1-7e7b-4091-b4f2-3e256534d197"},"vehicle_type_id":"4","last_reported":1703610362,"current_range_meters":16800,"station_id":"ce4bh312rcd13ifvqdj0","pricing_plan_id":"free"},{"bike_id":"79cd2027-8be2-4419-89ae-3d2cc1c3665f","system_id":"levelo_inurba_marseille","lat":43.286595,"lon":5.386795,"is_reserved":false,"is_disabled":false,"rental_uris":{"android":"levelo://app?vid=79cd2027-8be2-4419-89ae-3d2cc1c3665f","ios":"levelo://app?vid=79cd2027-8be2-4419-89ae-3d2cc1c3665f"},"vehicle_type_id":"4","last_reported":1703610362,"current_range_meters":20000,"station_id":"ce4bh492rcd13ifvqdug","pricing_plan_id":"free"},{"bike_id":"616a331b-c48c-44dc-9a3e-d6cd52215027","system_id":"levelo_inurba_marseille","lat":43.286595,"lon":5.386795,"is_reserved":false,"is_disabled":false,"rental_uris":{"android":"levelo://app?vid=616a331b-c48c-44dc-9a3e-d6cd52215027","ios":"levelo://app?vid=616a331b-c48c-44dc-9a3e-d6cd52215027"},"vehicle_type_id":"4","last_reported":1703610362,"current_range_meters":22000,"station_id":"ce4bh492rcd13ifvqdug","pricing_plan_id":"free"},{"bike_id":"26074cf7-9c7a-46f9-8d0f-256d6f0b8ef6","system_id":"levelo_inurba_marseille","lat":43.319179,"lon":5.407725,"is_reserved":false,"is_disabled":false,"rental_uris":{"android":"levelo://app?vid=26074cf7-9c7a-46f9-8d0f-256d6f0b8ef6","ios":"levelo://app?vid=26074cf7-9c7a-46f9-8d0f-256d6f0b8ef6"},"vehicle_type_id":"4","last_reported":1703610362,"current_range_meters":28000,"station_id":"ce4bhq12rcd13ifvqhig","pricing_plan_id":"free"},{"bike_id":"826589f8-856e-4430-84c2-071b20d27bee","system_id":"levelo_inurba_marseille","lat":43.319179,"lon":5.407725,"is_reserved":false,"is_disabled":false,"rental_uris":{"android":"levelo://app?vid=826589f8-856e-4430-84c2-071b20d27bee","ios":"levelo://app?vid=826589f8-856e-4430-84c2-071b20d27bee"},"vehicle_type_id":"4","last_reported":1703610362,"current_range_meters":28000,"station_id":"ce4bhq12rcd13ifvqhig","pricing_plan_id":"free"},{"bike_id":"bdff58ab-53e0-4691-8de4-9224b8d3a4d9","system_id":"levelo_inurba_marseille","lat":43.284793,"lon":5.384113,"is_reserved":false,"is_disabled":false,"rental_uris":{"android":"levelo://app?vid=bdff58ab-53e0-4691-8de4-9224b8d3a4d9","ios":"levelo://app?vid=bdff58ab-53e0-4691-8de4-9224b8d3a4d9"},"vehicle_type_id":"4","last_reported":1703610362,"current_range_meters":0,"station_id":"ce4bh512rcd13ifvqe3g","pricing_plan_id":"free"},{"bike_id":"fea4b9ee-19e0-4716-9f94-4df9a96fcb90","system_id":"levelo_inurba_marseille","lat":43.297946,"lon":5.404063,"is_reserved":false,"is_disabled":false,"rental_uris":{"android":"levelo://app?vid=fea4b9ee-19e0-4716-9f94-4df9a96fcb90","ios":"levelo://app?vid=fea4b9ee-19e0-4716-9f94-4df9a96fcb90"},"vehicle_type_id":"4","last_reported":1703610362,"current_range_meters":27200,"station_id":"ce4bh112rcd13ifvqd90","pricing_plan_id":"free"},{"bike_id":"0603b024-70fb-459e-b7a1-092ca90c9f19","system_id":"levelo_inurba_marseille","lat":43.297946,"lon":5.404063,"is_reserved":false,"is_disabled":false,"rental_uris":{"android":"levelo://app?vid=0603b024-70fb-459e-b7a1-092ca90c9f19","ios":"levelo://app?vid=0603b024-70fb-459e-b7a1-092ca90c9f19"},"vehicle_type_id":"4","last_reported":1703610362,"current_range_meters":23600,"station_id":"ce4bh112rcd13ifvqd90","pricing_plan_id":"free"},{"bike_id":"ba5fb792-65f3-484a-a1c3-d515f5a2a85d","system_id":"levelo_inurba_marseille","lat":43.29795,"lon":5.404086,"is_reserved":false,"is_disabled":false,"rental_uris":{"android":"levelo://app?vid=ba5fb792-65f3-484a-a1c3-d515f5a2a85d","ios":"levelo://app?vid=ba5fb792-65f3-484a-a1c3-d515f5a2a85d"},"vehicle_type_id":"4","last_reported":1703610362,"current_range_meters":12400,"station_id":"ce4bh112rcd13ifvqd90","pricing_plan_id":"free"},{"bike_id":"7cf8ca7b-5661-41f6-9c9d-5d50ca852daf","system_id":"levelo_inurba_marseille","lat":43.288501,"lon":5.393087,"is_reserved":false,"is_disabled":false,"rental_uris":{"android":"levelo://app?vid=7cf8ca7b-5661-41f6-9c9d-5d50ca852daf","ios":"levelo://app?vid=7cf8ca7b-5661-41f6-9c9d-5d50ca852daf"},"vehicle_type_id":"4","last_reported":1703610362,"current_range_meters":2400,"station_id":"ce4bh2p2rcd13ifvqdi0","pricing_plan_id":"free"},{"bike_id":"929408d6-8d9c-42e5-bcbf-e961eef6e1da","system_id":"levelo_inurba_marseille","lat":43.283494,"lon":5.380945,"is_reserved":false,"is_disabled":false,"rental_uris":{"android":"levelo://app?vid=929408d6-8d9c-42e5-bcbf-e961eef6e1da","ios":"levelo://app?vid=929408d6-8d9c-42e5-bcbf-e961eef6e1da"},"vehicle_type_id":"4","last_reported":1703610362,"current_range_meters":0,"station_id":"ce4bh412rcd13ifvqdr0","pricing_plan_id":"free"},{"bike_id":"dd56f053-76e9-4b1a-be9a-a855afb8a653","system_id":"levelo_inurba_marseille","lat":43.283494,"lon":5.380945,"is_reserved":false,"is_disabled":false,"rental_uris":{"android":"levelo://app?vid=dd56f053-76e9-4b1a-be9a-a855afb8a653","ios":"levelo://app?vid=dd56f053-76e9-4b1a-be9a-a855afb8a653"},"vehicle_type_id":"4","last_reported":1703610362,"current_range_meters":23600,"station_id":"ce4bh412rcd13ifvqdr0","pricing_plan_id":"free"},{"bike_id":"bd70cfc0-cbcf-4770-8b6c-efb9dbd68efa","system_id":"levelo_inurba_marseille","lat":43.283498,"lon":5.380948,"is_reserved":false,"is_disabled":false,"rental_uris":{"android":"levelo://app?vid=bd70cfc0-cbcf-4770-8b6c-efb9dbd68efa","ios":"levelo://app?vid=bd70cfc0-cbcf-4770-8b6c-efb9dbd68efa"},"vehicle_type_id":"4","last_reported":1703610362,"current_range_meters":23200,"station_id":"ce4bh412rcd13ifvqdr0","pricing_plan_id":"free"},{"bike_id":"83edfe75-0342-4059-9e69-cd1943c747c9","system_id":"levelo_inurba_marseille","lat":43.288501,"lon":5.393087,"is_reserved":false,"is_disabled":false,"rental_uris":{"android":"levelo://app?vid=83edfe75-0342-4059-9e69-cd1943c747c9","ios":"levelo://app?vid=83edfe75-0342-4059-9e69-cd1943c747c9"},"vehicle_type_id":"4","last_reported":1703610362,"current_range_meters":23200,"station_id":"ce4bh2p2rcd13ifvqdi0","pricing_plan_id":"free"},{"bike_id":"e0b68692-8b72-46fb-ac41-394761fb3425","system_id":"levelo_inurba_marseille","lat":43.283494,"lon":5.380945,"is_reserved":false,"is_disabled":false,"rental_uris":{"android":"levelo://app?vid=e0b68692-8b72-46fb-ac41-394761fb3425","ios":"levelo://app?vid=e0b68692-8b72-46fb-ac41-394761fb3425"},"vehicle_type_id":"4","last_reported":1703610362,"current_range_meters":31600,"station_id":"ce4bh412rcd13ifvqdr0","pricing_plan_id":"free"},{"bike_id":"60eaeb11-cd76-4502-9bb5-1d10875205f0","system_id":"levelo_inurba_marseille","lat":43.283498,"lon":5.380948,"is_reserved":false,"is_disabled":false,"rental_uris":{"android":"levelo://app?vid=60eaeb11-cd76-4502-9bb5-1d10875205f0","ios":"levelo://app?vid=60eaeb11-cd76-4502-9bb5-1d10875205f0"},"vehicle_type_id":"4","last_reported":1703610362,"current_range_meters":21600,"station_id":"ce4bh412rcd13ifvqdr0","pricing_plan_id":"free"},{"bike_id":"f13ec3b6-4233-4299-8051-736bcb56f9bc","system_id":"levelo_inurba_marseille","lat":43.283498,"lon":5.380948,"is_reserved":false,"is_disabled":false,"rental_uris":{"android":"levelo://app?vid=f13ec3b6-4233-4299-8051-736bcb56f9bc","ios":"levelo://app?vid=f13ec3b6-4233-4299-8051-736bcb56f9bc"},"vehicle_type_id":"4","last_reported":1703610362,"current_range_meters":2000,"station_id":"ce4bh412rcd13ifvqdr0","pricing_plan_id":"free"},{"bike_id":"96f08949-9741-46b9-b3c5-0056fdb3c07d","system_id":"levelo_inurba_marseille","lat":43.283494,"lon":5.380945,"is_reserved":false,"is_disabled":false,"rental_uris":{"android":"levelo://app?vid=96f08949-9741-46b9-b3c5-0056fdb3c07d","ios":"levelo://app?vid=96f08949-9741-46b9-b3c5-0056fdb3c07d"},"vehicle_type_id":"4","last_reported":1703610362,"current_range_meters":18400,"station_id":"ce4bh412rcd13ifvqdr0","pricing_plan_id":"free"},{"bike_id":"8752f406-7ee5-452b-aa39-8aaf354476cc","system_id":"levelo_inurba_marseille","lat":43.283498,"lon":5.380948,"is_reserved":false,"is_disabled":false,"rental_uris":{"android":"levelo://app?vid=8752f406-7ee5-452b-aa39-8aaf354476cc","ios":"levelo://app?vid=8752f406-7ee5-452b-aa39-8aaf354476cc"},"vehicle_type_id":"4","last_reported":1703610362,"current_range_meters":16800,"station_id":"ce4bh412rcd13ifvqdr0","pricing_plan_id":"free"},{"bike_id":"e485450b-2736-4f4c-b94b-0da5a69b88aa","system_id":"levelo_inurba_marseille","lat":43.33385,"lon":5.39822,"is_reserved":false,"is_disabled":false,"rental_uris":{"android":"levelo://app?vid=e485450b-2736-4f4c-b94b-0da5a69b88aa","ios":"levelo://app?vid=e485450b-2736-4f4c-b94b-0da5a69b88aa"},"vehicle_type_id":"4","last_reported":1703610362,"current_range_meters":22000,"station_id":"","pricing_plan_id":"free"},{"bike_id":"448c9505-94f8-4891-8c0f-ef21216bc372","system_id":"levelo_inurba_marseille","lat":43.289363,"lon":5.396322,"is_reserved":false,"is_disabled":false,"rental_uris":{"android":"levelo://app?vid=448c9505-94f8-4891-8c0f-ef21216bc372","ios":"levelo://app?vid=448c9505-94f8-4891-8c0f-ef21216bc372"},"vehicle_type_id":"4","last_reported":1703610362,"current_range_meters":20800,"station_id":"ce4bh3h2rcd13ifvqdn0","pricing_plan_id":"free"},{"bike_id":"733c2589-bc20-4b60-9ea0-6ec24bc189a2","system_id":"levelo_inurba_marseille","lat":43.283502,"lon":5.386471,"is_reserved":false,"is_disabled":false,"rental_uris":{"android":"levelo://app?vid=733c2589-bc20-4b60-9ea0-6ec24bc189a2","ios":"levelo://app?vid=733c2589-bc20-4b60-9ea0-6ec24bc189a2"},"vehicle_type_id":"4","last_reported":1703610362,"current_range_meters":22400,"station_id":"ce4bh492rcd13ifvqdvg","pricing_plan_id":"free"},{"bike_id":"cd216dae-208d-482b-b577-34651d7f8097","system_id":"levelo_inurba_marseille","lat":43.282754,"lon":5.350519,"is_reserved":false,"is_disabled":false,"rental_uris":{"android":"levelo://app?vid=cd216dae-208d-482b-b577-34651d7f8097","ios":"levelo://app?vid=cd216dae-208d-482b-b577-34651d7f8097"},"vehicle_type_id":"4","last_reported":1703610362,"current_range_meters":4000,"station_id":"ce4bhbp2rcd13ifvqerg","pricing_plan_id":"free"},{"bike_id":"3a53bb59-69d0-469b-825f-d534a821ad18","system_id":"levelo_inurba_marseille","lat":43.282744,"lon":5.350533,"is_reserved":false,"is_disabled":false,"rental_uris":{"android":"levelo://app?vid=3a53bb59-69d0-469b-825f-d534a821ad18","ios":"levelo://app?vid=3a53bb59-69d0-469b-825f-d534a821ad18"},"vehicle_type_id":"4","last_reported":1703610362,"current_range_meters":26400,"station_id":"ce4bhbp2rcd13ifvqerg","pricing_plan_id":"free"},{"bike_id":"b9cd401c-b81e-4926-831e-401d89c8412e","system_id":"levelo_inurba_marseille","lat":43.282744,"lon":5.350533,"is_reserved":false,"is_disabled":false,"rental_uris":{"android":"levelo://app?vid=b9cd401c-b81e-4926-831e-401d89c8412e","ios":"levelo://app?vid=b9cd401c-b81e-4926-831e-401d89c8412e"},"vehicle_type_id":"4","last_reported":1703610362,"current_range_meters":27200,"station_id":"ce4bhbp2rcd13ifvqerg","pricing_plan_id":"free"},{"bike_id":"990132eb-7035-4c30-8e7e-5161e8bf29bb","system_id":"levelo_inurba_marseille","lat":43.283502,"lon":5.386471,"is_reserved":false,"is_disabled":false,"rental_uris":{"android":"levelo://app?vid=990132eb-7035-4c30-8e7e-5161e8bf29bb","ios":"levelo://app?vid=990132eb-7035-4c30-8e7e-5161e8bf29bb"},"vehicle_type_id":"4","last_reported":1703610362,"current_range_meters":22000,"station_id":"ce4bh492rcd13ifvqdvg","pricing_plan_id":"free"},{"bike_id":"787fc710-c520-40d9-ae3d-3491dbbb263b","system_id":"levelo_inurba_marseille","lat":43.283502,"lon":5.386471,"is_reserved":false,"is_disabled":false,"rental_uris":{"android":"levelo://app?vid=787fc710-c520-40d9-ae3d-3491dbbb263b","ios":"levelo://app?vid=787fc710-c520-40d9-ae3d-3491dbbb263b"},"vehicle_type_id":"4","last_reported":1703610362,"current_range_meters":2000,"station_id":"ce4bh492rcd13ifvqdvg","pricing_plan_id":"free"},{"bike_id":"2033c985-d701-422c-885a-e0b53d572e42","system_id":"levelo_inurba_marseille","lat":43.283502,"lon":5.386471,"is_reserved":false,"is_disabled":false,"rental_uris":{"android":"levelo://app?vid=2033c985-d701-422c-885a-e0b53d572e42","ios":"levelo://app?vid=2033c985-d701-422c-885a-e0b53d572e42"},"vehicle_type_id":"4","last_reported":1703610362,"current_range_meters":10800,"station_id":"ce4bh492rcd13ifvqdvg","pricing_plan_id":"free"},{"bike_id":"4f58e328-78ed-4ba9-a441-2ccfc77734af","system_id":"levelo_inurba_marseille","lat":43.283502,"lon":5.386471,"is_reserved":false,"is_disabled":false,"rental_uris":{"android":"levelo://app?vid=4f58e328-78ed-4ba9-a441-2ccfc77734af","ios":"levelo://app?vid=4f58e328-78ed-4ba9-a441-2ccfc77734af"},"vehicle_type_id":"4","last_reported":1703610362,"current_range_meters":24000,"station_id":"ce4bh492rcd13ifvqdvg","pricing_plan_id":"free"},{"bike_id":"8a0c1706-63fa-4cd7-99df-a37cb551ceda","system_id":"levelo_inurba_marseille","lat":43.283502,"lon":5.386471,"is_reserved":false,"is_disabled":false,"rental_uris":{"android":"levelo://app?vid=8a0c1706-63fa-4cd7-99df-a37cb551ceda","ios":"levelo://app?vid=8a0c1706-63fa-4cd7-99df-a37cb551ceda"},"vehicle_type_id":"4","last_reported":1703610362,"current_range_meters":27200,"station_id":"ce4bh492rcd13ifvqdvg","pricing_plan_id":"free"},{"bike_id":"13ecefc9-01a1-41eb-b0c2-88f4a0015d41","system_id":"levelo_inurba_marseille","lat":43.28039,"lon":5.369297,"is_reserved":false,"is_disabled":false,"rental_uris":{"android":"levelo://app?vid=13ecefc9-01a1-41eb-b0c2-88f4a0015d41","ios":"levelo://app?vid=13ecefc9-01a1-41eb-b0c2-88f4a0015d41"},"vehicle_type_id":"4","last_reported":1703610362,"current_range_meters":16000,"station_id":"ce4bha12rcd13ifvqef0","pricing_plan_id":"free"},{"bike_id":"24e2c243-d810-4cb0-bf16-4757ab160c8b","system_id":"levelo_inurba_marseille","lat":43.28039,"lon":5.369297,"is_reserved":false,"is_disabled":false,"rental_uris":{"android":"levelo://app?vid=24e2c243-d810-4cb0-bf16-4757ab160c8b","ios":"levelo://app?vid=24e2c243-d810-4cb0-bf16-4757ab160c8b"},"vehicle_type_id":"4","last_reported":1703610362,"current_range_meters":9600,"station_id":"ce4bha12rcd13ifvqef0","pricing_plan_id":"free"},{"bike_id":"b67b5ed8-bb7f-447e-8ed0-58e7874bdbaa","system_id":"levelo_inurba_marseille","lat":43.280382,"lon":5.369291,"is_reserved":false,"is_disabled":false,"rental_uris":{"android":"levelo://app?vid=b67b5ed8-bb7f-447e-8ed0-58e7874bdbaa","ios":"levelo://app?vid=b67b5ed8-bb7f-447e-8ed0-58e7874bdbaa"},"vehicle_type_id":"4","last_reported":1703610362,"current_range_meters":16800,"station_id":"ce4bha12rcd13ifvqef0","pricing_plan_id":"free"},{"bike_id":"874247a8-b851-4752-bb55-16e8eebdc42c","system_id":"levelo_inurba_marseille","lat":43.280382,"lon":5.369291,"is_reserved":false,"is_disabled":false,"rental_uris":{"android":"levelo://app?vid=874247a8-b851-4752-bb55-16e8eebdc42c","ios":"levelo://app?vid=874247a8-b851-4752-bb55-16e8eebdc42c"},"vehicle_type_id":"4","last_reported":1703610362,"current_range_meters":30000,"station_id":"ce4bha12rcd13ifvqef0","pricing_plan_id":"free"},{"bike_id":"21cdddc6-61d7-4c4d-8e98-9b6c2f0d4480","system_id":"levelo_inurba_marseille","lat":43.280382,"lon":5.369291,"is_reserved":false,"is_disabled":false,"rental_uris":{"android":"levelo://app?vid=21cdddc6-61d7-4c4d-8e98-9b6c2f0d4480","ios":"levelo://app?vid=21cdddc6-61d7-4c4d-8e98-9b6c2f0d4480"},"vehicle_type_id":"4","last_reported":1703610362,"current_range_meters":22400,"station_id":"ce4bha12rcd13ifvqef0","pricing_plan_id":"free"},{"bike_id":"d57c0d33-48ca-4783-8f6e-30bef17a1fcb","system_id":"levelo_inurba_marseille","lat":43.282744,"lon":5.350533,"is_reserved":false,"is_disabled":false,"rental_uris":{"android":"levelo://app?vid=d57c0d33-48ca-4783-8f6e-30bef17a1fcb","ios":"levelo://app?vid=d57c0d33-48ca-4783-8f6e-30bef17a1fcb"},"vehicle_type_id":"4","last_reported":1703610362,"current_range_meters":12000,"station_id":"ce4bhbp2rcd13ifvqerg","pricing_plan_id":"free"},{"bike_id":"83dd912c-b7e1-4db2-b0e5-0ad4fb11b97d","system_id":"levelo_inurba_marseille","lat":43.290412,"lon":5.399633,"is_reserved":false,"is_disabled":false,"rental_uris":{"android":"levelo://app?vid=83dd912c-b7e1-4db2-b0e5-0ad4fb11b97d","ios":"levelo://app?vid=83dd912c-b7e1-4db2-b0e5-0ad4fb11b97d"},"vehicle_type_id":"4","last_reported":1703610362,"current_range_meters":2400,"station_id":"ce4bh392rcd13ifvqdm0","pricing_plan_id":"free"},{"bike_id":"8bf05de9-0e17-4c1c-9693-490db27e4dd0","system_id":"levelo_inurba_marseille","lat":43.281044,"lon":5.378308,"is_reserved":false,"is_disabled":false,"rental_uris":{"android":"levelo://app?vid=8bf05de9-0e17-4c1c-9693-490db27e4dd0","ios":"levelo://app?vid=8bf05de9-0e17-4c1c-9693-490db27e4dd0"},"vehicle_type_id":"4","last_reported":1703610362,"current_range_meters":20400,"station_id":"ce4bha12rcd13ifvqee0","pricing_plan_id":"free"},{"bike_id":"211d8dd9-9433-46de-a306-e539090436a4","system_id":"levelo_inurba_marseille","lat":43.281044,"lon":5.378308,"is_reserved":false,"is_disabled":false,"rental_uris":{"android":"levelo://app?vid=211d8dd9-9433-46de-a306-e539090436a4","ios":"levelo://app?vid=211d8dd9-9433-46de-a306-e539090436a4"},"vehicle_type_id":"4","last_reported":1703610362,"current_range_meters":22000,"station_id":"ce4bha12rcd13ifvqee0","pricing_plan_id":"free"},{"bike_id":"aec17363-a96e-4657-a72b-dbcbb36b0ea0","system_id":"levelo_inurba_marseille","lat":43.296278,"lon":5.405921,"is_reserved":false,"is_disabled":false,"rental_uris":{"android":"levelo://app?vid=aec17363-a96e-4657-a72b-dbcbb36b0ea0","ios":"levelo://app?vid=aec17363-a96e-4657-a72b-dbcbb36b0ea0"},"vehicle_type_id":"4","last_reported":1703610362,"current_range_meters":8800,"station_id":"ce4bh0h2rcd13ifvqd60","pricing_plan_id":"free"},{"bike_id":"13b4061c-3aab-436d-b934-e2cc03397b79","system_id":"levelo_inurba_marseille","lat":43.284462,"lon":5.392121,"is_reserved":false,"is_disabled":false,"rental_uris":{"android":"levelo://app?vid=13b4061c-3aab-436d-b934-e2cc03397b79","ios":"levelo://app?vid=13b4061c-3aab-436d-b934-e2cc03397b79"},"vehicle_type_id":"4","last_reported":1703610362,"current_range_meters":16000,"station_id":"ce4bhoh2rcd13ifvqh5g","pricing_plan_id":"free"},{"bike_id":"65119951-e790-4999-8774-7031ae3f11c9","system_id":"levelo_inurba_marseille","lat":43.28573,"lon":5.394992,"is_reserved":false,"is_disabled":false,"rental_uris":{"android":"levelo://app?vid=65119951-e790-4999-8774-7031ae3f11c9","ios":"levelo://app?vid=65119951-e790-4999-8774-7031ae3f11c9"},"vehicle_type_id":"4","last_reported":1703610362,"current_range_meters":24000,"station_id":"ce4bh292rcd13ifvqdg0","pricing_plan_id":"free"},{"bike_id":"59694483-c0c7-4e2b-a041-eb5f09ee04a9","system_id":"levelo_inurba_marseille","lat":43.2857,"lon":5.39488,"is_reserved":false,"is_disabled":false,"rental_uris":{"android":"levelo://app?vid=59694483-c0c7-4e2b-a041-eb5f09ee04a9","ios":"levelo://app?vid=59694483-c0c7-4e2b-a041-eb5f09ee04a9"},"vehicle_type_id":"4","last_reported":1703610362,"current_range_meters":23200,"station_id":"ce4bh292rcd13ifvqdg0","pricing_plan_id":"free"},{"bike_id":"7fdead43-026f-4735-a131-b60014b080c6","system_id":"levelo_inurba_marseille","lat":43.28573,"lon":5.394992,"is_reserved":false,"is_disabled":false,"rental_uris":{"android":"levelo://app?vid=7fdead43-026f-4735-a131-b60014b080c6","ios":"levelo://app?vid=7fdead43-026f-4735-a131-b60014b080c6"},"vehicle_type_id":"4","last_reported":1703610362,"current_range_meters":13200,"station_id":"ce4bh292rcd13ifvqdg0","pricing_plan_id":"free"},{"bike_id":"a4a5ccde-62af-4c28-95c1-d68b50703509","system_id":"levelo_inurba_marseille","lat":43.326605,"lon":5.409903,"is_reserved":false,"is_disabled":false,"rental_uris":{"android":"levelo://app?vid=a4a5ccde-62af-4c28-95c1-d68b50703509","ios":"levelo://app?vid=a4a5ccde-62af-4c28-95c1-d68b50703509"},"vehicle_type_id":"4","last_reported":1703610362,"current_range_meters":24400,"station_id":"ce4bhpp2rcd13ifvqhgg","pricing_plan_id":"free"},{"bike_id":"28708514-7775-4006-9dac-5c325bd92343","system_id":"levelo_inurba_marseille","lat":43.326605,"lon":5.409903,"is_reserved":false,"is_disabled":false,"rental_uris":{"android":"levelo://app?vid=28708514-7775-4006-9dac-5c325bd92343","ios":"levelo://app?vid=28708514-7775-4006-9dac-5c325bd92343"},"vehicle_type_id":"4","last_reported":1703610362,"current_range_meters":20400,"station_id":"ce4bhpp2rcd13ifvqhgg","pricing_plan_id":"free"},{"bike_id":"23a18914-adeb-4148-a7d9-94eed249347d","system_id":"levelo_inurba_marseille","lat":43.304188,"lon":5.412904,"is_reserved":false,"is_disabled":false,"rental_uris":{"android":"levelo://app?vid=23a18914-adeb-4148-a7d9-94eed249347d","ios":"levelo://app?vid=23a18914-adeb-4148-a7d9-94eed249347d"},"vehicle_type_id":"4","last_reported":1703610362,"current_range_meters":12000,"station_id":"ce4bhop2rcd13ifvqh8g","pricing_plan_id":"free"},{"bike_id":"12e2eb34-0a3c-49c1-b8e6-9db93976feb5","system_id":"levelo_inurba_marseille","lat":43.279087,"lon":5.380114,"is_reserved":false,"is_disabled":false,"rental_uris":{"android":"levelo://app?vid=12e2eb34-0a3c-49c1-b8e6-9db93976feb5","ios":"levelo://app?vid=12e2eb34-0a3c-49c1-b8e6-9db93976feb5"},"vehicle_type_id":"4","last_reported":1703610362,"current_range_meters":30400,"station_id":"ce4bhf92rcd13ifvqf50","pricing_plan_id":"free"},{"bike_id":"85944aa3-9566-4184-94f0-1190b9e7e8cb","system_id":"levelo_inurba_marseille","lat":43.28707,"lon":5.39992,"is_reserved":false,"is_disabled":false,"rental_uris":{"android":"levelo://app?vid=85944aa3-9566-4184-94f0-1190b9e7e8cb","ios":"levelo://app?vid=85944aa3-9566-4184-94f0-1190b9e7e8cb"},"vehicle_type_id":"4","last_reported":1703610362,"current_range_meters":28000,"station_id":"ce4bho92rcd13ifvqh3g","pricing_plan_id":"free"},{"bike_id":"1f49b234-69ed-438e-8d08-179a4fc9c8c6","system_id":"levelo_inurba_marseille","lat":43.320045,"lon":5.415046,"is_reserved":false,"is_disabled":false,"rental_uris":{"android":"levelo://app?vid=1f49b234-69ed-438e-8d08-179a4fc9c8c6","ios":"levelo://app?vid=1f49b234-69ed-438e-8d08-179a4fc9c8c6"},"vehicle_type_id":"4","last_reported":1703610362,"current_range_meters":31600,"station_id":"ce4bhq92rcd13ifvqhkg","pricing_plan_id":"free"},{"bike_id":"c7bd3360-8623-45a1-80df-ba9edb342255","system_id":"levelo_inurba_marseille","lat":43.320045,"lon":5.415046,"is_reserved":false,"is_disabled":false,"rental_uris":{"android":"levelo://app?vid=c7bd3360-8623-45a1-80df-ba9edb342255","ios":"levelo://app?vid=c7bd3360-8623-45a1-80df-ba9edb342255"},"vehicle_type_id":"4","last_reported":1703610362,"current_range_meters":8800,"station_id":"ce4bhq92rcd13ifvqhkg","pricing_plan_id":"free"},{"bike_id":"0f9ba54f-2d34-4815-a7a3-85ee9d8e32a4","system_id":"levelo_inurba_marseille","lat":43.320045,"lon":5.415048,"is_reserved":false,"is_disabled":false,"rental_uris":{"android":"levelo://app?vid=0f9ba54f-2d34-4815-a7a3-85ee9d8e32a4","ios":"levelo://app?vid=0f9ba54f-2d34-4815-a7a3-85ee9d8e32a4"},"vehicle_type_id":"4","last_reported":1703610362,"current_range_meters":29200,"station_id":"ce4bhq92rcd13ifvqhkg","pricing_plan_id":"free"},{"bike_id":"ddf6ee76-df1d-4211-a047-b58bf2672a56","system_id":"levelo_inurba_marseille","lat":43.303837,"lon":5.418724,"is_reserved":false,"is_disabled":false,"rental_uris":{"android":"levelo://app?vid=ddf6ee76-df1d-4211-a047-b58bf2672a56","ios":"levelo://app?vid=ddf6ee76-df1d-4211-a047-b58bf2672a56"},"vehicle_type_id":"4","last_reported":1703610362,"current_range_meters":27200,"station_id":"ce4bhop2rcd13ifvqh7g","pricing_plan_id":"free"},{"bike_id":"272aebf6-3871-4774-92ef-8806c2ff89d1","system_id":"levelo_inurba_marseille","lat":43.278399,"lon":5.392139,"is_reserved":false,"is_disabled":false,"rental_uris":{"android":"levelo://app?vid=272aebf6-3871-4774-92ef-8806c2ff89d1","ios":"levelo://app?vid=272aebf6-3871-4774-92ef-8806c2ff89d1"},"vehicle_type_id":"4","last_reported":1703610362,"current_range_meters":25200,"station_id":"ce4bhjp2rcd13ifvqga0","pricing_plan_id":"free"},{"bike_id":"9d6125c0-bcac-4fa9-acc9-7deec1125b58","system_id":"levelo_inurba_marseille","lat":43.278399,"lon":5.392139,"is_reserved":false,"is_disabled":false,"rental_uris":{"android":"levelo://app?vid=9d6125c0-bcac-4fa9-acc9-7deec1125b58","ios":"levelo://app?vid=9d6125c0-bcac-4fa9-acc9-7deec1125b58"},"vehicle_type_id":"4","last_reported":1703610362,"current_range_meters":21600,"station_id":"ce4bhjp2rcd13ifvqga0","pricing_plan_id":"free"},{"bike_id":"dbbf128a-13e7-4409-b9d6-79b544ad04a6","system_id":"levelo_inurba_marseille","lat":43.336134,"lon":5.410341,"is_reserved":false,"is_disabled":false,"rental_uris":{"android":"levelo://app?vid=dbbf128a-13e7-4409-b9d6-79b544ad04a6","ios":"levelo://app?vid=dbbf128a-13e7-4409-b9d6-79b544ad04a6"},"vehicle_type_id":"4","last_reported":1703610362,"current_range_meters":12000,"station_id":"ce4bhqh2rcd13ifvqhmg","pricing_plan_id":"free"},{"bike_id":"6e66dedc-1a85-4efd-b4f6-10215aa7e1f7","system_id":"levelo_inurba_marseille","lat":43.276769,"lon":5.388787,"is_reserved":false,"is_disabled":false,"rental_uris":{"android":"levelo://app?vid=6e66dedc-1a85-4efd-b4f6-10215aa7e1f7","ios":"levelo://app?vid=6e66dedc-1a85-4efd-b4f6-10215aa7e1f7"},"vehicle_type_id":"4","last_reported":1703610362,"current_range_meters":23200,"station_id":"ce4bhi12rcd13ifvqfo0","pricing_plan_id":"free"},{"bike_id":"704be52c-3b70-4426-88c8-83f6ddc8792d","system_id":"levelo_inurba_marseille","lat":43.276769,"lon":5.388787,"is_reserved":false,"is_disabled":false,"rental_uris":{"android":"levelo://app?vid=704be52c-3b70-4426-88c8-83f6ddc8792d","ios":"levelo://app?vid=704be52c-3b70-4426-88c8-83f6ddc8792d"},"vehicle_type_id":"4","last_reported":1703610362,"current_range_meters":27600,"station_id":"ce4bhi12rcd13ifvqfo0","pricing_plan_id":"free"},{"bike_id":"c807b277-1704-46fd-9976-fda8eb7df135","system_id":"levelo_inurba_marseille","lat":43.31081,"lon":5.42426,"is_reserved":false,"is_disabled":false,"rental_uris":{"android":"levelo://app?vid=c807b277-1704-46fd-9976-fda8eb7df135","ios":"levelo://app?vid=c807b277-1704-46fd-9976-fda8eb7df135"},"vehicle_type_id":"4","last_reported":1703610362,"current_range_meters":20400,"station_id":"ce4bhp92rcd13ifvqhag","pricing_plan_id":"free"},{"bike_id":"c830441a-27e9-494a-8622-34ca6c78b4ee","system_id":"levelo_inurba_marseille","lat":43.31085,"lon":5.424283,"is_reserved":false,"is_disabled":false,"rental_uris":{"android":"levelo://app?vid=c830441a-27e9-494a-8622-34ca6c78b4ee","ios":"levelo://app?vid=c830441a-27e9-494a-8622-34ca6c78b4ee"},"vehicle_type_id":"4","last_reported":1703610362,"current_range_meters":22400,"station_id":"ce4bhp92rcd13ifvqhag","pricing_plan_id":"free"},{"bike_id":"e8b400be-1bf2-474f-a9ca-d7a9708b600a","system_id":"levelo_inurba_marseille","lat":43.319179,"lon":5.407725,"is_reserved":false,"is_disabled":false,"rental_uris":{"android":"levelo://app?vid=e8b400be-1bf2-474f-a9ca-d7a9708b600a","ios":"levelo://app?vid=e8b400be-1bf2-474f-a9ca-d7a9708b600a"},"vehicle_type_id":"4","last_reported":1703610362,"current_range_meters":29200,"station_id":"ce4bhq12rcd13ifvqhig","pricing_plan_id":"free"},{"bike_id":"136cb9da-15ee-40e3-bc2c-40c9c9d6a86d","system_id":"levelo_inurba_marseille","lat":43.317121,"lon":5.423936,"is_reserved":false,"is_disabled":false,"rental_uris":{"android":"levelo://app?vid=136cb9da-15ee-40e3-bc2c-40c9c9d6a86d","ios":"levelo://app?vid=136cb9da-15ee-40e3-bc2c-40c9c9d6a86d"},"vehicle_type_id":"4","last_reported":1703610362,"current_range_meters":30400,"station_id":"ce4bhp92rcd13ifvqhbg","pricing_plan_id":"free"},{"bike_id":"c228ce51-0034-408b-93aa-dbde9bbacd8a","system_id":"levelo_inurba_marseille","lat":43.31084,"lon":5.42431,"is_reserved":false,"is_disabled":false,"rental_uris":{"android":"levelo://app?vid=c228ce51-0034-408b-93aa-dbde9bbacd8a","ios":"levelo://app?vid=c228ce51-0034-408b-93aa-dbde9bbacd8a"},"vehicle_type_id":"4","last_reported":1703610362,"current_range_meters":30000,"station_id":"ce4bhp92rcd13ifvqhag","pricing_plan_id":"free"},{"bike_id":"a5ef3ffe-074d-4034-8a49-1265e8309ea7","system_id":"levelo_inurba_marseille","lat":43.31085,"lon":5.42433,"is_reserved":false,"is_disabled":false,"rental_uris":{"android":"levelo://app?vid=a5ef3ffe-074d-4034-8a49-1265e8309ea7","ios":"levelo://app?vid=a5ef3ffe-074d-4034-8a49-1265e8309ea7"},"vehicle_type_id":"4","last_reported":1703610362,"current_range_meters":31200,"station_id":"ce4bhp92rcd13ifvqhag","pricing_plan_id":"free"},{"bike_id":"8688502e-c777-4738-8968-43d18688f77f","system_id":"levelo_inurba_marseille","lat":43.31082,"lon":5.42433,"is_reserved":false,"is_disabled":false,"rental_uris":{"android":"levelo://app?vid=8688502e-c777-4738-8968-43d18688f77f","ios":"levelo://app?vid=8688502e-c777-4738-8968-43d18688f77f"},"vehicle_type_id":"4","last_reported":1703610362,"current_range_meters":31200,"station_id":"ce4bhp92rcd13ifvqhag","pricing_plan_id":"free"},{"bike_id":"40000c49-67f1-4183-81bd-797685f5b1f8","system_id":"levelo_inurba_marseille","lat":43.31081,"lon":5.42435,"is_reserved":false,"is_disabled":false,"rental_uris":{"android":"levelo://app?vid=40000c49-67f1-4183-81bd-797685f5b1f8","ios":"levelo://app?vid=40000c49-67f1-4183-81bd-797685f5b1f8"},"vehicle_type_id":"4","last_reported":1703610362,"current_range_meters":28800,"station_id":"ce4bhp92rcd13ifvqhag","pricing_plan_id":"free"},{"bike_id":"68736a0c-c45e-44b7-9894-9250e5012bfe","system_id":"levelo_inurba_marseille","lat":43.31083,"lon":5.42436,"is_reserved":false,"is_disabled":false,"rental_uris":{"android":"levelo://app?vid=68736a0c-c45e-44b7-9894-9250e5012bfe","ios":"levelo://app?vid=68736a0c-c45e-44b7-9894-9250e5012bfe"},"vehicle_type_id":"4","last_reported":1703610362,"current_range_meters":26400,"station_id":"ce4bhp92rcd13ifvqhag","pricing_plan_id":"free"},{"bike_id":"b2974ce4-58ca-4652-8486-f4891c019db7","system_id":"levelo_inurba_marseille","lat":43.310785,"lon":5.424305,"is_reserved":false,"is_disabled":false,"rental_uris":{"android":"levelo://app?vid=b2974ce4-58ca-4652-8486-f4891c019db7","ios":"levelo://app?vid=b2974ce4-58ca-4652-8486-f4891c019db7"},"vehicle_type_id":"4","last_reported":1703610362,"current_range_meters":27200,"station_id":"ce4bhp92rcd13ifvqhag","pricing_plan_id":"free"},{"bike_id":"bb90a34b-3d33-434d-960c-40abe2f16ea4","system_id":"levelo_inurba_marseille","lat":43.31082,"lon":5.42439,"is_reserved":false,"is_disabled":false,"rental_uris":{"android":"levelo://app?vid=bb90a34b-3d33-434d-960c-40abe2f16ea4","ios":"levelo://app?vid=bb90a34b-3d33-434d-960c-40abe2f16ea4"},"vehicle_type_id":"4","last_reported":1703610362,"current_range_meters":28400,"station_id":"ce4bhp92rcd13ifvqhag","pricing_plan_id":"free"},{"bike_id":"fe40f035-2335-4a25-8f39-ac4a21b9afd5","system_id":"levelo_inurba_marseille","lat":43.273125,"lon":5.390731,"is_reserved":false,"is_disabled":false,"rental_uris":{"android":"levelo://app?vid=fe40f035-2335-4a25-8f39-ac4a21b9afd5","ios":"levelo://app?vid=fe40f035-2335-4a25-8f39-ac4a21b9afd5"},"vehicle_type_id":"4","last_reported":1703610362,"current_range_meters":22000,"station_id":"ce4bhgp2rcd13ifvqfe0","pricing_plan_id":"free"},{"bike_id":"1d15b6fb-4c0e-4446-a794-4d1a49148511","system_id":"levelo_inurba_marseille","lat":43.274103,"lon":5.394016,"is_reserved":false,"is_disabled":false,"rental_uris":{"android":"levelo://app?vid=1d15b6fb-4c0e-4446-a794-4d1a49148511","ios":"levelo://app?vid=1d15b6fb-4c0e-4446-a794-4d1a49148511"},"vehicle_type_id":"4","last_reported":1703610362,"current_range_meters":12000,"station_id":"ce4bhdp2rcd13ifvqf20","pricing_plan_id":"free"},{"bike_id":"5101677f-f514-415d-abbc-415dd1ae2306","system_id":"levelo_inurba_marseille","lat":43.274099,"lon":5.394019,"is_reserved":false,"is_disabled":false,"rental_uris":{"android":"levelo://app?vid=5101677f-f514-415d-abbc-415dd1ae2306","ios":"levelo://app?vid=5101677f-f514-415d-abbc-415dd1ae2306"},"vehicle_type_id":"4","last_reported":1703610362,"current_range_meters":23200,"station_id":"ce4bhdp2rcd13ifvqf20","pricing_plan_id":"free"},{"bike_id":"613b6997-581c-44e5-9330-00a696b75f97","system_id":"levelo_inurba_marseille","lat":43.274099,"lon":5.394019,"is_reserved":false,"is_disabled":false,"rental_uris":{"android":"levelo://app?vid=613b6997-581c-44e5-9330-00a696b75f97","ios":"levelo://app?vid=613b6997-581c-44e5-9330-00a696b75f97"},"vehicle_type_id":"4","last_reported":1703610362,"current_range_meters":28000,"station_id":"ce4bhdp2rcd13ifvqf20","pricing_plan_id":"free"},{"bike_id":"0a8ca4bd-c9d9-4d06-af72-4021d5041801","system_id":"levelo_inurba_marseille","lat":43.274103,"lon":5.394016,"is_reserved":false,"is_disabled":false,"rental_uris":{"android":"levelo://app?vid=0a8ca4bd-c9d9-4d06-af72-4021d5041801","ios":"levelo://app?vid=0a8ca4bd-c9d9-4d06-af72-4021d5041801"},"vehicle_type_id":"4","last_reported":1703610362,"current_range_meters":23600,"station_id":"ce4bhdp2rcd13ifvqf20","pricing_plan_id":"free"},{"bike_id":"d1e397f3-b139-4ced-98a7-ebc706af9675","system_id":"levelo_inurba_marseille","lat":43.304096,"lon":5.425385,"is_reserved":false,"is_disabled":false,"rental_uris":{"android":"levelo://app?vid=d1e397f3-b139-4ced-98a7-ebc706af9675","ios":"levelo://app?vid=d1e397f3-b139-4ced-98a7-ebc706af9675"},"vehicle_type_id":"4","last_reported":1703610362,"current_range_meters":800,"station_id":"ce4bhoh2rcd13ifvqh6g","pricing_plan_id":"free"},{"bike_id":"f6133491-ff83-415f-8a7d-195abfef63a4","system_id":"levelo_inurba_marseille","lat":43.304096,"lon":5.425385,"is_reserved":false,"is_disabled":false,"rental_uris":{"android":"levelo://app?vid=f6133491-ff83-415f-8a7d-195abfef63a4","ios":"levelo://app?vid=f6133491-ff83-415f-8a7d-195abfef63a4"},"vehicle_type_id":"4","last_reported":1703610362,"current_range_meters":28000,"station_id":"ce4bhoh2rcd13ifvqh6g","pricing_plan_id":"free"},{"bike_id":"23dbbee6-d4a1-4819-8d81-04184524b313","system_id":"levelo_inurba_marseille","lat":43.295511,"lon":5.422926,"is_reserved":false,"is_disabled":false,"rental_uris":{"android":"levelo://app?vid=23dbbee6-d4a1-4819-8d81-04184524b313","ios":"levelo://app?vid=23dbbee6-d4a1-4819-8d81-04184524b313"},"vehicle_type_id":"4","last_reported":1703610362,"current_range_meters":28000,"station_id":"ce4bhph2rcd13ifvqhdg","pricing_plan_id":"free"},{"bike_id":"e192df68-2c2b-482d-b6fd-3b8920434290","system_id":"levelo_inurba_marseille","lat":43.29555,"lon":5.42285,"is_reserved":false,"is_disabled":false,"rental_uris":{"android":"levelo://app?vid=e192df68-2c2b-482d-b6fd-3b8920434290","ios":"levelo://app?vid=e192df68-2c2b-482d-b6fd-3b8920434290"},