{"last_updated":1721416041,"ttl":30,"version":"2.2","data":{"bikes":[{"bike_id":"d1d81e54-fed9-443c-944a-6820c8a62e66","system_id":"levelo_inurba_marseille","lat":43.31251,"lon":5.36793,"is_reserved":false,"is_disabled":false,"rental_uris":{"android":"levelo://app?vid=d1d81e54-fed9-443c-944a-6820c8a62e66","ios":"levelo://app?vid=d1d81e54-fed9-443c-944a-6820c8a62e66"},"vehicle_type_id":"4","last_reported":1721416041,"current_range_meters":3600,"station_id":"","pricing_plan_id":"cebpf4jnsgd1na2vs0mg"},{"bike_id":"b6ae902f-b36c-4c9d-bd37-43bc789fb91d","system_id":"levelo_inurba_marseille","lat":43.313391,"lon":5.36706,"is_reserved":false,"is_disabled":false,"rental_uris":{"android":"levelo://app?vid=b6ae902f-b36c-4c9d-bd37-43bc789fb91d","ios":"levelo://app?vid=b6ae902f-b36c-4c9d-bd37-43bc789fb91d"},"vehicle_type_id":"4","last_reported":1721416041,"current_range_meters":6000,"station_id":"ce4bgr92rcd13ifvqc6g","pricing_plan_id":"cebpf4jnsgd1na2vs0mg"},{"bike_id":"c93b0c03-11c1-408b-8998-e95c2ae021da","system_id":"levelo_inurba_marseille","lat":43.312239,"lon":5.368562,"is_reserved":false,"is_disabled":false,"rental_uris":{"android":"levelo://app?vid=c93b0c03-11c1-408b-8998-e95c2ae021da","ios":"levelo://app?vid=c93b0c03-11c1-408b-8998-e95c2ae021da"},"vehicle_type_id":"4","last_reported":1721416041,"current_range_meters":8800,"station_id":"ce4bgl92rcd13ifvqbq0","pricing_plan_id":"cebpf4jnsgd1na2vs0mg"},{"bike_id":"c4d441aa-eec2-4824-9f06-fde1c220e0f8","system_id":"levelo_inurba_marseille","lat":43.31151,"lon":5.36902,"is_reserved":false,"is_disabled":false,"rental_uris":{"android":"levelo://app?vid=c4d441aa-eec2-4824-9f06-fde1c220e0f8","ios":"levelo://app?vid=c4d441aa-eec2-4824-9f06-fde1c220e0f8"},"vehicle_type_id":"4","last_reported":1721416041,"current_range_meters":0,"station_id":"","pricing_plan_id":"cebpf4jnsgd1na2vs0mg"},{"bike_id":"7ad27678-bceb-430f-a7d4-1c5fd703a44b","system_id":"levelo_inurba_marseille","lat":43.31485,"lon":5.37309,"is_reserved":false,"is_disabled":false,"rental_uris":{"android":"levelo://app?vid=7ad27678-bceb-430f-a7d4-1c5fd703a44b","ios":"levelo://app?vid=7ad27678-bceb-430f-a7d4-1c5fd703a44b"},"vehicle_type_id":"4","last_reported":1721416041,"current_range_meters":0,"station_id":"ce4bgt12rcd13ifvqcd0","pricing_plan_id":"cebpf4jnsgd1na2vs0mg"},{"bike_id":"8c480a88-62c2-46dd-89dd-0f6037db6b64","system_id":"levelo_inurba_marseille","lat":43.31488,"lon":5.37317,"is_reserved":false,"is_disabled":false,"rental_uris":{"android":"levelo://app?vid=8c480a88-62c2-46dd-89dd-0f6037db6b64","ios":"levelo://app?vid=8c480a88-62c2-46dd-89dd-0f6037db6b64"},"vehicle_type_id":"4","last_reported":1721416041,"current_range_meters":24800,"station_id":"","pricing_plan_id":"cebpf4jnsgd1na2vs0mg"},{"bike_id":"7df8dd4a-c865-4f29-b768-21740d0daaaa","system_id":"levelo_inurba_marseille","lat":43.314495,"lon":5.373782,"is_reserved":false,"is_disabled":false,"rental_uris":{"android":"levelo://app?vid=7df8dd4a-c865-4f29-b768-21740d0daaaa","ios":"levelo://app?vid=7df8dd4a-c865-4f29-b768-21740d0daaaa"},"vehicle_type_id":"4","last_reported":1721416041,"current_range_meters":27200,"station_id":"","pricing_plan_id":"cebpf4jnsgd1na2vs0mg"},{"bike_id":"e85b5f0d-415a-4092-b702-ebc034d265b7","system_id":"levelo_inurba_marseille","lat":43.30885,"lon":5.37195,"is_reserved":false,"is_disabled":false,"rental_uris":{"android":"levelo://app?vid=e85b5f0d-415a-4092-b702-ebc034d265b7","ios":"levelo://app?vid=e85b5f0d-415a-4092-b702-ebc034d265b7"},"vehicle_type_id":"4","last_reported":1721416041,"current_range_meters":0,"station_id":"ce4bguh2rcd13ifvqckg","pricing_plan_id":"cebpf4jnsgd1na2vs0mg"},{"bike_id":"4f843a89-c095-43ad-810f-70f65d0849d5","system_id":"levelo_inurba_marseille","lat":43.31847,"lon":5.36264,"is_reserved":false,"is_disabled":false,"rental_uris":{"android":"levelo://app?vid=4f843a89-c095-43ad-810f-70f65d0849d5","ios":"levelo://app?vid=4f843a89-c095-43ad-810f-70f65d0849d5"},"vehicle_type_id":"4","last_reported":1721416041,"current_range_meters":7200,"station_id":"","pricing_plan_id":"cebpf4jnsgd1na2vs0mg"},{"bike_id":"70465c97-b6ce-4cce-97b8-8a7b5d6bd44e","system_id":"levelo_inurba_marseille","lat":43.3053,"lon":5.36652,"is_reserved":false,"is_disabled":false,"rental_uris":{"android":"levelo://app?vid=70465c97-b6ce-4cce-97b8-8a7b5d6bd44e","ios":"levelo://app?vid=70465c97-b6ce-4cce-97b8-8a7b5d6bd44e"},"vehicle_type_id":"4","last_reported":1721416041,"current_range_meters":800,"station_id":"","pricing_plan_id":"cebpf4jnsgd1na2vs0mg"},{"bike_id":"2e90fb12-d999-43ed-bcd0-8bcaf5318145","system_id":"levelo_inurba_marseille","lat":43.305714,"lon":5.365633,"is_reserved":false,"is_disabled":false,"rental_uris":{"android":"levelo://app?vid=2e90fb12-d999-43ed-bcd0-8bcaf5318145","ios":"levelo://app?vid=2e90fb12-d999-43ed-bcd0-8bcaf5318145"},"vehicle_type_id":"4","last_reported":1721416041,"current_range_meters":2000,"station_id":"ce4bgs12rcd13ifvqcag","pricing_plan_id":"cebpf4jnsgd1na2vs0mg"},{"bike_id":"fe18a98a-e37c-4720-8443-0723d9e9df1e","system_id":"levelo_inurba_marseille","lat":43.307945,"lon":5.376487,"is_reserved":false,"is_disabled":false,"rental_uris":{"android":"levelo://app?vid=fe18a98a-e37c-4720-8443-0723d9e9df1e","ios":"levelo://app?vid=fe18a98a-e37c-4720-8443-0723d9e9df1e"},"vehicle_type_id":"4","last_reported":1721416041,"current_range_meters":20400,"station_id":"ce4bgv92rcd13ifvqcq0","pricing_plan_id":"cebpf4jnsgd1na2vs0mg"},{"bike_id":"7ea61c93-9b6c-4edc-a719-46e954cbd20c","system_id":"levelo_inurba_marseille","lat":43.30304,"lon":5.368987,"is_reserved":false,"is_disabled":false,"rental_uris":{"android":"levelo://app?vid=7ea61c93-9b6c-4edc-a719-46e954cbd20c","ios":"levelo://app?vid=7ea61c93-9b6c-4edc-a719-46e954cbd20c"},"vehicle_type_id":"4","last_reported":1721416041,"current_range_meters":11200,"station_id":"ce4bgqh2rcd13ifvqc5g","pricing_plan_id":"cebpf4jnsgd1na2vs0mg"},{"bike_id":"415536e0-490b-4426-a27d-26cbb37e0ab2","system_id":"levelo_inurba_marseille","lat":43.30305,"lon":5.36887,"is_reserved":false,"is_disabled":false,"rental_uris":{"android":"levelo://app?vid=415536e0-490b-4426-a27d-26cbb37e0ab2","ios":"levelo://app?vid=415536e0-490b-4426-a27d-26cbb37e0ab2"},"vehicle_type_id":"4","last_reported":1721416041,"current_range_meters":0,"station_id":"ce4bgqh2rcd13ifvqc5g","pricing_plan_id":"cebpf4jnsgd1na2vs0mg"},{"bike_id":"ac804ad5-589c-4f8a-b7db-49445509d0bc","system_id":"levelo_inurba_marseille","lat":43.315297,"lon":5.38036,"is_reserved":false,"is_disabled":false,"rental_uris":{"android":"levelo://app?vid=ac804ad5-589c-4f8a-b7db-49445509d0bc","ios":"levelo://app?vid=ac804ad5-589c-4f8a-b7db-49445509d0bc"},"vehicle_type_id":"4","last_reported":1721416041,"current_range_meters":800,"station_id":"ce4bhsp2rcd13ifvqi50","pricing_plan_id":"cebpf4jnsgd1na2vs0mg"},{"bike_id":"6c2e99c0-7a3c-4b65-a072-b59c38c57695","system_id":"levelo_inurba_marseille","lat":43.304606,"lon":5.379026,"is_reserved":false,"is_disabled":false,"rental_uris":{"android":"levelo://app?vid=6c2e99c0-7a3c-4b65-a072-b59c38c57695","ios":"levelo://app?vid=6c2e99c0-7a3c-4b65-a072-b59c38c57695"},"vehicle_type_id":"4","last_reported":1721416041,"current_range_meters":10000,"station_id":"ce4bgup2rcd13ifvqcn0","pricing_plan_id":"cebpf4jnsgd1na2vs0mg"},{"bike_id":"f310794e-798c-45c8-b5cb-a507813789fe","system_id":"levelo_inurba_marseille","lat":43.304606,"lon":5.379026,"is_reserved":false,"is_disabled":false,"rental_uris":{"android":"levelo://app?vid=f310794e-798c-45c8-b5cb-a507813789fe","ios":"levelo://app?vid=f310794e-798c-45c8-b5cb-a507813789fe"},"vehicle_type_id":"4","last_reported":1721416041,"current_range_meters":25600,"station_id":"ce4bgup2rcd13ifvqcn0","pricing_plan_id":"cebpf4jnsgd1na2vs0mg"},{"bike_id":"bb297152-9f12-4731-922f-918445dd11a7","system_id":"levelo_inurba_marseille","lat":43.304606,"lon":5.379026,"is_reserved":false,"is_disabled":false,"rental_uris":{"android":"levelo://app?vid=bb297152-9f12-4731-922f-918445dd11a7","ios":"levelo://app?vid=bb297152-9f12-4731-922f-918445dd11a7"},"vehicle_type_id":"4","last_reported":1721416041,"current_range_meters":0,"station_id":"ce4bgup2rcd13ifvqcn0","pricing_plan_id":"cebpf4jnsgd1na2vs0mg"},{"bike_id":"df6e76d7-8ccf-40f4-907a-54b125ceba4f","system_id":"levelo_inurba_marseille","lat":43.324771,"lon":5.36557,"is_reserved":false,"is_disabled":false,"rental_uris":{"android":"levelo://app?vid=df6e76d7-8ccf-40f4-907a-54b125ceba4f","ios":"levelo://app?vid=df6e76d7-8ccf-40f4-907a-54b125ceba4f"},"vehicle_type_id":"4","last_reported":1721416041,"current_range_meters":10800,"station_id":"ce4bhs12rcd13ifvqhvg","pricing_plan_id":"cebpf4jnsgd1na2vs0mg"},{"bike_id":"49c9174c-e04b-4e00-9848-b6d035396dd2","system_id":"levelo_inurba_marseille","lat":43.324771,"lon":5.36557,"is_reserved":false,"is_disabled":false,"rental_uris":{"android":"levelo://app?vid=49c9174c-e04b-4e00-9848-b6d035396dd2","ios":"levelo://app?vid=49c9174c-e04b-4e00-9848-b6d035396dd2"},"vehicle_type_id":"4","last_reported":1721416041,"current_range_meters":21600,"station_id":"ce4bhs12rcd13ifvqhvg","pricing_plan_id":"cebpf4jnsgd1na2vs0mg"},{"bike_id":"951bc901-c238-42d4-aac0-3c805623be77","system_id":"levelo_inurba_marseille","lat":43.32478,"lon":5.36578,"is_reserved":false,"is_disabled":false,"rental_uris":{"android":"levelo://app?vid=951bc901-c238-42d4-aac0-3c805623be77","ios":"levelo://app?vid=951bc901-c238-42d4-aac0-3c805623be77"},"vehicle_type_id":"4","last_reported":1721416041,"current_range_meters":0,"station_id":"ce4bhs12rcd13ifvqhvg","pricing_plan_id":"cebpf4jnsgd1na2vs0mg"},{"bike_id":"7300f5f5-41c7-4a61-bbdc-b550c07398ca","system_id":"levelo_inurba_marseille","lat":43.324771,"lon":5.36557,"is_reserved":false,"is_disabled":false,"rental_uris":{"android":"levelo://app?vid=7300f5f5-41c7-4a61-bbdc-b550c07398ca","ios":"levelo://app?vid=7300f5f5-41c7-4a61-bbdc-b550c07398ca"},"vehicle_type_id":"4","last_reported":1721416041,"current_range_meters":20000,"station_id":"ce4bhs12rcd13ifvqhvg","pricing_plan_id":"cebpf4jnsgd1na2vs0mg"},{"bike_id":"796940cd-d420-4793-85f3-3ead44f0ad2a","system_id":"levelo_inurba_marseille","lat":43.324771,"lon":5.36557,"is_reserved":false,"is_disabled":false,"rental_uris":{"android":"levelo://app?vid=796940cd-d420-4793-85f3-3ead44f0ad2a","ios":"levelo://app?vid=796940cd-d420-4793-85f3-3ead44f0ad2a"},"vehicle_type_id":"4","last_reported":1721416041,"current_range_meters":5200,"station_id":"ce4bhs12rcd13ifvqhvg","pricing_plan_id":"cebpf4jnsgd1na2vs0mg"},{"bike_id":"7be3282a-b6f6-4e7b-a1b0-43769aad1701","system_id":"levelo_inurba_marseille","lat":43.324771,"lon":5.36557,"is_reserved":false,"is_disabled":false,"rental_uris":{"android":"levelo://app?vid=7be3282a-b6f6-4e7b-a1b0-43769aad1701","ios":"levelo://app?vid=7be3282a-b6f6-4e7b-a1b0-43769aad1701"},"vehicle_type_id":"4","last_reported":1721416041,"current_range_meters":8400,"station_id":"ce4bhs12rcd13ifvqhvg","pricing_plan_id":"cebpf4jnsgd1na2vs0mg"},{"bike_id":"a355c726-fb69-4fd4-bba1-4e98caec148f","system_id":"levelo_inurba_marseille","lat":43.324771,"lon":5.36557,"is_reserved":false,"is_disabled":false,"rental_uris":{"android":"levelo://app?vid=a355c726-fb69-4fd4-bba1-4e98caec148f","ios":"levelo://app?vid=a355c726-fb69-4fd4-bba1-4e98caec148f"},"vehicle_type_id":"4","last_reported":1721416041,"current_range_meters":14000,"station_id":"ce4bhs12rcd13ifvqhvg","pricing_plan_id":"cebpf4jnsgd1na2vs0mg"},{"bike_id":"8f962ede-c569-4563-8b57-1cf223c13657","system_id":"levelo_inurba_marseille","lat":43.324771,"lon":5.36557,"is_reserved":false,"is_disabled":false,"rental_uris":{"android":"levelo://app?vid=8f962ede-c569-4563-8b57-1cf223c13657","ios":"levelo://app?vid=8f962ede-c569-4563-8b57-1cf223c13657"},"vehicle_type_id":"4","last_reported":1721416041,"current_range_meters":14800,"station_id":"ce4bhs12rcd13ifvqhvg","pricing_plan_id":"cebpf4jnsgd1na2vs0mg"},{"bike_id":"843acb09-ec00-42a4-8f8a-3a11a4562824","system_id":"levelo_inurba_marseille","lat":43.324771,"lon":5.36557,"is_reserved":false,"is_disabled":false,"rental_uris":{"android":"levelo://app?vid=843acb09-ec00-42a4-8f8a-3a11a4562824","ios":"levelo://app?vid=843acb09-ec00-42a4-8f8a-3a11a4562824"},"vehicle_type_id":"4","last_reported":1721416041,"current_range_meters":31200,"station_id":"ce4bhs12rcd13ifvqhvg","pricing_plan_id":"cebpf4jnsgd1na2vs0mg"},{"bike_id":"2cc0e66a-a2fa-466f-8a05-5990f0e1d535","system_id":"levelo_inurba_marseille","lat":43.324771,"lon":5.36557,"is_reserved":false,"is_disabled":false,"rental_uris":{"android":"levelo://app?vid=2cc0e66a-a2fa-466f-8a05-5990f0e1d535","ios":"levelo://app?vid=2cc0e66a-a2fa-466f-8a05-5990f0e1d535"},"vehicle_type_id":"4","last_reported":1721416041,"current_range_meters":6000,"station_id":"ce4bhs12rcd13ifvqhvg","pricing_plan_id":"cebpf4jnsgd1na2vs0mg"},{"bike_id":"2baca4ef-0d69-4564-91f0-6aa88a9ace5b","system_id":"levelo_inurba_marseille","lat":43.324771,"lon":5.36557,"is_reserved":false,"is_disabled":false,"rental_uris":{"android":"levelo://app?vid=2baca4ef-0d69-4564-91f0-6aa88a9ace5b","ios":"levelo://app?vid=2baca4ef-0d69-4564-91f0-6aa88a9ace5b"},"vehicle_type_id":"4","last_reported":1721416041,"current_range_meters":14800,"station_id":"ce4bhs12rcd13ifvqhvg","pricing_plan_id":"cebpf4jnsgd1na2vs0mg"},{"bike_id":"39577df3-6319-4773-adf6-d1d547950ee7","system_id":"levelo_inurba_marseille","lat":43.324771,"lon":5.36557,"is_reserved":false,"is_disabled":false,"rental_uris":{"android":"levelo://app?vid=39577df3-6319-4773-adf6-d1d547950ee7","ios":"levelo://app?vid=39577df3-6319-4773-adf6-d1d547950ee7"},"vehicle_type_id":"4","last_reported":1721416041,"current_range_meters":26800,"station_id":"ce4bhs12rcd13ifvqhvg","pricing_plan_id":"cebpf4jnsgd1na2vs0mg"},{"bike_id":"2a4d7f6e-5668-48c4-8949-a53bde7c2a9c","system_id":"levelo_inurba_marseille","lat":43.301429,"lon":5.37413,"is_reserved":false,"is_disabled":false,"rental_uris":{"android":"levelo://app?vid=2a4d7f6e-5668-48c4-8949-a53bde7c2a9c","ios":"levelo://app?vid=2a4d7f6e-5668-48c4-8949-a53bde7c2a9c"},"vehicle_type_id":"4","last_reported":1721416041,"current_range_meters":30400,"station_id":"ce4bgs92rcd13ifvqcc0","pricing_plan_id":"cebpf4jnsgd1na2vs0mg"},{"bike_id":"6b4d5ebb-1a02-49a2-9dc2-477a2a8d0264","system_id":"levelo_inurba_marseille","lat":43.301429,"lon":5.37413,"is_reserved":false,"is_disabled":false,"rental_uris":{"android":"levelo://app?vid=6b4d5ebb-1a02-49a2-9dc2-477a2a8d0264","ios":"levelo://app?vid=6b4d5ebb-1a02-49a2-9dc2-477a2a8d0264"},"vehicle_type_id":"4","last_reported":1721416041,"current_range_meters":27600,"station_id":"ce4bgs92rcd13ifvqcc0","pricing_plan_id":"cebpf4jnsgd1na2vs0mg"},{"bike_id":"3ce919f2-2df5-4f56-83b9-a2c0725df5a1","system_id":"levelo_inurba_marseille","lat":43.3057,"lon":5.38142,"is_reserved":false,"is_disabled":false,"rental_uris":{"android":"levelo://app?vid=3ce919f2-2df5-4f56-83b9-a2c0725df5a1","ios":"levelo://app?vid=3ce919f2-2df5-4f56-83b9-a2c0725df5a1"},"vehicle_type_id":"4","last_reported":1721416041,"current_range_meters":18000,"station_id":"","pricing_plan_id":"cebpf4jnsgd1na2vs0mg"},{"bike_id":"3623f93d-bd9b-4a41-86c9-409e8e4b7b21","system_id":"levelo_inurba_marseille","lat":43.319935,"lon":5.381699,"is_reserved":false,"is_disabled":false,"rental_uris":{"android":"levelo://app?vid=3623f93d-bd9b-4a41-86c9-409e8e4b7b21","ios":"levelo://app?vid=3623f93d-bd9b-4a41-86c9-409e8e4b7b21"},"vehicle_type_id":"4","last_reported":1721416041,"current_range_meters":19600,"station_id":"ce4bhr12rcd13ifvqhpg","pricing_plan_id":"cebpf4jnsgd1na2vs0mg"},{"bike_id":"f00e6450-c954-4601-95b6-9c991c1b244c","system_id":"levelo_inurba_marseille","lat":43.319935,"lon":5.381699,"is_reserved":false,"is_disabled":false,"rental_uris":{"android":"levelo://app?vid=f00e6450-c954-4601-95b6-9c991c1b244c","ios":"levelo://app?vid=f00e6450-c954-4601-95b6-9c991c1b244c"},"vehicle_type_id":"4","last_reported":1721416041,"current_range_meters":2400,"station_id":"ce4bhr12rcd13ifvqhpg","pricing_plan_id":"cebpf4jnsgd1na2vs0mg"},{"bike_id":"b4c5634e-2085-431a-b8a5-06785462b232","system_id":"levelo_inurba_marseille","lat":43.319935,"lon":5.381699,"is_reserved":false,"is_disabled":false,"rental_uris":{"android":"levelo://app?vid=b4c5634e-2085-431a-b8a5-06785462b232","ios":"levelo://app?vid=b4c5634e-2085-431a-b8a5-06785462b232"},"vehicle_type_id":"4","last_reported":1721416041,"current_range_meters":12400,"station_id":"ce4bhr12rcd13ifvqhpg","pricing_plan_id":"cebpf4jnsgd1na2vs0mg"},{"bike_id":"11ec9cb9-632e-4a00-b9d9-74178410641c","system_id":"levelo_inurba_marseille","lat":43.319935,"lon":5.381699,"is_reserved":false,"is_disabled":false,"rental_uris":{"android":"levelo://app?vid=11ec9cb9-632e-4a00-b9d9-74178410641c","ios":"levelo://app?vid=11ec9cb9-632e-4a00-b9d9-74178410641c"},"vehicle_type_id":"4","last_reported":1721416041,"current_range_meters":22800,"station_id":"ce4bhr12rcd13ifvqhpg","pricing_plan_id":"cebpf4jnsgd1na2vs0mg"},{"bike_id":"dd82ab65-4a82-49ac-a3ac-ee950b2df8b5","system_id":"levelo_inurba_marseille","lat":43.299724,"lon":5.371829,"is_reserved":false,"is_disabled":false,"rental_uris":{"android":"levelo://app?vid=dd82ab65-4a82-49ac-a3ac-ee950b2df8b5","ios":"levelo://app?vid=dd82ab65-4a82-49ac-a3ac-ee950b2df8b5"},"vehicle_type_id":"4","last_reported":1721416041,"current_range_meters":31600,"station_id":"ce4bgr92rcd13ifvqc7g","pricing_plan_id":"cebpf4jnsgd1na2vs0mg"},{"bike_id":"0d05d7e1-ec77-42b8-a6b6-f4db9275d65c","system_id":"levelo_inurba_marseille","lat":43.299724,"lon":5.371829,"is_reserved":false,"is_disabled":false,"rental_uris":{"android":"levelo://app?vid=0d05d7e1-ec77-42b8-a6b6-f4db9275d65c","ios":"levelo://app?vid=0d05d7e1-ec77-42b8-a6b6-f4db9275d65c"},"vehicle_type_id":"4","last_reported":1721416041,"current_range_meters":18400,"station_id":"ce4bgr92rcd13ifvqc7g","pricing_plan_id":"cebpf4jnsgd1na2vs0mg"},{"bike_id":"7738709d-72fb-499e-aced-369497859e73","system_id":"levelo_inurba_marseille","lat":43.299724,"lon":5.371829,"is_reserved":false,"is_disabled":false,"rental_uris":{"android":"levelo://app?vid=7738709d-72fb-499e-aced-369497859e73","ios":"levelo://app?vid=7738709d-72fb-499e-aced-369497859e73"},"vehicle_type_id":"4","last_reported":1721416041,"current_range_meters":28800,"station_id":"ce4bgr92rcd13ifvqc7g","pricing_plan_id":"cebpf4jnsgd1na2vs0mg"},{"bike_id":"2fea5d03-fdce-4f48-9138-4d12465e85a9","system_id":"levelo_inurba_marseille","lat":43.299724,"lon":5.371829,"is_reserved":false,"is_disabled":false,"rental_uris":{"android":"levelo://app?vid=2fea5d03-fdce-4f48-9138-4d12465e85a9","ios":"levelo://app?vid=2fea5d03-fdce-4f48-9138-4d12465e85a9"},"vehicle_type_id":"4","last_reported":1721416041,"current_range_meters":15200,"station_id":"ce4bgr92rcd13ifvqc7g","pricing_plan_id":"cebpf4jnsgd1na2vs0mg"},{"bike_id":"ed1024a4-e50b-48c8-8dd3-784461dfd7d4","system_id":"levelo_inurba_marseille","lat":43.298433,"lon":5.362774,"is_reserved":false,"is_disabled":false,"rental_uris":{"android":"levelo://app?vid=ed1024a4-e50b-48c8-8dd3-784461dfd7d4","ios":"levelo://app?vid=ed1024a4-e50b-48c8-8dd3-784461dfd7d4"},"vehicle_type_id":"4","last_reported":1721416041,"current_range_meters":6800,"station_id":"ce4bgpp2rcd13ifvqc3g","pricing_plan_id":"cebpf4jnsgd1na2vs0mg"},{"bike_id":"f05b01c9-e2d5-431c-a321-7c6c5d85c110","system_id":"levelo_inurba_marseille","lat":43.305364,"lon":5.384119,"is_reserved":false,"is_disabled":false,"rental_uris":{"android":"levelo://app?vid=f05b01c9-e2d5-431c-a321-7c6c5d85c110","ios":"levelo://app?vid=f05b01c9-e2d5-431c-a321-7c6c5d85c110"},"vehicle_type_id":"4","last_reported":1721416041,"current_range_meters":0,"station_id":"ce4bgg92rcd13ifvqb30","pricing_plan_id":"cebpf4jnsgd1na2vs0mg"},{"bike_id":"042400a1-0bb3-46e6-97a0-e19529e9a820","system_id":"levelo_inurba_marseille","lat":43.298433,"lon":5.362774,"is_reserved":false,"is_disabled":false,"rental_uris":{"android":"levelo://app?vid=042400a1-0bb3-46e6-97a0-e19529e9a820","ios":"levelo://app?vid=042400a1-0bb3-46e6-97a0-e19529e9a820"},"vehicle_type_id":"4","last_reported":1721416041,"current_range_meters":31200,"station_id":"ce4bgpp2rcd13ifvqc3g","pricing_plan_id":"cebpf4jnsgd1na2vs0mg"},{"bike_id":"cf4a43e0-1a5a-4422-849f-7b61071dd7df","system_id":"levelo_inurba_marseille","lat":43.298433,"lon":5.362774,"is_reserved":false,"is_disabled":false,"rental_uris":{"android":"levelo://app?vid=cf4a43e0-1a5a-4422-849f-7b61071dd7df","ios":"levelo://app?vid=cf4a43e0-1a5a-4422-849f-7b61071dd7df"},"vehicle_type_id":"4","last_reported":1721416041,"current_range_meters":17200,"station_id":"ce4bgpp2rcd13ifvqc3g","pricing_plan_id":"cebpf4jnsgd1na2vs0mg"},{"bike_id":"3587915d-39bd-42db-8cce-c204bd1bb4ac","system_id":"levelo_inurba_marseille","lat":43.30629,"lon":5.38502,"is_reserved":false,"is_disabled":false,"rental_uris":{"android":"levelo://app?vid=3587915d-39bd-42db-8cce-c204bd1bb4ac","ios":"levelo://app?vid=3587915d-39bd-42db-8cce-c204bd1bb4ac"},"vehicle_type_id":"4","last_reported":1721416041,"current_range_meters":12800,"station_id":"","pricing_plan_id":"cebpf4jnsgd1na2vs0mg"},{"bike_id":"27877c1c-61d1-4d84-b51f-a293d7cac9fc","system_id":"levelo_inurba_marseille","lat":43.298433,"lon":5.362774,"is_reserved":false,"is_disabled":false,"rental_uris":{"android":"levelo://app?vid=27877c1c-61d1-4d84-b51f-a293d7cac9fc","ios":"levelo://app?vid=27877c1c-61d1-4d84-b51f-a293d7cac9fc"},"vehicle_type_id":"4","last_reported":1721416041,"current_range_meters":23600,"station_id":"ce4bgpp2rcd13ifvqc3g","pricing_plan_id":"cebpf4jnsgd1na2vs0mg"},{"bike_id":"f03c08f8-c775-4b31-a71e-49e18e5787ee","system_id":"levelo_inurba_marseille","lat":43.298433,"lon":5.362774,"is_reserved":false,"is_disabled":false,"rental_uris":{"android":"levelo://app?vid=f03c08f8-c775-4b31-a71e-49e18e5787ee","ios":"levelo://app?vid=f03c08f8-c775-4b31-a71e-49e18e5787ee"},"vehicle_type_id":"4","last_reported":1721416041,"current_range_meters":0,"station_id":"ce4bgpp2rcd13ifvqc3g","pricing_plan_id":"cebpf4jnsgd1na2vs0mg"},{"bike_id":"f45e669a-cc19-4a31-9a6f-90bcda7468bc","system_id":"levelo_inurba_marseille","lat":43.31166,"lon":5.38718,"is_reserved":false,"is_disabled":false,"rental_uris":{"android":"levelo://app?vid=f45e669a-cc19-4a31-9a6f-90bcda7468bc","ios":"levelo://app?vid=f45e669a-cc19-4a31-9a6f-90bcda7468bc"},"vehicle_type_id":"4","last_reported":1721416041,"current_range_meters":0,"station_id":"ce4bgv12rcd13ifvqcp0","pricing_plan_id":"cebpf4jnsgd1na2vs0mg"},{"bike_id":"1c356ae7-389b-4f43-a37e-9ffa7c621446","system_id":"levelo_inurba_marseille","lat":43.298433,"lon":5.362774,"is_reserved":false,"is_disabled":false,"rental_uris":{"android":"levelo://app?vid=1c356ae7-389b-4f43-a37e-9ffa7c621446","ios":"levelo://app?vid=1c356ae7-389b-4f43-a37e-9ffa7c621446"},"vehicle_type_id":"4","last_reported":1721416041,"current_range_meters":400,"station_id":"ce4bgpp2rcd13ifvqc3g","pricing_plan_id":"cebpf4jnsgd1na2vs0mg"},{"bike_id":"b05b1b16-dce3-4729-a811-0151d87370d0","system_id":"levelo_inurba_marseille","lat":43.297774,"lon":5.370875,"is_reserved":false,"is_disabled":false,"rental_uris":{"android":"levelo://app?vid=b05b1b16-dce3-4729-a811-0151d87370d0","ios":"levelo://app?vid=b05b1b16-dce3-4729-a811-0151d87370d0"},"vehicle_type_id":"4","last_reported":1721416041,"current_range_meters":12000,"station_id":"ce4bgop2rcd13ifvqc1g","pricing_plan_id":"cebpf4jnsgd1na2vs0mg"},{"bike_id":"fb9fd9e3-eb28-4d5b-9afb-080732e7f94f","system_id":"levelo_inurba_marseille","lat":43.297794,"lon":5.370888,"is_reserved":false,"is_disabled":false,"rental_uris":{"android":"levelo://app?vid=fb9fd9e3-eb28-4d5b-9afb-080732e7f94f","ios":"levelo://app?vid=fb9fd9e3-eb28-4d5b-9afb-080732e7f94f"},"vehicle_type_id":"4","last_reported":1721416041,"current_range_meters":19600,"station_id":"ce4bgop2rcd13ifvqc1g","pricing_plan_id":"cebpf4jnsgd1na2vs0mg"},{"bike_id":"16de8ca8-2988-44a8-a5f4-adf199333755","system_id":"levelo_inurba_marseille","lat":43.297774,"lon":5.370875,"is_reserved":false,"is_disabled":false,"rental_uris":{"android":"levelo://app?vid=16de8ca8-2988-44a8-a5f4-adf199333755","ios":"levelo://app?vid=16de8ca8-2988-44a8-a5f4-adf199333755"},"vehicle_type_id":"4","last_reported":1721416041,"current_range_meters":8400,"station_id":"ce4bgop2rcd13ifvqc1g","pricing_plan_id":"cebpf4jnsgd1na2vs0mg"},{"bike_id":"be5f13fd-c276-488a-93e7-12b96e3b5009","system_id":"levelo_inurba_marseille","lat":43.297774,"lon":5.370875,"is_reserved":false,"is_disabled":false,"rental_uris":{"android":"levelo://app?vid=be5f13fd-c276-488a-93e7-12b96e3b5009","ios":"levelo://app?vid=be5f13fd-c276-488a-93e7-12b96e3b5009"},"vehicle_type_id":"4","last_reported":1721416041,"current_range_meters":3200,"station_id":"ce4bgop2rcd13ifvqc1g","pricing_plan_id":"cebpf4jnsgd1na2vs0mg"},{"bike_id":"7f90810c-439b-41b4-ba3a-873adca15b30","system_id":"levelo_inurba_marseille","lat":43.297794,"lon":5.370888,"is_reserved":false,"is_disabled":false,"rental_uris":{"android":"levelo://app?vid=7f90810c-439b-41b4-ba3a-873adca15b30","ios":"levelo://app?vid=7f90810c-439b-41b4-ba3a-873adca15b30"},"vehicle_type_id":"4","last_reported":1721416041,"current_range_meters":31600,"station_id":"ce4bgop2rcd13ifvqc1g","pricing_plan_id":"cebpf4jnsgd1na2vs0mg"},{"bike_id":"f5d24c24-df7c-463b-81c4-a2c8870e0a5c","system_id":"levelo_inurba_marseille","lat":43.297794,"lon":5.370888,"is_reserved":false,"is_disabled":false,"rental_uris":{"android":"levelo://app?vid=f5d24c24-df7c-463b-81c4-a2c8870e0a5c","ios":"levelo://app?vid=f5d24c24-df7c-463b-81c4-a2c8870e0a5c"},"vehicle_type_id":"4","last_reported":1721416041,"current_range_meters":3200,"station_id":"ce4bgop2rcd13ifvqc1g","pricing_plan_id":"cebpf4jnsgd1na2vs0mg"},{"bike_id":"900fd1f5-4285-432c-93a3-d494a844bcbf","system_id":"levelo_inurba_marseille","lat":43.297794,"lon":5.370888,"is_reserved":false,"is_disabled":false,"rental_uris":{"android":"levelo://app?vid=900fd1f5-4285-432c-93a3-d494a844bcbf","ios":"levelo://app?vid=900fd1f5-4285-432c-93a3-d494a844bcbf"},"vehicle_type_id":"4","last_reported":1721416041,"current_range_meters":29200,"station_id":"ce4bgop2rcd13ifvqc1g","pricing_plan_id":"cebpf4jnsgd1na2vs0mg"},{"bike_id":"261ce9a1-d6bd-43e1-be0e-57b0da051510","system_id":"levelo_inurba_marseille","lat":43.297774,"lon":5.370875,"is_reserved":false,"is_disabled":false,"rental_uris":{"android":"levelo://app?vid=261ce9a1-d6bd-43e1-be0e-57b0da051510","ios":"levelo://app?vid=261ce9a1-d6bd-43e1-be0e-57b0da051510"},"vehicle_type_id":"4","last_reported":1721416041,"current_range_meters":1200,"station_id":"ce4bgop2rcd13ifvqc1g","pricing_plan_id":"cebpf4jnsgd1na2vs0mg"},{"bike_id":"7b631476-17e6-4279-bcd5-d74b0ad2fd48","system_id":"levelo_inurba_marseille","lat":43.322872,"lon":5.382756,"is_reserved":false,"is_disabled":false,"rental_uris":{"android":"levelo://app?vid=7b631476-17e6-4279-bcd5-d74b0ad2fd48","ios":"levelo://app?vid=7b631476-17e6-4279-bcd5-d74b0ad2fd48"},"vehicle_type_id":"4","last_reported":1721416041,"current_range_meters":28400,"station_id":"ce4bhr12rcd13ifvqhqg","pricing_plan_id":"cebpf4jnsgd1na2vs0mg"},{"bike_id":"2c871ecd-e6e7-4749-b233-2b91a6c3efa8","system_id":"levelo_inurba_marseille","lat":43.297163,"lon":5.365866,"is_reserved":false,"is_disabled":false,"rental_uris":{"android":"levelo://app?vid=2c871ecd-e6e7-4749-b233-2b91a6c3efa8","ios":"levelo://app?vid=2c871ecd-e6e7-4749-b233-2b91a6c3efa8"},"vehicle_type_id":"4","last_reported":1721416041,"current_range_meters":6800,"station_id":"ce4bgn12rcd13ifvqbt0","pricing_plan_id":"cebpf4jnsgd1na2vs0mg"},{"bike_id":"6b58fbf3-460a-4706-8bfc-a65cad25df9f","system_id":"levelo_inurba_marseille","lat":43.297794,"lon":5.370888,"is_reserved":false,"is_disabled":false,"rental_uris":{"android":"levelo://app?vid=6b58fbf3-460a-4706-8bfc-a65cad25df9f","ios":"levelo://app?vid=6b58fbf3-460a-4706-8bfc-a65cad25df9f"},"vehicle_type_id":"4","last_reported":1721416041,"current_range_meters":23200,"station_id":"ce4bgop2rcd13ifvqc1g","pricing_plan_id":"cebpf4jnsgd1na2vs0mg"},{"bike_id":"e08167f8-c295-49a7-bd4e-df13ce4c26a3","system_id":"levelo_inurba_marseille","lat":43.308,"lon":5.38786,"is_reserved":false,"is_disabled":false,"rental_uris":{"android":"levelo://app?vid=e08167f8-c295-49a7-bd4e-df13ce4c26a3","ios":"levelo://app?vid=e08167f8-c295-49a7-bd4e-df13ce4c26a3"},"vehicle_type_id":"4","last_reported":1721416041,"current_range_meters":7600,"station_id":"","pricing_plan_id":"cebpf4jnsgd1na2vs0mg"},{"bike_id":"65ffde72-36fb-4138-9dee-b8dc889fb8b7","system_id":"levelo_inurba_marseille","lat":43.297794,"lon":5.370888,"is_reserved":false,"is_disabled":false,"rental_uris":{"android":"levelo://app?vid=65ffde72-36fb-4138-9dee-b8dc889fb8b7","ios":"levelo://app?vid=65ffde72-36fb-4138-9dee-b8dc889fb8b7"},"vehicle_type_id":"4","last_reported":1721416041,"current_range_meters":8400,"station_id":"ce4bgop2rcd13ifvqc1g","pricing_plan_id":"cebpf4jnsgd1na2vs0mg"},{"bike_id":"1a3985e2-8c6c-4ef9-bfeb-ca3fdd163438","system_id":"levelo_inurba_marseille","lat":43.2968,"lon":5.37291,"is_reserved":false,"is_disabled":false,"rental_uris":{"android":"levelo://app?vid=1a3985e2-8c6c-4ef9-bfeb-ca3fdd163438","ios":"levelo://app?vid=1a3985e2-8c6c-4ef9-bfeb-ca3fdd163438"},"vehicle_type_id":"4","last_reported":1721416041,"current_range_meters":10400,"station_id":"ce4bgk12rcd13ifvqbj0","pricing_plan_id":"cebpf4jnsgd1na2vs0mg"},{"bike_id":"f2cb8086-7272-4a90-9ed0-90c2c8e9c8f7","system_id":"levelo_inurba_marseille","lat":43.2968,"lon":5.37291,"is_reserved":false,"is_disabled":false,"rental_uris":{"android":"levelo://app?vid=f2cb8086-7272-4a90-9ed0-90c2c8e9c8f7","ios":"levelo://app?vid=f2cb8086-7272-4a90-9ed0-90c2c8e9c8f7"},"vehicle_type_id":"4","last_reported":1721416041,"current_range_meters":28800,"station_id":"ce4bgk12rcd13ifvqbj0","pricing_plan_id":"cebpf4jnsgd1na2vs0mg"},{"bike_id":"ef633512-5053-4a04-9563-15c5ce9a20ac","system_id":"levelo_inurba_marseille","lat":43.2968,"lon":5.37291,"is_reserved":false,"is_disabled":false,"rental_uris":{"android":"levelo://app?vid=ef633512-5053-4a04-9563-15c5ce9a20ac","ios":"levelo://app?vid=ef633512-5053-4a04-9563-15c5ce9a20ac"},"vehicle_type_id":"4","last_reported":1721416041,"current_range_meters":31200,"station_id":"ce4bgk12rcd13ifvqbj0","pricing_plan_id":"cebpf4jnsgd1na2vs0mg"},{"bike_id":"ab12b91e-c2b5-42fb-865c-ab80e869abba","system_id":"levelo_inurba_marseille","lat":43.2968,"lon":5.37291,"is_reserved":false,"is_disabled":false,"rental_uris":{"android":"levelo://app?vid=ab12b91e-c2b5-42fb-865c-ab80e869abba","ios":"levelo://app?vid=ab12b91e-c2b5-42fb-865c-ab80e869abba"},"vehicle_type_id":"4","last_reported":1721416041,"current_range_meters":24400,"station_id":"ce4bgk12rcd13ifvqbj0","pricing_plan_id":"cebpf4jnsgd1na2vs0mg"},{"bike_id":"302a6ea4-09db-4b80-b260-90cbbc2f2e78","system_id":"levelo_inurba_marseille","lat":43.2968,"lon":5.37291,"is_reserved":false,"is_disabled":false,"rental_uris":{"android":"levelo://app?vid=302a6ea4-09db-4b80-b260-90cbbc2f2e78","ios":"levelo://app?vid=302a6ea4-09db-4b80-b260-90cbbc2f2e78"},"vehicle_type_id":"4","last_reported":1721416041,"current_range_meters":19600,"station_id":"ce4bgk12rcd13ifvqbj0","pricing_plan_id":"cebpf4jnsgd1na2vs0mg"},{"bike_id":"3ffff01a-51cd-474b-b10d-e5be36f0ab57","system_id":"levelo_inurba_marseille","lat":43.2968,"lon":5.37291,"is_reserved":false,"is_disabled":false,"rental_uris":{"android":"levelo://app?vid=3ffff01a-51cd-474b-b10d-e5be36f0ab57","ios":"levelo://app?vid=3ffff01a-51cd-474b-b10d-e5be36f0ab57"},"vehicle_type_id":"4","last_reported":1721416041,"current_range_meters":31200,"station_id":"ce4bgk12rcd13ifvqbj0","pricing_plan_id":"cebpf4jnsgd1na2vs0mg"},{"bike_id":"068ce660-8917-4a71-a947-40a0ea2ce91e","system_id":"levelo_inurba_marseille","lat":43.2968,"lon":5.37291,"is_reserved":false,"is_disabled":false,"rental_uris":{"android":"levelo://app?vid=068ce660-8917-4a71-a947-40a0ea2ce91e","ios":"levelo://app?vid=068ce660-8917-4a71-a947-40a0ea2ce91e"},"vehicle_type_id":"4","last_reported":1721416041,"current_range_meters":5200,"station_id":"ce4bgk12rcd13ifvqbj0","pricing_plan_id":"cebpf4jnsgd1na2vs0mg"},{"bike_id":"8fcae39e-453e-4077-a17d-2ebc4fde73a7","system_id":"levelo_inurba_marseille","lat":43.2968,"lon":5.37291,"is_reserved":false,"is_disabled":false,"rental_uris":{"android":"levelo://app?vid=8fcae39e-453e-4077-a17d-2ebc4fde73a7","ios":"levelo://app?vid=8fcae39e-453e-4077-a17d-2ebc4fde73a7"},"vehicle_type_id":"4","last_reported":1721416041,"current_range_meters":15200,"station_id":"ce4bgk12rcd13ifvqbj0","pricing_plan_id":"cebpf4jnsgd1na2vs0mg"},{"bike_id":"c50e88b8-49f7-46e5-98aa-4ee5a833d4ed","system_id":"levelo_inurba_marseille","lat":43.296129,"lon":5.370777,"is_reserved":false,"is_disabled":false,"rental_uris":{"android":"levelo://app?vid=c50e88b8-49f7-46e5-98aa-4ee5a833d4ed","ios":"levelo://app?vid=c50e88b8-49f7-46e5-98aa-4ee5a833d4ed"},"vehicle_type_id":"4","last_reported":1721416041,"current_range_meters":16400,"station_id":"ce4bgnh2rcd13ifvqc0g","pricing_plan_id":"cebpf4jnsgd1na2vs0mg"},{"bike_id":"f2aafacc-45d8-4013-8ade-e0d3cd65d0b2","system_id":"levelo_inurba_marseille","lat":43.296131,"lon":5.370791,"is_reserved":false,"is_disabled":false,"rental_uris":{"android":"levelo://app?vid=f2aafacc-45d8-4013-8ade-e0d3cd65d0b2","ios":"levelo://app?vid=f2aafacc-45d8-4013-8ade-e0d3cd65d0b2"},"vehicle_type_id":"4","last_reported":1721416041,"current_range_meters":31200,"station_id":"ce4bgnh2rcd13ifvqc0g","pricing_plan_id":"cebpf4jnsgd1na2vs0mg"},{"bike_id":"644d46d1-40df-417b-9c9a-729b7f59411f","system_id":"levelo_inurba_marseille","lat":43.296129,"lon":5.370777,"is_reserved":false,"is_disabled":false,"rental_uris":{"android":"levelo://app?vid=644d46d1-40df-417b-9c9a-729b7f59411f","ios":"levelo://app?vid=644d46d1-40df-417b-9c9a-729b7f59411f"},"vehicle_type_id":"4","last_reported":1721416041,"current_range_meters":3600,"station_id":"ce4bgnh2rcd13ifvqc0g","pricing_plan_id":"cebpf4jnsgd1na2vs0mg"},{"bike_id":"74a5493c-61ed-4a33-8535-9b9560c8d206","system_id":"levelo_inurba_marseille","lat":43.296129,"lon":5.370777,"is_reserved":false,"is_disabled":false,"rental_uris":{"android":"levelo://app?vid=74a5493c-61ed-4a33-8535-9b9560c8d206","ios":"levelo://app?vid=74a5493c-61ed-4a33-8535-9b9560c8d206"},"vehicle_type_id":"4","last_reported":1721416041,"current_range_meters":15200,"station_id":"ce4bgnh2rcd13ifvqc0g","pricing_plan_id":"cebpf4jnsgd1na2vs0mg"},{"bike_id":"f8bd7348-9b80-4382-a0d5-bfe7c4db70df","system_id":"levelo_inurba_marseille","lat":43.29622,"lon":5.37158,"is_reserved":false,"is_disabled":false,"rental_uris":{"android":"levelo://app?vid=f8bd7348-9b80-4382-a0d5-bfe7c4db70df","ios":"levelo://app?vid=f8bd7348-9b80-4382-a0d5-bfe7c4db70df"},"vehicle_type_id":"4","last_reported":1721416041,"current_range_meters":4400,"station_id":"ce4bgnh2rcd13ifvqc0g","pricing_plan_id":"cebpf4jnsgd1na2vs0mg"},{"bike_id":"491c2ac5-4b4c-4aaa-9ff7-976fbf780d31","system_id":"levelo_inurba_marseille","lat":43.296129,"lon":5.370777,"is_reserved":false,"is_disabled":false,"rental_uris":{"android":"levelo://app?vid=491c2ac5-4b4c-4aaa-9ff7-976fbf780d31","ios":"levelo://app?vid=491c2ac5-4b4c-4aaa-9ff7-976fbf780d31"},"vehicle_type_id":"4","last_reported":1721416041,"current_range_meters":31200,"station_id":"ce4bgnh2rcd13ifvqc0g","pricing_plan_id":"cebpf4jnsgd1na2vs0mg"},{"bike_id":"511ba777-096a-4940-a1a7-b5b32891d24b","system_id":"levelo_inurba_marseille","lat":43.29624,"lon":5.37172,"is_reserved":false,"is_disabled":false,"rental_uris":{"android":"levelo://app?vid=511ba777-096a-4940-a1a7-b5b32891d24b","ios":"levelo://app?vid=511ba777-096a-4940-a1a7-b5b32891d24b"},"vehicle_type_id":"4","last_reported":1721416041,"current_range_meters":29600,"station_id":"ce4bgnh2rcd13ifvqc0g","pricing_plan_id":"cebpf4jnsgd1na2vs0mg"},{"bike_id":"c2c66ddc-cd4f-434f-877e-85c0da00cde2","system_id":"levelo_inurba_marseille","lat":43.296131,"lon":5.370791,"is_reserved":false,"is_disabled":false,"rental_uris":{"android":"levelo://app?vid=c2c66ddc-cd4f-434f-877e-85c0da00cde2","ios":"levelo://app?vid=c2c66ddc-cd4f-434f-877e-85c0da00cde2"},"vehicle_type_id":"4","last_reported":1721416041,"current_range_meters":6800,"station_id":"ce4bgnh2rcd13ifvqc0g","pricing_plan_id":"cebpf4jnsgd1na2vs0mg"},{"bike_id":"f369082b-5fc9-419a-bc72-0afeefcd9d38","system_id":"levelo_inurba_marseille","lat":43.296129,"lon":5.370777,"is_reserved":false,"is_disabled":false,"rental_uris":{"android":"levelo://app?vid=f369082b-5fc9-419a-bc72-0afeefcd9d38","ios":"levelo://app?vid=f369082b-5fc9-419a-bc72-0afeefcd9d38"},"vehicle_type_id":"4","last_reported":1721416041,"current_range_meters":9600,"station_id":"ce4bgnh2rcd13ifvqc0g","pricing_plan_id":"cebpf4jnsgd1na2vs0mg"},{"bike_id":"ed722c19-18df-4997-ac72-1471046115a2","system_id":"levelo_inurba_marseille","lat":43.29623,"lon":5.37173,"is_reserved":false,"is_disabled":false,"rental_uris":{"android":"levelo://app?vid=ed722c19-18df-4997-ac72-1471046115a2","ios":"levelo://app?vid=ed722c19-18df-4997-ac72-1471046115a2"},"vehicle_type_id":"4","last_reported":1721416041,"current_range_meters":6400,"station_id":"ce4bgnh2rcd13ifvqc0g","pricing_plan_id":"cebpf4jnsgd1na2vs0mg"},{"bike_id":"91952cc5-ae99-45b8-bb95-b79c5af58ab7","system_id":"levelo_inurba_marseille","lat":43.29623,"lon":5.37173,"is_reserved":false,"is_disabled":false,"rental_uris":{"android":"levelo://app?vid=91952cc5-ae99-45b8-bb95-b79c5af58ab7","ios":"levelo://app?vid=91952cc5-ae99-45b8-bb95-b79c5af58ab7"},"vehicle_type_id":"4","last_reported":1721416041,"current_range_meters":0,"station_id":"ce4bgnh2rcd13ifvqc0g","pricing_plan_id":"cebpf4jnsgd1na2vs0mg"},{"bike_id":"818df5c1-bed0-43cd-9a89-697c8601c9bd","system_id":"levelo_inurba_marseille","lat":43.29622,"lon":5.37171,"is_reserved":false,"is_disabled":false,"rental_uris":{"android":"levelo://app?vid=818df5c1-bed0-43cd-9a89-697c8601c9bd","ios":"levelo://app?vid=818df5c1-bed0-43cd-9a89-697c8601c9bd"},"vehicle_type_id":"4","last_reported":1721416041,"current_range_meters":11600,"station_id":"ce4bgnh2rcd13ifvqc0g","pricing_plan_id":"cebpf4jnsgd1na2vs0mg"},{"bike_id":"f85f287f-51fd-40ee-b01e-fccdec9dbe71","system_id":"levelo_inurba_marseille","lat":43.29623,"lon":5.37178,"is_reserved":false,"is_disabled":false,"rental_uris":{"android":"levelo://app?vid=f85f287f-51fd-40ee-b01e-fccdec9dbe71","ios":"levelo://app?vid=f85f287f-51fd-40ee-b01e-fccdec9dbe71"},"vehicle_type_id":"4","last_reported":1721416041,"current_range_meters":26000,"station_id":"ce4bgnh2rcd13ifvqc0g","pricing_plan_id":"cebpf4jnsgd1na2vs0mg"},{"bike_id":"a44856a8-2638-4afd-8bdf-7b3bf69dfe43","system_id":"levelo_inurba_marseille","lat":43.29622,"lon":5.37172,"is_reserved":false,"is_disabled":false,"rental_uris":{"android":"levelo://app?vid=a44856a8-2638-4afd-8bdf-7b3bf69dfe43","ios":"levelo://app?vid=a44856a8-2638-4afd-8bdf-7b3bf69dfe43"},"vehicle_type_id":"4","last_reported":1721416041,"current_range_meters":29600,"station_id":"ce4bgnh2rcd13ifvqc0g","pricing_plan_id":"cebpf4jnsgd1na2vs0mg"},{"bike_id":"0e2b1ea1-b658-4652-9230-416e3f5a0329","system_id":"levelo_inurba_marseille","lat":43.296129,"lon":5.370777,"is_reserved":false,"is_disabled":false,"rental_uris":{"android":"levelo://app?vid=0e2b1ea1-b658-4652-9230-416e3f5a0329","ios":"levelo://app?vid=0e2b1ea1-b658-4652-9230-416e3f5a0329"},"vehicle_type_id":"4","last_reported":1721416041,"current_range_meters":30800,"station_id":"ce4bgnh2rcd13ifvqc0g","pricing_plan_id":"cebpf4jnsgd1na2vs0mg"},{"bike_id":"08d17806-558f-46d9-9b87-4960c05821e8","system_id":"levelo_inurba_marseille","lat":43.29621,"lon":5.3717,"is_reserved":false,"is_disabled":false,"rental_uris":{"android":"levelo://app?vid=08d17806-558f-46d9-9b87-4960c05821e8","ios":"levelo://app?vid=08d17806-558f-46d9-9b87-4960c05821e8"},"vehicle_type_id":"4","last_reported":1721416041,"current_range_meters":400,"station_id":"ce4bgnh2rcd13ifvqc0g","pricing_plan_id":"cebpf4jnsgd1na2vs0mg"},{"bike_id":"d3e833e4-7e78-488b-be9d-a8c096e6cf2d","system_id":"levelo_inurba_marseille","lat":43.2962,"lon":5.37167,"is_reserved":false,"is_disabled":false,"rental_uris":{"android":"levelo://app?vid=d3e833e4-7e78-488b-be9d-a8c096e6cf2d","ios":"levelo://app?vid=d3e833e4-7e78-488b-be9d-a8c096e6cf2d"},"vehicle_type_id":"4","last_reported":1721416041,"current_range_meters":17600,"station_id":"ce4bgnh2rcd13ifvqc0g","pricing_plan_id":"cebpf4jnsgd1na2vs0mg"},{"bike_id":"3a19dc54-dde0-4c4d-87dd-1a5fb44dfa41","system_id":"levelo_inurba_marseille","lat":43.296129,"lon":5.370777,"is_reserved":false,"is_disabled":false,"rental_uris":{"android":"levelo://app?vid=3a19dc54-dde0-4c4d-87dd-1a5fb44dfa41","ios":"levelo://app?vid=3a19dc54-dde0-4c4d-87dd-1a5fb44dfa41"},"vehicle_type_id":"4","last_reported":1721416041,"current_range_meters":5200,"station_id":"ce4bgnh2rcd13ifvqc0g","pricing_plan_id":"cebpf4jnsgd1na2vs0mg"},{"bike_id":"d8cce9a3-d7f4-4475-ada4-98992596e778","system_id":"levelo_inurba_marseille","lat":43.2962,"lon":5.37174,"is_reserved":false,"is_disabled":false,"rental_uris":{"android":"levelo://app?vid=d8cce9a3-d7f4-4475-ada4-98992596e778","ios":"levelo://app?vid=d8cce9a3-d7f4-4475-ada4-98992596e778"},"vehicle_type_id":"4","last_reported":1721416041,"current_range_meters":15200,"station_id":"ce4bgnh2rcd13ifvqc0g","pricing_plan_id":"cebpf4jnsgd1na2vs0mg"},{"bike_id":"18244631-d897-4ca6-8149-c00c20bf9e7b","system_id":"levelo_inurba_marseille","lat":43.296129,"lon":5.370777,"is_reserved":false,"is_disabled":false,"rental_uris":{"android":"levelo://app?vid=18244631-d897-4ca6-8149-c00c20bf9e7b","ios":"levelo://app?vid=18244631-d897-4ca6-8149-c00c20bf9e7b"},"vehicle_type_id":"4","last_reported":1721416041,"current_range_meters":16800,"station_id":"ce4bgnh2rcd13ifvqc0g","pricing_plan_id":"cebpf4jnsgd1na2vs0mg"},{"bike_id":"d1144b8b-6f2f-4c7a-935e-3f37da4ecca5","system_id":"levelo_inurba_marseille","lat":43.29573,"lon":5.367355,"is_reserved":false,"is_disabled":false,"rental_uris":{"android":"levelo://app?vid=d1144b8b-6f2f-4c7a-935e-3f37da4ecca5","ios":"levelo://app?vid=d1144b8b-6f2f-4c7a-935e-3f37da4ecca5"},"vehicle_type_id":"4","last_reported":1721416041,"current_range_meters":20400,"station_id":"ce4bgph2rcd13ifvqc2g","pricing_plan_id":"cebpf4jnsgd1na2vs0mg"},{"bike_id":"a84e02fc-ffb2-4cc9-9ab7-c28bc43c2da8","system_id":"levelo_inurba_marseille","lat":43.29573,"lon":5.367355,"is_reserved":false,"is_disabled":false,"rental_uris":{"android":"levelo://app?vid=a84e02fc-ffb2-4cc9-9ab7-c28bc43c2da8","ios":"levelo://app?vid=a84e02fc-ffb2-4cc9-9ab7-c28bc43c2da8"},"vehicle_type_id":"4","last_reported":1721416041,"current_range_meters":2000,"station_id":"ce4bgph2rcd13ifvqc2g","pricing_plan_id":"cebpf4jnsgd1na2vs0mg"},{"bike_id":"03faa75e-f542-435b-970f-cb9e93ce79ee","system_id":"levelo_inurba_marseille","lat":43.296129,"lon":5.370777,"is_reserved":false,"is_disabled":false,"rental_uris":{"android":"levelo://app?vid=03faa75e-f542-435b-970f-cb9e93ce79ee","ios":"levelo://app?vid=03faa75e-f542-435b-970f-cb9e93ce79ee"},"vehicle_type_id":"4","last_reported":1721416041,"current_range_meters":19600,"station_id":"ce4bgnh2rcd13ifvqc0g","pricing_plan_id":"cebpf4jnsgd1na2vs0mg"},{"bike_id":"7a9e8762-8afb-4feb-bdf0-cdb09edb4815","system_id":"levelo_inurba_marseille","lat":43.29724,"lon":5.37692,"is_reserved":false,"is_disabled":false,"rental_uris":{"android":"levelo://app?vid=7a9e8762-8afb-4feb-bdf0-cdb09edb4815","ios":"levelo://app?vid=7a9e8762-8afb-4feb-bdf0-cdb09edb4815"},"vehicle_type_id":"4","last_reported":1721416041,"current_range_meters":0,"station_id":"ce4bgkh2rcd13ifvqbl0","pricing_plan_id":"cebpf4jnsgd1na2vs0mg"},{"bike_id":"8079ae99-f324-4bce-8203-4dec8c7e62ad","system_id":"levelo_inurba_marseille","lat":43.299028,"lon":5.381509,"is_reserved":false,"is_disabled":false,"rental_uris":{"android":"levelo://app?vid=8079ae99-f324-4bce-8203-4dec8c7e62ad","ios":"levelo://app?vid=8079ae99-f324-4bce-8203-4dec8c7e62ad"},"vehicle_type_id":"4","last_reported":1721416041,"current_range_meters":10400,"station_id":"ce4bgj12rcd13ifvqbc0","pricing_plan_id":"cebpf4jnsgd1na2vs0mg"},{"bike_id":"3e545e65-006f-48cd-b2b9-56f2c6c9bc1f","system_id":"levelo_inurba_marseille","lat":43.299028,"lon":5.381509,"is_reserved":false,"is_disabled":false,"rental_uris":{"android":"levelo://app?vid=3e545e65-006f-48cd-b2b9-56f2c6c9bc1f","ios":"levelo://app?vid=3e545e65-006f-48cd-b2b9-56f2c6c9bc1f"},"vehicle_type_id":"4","last_reported":1721416041,"current_range_meters":24400,"station_id":"ce4bgj12rcd13ifvqbc0","pricing_plan_id":"cebpf4jnsgd1na2vs0mg"},{"bike_id":"e9a617e6-03d5-4ebc-9a85-b63b2cf8b5c1","system_id":"levelo_inurba_marseille","lat":43.309589,"lon":5.390258,"is_reserved":false,"is_disabled":false,"rental_uris":{"android":"levelo://app?vid=e9a617e6-03d5-4ebc-9a85-b63b2cf8b5c1","ios":"levelo://app?vid=e9a617e6-03d5-4ebc-9a85-b63b2cf8b5c1"},"vehicle_type_id":"4","last_reported":1721416041,"current_range_meters":3600,"station_id":"ce4bgup2rcd13ifvqco0","pricing_plan_id":"cebpf4jnsgd1na2vs0mg"},{"bike_id":"9726e420-1af4-46b9-b3db-56b88e7317a8","system_id":"levelo_inurba_marseille","lat":43.309608,"lon":5.390297,"is_reserved":false,"is_disabled":false,"rental_uris":{"android":"levelo://app?vid=9726e420-1af4-46b9-b3db-56b88e7317a8","ios":"levelo://app?vid=9726e420-1af4-46b9-b3db-56b88e7317a8"},"vehicle_type_id":"4","last_reported":1721416041,"current_range_meters":16000,"station_id":"ce4bgup2rcd13ifvqco0","pricing_plan_id":"cebpf4jnsgd1na2vs0mg"},{"bike_id":"30aeef21-f1fa-4895-810d-02995ec36cd2","system_id":"levelo_inurba_marseille","lat":43.3095,"lon":5.39029,"is_reserved":false,"is_disabled":false,"rental_uris":{"android":"levelo://app?vid=30aeef21-f1fa-4895-810d-02995ec36cd2","ios":"levelo://app?vid=30aeef21-f1fa-4895-810d-02995ec36cd2"},"vehicle_type_id":"4","last_reported":1721416041,"current_range_meters":22800,"station_id":"ce4bgup2rcd13ifvqco0","pricing_plan_id":"cebpf4jnsgd1na2vs0mg"},{"bike_id":"2d58099c-1843-42f2-9d08-2affe9c6f551","system_id":"levelo_inurba_marseille","lat":43.3095,"lon":5.39029,"is_reserved":false,"is_disabled":false,"rental_uris":{"android":"levelo://app?vid=2d58099c-1843-42f2-9d08-2affe9c6f551","ios":"levelo://app?vid=2d58099c-1843-42f2-9d08-2affe9c6f551"},"vehicle_type_id":"4","last_reported":1721416041,"current_range_meters":5200,"station_id":"ce4bgup2rcd13ifvqco0","pricing_plan_id":"cebpf4jnsgd1na2vs0mg"},{"bike_id":"8601520c-c4e6-4495-b75a-442b61c67f14","system_id":"levelo_inurba_marseille","lat":43.30956,"lon":5.39031,"is_reserved":false,"is_disabled":false,"rental_uris":{"android":"levelo://app?vid=8601520c-c4e6-4495-b75a-442b61c67f14","ios":"levelo://app?vid=8601520c-c4e6-4495-b75a-442b61c67f14"},"vehicle_type_id":"4","last_reported":1721416041,"current_range_meters":0,"station_id":"ce4bgup2rcd13ifvqco0","pricing_plan_id":"cebpf4jnsgd1na2vs0mg"},{"bike_id":"86d2720d-83b2-475d-99cc-2345c27f053d","system_id":"levelo_inurba_marseille","lat":43.309589,"lon":5.390258,"is_reserved":false,"is_disabled":false,"rental_uris":{"android":"levelo://app?vid=86d2720d-83b2-475d-99cc-2345c27f053d","ios":"levelo://app?vid=86d2720d-83b2-475d-99cc-2345c27f053d"},"vehicle_type_id":"4","last_reported":1721416041,"current_range_meters":6400,"station_id":"ce4bgup2rcd13ifvqco0","pricing_plan_id":"cebpf4jnsgd1na2vs0mg"},{"bike_id":"37e396b7-d5cb-414c-b979-4e62c45140d4","system_id":"levelo_inurba_marseille","lat":43.309589,"lon":5.390258,"is_reserved":false,"is_disabled":false,"rental_uris":{"android":"levelo://app?vid=37e396b7-d5cb-414c-b979-4e62c45140d4","ios":"levelo://app?vid=37e396b7-d5cb-414c-b979-4e62c45140d4"},"vehicle_type_id":"4","last_reported":1721416041,"current_range_meters":30400,"station_id":"ce4bgup2rcd13ifvqco0","pricing_plan_id":"cebpf4jnsgd1na2vs0mg"},{"bike_id":"e2fdefb9-642e-4298-8ea9-a38477109dca","system_id":"levelo_inurba_marseille","lat":43.3095,"lon":5.39031,"is_reserved":false,"is_disabled":false,"rental_uris":{"android":"levelo://app?vid=e2fdefb9-642e-4298-8ea9-a38477109dca","ios":"levelo://app?vid=e2fdefb9-642e-4298-8ea9-a38477109dca"},"vehicle_type_id":"4","last_reported":1721416041,"current_range_meters":0,"station_id":"ce4bgup2rcd13ifvqco0","pricing_plan_id":"cebpf4jnsgd1na2vs0mg"},{"bike_id":"2ddbe7e8-2131-4119-b68d-c6e0ea7ad516","system_id":"levelo_inurba_marseille","lat":43.309589,"lon":5.390258,"is_reserved":false,"is_disabled":false,"rental_uris":{"android":"levelo://app?vid=2ddbe7e8-2131-4119-b68d-c6e0ea7ad516","ios":"levelo://app?vid=2ddbe7e8-2131-4119-b68d-c6e0ea7ad516"},"vehicle_type_id":"4","last_reported":1721416041,"current_range_meters":19600,"station_id":"ce4bgup2rcd13ifvqco0","pricing_plan_id":"cebpf4jnsgd1na2vs0mg"},{"bike_id":"8569072f-468b-4dca-89ee-513a76231022","system_id":"levelo_inurba_marseille","lat":43.309589,"lon":5.390258,"is_reserved":false,"is_disabled":false,"rental_uris":{"android":"levelo://app?vid=8569072f-468b-4dca-89ee-513a76231022","ios":"levelo://app?vid=8569072f-468b-4dca-89ee-513a76231022"},"vehicle_type_id":"4","last_reported":1721416041,"current_range_meters":0,"station_id":"ce4bgup2rcd13ifvqco0","pricing_plan_id":"cebpf4jnsgd1na2vs0mg"},{"bike_id":"1c282fac-6085-45b5-9c7e-1b237ffe46dc","system_id":"levelo_inurba_marseille","lat":43.30953,"lon":5.39039,"is_reserved":false,"is_disabled":false,"rental_uris":{"android":"levelo://app?vid=1c282fac-6085-45b5-9c7e-1b237ffe46dc","ios":"levelo://app?vid=1c282fac-6085-45b5-9c7e-1b237ffe46dc"},"vehicle_type_id":"4","last_reported":1721416041,"current_range_meters":0,"station_id":"ce4bgup2rcd13ifvqco0","pricing_plan_id":"cebpf4jnsgd1na2vs0mg"},{"bike_id":"d9f883ba-f801-4ad5-9e10-e361cb3357ad","system_id":"levelo_inurba_marseille","lat":43.3095,"lon":5.39041,"is_reserved":false,"is_disabled":false,"rental_uris":{"android":"levelo://app?vid=d9f883ba-f801-4ad5-9e10-e361cb3357ad","ios":"levelo://app?vid=d9f883ba-f801-4ad5-9e10-e361cb3357ad"},"vehicle_type_id":"4","last_reported":1721416041,"current_range_meters":26000,"station_id":"ce4bgup2rcd13ifvqco0","pricing_plan_id":"cebpf4jnsgd1na2vs0mg"},{"bike_id":"24758a9f-e7d4-4a42-a27e-a0d2f58c587a","system_id":"levelo_inurba_marseille","lat":43.309589,"lon":5.390258,"is_reserved":false,"is_disabled":false,"rental_uris":{"android":"levelo://app?vid=24758a9f-e7d4-4a42-a27e-a0d2f58c587a","ios":"levelo://app?vid=24758a9f-e7d4-4a42-a27e-a0d2f58c587a"},"vehicle_type_id":"4","last_reported":1721416041,"current_range_meters":30400,"station_id":"ce4bgup2rcd13ifvqco0","pricing_plan_id":"cebpf4jnsgd1na2vs0mg"},{"bike_id":"3d574c34-a5d3-4e7f-99ce-916c8b9a3e14","system_id":"levelo_inurba_marseille","lat":43.317557,"lon":5.390173,"is_reserved":false,"is_disabled":false,"rental_uris":{"android":"levelo://app?vid=3d574c34-a5d3-4e7f-99ce-916c8b9a3e14","ios":"levelo://app?vid=3d574c34-a5d3-4e7f-99ce-916c8b9a3e14"},"vehicle_type_id":"4","last_reported":1721416041,"current_range_meters":4800,"station_id":"ce4bhqp2rcd13ifvqhng","pricing_plan_id":"cebpf4jnsgd1na2vs0mg"},{"bike_id":"5f154e1d-c496-4175-9805-325468cb7673","system_id":"levelo_inurba_marseille","lat":43.317557,"lon":5.390173,"is_reserved":false,"is_disabled":false,"rental_uris":{"android":"levelo://app?vid=5f154e1d-c496-4175-9805-325468cb7673","ios":"levelo://app?vid=5f154e1d-c496-4175-9805-325468cb7673"},"vehicle_type_id":"4","last_reported":1721416041,"current_range_meters":10800,"station_id":"ce4bhqp2rcd13ifvqhng","pricing_plan_id":"cebpf4jnsgd1na2vs0mg"},{"bike_id":"d1ae3a85-b382-4fe2-a663-a335c1ab946c","system_id":"levelo_inurba_marseille","lat":43.317557,"lon":5.390173,"is_reserved":false,"is_disabled":false,"rental_uris":{"android":"levelo://app?vid=d1ae3a85-b382-4fe2-a663-a335c1ab946c","ios":"levelo://app?vid=d1ae3a85-b382-4fe2-a663-a335c1ab946c"},"vehicle_type_id":"4","last_reported":1721416041,"current_range_meters":20400,"station_id":"ce4bhqp2rcd13ifvqhng","pricing_plan_id":"cebpf4jnsgd1na2vs0mg"},{"bike_id":"fceade41-7754-4a2e-a9f5-28d21d240216","system_id":"levelo_inurba_marseille","lat":43.317557,"lon":5.390173,"is_reserved":false,"is_disabled":false,"rental_uris":{"android":"levelo://app?vid=fceade41-7754-4a2e-a9f5-28d21d240216","ios":"levelo://app?vid=fceade41-7754-4a2e-a9f5-28d21d240216"},"vehicle_type_id":"4","last_reported":1721416041,"current_range_meters":18800,"station_id":"ce4bhqp2rcd13ifvqhng","pricing_plan_id":"cebpf4jnsgd1na2vs0mg"},{"bike_id":"80c6fff3-5b70-4a5a-99eb-4dc99c960090","system_id":"levelo_inurba_marseille","lat":43.317557,"lon":5.390173,"is_reserved":false,"is_disabled":false,"rental_uris":{"android":"levelo://app?vid=80c6fff3-5b70-4a5a-99eb-4dc99c960090","ios":"levelo://app?vid=80c6fff3-5b70-4a5a-99eb-4dc99c960090"},"vehicle_type_id":"4","last_reported":1721416041,"current_range_meters":9600,"station_id":"ce4bhqp2rcd13ifvqhng","pricing_plan_id":"cebpf4jnsgd1na2vs0mg"},{"bike_id":"fff0ffb6-8a52-4821-8a28-4a92071acb18","system_id":"levelo_inurba_marseille","lat":43.317557,"lon":5.390173,"is_reserved":false,"is_disabled":false,"rental_uris":{"android":"levelo://app?vid=fff0ffb6-8a52-4821-8a28-4a92071acb18","ios":"levelo://app?vid=fff0ffb6-8a52-4821-8a28-4a92071acb18"},"vehicle_type_id":"4","last_reported":1721416041,"current_range_meters":23200,"station_id":"ce4bhqp2rcd13ifvqhng","pricing_plan_id":"cebpf4jnsgd1na2vs0mg"},{"bike_id":"ed9978a7-ad64-42c5-b59f-cc5623c35520","system_id":"levelo_inurba_marseille","lat":43.317557,"lon":5.390173,"is_reserved":false,"is_disabled":false,"rental_uris":{"android":"levelo://app?vid=ed9978a7-ad64-42c5-b59f-cc5623c35520","ios":"levelo://app?vid=ed9978a7-ad64-42c5-b59f-cc5623c35520"},"vehicle_type_id":"4","last_reported":1721416041,"current_range_meters":1200,"station_id":"ce4bhqp2rcd13ifvqhng","pricing_plan_id":"cebpf4jnsgd1na2vs0mg"},{"bike_id":"2ca9d7ee-345a-47b6-a468-20743cec9600","system_id":"levelo_inurba_marseille","lat":43.3175,"lon":5.39024,"is_reserved":false,"is_disabled":false,"rental_uris":{"android":"levelo://app?vid=2ca9d7ee-345a-47b6-a468-20743cec9600","ios":"levelo://app?vid=2ca9d7ee-345a-47b6-a468-20743cec9600"},"vehicle_type_id":"4","last_reported":1721416041,"current_range_meters":2400,"station_id":"ce4bhqp2rcd13ifvqhng","pricing_plan_id":"cebpf4jnsgd1na2vs0mg"},{"bike_id":"029f0bba-ff83-4810-9f01-b00f67b4d030","system_id":"levelo_inurba_marseille","lat":43.295748,"lon":5.37522,"is_reserved":false,"is_disabled":false,"rental_uris":{"android":"levelo://app?vid=029f0bba-ff83-4810-9f01-b00f67b4d030","ios":"levelo://app?vid=029f0bba-ff83-4810-9f01-b00f67b4d030"},"vehicle_type_id":"4","last_reported":1721416041,"current_range_meters":6400,"station_id":"ce4bgh92rcd13ifvqb50","pricing_plan_id":"cebpf4jnsgd1na2vs0mg"},{"bike_id":"dc3918c9-690f-4b90-a817-07e561e3a504","system_id":"levelo_inurba_marseille","lat":43.295748,"lon":5.37522,"is_reserved":false,"is_disabled":false,"rental_uris":{"android":"levelo://app?vid=dc3918c9-690f-4b90-a817-07e561e3a504","ios":"levelo://app?vid=dc3918c9-690f-4b90-a817-07e561e3a504"},"vehicle_type_id":"4","last_reported":1721416041,"current_range_meters":31200,"station_id":"ce4bgh92rcd13ifvqb50","pricing_plan_id":"cebpf4jnsgd1na2vs0mg"},{"bike_id":"e8356b8a-23a2-48b5-b546-a981266eccef","system_id":"levelo_inurba_marseille","lat":43.304274,"lon":5.388873,"is_reserved":false,"is_disabled":false,"rental_uris":{"android":"levelo://app?vid=e8356b8a-23a2-48b5-b546-a981266eccef","ios":"levelo://app?vid=e8356b8a-23a2-48b5-b546-a981266eccef"},"vehicle_type_id":"4","last_reported":1721416041,"current_range_meters":10800,"station_id":"ce4bgk12rcd13ifvqbi0","pricing_plan_id":"cebpf4jnsgd1na2vs0mg"},{"bike_id":"c86f3691-5200-41a6-bc29-80628b63b371","system_id":"levelo_inurba_marseille","lat":43.295748,"lon":5.37522,"is_reserved":false,"is_disabled":false,"rental_uris":{"android":"levelo://app?vid=c86f3691-5200-41a6-bc29-80628b63b371","ios":"levelo://app?vid=c86f3691-5200-41a6-bc29-80628b63b371"},"vehicle_type_id":"4","last_reported":1721416041,"current_range_meters":4000,"station_id":"ce4bgh92rcd13ifvqb50","pricing_plan_id":"cebpf4jnsgd1na2vs0mg"},{"bike_id":"7af2f14a-a4a7-4ee6-b6e8-f2e32a501085","system_id":"levelo_inurba_marseille","lat":43.304274,"lon":5.388873,"is_reserved":false,"is_disabled":false,"rental_uris":{"android":"levelo://app?vid=7af2f14a-a4a7-4ee6-b6e8-f2e32a501085","ios":"levelo://app?vid=7af2f14a-a4a7-4ee6-b6e8-f2e32a501085"},"vehicle_type_id":"4","last_reported":1721416041,"current_range_meters":7600,"station_id":"ce4bgk12rcd13ifvqbi0","pricing_plan_id":"cebpf4jnsgd1na2vs0mg"},{"bike_id":"568ac619-b7f3-4d62-9220-b8dfb34e87fb","system_id":"levelo_inurba_marseille","lat":43.29569,"lon":5.37528,"is_reserved":false,"is_disabled":false,"rental_uris":{"android":"levelo://app?vid=568ac619-b7f3-4d62-9220-b8dfb34e87fb","ios":"levelo://app?vid=568ac619-b7f3-4d62-9220-b8dfb34e87fb"},"vehicle_type_id":"4","last_reported":1721416041,"current_range_meters":0,"station_id":"ce4bgh92rcd13ifvqb50","pricing_plan_id":"cebpf4jnsgd1na2vs0mg"},{"bike_id":"25d333ee-3c3d-4c7c-aac6-11046a979a27","system_id":"levelo_inurba_marseille","lat":43.296263,"lon":5.377094,"is_reserved":false,"is_disabled":false,"rental_uris":{"android":"levelo://app?vid=25d333ee-3c3d-4c7c-aac6-11046a979a27","ios":"levelo://app?vid=25d333ee-3c3d-4c7c-aac6-11046a979a27"},"vehicle_type_id":"4","last_reported":1721416041,"current_range_meters":31200,"station_id":"ce4bgi92rcd13ifvqb90","pricing_plan_id":"cebpf4jnsgd1na2vs0mg"},{"bike_id":"ed8daf29-b59c-4cd3-8d1f-50637d94b735","system_id":"levelo_inurba_marseille","lat":43.29785,"lon":5.3811,"is_reserved":false,"is_disabled":false,"rental_uris":{"android":"levelo://app?vid=ed8daf29-b59c-4cd3-8d1f-50637d94b735","ios":"levelo://app?vid=ed8daf29-b59c-4cd3-8d1f-50637d94b735"},"vehicle_type_id":"4","last_reported":1721416041,"current_range_meters":16000,"station_id":"ce4bgip2rcd13ifvqbb0","pricing_plan_id":"cebpf4jnsgd1na2vs0mg"},{"bike_id":"bd7f08f0-9833-45bb-8bd4-2dbcc3940cae","system_id":"levelo_inurba_marseille","lat":43.295748,"lon":5.37522,"is_reserved":false,"is_disabled":false,"rental_uris":{"android":"levelo://app?vid=bd7f08f0-9833-45bb-8bd4-2dbcc3940cae","ios":"levelo://app?vid=bd7f08f0-9833-45bb-8bd4-2dbcc3940cae"},"vehicle_type_id":"4","last_reported":1721416041,"current_range_meters":0,"station_id":"ce4bgh92rcd13ifvqb50","pricing_plan_id":"cebpf4jnsgd1na2vs0mg"},{"bike_id":"3611cfaf-e9f5-47d5-91e7-021cd7626153","system_id":"levelo_inurba_marseille","lat":43.296263,"lon":5.377094,"is_reserved":false,"is_disabled":false,"rental_uris":{"android":"levelo://app?vid=3611cfaf-e9f5-47d5-91e7-021cd7626153","ios":"levelo://app?vid=3611cfaf-e9f5-47d5-91e7-021cd7626153"},"vehicle_type_id":"4","last_reported":1721416041,"current_range_meters":30400,"station_id":"ce4bgi92rcd13ifvqb90","pricing_plan_id":"cebpf4jnsgd1na2vs0mg"},{"bike_id":"67dd8c40-bbbc-4068-9e87-1b3e33d49050","system_id":"levelo_inurba_marseille","lat":43.296263,"lon":5.377094,"is_reserved":false,"is_disabled":false,"rental_uris":{"android":"levelo://app?vid=67dd8c40-bbbc-4068-9e87-1b3e33d49050","ios":"levelo://app?vid=67dd8c40-bbbc-4068-9e87-1b3e33d49050"},"vehicle_type_id":"4","last_reported":1721416041,"current_range_meters":14000,"station_id":"ce4bgi92rcd13ifvqb90","pricing_plan_id":"cebpf4jnsgd1na2vs0mg"},{"bike_id":"d8c0503d-0705-44c1-a095-281c1b367c50","system_id":"levelo_inurba_marseille","lat":43.296263,"lon":5.377094,"is_reserved":false,"is_disabled":false,"rental_uris":{"android":"levelo://app?vid=d8c0503d-0705-44c1-a095-281c1b367c50","ios":"levelo://app?vid=d8c0503d-0705-44c1-a095-281c1b367c50"},"vehicle_type_id":"4","last_reported":1721416041,"current_range_meters":0,"station_id":"ce4bgi92rcd13ifvqb90","pricing_plan_id":"cebpf4jnsgd1na2vs0mg"},{"bike_id":"80e7a8fa-6fac-4124-a6c7-404f5301390b","system_id":"levelo_inurba_marseille","lat":43.296263,"lon":5.377094,"is_reserved":false,"is_disabled":false,"rental_uris":{"android":"levelo://app?vid=80e7a8fa-6fac-4124-a6c7-404f5301390b","ios":"levelo://app?vid=80e7a8fa-6fac-4124-a6c7-404f5301390b"},"vehicle_type_id":"4","last_reported":1721416041,"current_range_meters":4800,"station_id":"ce4bgi92rcd13ifvqb90","pricing_plan_id":"cebpf4jnsgd1na2vs0mg"},{"bike_id":"4bff862d-e308-4120-9ce6-0c66249ad2bf","system_id":"levelo_inurba_marseille","lat":43.29617,"lon":5.37727,"is_reserved":false,"is_disabled":false,"rental_uris":{"android":"levelo://app?vid=4bff862d-e308-4120-9ce6-0c66249ad2bf","ios":"levelo://app?vid=4bff862d-e308-4120-9ce6-0c66249ad2bf"},"vehicle_type_id":"4","last_reported":1721416041,"current_range_meters":27200,"station_id":"ce4bgi92rcd13ifvqb90","pricing_plan_id":"cebpf4jnsgd1na2vs0mg"},{"bike_id":"bdacd196-6b01-4df8-a268-4a485855d97e","system_id":"levelo_inurba_marseille","lat":43.29615,"lon":5.37721,"is_reserved":false,"is_disabled":false,"rental_uris":{"android":"levelo://app?vid=bdacd196-6b01-4df8-a268-4a485855d97e","ios":"levelo://app?vid=bdacd196-6b01-4df8-a268-4a485855d97e"},"vehicle_type_id":"4","last_reported":1721416041,"current_range_meters":21600,"station_id":"ce4bgi92rcd13ifvqb90","pricing_plan_id":"cebpf4jnsgd1na2vs0mg"},{"bike_id":"93c16535-841d-4b3c-bd70-1df797c8fee1","system_id":"levelo_inurba_marseille","lat":43.309589,"lon":5.390258,"is_reserved":false,"is_disabled":false,"rental_uris":{"android":"levelo://app?vid=93c16535-841d-4b3c-bd70-1df797c8fee1","ios":"levelo://app?vid=93c16535-841d-4b3c-bd70-1df797c8fee1"},"vehicle_type_id":"4","last_reported":1721416041,"current_range_meters":9200,"station_id":"ce4bgup2rcd13ifvqco0","pricing_plan_id":"cebpf4jnsgd1na2vs0mg"},{"bike_id":"521d44d2-07f0-450a-8c19-b4f7f4875df7","system_id":"levelo_inurba_marseille","lat":43.295279,"lon":5.375048,"is_reserved":false,"is_disabled":false,"rental_uris":{"android":"levelo://app?vid=521d44d2-07f0-450a-8c19-b4f7f4875df7","ios":"levelo://app?vid=521d44d2-07f0-450a-8c19-b4f7f4875df7"},"vehicle_type_id":"4","last_reported":1721416041,"current_range_meters":29200,"station_id":"ce4bgkp2rcd13ifvqbmg","pricing_plan_id":"cebpf4jnsgd1na2vs0mg"},{"bike_id":"2c399442-6b1e-4d4c-aeb5-53810b0002f1","system_id":"levelo_inurba_marseille","lat":43.295279,"lon":5.375048,"is_reserved":false,"is_disabled":false,"rental_uris":{"android":"levelo://app?vid=2c399442-6b1e-4d4c-aeb5-53810b0002f1","ios":"levelo://app?vid=2c399442-6b1e-4d4c-aeb5-53810b0002f1"},"vehicle_type_id":"4","last_reported":1721416041,"current_range_meters":26800,"station_id":"ce4bgkp2rcd13ifvqbmg","pricing_plan_id":"cebpf4jnsgd1na2vs0mg"},{"bike_id":"7e62efb9-307c-44db-ba24-413869fb2b1d","system_id":"levelo_inurba_marseille","lat":43.295279,"lon":5.375048,"is_reserved":false,"is_disabled":false,"rental_uris":{"android":"levelo://app?vid=7e62efb9-307c-44db-ba24-413869fb2b1d","ios":"levelo://app?vid=7e62efb9-307c-44db-ba24-413869fb2b1d"},"vehicle_type_id":"4","last_reported":1721416041,"current_range_meters":25600,"station_id":"ce4bgkp2rcd13ifvqbmg","pricing_plan_id":"cebpf4jnsgd1na2vs0mg"},{"bike_id":"c25248c5-4253-4114-a15d-074e734b9b69","system_id":"levelo_inurba_marseille","lat":43.295279,"lon":5.375048,"is_reserved":false,"is_disabled":false,"rental_uris":{"android":"levelo://app?vid=c25248c5-4253-4114-a15d-074e734b9b69","ios":"levelo://app?vid=c25248c5-4253-4114-a15d-074e734b9b69"},"vehicle_type_id":"4","last_reported":1721416041,"current_range_meters":24800,"station_id":"ce4bgkp2rcd13ifvqbmg","pricing_plan_id":"cebpf4jnsgd1na2vs0mg"},{"bike_id":"40cc2f04-6502-4e07-8925-652f704568ce","system_id":"levelo_inurba_marseille","lat":43.299707,"lon":5.384859,"is_reserved":false,"is_disabled":false,"rental_uris":{"android":"levelo://app?vid=40cc2f04-6502-4e07-8925-652f704568ce","ios":"levelo://app?vid=40cc2f04-6502-4e07-8925-652f704568ce"},"vehicle_type_id":"4","last_reported":1721416041,"current_range_meters":400,"station_id":"ce4bgj92rcd13ifvqbd0","pricing_plan_id":"cebpf4jnsgd1na2vs0mg"},{"bike_id":"aee9de18-cb4f-4c6d-939b-dfc393fafd14","system_id":"levelo_inurba_marseille","lat":43.299707,"lon":5.384859,"is_reserved":false,"is_disabled":false,"rental_uris":{"android":"levelo://app?vid=aee9de18-cb4f-4c6d-939b-dfc393fafd14","ios":"levelo://app?vid=aee9de18-cb4f-4c6d-939b-dfc393fafd14"},"vehicle_type_id":"4","last_reported":1721416041,"current_range_meters":24800,"station_id":"ce4bgj92rcd13ifvqbd0","pricing_plan_id":"cebpf4jnsgd1na2vs0mg"},{"bike_id":"1641cf52-3fed-4067-bb22-b071176c08cf","system_id":"levelo_inurba_marseille","lat":43.295279,"lon":5.375048,"is_reserved":false,"is_disabled":false,"rental_uris":{"android":"levelo://app?vid=1641cf52-3fed-4067-bb22-b071176c08cf","ios":"levelo://app?vid=1641cf52-3fed-4067-bb22-b071176c08cf"},"vehicle_type_id":"4","last_reported":1721416041,"current_range_meters":29600,"station_id":"ce4bgkp2rcd13ifvqbmg","pricing_plan_id":"cebpf4jnsgd1na2vs0mg"},{"bike_id":"7e9364de-16e9-41f8-ae80-f13d89f05343","system_id":"levelo_inurba_marseille","lat":43.295279,"lon":5.375048,"is_reserved":false,"is_disabled":false,"rental_uris":{"android":"levelo://app?vid=7e9364de-16e9-41f8-ae80-f13d89f05343","ios":"levelo://app?vid=7e9364de-16e9-41f8-ae80-f13d89f05343"},"vehicle_type_id":"4","last_reported":1721416041,"current_range_meters":28800,"station_id":"ce4bgkp2rcd13ifvqbmg","pricing_plan_id":"cebpf4jnsgd1na2vs0mg"},{"bike_id":"3cfaf643-df9b-452e-80ee-e6ce6ba1db2d","system_id":"levelo_inurba_marseille","lat":43.29507,"lon":5.37504,"is_reserved":false,"is_disabled":false,"rental_uris":{"android":"levelo://app?vid=3cfaf643-df9b-452e-80ee-e6ce6ba1db2d","ios":"levelo://app?vid=3cfaf643-df9b-452e-80ee-e6ce6ba1db2d"},"vehicle_type_id":"4","last_reported":1721416041,"current_range_meters":2400,"station_id":"ce4bgkp2rcd13ifvqbmg","pricing_plan_id":"cebpf4jnsgd1na2vs0mg"},{"bike_id":"18491e9b-089a-423d-92a6-2224fb4ac1cb","system_id":"levelo_inurba_marseille","lat":43.30473,"lon":5.39011,"is_reserved":false,"is_disabled":false,"rental_uris":{"android":"levelo://app?vid=18491e9b-089a-423d-92a6-2224fb4ac1cb","ios":"levelo://app?vid=18491e9b-089a-423d-92a6-2224fb4ac1cb"},"vehicle_type_id":"4","last_reported":1721416041,"current_range_meters":6400,"station_id":"","pricing_plan_id":"cebpf4jnsgd1na2vs0mg"},{"bike_id":"c580f707-0f8a-4d00-96dc-ad87feecd141","system_id":"levelo_inurba_marseille","lat":43.301396,"lon":5.387812,"is_reserved":false,"is_disabled":false,"rental_uris":{"android":"levelo://app?vid=c580f707-0f8a-4d00-96dc-ad87feecd141","ios":"levelo://app?vid=c580f707-0f8a-4d00-96dc-ad87feecd141"},"vehicle_type_id":"4","last_reported":1721416041,"current_range_meters":11200,"station_id":"ce4bghh2rcd13ifvqb60","pricing_plan_id":"cebpf4jnsgd1na2vs0mg"},{"bike_id":"6f4c052c-6554-4781-b12b-606a44083405","system_id":"levelo_inurba_marseille","lat":43.32367,"lon":5.388836,"is_reserved":false,"is_disabled":false,"rental_uris":{"android":"levelo://app?vid=6f4c052c-6554-4781-b12b-606a44083405","ios":"levelo://app?vid=6f4c052c-6554-4781-b12b-606a44083405"},"vehicle_type_id":"4","last_reported":1721416041,"current_range_meters":17600,"station_id":"ce4bhqp2rcd13ifvqhog","pricing_plan_id":"cebpf4jnsgd1na2vs0mg"},{"bike_id":"470f5bfe-cb8c-48ac-8915-281d0cbabefb","system_id":"levelo_inurba_marseille","lat":43.32367,"lon":5.388836,"is_reserved":false,"is_disabled":false,"rental_uris":{"android":"levelo://app?vid=470f5bfe-cb8c-48ac-8915-281d0cbabefb","ios":"levelo://app?vid=470f5bfe-cb8c-48ac-8915-281d0cbabefb"},"vehicle_type_id":"4","last_reported":1721416041,"current_range_meters":8400,"station_id":"ce4bhqp2rcd13ifvqhog","pricing_plan_id":"cebpf4jnsgd1na2vs0mg"},{"bike_id":"ca882d26-81a5-4fa9-a0fc-66994f4c03cb","system_id":"levelo_inurba_marseille","lat":43.29602,"lon":5.381084,"is_reserved":false,"is_disabled":false,"rental_uris":{"android":"levelo://app?vid=ca882d26-81a5-4fa9-a0fc-66994f4c03cb","ios":"levelo://app?vid=ca882d26-81a5-4fa9-a0fc-66994f4c03cb"},"vehicle_type_id":"4","last_reported":1721416041,"current_range_meters":26800,"station_id":"ce4bgl12rcd13ifvqbo0","pricing_plan_id":"cebpf4jnsgd1na2vs0mg"},{"bike_id":"8890bbf6-1c77-4714-b578-d866ec4b60c8","system_id":"levelo_inurba_marseille","lat":43.29602,"lon":5.381084,"is_reserved":false,"is_disabled":false,"rental_uris":{"android":"levelo://app?vid=8890bbf6-1c77-4714-b578-d866ec4b60c8","ios":"levelo://app?vid=8890bbf6-1c77-4714-b578-d866ec4b60c8"},"vehicle_type_id":"4","last_reported":1721416041,"current_range_meters":9200,"station_id":"ce4bgl12rcd13ifvqbo0","pricing_plan_id":"cebpf4jnsgd1na2vs0mg"},{"bike_id":"9351ca5f-a98b-4b97-99ad-be046ef7dde3","system_id":"levelo_inurba_marseille","lat":43.29602,"lon":5.381084,"is_reserved":false,"is_disabled":false,"rental_uris":{"android":"levelo://app?vid=9351ca5f-a98b-4b97-99ad-be046ef7dde3","ios":"levelo://app?vid=9351ca5f-a98b-4b97-99ad-be046ef7dde3"},"vehicle_type_id":"4","last_reported":1721416041,"current_range_meters":17600,"station_id":"ce4bgl12rcd13ifvqbo0","pricing_plan_id":"cebpf4jnsgd1na2vs0mg"},{"bike_id":"e2d6197f-f688-40df-a7fb-b4450452a16c","system_id":"levelo_inurba_marseille","lat":43.292749,"lon":5.368402,"is_reserved":false,"is_disabled":false,"rental_uris":{"android":"levelo://app?vid=e2d6197f-f688-40df-a7fb-b4450452a16c","ios":"levelo://app?vid=e2d6197f-f688-40df-a7fb-b4450452a16c"},"vehicle_type_id":"4","last_reported":1721416041,"current_range_meters":0,"station_id":"ce4bhbp2rcd13ifvqesg","pricing_plan_id":"cebpf4jnsgd1na2vs0mg"},{"bike_id":"d226ba4a-7a8d-4b3d-a9c4-e066b2443f8f","system_id":"levelo_inurba_marseille","lat":43.29307,"lon":5.37168,"is_reserved":false,"is_disabled":false,"rental_uris":{"android":"levelo://app?vid=d226ba4a-7a8d-4b3d-a9c4-e066b2443f8f","ios":"levelo://app?vid=d226ba4a-7a8d-4b3d-a9c4-e066b2443f8f"},"vehicle_type_id":"4","last_reported":1721416041,"current_range_meters":0,"station_id":"ce4bgh92rcd13ifvqb40","pricing_plan_id":"cebpf4jnsgd1na2vs0mg"},{"bike_id":"95879f2d-f397-48c0-a342-cc004e914f34","system_id":"levelo_inurba_marseille","lat":43.29278,"lon":5.36841,"is_reserved":false,"is_disabled":false,"rental_uris":{"android":"levelo://app?vid=95879f2d-f397-48c0-a342-cc004e914f34","ios":"levelo://app?vid=95879f2d-f397-48c0-a342-cc004e914f34"},"vehicle_type_id":"4","last_reported":1721416041,"current_range_meters":28800,"station_id":"ce4bhbp2rcd13ifvqesg","pricing_plan_id":"cebpf4jnsgd1na2vs0mg"},{"bike_id":"830f32e3-7c6b-4f1e-aa80-1c5be6a0ec72","system_id":"levelo_inurba_marseille","lat":43.292749,"lon":5.368402,"is_reserved":false,"is_disabled":false,"rental_uris":{"android":"levelo://app?vid=830f32e3-7c6b-4f1e-aa80-1c5be6a0ec72","ios":"levelo://app?vid=830f32e3-7c6b-4f1e-aa80-1c5be6a0ec72"},"vehicle_type_id":"4","last_reported":1721416041,"current_range_meters":28000,"station_id":"ce4bhbp2rcd13ifvqesg","pricing_plan_id":"cebpf4jnsgd1na2vs0mg"},{"bike_id":"b23bf709-d092-40b4-b5d3-752f563b416f","system_id":"levelo_inurba_marseille","lat":43.29272,"lon":5.36839,"is_reserved":false,"is_disabled":false,"rental_uris":{"android":"levelo://app?vid=b23bf709-d092-40b4-b5d3-752f563b416f","ios":"levelo://app?vid=b23bf709-d092-40b4-b5d3-752f563b416f"},"vehicle_type_id":"4","last_reported":1721416041,"current_range_meters":0,"station_id":"ce4bhbp2rcd13ifvqesg","pricing_plan_id":"cebpf4jnsgd1na2vs0mg"},{"bike_id":"18dd6989-b4a3-46b1-9e68-4947dbdca722","system_id":"levelo_inurba_marseille","lat":43.292749,"lon":5.368402,"is_reserved":false,"is_disabled":false,"rental_uris":{"android":"levelo://app?vid=18dd6989-b4a3-46b1-9e68-4947dbdca722","ios":"levelo://app?vid=18dd6989-b4a3-46b1-9e68-4947dbdca722"},"vehicle_type_id":"4","last_reported":1721416041,"current_range_meters":27600,"station_id":"ce4bhbp2rcd13ifvqesg","pricing_plan_id":"cebpf4jnsgd1na2vs0mg"},{"bike_id":"028e22a3-bb2e-492b-a930-a73a92a7645e","system_id":"levelo_inurba_marseille","lat":43.293259,"lon":5.371586,"is_reserved":false,"is_disabled":false,"rental_uris":{"android":"levelo://app?vid=028e22a3-bb2e-492b-a930-a73a92a7645e","ios":"levelo://app?vid=028e22a3-bb2e-492b-a930-a73a92a7645e"},"vehicle_type_id":"4","last_reported":1721416041,"current_range_meters":9600,"station_id":"ce4bgh92rcd13ifvqb40","pricing_plan_id":"cebpf4jnsgd1na2vs0mg"},{"bike_id":"cd93b78d-931b-4a60-a412-4a75a32a07bf","system_id":"levelo_inurba_marseille","lat":43.29267,"lon":5.36837,"is_reserved":false,"is_disabled":false,"rental_uris":{"android":"levelo://app?vid=cd93b78d-931b-4a60-a412-4a75a32a07bf","ios":"levelo://app?vid=cd93b78d-931b-4a60-a412-4a75a32a07bf"},"vehicle_type_id":"4","last_reported":1721416041,"current_range_meters":0,"station_id":"ce4bhbp2rcd13ifvqesg","pricing_plan_id":"cebpf4jnsgd1na2vs0mg"},{"bike_id":"20ebec99-a4af-430c-8812-aed8a46e85d5","system_id":"levelo_inurba_marseille","lat":43.29422,"lon":5.37857,"is_reserved":false,"is_disabled":false,"rental_uris":{"android":"levelo://app?vid=20ebec99-a4af-430c-8812-aed8a46e85d5","ios":"levelo://app?vid=20ebec99-a4af-430c-8812-aed8a46e85d5"},"vehicle_type_id":"4","last_reported":1721416041,"current_range_meters":0,"station_id":"","pricing_plan_id":"cebpf4jnsgd1na2vs0mg"},{"bike_id":"d27556f3-fbeb-46ac-8754-a8c5c5a5dee0","system_id":"levelo_inurba_marseille","lat":43.305994,"lon":5.393687,"is_reserved":false,"is_disabled":false,"rental_uris":{"android":"levelo://app?vid=d27556f3-fbeb-46ac-8754-a8c5c5a5dee0","ios":"levelo://app?vid=d27556f3-fbeb-46ac-8754-a8c5c5a5dee0"},"vehicle_type_id":"4","last_reported":1721416041,"current_range_meters":4000,"station_id":"ce4bh0p2rcd13ifvqd80","pricing_plan_id":"cebpf4jnsgd1na2vs0mg"},{"bike_id":"af7983a8-2133-400f-9be7-0e3f9b8ac532","system_id":"levelo_inurba_marseille","lat":43.293009,"lon":5.374584,"is_reserved":false,"is_disabled":false,"rental_uris":{"android":"levelo://app?vid=af7983a8-2133-400f-9be7-0e3f9b8ac532","ios":"levelo://app?vid=af7983a8-2133-400f-9be7-0e3f9b8ac532"},"vehicle_type_id":"4","last_reported":1721416041,"current_range_meters":400,"station_id":"ce4bgi12rcd13ifvqb70","pricing_plan_id":"cebpf4jnsgd1na2vs0mg"},{"bike_id":"6c57d322-0bdd-49e7-ae28-4dd565c13f6d","system_id":"levelo_inurba_marseille","lat":43.293009,"lon":5.374584,"is_reserved":false,"is_disabled":false,"rental_uris":{"android":"levelo://app?vid=6c57d322-0bdd-49e7-ae28-4dd565c13f6d","ios":"levelo://app?vid=6c57d322-0bdd-49e7-ae28-4dd565c13f6d"},"vehicle_type_id":"4","last_reported":1721416041,"current_range_meters":15200,"station_id":"ce4bgi12rcd13ifvqb70","pricing_plan_id":"cebpf4jnsgd1na2vs0mg"},{"bike_id":"0292b204-386c-4399-a43c-8de2dfc63786","system_id":"levelo_inurba_marseille","lat":43.29285,"lon":5.37456,"is_reserved":false,"is_disabled":false,"rental_uris":{"android":"levelo://app?vid=0292b204-386c-4399-a43c-8de2dfc63786","ios":"levelo://app?vid=0292b204-386c-4399-a43c-8de2dfc63786"},"vehicle_type_id":"4","last_reported":1721416041,"current_range_meters":3200,"station_id":"ce4bgi12rcd13ifvqb70","pricing_plan_id":"cebpf4jnsgd1na2vs0mg"},{"bike_id":"d8c4410b-32e4-4f0e-b3bc-1536900f80c2","system_id":"levelo_inurba_marseille","lat":43.292311,"lon":5.360731,"is_reserved":false,"is_disabled":false,"rental_uris":{"android":"levelo://app?vid=d8c4410b-32e4-4f0e-b3bc-1536900f80c2","ios":"levelo://app?vid=d8c4410b-32e4-4f0e-b3bc-1536900f80c2"},"vehicle_type_id":"4","last_reported":1721416041,"current_range_meters":0,"station_id":"ce4bhbh2rcd13ifvqeqg","pricing_plan_id":"cebpf4jnsgd1na2vs0mg"},{"bike_id":"e0783daa-efea-484c-9ece-85c6daa91608","system_id":"levelo_inurba_marseille","lat":43.292311,"lon":5.360731,"is_reserved":false,"is_disabled":false,"rental_uris":{"android":"levelo://app?vid=e0783daa-efea-484c-9ece-85c6daa91608","ios":"levelo://app?vid=e0783daa-efea-484c-9ece-85c6daa91608"},"vehicle_type_id":"4","last_reported":1721416041,"current_range_meters":0,"station_id":"ce4bhbh2rcd13ifvqeqg","pricing_plan_id":"cebpf4jnsgd1na2vs0mg"},{"bike_id":"10f1f1cb-4cb1-4547-95fe-39600d390403","system_id":"levelo_inurba_marseille","lat":43.292311,"lon":5.360731,"is_reserved":false,"is_disabled":false,"rental_uris":{"android":"levelo://app?vid=10f1f1cb-4cb1-4547-95fe-39600d390403","ios":"levelo://app?vid=10f1f1cb-4cb1-4547-95fe-39600d390403"},"vehicle_type_id":"4","last_reported":1721416041,"current_range_meters":800,"station_id":"ce4bhbh2rcd13ifvqeqg","pricing_plan_id":"cebpf4jnsgd1na2vs0mg"},{"bike_id":"d8f6ea5e-6f6c-4c1e-b505-403513655f6f","system_id":"levelo_inurba_marseille","lat":43.292311,"lon":5.360731,"is_reserved":false,"is_disabled":false,"rental_uris":{"android":"levelo://app?vid=d8f6ea5e-6f6c-4c1e-b505-403513655f6f","ios":"levelo://app?vid=d8f6ea5e-6f6c-4c1e-b505-403513655f6f"},"vehicle_type_id":"4","last_reported":1721416041,"current_range_meters":19600,"station_id":"ce4bhbh2rcd13ifvqeqg","pricing_plan_id":"cebpf4jnsgd1na2vs0mg"},{"bike_id":"eff08e18-3e60-4804-a55b-4c0808406165","system_id":"levelo_inurba_marseille","lat":43.292311,"lon":5.360731,"is_reserved":false,"is_disabled":false,"rental_uris":{"android":"levelo://app?vid=eff08e18-3e60-4804-a55b-4c0808406165","ios":"levelo://app?vid=eff08e18-3e60-4804-a55b-4c0808406165"},"vehicle_type_id":"4","last_reported":1721416041,"current_range_meters":0,"station_id":"ce4bhbh2rcd13ifvqeqg","pricing_plan_id":"cebpf4jnsgd1na2vs0mg"},{"bike_id":"907ab7bc-4e8a-4310-83e6-d8af415cb977","system_id":"levelo_inurba_marseille","lat":43.292311,"lon":5.360731,"is_reserved":false,"is_disabled":false,"rental_uris":{"android":"levelo://app?vid=907ab7bc-4e8a-4310-83e6-d8af415cb977","ios":"levelo://app?vid=907ab7bc-4e8a-4310-83e6-d8af415cb977"},"vehicle_type_id":"4","last_reported":1721416041,"current_range_meters":16400,"station_id":"ce4bhbh2rcd13ifvqeqg","pricing_plan_id":"cebpf4jnsgd1na2vs0mg"},{"bike_id":"1dad9394-f138-4c60-9793-4fc586773d78","system_id":"levelo_inurba_marseille","lat":43.292311,"lon":5.360731,"is_reserved":false,"is_disabled":false,"rental_uris":{"android":"levelo://app?vid=1dad9394-f138-4c60-9793-4fc586773d78","ios":"levelo://app?vid=1dad9394-f138-4c60-9793-4fc586773d78"},"vehicle_type_id":"4","last_reported":1721416041,"current_range_meters":31200,"station_id":"ce4bhbh2rcd13ifvqeqg","pricing_plan_id":"cebpf4jnsgd1na2vs0mg"},{"bike_id":"a052adc7-fe98-4962-a376-64023cc3a811","system_id":"levelo_inurba_marseille","lat":43.291671,"lon":5.371575,"is_reserved":false,"is_disabled":false,"rental_uris":{"android":"levelo://app?vid=a052adc7-fe98-4962-a376-64023cc3a811","ios":"levelo://app?vid=a052adc7-fe98-4962-a376-64023cc3a811"},"vehicle_type_id":"4","last_reported":1721416041,"current_range_meters":4400,"station_id":"ce4bha92rcd13ifvqeh0","pricing_plan_id":"cebpf4jnsgd1na2vs0mg"},{"bike_id":"9fe61a7c-b862-483c-9b0b-b1635de363b7","system_id":"levelo_inurba_marseille","lat":43.292005,"lon":5.357875,"is_reserved":false,"is_disabled":false,"rental_uris":{"android":"levelo://app?vid=9fe61a7c-b862-483c-9b0b-b1635de363b7","ios":"levelo://app?vid=9fe61a7c-b862-483c-9b0b-b1635de363b7"},"vehicle_type_id":"4","last_reported":1721416041,"current_range_meters":18400,"station_id":"ce4bhb12rcd13ifvqel0","pricing_plan_id":"cebpf4jnsgd1na2vs0mg"},{"bike_id":"babd661c-634f-4e11-9566-3e92babd14f0","system_id":"levelo_inurba_marseille","lat":43.291797,"lon":5.375219,"is_reserved":false,"is_disabled":false,"rental_uris":{"android":"levelo://app?vid=babd661c-634f-4e11-9566-3e92babd14f0","ios":"levelo://app?vid=babd661c-634f-4e11-9566-3e92babd14f0"},"vehicle_type_id":"4","last_reported":1721416041,"current_range_meters":0,"station_id":"","pricing_plan_id":"cebpf4jnsgd1na2vs0mg"},{"bike_id":"d36cafef-2027-47f1-acd3-3ec7c9f02f8e","system_id":"levelo_inurba_marseille","lat":43.309047,"lon":5.396551,"is_reserved":false,"is_disabled":false,"rental_uris":{"android":"levelo://app?vid=d36cafef-2027-47f1-acd3-3ec7c9f02f8e","ios":"levelo://app?vid=d36cafef-2027-47f1-acd3-3ec7c9f02f8e"},"vehicle_type_id":"4","last_reported":1721416041,"current_range_meters":800,"station_id":"ce4bh012rcd13ifvqcv0","pricing_plan_id":"cebpf4jnsgd1na2vs0mg"},{"bike_id":"1c5f6521-cce7-41a5-89e7-40d6d730341b","system_id":"levelo_inurba_marseille","lat":43.313291,"lon":5.396838,"is_reserved":false,"is_disabled":false,"rental_uris":{"android":"levelo://app?vid=1c5f6521-cce7-41a5-89e7-40d6d730341b","ios":"levelo://app?vid=1c5f6521-cce7-41a5-89e7-40d6d730341b"},"vehicle_type_id":"4","last_reported":1721416041,"current_range_meters":0,"station_id":"ce4bgvp2rcd13ifvqcu0","pricing_plan_id":"cebpf4jnsgd1na2vs0mg"},{"bike_id":"5096e555-2703-4b06-8d0f-9745d1e3ddc6","system_id":"levelo_inurba_marseille","lat":43.313291,"lon":5.396838,"is_reserved":false,"is_disabled":false,"rental_uris":{"android":"levelo://app?vid=5096e555-2703-4b06-8d0f-9745d1e3ddc6","ios":"levelo://app?vid=5096e555-2703-4b06-8d0f-9745d1e3ddc6"},"vehicle_type_id":"4","last_reported":1721416041,"current_range_meters":800,"station_id":"ce4bgvp2rcd13ifvqcu0","pricing_plan_id":"cebpf4jnsgd1na2vs0mg"},{"bike_id":"a6ac5a5f-78c3-4268-a1c8-ab611613f304","system_id":"levelo_inurba_marseille","lat":43.309038,"lon":5.396546,"is_reserved":false,"is_disabled":false,"rental_uris":{"android":"levelo://app?vid=a6ac5a5f-78c3-4268-a1c8-ab611613f304","ios":"levelo://app?vid=a6ac5a5f-78c3-4268-a1c8-ab611613f304"},"vehicle_type_id":"4","last_reported":1721416041,"current_range_meters":20000,"station_id":"ce4bh012rcd13ifvqcv0","pricing_plan_id":"cebpf4jnsgd1na2vs0mg"},{"bike_id":"97fc71f0-2d5d-4205-8ee9-968e08c655c5","system_id":"levelo_inurba_marseille","lat":43.313291,"lon":5.396838,"is_reserved":false,"is_disabled":false,"rental_uris":{"android":"levelo://app?vid=97fc71f0-2d5d-4205-8ee9-968e08c655c5","ios":"levelo://app?vid=97fc71f0-2d5d-4205-8ee9-968e08c655c5"},"vehicle_type_id":"4","last_reported":1721416041,"current_range_meters":4800,"station_id":"ce4bgvp2rcd13ifvqcu0","pricing_plan_id":"cebpf4jnsgd1na2vs0mg"},{"bike_id":"9285b96c-5a0d-4bee-a551-ce1d399c6994","system_id":"levelo_inurba_marseille","lat":43.309038,"lon":5.396546,"is_reserved":false,"is_disabled":false,"rental_uris":{"android":"levelo://app?vid=9285b96c-5a0d-4bee-a551-ce1d399c6994","ios":"levelo://app?vid=9285b96c-5a0d-4bee-a551-ce1d399c6994"},"vehicle_type_id":"4","last_reported":1721416041,"current_range_meters":7600,"station_id":"ce4bh012rcd13ifvqcv0","pricing_plan_id":"cebpf4jnsgd1na2vs0mg"},{"bike_id":"5a415329-4dad-4c71-9e8a-cd98cd62d28d","system_id":"levelo_inurba_marseille","lat":43.309047,"lon":5.396551,"is_reserved":false,"is_disabled":false,"rental_uris":{"android":"levelo://app?vid=5a415329-4dad-4c71-9e8a-cd98cd62d28d","ios":"levelo://app?vid=5a415329-4dad-4c71-9e8a-cd98cd62d28d"},"vehicle_type_id":"4","last_reported":1721416041,"current_range_meters":27600,"station_id":"ce4bh012rcd13ifvqcv0","pricing_plan_id":"cebpf4jnsgd1na2vs0mg"},{"bike_id":"68f6f676-9a25-42e3-b2e9-7d5792c2b89c","system_id":"levelo_inurba_marseille","lat":43.29529,"lon":5.385581,"is_reserved":false,"is_disabled":false,"rental_uris":{"android":"levelo://app?vid=68f6f676-9a25-42e3-b2e9-7d5792c2b89c","ios":"levelo://app?vid=68f6f676-9a25-42e3-b2e9-7d5792c2b89c"},"vehicle_type_id":"4","last_reported":1721416041,"current_range_meters":11600,"station_id":"ce4bgih2rcd13ifvqba0","pricing_plan_id":"cebpf4jnsgd1na2vs0mg"},{"bike_id":"21f3f6c8-f6a1-45f7-bf9a-1c9a29ce422d","system_id":"levelo_inurba_marseille","lat":43.29529,"lon":5.385581,"is_reserved":false,"is_disabled":false,"rental_uris":{"android":"levelo://app?vid=21f3f6c8-f6a1-45f7-bf9a-1c9a29ce422d","ios":"levelo://app?vid=21f3f6c8-f6a1-45f7-bf9a-1c9a29ce422d"},"vehicle_type_id":"4","last_reported":1721416041,"current_range_meters":22400,"station_id":"ce4bgih2rcd13ifvqba0","pricing_plan_id":"cebpf4jnsgd1na2vs0mg"},{"bike_id":"8bc51e80-dd4b-4de0-91e1-b564e9fd9755","system_id":"levelo_inurba_marseille","lat":43.29527,"lon":5.38551,"is_reserved":false,"is_disabled":false,"rental_uris":{"android":"levelo://app?vid=8bc51e80-dd4b-4de0-91e1-b564e9fd9755","ios":"levelo://app?vid=8bc51e80-dd4b-4de0-91e1-b564e9fd9755"},"vehicle_type_id":"4","last_reported":1721416041,"current_range_meters":0,"station_id":"ce4bgih2rcd13ifvqba0","pricing_plan_id":"cebpf4jnsgd1na2vs0mg"},{"bike_id":"66815ef2-d667-43c7-b196-2397521c52e6","system_id":"levelo_inurba_marseille","lat":43.290631,"lon":5.359244,"is_reserved":false,"is_disabled":false,"rental_uris":{"android":"levelo://app?vid=66815ef2-d667-43c7-b196-2397521c52e6","ios":"levelo://app?vid=66815ef2-d667-43c7-b196-2397521c52e6"},"vehicle_type_id":"4","last_reported":1721416041,"current_range_meters":1200,"station_id":"ce4bha92rcd13ifvqeg0","pricing_plan_id":"cebpf4jnsgd1na2vs0mg"},{"bike_id":"ba9cc8c9-e3c5-423c-a67e-c02e194f90e1","system_id":"levelo_inurba_marseille","lat":43.29419,"lon":5.38618,"is_reserved":false,"is_disabled":false,"rental_uris":{"android":"levelo://app?vid=ba9cc8c9-e3c5-423c-a67e-c02e194f90e1","ios":"levelo://app?vid=ba9cc8c9-e3c5-423c-a67e-c02e194f90e1"},"vehicle_type_id":"4","last_reported":1721416041,"current_range_meters":23200,"station_id":"ce4bh2h2rcd13ifvqdh0","pricing_plan_id":"cebpf4jnsgd1na2vs0mg"},{"bike_id":"5eac094f-cf0e-49aa-b5d3-5fea73809ff3","system_id":"levelo_inurba_marseille","lat":43.29418,"lon":5.38618,"is_reserved":false,"is_disabled":false,"rental_uris":{"android":"levelo://app?vid=5eac094f-cf0e-49aa-b5d3-5fea73809ff3","ios":"levelo://app?vid=5eac094f-cf0e-49aa-b5d3-5fea73809ff3"},"vehicle_type_id":"4","last_reported":1721416041,"current_range_meters":0,"station_id":"ce4bh2h2rcd13ifvqdh0","pricing_plan_id":"cebpf4jnsgd1na2vs0mg"},{"bike_id":"0864968e-0ad3-4f25-af91-f7bc4b082bdf","system_id":"levelo_inurba_marseille","lat":43.29418,"lon":5.3862,"is_reserved":false,"is_disabled":false,"rental_uris":{"android":"levelo://app?vid=0864968e-0ad3-4f25-af91-f7bc4b082bdf","ios":"levelo://app?vid=0864968e-0ad3-4f25-af91-f7bc4b082bdf"},"vehicle_type_id":"4","last_reported":1721416041,"current_range_meters":27600,"station_id":"ce4bh2h2rcd13ifvqdh0","pricing_plan_id":"cebpf4jnsgd1na2vs0mg"},{"bike_id":"9f3683b6-22a0-4c48-a195-c7693138cf0c","system_id":"levelo_inurba_marseille","lat":43.294153,"lon":5.386305,"is_reserved":false,"is_disabled":false,"rental_uris":{"android":"levelo://app?vid=9f3683b6-22a0-4c48-a195-c7693138cf0c","ios":"levelo://app?vid=9f3683b6-22a0-4c48-a195-c7693138cf0c"},"vehicle_type_id":"4","last_reported":1721416041,"current_range_meters":31200,"station_id":"ce4bh2h2rcd13ifvqdh0","pricing_plan_id":"cebpf4jnsgd1na2vs0mg"},{"bike_id":"4f9dc228-8a26-49a8-9a40-a85081b6318a","system_id":"levelo_inurba_marseille","lat":43.294153,"lon":5.386305,"is_reserved":false,"is_disabled":false,"rental_uris":{"android":"levelo://app?vid=4f9dc228-8a26-49a8-9a40-a85081b6318a","ios":"levelo://app?vid=4f9dc228-8a26-49a8-9a40-a85081b6318a"},"vehicle_type_id":"4","last_reported":1721416041,"current_range_meters":29600,"station_id":"ce4bh2h2rcd13ifvqdh0","pricing_plan_id":"cebpf4jnsgd1na2vs0mg"},{"bike_id":"ea0aa08f-952b-493a-8dd7-93cb07ff157b","system_id":"levelo_inurba_marseille","lat":43.294153,"lon":5.386305,"is_reserved":false,"is_disabled":false,"rental_uris":{"android":"levelo://app?vid=ea0aa08f-952b-493a-8dd7-93cb07ff157b","ios":"levelo://app?vid=ea0aa08f-952b-493a-8dd7-93cb07ff157b"},"vehicle_type_id":"4","last_reported":1721416041,"current_range_meters":31600,"station_id":"ce4bh2h2rcd13ifvqdh0","pricing_plan_id":"cebpf4jnsgd1na2vs0mg"},{"bike_id":"22c732d2-fb1f-4389-89c3-e15444361424","system_id":"levelo_inurba_marseille","lat":43.294162,"lon":5.386292,"is_reserved":false,"is_disabled":false,"rental_uris":{"android":"levelo://app?vid=22c732d2-fb1f-4389-89c3-e15444361424","ios":"levelo://app?vid=22c732d2-fb1f-4389-89c3-e15444361424"},"vehicle_type_id":"4","last_reported":1721416041,"current_range_meters":23200,"station_id":"ce4bh2h2rcd13ifvqdh0","pricing_plan_id":"cebpf4jnsgd1na2vs0mg"},{"bike_id":"ce56706b-054d-4423-a64e-a37804489aa3","system_id":"levelo_inurba_marseille","lat":43.294162,"lon":5.386292,"is_reserved":false,"is_disabled":false,"rental_uris":{"android":"levelo://app?vid=ce56706b-054d-4423-a64e-a37804489aa3","ios":"levelo://app?vid=ce56706b-054d-4423-a64e-a37804489aa3"},"vehicle_type_id":"4","last_reported":1721416041,"current_range_meters":4000,"station_id":"ce4bh2h2rcd13ifvqdh0","pricing_plan_id":"cebpf4jnsgd1na2vs0mg"},{"bike_id":"09c87fdb-f4a7-4cac-b47e-22b476238e2e","system_id":"levelo_inurba_marseille","lat":43.294162,"lon":5.386292,"is_reserved":false,"is_disabled":false,"rental_uris":{"android":"levelo://app?vid=09c87fdb-f4a7-4cac-b47e-22b476238e2e","ios":"levelo://app?vid=09c87fdb-f4a7-4cac-b47e-22b476238e2e"},"vehicle_type_id":"4","last_reported":1721416041,"current_range_meters":23200,"station_id":"ce4bh2h2rcd13ifvqdh0","pricing_plan_id":"cebpf4jnsgd1na2vs0mg"},{"bike_id":"d1dfff8d-93e5-4585-8324-12ba86b47269","system_id":"levelo_inurba_marseille","lat":43.294153,"lon":5.386305,"is_reserved":false,"is_disabled":false,"rental_uris":{"android":"levelo://app?vid=d1dfff8d-93e5-4585-8324-12ba86b47269","ios":"levelo://app?vid=d1dfff8d-93e5-4585-8324-12ba86b47269"},"vehicle_type_id":"4","last_reported":1721416041,"current_range_meters":1200,"station_id":"ce4bh2h2rcd13ifvqdh0","pricing_plan_id":"cebpf4jnsgd1na2vs0mg"},{"bike_id":"1fe480f4-6fa4-4d8f-8691-1c0c01875bf7","system_id":"levelo_inurba_marseille","lat":43.294153,"lon":5.386305,"is_reserved":false,"is_disabled":false,"rental_uris":{"android":"levelo://app?vid=1fe480f4-6fa4-4d8f-8691-1c0c01875bf7","ios":"levelo://app?vid=1fe480f4-6fa4-4d8f-8691-1c0c01875bf7"},"vehicle_type_id":"4","last_reported":1721416041,"current_range_meters":23200,"station_id":"ce4bh2h2rcd13ifvqdh0","pricing_plan_id":"cebpf4jnsgd1na2vs0mg"},{"bike_id":"e55a4559-29d5-40df-99d2-e9021d9ce773","system_id":"levelo_inurba_marseille","lat":43.294153,"lon":5.386305,"is_reserved":false,"is_disabled":false,"rental_uris":{"android":"levelo://app?vid=e55a4559-29d5-40df-99d2-e9021d9ce773","ios":"levelo://app?vid=e55a4559-29d5-40df-99d2-e9021d9ce773"},"vehicle_type_id":"4","last_reported":1721416041,"current_range_meters":10000,"station_id":"ce4bh2h2rcd13ifvqdh0","pricing_plan_id":"cebpf4jnsgd1na2vs0mg"},{"bike_id":"b51f04cc-28f9-4b05-8675-e3fa21695608","system_id":"levelo_inurba_marseille","lat":43.294162,"lon":5.386292,"is_reserved":false,"is_disabled":false,"rental_uris":{"android":"levelo://app?vid=b51f04cc-28f9-4b05-8675-e3fa21695608","ios":"levelo://app?vid=b51f04cc-28f9-4b05-8675-e3fa21695608"},"vehicle_type_id":"4","last_reported":1721416041,"current_range_meters":17600,"station_id":"ce4bh2h2rcd13ifvqdh0","pricing_plan_id":"cebpf4jnsgd1na2vs0mg"},{"bike_id":"f49f2154-d1a8-4d86-bdff-f5677e019575","system_id":"levelo_inurba_marseille","lat":43.294162,"lon":5.386292,"is_reserved":false,"is_disabled":false,"rental_uris":{"android":"levelo://app?vid=f49f2154-d1a8-4d86-bdff-f5677e019575","ios":"levelo://app?vid=f49f2154-d1a8-4d86-bdff-f5677e019575"},"vehicle_type_id":"4","last_reported":1721416041,"current_range_meters":28800,"station_id":"ce4bh2h2rcd13ifvqdh0","pricing_plan_id":"cebpf4jnsgd1na2vs0mg"},{"bike_id":"02085a06-a4f2-45c2-93e6-65b3cd640703","system_id":"levelo_inurba_marseille","lat":43.290327,"lon":5.375711,"is_reserved":false,"is_disabled":false,"rental_uris":{"android":"levelo://app?vid=02085a06-a4f2-45c2-93e6-65b3cd640703","ios":"levelo://app?vid=02085a06-a4f2-45c2-93e6-65b3cd640703"},"vehicle_type_id":"4","last_reported":1721416041,"current_range_meters":6400,"station_id":"ce4bh692rcd13ifvqe90","pricing_plan_id":"cebpf4jnsgd1na2vs0mg"},{"bike_id":"afbecf48-da9e-44f1-883f-55f0f89ebd0f","system_id":"levelo_inurba_marseille","lat":43.29416,"lon":5.38628,"is_reserved":false,"is_disabled":false,"rental_uris":{"android":"levelo://app?vid=afbecf48-da9e-44f1-883f-55f0f89ebd0f","ios":"levelo://app?vid=afbecf48-da9e-44f1-883f-55f0f89ebd0f"},"vehicle_type_id":"4","last_reported":1721416041,"current_range_meters":14800,"station_id":"ce4bh2h2rcd13ifvqdh0","pricing_plan_id":"cebpf4jnsgd1na2vs0mg"},{"bike_id":"5f0c1d60-b442-4b80-985d-a5aec90c198a","system_id":"levelo_inurba_marseille","lat":43.294162,"lon":5.386292,"is_reserved":false,"is_disabled":false,"rental_uris":{"android":"levelo://app?vid=5f0c1d60-b442-4b80-985d-a5aec90c198a","ios":"levelo://app?vid=5f0c1d60-b442-4b80-985d-a5aec90c198a"},"vehicle_type_id":"4","last_reported":1721416041,"current_range_meters":30000,"station_id":"ce4bh2h2rcd13ifvqdh0","pricing_plan_id":"cebpf4jnsgd1na2vs0mg"},{"bike_id":"d089088c-b5b0-47e5-acb3-ca9fa368bfb6","system_id":"levelo_inurba_marseille","lat":43.294153,"lon":5.386305,"is_reserved":false,"is_disabled":false,"rental_uris":{"android":"levelo://app?vid=d089088c-b5b0-47e5-acb3-ca9fa368bfb6","ios":"levelo://app?vid=d089088c-b5b0-47e5-acb3-ca9fa368bfb6"},"vehicle_type_id":"4","last_reported":1721416041,"current_range_meters":29600,"station_id":"ce4bh2h2rcd13ifvqdh0","pricing_plan_id":"cebpf4jnsgd1na2vs0mg"},{"bike_id":"95f63150-14d0-42b6-a2d2-e00e0df6afa5","system_id":"levelo_inurba_marseille","lat":43.294162,"lon":5.386292,"is_reserved":false,"is_disabled":false,"rental_uris":{"android":"levelo://app?vid=95f63150-14d0-42b6-a2d2-e00e0df6afa5","ios":"levelo://app?vid=95f63150-14d0-42b6-a2d2-e00e0df6afa5"},"vehicle_type_id":"4","last_reported":1721416041,"current_range_meters":26400,"station_id":"ce4bh2h2rcd13ifvqdh0","pricing_plan_id":"cebpf4jnsgd1na2vs0mg"},{"bike_id":"0fbec0cd-0ae6-4e20-82fc-c311ed96c8bb","system_id":"levelo_inurba_marseille","lat":43.294162,"lon":5.386292,"is_reserved":false,"is_disabled":false,"rental_uris":{"android":"levelo://app?vid=0fbec0cd-0ae6-4e20-82fc-c311ed96c8bb","ios":"levelo://app?vid=0fbec0cd-0ae6-4e20-82fc-c311ed96c8bb"},"vehicle_type_id":"4","last_reported":1721416041,"current_range_meters":28400,"station_id":"ce4bh2h2rcd13ifvqdh0","pricing_plan_id":"cebpf4jnsgd1na2vs0mg"},{"bike_id":"818f4343-7a0e-4d3e-bf8d-cfe87a13637c","system_id":"levelo_inurba_marseille","lat":43.294162,"lon":5.386292,"is_reserved":false,"is_disabled":false,"rental_uris":{"android":"levelo://app?vid=818f4343-7a0e-4d3e-bf8d-cfe87a13637c","ios":"levelo://app?vid=818f4343-7a0e-4d3e-bf8d-cfe87a13637c"},"vehicle_type_id":"4","last_reported":1721416041,"current_range_meters":23600,"station_id":"ce4bh2h2rcd13ifvqdh0","pricing_plan_id":"cebpf4jnsgd1na2vs0mg"},{"bike_id":"b8a7a29e-ca69-420d-b4cf-36a816115f99","system_id":"levelo_inurba_marseille","lat":43.294162,"lon":5.386292,"is_reserved":false,"is_disabled":false,"rental_uris":{"android":"levelo://app?vid=b8a7a29e-ca69-420d-b4cf-36a816115f99","ios":"levelo://app?vid=b8a7a29e-ca69-420d-b4cf-36a816115f99"},"vehicle_type_id":"4","last_reported":1721416041,"current_range_meters":30000,"station_id":"ce4bh2h2rcd13ifvqdh0","pricing_plan_id":"cebpf4jnsgd1na2vs0mg"},{"bike_id":"bc7f5cda-154e-418f-8989-717ee14138e8","system_id":"levelo_inurba_marseille","lat":43.294162,"lon":5.386292,"is_reserved":false,"is_disabled":false,"rental_uris":{"android":"levelo://app?vid=bc7f5cda-154e-418f-8989-717ee14138e8","ios":"levelo://app?vid=bc7f5cda-154e-418f-8989-717ee14138e8"},"vehicle_type_id":"4","last_reported":1721416041,"current_range_meters":31600,"station_id":"ce4bh2h2rcd13ifvqdh0","pricing_plan_id":"cebpf4jnsgd1na2vs0mg"},{"bike_id":"3c0d8705-7092-4791-b54a-62f39a3cdb00","system_id":"levelo_inurba_marseille","lat":43.289184,"lon":5.366408,"is_reserved":false,"is_disabled":false,"rental_uris":{"android":"levelo://app?vid=3c0d8705-7092-4791-b54a-62f39a3cdb00","ios":"levelo://app?vid=3c0d8705-7092-4791-b54a-62f39a3cdb00"},"vehicle_type_id":"4","last_reported":1721416041,"current_range_meters":30000,"station_id":"ce4bhap2rcd13ifvqek0","pricing_plan_id":"cebpf4jnsgd1na2vs0mg"},{"bike_id":"9f98bb2e-3a02-4fea-b30b-bba57f742274","system_id":"levelo_inurba_marseille","lat":43.294162,"lon":5.386292,"is_reserved":false,"is_disabled":false,"rental_uris":{"android":"levelo://app?vid=9f98bb2e-3a02-4fea-b30b-bba57f742274","ios":"levelo://app?vid=9f98bb2e-3a02-4fea-b30b-bba57f742274"},"vehicle_type_id":"4","last_reported":1721416041,"current_range_meters":30000,"station_id":"ce4bh2h2rcd13ifvqdh0","pricing_plan_id":"cebpf4jnsgd1na2vs0mg"},{"bike_id":"e92f8e6b-3408-4415-87c0-e0a872159e16","system_id":"levelo_inurba_marseille","lat":43.28936,"lon":5.36625,"is_reserved":false,"is_disabled":false,"rental_uris":{"android":"levelo://app?vid=e92f8e6b-3408-4415-87c0-e0a872159e16","ios":"levelo://app?vid=e92f8e6b-3408-4415-87c0-e0a872159e16"},"vehicle_type_id":"4","last_reported":1721416041,"current_range_meters":31200,"station_id":"ce4bhap2rcd13ifvqek0","pricing_plan_id":"cebpf4jnsgd1na2vs0mg"},{"bike_id":"c595b2cb-84ba-4ccc-ac21-e72369ddec0b","system_id":"levelo_inurba_marseille","lat":43.289445,"lon":5.364035,"is_reserved":false,"is_disabled":false,"rental_uris":{"android":"levelo://app?vid=c595b2cb-84ba-4ccc-ac21-e72369ddec0b","ios":"levelo://app?vid=c595b2cb-84ba-4ccc-ac21-e72369ddec0b"},"vehicle_type_id":"4","last_reported":1721416041,"current_range_meters":26800,"station_id":"ce4bhc92rcd13ifvqetg","pricing_plan_id":"cebpf4jnsgd1na2vs0mg"},{"bike_id":"6702b9f2-465f-4343-b3ab-7725db2f385b","system_id":"levelo_inurba_marseille","lat":43.28934,"lon":5.3663,"is_reserved":false,"is_disabled":false,"rental_uris":{"android":"levelo://app?vid=6702b9f2-465f-4343-b3ab-7725db2f385b","ios":"levelo://app?vid=6702b9f2-465f-4343-b3ab-7725db2f385b"},"vehicle_type_id":"4","last_reported":1721416041,"current_range_meters":31200,"station_id":"ce4bhap2rcd13ifvqek0","pricing_plan_id":"cebpf4jnsgd1na2vs0mg"},{"bike_id":"765d4d7c-311a-4859-977f-46eba2d4d738","system_id":"levelo_inurba_marseille","lat":43.292642,"lon":5.384254,"is_reserved":false,"is_disabled":false,"rental_uris":{"android":"levelo://app?vid=765d4d7c-311a-4859-977f-46eba2d4d738","ios":"levelo://app?vid=765d4d7c-311a-4859-977f-46eba2d4d738"},"vehicle_type_id":"4","last_reported":1721416041,"current_range_meters":0,"station_id":"ce4bh692rcd13ifvqea0","pricing_plan_id":"cebpf4jnsgd1na2vs0mg"},{"bike_id":"4f9a453d-5286-4071-baba-988f13ec7bb6","system_id":"levelo_inurba_marseille","lat":43.292705,"lon":5.384409,"is_reserved":false,"is_disabled":false,"rental_uris":{"android":"levelo://app?vid=4f9a453d-5286-4071-baba-988f13ec7bb6","ios":"levelo://app?vid=4f9a453d-5286-4071-baba-988f13ec7bb6"},"vehicle_type_id":"4","last_reported":1721416041,"current_range_meters":10800,"station_id":"ce4bh2h2rcd13ifvqdh0","pricing_plan_id":"cebpf4jnsgd1na2vs0mg"},{"bike_id":"bf4d223c-65a1-44a0-ba3d-4c496a308920","system_id":"levelo_inurba_marseille","lat":43.292642,"lon":5.384254,"is_reserved":false,"is_disabled":false,"rental_uris":{"android":"levelo://app?vid=bf4d223c-65a1-44a0-ba3d-4c496a308920","ios":"levelo://app?vid=bf4d223c-65a1-44a0-ba3d-4c496a308920"},"vehicle_type_id":"4","last_reported":1721416041,"current_range_meters":15600,"station_id":"ce4bh692rcd13ifvqea0","pricing_plan_id":"cebpf4jnsgd1na2vs0mg"},{"bike_id":"23c0da06-47b3-479a-802d-d41f91966f6c","system_id":"levelo_inurba_marseille","lat":43.292644,"lon":5.384257,"is_reserved":false,"is_disabled":false,"rental_uris":{"android":"levelo://app?vid=23c0da06-47b3-479a-802d-d41f91966f6c","ios":"levelo://app?vid=23c0da06-47b3-479a-802d-d41f91966f6c"},"vehicle_type_id":"4","last_reported":1721416041,"current_range_meters":1600,"station_id":"ce4bh692rcd13ifvqea0","pricing_plan_id":"cebpf4jnsgd1na2vs0mg"},{"bike_id":"f35574f0-41dc-4efc-a514-f25a898a8734","system_id":"levelo_inurba_marseille","lat":43.304296,"lon":5.397513,"is_reserved":false,"is_disabled":false,"rental_uris":{"android":"levelo://app?vid=f35574f0-41dc-4efc-a514-f25a898a8734","ios":"levelo://app?vid=f35574f0-41dc-4efc-a514-f25a898a8734"},"vehicle_type_id":"4","last_reported":1721416041,"current_range_meters":0,"station_id":"ce4bh092rcd13ifvqd20","pricing_plan_id":"cebpf4jnsgd1na2vs0mg"},{"bike_id":"4fb89407-4026-4e10-b425-c966b4500bc7","system_id":"levelo_inurba_marseille","lat":43.292642,"lon":5.384254,"is_reserved":false,"is_disabled":false,"rental_uris":{"android":"levelo://app?vid=4fb89407-4026-4e10-b425-c966b4500bc7","ios":"levelo://app?vid=4fb89407-4026-4e10-b425-c966b4500bc7"},"vehicle_type_id":"4","last_reported":1721416041,"current_range_meters":400,"station_id":"ce4bh692rcd13ifvqea0","pricing_plan_id":"cebpf4jnsgd1na2vs0mg"},{"bike_id":"608ef8f3-1a85-4674-8784-b02c2bdb92b5","system_id":"levelo_inurba_marseille","lat":43.292642,"lon":5.384254,"is_reserved":false,"is_disabled":false,"rental_uris":{"android":"levelo://app?vid=608ef8f3-1a85-4674-8784-b02c2bdb92b5","ios":"levelo://app?vid=608ef8f3-1a85-4674-8784-b02c2bdb92b5"},"vehicle_type_id":"4","last_reported":1721416041,"current_range_meters":0,"station_id":"ce4bh692rcd13ifvqea0","pricing_plan_id":"cebpf4jnsgd1na2vs0mg"},