{"last_updated":1765901742,"ttl":60,"version":"2.2","data":{"bikes":[{"bike_id":"f5f25559-d746-4be8-afc4-49941e97fed4","system_id":"levelo_inurba_marseille","lat":43.255034,"lon":5.376485,"is_reserved":false,"is_disabled":false,"rental_uris":{"android":"levelo://app?vid=f5f25559-d746-4be8-afc4-49941e97fed4","ios":"levelo://app?vid=f5f25559-d746-4be8-afc4-49941e97fed4"},"vehicle_type_id":"4","last_reported":1765901743,"current_range_meters":2800,"station_id":"ce4bhh12rcd13ifvqff0","pricing_plan_id":"cebpf4jnsgd1na2vs0mg"},{"bike_id":"badd8d20-9209-4436-9c1f-a017c0e70e8a","system_id":"levelo_inurba_marseille","lat":43.3256,"lon":5.39321,"is_reserved":false,"is_disabled":false,"rental_uris":{"android":"levelo://app?vid=badd8d20-9209-4436-9c1f-a017c0e70e8a","ios":"levelo://app?vid=badd8d20-9209-4436-9c1f-a017c0e70e8a"},"vehicle_type_id":"4","last_reported":1765901743,"current_range_meters":2800,"station_id":"","pricing_plan_id":"cebpf4jnsgd1na2vs0mg"},{"bike_id":"a6bfd9b2-7f15-426c-b73b-e405e8711977","system_id":"levelo_inurba_marseille","lat":43.31052,"lon":5.37468,"is_reserved":false,"is_disabled":false,"rental_uris":{"android":"levelo://app?vid=a6bfd9b2-7f15-426c-b73b-e405e8711977","ios":"levelo://app?vid=a6bfd9b2-7f15-426c-b73b-e405e8711977"},"vehicle_type_id":"4","last_reported":1765901743,"current_range_meters":3200,"station_id":"","pricing_plan_id":"cebpf4jnsgd1na2vs0mg"},{"bike_id":"5401299f-dd38-4288-ac7a-91e2685a810d","system_id":"levelo_inurba_marseille","lat":43.28977,"lon":5.37832,"is_reserved":false,"is_disabled":false,"rental_uris":{"android":"levelo://app?vid=5401299f-dd38-4288-ac7a-91e2685a810d","ios":"levelo://app?vid=5401299f-dd38-4288-ac7a-91e2685a810d"},"vehicle_type_id":"4","last_reported":1765901743,"current_range_meters":3200,"station_id":"ce4bh9p2rcd13ifvqed0","pricing_plan_id":"cebpf4jnsgd1na2vs0mg"},{"bike_id":"a56aa38d-871e-4b95-a0d7-b0725e3936dd","system_id":"levelo_inurba_marseille","lat":43.253376,"lon":5.421717,"is_reserved":false,"is_disabled":false,"rental_uris":{"android":"levelo://app?vid=a56aa38d-871e-4b95-a0d7-b0725e3936dd","ios":"levelo://app?vid=a56aa38d-871e-4b95-a0d7-b0725e3936dd"},"vehicle_type_id":"4","last_reported":1765901743,"current_range_meters":3200,"station_id":"st_d2m65c5bi1j21697t3ng","pricing_plan_id":"cebpf4jnsgd1na2vs0mg"},{"bike_id":"c4099e76-a2f4-48a3-89a9-a2a40410a4f8","system_id":"levelo_inurba_marseille","lat":43.29813,"lon":5.44066,"is_reserved":false,"is_disabled":false,"rental_uris":{"android":"levelo://app?vid=c4099e76-a2f4-48a3-89a9-a2a40410a4f8","ios":"levelo://app?vid=c4099e76-a2f4-48a3-89a9-a2a40410a4f8"},"vehicle_type_id":"4","last_reported":1765901743,"current_range_meters":3200,"station_id":"st_d3jp68qikq2c7381ktn0","pricing_plan_id":"cebpf4jnsgd1na2vs0mg"},{"bike_id":"7767834f-391d-4159-84e9-3c450489d90c","system_id":"levelo_inurba_marseille","lat":43.28841,"lon":5.39316,"is_reserved":false,"is_disabled":false,"rental_uris":{"android":"levelo://app?vid=7767834f-391d-4159-84e9-3c450489d90c","ios":"levelo://app?vid=7767834f-391d-4159-84e9-3c450489d90c"},"vehicle_type_id":"4","last_reported":1765901743,"current_range_meters":3200,"station_id":"ce4bh2p2rcd13ifvqdi0","pricing_plan_id":"cebpf4jnsgd1na2vs0mg"},{"bike_id":"8dd9d0ec-54b7-403d-b624-df14f0232d77","system_id":"levelo_inurba_marseille","lat":43.2756,"lon":5.38415,"is_reserved":false,"is_disabled":false,"rental_uris":{"android":"levelo://app?vid=8dd9d0ec-54b7-403d-b624-df14f0232d77","ios":"levelo://app?vid=8dd9d0ec-54b7-403d-b624-df14f0232d77"},"vehicle_type_id":"4","last_reported":1765901743,"current_range_meters":3200,"station_id":"ce4bhh92rcd13ifvqfi0","pricing_plan_id":"cebpf4jnsgd1na2vs0mg"},{"bike_id":"ba050ca6-523e-44e9-af17-ee2400f9bbbe","system_id":"levelo_inurba_marseille","lat":43.25863,"lon":5.39898,"is_reserved":false,"is_disabled":false,"rental_uris":{"android":"levelo://app?vid=ba050ca6-523e-44e9-af17-ee2400f9bbbe","ios":"levelo://app?vid=ba050ca6-523e-44e9-af17-ee2400f9bbbe"},"vehicle_type_id":"4","last_reported":1765901743,"current_range_meters":3600,"station_id":"ce4bhl92rcd13ifvqghg","pricing_plan_id":"cebpf4jnsgd1na2vs0mg"},{"bike_id":"b0fe5393-fed7-4131-b477-a0f577b37311","system_id":"levelo_inurba_marseille","lat":43.2792,"lon":5.395749,"is_reserved":false,"is_disabled":false,"rental_uris":{"android":"levelo://app?vid=b0fe5393-fed7-4131-b477-a0f577b37311","ios":"levelo://app?vid=b0fe5393-fed7-4131-b477-a0f577b37311"},"vehicle_type_id":"4","last_reported":1765901743,"current_range_meters":3600,"station_id":"ce4bhf92rcd13ifvqf40","pricing_plan_id":"cebpf4jnsgd1na2vs0mg"},{"bike_id":"8cebc640-98e5-454b-9c21-5bd82aaad1ae","system_id":"levelo_inurba_marseille","lat":43.265654,"lon":5.403262,"is_reserved":false,"is_disabled":false,"rental_uris":{"android":"levelo://app?vid=8cebc640-98e5-454b-9c21-5bd82aaad1ae","ios":"levelo://app?vid=8cebc640-98e5-454b-9c21-5bd82aaad1ae"},"vehicle_type_id":"4","last_reported":1765901743,"current_range_meters":4000,"station_id":"ce4bhmp2rcd13ifvqgng","pricing_plan_id":"cebpf4jnsgd1na2vs0mg"},{"bike_id":"87c51353-fe61-4491-aa98-9c8dd6f639a6","system_id":"levelo_inurba_marseille","lat":43.28003,"lon":5.40008,"is_reserved":false,"is_disabled":false,"rental_uris":{"android":"levelo://app?vid=87c51353-fe61-4491-aa98-9c8dd6f639a6","ios":"levelo://app?vid=87c51353-fe61-4491-aa98-9c8dd6f639a6"},"vehicle_type_id":"4","last_reported":1765901743,"current_range_meters":4000,"station_id":"ce4bho92rcd13ifvqh4g","pricing_plan_id":"cebpf4jnsgd1na2vs0mg"},{"bike_id":"3c47f11f-8963-4b41-ab50-c447961cde01","system_id":"levelo_inurba_marseille","lat":43.273665,"lon":5.393258,"is_reserved":false,"is_disabled":false,"rental_uris":{"android":"levelo://app?vid=3c47f11f-8963-4b41-ab50-c447961cde01","ios":"levelo://app?vid=3c47f11f-8963-4b41-ab50-c447961cde01"},"vehicle_type_id":"4","last_reported":1765901743,"current_range_meters":4000,"station_id":"ce4bhdp2rcd13ifvqf20","pricing_plan_id":"cebpf4jnsgd1na2vs0mg"},{"bike_id":"4dac32bf-f9db-4af3-88e0-f924fb123f80","system_id":"levelo_inurba_marseille","lat":43.286853,"lon":5.373874,"is_reserved":false,"is_disabled":false,"rental_uris":{"android":"levelo://app?vid=4dac32bf-f9db-4af3-88e0-f924fb123f80","ios":"levelo://app?vid=4dac32bf-f9db-4af3-88e0-f924fb123f80"},"vehicle_type_id":"4","last_reported":1765901743,"current_range_meters":4000,"station_id":"","pricing_plan_id":"cebpf4jnsgd1na2vs0mg"},{"bike_id":"4f6d8ad0-3991-4a51-b3dc-266a2ca4a7fe","system_id":"levelo_inurba_marseille","lat":43.29048,"lon":5.39985,"is_reserved":false,"is_disabled":true,"rental_uris":{"android":"levelo://app?vid=4f6d8ad0-3991-4a51-b3dc-266a2ca4a7fe","ios":"levelo://app?vid=4f6d8ad0-3991-4a51-b3dc-266a2ca4a7fe"},"vehicle_type_id":"4","last_reported":1765901743,"current_range_meters":4400,"station_id":"ce4bh392rcd13ifvqdm0","pricing_plan_id":"cebpf4jnsgd1na2vs0mg"},{"bike_id":"763fc40b-6d92-41e6-938b-cae70e53c81e","system_id":"levelo_inurba_marseille","lat":43.29533,"lon":5.3855,"is_reserved":false,"is_disabled":false,"rental_uris":{"android":"levelo://app?vid=763fc40b-6d92-41e6-938b-cae70e53c81e","ios":"levelo://app?vid=763fc40b-6d92-41e6-938b-cae70e53c81e"},"vehicle_type_id":"4","last_reported":1765901743,"current_range_meters":4400,"station_id":"ce4bgih2rcd13ifvqba0","pricing_plan_id":"cebpf4jnsgd1na2vs0mg"},{"bike_id":"f569d590-e57f-4534-ab38-7a4d96c77f05","system_id":"levelo_inurba_marseille","lat":43.27942,"lon":5.410411,"is_reserved":false,"is_disabled":false,"rental_uris":{"android":"levelo://app?vid=f569d590-e57f-4534-ab38-7a4d96c77f05","ios":"levelo://app?vid=f569d590-e57f-4534-ab38-7a4d96c77f05"},"vehicle_type_id":"4","last_reported":1765901743,"current_range_meters":4800,"station_id":"ce4bhnp2rcd13ifvqh0g","pricing_plan_id":"cebpf4jnsgd1na2vs0mg"},{"bike_id":"66e10194-8e2d-4634-89ad-d66d649b5e60","system_id":"levelo_inurba_marseille","lat":43.28478,"lon":5.48396,"is_reserved":false,"is_disabled":false,"rental_uris":{"android":"levelo://app?vid=66e10194-8e2d-4634-89ad-d66d649b5e60","ios":"levelo://app?vid=66e10194-8e2d-4634-89ad-d66d649b5e60"},"vehicle_type_id":"4","last_reported":1765901743,"current_range_meters":4800,"station_id":"","pricing_plan_id":"cebpf4jnsgd1na2vs0mg"},{"bike_id":"b3475016-5093-421c-8026-443b2787f60b","system_id":"levelo_inurba_marseille","lat":43.273792,"lon":5.362608,"is_reserved":false,"is_disabled":false,"rental_uris":{"android":"levelo://app?vid=b3475016-5093-421c-8026-443b2787f60b","ios":"levelo://app?vid=b3475016-5093-421c-8026-443b2787f60b"},"vehicle_type_id":"4","last_reported":1765901743,"current_range_meters":4800,"station_id":"ce4bhbh2rcd13ifvqeo0","pricing_plan_id":"cebpf4jnsgd1na2vs0mg"},{"bike_id":"af60ad45-1773-4b17-8cbf-b5714f9a120e","system_id":"levelo_inurba_marseille","lat":43.337666,"lon":5.374436,"is_reserved":false,"is_disabled":false,"rental_uris":{"android":"levelo://app?vid=af60ad45-1773-4b17-8cbf-b5714f9a120e","ios":"levelo://app?vid=af60ad45-1773-4b17-8cbf-b5714f9a120e"},"vehicle_type_id":"4","last_reported":1765901743,"current_range_meters":5600,"station_id":"","pricing_plan_id":"cebpf4jnsgd1na2vs0mg"},{"bike_id":"2527595f-7234-4332-9d75-3340c14bdad1","system_id":"levelo_inurba_marseille","lat":43.30613,"lon":5.37213,"is_reserved":false,"is_disabled":false,"rental_uris":{"android":"levelo://app?vid=2527595f-7234-4332-9d75-3340c14bdad1","ios":"levelo://app?vid=2527595f-7234-4332-9d75-3340c14bdad1"},"vehicle_type_id":"4","last_reported":1765901743,"current_range_meters":5600,"station_id":"ce4bgqh2rcd13ifvqc4g","pricing_plan_id":"cebpf4jnsgd1na2vs0mg"},{"bike_id":"568b4787-bae1-4d35-b548-b03783306bee","system_id":"levelo_inurba_marseille","lat":43.29889,"lon":5.39726,"is_reserved":false,"is_disabled":false,"rental_uris":{"android":"levelo://app?vid=568b4787-bae1-4d35-b548-b03783306bee","ios":"levelo://app?vid=568b4787-bae1-4d35-b548-b03783306bee"},"vehicle_type_id":"4","last_reported":1765901743,"current_range_meters":5600,"station_id":"ce4bh0h2rcd13ifvqd50","pricing_plan_id":"cebpf4jnsgd1na2vs0mg"},{"bike_id":"94d76c08-3047-4f2a-961a-4afcad6f91bb","system_id":"levelo_inurba_marseille","lat":43.2928,"lon":5.40116,"is_reserved":false,"is_disabled":false,"rental_uris":{"android":"levelo://app?vid=94d76c08-3047-4f2a-961a-4afcad6f91bb","ios":"levelo://app?vid=94d76c08-3047-4f2a-961a-4afcad6f91bb"},"vehicle_type_id":"4","last_reported":1765901743,"current_range_meters":5600,"station_id":"ce4bh312rcd13ifvqdk0","pricing_plan_id":"cebpf4jnsgd1na2vs0mg"},{"bike_id":"b619e79e-7985-4a28-9d70-8757c91c23fc","system_id":"levelo_inurba_marseille","lat":43.29814,"lon":5.44065,"is_reserved":false,"is_disabled":false,"rental_uris":{"android":"levelo://app?vid=b619e79e-7985-4a28-9d70-8757c91c23fc","ios":"levelo://app?vid=b619e79e-7985-4a28-9d70-8757c91c23fc"},"vehicle_type_id":"4","last_reported":1765901743,"current_range_meters":5600,"station_id":"st_d3jp68qikq2c7381ktn0","pricing_plan_id":"cebpf4jnsgd1na2vs0mg"},{"bike_id":"6fe3060f-17ee-4243-91a2-653d74d75a11","system_id":"levelo_inurba_marseille","lat":43.2257,"lon":5.348,"is_reserved":false,"is_disabled":false,"rental_uris":{"android":"levelo://app?vid=6fe3060f-17ee-4243-91a2-653d74d75a11","ios":"levelo://app?vid=6fe3060f-17ee-4243-91a2-653d74d75a11"},"vehicle_type_id":"4","last_reported":1765901743,"current_range_meters":6000,"station_id":"","pricing_plan_id":"cebpf4jnsgd1na2vs0mg"},{"bike_id":"4a0d3cd1-7adf-484f-a589-90c80406ab4e","system_id":"levelo_inurba_marseille","lat":43.23792,"lon":5.43552,"is_reserved":false,"is_disabled":false,"rental_uris":{"android":"levelo://app?vid=4a0d3cd1-7adf-484f-a589-90c80406ab4e","ios":"levelo://app?vid=4a0d3cd1-7adf-484f-a589-90c80406ab4e"},"vehicle_type_id":"4","last_reported":1765901743,"current_range_meters":6000,"station_id":"","pricing_plan_id":"cebpf4jnsgd1na2vs0mg"},{"bike_id":"5cfcac19-e885-4209-96ab-a70a0192b25a","system_id":"levelo_inurba_marseille","lat":43.33768,"lon":5.37427,"is_reserved":false,"is_disabled":false,"rental_uris":{"android":"levelo://app?vid=5cfcac19-e885-4209-96ab-a70a0192b25a","ios":"levelo://app?vid=5cfcac19-e885-4209-96ab-a70a0192b25a"},"vehicle_type_id":"4","last_reported":1765901743,"current_range_meters":6000,"station_id":"","pricing_plan_id":"cebpf4jnsgd1na2vs0mg"},{"bike_id":"aac3a556-eab0-4156-bc9c-29564664e6f5","system_id":"levelo_inurba_marseille","lat":43.337725,"lon":5.374316,"is_reserved":false,"is_disabled":false,"rental_uris":{"android":"levelo://app?vid=aac3a556-eab0-4156-bc9c-29564664e6f5","ios":"levelo://app?vid=aac3a556-eab0-4156-bc9c-29564664e6f5"},"vehicle_type_id":"4","last_reported":1765901743,"current_range_meters":6000,"station_id":"","pricing_plan_id":"cebpf4jnsgd1na2vs0mg"},{"bike_id":"9784245b-566a-4dd7-842e-2bf22ecfec96","system_id":"levelo_inurba_marseille","lat":43.265629,"lon":5.403252,"is_reserved":false,"is_disabled":false,"rental_uris":{"android":"levelo://app?vid=9784245b-566a-4dd7-842e-2bf22ecfec96","ios":"levelo://app?vid=9784245b-566a-4dd7-842e-2bf22ecfec96"},"vehicle_type_id":"4","last_reported":1765901743,"current_range_meters":6000,"station_id":"ce4bgqh2rcd13ifvqc5g","pricing_plan_id":"cebpf4jnsgd1na2vs0mg"},{"bike_id":"dc80499c-d0bf-43ba-b846-2b355f093d76","system_id":"levelo_inurba_marseille","lat":43.28942,"lon":5.36641,"is_reserved":false,"is_disabled":false,"rental_uris":{"android":"levelo://app?vid=dc80499c-d0bf-43ba-b846-2b355f093d76","ios":"levelo://app?vid=dc80499c-d0bf-43ba-b846-2b355f093d76"},"vehicle_type_id":"4","last_reported":1765901743,"current_range_meters":6400,"station_id":"ce4bhap2rcd13ifvqek0","pricing_plan_id":"cebpf4jnsgd1na2vs0mg"},{"bike_id":"9f892655-2a03-4c94-832d-34f5a43b623e","system_id":"levelo_inurba_marseille","lat":43.24408,"lon":5.37046,"is_reserved":false,"is_disabled":false,"rental_uris":{"android":"levelo://app?vid=9f892655-2a03-4c94-832d-34f5a43b623e","ios":"levelo://app?vid=9f892655-2a03-4c94-832d-34f5a43b623e"},"vehicle_type_id":"4","last_reported":1765901743,"current_range_meters":6400,"station_id":"ce4bhhh2rcd13ifvqfk0","pricing_plan_id":"cebpf4jnsgd1na2vs0mg"},{"bike_id":"0300703c-eb70-486d-8dcb-3ab8dd70d6cc","system_id":"levelo_inurba_marseille","lat":43.28536,"lon":5.44104,"is_reserved":false,"is_disabled":false,"rental_uris":{"android":"levelo://app?vid=0300703c-eb70-486d-8dcb-3ab8dd70d6cc","ios":"levelo://app?vid=0300703c-eb70-486d-8dcb-3ab8dd70d6cc"},"vehicle_type_id":"4","last_reported":1765901743,"current_range_meters":6400,"station_id":"st_d3j3df2ikq2c7380ej80","pricing_plan_id":"cebpf4jnsgd1na2vs0mg"},{"bike_id":"b5d63cab-7292-4c85-8075-cef67fadeb9d","system_id":"levelo_inurba_marseille","lat":43.28483,"lon":5.48389,"is_reserved":false,"is_disabled":false,"rental_uris":{"android":"levelo://app?vid=b5d63cab-7292-4c85-8075-cef67fadeb9d","ios":"levelo://app?vid=b5d63cab-7292-4c85-8075-cef67fadeb9d"},"vehicle_type_id":"4","last_reported":1765901743,"current_range_meters":6400,"station_id":"st_d3svhcjqgbts73a3dn0g","pricing_plan_id":"cebpf4jnsgd1na2vs0mg"},{"bike_id":"e5967918-583b-4714-bec6-e89ae6b5ee60","system_id":"levelo_inurba_marseille","lat":43.26689,"lon":5.382736,"is_reserved":false,"is_disabled":false,"rental_uris":{"android":"levelo://app?vid=e5967918-583b-4714-bec6-e89ae6b5ee60","ios":"levelo://app?vid=e5967918-583b-4714-bec6-e89ae6b5ee60"},"vehicle_type_id":"4","last_reported":1765901743,"current_range_meters":6400,"station_id":"ce4bhg92rcd13ifvqf90","pricing_plan_id":"cebpf4jnsgd1na2vs0mg"},{"bike_id":"435dbca3-0731-42ee-aef7-95ce6a58886b","system_id":"levelo_inurba_marseille","lat":43.2417,"lon":5.39734,"is_reserved":false,"is_disabled":false,"rental_uris":{"android":"levelo://app?vid=435dbca3-0731-42ee-aef7-95ce6a58886b","ios":"levelo://app?vid=435dbca3-0731-42ee-aef7-95ce6a58886b"},"vehicle_type_id":"4","last_reported":1765901743,"current_range_meters":6400,"station_id":"ce4bhn12rcd13ifvqgpg","pricing_plan_id":"cebpf4jnsgd1na2vs0mg"},{"bike_id":"0224f08a-bd8a-4dcc-9ae0-e6df47d6d7f2","system_id":"levelo_inurba_marseille","lat":43.337444,"lon":5.374475,"is_reserved":false,"is_disabled":false,"rental_uris":{"android":"levelo://app?vid=0224f08a-bd8a-4dcc-9ae0-e6df47d6d7f2","ios":"levelo://app?vid=0224f08a-bd8a-4dcc-9ae0-e6df47d6d7f2"},"vehicle_type_id":"4","last_reported":1765901743,"current_range_meters":6400,"station_id":"","pricing_plan_id":"cebpf4jnsgd1na2vs0mg"},{"bike_id":"ef3403c8-1806-4ed2-9968-93e1cb36e93a","system_id":"levelo_inurba_marseille","lat":43.28613,"lon":5.351,"is_reserved":false,"is_disabled":false,"rental_uris":{"android":"levelo://app?vid=ef3403c8-1806-4ed2-9968-93e1cb36e93a","ios":"levelo://app?vid=ef3403c8-1806-4ed2-9968-93e1cb36e93a"},"vehicle_type_id":"4","last_reported":1765901743,"current_range_meters":6800,"station_id":"ce4bhch2rcd13ifvqeug","pricing_plan_id":"cebpf4jnsgd1na2vs0mg"},{"bike_id":"d3c83fe0-d981-40bd-809a-723ce3ba3f18","system_id":"levelo_inurba_marseille","lat":43.31564,"lon":5.3667,"is_reserved":false,"is_disabled":false,"rental_uris":{"android":"levelo://app?vid=d3c83fe0-d981-40bd-809a-723ce3ba3f18","ios":"levelo://app?vid=d3c83fe0-d981-40bd-809a-723ce3ba3f18"},"vehicle_type_id":"4","last_reported":1765901743,"current_range_meters":6800,"station_id":"","pricing_plan_id":"cebpf4jnsgd1na2vs0mg"},{"bike_id":"9fac8b77-0871-4003-9d20-dff536bd1e8a","system_id":"levelo_inurba_marseille","lat":43.26774,"lon":5.3943,"is_reserved":false,"is_disabled":false,"rental_uris":{"android":"levelo://app?vid=9fac8b77-0871-4003-9d20-dff536bd1e8a","ios":"levelo://app?vid=9fac8b77-0871-4003-9d20-dff536bd1e8a"},"vehicle_type_id":"4","last_reported":1765901743,"current_range_meters":6800,"station_id":"ce4bhh12rcd13ifvqfg0","pricing_plan_id":"cebpf4jnsgd1na2vs0mg"},{"bike_id":"0e49c737-64fa-42df-b477-b17639740d5d","system_id":"levelo_inurba_marseille","lat":43.21188,"lon":5.35077,"is_reserved":false,"is_disabled":false,"rental_uris":{"android":"levelo://app?vid=0e49c737-64fa-42df-b477-b17639740d5d","ios":"levelo://app?vid=0e49c737-64fa-42df-b477-b17639740d5d"},"vehicle_type_id":"4","last_reported":1765901743,"current_range_meters":6800,"station_id":"","pricing_plan_id":"cebpf4jnsgd1na2vs0mg"},{"bike_id":"765795c8-584c-4394-9bf1-bc9379ae8389","system_id":"levelo_inurba_marseille","lat":43.29029,"lon":5.38139,"is_reserved":false,"is_disabled":false,"rental_uris":{"android":"levelo://app?vid=765795c8-584c-4394-9bf1-bc9379ae8389","ios":"levelo://app?vid=765795c8-584c-4394-9bf1-bc9379ae8389"},"vehicle_type_id":"4","last_reported":1765901743,"current_range_meters":6800,"station_id":"ce4bh4p2rcd13ifvqe1g","pricing_plan_id":"cebpf4jnsgd1na2vs0mg"},{"bike_id":"391bb815-f3d1-431a-96c0-f3e642133a21","system_id":"levelo_inurba_marseille","lat":43.26229,"lon":5.40451,"is_reserved":false,"is_disabled":false,"rental_uris":{"android":"levelo://app?vid=391bb815-f3d1-431a-96c0-f3e642133a21","ios":"levelo://app?vid=391bb815-f3d1-431a-96c0-f3e642133a21"},"vehicle_type_id":"4","last_reported":1765901743,"current_range_meters":7200,"station_id":"ce4bhmh2rcd13ifvqgmg","pricing_plan_id":"cebpf4jnsgd1na2vs0mg"},{"bike_id":"64e9dbf8-b0de-46cb-8b64-f4521beebaad","system_id":"levelo_inurba_marseille","lat":43.27809,"lon":5.40706,"is_reserved":false,"is_disabled":false,"rental_uris":{"android":"levelo://app?vid=64e9dbf8-b0de-46cb-8b64-f4521beebaad","ios":"levelo://app?vid=64e9dbf8-b0de-46cb-8b64-f4521beebaad"},"vehicle_type_id":"4","last_reported":1765901743,"current_range_meters":7200,"station_id":"ce4bhnh2rcd13ifvqgtg","pricing_plan_id":"cebpf4jnsgd1na2vs0mg"},{"bike_id":"ff05eaac-01b2-4792-b811-dfa5ce99cda0","system_id":"levelo_inurba_marseille","lat":43.2501,"lon":5.38936,"is_reserved":false,"is_disabled":false,"rental_uris":{"android":"levelo://app?vid=ff05eaac-01b2-4792-b811-dfa5ce99cda0","ios":"levelo://app?vid=ff05eaac-01b2-4792-b811-dfa5ce99cda0"},"vehicle_type_id":"4","last_reported":1765901743,"current_range_meters":7200,"station_id":"ce4bhgp2rcd13ifvqfd0","pricing_plan_id":"cebpf4jnsgd1na2vs0mg"},{"bike_id":"5e7e082d-c949-4efd-b442-be6d0cf3943e","system_id":"levelo_inurba_marseille","lat":43.24552,"lon":5.40003,"is_reserved":false,"is_disabled":false,"rental_uris":{"android":"levelo://app?vid=5e7e082d-c949-4efd-b442-be6d0cf3943e","ios":"levelo://app?vid=5e7e082d-c949-4efd-b442-be6d0cf3943e"},"vehicle_type_id":"4","last_reported":1765901743,"current_range_meters":7200,"station_id":"","pricing_plan_id":"cebpf4jnsgd1na2vs0mg"},{"bike_id":"9916aee8-38ee-4718-8ab5-188be146fb87","system_id":"levelo_inurba_marseille","lat":43.3011,"lon":5.3652,"is_reserved":false,"is_disabled":false,"rental_uris":{"android":"levelo://app?vid=9916aee8-38ee-4718-8ab5-188be146fb87","ios":"levelo://app?vid=9916aee8-38ee-4718-8ab5-188be146fb87"},"vehicle_type_id":"4","last_reported":1765901743,"current_range_meters":7200,"station_id":"","pricing_plan_id":"cebpf4jnsgd1na2vs0mg"},{"bike_id":"7c36070f-bddc-40ed-a333-875a2d58c60c","system_id":"levelo_inurba_marseille","lat":43.26503,"lon":5.39433,"is_reserved":false,"is_disabled":false,"rental_uris":{"android":"levelo://app?vid=7c36070f-bddc-40ed-a333-875a2d58c60c","ios":"levelo://app?vid=7c36070f-bddc-40ed-a333-875a2d58c60c"},"vehicle_type_id":"4","last_reported":1765901743,"current_range_meters":7200,"station_id":"","pricing_plan_id":"cebpf4jnsgd1na2vs0mg"},{"bike_id":"f4ab1e37-709c-4cb0-a20d-9483dcb71ee4","system_id":"levelo_inurba_marseille","lat":43.31163,"lon":5.38714,"is_reserved":false,"is_disabled":false,"rental_uris":{"android":"levelo://app?vid=f4ab1e37-709c-4cb0-a20d-9483dcb71ee4","ios":"levelo://app?vid=f4ab1e37-709c-4cb0-a20d-9483dcb71ee4"},"vehicle_type_id":"4","last_reported":1765901743,"current_range_meters":7200,"station_id":"ce4bgv12rcd13ifvqcp0","pricing_plan_id":"cebpf4jnsgd1na2vs0mg"},{"bike_id":"8216a2ff-4fd2-4239-8e95-dcaef5335360","system_id":"levelo_inurba_marseille","lat":43.32061,"lon":5.36813,"is_reserved":false,"is_disabled":false,"rental_uris":{"android":"levelo://app?vid=8216a2ff-4fd2-4239-8e95-dcaef5335360","ios":"levelo://app?vid=8216a2ff-4fd2-4239-8e95-dcaef5335360"},"vehicle_type_id":"4","last_reported":1765901743,"current_range_meters":8000,"station_id":"ce4bhrh2rcd13ifvqhug","pricing_plan_id":"cebpf4jnsgd1na2vs0mg"},{"bike_id":"dcf86aea-2e35-4fc9-b06f-cfd052d91d73","system_id":"levelo_inurba_marseille","lat":43.211893,"lon":5.350754,"is_reserved":false,"is_disabled":false,"rental_uris":{"android":"levelo://app?vid=dcf86aea-2e35-4fc9-b06f-cfd052d91d73","ios":"levelo://app?vid=dcf86aea-2e35-4fc9-b06f-cfd052d91d73"},"vehicle_type_id":"4","last_reported":1765901743,"current_range_meters":8000,"station_id":"st_cvj6sg6p6f1abm77japg","pricing_plan_id":"cebpf4jnsgd1na2vs0mg"},{"bike_id":"ef174468-fd63-4881-91d2-f4ac6c184558","system_id":"levelo_inurba_marseille","lat":43.30212,"lon":5.3946,"is_reserved":false,"is_disabled":true,"rental_uris":{"android":"levelo://app?vid=ef174468-fd63-4881-91d2-f4ac6c184558","ios":"levelo://app?vid=ef174468-fd63-4881-91d2-f4ac6c184558"},"vehicle_type_id":"4","last_reported":1765901743,"current_range_meters":8000,"station_id":"ce4bh0p2rcd13ifvqd70","pricing_plan_id":"cebpf4jnsgd1na2vs0mg"},{"bike_id":"fba5f45c-cedb-480f-b690-889420ee3ba1","system_id":"levelo_inurba_marseille","lat":43.29013,"lon":5.35604,"is_reserved":false,"is_disabled":false,"rental_uris":{"android":"levelo://app?vid=fba5f45c-cedb-480f-b690-889420ee3ba1","ios":"levelo://app?vid=fba5f45c-cedb-480f-b690-889420ee3ba1"},"vehicle_type_id":"4","last_reported":1765901743,"current_range_meters":8000,"station_id":"ce4bhb92rcd13ifvqen0","pricing_plan_id":"cebpf4jnsgd1na2vs0mg"},{"bike_id":"e080d691-4951-43e9-9ffd-9277319373bb","system_id":"levelo_inurba_marseille","lat":43.316035,"lon":5.379218,"is_reserved":false,"is_disabled":false,"rental_uris":{"android":"levelo://app?vid=e080d691-4951-43e9-9ffd-9277319373bb","ios":"levelo://app?vid=e080d691-4951-43e9-9ffd-9277319373bb"},"vehicle_type_id":"4","last_reported":1765901743,"current_range_meters":8000,"station_id":"","pricing_plan_id":"cebpf4jnsgd1na2vs0mg"},{"bike_id":"9cf6909b-dcde-4b01-8847-f6a847997f16","system_id":"levelo_inurba_marseille","lat":43.28926,"lon":5.36626,"is_reserved":false,"is_disabled":false,"rental_uris":{"android":"levelo://app?vid=9cf6909b-dcde-4b01-8847-f6a847997f16","ios":"levelo://app?vid=9cf6909b-dcde-4b01-8847-f6a847997f16"},"vehicle_type_id":"4","last_reported":1765901743,"current_range_meters":8000,"station_id":"ce4bhap2rcd13ifvqek0","pricing_plan_id":"cebpf4jnsgd1na2vs0mg"},{"bike_id":"850184bc-d4cf-4521-b35e-4473cd72a028","system_id":"levelo_inurba_marseille","lat":43.29089,"lon":5.38121,"is_reserved":false,"is_disabled":false,"rental_uris":{"android":"levelo://app?vid=850184bc-d4cf-4521-b35e-4473cd72a028","ios":"levelo://app?vid=850184bc-d4cf-4521-b35e-4473cd72a028"},"vehicle_type_id":"4","last_reported":1765901743,"current_range_meters":8400,"station_id":"","pricing_plan_id":"cebpf4jnsgd1na2vs0mg"},{"bike_id":"a0250cd9-047b-4dcb-96a7-b1959783fdaf","system_id":"levelo_inurba_marseille","lat":43.33787,"lon":5.37447,"is_reserved":false,"is_disabled":false,"rental_uris":{"android":"levelo://app?vid=a0250cd9-047b-4dcb-96a7-b1959783fdaf","ios":"levelo://app?vid=a0250cd9-047b-4dcb-96a7-b1959783fdaf"},"vehicle_type_id":"4","last_reported":1765901743,"current_range_meters":8400,"station_id":"","pricing_plan_id":"cebpf4jnsgd1na2vs0mg"},{"bike_id":"ae7030ab-2ef4-43fe-969b-2771e6ce928f","system_id":"levelo_inurba_marseille","lat":43.28001,"lon":5.41656,"is_reserved":false,"is_disabled":false,"rental_uris":{"android":"levelo://app?vid=ae7030ab-2ef4-43fe-969b-2771e6ce928f","ios":"levelo://app?vid=ae7030ab-2ef4-43fe-969b-2771e6ce928f"},"vehicle_type_id":"4","last_reported":1765901743,"current_range_meters":8400,"station_id":"ce4bho12rcd13ifvqh1g","pricing_plan_id":"cebpf4jnsgd1na2vs0mg"},{"bike_id":"a59fef70-c689-483c-8d85-5fd358f8f5fe","system_id":"levelo_inurba_marseille","lat":43.28479,"lon":5.38753,"is_reserved":false,"is_disabled":false,"rental_uris":{"android":"levelo://app?vid=a59fef70-c689-483c-8d85-5fd358f8f5fe","ios":"levelo://app?vid=a59fef70-c689-483c-8d85-5fd358f8f5fe"},"vehicle_type_id":"4","last_reported":1765901743,"current_range_meters":8800,"station_id":"","pricing_plan_id":"cebpf4jnsgd1na2vs0mg"},{"bike_id":"fbcf4e7a-4e4a-4899-a4aa-235c78eb2647","system_id":"levelo_inurba_marseille","lat":43.31073,"lon":5.38346,"is_reserved":false,"is_disabled":false,"rental_uris":{"android":"levelo://app?vid=fbcf4e7a-4e4a-4899-a4aa-235c78eb2647","ios":"levelo://app?vid=fbcf4e7a-4e4a-4899-a4aa-235c78eb2647"},"vehicle_type_id":"4","last_reported":1765901743,"current_range_meters":8800,"station_id":"ce4bgv92rcd13ifvqcr0","pricing_plan_id":"cebpf4jnsgd1na2vs0mg"},{"bike_id":"5aedbbdb-5d44-48ce-b102-316ef9b1bff5","system_id":"levelo_inurba_marseille","lat":43.26557,"lon":5.37258,"is_reserved":false,"is_disabled":false,"rental_uris":{"android":"levelo://app?vid=5aedbbdb-5d44-48ce-b102-316ef9b1bff5","ios":"levelo://app?vid=5aedbbdb-5d44-48ce-b102-316ef9b1bff5"},"vehicle_type_id":"4","last_reported":1765901743,"current_range_meters":8800,"station_id":"ce4bhg12rcd13ifvqf70","pricing_plan_id":"cebpf4jnsgd1na2vs0mg"},{"bike_id":"3c636660-a4c9-44f9-a3c8-7904d76de699","system_id":"levelo_inurba_marseille","lat":43.26222,"lon":5.37434,"is_reserved":false,"is_disabled":false,"rental_uris":{"android":"levelo://app?vid=3c636660-a4c9-44f9-a3c8-7904d76de699","ios":"levelo://app?vid=3c636660-a4c9-44f9-a3c8-7904d76de699"},"vehicle_type_id":"4","last_reported":1765901743,"current_range_meters":8800,"station_id":"","pricing_plan_id":"cebpf4jnsgd1na2vs0mg"},{"bike_id":"8c7465bb-38d0-4c5c-a95d-c15db3e1fefe","system_id":"levelo_inurba_marseille","lat":43.31991,"lon":5.38161,"is_reserved":false,"is_disabled":false,"rental_uris":{"android":"levelo://app?vid=8c7465bb-38d0-4c5c-a95d-c15db3e1fefe","ios":"levelo://app?vid=8c7465bb-38d0-4c5c-a95d-c15db3e1fefe"},"vehicle_type_id":"4","last_reported":1765901743,"current_range_meters":8800,"station_id":"ce4bhr12rcd13ifvqhpg","pricing_plan_id":"cebpf4jnsgd1na2vs0mg"},{"bike_id":"f4886904-6deb-4beb-a9d6-1248dc761900","system_id":"levelo_inurba_marseille","lat":43.304589,"lon":5.408937,"is_reserved":false,"is_disabled":false,"rental_uris":{"android":"levelo://app?vid=f4886904-6deb-4beb-a9d6-1248dc761900","ios":"levelo://app?vid=f4886904-6deb-4beb-a9d6-1248dc761900"},"vehicle_type_id":"4","last_reported":1765901743,"current_range_meters":9200,"station_id":"ce4bhop2rcd13ifvqh8g","pricing_plan_id":"cebpf4jnsgd1na2vs0mg"},{"bike_id":"9190414d-b636-4039-bedf-0642ec0f76db","system_id":"levelo_inurba_marseille","lat":43.28613,"lon":5.35105,"is_reserved":false,"is_disabled":false,"rental_uris":{"android":"levelo://app?vid=9190414d-b636-4039-bedf-0642ec0f76db","ios":"levelo://app?vid=9190414d-b636-4039-bedf-0642ec0f76db"},"vehicle_type_id":"4","last_reported":1765901743,"current_range_meters":9200,"station_id":"ce4bhch2rcd13ifvqeug","pricing_plan_id":"cebpf4jnsgd1na2vs0mg"},{"bike_id":"66e72652-43cb-4e4d-a18a-409505be96d1","system_id":"levelo_inurba_marseille","lat":43.30074,"lon":5.38081,"is_reserved":false,"is_disabled":false,"rental_uris":{"android":"levelo://app?vid=66e72652-43cb-4e4d-a18a-409505be96d1","ios":"levelo://app?vid=66e72652-43cb-4e4d-a18a-409505be96d1"},"vehicle_type_id":"4","last_reported":1765901743,"current_range_meters":9200,"station_id":"","pricing_plan_id":"cebpf4jnsgd1na2vs0mg"},{"bike_id":"ce0bf138-ff78-49b4-af86-2f9a0041a17f","system_id":"levelo_inurba_marseille","lat":43.27919,"lon":5.39577,"is_reserved":false,"is_disabled":false,"rental_uris":{"android":"levelo://app?vid=ce0bf138-ff78-49b4-af86-2f9a0041a17f","ios":"levelo://app?vid=ce0bf138-ff78-49b4-af86-2f9a0041a17f"},"vehicle_type_id":"4","last_reported":1765901743,"current_range_meters":9200,"station_id":"ce4bhf92rcd13ifvqf40","pricing_plan_id":"cebpf4jnsgd1na2vs0mg"},{"bike_id":"7a3e6838-9d3e-4c76-bcee-bdbba33b8ca3","system_id":"levelo_inurba_marseille","lat":43.28471,"lon":5.48391,"is_reserved":false,"is_disabled":false,"rental_uris":{"android":"levelo://app?vid=7a3e6838-9d3e-4c76-bcee-bdbba33b8ca3","ios":"levelo://app?vid=7a3e6838-9d3e-4c76-bcee-bdbba33b8ca3"},"vehicle_type_id":"4","last_reported":1765901743,"current_range_meters":9200,"station_id":"st_d3svhcjqgbts73a3dn0g","pricing_plan_id":"cebpf4jnsgd1na2vs0mg"},{"bike_id":"4d253518-3218-4e3c-a4e0-f609a908aabc","system_id":"levelo_inurba_marseille","lat":43.24534,"lon":5.39516,"is_reserved":false,"is_disabled":false,"rental_uris":{"android":"levelo://app?vid=4d253518-3218-4e3c-a4e0-f609a908aabc","ios":"levelo://app?vid=4d253518-3218-4e3c-a4e0-f609a908aabc"},"vehicle_type_id":"4","last_reported":1765901743,"current_range_meters":9200,"station_id":"ce4bhlp2rcd13ifvqgjg","pricing_plan_id":"cebpf4jnsgd1na2vs0mg"},{"bike_id":"187e95dd-1ca0-44dd-bfaf-b9ad8a869387","system_id":"levelo_inurba_marseille","lat":43.31426,"lon":5.37427,"is_reserved":false,"is_disabled":false,"rental_uris":{"android":"levelo://app?vid=187e95dd-1ca0-44dd-bfaf-b9ad8a869387","ios":"levelo://app?vid=187e95dd-1ca0-44dd-bfaf-b9ad8a869387"},"vehicle_type_id":"4","last_reported":1765901743,"current_range_meters":9600,"station_id":"ce4bhnh2rcd13ifvqgug","pricing_plan_id":"cebpf4jnsgd1na2vs0mg"},{"bike_id":"9728bc55-a10a-455f-9772-179bdf8b8937","system_id":"levelo_inurba_marseille","lat":43.31065,"lon":5.38354,"is_reserved":false,"is_disabled":false,"rental_uris":{"android":"levelo://app?vid=9728bc55-a10a-455f-9772-179bdf8b8937","ios":"levelo://app?vid=9728bc55-a10a-455f-9772-179bdf8b8937"},"vehicle_type_id":"4","last_reported":1765901743,"current_range_meters":9600,"station_id":"ce4bgv92rcd13ifvqcr0","pricing_plan_id":"cebpf4jnsgd1na2vs0mg"},{"bike_id":"bdedb51b-c0c7-4e81-8046-2d1b2001a496","system_id":"levelo_inurba_marseille","lat":43.295288,"lon":5.385394,"is_reserved":false,"is_disabled":true,"rental_uris":{"android":"levelo://app?vid=bdedb51b-c0c7-4e81-8046-2d1b2001a496","ios":"levelo://app?vid=bdedb51b-c0c7-4e81-8046-2d1b2001a496"},"vehicle_type_id":"4","last_reported":1765901743,"current_range_meters":9600,"station_id":"ce4bgih2rcd13ifvqba0","pricing_plan_id":"cebpf4jnsgd1na2vs0mg"},{"bike_id":"de703928-a818-43ad-b2be-d85e3a5f72c8","system_id":"levelo_inurba_marseille","lat":43.28487,"lon":5.48405,"is_reserved":false,"is_disabled":false,"rental_uris":{"android":"levelo://app?vid=de703928-a818-43ad-b2be-d85e3a5f72c8","ios":"levelo://app?vid=de703928-a818-43ad-b2be-d85e3a5f72c8"},"vehicle_type_id":"4","last_reported":1765901743,"current_range_meters":9600,"station_id":"st_d3svhcjqgbts73a3dn0g","pricing_plan_id":"cebpf4jnsgd1na2vs0mg"},{"bike_id":"f4f8013f-0c15-4e1b-9ac9-9b433126e362","system_id":"levelo_inurba_marseille","lat":43.30913,"lon":5.36857,"is_reserved":false,"is_disabled":false,"rental_uris":{"android":"levelo://app?vid=f4f8013f-0c15-4e1b-9ac9-9b433126e362","ios":"levelo://app?vid=f4f8013f-0c15-4e1b-9ac9-9b433126e362"},"vehicle_type_id":"4","last_reported":1765901743,"current_range_meters":9600,"station_id":"ce4bgn92rcd13ifvqbvg","pricing_plan_id":"cebpf4jnsgd1na2vs0mg"},{"bike_id":"f9e14766-119a-4cc9-814a-3510e7849c5d","system_id":"levelo_inurba_marseille","lat":43.285374,"lon":5.481999,"is_reserved":false,"is_disabled":false,"rental_uris":{"android":"levelo://app?vid=f9e14766-119a-4cc9-814a-3510e7849c5d","ios":"levelo://app?vid=f9e14766-119a-4cc9-814a-3510e7849c5d"},"vehicle_type_id":"4","last_reported":1765901743,"current_range_meters":9600,"station_id":"","pricing_plan_id":"cebpf4jnsgd1na2vs0mg"},{"bike_id":"08e06d6d-9496-4403-b8a2-10349ecf84a3","system_id":"levelo_inurba_marseille","lat":43.30123,"lon":5.43065,"is_reserved":false,"is_disabled":false,"rental_uris":{"android":"levelo://app?vid=08e06d6d-9496-4403-b8a2-10349ecf84a3","ios":"levelo://app?vid=08e06d6d-9496-4403-b8a2-10349ecf84a3"},"vehicle_type_id":"4","last_reported":1765901743,"current_range_meters":10000,"station_id":"st_d3js3co5814s73ftftug","pricing_plan_id":"cebpf4jnsgd1na2vs0mg"},{"bike_id":"87d63464-9c1a-4501-a12c-76256622c691","system_id":"levelo_inurba_marseille","lat":43.299361,"lon":5.365656,"is_reserved":false,"is_disabled":false,"rental_uris":{"android":"levelo://app?vid=87d63464-9c1a-4501-a12c-76256622c691","ios":"levelo://app?vid=87d63464-9c1a-4501-a12c-76256622c691"},"vehicle_type_id":"4","last_reported":1765901743,"current_range_meters":10000,"station_id":"","pricing_plan_id":"cebpf4jnsgd1na2vs0mg"},{"bike_id":"9f0f320a-9e34-4af8-8f6f-7a4152825910","system_id":"levelo_inurba_marseille","lat":43.30137,"lon":5.43142,"is_reserved":false,"is_disabled":false,"rental_uris":{"android":"levelo://app?vid=9f0f320a-9e34-4af8-8f6f-7a4152825910","ios":"levelo://app?vid=9f0f320a-9e34-4af8-8f6f-7a4152825910"},"vehicle_type_id":"4","last_reported":1765901743,"current_range_meters":10000,"station_id":"st_d3js3co5814s73ftftug","pricing_plan_id":"cebpf4jnsgd1na2vs0mg"},{"bike_id":"e2e0caa6-70b3-4639-a99b-358a60b2d2fb","system_id":"levelo_inurba_marseille","lat":43.30784,"lon":5.37645,"is_reserved":false,"is_disabled":false,"rental_uris":{"android":"levelo://app?vid=e2e0caa6-70b3-4639-a99b-358a60b2d2fb","ios":"levelo://app?vid=e2e0caa6-70b3-4639-a99b-358a60b2d2fb"},"vehicle_type_id":"4","last_reported":1765901743,"current_range_meters":10000,"station_id":"ce4bgv92rcd13ifvqcq0","pricing_plan_id":"cebpf4jnsgd1na2vs0mg"},{"bike_id":"c6709c57-e4ba-4c80-9afa-4d548d908ac0","system_id":"levelo_inurba_marseille","lat":43.2962,"lon":5.37734,"is_reserved":false,"is_disabled":false,"rental_uris":{"android":"levelo://app?vid=c6709c57-e4ba-4c80-9afa-4d548d908ac0","ios":"levelo://app?vid=c6709c57-e4ba-4c80-9afa-4d548d908ac0"},"vehicle_type_id":"4","last_reported":1765901743,"current_range_meters":10000,"station_id":"ce4bgi92rcd13ifvqb90","pricing_plan_id":"cebpf4jnsgd1na2vs0mg"},{"bike_id":"4f2c2ae9-cceb-4f6c-925d-23d363970b60","system_id":"levelo_inurba_marseille","lat":43.2763,"lon":5.36109,"is_reserved":false,"is_disabled":false,"rental_uris":{"android":"levelo://app?vid=4f2c2ae9-cceb-4f6c-925d-23d363970b60","ios":"levelo://app?vid=4f2c2ae9-cceb-4f6c-925d-23d363970b60"},"vehicle_type_id":"4","last_reported":1765901743,"current_range_meters":10000,"station_id":"ce4bgj92rcd13ifvqbe0","pricing_plan_id":"cebpf4jnsgd1na2vs0mg"},{"bike_id":"5af242e8-7e04-4d52-adb3-be60671fad57","system_id":"levelo_inurba_marseille","lat":43.30127,"lon":5.43103,"is_reserved":false,"is_disabled":false,"rental_uris":{"android":"levelo://app?vid=5af242e8-7e04-4d52-adb3-be60671fad57","ios":"levelo://app?vid=5af242e8-7e04-4d52-adb3-be60671fad57"},"vehicle_type_id":"4","last_reported":1765901743,"current_range_meters":10000,"station_id":"st_d3js3co5814s73ftftug","pricing_plan_id":"cebpf4jnsgd1na2vs0mg"},{"bike_id":"9b173e86-3ede-4973-b8cb-b42ea2c91907","system_id":"levelo_inurba_marseille","lat":43.310213,"lon":5.393437,"is_reserved":false,"is_disabled":false,"rental_uris":{"android":"levelo://app?vid=9b173e86-3ede-4973-b8cb-b42ea2c91907","ios":"levelo://app?vid=9b173e86-3ede-4973-b8cb-b42ea2c91907"},"vehicle_type_id":"4","last_reported":1765901743,"current_range_meters":10000,"station_id":"","pricing_plan_id":"cebpf4jnsgd1na2vs0mg"},{"bike_id":"ad36ec94-ec4f-41a8-83d8-9846bf34230c","system_id":"levelo_inurba_marseille","lat":43.2758,"lon":5.38429,"is_reserved":false,"is_disabled":false,"rental_uris":{"android":"levelo://app?vid=ad36ec94-ec4f-41a8-83d8-9846bf34230c","ios":"levelo://app?vid=ad36ec94-ec4f-41a8-83d8-9846bf34230c"},"vehicle_type_id":"4","last_reported":1765901743,"current_range_meters":10000,"station_id":"ce4bhh92rcd13ifvqfi0","pricing_plan_id":"cebpf4jnsgd1na2vs0mg"},{"bike_id":"6df4c56c-c6f5-4fb1-84fc-9f50cb5ef178","system_id":"levelo_inurba_marseille","lat":43.23201,"lon":5.35558,"is_reserved":false,"is_disabled":true,"rental_uris":{"android":"levelo://app?vid=6df4c56c-c6f5-4fb1-84fc-9f50cb5ef178","ios":"levelo://app?vid=6df4c56c-c6f5-4fb1-84fc-9f50cb5ef178"},"vehicle_type_id":"4","last_reported":1765901743,"current_range_meters":10800,"station_id":"ce4bhu92rcd13ifvqi70","pricing_plan_id":"cebpf4jnsgd1na2vs0mg"},{"bike_id":"cac87912-c676-4b2a-bd7b-433323e0f09c","system_id":"levelo_inurba_marseille","lat":43.28539,"lon":5.44116,"is_reserved":false,"is_disabled":false,"rental_uris":{"android":"levelo://app?vid=cac87912-c676-4b2a-bd7b-433323e0f09c","ios":"levelo://app?vid=cac87912-c676-4b2a-bd7b-433323e0f09c"},"vehicle_type_id":"4","last_reported":1765901743,"current_range_meters":10800,"station_id":"st_d3j3df2ikq2c7380ej80","pricing_plan_id":"cebpf4jnsgd1na2vs0mg"},{"bike_id":"46b9da8e-600f-4b77-a964-111e9eafd3fa","system_id":"levelo_inurba_marseille","lat":43.26456,"lon":5.37367,"is_reserved":false,"is_disabled":false,"rental_uris":{"android":"levelo://app?vid=46b9da8e-600f-4b77-a964-111e9eafd3fa","ios":"levelo://app?vid=46b9da8e-600f-4b77-a964-111e9eafd3fa"},"vehicle_type_id":"4","last_reported":1765901743,"current_range_meters":10800,"station_id":"","pricing_plan_id":"cebpf4jnsgd1na2vs0mg"},{"bike_id":"43bf5bd7-9172-48ce-a8d2-b71c923db575","system_id":"levelo_inurba_marseille","lat":43.29513,"lon":5.39402,"is_reserved":false,"is_disabled":false,"rental_uris":{"android":"levelo://app?vid=43bf5bd7-9172-48ce-a8d2-b71c923db575","ios":"levelo://app?vid=43bf5bd7-9172-48ce-a8d2-b71c923db575"},"vehicle_type_id":"4","last_reported":1765901743,"current_range_meters":10800,"station_id":"ce4bh292rcd13ifvqdf0","pricing_plan_id":"cebpf4jnsgd1na2vs0mg"},{"bike_id":"ae7f323e-34dc-4130-baaf-dab8d8213b63","system_id":"levelo_inurba_marseille","lat":43.2872,"lon":5.36082,"is_reserved":false,"is_disabled":false,"rental_uris":{"android":"levelo://app?vid=ae7f323e-34dc-4130-baaf-dab8d8213b63","ios":"levelo://app?vid=ae7f323e-34dc-4130-baaf-dab8d8213b63"},"vehicle_type_id":"4","last_reported":1765901743,"current_range_meters":10800,"station_id":"cki0cbj6b192h4jlfktg","pricing_plan_id":"cebpf4jnsgd1na2vs0mg"},{"bike_id":"f0607238-9fab-432e-a6c6-c5acd6257feb","system_id":"levelo_inurba_marseille","lat":43.30353,"lon":5.39294,"is_reserved":false,"is_disabled":true,"rental_uris":{"android":"levelo://app?vid=f0607238-9fab-432e-a6c6-c5acd6257feb","ios":"levelo://app?vid=f0607238-9fab-432e-a6c6-c5acd6257feb"},"vehicle_type_id":"4","last_reported":1765901743,"current_range_meters":10800,"station_id":"","pricing_plan_id":"cebpf4jnsgd1na2vs0mg"},{"bike_id":"c2dbecdc-0ef9-48e5-a6d6-1106c2dfe04a","system_id":"levelo_inurba_marseille","lat":43.274902,"lon":5.424391,"is_reserved":false,"is_disabled":false,"rental_uris":{"android":"levelo://app?vid=c2dbecdc-0ef9-48e5-a6d6-1106c2dfe04a","ios":"levelo://app?vid=c2dbecdc-0ef9-48e5-a6d6-1106c2dfe04a"},"vehicle_type_id":"4","last_reported":1765901743,"current_range_meters":10800,"station_id":"ce4bhn92rcd13ifvqgrg","pricing_plan_id":"cebpf4jnsgd1na2vs0mg"},{"bike_id":"1dbaa383-1aa6-47ef-8b06-6969a979b35e","system_id":"levelo_inurba_marseille","lat":43.29931,"lon":5.36537,"is_reserved":false,"is_disabled":false,"rental_uris":{"android":"levelo://app?vid=1dbaa383-1aa6-47ef-8b06-6969a979b35e","ios":"levelo://app?vid=1dbaa383-1aa6-47ef-8b06-6969a979b35e"},"vehicle_type_id":"4","last_reported":1765901743,"current_range_meters":10800,"station_id":"ce4bgm92rcd13ifvqbr0","pricing_plan_id":"cebpf4jnsgd1na2vs0mg"},{"bike_id":"dbd4ee99-e250-413d-bdce-471d46749382","system_id":"levelo_inurba_marseille","lat":43.30555,"lon":5.36712,"is_reserved":false,"is_disabled":false,"rental_uris":{"android":"levelo://app?vid=dbd4ee99-e250-413d-bdce-471d46749382","ios":"levelo://app?vid=dbd4ee99-e250-413d-bdce-471d46749382"},"vehicle_type_id":"4","last_reported":1765901743,"current_range_meters":10800,"station_id":"ce4bgrp2rcd13ifvqc9g","pricing_plan_id":"cebpf4jnsgd1na2vs0mg"},{"bike_id":"f5d9a9b3-558f-4d87-a4a3-2e93dcd5a3b9","system_id":"levelo_inurba_marseille","lat":43.28486,"lon":5.48388,"is_reserved":false,"is_disabled":false,"rental_uris":{"android":"levelo://app?vid=f5d9a9b3-558f-4d87-a4a3-2e93dcd5a3b9","ios":"levelo://app?vid=f5d9a9b3-558f-4d87-a4a3-2e93dcd5a3b9"},"vehicle_type_id":"4","last_reported":1765901743,"current_range_meters":10800,"station_id":"st_d3svhcjqgbts73a3dn0g","pricing_plan_id":"cebpf4jnsgd1na2vs0mg"},{"bike_id":"290e317a-4582-407a-81c7-009f6d543ac1","system_id":"levelo_inurba_marseille","lat":43.25109,"lon":5.40324,"is_reserved":false,"is_disabled":false,"rental_uris":{"android":"levelo://app?vid=290e317a-4582-407a-81c7-009f6d543ac1","ios":"levelo://app?vid=290e317a-4582-407a-81c7-009f6d543ac1"},"vehicle_type_id":"4","last_reported":1765901743,"current_range_meters":10800,"station_id":"ce4bhlh2rcd13ifvqgig","pricing_plan_id":"cebpf4jnsgd1na2vs0mg"},{"bike_id":"dbd8e66c-46be-4009-8a97-e465452c4a2e","system_id":"levelo_inurba_marseille","lat":43.33025,"lon":5.39035,"is_reserved":false,"is_disabled":false,"rental_uris":{"android":"levelo://app?vid=dbd8e66c-46be-4009-8a97-e465452c4a2e","ios":"levelo://app?vid=dbd8e66c-46be-4009-8a97-e465452c4a2e"},"vehicle_type_id":"4","last_reported":1765901743,"current_range_meters":10800,"station_id":"ce4bhr92rcd13ifvqhrg","pricing_plan_id":"cebpf4jnsgd1na2vs0mg"},{"bike_id":"dd12552f-3258-4efa-9e50-29ac72dc2be5","system_id":"levelo_inurba_marseille","lat":43.31167,"lon":5.3871,"is_reserved":false,"is_disabled":false,"rental_uris":{"android":"levelo://app?vid=dd12552f-3258-4efa-9e50-29ac72dc2be5","ios":"levelo://app?vid=dd12552f-3258-4efa-9e50-29ac72dc2be5"},"vehicle_type_id":"4","last_reported":1765901743,"current_range_meters":11200,"station_id":"ce4bgv12rcd13ifvqcp0","pricing_plan_id":"cebpf4jnsgd1na2vs0mg"},{"bike_id":"dc9b6e3f-8e79-47b2-8319-e45dd942c044","system_id":"levelo_inurba_marseille","lat":43.29579,"lon":5.37503,"is_reserved":false,"is_disabled":false,"rental_uris":{"android":"levelo://app?vid=dc9b6e3f-8e79-47b2-8319-e45dd942c044","ios":"levelo://app?vid=dc9b6e3f-8e79-47b2-8319-e45dd942c044"},"vehicle_type_id":"4","last_reported":1765901743,"current_range_meters":11200,"station_id":"ce4bgh92rcd13ifvqb50","pricing_plan_id":"cebpf4jnsgd1na2vs0mg"},{"bike_id":"985e76d9-f377-42e6-8fe2-ca92cc88db73","system_id":"levelo_inurba_marseille","lat":43.31364,"lon":5.36677,"is_reserved":false,"is_disabled":false,"rental_uris":{"android":"levelo://app?vid=985e76d9-f377-42e6-8fe2-ca92cc88db73","ios":"levelo://app?vid=985e76d9-f377-42e6-8fe2-ca92cc88db73"},"vehicle_type_id":"4","last_reported":1765901743,"current_range_meters":11200,"station_id":"ce4bgr92rcd13ifvqc6g","pricing_plan_id":"cebpf4jnsgd1na2vs0mg"},{"bike_id":"d1246ca9-e144-40ce-b023-1b8ac3185da6","system_id":"levelo_inurba_marseille","lat":43.25117,"lon":5.40322,"is_reserved":false,"is_disabled":false,"rental_uris":{"android":"levelo://app?vid=d1246ca9-e144-40ce-b023-1b8ac3185da6","ios":"levelo://app?vid=d1246ca9-e144-40ce-b023-1b8ac3185da6"},"vehicle_type_id":"4","last_reported":1765901743,"current_range_meters":11200,"station_id":"ce4bhlh2rcd13ifvqgig","pricing_plan_id":"cebpf4jnsgd1na2vs0mg"},{"bike_id":"fd7fe341-e9e1-43e0-9282-b94a778a6675","system_id":"levelo_inurba_marseille","lat":43.337444,"lon":5.374475,"is_reserved":false,"is_disabled":false,"rental_uris":{"android":"levelo://app?vid=fd7fe341-e9e1-43e0-9282-b94a778a6675","ios":"levelo://app?vid=fd7fe341-e9e1-43e0-9282-b94a778a6675"},"vehicle_type_id":"4","last_reported":1765901743,"current_range_meters":11200,"station_id":"","pricing_plan_id":"cebpf4jnsgd1na2vs0mg"},{"bike_id":"0e92ac6e-4948-4b9c-954c-8851a977b659","system_id":"levelo_inurba_marseille","lat":43.27052,"lon":5.4025,"is_reserved":false,"is_disabled":false,"rental_uris":{"android":"levelo://app?vid=0e92ac6e-4948-4b9c-954c-8851a977b659","ios":"levelo://app?vid=0e92ac6e-4948-4b9c-954c-8851a977b659"},"vehicle_type_id":"4","last_reported":1765901743,"current_range_meters":11200,"station_id":"ce4bhk92rcd13ifvqgc0","pricing_plan_id":"cebpf4jnsgd1na2vs0mg"},{"bike_id":"bc74ef6c-60c8-4f6c-abb8-03b7a515cf09","system_id":"levelo_inurba_marseille","lat":43.31585,"lon":5.37305,"is_reserved":false,"is_disabled":false,"rental_uris":{"android":"levelo://app?vid=bc74ef6c-60c8-4f6c-abb8-03b7a515cf09","ios":"levelo://app?vid=bc74ef6c-60c8-4f6c-abb8-03b7a515cf09"},"vehicle_type_id":"4","last_reported":1765901743,"current_range_meters":11200,"station_id":"","pricing_plan_id":"cebpf4jnsgd1na2vs0mg"},{"bike_id":"42746cf4-23d7-4ddb-9e6e-0a4ebf672e22","system_id":"levelo_inurba_marseille","lat":43.32358,"lon":5.36742,"is_reserved":false,"is_disabled":false,"rental_uris":{"android":"levelo://app?vid=42746cf4-23d7-4ddb-9e6e-0a4ebf672e22","ios":"levelo://app?vid=42746cf4-23d7-4ddb-9e6e-0a4ebf672e22"},"vehicle_type_id":"4","last_reported":1765901743,"current_range_meters":11200,"station_id":"ce4bhsh2rcd13ifvqi2g","pricing_plan_id":"cebpf4jnsgd1na2vs0mg"},{"bike_id":"e0b9a66f-7cae-4948-a7bc-0b21e1e48bf4","system_id":"levelo_inurba_marseille","lat":43.314865,"lon":5.398042,"is_reserved":false,"is_disabled":false,"rental_uris":{"android":"levelo://app?vid=e0b9a66f-7cae-4948-a7bc-0b21e1e48bf4","ios":"levelo://app?vid=e0b9a66f-7cae-4948-a7bc-0b21e1e48bf4"},"vehicle_type_id":"4","last_reported":1765901743,"current_range_meters":11200,"station_id":"ce4bgvp2rcd13ifvqcu0","pricing_plan_id":"cebpf4jnsgd1na2vs0mg"},{"bike_id":"1a84359c-f08c-4bcc-bd3b-bffddb502c21","system_id":"levelo_inurba_marseille","lat":43.29931,"lon":5.36497,"is_reserved":false,"is_disabled":false,"rental_uris":{"android":"levelo://app?vid=1a84359c-f08c-4bcc-bd3b-bffddb502c21","ios":"levelo://app?vid=1a84359c-f08c-4bcc-bd3b-bffddb502c21"},"vehicle_type_id":"4","last_reported":1765901743,"current_range_meters":11200,"station_id":"ce4bgm92rcd13ifvqbr0","pricing_plan_id":"cebpf4jnsgd1na2vs0mg"},{"bike_id":"9736023b-a1cd-47de-9d9e-ff8767a259f0","system_id":"levelo_inurba_marseille","lat":43.28112,"lon":5.37845,"is_reserved":false,"is_disabled":false,"rental_uris":{"android":"levelo://app?vid=9736023b-a1cd-47de-9d9e-ff8767a259f0","ios":"levelo://app?vid=9736023b-a1cd-47de-9d9e-ff8767a259f0"},"vehicle_type_id":"4","last_reported":1765901743,"current_range_meters":11200,"station_id":"ce4bha12rcd13ifvqee0","pricing_plan_id":"cebpf4jnsgd1na2vs0mg"},{"bike_id":"b959cc19-b00a-4f78-bf9b-f737abeb0c3b","system_id":"levelo_inurba_marseille","lat":43.29498,"lon":5.38308,"is_reserved":false,"is_disabled":false,"rental_uris":{"android":"levelo://app?vid=b959cc19-b00a-4f78-bf9b-f737abeb0c3b","ios":"levelo://app?vid=b959cc19-b00a-4f78-bf9b-f737abeb0c3b"},"vehicle_type_id":"4","last_reported":1765901743,"current_range_meters":11200,"station_id":"","pricing_plan_id":"cebpf4jnsgd1na2vs0mg"},{"bike_id":"4f8ad109-8352-4f43-a7a6-267abdf04ef1","system_id":"levelo_inurba_marseille","lat":43.27921,"lon":5.39581,"is_reserved":false,"is_disabled":false,"rental_uris":{"android":"levelo://app?vid=4f8ad109-8352-4f43-a7a6-267abdf04ef1","ios":"levelo://app?vid=4f8ad109-8352-4f43-a7a6-267abdf04ef1"},"vehicle_type_id":"4","last_reported":1765901743,"current_range_meters":11600,"station_id":"ce4bhf92rcd13ifvqf40","pricing_plan_id":"cebpf4jnsgd1na2vs0mg"},{"bike_id":"2ef24484-8e4e-49c0-a3a9-f83b77f53191","system_id":"levelo_inurba_marseille","lat":43.27075,"lon":5.42269,"is_reserved":false,"is_disabled":true,"rental_uris":{"android":"levelo://app?vid=2ef24484-8e4e-49c0-a3a9-f83b77f53191","ios":"levelo://app?vid=2ef24484-8e4e-49c0-a3a9-f83b77f53191"},"vehicle_type_id":"4","last_reported":1765901743,"current_range_meters":11600,"station_id":"ce4bhk92rcd13ifvqgb0","pricing_plan_id":"cebpf4jnsgd1na2vs0mg"},{"bike_id":"66892a8e-d99a-45f5-8b71-91236df7d49c","system_id":"levelo_inurba_marseille","lat":43.316828,"lon":5.404735,"is_reserved":false,"is_disabled":false,"rental_uris":{"android":"levelo://app?vid=66892a8e-d99a-45f5-8b71-91236df7d49c","ios":"levelo://app?vid=66892a8e-d99a-45f5-8b71-91236df7d49c"},"vehicle_type_id":"4","last_reported":1765901743,"current_range_meters":11600,"station_id":"ce4bh012rcd13ifvqd00","pricing_plan_id":"cebpf4jnsgd1na2vs0mg"},{"bike_id":"ae9ca249-3e04-4ecb-9544-fe4073876ff8","system_id":"levelo_inurba_marseille","lat":43.30617,"lon":5.37222,"is_reserved":false,"is_disabled":false,"rental_uris":{"android":"levelo://app?vid=ae9ca249-3e04-4ecb-9544-fe4073876ff8","ios":"levelo://app?vid=ae9ca249-3e04-4ecb-9544-fe4073876ff8"},"vehicle_type_id":"4","last_reported":1765901743,"current_range_meters":11600,"station_id":"ce4bgqh2rcd13ifvqc4g","pricing_plan_id":"cebpf4jnsgd1na2vs0mg"},{"bike_id":"4c1c7053-1690-46ae-b248-e8260967b03f","system_id":"levelo_inurba_marseille","lat":43.316791,"lon":5.375612,"is_reserved":false,"is_disabled":false,"rental_uris":{"android":"levelo://app?vid=4c1c7053-1690-46ae-b248-e8260967b03f","ios":"levelo://app?vid=4c1c7053-1690-46ae-b248-e8260967b03f"},"vehicle_type_id":"4","last_reported":1765901743,"current_range_meters":12000,"station_id":"","pricing_plan_id":"cebpf4jnsgd1na2vs0mg"},{"bike_id":"0c5e2976-76dd-4171-a38b-a34f9e055774","system_id":"levelo_inurba_marseille","lat":43.298351,"lon":5.381027,"is_reserved":false,"is_disabled":false,"rental_uris":{"android":"levelo://app?vid=0c5e2976-76dd-4171-a38b-a34f9e055774","ios":"levelo://app?vid=0c5e2976-76dd-4171-a38b-a34f9e055774"},"vehicle_type_id":"4","last_reported":1765901743,"current_range_meters":12000,"station_id":"ce4bhbh2rcd13ifvqeqg","pricing_plan_id":"cebpf4jnsgd1na2vs0mg"},{"bike_id":"d6f90051-adc4-44d1-a726-3c1a90bf2e04","system_id":"levelo_inurba_marseille","lat":43.28224,"lon":5.34897,"is_reserved":false,"is_disabled":false,"rental_uris":{"android":"levelo://app?vid=d6f90051-adc4-44d1-a726-3c1a90bf2e04","ios":"levelo://app?vid=d6f90051-adc4-44d1-a726-3c1a90bf2e04"},"vehicle_type_id":"4","last_reported":1765901743,"current_range_meters":12000,"station_id":"","pricing_plan_id":"cebpf4jnsgd1na2vs0mg"},{"bike_id":"d3a2e4e7-6aac-4366-981a-52d89642477a","system_id":"levelo_inurba_marseille","lat":43.30301,"lon":5.3778,"is_reserved":false,"is_disabled":true,"rental_uris":{"android":"levelo://app?vid=d3a2e4e7-6aac-4366-981a-52d89642477a","ios":"levelo://app?vid=d3a2e4e7-6aac-4366-981a-52d89642477a"},"vehicle_type_id":"4","last_reported":1765901743,"current_range_meters":12000,"station_id":"","pricing_plan_id":"cebpf4jnsgd1na2vs0mg"},{"bike_id":"e3163fa8-24dc-4c9b-809b-46582e949780","system_id":"levelo_inurba_marseille","lat":43.28692,"lon":5.37396,"is_reserved":false,"is_disabled":false,"rental_uris":{"android":"levelo://app?vid=e3163fa8-24dc-4c9b-809b-46582e949780","ios":"levelo://app?vid=e3163fa8-24dc-4c9b-809b-46582e949780"},"vehicle_type_id":"4","last_reported":1765901743,"current_range_meters":12000,"station_id":"ce4bh3p2rcd13ifvqdq0","pricing_plan_id":"cebpf4jnsgd1na2vs0mg"},{"bike_id":"7102995c-56ae-43fb-af9b-06b946d50472","system_id":"levelo_inurba_marseille","lat":43.28478,"lon":5.38417,"is_reserved":false,"is_disabled":false,"rental_uris":{"android":"levelo://app?vid=7102995c-56ae-43fb-af9b-06b946d50472","ios":"levelo://app?vid=7102995c-56ae-43fb-af9b-06b946d50472"},"vehicle_type_id":"4","last_reported":1765901743,"current_range_meters":12000,"station_id":"ce4bh512rcd13ifvqe3g","pricing_plan_id":"cebpf4jnsgd1na2vs0mg"},{"bike_id":"2833047e-5d18-4b3c-9479-5d7320904cd9","system_id":"levelo_inurba_marseille","lat":43.28527,"lon":5.44105,"is_reserved":false,"is_disabled":false,"rental_uris":{"android":"levelo://app?vid=2833047e-5d18-4b3c-9479-5d7320904cd9","ios":"levelo://app?vid=2833047e-5d18-4b3c-9479-5d7320904cd9"},"vehicle_type_id":"4","last_reported":1765901743,"current_range_meters":12000,"station_id":"st_d3j3df2ikq2c7380ej80","pricing_plan_id":"cebpf4jnsgd1na2vs0mg"},{"bike_id":"fd16b05a-8e0b-4f43-962c-02f038cbf042","system_id":"levelo_inurba_marseille","lat":43.24648,"lon":5.38892,"is_reserved":false,"is_disabled":false,"rental_uris":{"android":"levelo://app?vid=fd16b05a-8e0b-4f43-962c-02f038cbf042","ios":"levelo://app?vid=fd16b05a-8e0b-4f43-962c-02f038cbf042"},"vehicle_type_id":"4","last_reported":1765901743,"current_range_meters":12000,"station_id":"ce4bhg12rcd13ifvqf60","pricing_plan_id":"cebpf4jnsgd1na2vs0mg"},{"bike_id":"bbf40bb7-ef5a-4824-a1ff-ee664bc26d0e","system_id":"levelo_inurba_marseille","lat":43.24649,"lon":5.38895,"is_reserved":false,"is_disabled":false,"rental_uris":{"android":"levelo://app?vid=bbf40bb7-ef5a-4824-a1ff-ee664bc26d0e","ios":"levelo://app?vid=bbf40bb7-ef5a-4824-a1ff-ee664bc26d0e"},"vehicle_type_id":"4","last_reported":1765901743,"current_range_meters":12000,"station_id":"ce4bhg12rcd13ifvqf60","pricing_plan_id":"cebpf4jnsgd1na2vs0mg"},{"bike_id":"ec025ddd-e46a-46ed-b97d-7c73102604e0","system_id":"levelo_inurba_marseille","lat":43.27325,"lon":5.39081,"is_reserved":false,"is_disabled":true,"rental_uris":{"android":"levelo://app?vid=ec025ddd-e46a-46ed-b97d-7c73102604e0","ios":"levelo://app?vid=ec025ddd-e46a-46ed-b97d-7c73102604e0"},"vehicle_type_id":"4","last_reported":1765901743,"current_range_meters":12400,"station_id":"ce4bhgp2rcd13ifvqfe0","pricing_plan_id":"cebpf4jnsgd1na2vs0mg"},{"bike_id":"dae20f61-b9a8-4089-a078-81803a97c0fd","system_id":"levelo_inurba_marseille","lat":43.28611,"lon":5.35109,"is_reserved":false,"is_disabled":false,"rental_uris":{"android":"levelo://app?vid=dae20f61-b9a8-4089-a078-81803a97c0fd","ios":"levelo://app?vid=dae20f61-b9a8-4089-a078-81803a97c0fd"},"vehicle_type_id":"4","last_reported":1765901743,"current_range_meters":12400,"station_id":"ce4bhch2rcd13ifvqeug","pricing_plan_id":"cebpf4jnsgd1na2vs0mg"},{"bike_id":"2baf383b-6381-419d-bee0-bdbabee5e0e0","system_id":"levelo_inurba_marseille","lat":43.22929,"lon":5.35381,"is_reserved":false,"is_disabled":false,"rental_uris":{"android":"levelo://app?vid=2baf383b-6381-419d-bee0-bdbabee5e0e0","ios":"levelo://app?vid=2baf383b-6381-419d-bee0-bdbabee5e0e0"},"vehicle_type_id":"4","last_reported":1765901743,"current_range_meters":12400,"station_id":"cpo3532slgdg3j2ikp40","pricing_plan_id":"cebpf4jnsgd1na2vs0mg"},{"bike_id":"4184c2a2-5a97-44dd-ac88-7d0a5244373f","system_id":"levelo_inurba_marseille","lat":43.29544,"lon":5.37509,"is_reserved":false,"is_disabled":false,"rental_uris":{"android":"levelo://app?vid=4184c2a2-5a97-44dd-ac88-7d0a5244373f","ios":"levelo://app?vid=4184c2a2-5a97-44dd-ac88-7d0a5244373f"},"vehicle_type_id":"4","last_reported":1765901743,"current_range_meters":12400,"station_id":"ce4bgkp2rcd13ifvqbmg","pricing_plan_id":"cebpf4jnsgd1na2vs0mg"},{"bike_id":"8466f3f1-7512-490c-9665-43d0079b0bdd","system_id":"levelo_inurba_marseille","lat":43.271294,"lon":5.402228,"is_reserved":false,"is_disabled":false,"rental_uris":{"android":"levelo://app?vid=8466f3f1-7512-490c-9665-43d0079b0bdd","ios":"levelo://app?vid=8466f3f1-7512-490c-9665-43d0079b0bdd"},"vehicle_type_id":"4","last_reported":1765901743,"current_range_meters":12800,"station_id":"ce4bhnh2rcd13ifvqgtg","pricing_plan_id":"cebpf4jnsgd1na2vs0mg"},{"bike_id":"71508078-6838-4792-8f86-6d1edd517671","system_id":"levelo_inurba_marseille","lat":43.28549,"lon":5.44112,"is_reserved":false,"is_disabled":false,"rental_uris":{"android":"levelo://app?vid=71508078-6838-4792-8f86-6d1edd517671","ios":"levelo://app?vid=71508078-6838-4792-8f86-6d1edd517671"},"vehicle_type_id":"4","last_reported":1765901743,"current_range_meters":12800,"station_id":"st_d3j3df2ikq2c7380ej80","pricing_plan_id":"cebpf4jnsgd1na2vs0mg"},{"bike_id":"7d6eb169-ec8f-49bb-bb19-ce9c8a6b675b","system_id":"levelo_inurba_marseille","lat":43.30321,"lon":5.40436,"is_reserved":false,"is_disabled":false,"rental_uris":{"android":"levelo://app?vid=7d6eb169-ec8f-49bb-bb19-ce9c8a6b675b","ios":"levelo://app?vid=7d6eb169-ec8f-49bb-bb19-ce9c8a6b675b"},"vehicle_type_id":"4","last_reported":1765901743,"current_range_meters":12800,"station_id":"ce4bh012rcd13ifvqd10","pricing_plan_id":"cebpf4jnsgd1na2vs0mg"},{"bike_id":"65ef1610-5e5b-4ae4-92ec-9a2a1dd20a47","system_id":"levelo_inurba_marseille","lat":43.25331,"lon":5.42174,"is_reserved":false,"is_disabled":false,"rental_uris":{"android":"levelo://app?vid=65ef1610-5e5b-4ae4-92ec-9a2a1dd20a47","ios":"levelo://app?vid=65ef1610-5e5b-4ae4-92ec-9a2a1dd20a47"},"vehicle_type_id":"4","last_reported":1765901743,"current_range_meters":12800,"station_id":"st_d2m65c5bi1j21697t3ng","pricing_plan_id":"cebpf4jnsgd1na2vs0mg"},{"bike_id":"9ebcaad2-2e19-4608-9c02-cecea313b5ae","system_id":"levelo_inurba_marseille","lat":43.24629,"lon":5.43141,"is_reserved":false,"is_disabled":false,"rental_uris":{"android":"levelo://app?vid=9ebcaad2-2e19-4608-9c02-cecea313b5ae","ios":"levelo://app?vid=9ebcaad2-2e19-4608-9c02-cecea313b5ae"},"vehicle_type_id":"4","last_reported":1765901743,"current_range_meters":12800,"station_id":"st_d2m6c4gdas8pm72e190g","pricing_plan_id":"cebpf4jnsgd1na2vs0mg"},{"bike_id":"094e6f42-8188-456e-b536-25ce771d7e44","system_id":"levelo_inurba_marseille","lat":43.241664,"lon":5.363884,"is_reserved":false,"is_disabled":false,"rental_uris":{"android":"levelo://app?vid=094e6f42-8188-456e-b536-25ce771d7e44","ios":"levelo://app?vid=094e6f42-8188-456e-b536-25ce771d7e44"},"vehicle_type_id":"4","last_reported":1765901743,"current_range_meters":12800,"station_id":"cpo36qri1sfpv3e86is0","pricing_plan_id":"cebpf4jnsgd1na2vs0mg"},{"bike_id":"d1f64177-9223-4bba-8f9e-111f6f07087c","system_id":"levelo_inurba_marseille","lat":43.27056,"lon":5.38309,"is_reserved":false,"is_disabled":false,"rental_uris":{"android":"levelo://app?vid=d1f64177-9223-4bba-8f9e-111f6f07087c","ios":"levelo://app?vid=d1f64177-9223-4bba-8f9e-111f6f07087c"},"vehicle_type_id":"4","last_reported":1765901743,"current_range_meters":12800,"station_id":"st_d3n2fo6cfp8s73cte1j0","pricing_plan_id":"cebpf4jnsgd1na2vs0mg"},{"bike_id":"b32e4917-4651-4915-accd-6ad72ebf913f","system_id":"levelo_inurba_marseille","lat":43.29225,"lon":5.36041,"is_reserved":false,"is_disabled":true,"rental_uris":{"android":"levelo://app?vid=b32e4917-4651-4915-accd-6ad72ebf913f","ios":"levelo://app?vid=b32e4917-4651-4915-accd-6ad72ebf913f"},"vehicle_type_id":"4","last_reported":1765901743,"current_range_meters":12800,"station_id":"ce4bhbh2rcd13ifvqeqg","pricing_plan_id":"cebpf4jnsgd1na2vs0mg"},{"bike_id":"486c0964-2d36-4a09-bd4e-308eb84dc832","system_id":"levelo_inurba_marseille","lat":43.29908,"lon":5.37478,"is_reserved":false,"is_disabled":false,"rental_uris":{"android":"levelo://app?vid=486c0964-2d36-4a09-bd4e-308eb84dc832","ios":"levelo://app?vid=486c0964-2d36-4a09-bd4e-308eb84dc832"},"vehicle_type_id":"4","last_reported":1765901743,"current_range_meters":12800,"station_id":"ce4bgjh2rcd13ifvqbg0","pricing_plan_id":"cebpf4jnsgd1na2vs0mg"},{"bike_id":"a982f6c5-c7ac-45cb-844f-89876b36ae48","system_id":"levelo_inurba_marseille","lat":43.30623,"lon":5.37224,"is_reserved":false,"is_disabled":false,"rental_uris":{"android":"levelo://app?vid=a982f6c5-c7ac-45cb-844f-89876b36ae48","ios":"levelo://app?vid=a982f6c5-c7ac-45cb-844f-89876b36ae48"},"vehicle_type_id":"4","last_reported":1765901743,"current_range_meters":12800,"station_id":"ce4bgqh2rcd13ifvqc4g","pricing_plan_id":"cebpf4jnsgd1na2vs0mg"},{"bike_id":"ee76d011-dae8-40ff-b0ef-bb7c55e31136","system_id":"levelo_inurba_marseille","lat":43.287005,"lon":5.373765,"is_reserved":false,"is_disabled":false,"rental_uris":{"android":"levelo://app?vid=ee76d011-dae8-40ff-b0ef-bb7c55e31136","ios":"levelo://app?vid=ee76d011-dae8-40ff-b0ef-bb7c55e31136"},"vehicle_type_id":"4","last_reported":1765901743,"current_range_meters":12800,"station_id":"ce4bh3p2rcd13ifvqdq0","pricing_plan_id":"cebpf4jnsgd1na2vs0mg"},{"bike_id":"e2cbb5e6-3f9d-4a3d-a899-57d885f29ddd","system_id":"levelo_inurba_marseille","lat":43.337444,"lon":5.374475,"is_reserved":false,"is_disabled":false,"rental_uris":{"android":"levelo://app?vid=e2cbb5e6-3f9d-4a3d-a899-57d885f29ddd","ios":"levelo://app?vid=e2cbb5e6-3f9d-4a3d-a899-57d885f29ddd"},"vehicle_type_id":"4","last_reported":1765901743,"current_range_meters":13600,"station_id":"","pricing_plan_id":"cebpf4jnsgd1na2vs0mg"},{"bike_id":"0bd2d304-ee4f-4da2-861b-a3ef0b385397","system_id":"levelo_inurba_marseille","lat":43.25336,"lon":5.42167,"is_reserved":false,"is_disabled":false,"rental_uris":{"android":"levelo://app?vid=0bd2d304-ee4f-4da2-861b-a3ef0b385397","ios":"levelo://app?vid=0bd2d304-ee4f-4da2-861b-a3ef0b385397"},"vehicle_type_id":"4","last_reported":1765901743,"current_range_meters":13600,"station_id":"st_d2m65c5bi1j21697t3ng","pricing_plan_id":"cebpf4jnsgd1na2vs0mg"},{"bike_id":"5b9b0249-af26-48bc-a6fd-72f489db67a9","system_id":"levelo_inurba_marseille","lat":43.32353,"lon":5.36704,"is_reserved":false,"is_disabled":false,"rental_uris":{"android":"levelo://app?vid=5b9b0249-af26-48bc-a6fd-72f489db67a9","ios":"levelo://app?vid=5b9b0249-af26-48bc-a6fd-72f489db67a9"},"vehicle_type_id":"4","last_reported":1765901743,"current_range_meters":13600,"station_id":"ce4bhsh2rcd13ifvqi2g","pricing_plan_id":"cebpf4jnsgd1na2vs0mg"},{"bike_id":"2ab2710b-733d-44fe-a9f8-fe4cbf8606c7","system_id":"levelo_inurba_marseille","lat":43.33525,"lon":5.37512,"is_reserved":false,"is_disabled":false,"rental_uris":{"android":"levelo://app?vid=2ab2710b-733d-44fe-a9f8-fe4cbf8606c7","ios":"levelo://app?vid=2ab2710b-733d-44fe-a9f8-fe4cbf8606c7"},"vehicle_type_id":"4","last_reported":1765901743,"current_range_meters":13600,"station_id":"","pricing_plan_id":"cebpf4jnsgd1na2vs0mg"},{"bike_id":"5eabb89b-be95-4b4f-a683-fccb6531d8cd","system_id":"levelo_inurba_marseille","lat":43.30971,"lon":5.39258,"is_reserved":false,"is_disabled":false,"rental_uris":{"android":"levelo://app?vid=5eabb89b-be95-4b4f-a683-fccb6531d8cd","ios":"levelo://app?vid=5eabb89b-be95-4b4f-a683-fccb6531d8cd"},"vehicle_type_id":"4","last_reported":1765901743,"current_range_meters":14000,"station_id":"","pricing_plan_id":"cebpf4jnsgd1na2vs0mg"},{"bike_id":"651b29d3-4f51-4bd5-bf59-d7b9bcb7f108","system_id":"levelo_inurba_marseille","lat":43.25353,"lon":5.42164,"is_reserved":false,"is_disabled":true,"rental_uris":{"android":"levelo://app?vid=651b29d3-4f51-4bd5-bf59-d7b9bcb7f108","ios":"levelo://app?vid=651b29d3-4f51-4bd5-bf59-d7b9bcb7f108"},"vehicle_type_id":"4","last_reported":1765901743,"current_range_meters":14000,"station_id":"st_d2m65c5bi1j21697t3ng","pricing_plan_id":"cebpf4jnsgd1na2vs0mg"},{"bike_id":"2f55b60b-9e1e-48dc-bbbb-c371d55361ae","system_id":"levelo_inurba_marseille","lat":43.24648,"lon":5.38892,"is_reserved":false,"is_disabled":false,"rental_uris":{"android":"levelo://app?vid=2f55b60b-9e1e-48dc-bbbb-c371d55361ae","ios":"levelo://app?vid=2f55b60b-9e1e-48dc-bbbb-c371d55361ae"},"vehicle_type_id":"4","last_reported":1765901743,"current_range_meters":14000,"station_id":"ce4bhg12rcd13ifvqf60","pricing_plan_id":"cebpf4jnsgd1na2vs0mg"},{"bike_id":"f13507cb-dd7b-49a8-9e65-015b8f41659d","system_id":"levelo_inurba_marseille","lat":43.27613,"lon":5.36106,"is_reserved":false,"is_disabled":false,"rental_uris":{"android":"levelo://app?vid=f13507cb-dd7b-49a8-9e65-015b8f41659d","ios":"levelo://app?vid=f13507cb-dd7b-49a8-9e65-015b8f41659d"},"vehicle_type_id":"4","last_reported":1765901743,"current_range_meters":14000,"station_id":"ce4bgj92rcd13ifvqbe0","pricing_plan_id":"cebpf4jnsgd1na2vs0mg"},{"bike_id":"b2a2396c-b1f6-440d-946e-6c743f37941c","system_id":"levelo_inurba_marseille","lat":43.28681,"lon":5.38679,"is_reserved":false,"is_disabled":false,"rental_uris":{"android":"levelo://app?vid=b2a2396c-b1f6-440d-946e-6c743f37941c","ios":"levelo://app?vid=b2a2396c-b1f6-440d-946e-6c743f37941c"},"vehicle_type_id":"4","last_reported":1765901743,"current_range_meters":14000,"station_id":"ce4bh492rcd13ifvqdug","pricing_plan_id":"cebpf4jnsgd1na2vs0mg"},{"bike_id":"ddc696b3-8eca-496a-991e-29552813fd17","system_id":"levelo_inurba_marseille","lat":43.28154,"lon":5.42645,"is_reserved":false,"is_disabled":false,"rental_uris":{"android":"levelo://app?vid=ddc696b3-8eca-496a-991e-29552813fd17","ios":"levelo://app?vid=ddc696b3-8eca-496a-991e-29552813fd17"},"vehicle_type_id":"4","last_reported":1765901743,"current_range_meters":14000,"station_id":"ce4bhnh2rcd13ifvqgug","pricing_plan_id":"cebpf4jnsgd1na2vs0mg"},{"bike_id":"37c64312-bacf-418e-938c-ab682523f7de","system_id":"levelo_inurba_marseille","lat":43.28537,"lon":5.44119,"is_reserved":false,"is_disabled":false,"rental_uris":{"android":"levelo://app?vid=37c64312-bacf-418e-938c-ab682523f7de","ios":"levelo://app?vid=37c64312-bacf-418e-938c-ab682523f7de"},"vehicle_type_id":"4","last_reported":1765901743,"current_range_meters":14000,"station_id":"st_d3j3df2ikq2c7380ej80","pricing_plan_id":"cebpf4jnsgd1na2vs0mg"},{"bike_id":"79087407-a02e-4abe-832a-2de3d85bc945","system_id":"levelo_inurba_marseille","lat":43.25003,"lon":5.38978,"is_reserved":false,"is_disabled":false,"rental_uris":{"android":"levelo://app?vid=79087407-a02e-4abe-832a-2de3d85bc945","ios":"levelo://app?vid=79087407-a02e-4abe-832a-2de3d85bc945"},"vehicle_type_id":"4","last_reported":1765901743,"current_range_meters":14000,"station_id":"","pricing_plan_id":"cebpf4jnsgd1na2vs0mg"},{"bike_id":"8c2c2ce3-73da-4ebf-ba92-d3797395fcb1","system_id":"levelo_inurba_marseille","lat":43.24641,"lon":5.43147,"is_reserved":false,"is_disabled":true,"rental_uris":{"android":"levelo://app?vid=8c2c2ce3-73da-4ebf-ba92-d3797395fcb1","ios":"levelo://app?vid=8c2c2ce3-73da-4ebf-ba92-d3797395fcb1"},"vehicle_type_id":"4","last_reported":1765901743,"current_range_meters":14400,"station_id":"st_d2m6c4gdas8pm72e190g","pricing_plan_id":"cebpf4jnsgd1na2vs0mg"},{"bike_id":"ddb7d15d-3f99-4d7a-aae0-1a9d45669c33","system_id":"levelo_inurba_marseille","lat":43.23146,"lon":5.43699,"is_reserved":false,"is_disabled":true,"rental_uris":{"android":"levelo://app?vid=ddb7d15d-3f99-4d7a-aae0-1a9d45669c33","ios":"levelo://app?vid=ddb7d15d-3f99-4d7a-aae0-1a9d45669c33"},"vehicle_type_id":"4","last_reported":1765901743,"current_range_meters":14400,"station_id":"ce4bhmp2rcd13ifvqgog","pricing_plan_id":"cebpf4jnsgd1na2vs0mg"},{"bike_id":"f96d197e-d68e-4b9e-b261-84222baa54d9","system_id":"levelo_inurba_marseille","lat":43.23782,"lon":5.36637,"is_reserved":false,"is_disabled":false,"rental_uris":{"android":"levelo://app?vid=f96d197e-d68e-4b9e-b261-84222baa54d9","ios":"levelo://app?vid=f96d197e-d68e-4b9e-b261-84222baa54d9"},"vehicle_type_id":"4","last_reported":1765901743,"current_range_meters":14400,"station_id":"st_d3nk18o9ro0c73en2l3g","pricing_plan_id":"cebpf4jnsgd1na2vs0mg"},{"bike_id":"33583a3e-eb6f-4736-a38d-d228e9cd63c0","system_id":"levelo_inurba_marseille","lat":43.29814,"lon":5.44069,"is_reserved":false,"is_disabled":false,"rental_uris":{"android":"levelo://app?vid=33583a3e-eb6f-4736-a38d-d228e9cd63c0","ios":"levelo://app?vid=33583a3e-eb6f-4736-a38d-d228e9cd63c0"},"vehicle_type_id":"4","last_reported":1765901743,"current_range_meters":14400,"station_id":"","pricing_plan_id":"cebpf4jnsgd1na2vs0mg"},{"bike_id":"73622435-c5fd-4005-8594-c94cc5b0c5e3","system_id":"levelo_inurba_marseille","lat":43.29512,"lon":5.39009,"is_reserved":false,"is_disabled":true,"rental_uris":{"android":"levelo://app?vid=73622435-c5fd-4005-8594-c94cc5b0c5e3","ios":"levelo://app?vid=73622435-c5fd-4005-8594-c94cc5b0c5e3"},"vehicle_type_id":"4","last_reported":1765901743,"current_range_meters":14400,"station_id":"ce4bh3p2rcd13ifvqdp0","pricing_plan_id":"cebpf4jnsgd1na2vs0mg"},{"bike_id":"e9ea9969-3993-42a8-8402-f692eb53297c","system_id":"levelo_inurba_marseille","lat":43.24949,"lon":5.40491,"is_reserved":false,"is_disabled":false,"rental_uris":{"android":"levelo://app?vid=e9ea9969-3993-42a8-8402-f692eb53297c","ios":"levelo://app?vid=e9ea9969-3993-42a8-8402-f692eb53297c"},"vehicle_type_id":"4","last_reported":1765901743,"current_range_meters":14400,"station_id":"st_d2ngiaodas8pm72gd1h0","pricing_plan_id":"cebpf4jnsgd1na2vs0mg"},{"bike_id":"19b66638-3211-46a9-8beb-4f12406d7672","system_id":"levelo_inurba_marseille","lat":43.27283,"lon":5.41078,"is_reserved":false,"is_disabled":false,"rental_uris":{"android":"levelo://app?vid=19b66638-3211-46a9-8beb-4f12406d7672","ios":"levelo://app?vid=19b66638-3211-46a9-8beb-4f12406d7672"},"vehicle_type_id":"4","last_reported":1765901743,"current_range_meters":14400,"station_id":"","pricing_plan_id":"cebpf4jnsgd1na2vs0mg"},{"bike_id":"df17f651-6a9c-4bcd-8a50-8beed02c6428","system_id":"levelo_inurba_marseille","lat":43.286178,"lon":5.351046,"is_reserved":false,"is_disabled":false,"rental_uris":{"android":"levelo://app?vid=df17f651-6a9c-4bcd-8a50-8beed02c6428","ios":"levelo://app?vid=df17f651-6a9c-4bcd-8a50-8beed02c6428"},"vehicle_type_id":"4","last_reported":1765901743,"current_range_meters":14400,"station_id":"ce4bhch2rcd13ifvqeug","pricing_plan_id":"cebpf4jnsgd1na2vs0mg"},{"bike_id":"a0ee95ce-867d-48c9-96f3-364b3cf22de1","system_id":"levelo_inurba_marseille","lat":43.30181,"lon":5.36617,"is_reserved":false,"is_disabled":false,"rental_uris":{"android":"levelo://app?vid=a0ee95ce-867d-48c9-96f3-364b3cf22de1","ios":"levelo://app?vid=a0ee95ce-867d-48c9-96f3-364b3cf22de1"},"vehicle_type_id":"4","last_reported":1765901743,"current_range_meters":14400,"station_id":"ce4bgrh2rcd13ifvqc8g","pricing_plan_id":"cebpf4jnsgd1na2vs0mg"},{"bike_id":"b972c994-16b3-47fe-974f-b887645957a5","system_id":"levelo_inurba_marseille","lat":43.265576,"lon":5.372854,"is_reserved":false,"is_disabled":false,"rental_uris":{"android":"levelo://app?vid=b972c994-16b3-47fe-974f-b887645957a5","ios":"levelo://app?vid=b972c994-16b3-47fe-974f-b887645957a5"},"vehicle_type_id":"4","last_reported":1765901743,"current_range_meters":14800,"station_id":"ce4bhih2rcd13ifvqfr0","pricing_plan_id":"cebpf4jnsgd1na2vs0mg"},{"bike_id":"b87f237b-bed1-4605-8614-65c124626701","system_id":"levelo_inurba_marseille","lat":43.31356,"lon":5.36731,"is_reserved":false,"is_disabled":false,"rental_uris":{"android":"levelo://app?vid=b87f237b-bed1-4605-8614-65c124626701","ios":"levelo://app?vid=b87f237b-bed1-4605-8614-65c124626701"},"vehicle_type_id":"4","last_reported":1765901743,"current_range_meters":14800,"station_id":"ce4bgr92rcd13ifvqc6g","pricing_plan_id":"cebpf4jnsgd1na2vs0mg"},{"bike_id":"5560bc30-feb5-441e-bb0e-aa8412fb304f","system_id":"levelo_inurba_marseille","lat":43.26763,"lon":5.39317,"is_reserved":false,"is_disabled":false,"rental_uris":{"android":"levelo://app?vid=5560bc30-feb5-441e-bb0e-aa8412fb304f","ios":"levelo://app?vid=5560bc30-feb5-441e-bb0e-aa8412fb304f"},"vehicle_type_id":"4","last_reported":1765901743,"current_range_meters":14800,"station_id":"","pricing_plan_id":"cebpf4jnsgd1na2vs0mg"},{"bike_id":"30e8c1d4-8f98-4f2a-9837-de8ef1192e2d","system_id":"levelo_inurba_marseille","lat":43.23197,"lon":5.39983,"is_reserved":false,"is_disabled":false,"rental_uris":{"android":"levelo://app?vid=30e8c1d4-8f98-4f2a-9837-de8ef1192e2d","ios":"levelo://app?vid=30e8c1d4-8f98-4f2a-9837-de8ef1192e2d"},"vehicle_type_id":"4","last_reported":1765901743,"current_range_meters":14800,"station_id":"ce4bhn12rcd13ifvqgqg","pricing_plan_id":"cebpf4jnsgd1na2vs0mg"},{"bike_id":"f970d404-0c68-49e5-9939-49cca7d0a94a","system_id":"levelo_inurba_marseille","lat":43.28705,"lon":5.373875,"is_reserved":false,"is_disabled":false,"rental_uris":{"android":"levelo://app?vid=f970d404-0c68-49e5-9939-49cca7d0a94a","ios":"levelo://app?vid=f970d404-0c68-49e5-9939-49cca7d0a94a"},"vehicle_type_id":"4","last_reported":1765901743,"current_range_meters":14800,"station_id":"ce4bh3p2rcd13ifvqdq0","pricing_plan_id":"cebpf4jnsgd1na2vs0mg"},{"bike_id":"b7c20e8f-75c8-4225-82ea-1e21cbeccd1a","system_id":"levelo_inurba_marseille","lat":43.27992,"lon":5.41669,"is_reserved":false,"is_disabled":false,"rental_uris":{"android":"levelo://app?vid=b7c20e8f-75c8-4225-82ea-1e21cbeccd1a","ios":"levelo://app?vid=b7c20e8f-75c8-4225-82ea-1e21cbeccd1a"},"vehicle_type_id":"4","last_reported":1765901743,"current_range_meters":14800,"station_id":"ce4bho12rcd13ifvqh1g","pricing_plan_id":"cebpf4jnsgd1na2vs0mg"},{"bike_id":"932a928a-6ef7-439e-9ce3-29e9b211ee75","system_id":"levelo_inurba_marseille","lat":43.30087,"lon":5.3908,"is_reserved":false,"is_disabled":false,"rental_uris":{"android":"levelo://app?vid=932a928a-6ef7-439e-9ce3-29e9b211ee75","ios":"levelo://app?vid=932a928a-6ef7-439e-9ce3-29e9b211ee75"},"vehicle_type_id":"4","last_reported":1765901743,"current_range_meters":14800,"station_id":"ce4bh192rcd13ifvqdb0","pricing_plan_id":"cebpf4jnsgd1na2vs0mg"},{"bike_id":"e0b349a1-d5df-4d77-8074-8ffded5b73c6","system_id":"levelo_inurba_marseille","lat":43.24393,"lon":5.370558,"is_reserved":false,"is_disabled":false,"rental_uris":{"android":"levelo://app?vid=e0b349a1-d5df-4d77-8074-8ffded5b73c6","ios":"levelo://app?vid=e0b349a1-d5df-4d77-8074-8ffded5b73c6"},"vehicle_type_id":"4","last_reported":1765901743,"current_range_meters":15200,"station_id":"ce4bhhh2rcd13ifvqfk0","pricing_plan_id":"cebpf4jnsgd1na2vs0mg"},{"bike_id":"1300c5cd-7f40-402d-ae91-8b213acb47f4","system_id":"levelo_inurba_marseille","lat":43.26956,"lon":5.38636,"is_reserved":false,"is_disabled":false,"rental_uris":{"android":"levelo://app?vid=1300c5cd-7f40-402d-ae91-8b213acb47f4","ios":"levelo://app?vid=1300c5cd-7f40-402d-ae91-8b213acb47f4"},"vehicle_type_id":"4","last_reported":1765901743,"current_range_meters":15200,"station_id":"ce4bhh92rcd13ifvqfh0","pricing_plan_id":"cebpf4jnsgd1na2vs0mg"},{"bike_id":"a46445b0-0e05-4854-90e8-7e9116d714dc","system_id":"levelo_inurba_marseille","lat":43.337634,"lon":5.37441,"is_reserved":false,"is_disabled":false,"rental_uris":{"android":"levelo://app?vid=a46445b0-0e05-4854-90e8-7e9116d714dc","ios":"levelo://app?vid=a46445b0-0e05-4854-90e8-7e9116d714dc"},"vehicle_type_id":"4","last_reported":1765901743,"current_range_meters":15200,"station_id":"","pricing_plan_id":"cebpf4jnsgd1na2vs0mg"},{"bike_id":"26be2fbe-53c9-423c-a90c-c203742a25c2","system_id":"levelo_inurba_marseille","lat":43.27222,"lon":5.39186,"is_reserved":false,"is_disabled":false,"rental_uris":{"android":"levelo://app?vid=26be2fbe-53c9-423c-a90c-c203742a25c2","ios":"levelo://app?vid=26be2fbe-53c9-423c-a90c-c203742a25c2"},"vehicle_type_id":"4","last_reported":1765901743,"current_range_meters":15200,"station_id":"ce4bhhp2rcd13ifvqfm0","pricing_plan_id":"cebpf4jnsgd1na2vs0mg"},{"bike_id":"1985a16d-974e-4764-a075-1c51a005d839","system_id":"levelo_inurba_marseille","lat":43.298153,"lon":5.440721,"is_reserved":false,"is_disabled":false,"rental_uris":{"android":"levelo://app?vid=1985a16d-974e-4764-a075-1c51a005d839","ios":"levelo://app?vid=1985a16d-974e-4764-a075-1c51a005d839"},"vehicle_type_id":"4","last_reported":1765901743,"current_range_meters":15200,"station_id":"st_d3jp68qikq2c7381ktn0","pricing_plan_id":"cebpf4jnsgd1na2vs0mg"},{"bike_id":"73d4cc14-4d9a-4160-a388-161c5b162a72","system_id":"levelo_inurba_marseille","lat":43.2807,"lon":5.39649,"is_reserved":false,"is_disabled":false,"rental_uris":{"android":"levelo://app?vid=73d4cc14-4d9a-4160-a388-161c5b162a72","ios":"levelo://app?vid=73d4cc14-4d9a-4160-a388-161c5b162a72"},"vehicle_type_id":"4","last_reported":1765901743,"current_range_meters":15200,"station_id":"ce4bho12rcd13ifvqh2g","pricing_plan_id":"cebpf4jnsgd1na2vs0mg"},{"bike_id":"1761dee6-2fc9-43ea-a081-e6bc83df43e8","system_id":"levelo_inurba_marseille","lat":43.31746,"lon":5.37622,"is_reserved":false,"is_disabled":false,"rental_uris":{"android":"levelo://app?vid=1761dee6-2fc9-43ea-a081-e6bc83df43e8","ios":"levelo://app?vid=1761dee6-2fc9-43ea-a081-e6bc83df43e8"},"vehicle_type_id":"4","last_reported":1765901743,"current_range_meters":16000,"station_id":"","pricing_plan_id":"cebpf4jnsgd1na2vs0mg"},{"bike_id":"2e2d5abd-a5ef-410b-b72e-d38d80e78f52","system_id":"levelo_inurba_marseille","lat":43.30138,"lon":5.43115,"is_reserved":false,"is_disabled":false,"rental_uris":{"android":"levelo://app?vid=2e2d5abd-a5ef-410b-b72e-d38d80e78f52","ios":"levelo://app?vid=2e2d5abd-a5ef-410b-b72e-d38d80e78f52"},"vehicle_type_id":"4","last_reported":1765901743,"current_range_meters":16000,"station_id":"st_d3js3co5814s73ftftug","pricing_plan_id":"cebpf4jnsgd1na2vs0mg"},{"bike_id":"4fa41bf2-a255-4eea-86fc-52affbe7875d","system_id":"levelo_inurba_marseille","lat":43.26198,"lon":5.37476,"is_reserved":false,"is_disabled":false,"rental_uris":{"android":"levelo://app?vid=4fa41bf2-a255-4eea-86fc-52affbe7875d","ios":"levelo://app?vid=4fa41bf2-a255-4eea-86fc-52affbe7875d"},"vehicle_type_id":"4","last_reported":1765901743,"current_range_meters":16000,"station_id":"ce4bhgp2rcd13ifvqfc0","pricing_plan_id":"cebpf4jnsgd1na2vs0mg"},{"bike_id":"4824a2bb-7351-4049-8fb9-1f8b55445bbe","system_id":"levelo_inurba_marseille","lat":43.24172,"lon":5.36398,"is_reserved":false,"is_disabled":false,"rental_uris":{"android":"levelo://app?vid=4824a2bb-7351-4049-8fb9-1f8b55445bbe","ios":"levelo://app?vid=4824a2bb-7351-4049-8fb9-1f8b55445bbe"},"vehicle_type_id":"4","last_reported":1765901743,"current_range_meters":16000,"station_id":"cpo36qri1sfpv3e86is0","pricing_plan_id":"cebpf4jnsgd1na2vs0mg"},{"bike_id":"2d9be9df-3d9b-45f9-8822-775a0a71b6a1","system_id":"levelo_inurba_marseille","lat":43.28167,"lon":5.42639,"is_reserved":false,"is_disabled":false,"rental_uris":{"android":"levelo://app?vid=2d9be9df-3d9b-45f9-8822-775a0a71b6a1","ios":"levelo://app?vid=2d9be9df-3d9b-45f9-8822-775a0a71b6a1"},"vehicle_type_id":"4","last_reported":1765901743,"current_range_meters":16000,"station_id":"ce4bhnh2rcd13ifvqgug","pricing_plan_id":"cebpf4jnsgd1na2vs0mg"},{"bike_id":"09e77213-af41-4957-88d3-2e951c299102","system_id":"levelo_inurba_marseille","lat":43.261767,"lon":5.394232,"is_reserved":false,"is_disabled":false,"rental_uris":{"android":"levelo://app?vid=09e77213-af41-4957-88d3-2e951c299102","ios":"levelo://app?vid=09e77213-af41-4957-88d3-2e951c299102"},"vehicle_type_id":"4","last_reported":1765901743,"current_range_meters":16000,"station_id":"ce4bh692rcd13ifvqe90","pricing_plan_id":"cebpf4jnsgd1na2vs0mg"},{"bike_id":"a3cf6e32-8a5b-405a-8e1a-e62fc2a41c92","system_id":"levelo_inurba_marseille","lat":43.2802,"lon":5.42134,"is_reserved":false,"is_disabled":false,"rental_uris":{"android":"levelo://app?vid=a3cf6e32-8a5b-405a-8e1a-e62fc2a41c92","ios":"levelo://app?vid=a3cf6e32-8a5b-405a-8e1a-e62fc2a41c92"},"vehicle_type_id":"4","last_reported":1765901743,"current_range_meters":16400,"station_id":"","pricing_plan_id":"cebpf4jnsgd1na2vs0mg"},{"bike_id":"63388b1a-3470-4c94-a050-28c0a98fc38d","system_id":"levelo_inurba_marseille","lat":43.29817,"lon":5.44058,"is_reserved":false,"is_disabled":false,"rental_uris":{"android":"levelo://app?vid=63388b1a-3470-4c94-a050-28c0a98fc38d","ios":"levelo://app?vid=63388b1a-3470-4c94-a050-28c0a98fc38d"},"vehicle_type_id":"4","last_reported":1765901743,"current_range_meters":16400,"station_id":"st_d3jp68qikq2c7381ktn0","pricing_plan_id":"cebpf4jnsgd1na2vs0mg"},{"bike_id":"8e42f5bd-0a55-4d3c-9096-d82a20a55cfc","system_id":"levelo_inurba_marseille","lat":43.286,"lon":5.38356,"is_reserved":false,"is_disabled":false,"rental_uris":{"android":"levelo://app?vid=8e42f5bd-0a55-4d3c-9096-d82a20a55cfc","ios":"levelo://app?vid=8e42f5bd-0a55-4d3c-9096-d82a20a55cfc"},"vehicle_type_id":"4","last_reported":1765901743,"current_range_meters":16400,"station_id":"","pricing_plan_id":"cebpf4jnsgd1na2vs0mg"},{"bike_id":"3559ec2a-d4fa-4a99-8ad6-95237c097e66","system_id":"levelo_inurba_marseille","lat":43.31202,"lon":5.36909,"is_reserved":false,"is_disabled":false,"rental_uris":{"android":"levelo://app?vid=3559ec2a-d4fa-4a99-8ad6-95237c097e66","ios":"levelo://app?vid=3559ec2a-d4fa-4a99-8ad6-95237c097e66"},"vehicle_type_id":"4","last_reported":1765901743,"current_range_meters":16400,"station_id":"ce4bgl92rcd13ifvqbq0","pricing_plan_id":"cebpf4jnsgd1na2vs0mg"},{"bike_id":"6c7631b2-9bb1-45d3-abcd-6fdb69c6f423","system_id":"levelo_inurba_marseille","lat":43.32487,"lon":5.36565,"is_reserved":false,"is_disabled":false,"rental_uris":{"android":"levelo://app?vid=6c7631b2-9bb1-45d3-abcd-6fdb69c6f423","ios":"levelo://app?vid=6c7631b2-9bb1-45d3-abcd-6fdb69c6f423"},"vehicle_type_id":"4","last_reported":1765901743,"current_range_meters":16400,"station_id":"ce4bhs12rcd13ifvqhvg","pricing_plan_id":"cebpf4jnsgd1na2vs0mg"},{"bike_id":"97b97d50-4450-47ca-973a-2c86c1259349","system_id":"levelo_inurba_marseille","lat":43.278365,"lon":5.392101,"is_reserved":false,"is_disabled":false,"rental_uris":{"android":"levelo://app?vid=97b97d50-4450-47ca-973a-2c86c1259349","ios":"levelo://app?vid=97b97d50-4450-47ca-973a-2c86c1259349"},"vehicle_type_id":"4","last_reported":1765901743,"current_range_meters":16400,"station_id":"ce4bhjp2rcd13ifvqga0","pricing_plan_id":"cebpf4jnsgd1na2vs0mg"},{"bike_id":"2b6fc064-47d2-4dab-b271-53e41ab5ecbc","system_id":"levelo_inurba_marseille","lat":43.29845,"lon":5.36276,"is_reserved":false,"is_disabled":false,"rental_uris":{"android":"levelo://app?vid=2b6fc064-47d2-4dab-b271-53e41ab5ecbc","ios":"levelo://app?vid=2b6fc064-47d2-4dab-b271-53e41ab5ecbc"},"vehicle_type_id":"4","last_reported":1765901743,"current_range_meters":16400,"station_id":"ce4bgpp2rcd13ifvqc3g","pricing_plan_id":"cebpf4jnsgd1na2vs0mg"},{"bike_id":"499df733-f5bf-42c1-9351-5f6973a6c881","system_id":"levelo_inurba_marseille","lat":43.24671,"lon":5.38906,"is_reserved":false,"is_disabled":false,"rental_uris":{"android":"levelo://app?vid=499df733-f5bf-42c1-9351-5f6973a6c881","ios":"levelo://app?vid=499df733-f5bf-42c1-9351-5f6973a6c881"},"vehicle_type_id":"4","last_reported":1765901743,"current_range_meters":16800,"station_id":"ce4bhg12rcd13ifvqf60","pricing_plan_id":"cebpf4jnsgd1na2vs0mg"},{"bike_id":"d5f47dab-732d-4f2f-9c2e-2d1173dc7601","system_id":"levelo_inurba_marseille","lat":43.26228,"lon":5.40458,"is_reserved":false,"is_disabled":false,"rental_uris":{"android":"levelo://app?vid=d5f47dab-732d-4f2f-9c2e-2d1173dc7601","ios":"levelo://app?vid=d5f47dab-732d-4f2f-9c2e-2d1173dc7601"},"vehicle_type_id":"4","last_reported":1765901743,"current_range_meters":16800,"station_id":"ce4bhmh2rcd13ifvqgmg","pricing_plan_id":"cebpf4jnsgd1na2vs0mg"},{"bike_id":"325f0ac2-d292-4c5b-acba-55502e937e17","system_id":"levelo_inurba_marseille","lat":43.298046,"lon":5.440712,"is_reserved":false,"is_disabled":false,"rental_uris":{"android":"levelo://app?vid=325f0ac2-d292-4c5b-acba-55502e937e17","ios":"levelo://app?vid=325f0ac2-d292-4c5b-acba-55502e937e17"},"vehicle_type_id":"4","last_reported":1765901743,"current_range_meters":16800,"station_id":"st_d3jp68qikq2c7381ktn0","pricing_plan_id":"cebpf4jnsgd1na2vs0mg"},{"bike_id":"ee49364c-3ad7-437b-9b29-c52035c6d428","system_id":"levelo_inurba_marseille","lat":43.31371,"lon":5.36666,"is_reserved":false,"is_disabled":false,"rental_uris":{"android":"levelo://app?vid=ee49364c-3ad7-437b-9b29-c52035c6d428","ios":"levelo://app?vid=ee49364c-3ad7-437b-9b29-c52035c6d428"},"vehicle_type_id":"4","last_reported":1765901743,"current_range_meters":16800,"station_id":"ce4bgr92rcd13ifvqc6g","pricing_plan_id":"cebpf4jnsgd1na2vs0mg"},{"bike_id":"2f48a76a-f4e0-44e8-b1db-59ee514aacb8","system_id":"levelo_inurba_marseille","lat":43.299274,"lon":5.374564,"is_reserved":false,"is_disabled":false,"rental_uris":{"android":"levelo://app?vid=2f48a76a-f4e0-44e8-b1db-59ee514aacb8","ios":"levelo://app?vid=2f48a76a-f4e0-44e8-b1db-59ee514aacb8"},"vehicle_type_id":"4","last_reported":1765901743,"current_range_meters":16800,"station_id":"","pricing_plan_id":"cebpf4jnsgd1na2vs0mg"},{"bike_id":"67c7e79a-224b-4b44-989d-014bf008ff29","system_id":"levelo_inurba_marseille","lat":43.33727,"lon":5.3918,"is_reserved":false,"is_disabled":false,"rental_uris":{"android":"levelo://app?vid=67c7e79a-224b-4b44-989d-014bf008ff29","ios":"levelo://app?vid=67c7e79a-224b-4b44-989d-014bf008ff29"},"vehicle_type_id":"4","last_reported":1765901743,"current_range_meters":16800,"station_id":"ce4bhr92rcd13ifvqhsg","pricing_plan_id":"cebpf4jnsgd1na2vs0mg"},{"bike_id":"50a5b016-cf9a-497e-8e9c-2f2d39e2c6a3","system_id":"levelo_inurba_marseille","lat":43.32103,"lon":5.3677,"is_reserved":false,"is_disabled":false,"rental_uris":{"android":"levelo://app?vid=50a5b016-cf9a-497e-8e9c-2f2d39e2c6a3","ios":"levelo://app?vid=50a5b016-cf9a-497e-8e9c-2f2d39e2c6a3"},"vehicle_type_id":"4","last_reported":1765901743,"current_range_meters":16800,"station_id":"ce4bhrh2rcd13ifvqhug","pricing_plan_id":"cebpf4jnsgd1na2vs0mg"},{"bike_id":"47386b70-d1a6-403d-bcde-2b22b9b9b4a4","system_id":"levelo_inurba_marseille","lat":43.29192,"lon":5.39356,"is_reserved":false,"is_disabled":true,"rental_uris":{"android":"levelo://app?vid=47386b70-d1a6-403d-bcde-2b22b9b9b4a4","ios":"levelo://app?vid=47386b70-d1a6-403d-bcde-2b22b9b9b4a4"},"vehicle_type_id":"4","last_reported":1765901743,"current_range_meters":16800,"station_id":"ce4bh192rcd13ifvqdd0","pricing_plan_id":"cebpf4jnsgd1na2vs0mg"},{"bike_id":"7ff35f83-1e74-47b1-b306-a75e8d53470a","system_id":"levelo_inurba_marseille","lat":43.30136,"lon":5.43168,"is_reserved":false,"is_disabled":false,"rental_uris":{"android":"levelo://app?vid=7ff35f83-1e74-47b1-b306-a75e8d53470a","ios":"levelo://app?vid=7ff35f83-1e74-47b1-b306-a75e8d53470a"},"vehicle_type_id":"4","last_reported":1765901743,"current_range_meters":16800,"station_id":"st_d3js3co5814s73ftftug","pricing_plan_id":"cebpf4jnsgd1na2vs0mg"},{"bike_id":"b271e490-c2af-46ca-8910-b385a7301e5a","system_id":"levelo_inurba_marseille","lat":43.29359,"lon":5.37847,"is_reserved":false,"is_disabled":false,"rental_uris":{"android":"levelo://app?vid=b271e490-c2af-46ca-8910-b385a7301e5a","ios":"levelo://app?vid=b271e490-c2af-46ca-8910-b385a7301e5a"},"vehicle_type_id":"4","last_reported":1765901743,"current_range_meters":16800,"station_id":"ce4bgjh2rcd13ifvqbf0","pricing_plan_id":"cebpf4jnsgd1na2vs0mg"},{"bike_id":"4515132a-3268-4b1c-81eb-02cb63ec18dc","system_id":"levelo_inurba_marseille","lat":43.33145,"lon":5.3769,"is_reserved":false,"is_disabled":false,"rental_uris":{"android":"levelo://app?vid=4515132a-3268-4b1c-81eb-02cb63ec18dc","ios":"levelo://app?vid=4515132a-3268-4b1c-81eb-02cb63ec18dc"},"vehicle_type_id":"4","last_reported":1765901743,"current_range_meters":16800,"station_id":"st_d46cu089ee8s73dldbu0","pricing_plan_id":"cebpf4jnsgd1na2vs0mg"},{"bike_id":"51cfd1e1-56ff-48fe-be68-f17b2bff7b48","system_id":"levelo_inurba_marseille","lat":43.2861,"lon":5.35127,"is_reserved":false,"is_disabled":false,"rental_uris":{"android":"levelo://app?vid=51cfd1e1-56ff-48fe-be68-f17b2bff7b48","ios":"levelo://app?vid=51cfd1e1-56ff-48fe-be68-f17b2bff7b48"},"vehicle_type_id":"4","last_reported":1765901743,"current_range_meters":16800,"station_id":"ce4bhch2rcd13ifvqeug","pricing_plan_id":"cebpf4jnsgd1na2vs0mg"},{"bike_id":"02ae2109-9082-4c0d-bf30-13fe89fc5527","system_id":"levelo_inurba_marseille","lat":43.29093,"lon":5.38129,"is_reserved":false,"is_disabled":false,"rental_uris":{"android":"levelo://app?vid=02ae2109-9082-4c0d-bf30-13fe89fc5527","ios":"levelo://app?vid=02ae2109-9082-4c0d-bf30-13fe89fc5527"},"vehicle_type_id":"4","last_reported":1765901743,"current_range_meters":16800,"station_id":"ce4bh512rcd13ifvqe2g","pricing_plan_id":"cebpf4jnsgd1na2vs0mg"},{"bike_id":"5193af94-cd08-4645-ab66-06055fe41ecc","system_id":"levelo_inurba_marseille","lat":43.26428,"lon":5.39328,"is_reserved":false,"is_disabled":false,"rental_uris":{"android":"levelo://app?vid=5193af94-cd08-4645-ab66-06055fe41ecc","ios":"levelo://app?vid=5193af94-cd08-4645-ab66-06055fe41ecc"},"vehicle_type_id":"4","last_reported":1765901743,"current_range_meters":16800,"station_id":"","pricing_plan_id":"cebpf4jnsgd1na2vs0mg"},{"bike_id":"b7c8415c-db67-4e41-bbbd-5cd8373c7f8c","system_id":"levelo_inurba_marseille","lat":43.31177,"lon":5.38728,"is_reserved":false,"is_disabled":false,"rental_uris":{"android":"levelo://app?vid=b7c8415c-db67-4e41-bbbd-5cd8373c7f8c","ios":"levelo://app?vid=b7c8415c-db67-4e41-bbbd-5cd8373c7f8c"},"vehicle_type_id":"4","last_reported":1765901743,"current_range_meters":16800,"station_id":"ce4bgv12rcd13ifvqcp0","pricing_plan_id":"cebpf4jnsgd1na2vs0mg"},{"bike_id":"281fcc6f-5f81-49e5-9506-090af975ab0a","system_id":"levelo_inurba_marseille","lat":43.24992,"lon":5.38931,"is_reserved":false,"is_disabled":false,"rental_uris":{"android":"levelo://app?vid=281fcc6f-5f81-49e5-9506-090af975ab0a","ios":"levelo://app?vid=281fcc6f-5f81-49e5-9506-090af975ab0a"},"vehicle_type_id":"4","last_reported":1765901743,"current_range_meters":16800,"station_id":"ce4bhgp2rcd13ifvqfd0","pricing_plan_id":"cebpf4jnsgd1na2vs0mg"},{"bike_id":"f7cab75d-5cff-4a9e-a372-66435d51bf97","system_id":"levelo_inurba_marseille","lat":43.30809,"lon":5.38146,"is_reserved":false,"is_disabled":false,"rental_uris":{"android":"levelo://app?vid=f7cab75d-5cff-4a9e-a372-66435d51bf97","ios":"levelo://app?vid=f7cab75d-5cff-4a9e-a372-66435d51bf97"},"vehicle_type_id":"4","last_reported":1765901743,"current_range_meters":17200,"station_id":"ce4bgt12rcd13ifvqce0","pricing_plan_id":"cebpf4jnsgd1na2vs0mg"},{"bike_id":"aae25742-9eeb-49ec-a8e5-f2b92e66260e","system_id":"levelo_inurba_marseille","lat":43.28467,"lon":5.48397,"is_reserved":false,"is_disabled":false,"rental_uris":{"android":"levelo://app?vid=aae25742-9eeb-49ec-a8e5-f2b92e66260e","ios":"levelo://app?vid=aae25742-9eeb-49ec-a8e5-f2b92e66260e"},"vehicle_type_id":"4","last_reported":1765901743,"current_range_meters":17200,"station_id":"st_d3svhcjqgbts73a3dn0g","pricing_plan_id":"cebpf4jnsgd1na2vs0mg"},{"bike_id":"f7a7c48a-9529-4a62-870c-83c6bb5fc874","system_id":"levelo_inurba_marseille","lat":43.31273,"lon":5.36663,"is_reserved":false,"is_disabled":false,"rental_uris":{"android":"levelo://app?vid=f7a7c48a-9529-4a62-870c-83c6bb5fc874","ios":"levelo://app?vid=f7a7c48a-9529-4a62-870c-83c6bb5fc874"},"vehicle_type_id":"4","last_reported":1765901743,"current_range_meters":17200,"station_id":"","pricing_plan_id":"cebpf4jnsgd1na2vs0mg"},{"bike_id":"d0e47d82-46b1-4391-9c6a-cf32785e1c0d","system_id":"levelo_inurba_marseille","lat":43.2849,"lon":5.38434,"is_reserved":false,"is_disabled":false,"rental_uris":{"android":"levelo://app?vid=d0e47d82-46b1-4391-9c6a-cf32785e1c0d","ios":"levelo://app?vid=d0e47d82-46b1-4391-9c6a-cf32785e1c0d"},"vehicle_type_id":"4","last_reported":1765901743,"current_range_meters":17200,"station_id":"ce4bh512rcd13ifvqe3g","pricing_plan_id":"cebpf4jnsgd1na2vs0mg"},{"bike_id":"e8adbe6f-96ca-464e-9bf2-213a631cd7b9","system_id":"levelo_inurba_marseille","lat":43.26941,"lon":5.38928,"is_reserved":false,"is_disabled":false,"rental_uris":{"android":"levelo://app?vid=e8adbe6f-96ca-464e-9bf2-213a631cd7b9","ios":"levelo://app?vid=e8adbe6f-96ca-464e-9bf2-213a631cd7b9"},"vehicle_type_id":"4","last_reported":1765901743,"current_range_meters":17200,"station_id":"ce4bhhh2rcd13ifvqfl0","pricing_plan_id":"cebpf4jnsgd1na2vs0mg"},{"bike_id":"ebd8bf1b-f660-4eb5-8ea2-2aef2922fbd8","system_id":"levelo_inurba_marseille","lat":43.24546,"lon":5.39523,"is_reserved":false,"is_disabled":true,"rental_uris":{"android":"levelo://app?vid=ebd8bf1b-f660-4eb5-8ea2-2aef2922fbd8","ios":"levelo://app?vid=ebd8bf1b-f660-4eb5-8ea2-2aef2922fbd8"},"vehicle_type_id":"4","last_reported":1765901743,"current_range_meters":17200,"station_id":"ce4bhlp2rcd13ifvqgjg","pricing_plan_id":"cebpf4jnsgd1na2vs0mg"},{"bike_id":"5557cdea-5f6c-4b00-b176-3731de24559e","system_id":"levelo_inurba_marseille","lat":43.29357,"lon":5.37829,"is_reserved":false,"is_disabled":false,"rental_uris":{"android":"levelo://app?vid=5557cdea-5f6c-4b00-b176-3731de24559e","ios":"levelo://app?vid=5557cdea-5f6c-4b00-b176-3731de24559e"},"vehicle_type_id":"4","last_reported":1765901743,"current_range_meters":17200,"station_id":"ce4bgjh2rcd13ifvqbf0","pricing_plan_id":"cebpf4jnsgd1na2vs0mg"},{"bike_id":"e21f959b-b32b-4121-9b18-45968d8c64ce","system_id":"levelo_inurba_marseille","lat":43.33723,"lon":5.3748,"is_reserved":false,"is_disabled":false,"rental_uris":{"android":"levelo://app?vid=e21f959b-b32b-4121-9b18-45968d8c64ce","ios":"levelo://app?vid=e21f959b-b32b-4121-9b18-45968d8c64ce"},"vehicle_type_id":"4","last_reported":1765901743,"current_range_meters":17200,"station_id":"","pricing_plan_id":"cebpf4jnsgd1na2vs0mg"},{"bike_id":"a5f85ed1-5432-4565-9d3f-00675e2bbf99","system_id":"levelo_inurba_marseille","lat":43.30177,"lon":5.38102,"is_reserved":false,"is_disabled":true,"rental_uris":{"android":"levelo://app?vid=a5f85ed1-5432-4565-9d3f-00675e2bbf99","ios":"levelo://app?vid=a5f85ed1-5432-4565-9d3f-00675e2bbf99"},"vehicle_type_id":"4","last_reported":1765901743,"current_range_meters":17200,"station_id":"ce4bgjp2rcd13ifvqbh0","pricing_plan_id":"cebpf4jnsgd1na2vs0mg"},{"bike_id":"ae3b1349-6b71-4294-ab6f-601f74ea27fa","system_id":"levelo_inurba_marseille","lat":43.299218,"lon":5.374752,"is_reserved":false,"is_disabled":false,"rental_uris":{"android":"levelo://app?vid=ae3b1349-6b71-4294-ab6f-601f74ea27fa","ios":"levelo://app?vid=ae3b1349-6b71-4294-ab6f-601f74ea27fa"},"vehicle_type_id":"4","last_reported":1765901743,"current_range_meters":17200,"station_id":"ce4bgjh2rcd13ifvqbg0","pricing_plan_id":"cebpf4jnsgd1na2vs0mg"},{"bike_id":"6dc8488a-4ded-43fe-aa30-f4df2bd23421","system_id":"levelo_inurba_marseille","lat":43.337444,"lon":5.374475,"is_reserved":false,"is_disabled":false,"rental_uris":{"android":"levelo://app?vid=6dc8488a-4ded-43fe-aa30-f4df2bd23421","ios":"levelo://app?vid=6dc8488a-4ded-43fe-aa30-f4df2bd23421"},"vehicle_type_id":"4","last_reported":1765901743,"current_range_meters":17200,"station_id":"","pricing_plan_id":"cebpf4jnsgd1na2vs0mg"},{"bike_id":"e619208e-0fde-4077-b5fc-55c930737341","system_id":"levelo_inurba_marseille","lat":43.29994,"lon":5.38519,"is_reserved":false,"is_disabled":false,"rental_uris":{"android":"levelo://app?vid=e619208e-0fde-4077-b5fc-55c930737341","ios":"levelo://app?vid=e619208e-0fde-4077-b5fc-55c930737341"},"vehicle_type_id":"4","last_reported":1765901743,"current_range_meters":17200,"station_id":"ce4bgj92rcd13ifvqbd0","pricing_plan_id":"cebpf4jnsgd1na2vs0mg"},{"bike_id":"2cea33e4-48bd-40e0-a777-19f1e8ee7002","system_id":"levelo_inurba_marseille","lat":43.2794,"lon":5.41048,"is_reserved":false,"is_disabled":false,"rental_uris":{"android":"levelo://app?vid=2cea33e4-48bd-40e0-a777-19f1e8ee7002","ios":"levelo://app?vid=2cea33e4-48bd-40e0-a777-19f1e8ee7002"},"vehicle_type_id":"4","last_reported":1765901743,"current_range_meters":17200,"station_id":"ce4bhnp2rcd13ifvqh0g","pricing_plan_id":"cebpf4jnsgd1na2vs0mg"},{"bike_id":"7ee3c49a-b0d6-4ace-9ebc-d7fb564066cf","system_id":"levelo_inurba_marseille","lat":43.26563,"lon":5.37273,"is_reserved":false,"is_disabled":false,"rental_uris":{"android":"levelo://app?vid=7ee3c49a-b0d6-4ace-9ebc-d7fb564066cf","ios":"levelo://app?vid=7ee3c49a-b0d6-4ace-9ebc-d7fb564066cf"},"vehicle_type_id":"4","last_reported":1765901743,"current_range_meters":17200,"station_id":"ce4bhg12rcd13ifvqf70","pricing_plan_id":"cebpf4jnsgd1na2vs0mg"},{"bike_id":"9463029d-dd8c-47ab-837a-6ad071c28a09","system_id":"levelo_inurba_marseille","lat":43.31322,"lon":5.39694,"is_reserved":false,"is_disabled":false,"rental_uris":{"android":"levelo://app?vid=9463029d-dd8c-47ab-837a-6ad071c28a09","ios":"levelo://app?vid=9463029d-dd8c-47ab-837a-6ad071c28a09"},"vehicle_type_id":"4","last_reported":1765901743,"current_range_meters":17600,"station_id":"ce4bgvp2rcd13ifvqcu0","pricing_plan_id":"cebpf4jnsgd1na2vs0mg"},{"bike_id":"f3177490-a44c-4576-ac93-718eaa324671","system_id":"levelo_inurba_marseille","lat":43.26546,"lon":5.37288,"is_reserved":false,"is_disabled":false,"rental_uris":{"android":"levelo://app?vid=f3177490-a44c-4576-ac93-718eaa324671","ios":"levelo://app?vid=f3177490-a44c-4576-ac93-718eaa324671"},"vehicle_type_id":"4","last_reported":1765901743,"current_range_meters":17600,"station_id":"ce4bhg12rcd13ifvqf70","pricing_plan_id":"cebpf4jnsgd1na2vs0mg"},{"bike_id":"5542e50a-0abd-4334-b9c8-d3ed3aed793c","system_id":"levelo_inurba_marseille","lat":43.30441,"lon":5.3708,"is_reserved":false,"is_disabled":false,"rental_uris":{"android":"levelo://app?vid=5542e50a-0abd-4334-b9c8-d3ed3aed793c","ios":"levelo://app?vid=5542e50a-0abd-4334-b9c8-d3ed3aed793c"},"vehicle_type_id":"4","last_reported":1765901743,"current_range_meters":17600,"station_id":"","pricing_plan_id":"cebpf4jnsgd1na2vs0mg"},{"bike_id":"e9a0777d-e167-4468-975d-9d050d0f6115","system_id":"levelo_inurba_marseille","lat":43.25003,"lon":5.38934,"is_reserved":false,"is_disabled":false,"rental_uris":{"android":"levelo://app?vid=e9a0777d-e167-4468-975d-9d050d0f6115","ios":"levelo://app?vid=e9a0777d-e167-4468-975d-9d050d0f6115"},"vehicle_type_id":"4","last_reported":1765901743,"current_range_meters":17600,"station_id":"ce4bhgp2rcd13ifvqfd0","pricing_plan_id":"cebpf4jnsgd1na2vs0mg"},{"bike_id":"522c8aa9-f465-4f43-9c7d-5310e79b7326","system_id":"levelo_inurba_marseille","lat":43.31222,"lon":5.36919,"is_reserved":false,"is_disabled":false,"rental_uris":{"android":"levelo://app?vid=522c8aa9-f465-4f43-9c7d-5310e79b7326","ios":"levelo://app?vid=522c8aa9-f465-4f43-9c7d-5310e79b7326"},"vehicle_type_id":"4","last_reported":1765901743,"current_range_meters":17600,"station_id":"","pricing_plan_id":"cebpf4jnsgd1na2vs0mg"},{"bike_id":"9a30f84f-1824-4a3b-a3e5-7cf716d48de5","system_id":"levelo_inurba_marseille","lat":43.319268,"lon":5.400785,"is_reserved":false,"is_disabled":false,"rental_uris":{"android":"levelo://app?vid=9a30f84f-1824-4a3b-a3e5-7cf716d48de5","ios":"levelo://app?vid=9a30f84f-1824-4a3b-a3e5-7cf716d48de5"},"vehicle_type_id":"4","last_reported":1765901743,"current_range_meters":17600,"station_id":"","pricing_plan_id":"cebpf4jnsgd1na2vs0mg"},{"bike_id":"ff97be5b-ccf3-45a0-acce-fa67ef6b054e","system_id":"levelo_inurba_marseille","lat":43.313619,"lon":5.367235,"is_reserved":false,"is_disabled":false,"rental_uris":{"android":"levelo://app?vid=ff97be5b-ccf3-45a0-acce-fa67ef6b054e","ios":"levelo://app?vid=ff97be5b-ccf3-45a0-acce-fa67ef6b054e"},"vehicle_type_id":"4","last_reported":1765901743,"current_range_meters":17600,"station_id":"ce4bgr92rcd13ifvqc6g","pricing_plan_id":"cebpf4jnsgd1na2vs0mg"},{"bike_id":"53bfbf4d-ba22-41ef-b3bd-9da5262ace56","system_id":"levelo_inurba_marseille","lat":43.31552,"lon":5.38803,"is_reserved":false,"is_disabled":false,"rental_uris":{"android":"levelo://app?vid=53bfbf4d-ba22-41ef-b3bd-9da5262ace56","ios":"levelo://app?vid=53bfbf4d-ba22-41ef-b3bd-9da5262ace56"},"vehicle_type_id":"4","last_reported":1765901743,"current_range_meters":17600,"station_id":"ce4bgt12rcd13ifvqce0","pricing_plan_id":"cebpf4jnsgd1na2vs0mg"},{"bike_id":"e5c411c4-9a93-4a12-a87d-e0cdbc4a1934","system_id":"levelo_inurba_marseille","lat":43.299058,"lon":5.381545,"is_reserved":false,"is_disabled":false,"rental_uris":{"android":"levelo://app?vid=e5c411c4-9a93-4a12-a87d-e0cdbc4a1934","ios":"levelo://app?vid=e5c411c4-9a93-4a12-a87d-e0cdbc4a1934"},