{"last_updated":1745521687,"ttl":60,"version":"2.2","data":{"bikes":[{"bike_id":"b4ae5a18-2d10-43af-b7c3-7357e5ba59dc","system_id":"levelo_inurba_marseille","lat":43.27914,"lon":5.3958,"is_reserved":false,"is_disabled":false,"rental_uris":{"android":"levelo://app?vid=b4ae5a18-2d10-43af-b7c3-7357e5ba59dc","ios":"levelo://app?vid=b4ae5a18-2d10-43af-b7c3-7357e5ba59dc"},"vehicle_type_id":"4","last_reported":1745521687,"current_range_meters":2800,"station_id":"ce4bhf92rcd13ifvqf40","pricing_plan_id":"cebpf4jnsgd1na2vs0mg"},{"bike_id":"ffed8bbe-0db0-43d7-91bb-4219b7baf723","system_id":"levelo_inurba_marseille","lat":43.2963,"lon":5.40597,"is_reserved":false,"is_disabled":false,"rental_uris":{"android":"levelo://app?vid=ffed8bbe-0db0-43d7-91bb-4219b7baf723","ios":"levelo://app?vid=ffed8bbe-0db0-43d7-91bb-4219b7baf723"},"vehicle_type_id":"4","last_reported":1745521687,"current_range_meters":2800,"station_id":"ce4bh0h2rcd13ifvqd60","pricing_plan_id":"cebpf4jnsgd1na2vs0mg"},{"bike_id":"58505d49-d48c-48cb-9d31-76479a15b4de","system_id":"levelo_inurba_marseille","lat":43.3304,"lon":5.39007,"is_reserved":false,"is_disabled":false,"rental_uris":{"android":"levelo://app?vid=58505d49-d48c-48cb-9d31-76479a15b4de","ios":"levelo://app?vid=58505d49-d48c-48cb-9d31-76479a15b4de"},"vehicle_type_id":"4","last_reported":1745521687,"current_range_meters":2800,"station_id":"ce4bhr92rcd13ifvqhrg","pricing_plan_id":"cebpf4jnsgd1na2vs0mg"},{"bike_id":"09323989-f475-4e8a-8880-fa5fd8aa4c6c","system_id":"levelo_inurba_marseille","lat":43.25626,"lon":5.38737,"is_reserved":false,"is_disabled":false,"rental_uris":{"android":"levelo://app?vid=09323989-f475-4e8a-8880-fa5fd8aa4c6c","ios":"levelo://app?vid=09323989-f475-4e8a-8880-fa5fd8aa4c6c"},"vehicle_type_id":"4","last_reported":1745521687,"current_range_meters":2800,"station_id":"","pricing_plan_id":"cebpf4jnsgd1na2vs0mg"},{"bike_id":"b0cb5382-61c1-420b-b134-9151b6761228","system_id":"levelo_inurba_marseille","lat":43.31527,"lon":5.38048,"is_reserved":false,"is_disabled":false,"rental_uris":{"android":"levelo://app?vid=b0cb5382-61c1-420b-b134-9151b6761228","ios":"levelo://app?vid=b0cb5382-61c1-420b-b134-9151b6761228"},"vehicle_type_id":"4","last_reported":1745521687,"current_range_meters":2800,"station_id":"ce4bhsp2rcd13ifvqi50","pricing_plan_id":"cebpf4jnsgd1na2vs0mg"},{"bike_id":"7a07a14c-dc58-4728-bdc3-1aac5596dba1","system_id":"levelo_inurba_marseille","lat":43.34643,"lon":5.34817,"is_reserved":false,"is_disabled":false,"rental_uris":{"android":"levelo://app?vid=7a07a14c-dc58-4728-bdc3-1aac5596dba1","ios":"levelo://app?vid=7a07a14c-dc58-4728-bdc3-1aac5596dba1"},"vehicle_type_id":"4","last_reported":1745521687,"current_range_meters":3200,"station_id":"","pricing_plan_id":"cebpf4jnsgd1na2vs0mg"},{"bike_id":"a67d9646-0c6a-4394-9eb7-b5920abc6ef3","system_id":"levelo_inurba_marseille","lat":43.31475,"lon":5.3731,"is_reserved":false,"is_disabled":false,"rental_uris":{"android":"levelo://app?vid=a67d9646-0c6a-4394-9eb7-b5920abc6ef3","ios":"levelo://app?vid=a67d9646-0c6a-4394-9eb7-b5920abc6ef3"},"vehicle_type_id":"4","last_reported":1745521687,"current_range_meters":3200,"station_id":"ce4bgt12rcd13ifvqcd0","pricing_plan_id":"cebpf4jnsgd1na2vs0mg"},{"bike_id":"c02b0652-d5fe-4e13-bdcc-0f0df102d387","system_id":"levelo_inurba_marseille","lat":43.29275,"lon":5.36848,"is_reserved":false,"is_disabled":false,"rental_uris":{"android":"levelo://app?vid=c02b0652-d5fe-4e13-bdcc-0f0df102d387","ios":"levelo://app?vid=c02b0652-d5fe-4e13-bdcc-0f0df102d387"},"vehicle_type_id":"4","last_reported":1745521687,"current_range_meters":3200,"station_id":"ce4bhbp2rcd13ifvqesg","pricing_plan_id":"cebpf4jnsgd1na2vs0mg"},{"bike_id":"491868e1-666a-4b70-a59f-9309fc245a76","system_id":"levelo_inurba_marseille","lat":43.33019,"lon":5.39033,"is_reserved":false,"is_disabled":false,"rental_uris":{"android":"levelo://app?vid=491868e1-666a-4b70-a59f-9309fc245a76","ios":"levelo://app?vid=491868e1-666a-4b70-a59f-9309fc245a76"},"vehicle_type_id":"4","last_reported":1745521687,"current_range_meters":3200,"station_id":"ce4bhr92rcd13ifvqhrg","pricing_plan_id":"cebpf4jnsgd1na2vs0mg"},{"bike_id":"70124f4f-2a28-484c-81d8-066128087068","system_id":"levelo_inurba_marseille","lat":43.292304,"lon":5.360611,"is_reserved":false,"is_disabled":false,"rental_uris":{"android":"levelo://app?vid=70124f4f-2a28-484c-81d8-066128087068","ios":"levelo://app?vid=70124f4f-2a28-484c-81d8-066128087068"},"vehicle_type_id":"4","last_reported":1745521687,"current_range_meters":3200,"station_id":"ce4bhbh2rcd13ifvqeqg","pricing_plan_id":"cebpf4jnsgd1na2vs0mg"},{"bike_id":"63509bf7-b2e6-4e80-8cbf-8b30fb83987d","system_id":"levelo_inurba_marseille","lat":43.28683,"lon":5.38659,"is_reserved":false,"is_disabled":false,"rental_uris":{"android":"levelo://app?vid=63509bf7-b2e6-4e80-8cbf-8b30fb83987d","ios":"levelo://app?vid=63509bf7-b2e6-4e80-8cbf-8b30fb83987d"},"vehicle_type_id":"4","last_reported":1745521687,"current_range_meters":2800,"station_id":"ce4bh492rcd13ifvqdug","pricing_plan_id":"cebpf4jnsgd1na2vs0mg"},{"bike_id":"1b007faa-283e-4e51-8b44-f1cf0b8f4a46","system_id":"levelo_inurba_marseille","lat":43.27986,"lon":5.4166,"is_reserved":false,"is_disabled":true,"rental_uris":{"android":"levelo://app?vid=1b007faa-283e-4e51-8b44-f1cf0b8f4a46","ios":"levelo://app?vid=1b007faa-283e-4e51-8b44-f1cf0b8f4a46"},"vehicle_type_id":"4","last_reported":1745521687,"current_range_meters":3600,"station_id":"ce4bho12rcd13ifvqh1g","pricing_plan_id":"cebpf4jnsgd1na2vs0mg"},{"bike_id":"fa1f77d9-b11a-4f52-a316-bc742dfcb2a0","system_id":"levelo_inurba_marseille","lat":43.29922,"lon":5.37465,"is_reserved":false,"is_disabled":false,"rental_uris":{"android":"levelo://app?vid=fa1f77d9-b11a-4f52-a316-bc742dfcb2a0","ios":"levelo://app?vid=fa1f77d9-b11a-4f52-a316-bc742dfcb2a0"},"vehicle_type_id":"4","last_reported":1745521687,"current_range_meters":3600,"station_id":"ce4bgjh2rcd13ifvqbg0","pricing_plan_id":"cebpf4jnsgd1na2vs0mg"},{"bike_id":"ed5e2e18-64d0-491a-970a-f052a5fea769","system_id":"levelo_inurba_marseille","lat":43.23189,"lon":5.3998,"is_reserved":false,"is_disabled":true,"rental_uris":{"android":"levelo://app?vid=ed5e2e18-64d0-491a-970a-f052a5fea769","ios":"levelo://app?vid=ed5e2e18-64d0-491a-970a-f052a5fea769"},"vehicle_type_id":"4","last_reported":1745521687,"current_range_meters":3600,"station_id":"ce4bhn12rcd13ifvqgqg","pricing_plan_id":"cebpf4jnsgd1na2vs0mg"},{"bike_id":"2e6b033e-c76e-4383-9190-86116363602b","system_id":"levelo_inurba_marseille","lat":43.29261,"lon":5.38429,"is_reserved":false,"is_disabled":false,"rental_uris":{"android":"levelo://app?vid=2e6b033e-c76e-4383-9190-86116363602b","ios":"levelo://app?vid=2e6b033e-c76e-4383-9190-86116363602b"},"vehicle_type_id":"4","last_reported":1745521687,"current_range_meters":3600,"station_id":"ce4bh692rcd13ifvqea0","pricing_plan_id":"cebpf4jnsgd1na2vs0mg"},{"bike_id":"b83e2bcf-8982-431d-99d1-526c4ee73d0a","system_id":"levelo_inurba_marseille","lat":43.26792,"lon":5.39406,"is_reserved":false,"is_disabled":false,"rental_uris":{"android":"levelo://app?vid=b83e2bcf-8982-431d-99d1-526c4ee73d0a","ios":"levelo://app?vid=b83e2bcf-8982-431d-99d1-526c4ee73d0a"},"vehicle_type_id":"4","last_reported":1745521687,"current_range_meters":3600,"station_id":"ce4bhh12rcd13ifvqfg0","pricing_plan_id":"cebpf4jnsgd1na2vs0mg"},{"bike_id":"88e2dd5f-f949-4516-91ed-5a6fdf0bad0b","system_id":"levelo_inurba_marseille","lat":43.2586,"lon":5.399,"is_reserved":false,"is_disabled":false,"rental_uris":{"android":"levelo://app?vid=88e2dd5f-f949-4516-91ed-5a6fdf0bad0b","ios":"levelo://app?vid=88e2dd5f-f949-4516-91ed-5a6fdf0bad0b"},"vehicle_type_id":"4","last_reported":1745521687,"current_range_meters":4000,"station_id":"ce4bhl92rcd13ifvqghg","pricing_plan_id":"cebpf4jnsgd1na2vs0mg"},{"bike_id":"165a2e7b-524b-4f49-922b-d62c88968ec2","system_id":"levelo_inurba_marseille","lat":43.28348,"lon":5.3811,"is_reserved":false,"is_disabled":false,"rental_uris":{"android":"levelo://app?vid=165a2e7b-524b-4f49-922b-d62c88968ec2","ios":"levelo://app?vid=165a2e7b-524b-4f49-922b-d62c88968ec2"},"vehicle_type_id":"4","last_reported":1745521687,"current_range_meters":3600,"station_id":"ce4bh412rcd13ifvqdr0","pricing_plan_id":"cebpf4jnsgd1na2vs0mg"},{"bike_id":"e2b92b7d-02cd-4211-9d7a-d3f074564c86","system_id":"levelo_inurba_marseille","lat":43.28939,"lon":5.3663,"is_reserved":false,"is_disabled":false,"rental_uris":{"android":"levelo://app?vid=e2b92b7d-02cd-4211-9d7a-d3f074564c86","ios":"levelo://app?vid=e2b92b7d-02cd-4211-9d7a-d3f074564c86"},"vehicle_type_id":"4","last_reported":1745521687,"current_range_meters":4000,"station_id":"ce4bhap2rcd13ifvqek0","pricing_plan_id":"cebpf4jnsgd1na2vs0mg"},{"bike_id":"bf83bf72-0b71-49f2-b840-06b54bd3a946","system_id":"levelo_inurba_marseille","lat":43.27995,"lon":5.40003,"is_reserved":false,"is_disabled":false,"rental_uris":{"android":"levelo://app?vid=bf83bf72-0b71-49f2-b840-06b54bd3a946","ios":"levelo://app?vid=bf83bf72-0b71-49f2-b840-06b54bd3a946"},"vehicle_type_id":"4","last_reported":1745521687,"current_range_meters":4000,"station_id":"ce4bho92rcd13ifvqh4g","pricing_plan_id":"cebpf4jnsgd1na2vs0mg"},{"bike_id":"1b05add6-7f74-4aee-8a1a-4eca16370cb7","system_id":"levelo_inurba_marseille","lat":43.28152,"lon":5.42626,"is_reserved":false,"is_disabled":false,"rental_uris":{"android":"levelo://app?vid=1b05add6-7f74-4aee-8a1a-4eca16370cb7","ios":"levelo://app?vid=1b05add6-7f74-4aee-8a1a-4eca16370cb7"},"vehicle_type_id":"4","last_reported":1745521687,"current_range_meters":4000,"station_id":"ce4bhnh2rcd13ifvqgug","pricing_plan_id":"cebpf4jnsgd1na2vs0mg"},{"bike_id":"b940bdf2-742d-48e4-9490-5ec9e6e9c7a7","system_id":"levelo_inurba_marseille","lat":43.3032,"lon":5.36507,"is_reserved":false,"is_disabled":false,"rental_uris":{"android":"levelo://app?vid=b940bdf2-742d-48e4-9490-5ec9e6e9c7a7","ios":"levelo://app?vid=b940bdf2-742d-48e4-9490-5ec9e6e9c7a7"},"vehicle_type_id":"4","last_reported":1745521687,"current_range_meters":4000,"station_id":"","pricing_plan_id":"cebpf4jnsgd1na2vs0mg"},{"bike_id":"2853adf5-396e-4889-bd78-426fecbaceaf","system_id":"levelo_inurba_marseille","lat":43.29793,"lon":5.381,"is_reserved":false,"is_disabled":false,"rental_uris":{"android":"levelo://app?vid=2853adf5-396e-4889-bd78-426fecbaceaf","ios":"levelo://app?vid=2853adf5-396e-4889-bd78-426fecbaceaf"},"vehicle_type_id":"4","last_reported":1745521687,"current_range_meters":4400,"station_id":"ce4bgip2rcd13ifvqbb0","pricing_plan_id":"cebpf4jnsgd1na2vs0mg"},{"bike_id":"10cb18ca-4cf4-45ca-9db3-742bc615e786","system_id":"levelo_inurba_marseille","lat":43.23614,"lon":5.39166,"is_reserved":false,"is_disabled":false,"rental_uris":{"android":"levelo://app?vid=10cb18ca-4cf4-45ca-9db3-742bc615e786","ios":"levelo://app?vid=10cb18ca-4cf4-45ca-9db3-742bc615e786"},"vehicle_type_id":"4","last_reported":1745521687,"current_range_meters":4400,"station_id":"","pricing_plan_id":"cebpf4jnsgd1na2vs0mg"},{"bike_id":"bc3c2610-0ae1-43a5-befb-877be8d431a8","system_id":"levelo_inurba_marseille","lat":43.28578,"lon":5.39497,"is_reserved":false,"is_disabled":false,"rental_uris":{"android":"levelo://app?vid=bc3c2610-0ae1-43a5-befb-877be8d431a8","ios":"levelo://app?vid=bc3c2610-0ae1-43a5-befb-877be8d431a8"},"vehicle_type_id":"4","last_reported":1745521687,"current_range_meters":4400,"station_id":"ce4bh292rcd13ifvqdg0","pricing_plan_id":"cebpf4jnsgd1na2vs0mg"},{"bike_id":"3b4be8f4-5dd8-4ec5-85b9-df43d095b0f3","system_id":"levelo_inurba_marseille","lat":43.286125,"lon":5.37066,"is_reserved":false,"is_disabled":false,"rental_uris":{"android":"levelo://app?vid=3b4be8f4-5dd8-4ec5-85b9-df43d095b0f3","ios":"levelo://app?vid=3b4be8f4-5dd8-4ec5-85b9-df43d095b0f3"},"vehicle_type_id":"4","last_reported":1745521687,"current_range_meters":4800,"station_id":"ce4bgh92rcd13ifvqb50","pricing_plan_id":"cebpf4jnsgd1na2vs0mg"},{"bike_id":"47c8dcb1-fe2b-490b-b43f-7db17f10724d","system_id":"levelo_inurba_marseille","lat":43.24651,"lon":5.38889,"is_reserved":false,"is_disabled":false,"rental_uris":{"android":"levelo://app?vid=47c8dcb1-fe2b-490b-b43f-7db17f10724d","ios":"levelo://app?vid=47c8dcb1-fe2b-490b-b43f-7db17f10724d"},"vehicle_type_id":"4","last_reported":1745521687,"current_range_meters":4800,"station_id":"ce4bhg12rcd13ifvqf60","pricing_plan_id":"cebpf4jnsgd1na2vs0mg"},{"bike_id":"4b2e7729-6c82-45bc-8fe9-3d93ab38b5a5","system_id":"levelo_inurba_marseille","lat":43.23178,"lon":5.39991,"is_reserved":false,"is_disabled":false,"rental_uris":{"android":"levelo://app?vid=4b2e7729-6c82-45bc-8fe9-3d93ab38b5a5","ios":"levelo://app?vid=4b2e7729-6c82-45bc-8fe9-3d93ab38b5a5"},"vehicle_type_id":"4","last_reported":1745521687,"current_range_meters":4800,"station_id":"ce4bhn12rcd13ifvqgqg","pricing_plan_id":"cebpf4jnsgd1na2vs0mg"},{"bike_id":"a361f452-0654-4a95-a15d-8f5834af8a8f","system_id":"levelo_inurba_marseille","lat":43.29035,"lon":5.37562,"is_reserved":false,"is_disabled":false,"rental_uris":{"android":"levelo://app?vid=a361f452-0654-4a95-a15d-8f5834af8a8f","ios":"levelo://app?vid=a361f452-0654-4a95-a15d-8f5834af8a8f"},"vehicle_type_id":"4","last_reported":1745521687,"current_range_meters":4800,"station_id":"ce4bh692rcd13ifvqe90","pricing_plan_id":"cebpf4jnsgd1na2vs0mg"},{"bike_id":"420b1f22-d812-4e41-96df-ee2005337f78","system_id":"levelo_inurba_marseille","lat":43.29032,"lon":5.37568,"is_reserved":false,"is_disabled":false,"rental_uris":{"android":"levelo://app?vid=420b1f22-d812-4e41-96df-ee2005337f78","ios":"levelo://app?vid=420b1f22-d812-4e41-96df-ee2005337f78"},"vehicle_type_id":"4","last_reported":1745521687,"current_range_meters":4800,"station_id":"ce4bh692rcd13ifvqe90","pricing_plan_id":"cebpf4jnsgd1na2vs0mg"},{"bike_id":"0b7ecf95-53b2-486e-a8e3-7a228d1e05af","system_id":"levelo_inurba_marseille","lat":43.30096,"lon":5.39085,"is_reserved":false,"is_disabled":false,"rental_uris":{"android":"levelo://app?vid=0b7ecf95-53b2-486e-a8e3-7a228d1e05af","ios":"levelo://app?vid=0b7ecf95-53b2-486e-a8e3-7a228d1e05af"},"vehicle_type_id":"4","last_reported":1745521687,"current_range_meters":4800,"station_id":"ce4bh192rcd13ifvqdb0","pricing_plan_id":"cebpf4jnsgd1na2vs0mg"},{"bike_id":"b91788d1-e4da-4777-b863-52bc4d4ee471","system_id":"levelo_inurba_marseille","lat":43.2809,"lon":5.37841,"is_reserved":false,"is_disabled":false,"rental_uris":{"android":"levelo://app?vid=b91788d1-e4da-4777-b863-52bc4d4ee471","ios":"levelo://app?vid=b91788d1-e4da-4777-b863-52bc4d4ee471"},"vehicle_type_id":"4","last_reported":1745521687,"current_range_meters":4800,"station_id":"ce4bha12rcd13ifvqee0","pricing_plan_id":"cebpf4jnsgd1na2vs0mg"},{"bike_id":"c80b4906-338a-43d0-8b2c-1767d2950c18","system_id":"levelo_inurba_marseille","lat":43.24162,"lon":5.39705,"is_reserved":false,"is_disabled":false,"rental_uris":{"android":"levelo://app?vid=c80b4906-338a-43d0-8b2c-1767d2950c18","ios":"levelo://app?vid=c80b4906-338a-43d0-8b2c-1767d2950c18"},"vehicle_type_id":"4","last_reported":1745521687,"current_range_meters":4800,"station_id":"ce4bhn12rcd13ifvqgpg","pricing_plan_id":"cebpf4jnsgd1na2vs0mg"},{"bike_id":"5b2ab53b-4abe-46b9-ac2a-36d1233fdded","system_id":"levelo_inurba_marseille","lat":43.30786,"lon":5.36845,"is_reserved":false,"is_disabled":false,"rental_uris":{"android":"levelo://app?vid=5b2ab53b-4abe-46b9-ac2a-36d1233fdded","ios":"levelo://app?vid=5b2ab53b-4abe-46b9-ac2a-36d1233fdded"},"vehicle_type_id":"4","last_reported":1745521687,"current_range_meters":4800,"station_id":"","pricing_plan_id":"cebpf4jnsgd1na2vs0mg"},{"bike_id":"0cbaf19c-9c21-46ab-899f-dfcc12db4988","system_id":"levelo_inurba_marseille","lat":43.23175,"lon":5.40007,"is_reserved":false,"is_disabled":false,"rental_uris":{"android":"levelo://app?vid=0cbaf19c-9c21-46ab-899f-dfcc12db4988","ios":"levelo://app?vid=0cbaf19c-9c21-46ab-899f-dfcc12db4988"},"vehicle_type_id":"4","last_reported":1745521687,"current_range_meters":4800,"station_id":"ce4bhn12rcd13ifvqgqg","pricing_plan_id":"cebpf4jnsgd1na2vs0mg"},{"bike_id":"d28bdf39-08e9-4286-b478-fced1227a80e","system_id":"levelo_inurba_marseille","lat":43.24663,"lon":5.38164,"is_reserved":false,"is_disabled":false,"rental_uris":{"android":"levelo://app?vid=d28bdf39-08e9-4286-b478-fced1227a80e","ios":"levelo://app?vid=d28bdf39-08e9-4286-b478-fced1227a80e"},"vehicle_type_id":"4","last_reported":1745521687,"current_range_meters":5600,"station_id":"ce4bhih2rcd13ifvqfr0","pricing_plan_id":"cebpf4jnsgd1na2vs0mg"},{"bike_id":"32d58969-4202-48d0-8cf5-6ae433a9ee32","system_id":"levelo_inurba_marseille","lat":43.28609,"lon":5.37069,"is_reserved":false,"is_disabled":false,"rental_uris":{"android":"levelo://app?vid=32d58969-4202-48d0-8cf5-6ae433a9ee32","ios":"levelo://app?vid=32d58969-4202-48d0-8cf5-6ae433a9ee32"},"vehicle_type_id":"4","last_reported":1745521687,"current_range_meters":5600,"station_id":"ce4bht12rcd13ifvqi60","pricing_plan_id":"cebpf4jnsgd1na2vs0mg"},{"bike_id":"34ff956f-1902-4451-ad8b-2a211ef3ece5","system_id":"levelo_inurba_marseille","lat":43.292206,"lon":5.3605,"is_reserved":false,"is_disabled":false,"rental_uris":{"android":"levelo://app?vid=34ff956f-1902-4451-ad8b-2a211ef3ece5","ios":"levelo://app?vid=34ff956f-1902-4451-ad8b-2a211ef3ece5"},"vehicle_type_id":"4","last_reported":1745521687,"current_range_meters":5600,"station_id":"ce4bhbh2rcd13ifvqeqg","pricing_plan_id":"cebpf4jnsgd1na2vs0mg"},{"bike_id":"60fa5e61-716d-4a0e-86c7-f3827442bf9f","system_id":"levelo_inurba_marseille","lat":43.29275,"lon":5.36845,"is_reserved":false,"is_disabled":false,"rental_uris":{"android":"levelo://app?vid=60fa5e61-716d-4a0e-86c7-f3827442bf9f","ios":"levelo://app?vid=60fa5e61-716d-4a0e-86c7-f3827442bf9f"},"vehicle_type_id":"4","last_reported":1745521687,"current_range_meters":5600,"station_id":"ce4bhbp2rcd13ifvqesg","pricing_plan_id":"cebpf4jnsgd1na2vs0mg"},{"bike_id":"beea5fb5-4c00-43e9-9e0a-1c15f2902092","system_id":"levelo_inurba_marseille","lat":43.28702,"lon":5.39991,"is_reserved":false,"is_disabled":false,"rental_uris":{"android":"levelo://app?vid=beea5fb5-4c00-43e9-9e0a-1c15f2902092","ios":"levelo://app?vid=beea5fb5-4c00-43e9-9e0a-1c15f2902092"},"vehicle_type_id":"4","last_reported":1745521687,"current_range_meters":6400,"station_id":"ce4bho92rcd13ifvqh3g","pricing_plan_id":"cebpf4jnsgd1na2vs0mg"},{"bike_id":"fc44c487-89a3-4fbf-9968-14d9262aa838","system_id":"levelo_inurba_marseille","lat":43.29302,"lon":5.37453,"is_reserved":false,"is_disabled":false,"rental_uris":{"android":"levelo://app?vid=fc44c487-89a3-4fbf-9968-14d9262aa838","ios":"levelo://app?vid=fc44c487-89a3-4fbf-9968-14d9262aa838"},"vehicle_type_id":"4","last_reported":1745521687,"current_range_meters":6000,"station_id":"ce4bgi12rcd13ifvqb70","pricing_plan_id":"cebpf4jnsgd1na2vs0mg"},{"bike_id":"a7548d97-e550-4cf8-9865-ba8fcac07d52","system_id":"levelo_inurba_marseille","lat":43.29026,"lon":5.37563,"is_reserved":false,"is_disabled":false,"rental_uris":{"android":"levelo://app?vid=a7548d97-e550-4cf8-9865-ba8fcac07d52","ios":"levelo://app?vid=a7548d97-e550-4cf8-9865-ba8fcac07d52"},"vehicle_type_id":"4","last_reported":1745521687,"current_range_meters":6000,"station_id":"ce4bh692rcd13ifvqe90","pricing_plan_id":"cebpf4jnsgd1na2vs0mg"},{"bike_id":"da70d61b-208e-4f5a-8136-fdac79841f35","system_id":"levelo_inurba_marseille","lat":43.28047,"lon":5.36964,"is_reserved":false,"is_disabled":false,"rental_uris":{"android":"levelo://app?vid=da70d61b-208e-4f5a-8136-fdac79841f35","ios":"levelo://app?vid=da70d61b-208e-4f5a-8136-fdac79841f35"},"vehicle_type_id":"4","last_reported":1745521687,"current_range_meters":6000,"station_id":"ce4bha12rcd13ifvqef0","pricing_plan_id":"cebpf4jnsgd1na2vs0mg"},{"bike_id":"bae48c71-a1ce-4ae6-abdc-6c847aa5a229","system_id":"levelo_inurba_marseille","lat":43.274091,"lon":5.390241,"is_reserved":false,"is_disabled":false,"rental_uris":{"android":"levelo://app?vid=bae48c71-a1ce-4ae6-abdc-6c847aa5a229","ios":"levelo://app?vid=bae48c71-a1ce-4ae6-abdc-6c847aa5a229"},"vehicle_type_id":"4","last_reported":1745521687,"current_range_meters":6000,"station_id":"ce4bhbp2rcd13ifvqesg","pricing_plan_id":"cebpf4jnsgd1na2vs0mg"},{"bike_id":"fe39c9f1-115b-4842-833d-51744c558773","system_id":"levelo_inurba_marseille","lat":43.28469,"lon":5.38428,"is_reserved":false,"is_disabled":true,"rental_uris":{"android":"levelo://app?vid=fe39c9f1-115b-4842-833d-51744c558773","ios":"levelo://app?vid=fe39c9f1-115b-4842-833d-51744c558773"},"vehicle_type_id":"4","last_reported":1745521687,"current_range_meters":6000,"station_id":"ce4bh512rcd13ifvqe3g","pricing_plan_id":"cebpf4jnsgd1na2vs0mg"},{"bike_id":"eab4be93-9b7f-4edd-a940-dd7bbd677ca0","system_id":"levelo_inurba_marseille","lat":43.30093,"lon":5.39077,"is_reserved":false,"is_disabled":true,"rental_uris":{"android":"levelo://app?vid=eab4be93-9b7f-4edd-a940-dd7bbd677ca0","ios":"levelo://app?vid=eab4be93-9b7f-4edd-a940-dd7bbd677ca0"},"vehicle_type_id":"4","last_reported":1745521687,"current_range_meters":6000,"station_id":"ce4bh192rcd13ifvqdb0","pricing_plan_id":"cebpf4jnsgd1na2vs0mg"},{"bike_id":"fa072638-79d4-42b6-a779-d7bc984e3de1","system_id":"levelo_inurba_marseille","lat":43.23192,"lon":5.39985,"is_reserved":false,"is_disabled":false,"rental_uris":{"android":"levelo://app?vid=fa072638-79d4-42b6-a779-d7bc984e3de1","ios":"levelo://app?vid=fa072638-79d4-42b6-a779-d7bc984e3de1"},"vehicle_type_id":"4","last_reported":1745521687,"current_range_meters":6000,"station_id":"ce4bhn12rcd13ifvqgqg","pricing_plan_id":"cebpf4jnsgd1na2vs0mg"},{"bike_id":"7a9c256d-d8a1-4b98-9f20-61b77ed8ab80","system_id":"levelo_inurba_marseille","lat":43.30635,"lon":5.4009,"is_reserved":false,"is_disabled":false,"rental_uris":{"android":"levelo://app?vid=7a9c256d-d8a1-4b98-9f20-61b77ed8ab80","ios":"levelo://app?vid=7a9c256d-d8a1-4b98-9f20-61b77ed8ab80"},"vehicle_type_id":"4","last_reported":1745521687,"current_range_meters":6400,"station_id":"ce4bh112rcd13ifvqda0","pricing_plan_id":"cebpf4jnsgd1na2vs0mg"},{"bike_id":"5b16eb17-ed57-4a23-aac2-2c155ee976fc","system_id":"levelo_inurba_marseille","lat":43.22926,"lon":5.35374,"is_reserved":false,"is_disabled":false,"rental_uris":{"android":"levelo://app?vid=5b16eb17-ed57-4a23-aac2-2c155ee976fc","ios":"levelo://app?vid=5b16eb17-ed57-4a23-aac2-2c155ee976fc"},"vehicle_type_id":"4","last_reported":1745521687,"current_range_meters":6000,"station_id":"cpo3532slgdg3j2ikp40","pricing_plan_id":"cebpf4jnsgd1na2vs0mg"},{"bike_id":"db863fb7-bc2a-45d6-9ce5-fba5758730cb","system_id":"levelo_inurba_marseille","lat":43.29526,"lon":5.38543,"is_reserved":false,"is_disabled":false,"rental_uris":{"android":"levelo://app?vid=db863fb7-bc2a-45d6-9ce5-fba5758730cb","ios":"levelo://app?vid=db863fb7-bc2a-45d6-9ce5-fba5758730cb"},"vehicle_type_id":"4","last_reported":1745521687,"current_range_meters":6000,"station_id":"ce4bgih2rcd13ifvqba0","pricing_plan_id":"cebpf4jnsgd1na2vs0mg"},{"bike_id":"7af7c645-f221-4dd6-b56e-e2c38d4bb22f","system_id":"levelo_inurba_marseille","lat":43.24801,"lon":5.37455,"is_reserved":false,"is_disabled":false,"rental_uris":{"android":"levelo://app?vid=7af7c645-f221-4dd6-b56e-e2c38d4bb22f","ios":"levelo://app?vid=7af7c645-f221-4dd6-b56e-e2c38d4bb22f"},"vehicle_type_id":"4","last_reported":1745521687,"current_range_meters":5600,"station_id":"ce4bhgh2rcd13ifvqfb0","pricing_plan_id":"cebpf4jnsgd1na2vs0mg"},{"bike_id":"8b4bac15-47d4-4b48-89ad-d28a545e842f","system_id":"levelo_inurba_marseille","lat":43.2293,"lon":5.35378,"is_reserved":false,"is_disabled":false,"rental_uris":{"android":"levelo://app?vid=8b4bac15-47d4-4b48-89ad-d28a545e842f","ios":"levelo://app?vid=8b4bac15-47d4-4b48-89ad-d28a545e842f"},"vehicle_type_id":"4","last_reported":1745521687,"current_range_meters":6000,"station_id":"cpo3532slgdg3j2ikp40","pricing_plan_id":"cebpf4jnsgd1na2vs0mg"},{"bike_id":"396e9323-a31d-4a80-9667-f2aa01ef000a","system_id":"levelo_inurba_marseille","lat":43.29518,"lon":5.38526,"is_reserved":false,"is_disabled":false,"rental_uris":{"android":"levelo://app?vid=396e9323-a31d-4a80-9667-f2aa01ef000a","ios":"levelo://app?vid=396e9323-a31d-4a80-9667-f2aa01ef000a"},"vehicle_type_id":"4","last_reported":1745521687,"current_range_meters":6000,"station_id":"ce4bgih2rcd13ifvqba0","pricing_plan_id":"cebpf4jnsgd1na2vs0mg"},{"bike_id":"ba98092f-1f95-4d1b-8c2e-943fbb808d72","system_id":"levelo_inurba_marseille","lat":43.24176,"lon":5.39729,"is_reserved":false,"is_disabled":false,"rental_uris":{"android":"levelo://app?vid=ba98092f-1f95-4d1b-8c2e-943fbb808d72","ios":"levelo://app?vid=ba98092f-1f95-4d1b-8c2e-943fbb808d72"},"vehicle_type_id":"4","last_reported":1745521687,"current_range_meters":6000,"station_id":"ce4bhn12rcd13ifvqgpg","pricing_plan_id":"cebpf4jnsgd1na2vs0mg"},{"bike_id":"fc4a70e4-89c2-4036-a4a9-81b3d76ed252","system_id":"levelo_inurba_marseille","lat":43.287172,"lon":5.379366,"is_reserved":false,"is_disabled":false,"rental_uris":{"android":"levelo://app?vid=fc4a70e4-89c2-4036-a4a9-81b3d76ed252","ios":"levelo://app?vid=fc4a70e4-89c2-4036-a4a9-81b3d76ed252"},"vehicle_type_id":"4","last_reported":1745521687,"current_range_meters":1600,"station_id":"ce4bhb92rcd13ifvqen0","pricing_plan_id":"cebpf4jnsgd1na2vs0mg"},{"bike_id":"82a6abf5-bc36-4769-b161-a65575797a65","system_id":"levelo_inurba_marseille","lat":43.29261,"lon":5.38433,"is_reserved":false,"is_disabled":false,"rental_uris":{"android":"levelo://app?vid=82a6abf5-bc36-4769-b161-a65575797a65","ios":"levelo://app?vid=82a6abf5-bc36-4769-b161-a65575797a65"},"vehicle_type_id":"4","last_reported":1745521687,"current_range_meters":6400,"station_id":"ce4bh692rcd13ifvqea0","pricing_plan_id":"cebpf4jnsgd1na2vs0mg"},{"bike_id":"1fb80fd4-cb2f-4118-99ad-95cc3caf4c4b","system_id":"levelo_inurba_marseille","lat":43.292752,"lon":5.378746,"is_reserved":false,"is_disabled":false,"rental_uris":{"android":"levelo://app?vid=1fb80fd4-cb2f-4118-99ad-95cc3caf4c4b","ios":"levelo://app?vid=1fb80fd4-cb2f-4118-99ad-95cc3caf4c4b"},"vehicle_type_id":"4","last_reported":1745521687,"current_range_meters":6400,"station_id":"ce4bgi92rcd13ifvqb90","pricing_plan_id":"cebpf4jnsgd1na2vs0mg"},{"bike_id":"5d4cf796-60e8-46d3-8e90-70b4a88b000e","system_id":"levelo_inurba_marseille","lat":43.22932,"lon":5.35376,"is_reserved":false,"is_disabled":false,"rental_uris":{"android":"levelo://app?vid=5d4cf796-60e8-46d3-8e90-70b4a88b000e","ios":"levelo://app?vid=5d4cf796-60e8-46d3-8e90-70b4a88b000e"},"vehicle_type_id":"4","last_reported":1745521687,"current_range_meters":800,"station_id":"cpo3532slgdg3j2ikp40","pricing_plan_id":"cebpf4jnsgd1na2vs0mg"},{"bike_id":"1732a4e2-6c5c-4816-9f4b-b81507a6c526","system_id":"levelo_inurba_marseille","lat":43.2957,"lon":5.37523,"is_reserved":false,"is_disabled":false,"rental_uris":{"android":"levelo://app?vid=1732a4e2-6c5c-4816-9f4b-b81507a6c526","ios":"levelo://app?vid=1732a4e2-6c5c-4816-9f4b-b81507a6c526"},"vehicle_type_id":"4","last_reported":1745521687,"current_range_meters":6400,"station_id":"ce4bgh92rcd13ifvqb50","pricing_plan_id":"cebpf4jnsgd1na2vs0mg"},{"bike_id":"36cefaa1-1f19-45be-b15c-456bc07c8c57","system_id":"levelo_inurba_marseille","lat":43.27931,"lon":5.41045,"is_reserved":false,"is_disabled":false,"rental_uris":{"android":"levelo://app?vid=36cefaa1-1f19-45be-b15c-456bc07c8c57","ios":"levelo://app?vid=36cefaa1-1f19-45be-b15c-456bc07c8c57"},"vehicle_type_id":"4","last_reported":1745521687,"current_range_meters":6400,"station_id":"ce4bhnp2rcd13ifvqh0g","pricing_plan_id":"cebpf4jnsgd1na2vs0mg"},{"bike_id":"30704823-7a9c-4b12-af5d-93db18bfd3b9","system_id":"levelo_inurba_marseille","lat":43.28806,"lon":5.39969,"is_reserved":false,"is_disabled":false,"rental_uris":{"android":"levelo://app?vid=30704823-7a9c-4b12-af5d-93db18bfd3b9","ios":"levelo://app?vid=30704823-7a9c-4b12-af5d-93db18bfd3b9"},"vehicle_type_id":"4","last_reported":1745521687,"current_range_meters":6400,"station_id":"","pricing_plan_id":"cebpf4jnsgd1na2vs0mg"},{"bike_id":"edb4f9c6-8613-44be-a20d-074dbb04e6b3","system_id":"levelo_inurba_marseille","lat":43.29594,"lon":5.3811,"is_reserved":false,"is_disabled":false,"rental_uris":{"android":"levelo://app?vid=edb4f9c6-8613-44be-a20d-074dbb04e6b3","ios":"levelo://app?vid=edb4f9c6-8613-44be-a20d-074dbb04e6b3"},"vehicle_type_id":"4","last_reported":1745521687,"current_range_meters":6800,"station_id":"ce4bgl12rcd13ifvqbo0","pricing_plan_id":"cebpf4jnsgd1na2vs0mg"},{"bike_id":"bde3dfbe-561b-4e2b-8adb-c7cdef37b3a6","system_id":"levelo_inurba_marseille","lat":43.30887,"lon":5.37199,"is_reserved":false,"is_disabled":false,"rental_uris":{"android":"levelo://app?vid=bde3dfbe-561b-4e2b-8adb-c7cdef37b3a6","ios":"levelo://app?vid=bde3dfbe-561b-4e2b-8adb-c7cdef37b3a6"},"vehicle_type_id":"4","last_reported":1745521687,"current_range_meters":6800,"station_id":"ce4bguh2rcd13ifvqckg","pricing_plan_id":"cebpf4jnsgd1na2vs0mg"},{"bike_id":"d6a6ea69-e648-4466-af0f-c847ecc56db2","system_id":"levelo_inurba_marseille","lat":43.26188,"lon":5.37464,"is_reserved":false,"is_disabled":false,"rental_uris":{"android":"levelo://app?vid=d6a6ea69-e648-4466-af0f-c847ecc56db2","ios":"levelo://app?vid=d6a6ea69-e648-4466-af0f-c847ecc56db2"},"vehicle_type_id":"4","last_reported":1745521687,"current_range_meters":6800,"station_id":"ce4bhgp2rcd13ifvqfc0","pricing_plan_id":"cebpf4jnsgd1na2vs0mg"},{"bike_id":"e0d46c87-0025-4c4b-870e-2a68eccd8d24","system_id":"levelo_inurba_marseille","lat":43.28943,"lon":5.38385,"is_reserved":false,"is_disabled":false,"rental_uris":{"android":"levelo://app?vid=e0d46c87-0025-4c4b-870e-2a68eccd8d24","ios":"levelo://app?vid=e0d46c87-0025-4c4b-870e-2a68eccd8d24"},"vehicle_type_id":"4","last_reported":1745521687,"current_range_meters":6800,"station_id":"ce4bh612rcd13ifvqe6g","pricing_plan_id":"cebpf4jnsgd1na2vs0mg"},{"bike_id":"fed3087f-a5cb-449e-a43e-200233532ee8","system_id":"levelo_inurba_marseille","lat":43.280405,"lon":5.36947,"is_reserved":false,"is_disabled":false,"rental_uris":{"android":"levelo://app?vid=fed3087f-a5cb-449e-a43e-200233532ee8","ios":"levelo://app?vid=fed3087f-a5cb-449e-a43e-200233532ee8"},"vehicle_type_id":"4","last_reported":1745521687,"current_range_meters":6800,"station_id":"ce4bha12rcd13ifvqef0","pricing_plan_id":"cebpf4jnsgd1na2vs0mg"},{"bike_id":"1553ee73-5076-4c14-8032-4657491c449c","system_id":"levelo_inurba_marseille","lat":43.27303,"lon":5.39112,"is_reserved":false,"is_disabled":false,"rental_uris":{"android":"levelo://app?vid=1553ee73-5076-4c14-8032-4657491c449c","ios":"levelo://app?vid=1553ee73-5076-4c14-8032-4657491c449c"},"vehicle_type_id":"4","last_reported":1745521687,"current_range_meters":6800,"station_id":"ce4bhgp2rcd13ifvqfe0","pricing_plan_id":"cebpf4jnsgd1na2vs0mg"},{"bike_id":"2f122471-202e-41ba-b921-f7a6e29c376d","system_id":"levelo_inurba_marseille","lat":43.30799,"lon":5.38156,"is_reserved":false,"is_disabled":false,"rental_uris":{"android":"levelo://app?vid=2f122471-202e-41ba-b921-f7a6e29c376d","ios":"levelo://app?vid=2f122471-202e-41ba-b921-f7a6e29c376d"},"vehicle_type_id":"4","last_reported":1745521687,"current_range_meters":6800,"station_id":"ce4bgt12rcd13ifvqce0","pricing_plan_id":"cebpf4jnsgd1na2vs0mg"},{"bike_id":"92c3b340-d069-4f1c-b55b-44c52f19597b","system_id":"levelo_inurba_marseille","lat":43.28264,"lon":5.37755,"is_reserved":false,"is_disabled":false,"rental_uris":{"android":"levelo://app?vid=92c3b340-d069-4f1c-b55b-44c52f19597b","ios":"levelo://app?vid=92c3b340-d069-4f1c-b55b-44c52f19597b"},"vehicle_type_id":"4","last_reported":1745521687,"current_range_meters":7200,"station_id":"","pricing_plan_id":"cebpf4jnsgd1na2vs0mg"},{"bike_id":"5ef7df64-8be3-4691-a902-c0286fa0e5ac","system_id":"levelo_inurba_marseille","lat":43.29276,"lon":5.37615,"is_reserved":false,"is_disabled":false,"rental_uris":{"android":"levelo://app?vid=5ef7df64-8be3-4691-a902-c0286fa0e5ac","ios":"levelo://app?vid=5ef7df64-8be3-4691-a902-c0286fa0e5ac"},"vehicle_type_id":"4","last_reported":1745521687,"current_range_meters":7200,"station_id":"ce4bgi12rcd13ifvqb80","pricing_plan_id":"cebpf4jnsgd1na2vs0mg"},{"bike_id":"60ee52f6-3432-4a14-b3b4-c3acf981d864","system_id":"levelo_inurba_marseille","lat":43.21756,"lon":5.34592,"is_reserved":false,"is_disabled":false,"rental_uris":{"android":"levelo://app?vid=60ee52f6-3432-4a14-b3b4-c3acf981d864","ios":"levelo://app?vid=60ee52f6-3432-4a14-b3b4-c3acf981d864"},"vehicle_type_id":"4","last_reported":1745521687,"current_range_meters":7200,"station_id":"st_cvj6r9ubvosntc0bgbag","pricing_plan_id":"cebpf4jnsgd1na2vs0mg"},{"bike_id":"3a75a896-5120-47a9-a44e-c8390bca748b","system_id":"levelo_inurba_marseille","lat":43.27823,"lon":5.40714,"is_reserved":false,"is_disabled":false,"rental_uris":{"android":"levelo://app?vid=3a75a896-5120-47a9-a44e-c8390bca748b","ios":"levelo://app?vid=3a75a896-5120-47a9-a44e-c8390bca748b"},"vehicle_type_id":"4","last_reported":1745521687,"current_range_meters":7200,"station_id":"ce4bhnh2rcd13ifvqgtg","pricing_plan_id":"cebpf4jnsgd1na2vs0mg"},{"bike_id":"17c75d3e-1f26-47e8-be26-0f9fadeb00f4","system_id":"levelo_inurba_marseille","lat":43.31072,"lon":5.38337,"is_reserved":false,"is_disabled":false,"rental_uris":{"android":"levelo://app?vid=17c75d3e-1f26-47e8-be26-0f9fadeb00f4","ios":"levelo://app?vid=17c75d3e-1f26-47e8-be26-0f9fadeb00f4"},"vehicle_type_id":"4","last_reported":1745521687,"current_range_meters":7200,"station_id":"ce4bgv92rcd13ifvqcr0","pricing_plan_id":"cebpf4jnsgd1na2vs0mg"},{"bike_id":"04de76c4-a1ad-45bf-9e28-7c78bfcbb5c0","system_id":"levelo_inurba_marseille","lat":43.25188,"lon":5.37435,"is_reserved":false,"is_disabled":false,"rental_uris":{"android":"levelo://app?vid=04de76c4-a1ad-45bf-9e28-7c78bfcbb5c0","ios":"levelo://app?vid=04de76c4-a1ad-45bf-9e28-7c78bfcbb5c0"},"vehicle_type_id":"4","last_reported":1745521687,"current_range_meters":7200,"station_id":"","pricing_plan_id":"cebpf4jnsgd1na2vs0mg"},{"bike_id":"a5c90d86-3deb-4937-a485-7f3b956a488b","system_id":"levelo_inurba_marseille","lat":43.29443,"lon":5.39738,"is_reserved":false,"is_disabled":false,"rental_uris":{"android":"levelo://app?vid=a5c90d86-3deb-4937-a485-7f3b956a488b","ios":"levelo://app?vid=a5c90d86-3deb-4937-a485-7f3b956a488b"},"vehicle_type_id":"4","last_reported":1745521687,"current_range_meters":7200,"station_id":"ce4bh3h2rcd13ifvqdo0","pricing_plan_id":"cebpf4jnsgd1na2vs0mg"},{"bike_id":"c9597539-d5cc-4961-9e86-e6da8e3c481e","system_id":"levelo_inurba_marseille","lat":43.296949,"lon":5.405893,"is_reserved":false,"is_disabled":false,"rental_uris":{"android":"levelo://app?vid=c9597539-d5cc-4961-9e86-e6da8e3c481e","ios":"levelo://app?vid=c9597539-d5cc-4961-9e86-e6da8e3c481e"},"vehicle_type_id":"4","last_reported":1745521687,"current_range_meters":7200,"station_id":"ce4bh0h2rcd13ifvqd60","pricing_plan_id":"cebpf4jnsgd1na2vs0mg"},{"bike_id":"cfb4b89f-0f07-4e66-8d5d-eecea72c556a","system_id":"levelo_inurba_marseille","lat":43.29536,"lon":5.3855,"is_reserved":false,"is_disabled":true,"rental_uris":{"android":"levelo://app?vid=cfb4b89f-0f07-4e66-8d5d-eecea72c556a","ios":"levelo://app?vid=cfb4b89f-0f07-4e66-8d5d-eecea72c556a"},"vehicle_type_id":"4","last_reported":1745521687,"current_range_meters":8000,"station_id":"ce4bgih2rcd13ifvqba0","pricing_plan_id":"cebpf4jnsgd1na2vs0mg"},{"bike_id":"12044514-e3d7-411a-98b1-2b4f73bf35f0","system_id":"levelo_inurba_marseille","lat":43.2931,"lon":5.3718,"is_reserved":false,"is_disabled":false,"rental_uris":{"android":"levelo://app?vid=12044514-e3d7-411a-98b1-2b4f73bf35f0","ios":"levelo://app?vid=12044514-e3d7-411a-98b1-2b4f73bf35f0"},"vehicle_type_id":"4","last_reported":1745521687,"current_range_meters":8000,"station_id":"ce4bgh92rcd13ifvqb40","pricing_plan_id":"cebpf4jnsgd1na2vs0mg"},{"bike_id":"29325c78-e5e1-4a1e-9181-99949328024e","system_id":"levelo_inurba_marseille","lat":43.28721,"lon":5.37932,"is_reserved":false,"is_disabled":false,"rental_uris":{"android":"levelo://app?vid=29325c78-e5e1-4a1e-9181-99949328024e","ios":"levelo://app?vid=29325c78-e5e1-4a1e-9181-99949328024e"},"vehicle_type_id":"4","last_reported":1745521687,"current_range_meters":8800,"station_id":"ce4bh9p2rcd13ifvqec0","pricing_plan_id":"cebpf4jnsgd1na2vs0mg"},{"bike_id":"8764c801-9cd2-4e78-bbfe-a229706ee676","system_id":"levelo_inurba_marseille","lat":43.29864,"lon":5.38929,"is_reserved":false,"is_disabled":true,"rental_uris":{"android":"levelo://app?vid=8764c801-9cd2-4e78-bbfe-a229706ee676","ios":"levelo://app?vid=8764c801-9cd2-4e78-bbfe-a229706ee676"},"vehicle_type_id":"4","last_reported":1745521687,"current_range_meters":8000,"station_id":"ce4bh392rcd13ifvqdl0","pricing_plan_id":"cebpf4jnsgd1na2vs0mg"},{"bike_id":"43de3424-294c-424c-a7f9-38c819d96b61","system_id":"levelo_inurba_marseille","lat":43.30091,"lon":5.39084,"is_reserved":false,"is_disabled":false,"rental_uris":{"android":"levelo://app?vid=43de3424-294c-424c-a7f9-38c819d96b61","ios":"levelo://app?vid=43de3424-294c-424c-a7f9-38c819d96b61"},"vehicle_type_id":"4","last_reported":1745521687,"current_range_meters":8400,"station_id":"ce4bh192rcd13ifvqdb0","pricing_plan_id":"cebpf4jnsgd1na2vs0mg"},{"bike_id":"0f7faeca-f211-4302-91c4-a32916e8a18a","system_id":"levelo_inurba_marseille","lat":43.28036,"lon":5.36936,"is_reserved":false,"is_disabled":false,"rental_uris":{"android":"levelo://app?vid=0f7faeca-f211-4302-91c4-a32916e8a18a","ios":"levelo://app?vid=0f7faeca-f211-4302-91c4-a32916e8a18a"},"vehicle_type_id":"4","last_reported":1745521687,"current_range_meters":8400,"station_id":"ce4bha12rcd13ifvqef0","pricing_plan_id":"cebpf4jnsgd1na2vs0mg"},{"bike_id":"f742e759-6e98-4553-96e1-e1964ee51b8f","system_id":"levelo_inurba_marseille","lat":43.30787,"lon":5.4352,"is_reserved":false,"is_disabled":false,"rental_uris":{"android":"levelo://app?vid=f742e759-6e98-4553-96e1-e1964ee51b8f","ios":"levelo://app?vid=f742e759-6e98-4553-96e1-e1964ee51b8f"},"vehicle_type_id":"4","last_reported":1745521687,"current_range_meters":8400,"station_id":"ce4bhph2rcd13ifvqheg","pricing_plan_id":"cebpf4jnsgd1na2vs0mg"},{"bike_id":"a008f1ff-620c-4136-b82e-a1a04d36a6b4","system_id":"levelo_inurba_marseille","lat":43.29043,"lon":5.36487,"is_reserved":false,"is_disabled":false,"rental_uris":{"android":"levelo://app?vid=a008f1ff-620c-4136-b82e-a1a04d36a6b4","ios":"levelo://app?vid=a008f1ff-620c-4136-b82e-a1a04d36a6b4"},"vehicle_type_id":"4","last_reported":1745521687,"current_range_meters":8400,"station_id":"","pricing_plan_id":"cebpf4jnsgd1na2vs0mg"},{"bike_id":"53de0d7a-29e3-4b0b-be27-82d067ea2668","system_id":"levelo_inurba_marseille","lat":43.31682,"lon":5.37842,"is_reserved":false,"is_disabled":false,"rental_uris":{"android":"levelo://app?vid=53de0d7a-29e3-4b0b-be27-82d067ea2668","ios":"levelo://app?vid=53de0d7a-29e3-4b0b-be27-82d067ea2668"},"vehicle_type_id":"4","last_reported":1745521687,"current_range_meters":8400,"station_id":"ce4bgth2rcd13ifvqch0","pricing_plan_id":"cebpf4jnsgd1na2vs0mg"},{"bike_id":"d4905dee-6456-4325-bc9e-8f720cf7dabf","system_id":"levelo_inurba_marseille","lat":43.28929,"lon":5.38397,"is_reserved":false,"is_disabled":false,"rental_uris":{"android":"levelo://app?vid=d4905dee-6456-4325-bc9e-8f720cf7dabf","ios":"levelo://app?vid=d4905dee-6456-4325-bc9e-8f720cf7dabf"},"vehicle_type_id":"4","last_reported":1745521687,"current_range_meters":8400,"station_id":"ce4bh612rcd13ifvqe6g","pricing_plan_id":"cebpf4jnsgd1na2vs0mg"},{"bike_id":"0507518d-66e0-4aec-b83b-9c1eadc0fd20","system_id":"levelo_inurba_marseille","lat":43.29661,"lon":5.38548,"is_reserved":false,"is_disabled":false,"rental_uris":{"android":"levelo://app?vid=0507518d-66e0-4aec-b83b-9c1eadc0fd20","ios":"levelo://app?vid=0507518d-66e0-4aec-b83b-9c1eadc0fd20"},"vehicle_type_id":"4","last_reported":1745521687,"current_range_meters":8800,"station_id":"","pricing_plan_id":"cebpf4jnsgd1na2vs0mg"},{"bike_id":"2047cf25-b233-4eb0-b891-6f7545b2a713","system_id":"levelo_inurba_marseille","lat":43.23182,"lon":5.35574,"is_reserved":false,"is_disabled":false,"rental_uris":{"android":"levelo://app?vid=2047cf25-b233-4eb0-b891-6f7545b2a713","ios":"levelo://app?vid=2047cf25-b233-4eb0-b891-6f7545b2a713"},"vehicle_type_id":"4","last_reported":1745521687,"current_range_meters":8800,"station_id":"ce4bhu92rcd13ifvqi70","pricing_plan_id":"cebpf4jnsgd1na2vs0mg"},{"bike_id":"7e9d26b8-b748-4e10-b3e2-977d9fd05087","system_id":"levelo_inurba_marseille","lat":43.33028,"lon":5.37042,"is_reserved":false,"is_disabled":true,"rental_uris":{"android":"levelo://app?vid=7e9d26b8-b748-4e10-b3e2-977d9fd05087","ios":"levelo://app?vid=7e9d26b8-b748-4e10-b3e2-977d9fd05087"},"vehicle_type_id":"4","last_reported":1745521687,"current_range_meters":8800,"station_id":"","pricing_plan_id":"cebpf4jnsgd1na2vs0mg"},{"bike_id":"94175c55-a1b8-454e-8864-a4f590effe31","system_id":"levelo_inurba_marseille","lat":43.32357,"lon":5.38879,"is_reserved":false,"is_disabled":false,"rental_uris":{"android":"levelo://app?vid=94175c55-a1b8-454e-8864-a4f590effe31","ios":"levelo://app?vid=94175c55-a1b8-454e-8864-a4f590effe31"},"vehicle_type_id":"4","last_reported":1745521687,"current_range_meters":8800,"station_id":"ce4bhqp2rcd13ifvqhog","pricing_plan_id":"cebpf4jnsgd1na2vs0mg"},{"bike_id":"2490c850-e8ad-49d1-8887-b8f9d6b59f38","system_id":"levelo_inurba_marseille","lat":43.23183,"lon":5.39987,"is_reserved":false,"is_disabled":true,"rental_uris":{"android":"levelo://app?vid=2490c850-e8ad-49d1-8887-b8f9d6b59f38","ios":"levelo://app?vid=2490c850-e8ad-49d1-8887-b8f9d6b59f38"},"vehicle_type_id":"4","last_reported":1745521687,"current_range_meters":8800,"station_id":"ce4bhn12rcd13ifvqgqg","pricing_plan_id":"cebpf4jnsgd1na2vs0mg"},{"bike_id":"67b9b70f-68e0-48b9-ab3a-83578fdc2060","system_id":"levelo_inurba_marseille","lat":43.33401,"lon":5.40048,"is_reserved":false,"is_disabled":false,"rental_uris":{"android":"levelo://app?vid=67b9b70f-68e0-48b9-ab3a-83578fdc2060","ios":"levelo://app?vid=67b9b70f-68e0-48b9-ab3a-83578fdc2060"},"vehicle_type_id":"4","last_reported":1745521687,"current_range_meters":9200,"station_id":"ce4bhr92rcd13ifvqhrg","pricing_plan_id":"cebpf4jnsgd1na2vs0mg"},{"bike_id":"b8c848b7-dcaf-425b-919f-398511c6d319","system_id":"levelo_inurba_marseille","lat":43.287047,"lon":5.373927,"is_reserved":false,"is_disabled":false,"rental_uris":{"android":"levelo://app?vid=b8c848b7-dcaf-425b-919f-398511c6d319","ios":"levelo://app?vid=b8c848b7-dcaf-425b-919f-398511c6d319"},"vehicle_type_id":"4","last_reported":1745521687,"current_range_meters":9200,"station_id":"ce4bh3p2rcd13ifvqdq0","pricing_plan_id":"cebpf4jnsgd1na2vs0mg"},{"bike_id":"8cd89945-3452-402d-b186-42ab94aa749d","system_id":"levelo_inurba_marseille","lat":43.29211,"lon":5.36048,"is_reserved":false,"is_disabled":true,"rental_uris":{"android":"levelo://app?vid=8cd89945-3452-402d-b186-42ab94aa749d","ios":"levelo://app?vid=8cd89945-3452-402d-b186-42ab94aa749d"},"vehicle_type_id":"4","last_reported":1745521687,"current_range_meters":9200,"station_id":"ce4bhbh2rcd13ifvqeqg","pricing_plan_id":"cebpf4jnsgd1na2vs0mg"},{"bike_id":"e5e6387e-799d-49f8-9caa-4061ff31ee68","system_id":"levelo_inurba_marseille","lat":43.22509,"lon":5.34777,"is_reserved":false,"is_disabled":false,"rental_uris":{"android":"levelo://app?vid=e5e6387e-799d-49f8-9caa-4061ff31ee68","ios":"levelo://app?vid=e5e6387e-799d-49f8-9caa-4061ff31ee68"},"vehicle_type_id":"4","last_reported":1745521687,"current_range_meters":9200,"station_id":"st_cvj5dfep6f1abm77gieg","pricing_plan_id":"cebpf4jnsgd1na2vs0mg"},{"bike_id":"18321386-6007-41d7-a392-599343c03345","system_id":"levelo_inurba_marseille","lat":43.31355,"lon":5.38495,"is_reserved":false,"is_disabled":true,"rental_uris":{"android":"levelo://app?vid=18321386-6007-41d7-a392-599343c03345","ios":"levelo://app?vid=18321386-6007-41d7-a392-599343c03345"},"vehicle_type_id":"4","last_reported":1745521687,"current_range_meters":9200,"station_id":"ce4bgt92rcd13ifvqcf0","pricing_plan_id":"cebpf4jnsgd1na2vs0mg"},{"bike_id":"33852708-9591-4939-bec8-6b1048dfb7f5","system_id":"levelo_inurba_marseille","lat":43.29001,"lon":5.35587,"is_reserved":false,"is_disabled":false,"rental_uris":{"android":"levelo://app?vid=33852708-9591-4939-bec8-6b1048dfb7f5","ios":"levelo://app?vid=33852708-9591-4939-bec8-6b1048dfb7f5"},"vehicle_type_id":"4","last_reported":1745521687,"current_range_meters":9200,"station_id":"ce4bhb92rcd13ifvqen0","pricing_plan_id":"cebpf4jnsgd1na2vs0mg"},{"bike_id":"ba1f85da-b4b8-43ff-b6ed-38eb7d4d8460","system_id":"levelo_inurba_marseille","lat":43.29618,"lon":5.37151,"is_reserved":false,"is_disabled":false,"rental_uris":{"android":"levelo://app?vid=ba1f85da-b4b8-43ff-b6ed-38eb7d4d8460","ios":"levelo://app?vid=ba1f85da-b4b8-43ff-b6ed-38eb7d4d8460"},"vehicle_type_id":"4","last_reported":1745521687,"current_range_meters":8800,"station_id":"ce4bgnh2rcd13ifvqc0g","pricing_plan_id":"cebpf4jnsgd1na2vs0mg"},{"bike_id":"860293f2-27fe-4f9c-b5c3-d42426b100e7","system_id":"levelo_inurba_marseille","lat":43.28625,"lon":5.35094,"is_reserved":false,"is_disabled":false,"rental_uris":{"android":"levelo://app?vid=860293f2-27fe-4f9c-b5c3-d42426b100e7","ios":"levelo://app?vid=860293f2-27fe-4f9c-b5c3-d42426b100e7"},"vehicle_type_id":"4","last_reported":1745521687,"current_range_meters":9200,"station_id":"ce4bhch2rcd13ifvqeug","pricing_plan_id":"cebpf4jnsgd1na2vs0mg"},{"bike_id":"7d644630-fd82-47fb-aa53-499da9988b8f","system_id":"levelo_inurba_marseille","lat":43.24692,"lon":5.38129,"is_reserved":false,"is_disabled":false,"rental_uris":{"android":"levelo://app?vid=7d644630-fd82-47fb-aa53-499da9988b8f","ios":"levelo://app?vid=7d644630-fd82-47fb-aa53-499da9988b8f"},"vehicle_type_id":"4","last_reported":1745521687,"current_range_meters":9200,"station_id":"ce4bhih2rcd13ifvqfr0","pricing_plan_id":"cebpf4jnsgd1na2vs0mg"},{"bike_id":"dc8c8286-d8ea-4a31-b689-366cfc71ab8d","system_id":"levelo_inurba_marseille","lat":43.31169,"lon":5.3872,"is_reserved":false,"is_disabled":false,"rental_uris":{"android":"levelo://app?vid=dc8c8286-d8ea-4a31-b689-366cfc71ab8d","ios":"levelo://app?vid=dc8c8286-d8ea-4a31-b689-366cfc71ab8d"},"vehicle_type_id":"4","last_reported":1745521687,"current_range_meters":9200,"station_id":"ce4bgv12rcd13ifvqcp0","pricing_plan_id":"cebpf4jnsgd1na2vs0mg"},{"bike_id":"84c8ff60-591f-4914-b8ff-93c4fb55c733","system_id":"levelo_inurba_marseille","lat":43.31341,"lon":5.36714,"is_reserved":false,"is_disabled":false,"rental_uris":{"android":"levelo://app?vid=84c8ff60-591f-4914-b8ff-93c4fb55c733","ios":"levelo://app?vid=84c8ff60-591f-4914-b8ff-93c4fb55c733"},"vehicle_type_id":"4","last_reported":1745521687,"current_range_meters":9200,"station_id":"ce4bgr92rcd13ifvqc6g","pricing_plan_id":"cebpf4jnsgd1na2vs0mg"},{"bike_id":"99862305-32a2-444d-8334-228f5792e221","system_id":"levelo_inurba_marseille","lat":43.29263,"lon":5.36829,"is_reserved":false,"is_disabled":true,"rental_uris":{"android":"levelo://app?vid=99862305-32a2-444d-8334-228f5792e221","ios":"levelo://app?vid=99862305-32a2-444d-8334-228f5792e221"},"vehicle_type_id":"4","last_reported":1745521687,"current_range_meters":9200,"station_id":"ce4bhbp2rcd13ifvqesg","pricing_plan_id":"cebpf4jnsgd1na2vs0mg"},{"bike_id":"0013966c-ef97-46fc-a9b6-b1eb056f8ad3","system_id":"levelo_inurba_marseille","lat":43.24062,"lon":5.37741,"is_reserved":false,"is_disabled":false,"rental_uris":{"android":"levelo://app?vid=0013966c-ef97-46fc-a9b6-b1eb056f8ad3","ios":"levelo://app?vid=0013966c-ef97-46fc-a9b6-b1eb056f8ad3"},"vehicle_type_id":"4","last_reported":1745521687,"current_range_meters":9600,"station_id":"ce4bhnp2rcd13ifvqgvg","pricing_plan_id":"cebpf4jnsgd1na2vs0mg"},{"bike_id":"bd0c2e9e-2445-40e7-b282-79b710fbc623","system_id":"levelo_inurba_marseille","lat":43.23198,"lon":5.39974,"is_reserved":false,"is_disabled":false,"rental_uris":{"android":"levelo://app?vid=bd0c2e9e-2445-40e7-b282-79b710fbc623","ios":"levelo://app?vid=bd0c2e9e-2445-40e7-b282-79b710fbc623"},"vehicle_type_id":"4","last_reported":1745521687,"current_range_meters":9600,"station_id":"ce4bhn12rcd13ifvqgqg","pricing_plan_id":"cebpf4jnsgd1na2vs0mg"},{"bike_id":"eb772212-defc-4543-ad57-fa606af571fb","system_id":"levelo_inurba_marseille","lat":43.23227,"lon":5.39956,"is_reserved":false,"is_disabled":false,"rental_uris":{"android":"levelo://app?vid=eb772212-defc-4543-ad57-fa606af571fb","ios":"levelo://app?vid=eb772212-defc-4543-ad57-fa606af571fb"},"vehicle_type_id":"4","last_reported":1745521687,"current_range_meters":9600,"station_id":"","pricing_plan_id":"cebpf4jnsgd1na2vs0mg"},{"bike_id":"4959620f-bcf8-47e6-be19-b230de6ed982","system_id":"levelo_inurba_marseille","lat":43.30412,"lon":5.39751,"is_reserved":false,"is_disabled":false,"rental_uris":{"android":"levelo://app?vid=4959620f-bcf8-47e6-be19-b230de6ed982","ios":"levelo://app?vid=4959620f-bcf8-47e6-be19-b230de6ed982"},"vehicle_type_id":"4","last_reported":1745521687,"current_range_meters":9600,"station_id":"ce4bh092rcd13ifvqd20","pricing_plan_id":"cebpf4jnsgd1na2vs0mg"},{"bike_id":"9f386ddd-60cc-4192-a3de-1771af5d0ff1","system_id":"levelo_inurba_marseille","lat":43.25726,"lon":5.4111,"is_reserved":false,"is_disabled":false,"rental_uris":{"android":"levelo://app?vid=9f386ddd-60cc-4192-a3de-1771af5d0ff1","ios":"levelo://app?vid=9f386ddd-60cc-4192-a3de-1771af5d0ff1"},"vehicle_type_id":"4","last_reported":1745521687,"current_range_meters":10000,"station_id":"ce4bhkp2rcd13ifvqgd0","pricing_plan_id":"cebpf4jnsgd1na2vs0mg"},{"bike_id":"6dbfc9d1-df46-41a1-8e24-30aaeca4e7e6","system_id":"levelo_inurba_marseille","lat":43.23953,"lon":5.36628,"is_reserved":false,"is_disabled":false,"rental_uris":{"android":"levelo://app?vid=6dbfc9d1-df46-41a1-8e24-30aaeca4e7e6","ios":"levelo://app?vid=6dbfc9d1-df46-41a1-8e24-30aaeca4e7e6"},"vehicle_type_id":"4","last_reported":1745521687,"current_range_meters":10000,"station_id":"ce4bhi12rcd13ifvqfp0","pricing_plan_id":"cebpf4jnsgd1na2vs0mg"},{"bike_id":"bd5e46a2-a5ac-4e65-a707-8105b67c724f","system_id":"levelo_inurba_marseille","lat":43.29279,"lon":5.40115,"is_reserved":false,"is_disabled":false,"rental_uris":{"android":"levelo://app?vid=bd5e46a2-a5ac-4e65-a707-8105b67c724f","ios":"levelo://app?vid=bd5e46a2-a5ac-4e65-a707-8105b67c724f"},"vehicle_type_id":"4","last_reported":1745521687,"current_range_meters":10000,"station_id":"ce4bh312rcd13ifvqdk0","pricing_plan_id":"cebpf4jnsgd1na2vs0mg"},{"bike_id":"a3aacc8d-dac7-449a-912b-7eac6a1416a5","system_id":"levelo_inurba_marseille","lat":43.30298,"lon":5.39221,"is_reserved":false,"is_disabled":false,"rental_uris":{"android":"levelo://app?vid=a3aacc8d-dac7-449a-912b-7eac6a1416a5","ios":"levelo://app?vid=a3aacc8d-dac7-449a-912b-7eac6a1416a5"},"vehicle_type_id":"4","last_reported":1745521687,"current_range_meters":9600,"station_id":"ce4bgkh2rcd13ifvqbk0","pricing_plan_id":"cebpf4jnsgd1na2vs0mg"},{"bike_id":"0f93d6ce-70c3-456e-8377-15421d76e1f7","system_id":"levelo_inurba_marseille","lat":43.29199,"lon":5.39314,"is_reserved":false,"is_disabled":false,"rental_uris":{"android":"levelo://app?vid=0f93d6ce-70c3-456e-8377-15421d76e1f7","ios":"levelo://app?vid=0f93d6ce-70c3-456e-8377-15421d76e1f7"},"vehicle_type_id":"4","last_reported":1745521687,"current_range_meters":10000,"station_id":"ce4bh192rcd13ifvqdd0","pricing_plan_id":"cebpf4jnsgd1na2vs0mg"},{"bike_id":"46374c49-3adc-4c5a-8966-e00f056c0d57","system_id":"levelo_inurba_marseille","lat":43.27846,"lon":5.35442,"is_reserved":false,"is_disabled":false,"rental_uris":{"android":"levelo://app?vid=46374c49-3adc-4c5a-8966-e00f056c0d57","ios":"levelo://app?vid=46374c49-3adc-4c5a-8966-e00f056c0d57"},"vehicle_type_id":"4","last_reported":1745521687,"current_range_meters":10800,"station_id":"","pricing_plan_id":"cebpf4jnsgd1na2vs0mg"},{"bike_id":"ebbb47ee-0830-497c-9b41-8771d5611dcc","system_id":"levelo_inurba_marseille","lat":43.28162,"lon":5.42641,"is_reserved":false,"is_disabled":false,"rental_uris":{"android":"levelo://app?vid=ebbb47ee-0830-497c-9b41-8771d5611dcc","ios":"levelo://app?vid=ebbb47ee-0830-497c-9b41-8771d5611dcc"},"vehicle_type_id":"4","last_reported":1745521687,"current_range_meters":10800,"station_id":"ce4bhnh2rcd13ifvqgug","pricing_plan_id":"cebpf4jnsgd1na2vs0mg"},{"bike_id":"d8840801-a52a-4c7c-9a2d-3e5f8bcef267","system_id":"levelo_inurba_marseille","lat":43.28032,"lon":5.36952,"is_reserved":false,"is_disabled":false,"rental_uris":{"android":"levelo://app?vid=d8840801-a52a-4c7c-9a2d-3e5f8bcef267","ios":"levelo://app?vid=d8840801-a52a-4c7c-9a2d-3e5f8bcef267"},"vehicle_type_id":"4","last_reported":1745521687,"current_range_meters":10800,"station_id":"ce4bha12rcd13ifvqef0","pricing_plan_id":"cebpf4jnsgd1na2vs0mg"},{"bike_id":"7944d4bb-94f4-4520-87fd-017a9c7581ec","system_id":"levelo_inurba_marseille","lat":43.299945,"lon":5.399556,"is_reserved":false,"is_disabled":false,"rental_uris":{"android":"levelo://app?vid=7944d4bb-94f4-4520-87fd-017a9c7581ec","ios":"levelo://app?vid=7944d4bb-94f4-4520-87fd-017a9c7581ec"},"vehicle_type_id":"4","last_reported":1745521687,"current_range_meters":10800,"station_id":"ce4bh0h2rcd13ifvqd40","pricing_plan_id":"cebpf4jnsgd1na2vs0mg"},{"bike_id":"d9ae0f4b-87e3-4f1e-9e24-08be094fada8","system_id":"levelo_inurba_marseille","lat":43.29786,"lon":5.38102,"is_reserved":false,"is_disabled":false,"rental_uris":{"android":"levelo://app?vid=d9ae0f4b-87e3-4f1e-9e24-08be094fada8","ios":"levelo://app?vid=d9ae0f4b-87e3-4f1e-9e24-08be094fada8"},"vehicle_type_id":"4","last_reported":1745521687,"current_range_meters":11200,"station_id":"ce4bgip2rcd13ifvqbb0","pricing_plan_id":"cebpf4jnsgd1na2vs0mg"},{"bike_id":"0e3c9c9f-0d43-479b-9c44-9ec0f7103e9c","system_id":"levelo_inurba_marseille","lat":43.23963,"lon":5.3663,"is_reserved":false,"is_disabled":false,"rental_uris":{"android":"levelo://app?vid=0e3c9c9f-0d43-479b-9c44-9ec0f7103e9c","ios":"levelo://app?vid=0e3c9c9f-0d43-479b-9c44-9ec0f7103e9c"},"vehicle_type_id":"4","last_reported":1745521687,"current_range_meters":11200,"station_id":"ce4bhi12rcd13ifvqfp0","pricing_plan_id":"cebpf4jnsgd1na2vs0mg"},{"bike_id":"2ae580c6-90b6-4453-b719-c9a6ac4328aa","system_id":"levelo_inurba_marseille","lat":43.30785,"lon":5.38154,"is_reserved":false,"is_disabled":false,"rental_uris":{"android":"levelo://app?vid=2ae580c6-90b6-4453-b719-c9a6ac4328aa","ios":"levelo://app?vid=2ae580c6-90b6-4453-b719-c9a6ac4328aa"},"vehicle_type_id":"4","last_reported":1745521687,"current_range_meters":11200,"station_id":"ce4bgt12rcd13ifvqce0","pricing_plan_id":"cebpf4jnsgd1na2vs0mg"},{"bike_id":"ab217342-9ea5-4739-bf1a-a44f0c2fa979","system_id":"levelo_inurba_marseille","lat":43.25499,"lon":5.37647,"is_reserved":false,"is_disabled":false,"rental_uris":{"android":"levelo://app?vid=ab217342-9ea5-4739-bf1a-a44f0c2fa979","ios":"levelo://app?vid=ab217342-9ea5-4739-bf1a-a44f0c2fa979"},"vehicle_type_id":"4","last_reported":1745521687,"current_range_meters":11200,"station_id":"ce4bhh12rcd13ifvqff0","pricing_plan_id":"cebpf4jnsgd1na2vs0mg"},{"bike_id":"894d13de-fdb1-4f60-99c3-da1438056ad2","system_id":"levelo_inurba_marseille","lat":43.31889,"lon":5.40726,"is_reserved":false,"is_disabled":false,"rental_uris":{"android":"levelo://app?vid=894d13de-fdb1-4f60-99c3-da1438056ad2","ios":"levelo://app?vid=894d13de-fdb1-4f60-99c3-da1438056ad2"},"vehicle_type_id":"4","last_reported":1745521687,"current_range_meters":11200,"station_id":"ce4bhq12rcd13ifvqhig","pricing_plan_id":"cebpf4jnsgd1na2vs0mg"},{"bike_id":"57c6fb01-b531-40c9-b932-d8f2ceb8b76f","system_id":"levelo_inurba_marseille","lat":43.29599,"lon":5.38109,"is_reserved":false,"is_disabled":false,"rental_uris":{"android":"levelo://app?vid=57c6fb01-b531-40c9-b932-d8f2ceb8b76f","ios":"levelo://app?vid=57c6fb01-b531-40c9-b932-d8f2ceb8b76f"},"vehicle_type_id":"4","last_reported":1745521687,"current_range_meters":11600,"station_id":"ce4bgl12rcd13ifvqbo0","pricing_plan_id":"cebpf4jnsgd1na2vs0mg"},{"bike_id":"3cb8851b-755b-4b31-b720-e4d0dabe02e8","system_id":"levelo_inurba_marseille","lat":43.29567,"lon":5.39962,"is_reserved":false,"is_disabled":false,"rental_uris":{"android":"levelo://app?vid=3cb8851b-755b-4b31-b720-e4d0dabe02e8","ios":"levelo://app?vid=3cb8851b-755b-4b31-b720-e4d0dabe02e8"},"vehicle_type_id":"4","last_reported":1745521687,"current_range_meters":11600,"station_id":"ce4bh312rcd13ifvqdj0","pricing_plan_id":"cebpf4jnsgd1na2vs0mg"},{"bike_id":"1362343b-fb96-43f3-b1c3-33b7c8a94dde","system_id":"levelo_inurba_marseille","lat":43.30132,"lon":5.37421,"is_reserved":false,"is_disabled":false,"rental_uris":{"android":"levelo://app?vid=1362343b-fb96-43f3-b1c3-33b7c8a94dde","ios":"levelo://app?vid=1362343b-fb96-43f3-b1c3-33b7c8a94dde"},"vehicle_type_id":"4","last_reported":1745521687,"current_range_meters":11600,"station_id":"ce4bgs92rcd13ifvqcc0","pricing_plan_id":"cebpf4jnsgd1na2vs0mg"},{"bike_id":"d4a8fafa-88a7-48bf-b5a7-839e5bc03db8","system_id":"levelo_inurba_marseille","lat":43.25011,"lon":5.38875,"is_reserved":false,"is_disabled":true,"rental_uris":{"android":"levelo://app?vid=d4a8fafa-88a7-48bf-b5a7-839e5bc03db8","ios":"levelo://app?vid=d4a8fafa-88a7-48bf-b5a7-839e5bc03db8"},"vehicle_type_id":"4","last_reported":1745521687,"current_range_meters":11600,"station_id":"ce4bhgp2rcd13ifvqfd0","pricing_plan_id":"cebpf4jnsgd1na2vs0mg"},{"bike_id":"d3627970-61e8-4cb6-9ec6-a6b28df137d0","system_id":"levelo_inurba_marseille","lat":43.29637,"lon":5.40596,"is_reserved":false,"is_disabled":false,"rental_uris":{"android":"levelo://app?vid=d3627970-61e8-4cb6-9ec6-a6b28df137d0","ios":"levelo://app?vid=d3627970-61e8-4cb6-9ec6-a6b28df137d0"},"vehicle_type_id":"4","last_reported":1745521687,"current_range_meters":12000,"station_id":"ce4bh0h2rcd13ifvqd60","pricing_plan_id":"cebpf4jnsgd1na2vs0mg"},{"bike_id":"3cd7dbd2-cba5-4351-8314-f5391e42b8fd","system_id":"levelo_inurba_marseille","lat":43.29443,"lon":5.39738,"is_reserved":false,"is_disabled":false,"rental_uris":{"android":"levelo://app?vid=3cd7dbd2-cba5-4351-8314-f5391e42b8fd","ios":"levelo://app?vid=3cd7dbd2-cba5-4351-8314-f5391e42b8fd"},"vehicle_type_id":"4","last_reported":1745521687,"current_range_meters":12000,"station_id":"ce4bh3h2rcd13ifvqdo0","pricing_plan_id":"cebpf4jnsgd1na2vs0mg"},{"bike_id":"54a7826c-8c16-445e-9aaf-4f399f90ad04","system_id":"levelo_inurba_marseille","lat":43.24659,"lon":5.3816,"is_reserved":false,"is_disabled":false,"rental_uris":{"android":"levelo://app?vid=54a7826c-8c16-445e-9aaf-4f399f90ad04","ios":"levelo://app?vid=54a7826c-8c16-445e-9aaf-4f399f90ad04"},"vehicle_type_id":"4","last_reported":1745521687,"current_range_meters":12000,"station_id":"ce4bhih2rcd13ifvqfr0","pricing_plan_id":"cebpf4jnsgd1na2vs0mg"},{"bike_id":"3a41a14b-b60d-411c-aa4a-3b7d3df773ad","system_id":"levelo_inurba_marseille","lat":43.302,"lon":5.36615,"is_reserved":false,"is_disabled":true,"rental_uris":{"android":"levelo://app?vid=3a41a14b-b60d-411c-aa4a-3b7d3df773ad","ios":"levelo://app?vid=3a41a14b-b60d-411c-aa4a-3b7d3df773ad"},"vehicle_type_id":"4","last_reported":1745521687,"current_range_meters":12000,"station_id":"ce4bgrh2rcd13ifvqc8g","pricing_plan_id":"cebpf4jnsgd1na2vs0mg"},{"bike_id":"8963fb50-ff75-45e1-9c0e-014a2be94aaa","system_id":"levelo_inurba_marseille","lat":43.2923,"lon":5.36062,"is_reserved":false,"is_disabled":false,"rental_uris":{"android":"levelo://app?vid=8963fb50-ff75-45e1-9c0e-014a2be94aaa","ios":"levelo://app?vid=8963fb50-ff75-45e1-9c0e-014a2be94aaa"},"vehicle_type_id":"4","last_reported":1745521687,"current_range_meters":12000,"station_id":"ce4bhbh2rcd13ifvqeqg","pricing_plan_id":"cebpf4jnsgd1na2vs0mg"},{"bike_id":"61b5b9e1-3169-4ce4-8897-e7a07e5ffdd6","system_id":"levelo_inurba_marseille","lat":43.33602,"lon":5.41032,"is_reserved":false,"is_disabled":false,"rental_uris":{"android":"levelo://app?vid=61b5b9e1-3169-4ce4-8897-e7a07e5ffdd6","ios":"levelo://app?vid=61b5b9e1-3169-4ce4-8897-e7a07e5ffdd6"},"vehicle_type_id":"4","last_reported":1745521687,"current_range_meters":12400,"station_id":"ce4bhqh2rcd13ifvqhmg","pricing_plan_id":"cebpf4jnsgd1na2vs0mg"},{"bike_id":"85d90b74-054b-4cb4-8a32-63a1a156d5c7","system_id":"levelo_inurba_marseille","lat":43.29031,"lon":5.386535,"is_reserved":false,"is_disabled":false,"rental_uris":{"android":"levelo://app?vid=85d90b74-054b-4cb4-8a32-63a1a156d5c7","ios":"levelo://app?vid=85d90b74-054b-4cb4-8a32-63a1a156d5c7"},"vehicle_type_id":"4","last_reported":1745521687,"current_range_meters":12400,"station_id":"chh1huq6cuj3fo74tm60","pricing_plan_id":"cebpf4jnsgd1na2vs0mg"},{"bike_id":"c4b0ce6f-4913-48c0-94af-255f0c5af339","system_id":"levelo_inurba_marseille","lat":43.24547,"lon":5.3952,"is_reserved":false,"is_disabled":false,"rental_uris":{"android":"levelo://app?vid=c4b0ce6f-4913-48c0-94af-255f0c5af339","ios":"levelo://app?vid=c4b0ce6f-4913-48c0-94af-255f0c5af339"},"vehicle_type_id":"4","last_reported":1745521687,"current_range_meters":12400,"station_id":"ce4bhlp2rcd13ifvqgjg","pricing_plan_id":"cebpf4jnsgd1na2vs0mg"},{"bike_id":"84c51a55-47b7-4b91-88f0-0d5a084f2e8f","system_id":"levelo_inurba_marseille","lat":43.2803,"lon":5.36941,"is_reserved":false,"is_disabled":false,"rental_uris":{"android":"levelo://app?vid=84c51a55-47b7-4b91-88f0-0d5a084f2e8f","ios":"levelo://app?vid=84c51a55-47b7-4b91-88f0-0d5a084f2e8f"},"vehicle_type_id":"4","last_reported":1745521687,"current_range_meters":12800,"station_id":"ce4bha12rcd13ifvqef0","pricing_plan_id":"cebpf4jnsgd1na2vs0mg"},{"bike_id":"1ff66d7f-dbf6-4fba-8ff3-b8b4467c90a0","system_id":"levelo_inurba_marseille","lat":43.28695,"lon":5.373835,"is_reserved":false,"is_disabled":false,"rental_uris":{"android":"levelo://app?vid=1ff66d7f-dbf6-4fba-8ff3-b8b4467c90a0","ios":"levelo://app?vid=1ff66d7f-dbf6-4fba-8ff3-b8b4467c90a0"},"vehicle_type_id":"4","last_reported":1745521687,"current_range_meters":12800,"station_id":"ce4bhgh2rcd13ifvqfb0","pricing_plan_id":"cebpf4jnsgd1na2vs0mg"},{"bike_id":"18afcdc5-8c2f-4e59-8909-ae5a72ac30af","system_id":"levelo_inurba_marseille","lat":43.27205,"lon":5.39197,"is_reserved":false,"is_disabled":false,"rental_uris":{"android":"levelo://app?vid=18afcdc5-8c2f-4e59-8909-ae5a72ac30af","ios":"levelo://app?vid=18afcdc5-8c2f-4e59-8909-ae5a72ac30af"},"vehicle_type_id":"4","last_reported":1745521687,"current_range_meters":12800,"station_id":"ce4bhhp2rcd13ifvqfm0","pricing_plan_id":"cebpf4jnsgd1na2vs0mg"},{"bike_id":"9ddaae32-13b5-4d0c-8e2e-5facf3c0a686","system_id":"levelo_inurba_marseille","lat":43.299784,"lon":5.384862,"is_reserved":false,"is_disabled":false,"rental_uris":{"android":"levelo://app?vid=9ddaae32-13b5-4d0c-8e2e-5facf3c0a686","ios":"levelo://app?vid=9ddaae32-13b5-4d0c-8e2e-5facf3c0a686"},"vehicle_type_id":"4","last_reported":1745521687,"current_range_meters":12800,"station_id":"ce4bgj92rcd13ifvqbd0","pricing_plan_id":"cebpf4jnsgd1na2vs0mg"},{"bike_id":"0ec55f9a-9bd2-4647-9b9f-3d207c6fd7ac","system_id":"levelo_inurba_marseille","lat":43.28618,"lon":5.35102,"is_reserved":false,"is_disabled":false,"rental_uris":{"android":"levelo://app?vid=0ec55f9a-9bd2-4647-9b9f-3d207c6fd7ac","ios":"levelo://app?vid=0ec55f9a-9bd2-4647-9b9f-3d207c6fd7ac"},"vehicle_type_id":"4","last_reported":1745521687,"current_range_meters":12800,"station_id":"ce4bhch2rcd13ifvqeug","pricing_plan_id":"cebpf4jnsgd1na2vs0mg"},{"bike_id":"9de75e5e-ac6b-4dc5-94f3-e2e056f9d295","system_id":"levelo_inurba_marseille","lat":43.30799,"lon":5.38145,"is_reserved":false,"is_disabled":false,"rental_uris":{"android":"levelo://app?vid=9de75e5e-ac6b-4dc5-94f3-e2e056f9d295","ios":"levelo://app?vid=9de75e5e-ac6b-4dc5-94f3-e2e056f9d295"},"vehicle_type_id":"4","last_reported":1745521687,"current_range_meters":12800,"station_id":"ce4bgt12rcd13ifvqce0","pricing_plan_id":"cebpf4jnsgd1na2vs0mg"},{"bike_id":"486a58b3-6ad0-49b9-8ae4-2309bf84f59a","system_id":"levelo_inurba_marseille","lat":43.29271,"lon":5.38421,"is_reserved":false,"is_disabled":false,"rental_uris":{"android":"levelo://app?vid=486a58b3-6ad0-49b9-8ae4-2309bf84f59a","ios":"levelo://app?vid=486a58b3-6ad0-49b9-8ae4-2309bf84f59a"},"vehicle_type_id":"4","last_reported":1745521687,"current_range_meters":12800,"station_id":"ce4bh692rcd13ifvqea0","pricing_plan_id":"cebpf4jnsgd1na2vs0mg"},{"bike_id":"9ddf901c-17b7-41a5-ab10-51e5206ab36e","system_id":"levelo_inurba_marseille","lat":43.33004,"lon":5.39012,"is_reserved":false,"is_disabled":false,"rental_uris":{"android":"levelo://app?vid=9ddf901c-17b7-41a5-ab10-51e5206ab36e","ios":"levelo://app?vid=9ddf901c-17b7-41a5-ab10-51e5206ab36e"},"vehicle_type_id":"4","last_reported":1745521687,"current_range_meters":12800,"station_id":"ce4bhr92rcd13ifvqhrg","pricing_plan_id":"cebpf4jnsgd1na2vs0mg"},{"bike_id":"fa8a552a-d2d3-4e8d-8d8e-02bdba037836","system_id":"levelo_inurba_marseille","lat":43.23062,"lon":5.35518,"is_reserved":false,"is_disabled":false,"rental_uris":{"android":"levelo://app?vid=fa8a552a-d2d3-4e8d-8d8e-02bdba037836","ios":"levelo://app?vid=fa8a552a-d2d3-4e8d-8d8e-02bdba037836"},"vehicle_type_id":"4","last_reported":1745521687,"current_range_meters":12800,"station_id":"cpo3342slgdg3j2ifvpg","pricing_plan_id":"cebpf4jnsgd1na2vs0mg"},{"bike_id":"211cf74e-96b8-4b71-8d39-de47802ecc96","system_id":"levelo_inurba_marseille","lat":43.29529,"lon":5.38537,"is_reserved":false,"is_disabled":false,"rental_uris":{"android":"levelo://app?vid=211cf74e-96b8-4b71-8d39-de47802ecc96","ios":"levelo://app?vid=211cf74e-96b8-4b71-8d39-de47802ecc96"},"vehicle_type_id":"4","last_reported":1745521687,"current_range_meters":12800,"station_id":"ce4bgih2rcd13ifvqba0","pricing_plan_id":"cebpf4jnsgd1na2vs0mg"},{"bike_id":"3b23c41d-fc3a-48b9-9b6b-f920ca81745d","system_id":"levelo_inurba_marseille","lat":43.31756,"lon":5.39012,"is_reserved":false,"is_disabled":false,"rental_uris":{"android":"levelo://app?vid=3b23c41d-fc3a-48b9-9b6b-f920ca81745d","ios":"levelo://app?vid=3b23c41d-fc3a-48b9-9b6b-f920ca81745d"},"vehicle_type_id":"4","last_reported":1745521687,"current_range_meters":12800,"station_id":"ce4bhqp2rcd13ifvqhng","pricing_plan_id":"cebpf4jnsgd1na2vs0mg"},{"bike_id":"0aeea440-47b3-48d8-b764-fc82ba6f596d","system_id":"levelo_inurba_marseille","lat":43.28038,"lon":5.36946,"is_reserved":false,"is_disabled":false,"rental_uris":{"android":"levelo://app?vid=0aeea440-47b3-48d8-b764-fc82ba6f596d","ios":"levelo://app?vid=0aeea440-47b3-48d8-b764-fc82ba6f596d"},"vehicle_type_id":"4","last_reported":1745521687,"current_range_meters":13600,"station_id":"ce4bha12rcd13ifvqef0","pricing_plan_id":"cebpf4jnsgd1na2vs0mg"},{"bike_id":"6c07701a-8c9d-42b3-88f5-7017a41eecdf","system_id":"levelo_inurba_marseille","lat":43.29514,"lon":5.39043,"is_reserved":false,"is_disabled":false,"rental_uris":{"android":"levelo://app?vid=6c07701a-8c9d-42b3-88f5-7017a41eecdf","ios":"levelo://app?vid=6c07701a-8c9d-42b3-88f5-7017a41eecdf"},"vehicle_type_id":"4","last_reported":1745521687,"current_range_meters":13600,"station_id":"ce4bh3p2rcd13ifvqdp0","pricing_plan_id":"cebpf4jnsgd1na2vs0mg"},{"bike_id":"13a03cf4-d84f-423d-b71b-020922e0c702","system_id":"levelo_inurba_marseille","lat":43.28949,"lon":5.36632,"is_reserved":false,"is_disabled":false,"rental_uris":{"android":"levelo://app?vid=13a03cf4-d84f-423d-b71b-020922e0c702","ios":"levelo://app?vid=13a03cf4-d84f-423d-b71b-020922e0c702"},"vehicle_type_id":"4","last_reported":1745521687,"current_range_meters":13600,"station_id":"ce4bhap2rcd13ifvqek0","pricing_plan_id":"cebpf4jnsgd1na2vs0mg"},{"bike_id":"5cda5c9a-035b-47ef-b3c5-d3c340708ce9","system_id":"levelo_inurba_marseille","lat":43.29529,"lon":5.38541,"is_reserved":false,"is_disabled":false,"rental_uris":{"android":"levelo://app?vid=5cda5c9a-035b-47ef-b3c5-d3c340708ce9","ios":"levelo://app?vid=5cda5c9a-035b-47ef-b3c5-d3c340708ce9"},"vehicle_type_id":"4","last_reported":1745521687,"current_range_meters":13600,"station_id":"ce4bgih2rcd13ifvqba0","pricing_plan_id":"cebpf4jnsgd1na2vs0mg"},{"bike_id":"de3f22d8-d5c7-49ef-acfa-1d837c23ad3a","system_id":"levelo_inurba_marseille","lat":43.2668,"lon":5.38275,"is_reserved":false,"is_disabled":false,"rental_uris":{"android":"levelo://app?vid=de3f22d8-d5c7-49ef-acfa-1d837c23ad3a","ios":"levelo://app?vid=de3f22d8-d5c7-49ef-acfa-1d837c23ad3a"},"vehicle_type_id":"4","last_reported":1745521687,"current_range_meters":13600,"station_id":"ce4bhg92rcd13ifvqf90","pricing_plan_id":"cebpf4jnsgd1na2vs0mg"},{"bike_id":"1be0eb9c-f13a-4528-a70c-da833c79b49f","system_id":"levelo_inurba_marseille","lat":43.29419,"lon":5.38631,"is_reserved":false,"is_disabled":true,"rental_uris":{"android":"levelo://app?vid=1be0eb9c-f13a-4528-a70c-da833c79b49f","ios":"levelo://app?vid=1be0eb9c-f13a-4528-a70c-da833c79b49f"},"vehicle_type_id":"4","last_reported":1745521687,"current_range_meters":14000,"station_id":"ce4bh2h2rcd13ifvqdh0","pricing_plan_id":"cebpf4jnsgd1na2vs0mg"},{"bike_id":"0e945859-fa31-40e1-b139-93bf53b136e5","system_id":"levelo_inurba_marseille","lat":43.29021,"lon":5.38643,"is_reserved":false,"is_disabled":true,"rental_uris":{"android":"levelo://app?vid=0e945859-fa31-40e1-b139-93bf53b136e5","ios":"levelo://app?vid=0e945859-fa31-40e1-b139-93bf53b136e5"},"vehicle_type_id":"4","last_reported":1745521687,"current_range_meters":14000,"station_id":"ce4bh4p2rcd13ifvqe0g","pricing_plan_id":"cebpf4jnsgd1na2vs0mg"},{"bike_id":"fc8ad34b-f073-47fd-9f8c-259d478099d3","system_id":"levelo_inurba_marseille","lat":43.27809,"lon":5.40719,"is_reserved":false,"is_disabled":false,"rental_uris":{"android":"levelo://app?vid=fc8ad34b-f073-47fd-9f8c-259d478099d3","ios":"levelo://app?vid=fc8ad34b-f073-47fd-9f8c-259d478099d3"},"vehicle_type_id":"4","last_reported":1745521687,"current_range_meters":14000,"station_id":"ce4bhnh2rcd13ifvqgtg","pricing_plan_id":"cebpf4jnsgd1na2vs0mg"},{"bike_id":"1f5bfeff-e157-4f8b-8695-1ae6365ca51b","system_id":"levelo_inurba_marseille","lat":43.25865,"lon":5.39897,"is_reserved":false,"is_disabled":false,"rental_uris":{"android":"levelo://app?vid=1f5bfeff-e157-4f8b-8695-1ae6365ca51b","ios":"levelo://app?vid=1f5bfeff-e157-4f8b-8695-1ae6365ca51b"},"vehicle_type_id":"4","last_reported":1745521687,"current_range_meters":14000,"station_id":"ce4bhl92rcd13ifvqghg","pricing_plan_id":"cebpf4jnsgd1na2vs0mg"},{"bike_id":"407859f8-ad6e-4706-b576-c01bcdb7c801","system_id":"levelo_inurba_marseille","lat":43.298543,"lon":5.362945,"is_reserved":false,"is_disabled":true,"rental_uris":{"android":"levelo://app?vid=407859f8-ad6e-4706-b576-c01bcdb7c801","ios":"levelo://app?vid=407859f8-ad6e-4706-b576-c01bcdb7c801"},"vehicle_type_id":"4","last_reported":1745521687,"current_range_meters":14000,"station_id":"ce4bgpp2rcd13ifvqc3g","pricing_plan_id":"cebpf4jnsgd1na2vs0mg"},{"bike_id":"539309ff-ced1-4291-94c1-a0893d75bc98","system_id":"levelo_inurba_marseille","lat":43.31889,"lon":5.40731,"is_reserved":false,"is_disabled":false,"rental_uris":{"android":"levelo://app?vid=539309ff-ced1-4291-94c1-a0893d75bc98","ios":"levelo://app?vid=539309ff-ced1-4291-94c1-a0893d75bc98"},"vehicle_type_id":"4","last_reported":1745521687,"current_range_meters":14000,"station_id":"ce4bhq12rcd13ifvqhig","pricing_plan_id":"cebpf4jnsgd1na2vs0mg"},{"bike_id":"8ee61a74-9edf-4ae5-8ffc-a11bda2dfe5c","system_id":"levelo_inurba_marseille","lat":43.29254,"lon":5.38434,"is_reserved":false,"is_disabled":false,"rental_uris":{"android":"levelo://app?vid=8ee61a74-9edf-4ae5-8ffc-a11bda2dfe5c","ios":"levelo://app?vid=8ee61a74-9edf-4ae5-8ffc-a11bda2dfe5c"},"vehicle_type_id":"4","last_reported":1745521687,"current_range_meters":14000,"station_id":"ce4bh692rcd13ifvqea0","pricing_plan_id":"cebpf4jnsgd1na2vs0mg"},{"bike_id":"1a9710f1-ea15-4d23-ba76-4dcc92aae46e","system_id":"levelo_inurba_marseille","lat":43.29293,"lon":5.37461,"is_reserved":false,"is_disabled":false,"rental_uris":{"android":"levelo://app?vid=1a9710f1-ea15-4d23-ba76-4dcc92aae46e","ios":"levelo://app?vid=1a9710f1-ea15-4d23-ba76-4dcc92aae46e"},"vehicle_type_id":"4","last_reported":1745521687,"current_range_meters":13600,"station_id":"ce4bgi12rcd13ifvqb70","pricing_plan_id":"cebpf4jnsgd1na2vs0mg"},{"bike_id":"0425aad2-a45e-4a1e-9725-6cc360a5fd67","system_id":"levelo_inurba_marseille","lat":43.30307,"lon":5.36895,"is_reserved":false,"is_disabled":false,"rental_uris":{"android":"levelo://app?vid=0425aad2-a45e-4a1e-9725-6cc360a5fd67","ios":"levelo://app?vid=0425aad2-a45e-4a1e-9725-6cc360a5fd67"},"vehicle_type_id":"4","last_reported":1745521687,"current_range_meters":14400,"station_id":"ce4bgqh2rcd13ifvqc5g","pricing_plan_id":"cebpf4jnsgd1na2vs0mg"},{"bike_id":"fa87f18e-33e5-43a8-b571-61486b34ddd5","system_id":"levelo_inurba_marseille","lat":43.31072,"lon":5.38352,"is_reserved":false,"is_disabled":false,"rental_uris":{"android":"levelo://app?vid=fa87f18e-33e5-43a8-b571-61486b34ddd5","ios":"levelo://app?vid=fa87f18e-33e5-43a8-b571-61486b34ddd5"},"vehicle_type_id":"4","last_reported":1745521687,"current_range_meters":14400,"station_id":"ce4bgv92rcd13ifvqcr0","pricing_plan_id":"cebpf4jnsgd1na2vs0mg"},{"bike_id":"33d53696-d5ed-4ac1-a283-ee738571a244","system_id":"levelo_inurba_marseille","lat":43.28372,"lon":5.38646,"is_reserved":false,"is_disabled":false,"rental_uris":{"android":"levelo://app?vid=33d53696-d5ed-4ac1-a283-ee738571a244","ios":"levelo://app?vid=33d53696-d5ed-4ac1-a283-ee738571a244"},"vehicle_type_id":"4","last_reported":1745521687,"current_range_meters":14800,"station_id":"ce4bh492rcd13ifvqdvg","pricing_plan_id":"cebpf4jnsgd1na2vs0mg"},{"bike_id":"e997fcef-63b7-47bf-95ed-0f99bc9e4f34","system_id":"levelo_inurba_marseille","lat":43.30888,"lon":5.39636,"is_reserved":false,"is_disabled":false,"rental_uris":{"android":"levelo://app?vid=e997fcef-63b7-47bf-95ed-0f99bc9e4f34","ios":"levelo://app?vid=e997fcef-63b7-47bf-95ed-0f99bc9e4f34"},"vehicle_type_id":"4","last_reported":1745521687,"current_range_meters":14800,"station_id":"ce4bh012rcd13ifvqcv0","pricing_plan_id":"cebpf4jnsgd1na2vs0mg"},{"bike_id":"7d98a36b-e481-40cb-8c42-a276218ea76f","system_id":"levelo_inurba_marseille","lat":43.2904,"lon":5.35912,"is_reserved":false,"is_disabled":false,"rental_uris":{"android":"levelo://app?vid=7d98a36b-e481-40cb-8c42-a276218ea76f","ios":"levelo://app?vid=7d98a36b-e481-40cb-8c42-a276218ea76f"},"vehicle_type_id":"4","last_reported":1745521687,"current_range_meters":14800,"station_id":"ce4bha92rcd13ifvqeg0","pricing_plan_id":"cebpf4jnsgd1na2vs0mg"},{"bike_id":"35e0752c-afe6-4cae-84a6-d74556a78578","system_id":"levelo_inurba_marseille","lat":43.2894,"lon":5.36631,"is_reserved":false,"is_disabled":false,"rental_uris":{"android":"levelo://app?vid=35e0752c-afe6-4cae-84a6-d74556a78578","ios":"levelo://app?vid=35e0752c-afe6-4cae-84a6-d74556a78578"},"vehicle_type_id":"4","last_reported":1745521687,"current_range_meters":14800,"station_id":"ce4bhap2rcd13ifvqek0","pricing_plan_id":"cebpf4jnsgd1na2vs0mg"},{"bike_id":"5c006ed8-57a7-482d-a255-403c40fa7edf","system_id":"levelo_inurba_marseille","lat":43.295155,"lon":5.390049,"is_reserved":false,"is_disabled":false,"rental_uris":{"android":"levelo://app?vid=5c006ed8-57a7-482d-a255-403c40fa7edf","ios":"levelo://app?vid=5c006ed8-57a7-482d-a255-403c40fa7edf"},"vehicle_type_id":"4","last_reported":1745521687,"current_range_meters":14800,"station_id":"ce4bhch2rcd13ifvqeug","pricing_plan_id":"cebpf4jnsgd1na2vs0mg"},{"bike_id":"1e41f8c3-3569-4425-a5e9-2dbf9dfee337","system_id":"levelo_inurba_marseille","lat":43.3112,"lon":5.3776,"is_reserved":false,"is_disabled":false,"rental_uris":{"android":"levelo://app?vid=1e41f8c3-3569-4425-a5e9-2dbf9dfee337","ios":"levelo://app?vid=1e41f8c3-3569-4425-a5e9-2dbf9dfee337"},"vehicle_type_id":"4","last_reported":1745521687,"current_range_meters":14800,"station_id":"ce4bgt92rcd13ifvqcg0","pricing_plan_id":"cebpf4jnsgd1na2vs0mg"},{"bike_id":"ec30c27c-48ca-44b5-b64c-3dd3dfeb5f53","system_id":"levelo_inurba_marseille","lat":43.23959,"lon":5.36629,"is_reserved":false,"is_disabled":false,"rental_uris":{"android":"levelo://app?vid=ec30c27c-48ca-44b5-b64c-3dd3dfeb5f53","ios":"levelo://app?vid=ec30c27c-48ca-44b5-b64c-3dd3dfeb5f53"},"vehicle_type_id":"4","last_reported":1745521687,"current_range_meters":14800,"station_id":"ce4bhi12rcd13ifvqfp0","pricing_plan_id":"cebpf4jnsgd1na2vs0mg"},{"bike_id":"92e7ff56-eb5d-40a3-b8ba-b1809334f881","system_id":"levelo_inurba_marseille","lat":43.29708,"lon":5.36608,"is_reserved":false,"is_disabled":false,"rental_uris":{"android":"levelo://app?vid=92e7ff56-eb5d-40a3-b8ba-b1809334f881","ios":"levelo://app?vid=92e7ff56-eb5d-40a3-b8ba-b1809334f881"},"vehicle_type_id":"4","last_reported":1745521687,"current_range_meters":14800,"station_id":"","pricing_plan_id":"cebpf4jnsgd1na2vs0mg"},{"bike_id":"5f34ad22-5e6e-4c21-9523-8c904582233c","system_id":"levelo_inurba_marseille","lat":43.23975,"lon":5.36626,"is_reserved":false,"is_disabled":false,"rental_uris":{"android":"levelo://app?vid=5f34ad22-5e6e-4c21-9523-8c904582233c","ios":"levelo://app?vid=5f34ad22-5e6e-4c21-9523-8c904582233c"},"vehicle_type_id":"4","last_reported":1745521687,"current_range_meters":15200,"station_id":"ce4bhi12rcd13ifvqfp0","pricing_plan_id":"cebpf4jnsgd1na2vs0mg"},{"bike_id":"1a9b9ba2-6e5a-4697-beb7-5c65923a8b43","system_id":"levelo_inurba_marseille","lat":43.26777,"lon":5.39439,"is_reserved":false,"is_disabled":true,"rental_uris":{"android":"levelo://app?vid=1a9b9ba2-6e5a-4697-beb7-5c65923a8b43","ios":"levelo://app?vid=1a9b9ba2-6e5a-4697-beb7-5c65923a8b43"},"vehicle_type_id":"4","last_reported":1745521687,"current_range_meters":15200,"station_id":"ce4bhh12rcd13ifvqfg0","pricing_plan_id":"cebpf4jnsgd1na2vs0mg"},{"bike_id":"cd906bce-52be-45be-8f08-cdeb623de131","system_id":"levelo_inurba_marseille","lat":43.28185,"lon":5.40377,"is_reserved":false,"is_disabled":false,"rental_uris":{"android":"levelo://app?vid=cd906bce-52be-45be-8f08-cdeb623de131","ios":"levelo://app?vid=cd906bce-52be-45be-8f08-cdeb623de131"},"vehicle_type_id":"4","last_reported":1745521687,"current_range_meters":15200,"station_id":"","pricing_plan_id":"cebpf4jnsgd1na2vs0mg"},{"bike_id":"24d894ab-7267-4b40-99af-b1bffdb7623b","system_id":"levelo_inurba_marseille","lat":43.30412,"lon":5.41284,"is_reserved":false,"is_disabled":false,"rental_uris":{"android":"levelo://app?vid=24d894ab-7267-4b40-99af-b1bffdb7623b","ios":"levelo://app?vid=24d894ab-7267-4b40-99af-b1bffdb7623b"},"vehicle_type_id":"4","last_reported":1745521687,"current_range_meters":15200,"station_id":"ce4bhop2rcd13ifvqh8g","pricing_plan_id":"cebpf4jnsgd1na2vs0mg"},{"bike_id":"3c919670-1e4a-4f92-9459-62f068006c72","system_id":"levelo_inurba_marseille","lat":43.299316,"lon":5.365552,"is_reserved":false,"is_disabled":false,"rental_uris":{"android":"levelo://app?vid=3c919670-1e4a-4f92-9459-62f068006c72","ios":"levelo://app?vid=3c919670-1e4a-4f92-9459-62f068006c72"},"vehicle_type_id":"4","last_reported":1745521687,"current_range_meters":15200,"station_id":"ce4bhsp2rcd13ifvqi50","pricing_plan_id":"cebpf4jnsgd1na2vs0mg"},{"bike_id":"2d639d22-5a03-4892-8059-3476a1fbb7aa","system_id":"levelo_inurba_marseille","lat":43.29305,"lon":5.37177,"is_reserved":false,"is_disabled":false,"rental_uris":{"android":"levelo://app?vid=2d639d22-5a03-4892-8059-3476a1fbb7aa","ios":"levelo://app?vid=2d639d22-5a03-4892-8059-3476a1fbb7aa"},"vehicle_type_id":"4","last_reported":1745521687,"current_range_meters":15200,"station_id":"ce4bgh92rcd13ifvqb40","pricing_plan_id":"cebpf4jnsgd1na2vs0mg"},{"bike_id":"0f02c74b-42d9-45f1-8b2a-daef514ef4c6","system_id":"levelo_inurba_marseille","lat":43.31756,"lon":5.3902,"is_reserved":false,"is_disabled":false,"rental_uris":{"android":"levelo://app?vid=0f02c74b-42d9-45f1-8b2a-daef514ef4c6","ios":"levelo://app?vid=0f02c74b-42d9-45f1-8b2a-daef514ef4c6"},"vehicle_type_id":"4","last_reported":1745521687,"current_range_meters":15200,"station_id":"ce4bhqp2rcd13ifvqhng","pricing_plan_id":"cebpf4jnsgd1na2vs0mg"},{"bike_id":"f1ba5a69-d5b0-42fd-b84c-30487f007562","system_id":"levelo_inurba_marseille","lat":43.30333,"lon":5.36856,"is_reserved":false,"is_disabled":false,"rental_uris":{"android":"levelo://app?vid=f1ba5a69-d5b0-42fd-b84c-30487f007562","ios":"levelo://app?vid=f1ba5a69-d5b0-42fd-b84c-30487f007562"},"vehicle_type_id":"4","last_reported":1745521687,"current_range_meters":15200,"station_id":"ce4bgqh2rcd13ifvqc5g","pricing_plan_id":"cebpf4jnsgd1na2vs0mg"},{"bike_id":"62753487-b726-4a2a-a62f-df0c6288faab","system_id":"levelo_inurba_marseille","lat":43.29016,"lon":5.38649,"is_reserved":false,"is_disabled":false,"rental_uris":{"android":"levelo://app?vid=62753487-b726-4a2a-a62f-df0c6288faab","ios":"levelo://app?vid=62753487-b726-4a2a-a62f-df0c6288faab"},"vehicle_type_id":"4","last_reported":1745521687,"current_range_meters":16000,"station_id":"ce4bh4p2rcd13ifvqe0g","pricing_plan_id":"cebpf4jnsgd1na2vs0mg"},{"bike_id":"cedb532b-0606-4458-a20c-f7f951f69830","system_id":"levelo_inurba_marseille","lat":43.25082,"lon":5.39527,"is_reserved":false,"is_disabled":false,"rental_uris":{"android":"levelo://app?vid=cedb532b-0606-4458-a20c-f7f951f69830","ios":"levelo://app?vid=cedb532b-0606-4458-a20c-f7f951f69830"},"vehicle_type_id":"4","last_reported":1745521687,"current_range_meters":16000,"station_id":"ce4bhm12rcd13ifvqgkg","pricing_plan_id":"cebpf4jnsgd1na2vs0mg"},{"bike_id":"cb28eabc-c696-45ea-9191-5a925b6ee6da","system_id":"levelo_inurba_marseille","lat":43.286169,"lon":5.350976,"is_reserved":false,"is_disabled":false,"rental_uris":{"android":"levelo://app?vid=cb28eabc-c696-45ea-9191-5a925b6ee6da","ios":"levelo://app?vid=cb28eabc-c696-45ea-9191-5a925b6ee6da"},"vehicle_type_id":"4","last_reported":1745521687,"current_range_meters":16000,"station_id":"ce4bhch2rcd13ifvqeug","pricing_plan_id":"cebpf4jnsgd1na2vs0mg"},{"bike_id":"7f5db532-4e4a-457a-842d-6fae05cae46d","system_id":"levelo_inurba_marseille","lat":43.30835,"lon":5.43508,"is_reserved":false,"is_disabled":false,"rental_uris":{"android":"levelo://app?vid=7f5db532-4e4a-457a-842d-6fae05cae46d","ios":"levelo://app?vid=7f5db532-4e4a-457a-842d-6fae05cae46d"},"vehicle_type_id":"4","last_reported":1745521687,"current_range_meters":16000,"station_id":"ce4bhph2rcd13ifvqheg","pricing_plan_id":"cebpf4jnsgd1na2vs0mg"},{"bike_id":"00778650-e08a-4011-95d9-fa9e1b3ec789","system_id":"levelo_inurba_marseille","lat":43.28038,"lon":5.36937,"is_reserved":false,"is_disabled":false,"rental_uris":{"android":"levelo://app?vid=00778650-e08a-4011-95d9-fa9e1b3ec789","ios":"levelo://app?vid=00778650-e08a-4011-95d9-fa9e1b3ec789"},"vehicle_type_id":"4","last_reported":1745521687,"current_range_meters":16000,"station_id":"ce4bha12rcd13ifvqef0","pricing_plan_id":"cebpf4jnsgd1na2vs0mg"},{"bike_id":"a086b419-5cc2-4c2d-8c0e-aac366cc25bf","system_id":"levelo_inurba_marseille","lat":43.29216,"lon":5.36043,"is_reserved":false,"is_disabled":false,"rental_uris":{"android":"levelo://app?vid=a086b419-5cc2-4c2d-8c0e-aac366cc25bf","ios":"levelo://app?vid=a086b419-5cc2-4c2d-8c0e-aac366cc25bf"},"vehicle_type_id":"4","last_reported":1745521687,"current_range_meters":16000,"station_id":"ce4bhbh2rcd13ifvqeqg","pricing_plan_id":"cebpf4jnsgd1na2vs0mg"},{"bike_id":"de7e6942-0598-41fd-8793-9e15af67f7d0","system_id":"levelo_inurba_marseille","lat":43.27959,"lon":5.38742,"is_reserved":false,"is_disabled":false,"rental_uris":{"android":"levelo://app?vid=de7e6942-0598-41fd-8793-9e15af67f7d0","ios":"levelo://app?vid=de7e6942-0598-41fd-8793-9e15af67f7d0"},"vehicle_type_id":"4","last_reported":1745521687,"current_range_meters":16000,"station_id":"ce4bhg12rcd13ifvqf80","pricing_plan_id":"cebpf4jnsgd1na2vs0mg"},{"bike_id":"68083c12-b309-44b0-8d71-7e38dc1db9d9","system_id":"levelo_inurba_marseille","lat":43.28848,"lon":5.35847,"is_reserved":false,"is_disabled":false,"rental_uris":{"android":"levelo://app?vid=68083c12-b309-44b0-8d71-7e38dc1db9d9","ios":"levelo://app?vid=68083c12-b309-44b0-8d71-7e38dc1db9d9"},"vehicle_type_id":"4","last_reported":1745521687,"current_range_meters":16000,"station_id":"ce4bhb12rcd13ifvqem0","pricing_plan_id":"cebpf4jnsgd1na2vs0mg"},{"bike_id":"e9a21c53-60df-427d-a493-6cb80e0d321b","system_id":"levelo_inurba_marseille","lat":43.30876,"lon":5.39633,"is_reserved":false,"is_disabled":false,"rental_uris":{"android":"levelo://app?vid=e9a21c53-60df-427d-a493-6cb80e0d321b","ios":"levelo://app?vid=e9a21c53-60df-427d-a493-6cb80e0d321b"},"vehicle_type_id":"4","last_reported":1745521687,"current_range_meters":16400,"station_id":"ce4bh012rcd13ifvqcv0","pricing_plan_id":"cebpf4jnsgd1na2vs0mg"},{"bike_id":"927a350a-9924-44cb-a179-3057864421f2","system_id":"levelo_inurba_marseille","lat":43.30602,"lon":5.37226,"is_reserved":false,"is_disabled":false,"rental_uris":{"android":"levelo://app?vid=927a350a-9924-44cb-a179-3057864421f2","ios":"levelo://app?vid=927a350a-9924-44cb-a179-3057864421f2"},"vehicle_type_id":"4","last_reported":1745521687,"current_range_meters":16400,"station_id":"ce4bgqh2rcd13ifvqc4g","pricing_plan_id":"cebpf4jnsgd1na2vs0mg"},{"bike_id":"62387340-66e4-4d2e-bd5e-f50c0b4e1c59","system_id":"levelo_inurba_marseille","lat":43.29276,"lon":5.36844,"is_reserved":false,"is_disabled":false,"rental_uris":{"android":"levelo://app?vid=62387340-66e4-4d2e-bd5e-f50c0b4e1c59","ios":"levelo://app?vid=62387340-66e4-4d2e-bd5e-f50c0b4e1c59"},"vehicle_type_id":"4","last_reported":1745521687,"current_range_meters":16400,"station_id":"ce4bhbp2rcd13ifvqesg","pricing_plan_id":"cebpf4jnsgd1na2vs0mg"},{"bike_id":"0e677427-8d60-4b75-92c0-3cc225e20f0d","system_id":"levelo_inurba_marseille","lat":43.29018,"lon":5.38647,"is_reserved":false,"is_disabled":false,"rental_uris":{"android":"levelo://app?vid=0e677427-8d60-4b75-92c0-3cc225e20f0d","ios":"levelo://app?vid=0e677427-8d60-4b75-92c0-3cc225e20f0d"},"vehicle_type_id":"4","last_reported":1745521687,"current_range_meters":16400,"station_id":"ce4bh4p2rcd13ifvqe0g","pricing_plan_id":"cebpf4jnsgd1na2vs0mg"},{"bike_id":"6d0168cf-c80b-4dc8-ab9e-bfd12039bef2","system_id":"levelo_inurba_marseille","lat":43.26493,"lon":5.39533,"is_reserved":false,"is_disabled":false,"rental_uris":{"android":"levelo://app?vid=6d0168cf-c80b-4dc8-ab9e-bfd12039bef2","ios":"levelo://app?vid=6d0168cf-c80b-4dc8-ab9e-bfd12039bef2"},"vehicle_type_id":"4","last_reported":1745521687,"current_range_meters":16400,"station_id":"ce4bhi12rcd13ifvqfq0","pricing_plan_id":"cebpf4jnsgd1na2vs0mg"},{"bike_id":"412e5a09-ef3c-4c88-8f5e-5e78bcd83412","system_id":"levelo_inurba_marseille","lat":43.27372,"lon":5.36257,"is_reserved":false,"is_disabled":false,"rental_uris":{"android":"levelo://app?vid=412e5a09-ef3c-4c88-8f5e-5e78bcd83412","ios":"levelo://app?vid=412e5a09-ef3c-4c88-8f5e-5e78bcd83412"},"vehicle_type_id":"4","last_reported":1745521687,"current_range_meters":16400,"station_id":"ce4bhbh2rcd13ifvqeo0","pricing_plan_id":"cebpf4jnsgd1na2vs0mg"},{"bike_id":"01e7d871-7e01-484b-8138-b82bf6369c87","system_id":"levelo_inurba_marseille","lat":43.28414,"lon":5.34999,"is_reserved":false,"is_disabled":false,"rental_uris":{"android":"levelo://app?vid=01e7d871-7e01-484b-8138-b82bf6369c87","ios":"levelo://app?vid=01e7d871-7e01-484b-8138-b82bf6369c87"},"vehicle_type_id":"4","last_reported":1745521687,"current_range_meters":16400,"station_id":"ce4bhbh2rcd13ifvqepg","pricing_plan_id":"cebpf4jnsgd1na2vs0mg"},{"bike_id":"649cec00-1975-4b7f-b130-078b70de9676","system_id":"levelo_inurba_marseille","lat":43.25504,"lon":5.37651,"is_reserved":false,"is_disabled":true,"rental_uris":{"android":"levelo://app?vid=649cec00-1975-4b7f-b130-078b70de9676","ios":"levelo://app?vid=649cec00-1975-4b7f-b130-078b70de9676"},"vehicle_type_id":"4","last_reported":1745521687,"current_range_meters":16400,"station_id":"ce4bhh12rcd13ifvqff0","pricing_plan_id":"cebpf4jnsgd1na2vs0mg"},{"bike_id":"7fc5ed43-b2c3-4cf7-b081-488a7cbcc12f","system_id":"levelo_inurba_marseille","lat":43.33034,"lon":5.39009,"is_reserved":false,"is_disabled":false,"rental_uris":{"android":"levelo://app?vid=7fc5ed43-b2c3-4cf7-b081-488a7cbcc12f","ios":"levelo://app?vid=7fc5ed43-b2c3-4cf7-b081-488a7cbcc12f"},"vehicle_type_id":"4","last_reported":1745521687,"current_range_meters":16400,"station_id":"ce4bhr92rcd13ifvqhrg","pricing_plan_id":"cebpf4jnsgd1na2vs0mg"},{"bike_id":"5c8dde23-03af-4ec7-8c64-b6a7b95cfa5a","system_id":"levelo_inurba_marseille","lat":43.337257,"lon":5.39179,"is_reserved":false,"is_disabled":false,"rental_uris":{"android":"levelo://app?vid=5c8dde23-03af-4ec7-8c64-b6a7b95cfa5a","ios":"levelo://app?vid=5c8dde23-03af-4ec7-8c64-b6a7b95cfa5a"},"vehicle_type_id":"4","last_reported":1745521687,"current_range_meters":16400,"station_id":"ce4bhr92rcd13ifvqhsg","pricing_plan_id":"cebpf4jnsgd1na2vs0mg"},{"bike_id":"844bea76-b19f-49aa-8faf-017738c4a388","system_id":"levelo_inurba_marseille","lat":43.27921,"lon":5.39581,"is_reserved":false,"is_disabled":false,"rental_uris":{"android":"levelo://app?vid=844bea76-b19f-49aa-8faf-017738c4a388","ios":"levelo://app?vid=844bea76-b19f-49aa-8faf-017738c4a388"},"vehicle_type_id":"4","last_reported":1745521687,"current_range_meters":16400,"station_id":"ce4bhf92rcd13ifvqf40","pricing_plan_id":"cebpf4jnsgd1na2vs0mg"},{"bike_id":"a5b807e2-0dcd-4c88-a997-bb37c582102d","system_id":"levelo_inurba_marseille","lat":43.3042,"lon":5.37183,"is_reserved":false,"is_disabled":false,"rental_uris":{"android":"levelo://app?vid=a5b807e2-0dcd-4c88-a997-bb37c582102d","ios":"levelo://app?vid=a5b807e2-0dcd-4c88-a997-bb37c582102d"},"vehicle_type_id":"4","last_reported":1745521687,"current_range_meters":16800,"station_id":"","pricing_plan_id":"cebpf4jnsgd1na2vs0mg"},{"bike_id":"f1be4ef7-3835-4b3c-9599-415461319fd7","system_id":"levelo_inurba_marseille","lat":43.31176,"lon":5.38726,"is_reserved":false,"is_disabled":false,"rental_uris":{"android":"levelo://app?vid=f1be4ef7-3835-4b3c-9599-415461319fd7","ios":"levelo://app?vid=f1be4ef7-3835-4b3c-9599-415461319fd7"},"vehicle_type_id":"4","last_reported":1745521687,"current_range_meters":16800,"station_id":"ce4bgv12rcd13ifvqcp0","pricing_plan_id":"cebpf4jnsgd1na2vs0mg"},{"bike_id":"aeff5af1-65e2-470b-ad14-26104fb2a1c5","system_id":"levelo_inurba_marseille","lat":43.28155,"lon":5.42643,"is_reserved":false,"is_disabled":false,"rental_uris":{"android":"levelo://app?vid=aeff5af1-65e2-470b-ad14-26104fb2a1c5","ios":"levelo://app?vid=aeff5af1-65e2-470b-ad14-26104fb2a1c5"},"vehicle_type_id":"4","last_reported":1745521687,"current_range_meters":16800,"station_id":"ce4bhnh2rcd13ifvqgug","pricing_plan_id":"cebpf4jnsgd1na2vs0mg"},{"bike_id":"9e9e4114-a05a-4c5e-9f96-6c201042ecfd","system_id":"levelo_inurba_marseille","lat":43.32373,"lon":5.38897,"is_reserved":false,"is_disabled":false,"rental_uris":{"android":"levelo://app?vid=9e9e4114-a05a-4c5e-9f96-6c201042ecfd","ios":"levelo://app?vid=9e9e4114-a05a-4c5e-9f96-6c201042ecfd"},"vehicle_type_id":"4","last_reported":1745521687,"current_range_meters":17200,"station_id":"ce4bhqp2rcd13ifvqhog","pricing_plan_id":"cebpf4jnsgd1na2vs0mg"},{"bike_id":"d5d0d3be-83e0-40cf-babc-0a85efac44ee","system_id":"levelo_inurba_marseille","lat":43.2439,"lon":5.37049,"is_reserved":false,"is_disabled":false,"rental_uris":{"android":"levelo://app?vid=d5d0d3be-83e0-40cf-babc-0a85efac44ee","ios":"levelo://app?vid=d5d0d3be-83e0-40cf-babc-0a85efac44ee"},"vehicle_type_id":"4","last_reported":1745521687,"current_range_meters":17200,"station_id":"ce4bhhh2rcd13ifvqfk0","pricing_plan_id":"cebpf4jnsgd1na2vs0mg"},{"bike_id":"7597f9f7-581e-4aa1-9ea0-a72928416a0e","system_id":"levelo_inurba_marseille","lat":43.30324,"lon":5.39181,"is_reserved":false,"is_disabled":true,"rental_uris":{"android":"levelo://app?vid=7597f9f7-581e-4aa1-9ea0-a72928416a0e","ios":"levelo://app?vid=7597f9f7-581e-4aa1-9ea0-a72928416a0e"},"vehicle_type_id":"4","last_reported":1745521687,"current_range_meters":17200,"station_id":"ce4bgkh2rcd13ifvqbk0","pricing_plan_id":"cebpf4jnsgd1na2vs0mg"},{"bike_id":"f577c520-0907-4453-975b-4f68ddb3f606","system_id":"levelo_inurba_marseille","lat":43.28416,"lon":5.34998,"is_reserved":false,"is_disabled":false,"rental_uris":{"android":"levelo://app?vid=f577c520-0907-4453-975b-4f68ddb3f606","ios":"levelo://app?vid=f577c520-0907-4453-975b-4f68ddb3f606"},"vehicle_type_id":"4","last_reported":1745521687,"current_range_meters":17200,"station_id":"ce4bhbh2rcd13ifvqepg","pricing_plan_id":"cebpf4jnsgd1na2vs0mg"},{"bike_id":"e2dcabcf-64d8-4394-bb9a-ff877bee611a","system_id":"levelo_inurba_marseille","lat":43.32064,"lon":5.41502,"is_reserved":false,"is_disabled":false,"rental_uris":{"android":"levelo://app?vid=e2dcabcf-64d8-4394-bb9a-ff877bee611a","ios":"levelo://app?vid=e2dcabcf-64d8-4394-bb9a-ff877bee611a"},"vehicle_type_id":"4","last_reported":1745521687,"current_range_meters":17200,"station_id":"","pricing_plan_id":"cebpf4jnsgd1na2vs0mg"},{"bike_id":"5c880070-a28a-4a57-a6ea-4bc3b65b71e9","system_id":"levelo_inurba_marseille","lat":43.31168,"lon":5.38714,"is_reserved":false,"is_disabled":false,"rental_uris":{"android":"levelo://app?vid=5c880070-a28a-4a57-a6ea-4bc3b65b71e9","ios":"levelo://app?vid=5c880070-a28a-4a57-a6ea-4bc3b65b71e9"},"vehicle_type_id":"4","last_reported":1745521687,"current_range_meters":17200,"station_id":"ce4bgv12rcd13ifvqcp0","pricing_plan_id":"cebpf4jnsgd1na2vs0mg"},{"bike_id":"5ea92885-4784-424e-bbd0-fe10a23b8f63","system_id":"levelo_inurba_marseille","lat":43.24675,"lon":5.38135,"is_reserved":false,"is_disabled":false,"rental_uris":{"android":"levelo://app?vid=5ea92885-4784-424e-bbd0-fe10a23b8f63","ios":"levelo://app?vid=5ea92885-4784-424e-bbd0-fe10a23b8f63"},"vehicle_type_id":"4","last_reported":1745521687,"current_range_meters":17200,"station_id":"ce4bhih2rcd13ifvqfr0","pricing_plan_id":"cebpf4jnsgd1na2vs0mg"},{"bike_id":"c3721006-7b34-4ca8-be85-027727c3f2af","system_id":"levelo_inurba_marseille","lat":43.28485,"lon":5.38379,"is_reserved":false,"is_disabled":true,"rental_uris":{"android":"levelo://app?vid=c3721006-7b34-4ca8-be85-027727c3f2af","ios":"levelo://app?vid=c3721006-7b34-4ca8-be85-027727c3f2af"},"vehicle_type_id":"4","last_reported":1745521687,"current_range_meters":17200,"station_id":"ce4bh512rcd13ifvqe3g","pricing_plan_id":"cebpf4jnsgd1na2vs0mg"},{"bike_id":"389081e5-a59f-4bb8-ae5b-d14b07648eda","system_id":"levelo_inurba_marseille","lat":43.25102,"lon":5.40332,"is_reserved":false,"is_disabled":true,"rental_uris":{"android":"levelo://app?vid=389081e5-a59f-4bb8-ae5b-d14b07648eda","ios":"levelo://app?vid=389081e5-a59f-4bb8-ae5b-d14b07648eda"},"vehicle_type_id":"4","last_reported":1745521687,"current_range_meters":17200,"station_id":"ce4bhlh2rcd13ifvqgig","pricing_plan_id":"cebpf4jnsgd1na2vs0mg"},{"bike_id":"7118bf10-9fb2-41dc-8a11-2390118c23b1","system_id":"levelo_inurba_marseille","lat":43.30793,"lon":5.38161,"is_reserved":false,"is_disabled":false,"rental_uris":{"android":"levelo://app?vid=7118bf10-9fb2-41dc-8a11-2390118c23b1","ios":"levelo://app?vid=7118bf10-9fb2-41dc-8a11-2390118c23b1"},"vehicle_type_id":"4","last_reported":1745521687,"current_range_meters":17200,"station_id":"ce4bgt12rcd13ifvqce0","pricing_plan_id":"cebpf4jnsgd1na2vs0mg"},{"bike_id":"2080fb6d-2adb-4162-9f68-ed56003f6114","system_id":"levelo_inurba_marseille","lat":43.28404,"lon":5.34997,"is_reserved":false,"is_disabled":false,"rental_uris":{"android":"levelo://app?vid=2080fb6d-2adb-4162-9f68-ed56003f6114","ios":"levelo://app?vid=2080fb6d-2adb-4162-9f68-ed56003f6114"},"vehicle_type_id":"4","last_reported":1745521687,"current_range_meters":17200,"station_id":"ce4bhbh2rcd13ifvqepg","pricing_plan_id":"cebpf4jnsgd1na2vs0mg"},{"bike_id":"b4a005c4-1bcb-41d0-9af1-69cce2fdedda","system_id":"levelo_inurba_marseille","lat":43.31122,"lon":5.3775,"is_reserved":false,"is_disabled":false,"rental_uris":{"android":"levelo://app?vid=b4a005c4-1bcb-41d0-9af1-69cce2fdedda","ios":"levelo://app?vid=b4a005c4-1bcb-41d0-9af1-69cce2fdedda"},"vehicle_type_id":"4","last_reported":1745521687,"current_range_meters":17200,"station_id":"ce4bgt92rcd13ifvqcg0","pricing_plan_id":"cebpf4jnsgd1na2vs0mg"},{"bike_id":"2a140326-ddbb-46a1-a5db-90eb7fcb56e5","system_id":"levelo_inurba_marseille","lat":43.28103,"lon":5.37835,"is_reserved":false,"is_disabled":false,"rental_uris":{"android":"levelo://app?vid=2a140326-ddbb-46a1-a5db-90eb7fcb56e5","ios":"levelo://app?vid=2a140326-ddbb-46a1-a5db-90eb7fcb56e5"},"vehicle_type_id":"4","last_reported":1745521687,"current_range_meters":17200,"station_id":"ce4bha12rcd13ifvqee0","pricing_plan_id":"cebpf4jnsgd1na2vs0mg"},{"bike_id":"ed817ff6-2b8f-4998-ae7c-830fc998e6ee","system_id":"levelo_inurba_marseille","lat":43.25704,"lon":5.41112,"is_reserved":false,"is_disabled":false,"rental_uris":{"android":"levelo://app?vid=ed817ff6-2b8f-4998-ae7c-830fc998e6ee","ios":"levelo://app?vid=ed817ff6-2b8f-4998-ae7c-830fc998e6ee"},"vehicle_type_id":"4","last_reported":1745521687,"current_range_meters":17600,"station_id":"ce4bhkp2rcd13ifvqgd0","pricing_plan_id":"cebpf4jnsgd1na2vs0mg"},{"bike_id":"1b8a82dd-1c7d-4ea2-8a4e-e198158320b5","system_id":"levelo_inurba_marseille","lat":43.25705,"lon":5.41123,"is_reserved":false,"is_disabled":false,"rental_uris":{"android":"levelo://app?vid=1b8a82dd-1c7d-4ea2-8a4e-e198158320b5","ios":"levelo://app?vid=1b8a82dd-1c7d-4ea2-8a4e-e198158320b5"},"vehicle_type_id":"4","last_reported":1745521687,"current_range_meters":17600,"station_id":"ce4bhkp2rcd13ifvqgd0","pricing_plan_id":"cebpf4jnsgd1na2vs0mg"},{"bike_id":"f437bbcd-3bc3-4220-9dfe-08d3eac84ba1","system_id":"levelo_inurba_marseille","lat":43.28616,"lon":5.35094,"is_reserved":false,"is_disabled":true,"rental_uris":{"android":"levelo://app?vid=f437bbcd-3bc3-4220-9dfe-08d3eac84ba1","ios":"levelo://app?vid=f437bbcd-3bc3-4220-9dfe-08d3eac84ba1"},"vehicle_type_id":"4","last_reported":1745521687,"current_range_meters":17600,"station_id":"ce4bhch2rcd13ifvqeug","pricing_plan_id":"cebpf4jnsgd1na2vs0mg"},{"bike_id":"0bfff189-ec6a-4439-b345-e9dd168ab867","system_id":"levelo_inurba_marseille","lat":43.33726,"lon":5.39183,"is_reserved":false,"is_disabled":false,"rental_uris":{"android":"levelo://app?vid=0bfff189-ec6a-4439-b345-e9dd168ab867","ios":"levelo://app?vid=0bfff189-ec6a-4439-b345-e9dd168ab867"},"vehicle_type_id":"4","last_reported":1745521687,"current_range_meters":17600,"station_id":"ce4bhr92rcd13ifvqhsg","pricing_plan_id":"cebpf4jnsgd1na2vs0mg"},{"bike_id":"826fca19-d95d-4662-84f0-05425ef5d8a6","system_id":"levelo_inurba_marseille","lat":43.22933,"lon":5.35376,"is_reserved":false,"is_disabled":false,"rental_uris":{"android":"levelo://app?vid=826fca19-d95d-4662-84f0-05425ef5d8a6","ios":"levelo://app?vid=826fca19-d95d-4662-84f0-05425ef5d8a6"},"vehicle_type_id":"4","last_reported":1745521687,"current_range_meters":18000,"station_id":"cpo3532slgdg3j2ikp40","pricing_plan_id":"cebpf4jnsgd1na2vs0mg"},{"bike_id":"2759a6c5-110d-4b00-b350-f2767a09f7a2","system_id":"levelo_inurba_marseille","lat":43.29877,"lon":5.39743,"is_reserved":false,"is_disabled":false,"rental_uris":{"android":"levelo://app?vid=2759a6c5-110d-4b00-b350-f2767a09f7a2","ios":"levelo://app?vid=2759a6c5-110d-4b00-b350-f2767a09f7a2"},"vehicle_type_id":"4","last_reported":1745521687,"current_range_meters":18000,"station_id":"ce4bh0h2rcd13ifvqd50","pricing_plan_id":"cebpf4jnsgd1na2vs0mg"},{"bike_id":"a9d0e1d6-6137-4bfd-8c12-88c836857132","system_id":"levelo_inurba_marseille","lat":43.33589,"lon":5.41007,"is_reserved":false,"is_disabled":false,"rental_uris":{"android":"levelo://app?vid=a9d0e1d6-6137-4bfd-8c12-88c836857132","ios":"levelo://app?vid=a9d0e1d6-6137-4bfd-8c12-88c836857132"},"vehicle_type_id":"4","last_reported":1745521687,"current_range_meters":18000,"station_id":"ce4bhqh2rcd13ifvqhmg","pricing_plan_id":"cebpf4jnsgd1na2vs0mg"},{"bike_id":"e94d0af5-5636-4084-8f82-fe0b8c3cb48f","system_id":"levelo_inurba_marseille","lat":43.29268,"lon":5.38439,"is_reserved":false,"is_disabled":false,"rental_uris":{"android":"levelo://app?vid=e94d0af5-5636-4084-8f82-fe0b8c3cb48f","ios":"levelo://app?vid=e94d0af5-5636-4084-8f82-fe0b8c3cb48f"},"vehicle_type_id":"4","last_reported":1745521687,"current_range_meters":18000,"station_id":"ce4bh692rcd13ifvqea0","pricing_plan_id":"cebpf4jnsgd1na2vs0mg"},{"bike_id":"a9784e4d-72f3-45a0-bc5c-6a48517d28d6","system_id":"levelo_inurba_marseille","lat":43.33032,"lon":5.3905,"is_reserved":false,"is_disabled":false,"rental_uris":{"android":"levelo://app?vid=a9784e4d-72f3-45a0-bc5c-6a48517d28d6","ios":"levelo://app?vid=a9784e4d-72f3-45a0-bc5c-6a48517d28d6"},"vehicle_type_id":"4","last_reported":1745521687,"current_range_meters":18000,"station_id":"ce4bhr92rcd13ifvqhrg","pricing_plan_id":"cebpf4jnsgd1na2vs0mg"},{"bike_id":"b61fafd0-5a56-4c0b-8ccc-c3b33903ec34","system_id":"levelo_inurba_marseille","lat":43.24803,"lon":5.37451,"is_reserved":false,"is_disabled":false,"rental_uris":{"android":"levelo://app?vid=b61fafd0-5a56-4c0b-8ccc-c3b33903ec34","ios":"levelo://app?vid=b61fafd0-5a56-4c0b-8ccc-c3b33903ec34"},