{"last_updated":1730930937,"ttl":60,"version":"2.2","data":{"bikes":[{"bike_id":"ad7bd7b0-39aa-4255-b369-36ca8455a7df","system_id":"levelo_inurba_marseille","lat":43.31996,"lon":5.38146,"is_reserved":false,"is_disabled":false,"rental_uris":{"android":"levelo://app?vid=ad7bd7b0-39aa-4255-b369-36ca8455a7df","ios":"levelo://app?vid=ad7bd7b0-39aa-4255-b369-36ca8455a7df"},"vehicle_type_id":"4","last_reported":1730930937,"current_range_meters":30400,"station_id":"ce4bhr12rcd13ifvqhpg","pricing_plan_id":"cebpf4jnsgd1na2vs0mg"},{"bike_id":"ba0c072f-8c4a-4fe5-8b96-6570b7e9c09c","system_id":"levelo_inurba_marseille","lat":43.30891,"lon":5.39621,"is_reserved":false,"is_disabled":false,"rental_uris":{"android":"levelo://app?vid=ba0c072f-8c4a-4fe5-8b96-6570b7e9c09c","ios":"levelo://app?vid=ba0c072f-8c4a-4fe5-8b96-6570b7e9c09c"},"vehicle_type_id":"4","last_reported":1730930937,"current_range_meters":28400,"station_id":"ce4bh012rcd13ifvqcv0","pricing_plan_id":"cebpf4jnsgd1na2vs0mg"},{"bike_id":"9fc02c53-055a-440d-a952-05755c2d8906","system_id":"levelo_inurba_marseille","lat":43.28567,"lon":5.39487,"is_reserved":false,"is_disabled":false,"rental_uris":{"android":"levelo://app?vid=9fc02c53-055a-440d-a952-05755c2d8906","ios":"levelo://app?vid=9fc02c53-055a-440d-a952-05755c2d8906"},"vehicle_type_id":"4","last_reported":1730930937,"current_range_meters":18800,"station_id":"ce4bh292rcd13ifvqdg0","pricing_plan_id":"cebpf4jnsgd1na2vs0mg"},{"bike_id":"e8e9bdd7-0c79-42d3-ab62-c6dc8d47a11b","system_id":"levelo_inurba_marseille","lat":43.24388,"lon":5.37061,"is_reserved":false,"is_disabled":false,"rental_uris":{"android":"levelo://app?vid=e8e9bdd7-0c79-42d3-ab62-c6dc8d47a11b","ios":"levelo://app?vid=e8e9bdd7-0c79-42d3-ab62-c6dc8d47a11b"},"vehicle_type_id":"4","last_reported":1730930937,"current_range_meters":17200,"station_id":"ce4bhhh2rcd13ifvqfk0","pricing_plan_id":"cebpf4jnsgd1na2vs0mg"},{"bike_id":"448d2ede-0be4-434b-a64a-5bf129435fdc","system_id":"levelo_inurba_marseille","lat":43.28704,"lon":5.37397,"is_reserved":false,"is_disabled":false,"rental_uris":{"android":"levelo://app?vid=448d2ede-0be4-434b-a64a-5bf129435fdc","ios":"levelo://app?vid=448d2ede-0be4-434b-a64a-5bf129435fdc"},"vehicle_type_id":"4","last_reported":1730930937,"current_range_meters":6800,"station_id":"ce4bh3p2rcd13ifvqdq0","pricing_plan_id":"cebpf4jnsgd1na2vs0mg"},{"bike_id":"b79739f5-aaa0-49a4-a53d-2b13f632e303","system_id":"levelo_inurba_marseille","lat":43.31715,"lon":5.40443,"is_reserved":false,"is_disabled":false,"rental_uris":{"android":"levelo://app?vid=b79739f5-aaa0-49a4-a53d-2b13f632e303","ios":"levelo://app?vid=b79739f5-aaa0-49a4-a53d-2b13f632e303"},"vehicle_type_id":"4","last_reported":1730930937,"current_range_meters":12400,"station_id":"ce4bh012rcd13ifvqd00","pricing_plan_id":"cebpf4jnsgd1na2vs0mg"},{"bike_id":"5e578d71-0d68-4997-a4c8-138b32a82e97","system_id":"levelo_inurba_marseille","lat":43.27605,"lon":5.39014,"is_reserved":false,"is_disabled":false,"rental_uris":{"android":"levelo://app?vid=5e578d71-0d68-4997-a4c8-138b32a82e97","ios":"levelo://app?vid=5e578d71-0d68-4997-a4c8-138b32a82e97"},"vehicle_type_id":"4","last_reported":1730930937,"current_range_meters":40000,"station_id":"ce4bhi12rcd13ifvqfo0","pricing_plan_id":"cebpf4jnsgd1na2vs0mg"},{"bike_id":"2358f1b7-8303-46b0-8fd0-ffc2b5a34c06","system_id":"levelo_inurba_marseille","lat":43.24663,"lon":5.3817,"is_reserved":false,"is_disabled":false,"rental_uris":{"android":"levelo://app?vid=2358f1b7-8303-46b0-8fd0-ffc2b5a34c06","ios":"levelo://app?vid=2358f1b7-8303-46b0-8fd0-ffc2b5a34c06"},"vehicle_type_id":"4","last_reported":1730930937,"current_range_meters":38000,"station_id":"ce4bhih2rcd13ifvqfr0","pricing_plan_id":"cebpf4jnsgd1na2vs0mg"},{"bike_id":"4c31defd-a46c-451d-8327-93053a02cdad","system_id":"levelo_inurba_marseille","lat":43.31175,"lon":5.38713,"is_reserved":false,"is_disabled":false,"rental_uris":{"android":"levelo://app?vid=4c31defd-a46c-451d-8327-93053a02cdad","ios":"levelo://app?vid=4c31defd-a46c-451d-8327-93053a02cdad"},"vehicle_type_id":"4","last_reported":1730930937,"current_range_meters":10800,"station_id":"ce4bgv12rcd13ifvqcp0","pricing_plan_id":"cebpf4jnsgd1na2vs0mg"},{"bike_id":"e02d6de2-e1ff-4620-97db-57c175400127","system_id":"levelo_inurba_marseille","lat":43.30417,"lon":5.41275,"is_reserved":false,"is_disabled":false,"rental_uris":{"android":"levelo://app?vid=e02d6de2-e1ff-4620-97db-57c175400127","ios":"levelo://app?vid=e02d6de2-e1ff-4620-97db-57c175400127"},"vehicle_type_id":"4","last_reported":1730930937,"current_range_meters":35600,"station_id":"ce4bhop2rcd13ifvqh8g","pricing_plan_id":"cebpf4jnsgd1na2vs0mg"},{"bike_id":"d05f4868-23cb-41be-b0a5-eef83a05a342","system_id":"levelo_inurba_marseille","lat":43.29632,"lon":5.406,"is_reserved":false,"is_disabled":false,"rental_uris":{"android":"levelo://app?vid=d05f4868-23cb-41be-b0a5-eef83a05a342","ios":"levelo://app?vid=d05f4868-23cb-41be-b0a5-eef83a05a342"},"vehicle_type_id":"4","last_reported":1730930937,"current_range_meters":32000,"station_id":"ce4bh0h2rcd13ifvqd60","pricing_plan_id":"cebpf4jnsgd1na2vs0mg"},{"bike_id":"aaf896be-23fc-4cde-b212-d643c208e7c1","system_id":"levelo_inurba_marseille","lat":43.30414,"lon":5.41292,"is_reserved":false,"is_disabled":false,"rental_uris":{"android":"levelo://app?vid=aaf896be-23fc-4cde-b212-d643c208e7c1","ios":"levelo://app?vid=aaf896be-23fc-4cde-b212-d643c208e7c1"},"vehicle_type_id":"4","last_reported":1730930937,"current_range_meters":36400,"station_id":"ce4bhop2rcd13ifvqh8g","pricing_plan_id":"cebpf4jnsgd1na2vs0mg"},{"bike_id":"72efadbb-bf11-43ff-96cf-c421a3f198ee","system_id":"levelo_inurba_marseille","lat":43.27618,"lon":5.36106,"is_reserved":false,"is_disabled":false,"rental_uris":{"android":"levelo://app?vid=72efadbb-bf11-43ff-96cf-c421a3f198ee","ios":"levelo://app?vid=72efadbb-bf11-43ff-96cf-c421a3f198ee"},"vehicle_type_id":"4","last_reported":1730930937,"current_range_meters":13600,"station_id":"ce4bgj92rcd13ifvqbe0","pricing_plan_id":"cebpf4jnsgd1na2vs0mg"},{"bike_id":"2e2fe7b5-7495-4cdd-8155-f9fafd6448a8","system_id":"levelo_inurba_marseille","lat":43.28574,"lon":5.39486,"is_reserved":false,"is_disabled":false,"rental_uris":{"android":"levelo://app?vid=2e2fe7b5-7495-4cdd-8155-f9fafd6448a8","ios":"levelo://app?vid=2e2fe7b5-7495-4cdd-8155-f9fafd6448a8"},"vehicle_type_id":"4","last_reported":1730930937,"current_range_meters":19200,"station_id":"ce4bh292rcd13ifvqdg0","pricing_plan_id":"cebpf4jnsgd1na2vs0mg"},{"bike_id":"5f619e73-5fce-493c-beab-9082818186ac","system_id":"levelo_inurba_marseille","lat":43.301971,"lon":5.367197,"is_reserved":false,"is_disabled":false,"rental_uris":{"android":"levelo://app?vid=5f619e73-5fce-493c-beab-9082818186ac","ios":"levelo://app?vid=5f619e73-5fce-493c-beab-9082818186ac"},"vehicle_type_id":"4","last_reported":1730930937,"current_range_meters":34000,"station_id":"ce4bgrh2rcd13ifvqc8g","pricing_plan_id":"cebpf4jnsgd1na2vs0mg"},{"bike_id":"8af378d1-5bc4-457f-9470-74e88c52bda7","system_id":"levelo_inurba_marseille","lat":43.319945,"lon":5.381521,"is_reserved":false,"is_disabled":false,"rental_uris":{"android":"levelo://app?vid=8af378d1-5bc4-457f-9470-74e88c52bda7","ios":"levelo://app?vid=8af378d1-5bc4-457f-9470-74e88c52bda7"},"vehicle_type_id":"4","last_reported":1730930937,"current_range_meters":38800,"station_id":"ce4bhr12rcd13ifvqhpg","pricing_plan_id":"cebpf4jnsgd1na2vs0mg"},{"bike_id":"55fc641b-46b1-4285-8546-805cff3fb723","system_id":"levelo_inurba_marseille","lat":43.28075,"lon":5.39646,"is_reserved":false,"is_disabled":false,"rental_uris":{"android":"levelo://app?vid=55fc641b-46b1-4285-8546-805cff3fb723","ios":"levelo://app?vid=55fc641b-46b1-4285-8546-805cff3fb723"},"vehicle_type_id":"4","last_reported":1730930937,"current_range_meters":6400,"station_id":"ce4bho12rcd13ifvqh2g","pricing_plan_id":"cebpf4jnsgd1na2vs0mg"},{"bike_id":"92437862-9629-46f7-8ed5-946bc7784f02","system_id":"levelo_inurba_marseille","lat":43.3199,"lon":5.3814,"is_reserved":false,"is_disabled":false,"rental_uris":{"android":"levelo://app?vid=92437862-9629-46f7-8ed5-946bc7784f02","ios":"levelo://app?vid=92437862-9629-46f7-8ed5-946bc7784f02"},"vehicle_type_id":"4","last_reported":1730930937,"current_range_meters":30000,"station_id":"ce4bhr12rcd13ifvqhpg","pricing_plan_id":"cebpf4jnsgd1na2vs0mg"},{"bike_id":"44135612-fabe-4db6-b769-98ffa02d00e4","system_id":"levelo_inurba_marseille","lat":43.3229,"lon":5.38274,"is_reserved":false,"is_disabled":false,"rental_uris":{"android":"levelo://app?vid=44135612-fabe-4db6-b769-98ffa02d00e4","ios":"levelo://app?vid=44135612-fabe-4db6-b769-98ffa02d00e4"},"vehicle_type_id":"4","last_reported":1730930937,"current_range_meters":40000,"station_id":"ce4bhr12rcd13ifvqhqg","pricing_plan_id":"cebpf4jnsgd1na2vs0mg"},{"bike_id":"68795af6-e265-48d7-b50a-81f544090ea4","system_id":"levelo_inurba_marseille","lat":43.28699,"lon":5.39967,"is_reserved":false,"is_disabled":false,"rental_uris":{"android":"levelo://app?vid=68795af6-e265-48d7-b50a-81f544090ea4","ios":"levelo://app?vid=68795af6-e265-48d7-b50a-81f544090ea4"},"vehicle_type_id":"4","last_reported":1730930937,"current_range_meters":34000,"station_id":"ce4bho92rcd13ifvqh3g","pricing_plan_id":"cebpf4jnsgd1na2vs0mg"},{"bike_id":"9d78bd0e-01c4-44cd-bc1a-db7ad2391a80","system_id":"levelo_inurba_marseille","lat":43.29872,"lon":5.39738,"is_reserved":false,"is_disabled":false,"rental_uris":{"android":"levelo://app?vid=9d78bd0e-01c4-44cd-bc1a-db7ad2391a80","ios":"levelo://app?vid=9d78bd0e-01c4-44cd-bc1a-db7ad2391a80"},"vehicle_type_id":"4","last_reported":1730930937,"current_range_meters":24400,"station_id":"ce4bh0h2rcd13ifvqd50","pricing_plan_id":"cebpf4jnsgd1na2vs0mg"},{"bike_id":"701523d9-1b3c-4253-b84d-c5e48c0380fd","system_id":"levelo_inurba_marseille","lat":43.29888,"lon":5.3974,"is_reserved":false,"is_disabled":false,"rental_uris":{"android":"levelo://app?vid=701523d9-1b3c-4253-b84d-c5e48c0380fd","ios":"levelo://app?vid=701523d9-1b3c-4253-b84d-c5e48c0380fd"},"vehicle_type_id":"4","last_reported":1730930937,"current_range_meters":39200,"station_id":"ce4bh0h2rcd13ifvqd50","pricing_plan_id":"cebpf4jnsgd1na2vs0mg"},{"bike_id":"4b8f51c7-3386-420b-a363-4efce99317bc","system_id":"levelo_inurba_marseille","lat":43.31532,"lon":5.38025,"is_reserved":false,"is_disabled":false,"rental_uris":{"android":"levelo://app?vid=4b8f51c7-3386-420b-a363-4efce99317bc","ios":"levelo://app?vid=4b8f51c7-3386-420b-a363-4efce99317bc"},"vehicle_type_id":"4","last_reported":1730930937,"current_range_meters":27200,"station_id":"ce4bhsp2rcd13ifvqi50","pricing_plan_id":"cebpf4jnsgd1na2vs0mg"},{"bike_id":"c37d9904-8a9a-4807-af69-c429905bd0ba","system_id":"levelo_inurba_marseille","lat":43.28101,"lon":5.37836,"is_reserved":false,"is_disabled":false,"rental_uris":{"android":"levelo://app?vid=c37d9904-8a9a-4807-af69-c429905bd0ba","ios":"levelo://app?vid=c37d9904-8a9a-4807-af69-c429905bd0ba"},"vehicle_type_id":"4","last_reported":1730930937,"current_range_meters":32800,"station_id":"ce4bha12rcd13ifvqee0","pricing_plan_id":"cebpf4jnsgd1na2vs0mg"},{"bike_id":"079a9457-9ae3-4bcc-b08f-5881de10505c","system_id":"levelo_inurba_marseille","lat":43.2988,"lon":5.39732,"is_reserved":false,"is_disabled":false,"rental_uris":{"android":"levelo://app?vid=079a9457-9ae3-4bcc-b08f-5881de10505c","ios":"levelo://app?vid=079a9457-9ae3-4bcc-b08f-5881de10505c"},"vehicle_type_id":"4","last_reported":1730930937,"current_range_meters":31200,"station_id":"ce4bh0h2rcd13ifvqd50","pricing_plan_id":"cebpf4jnsgd1na2vs0mg"},{"bike_id":"4c43df34-4013-4ced-bf1e-47ee4c39af67","system_id":"levelo_inurba_marseille","lat":43.23966,"lon":5.36626,"is_reserved":false,"is_disabled":false,"rental_uris":{"android":"levelo://app?vid=4c43df34-4013-4ced-bf1e-47ee4c39af67","ios":"levelo://app?vid=4c43df34-4013-4ced-bf1e-47ee4c39af67"},"vehicle_type_id":"4","last_reported":1730930937,"current_range_meters":39200,"station_id":"ce4bhi12rcd13ifvqfp0","pricing_plan_id":"cebpf4jnsgd1na2vs0mg"},{"bike_id":"46ff488b-1526-48eb-91aa-363949a640c7","system_id":"levelo_inurba_marseille","lat":43.284762,"lon":5.392124,"is_reserved":false,"is_disabled":false,"rental_uris":{"android":"levelo://app?vid=46ff488b-1526-48eb-91aa-363949a640c7","ios":"levelo://app?vid=46ff488b-1526-48eb-91aa-363949a640c7"},"vehicle_type_id":"4","last_reported":1730930937,"current_range_meters":19200,"station_id":"ce4bhoh2rcd13ifvqh5g","pricing_plan_id":"cebpf4jnsgd1na2vs0mg"},{"bike_id":"492ddbaa-120d-4fd5-83ae-8f34d9afd278","system_id":"levelo_inurba_marseille","lat":43.27174,"lon":5.40996,"is_reserved":false,"is_disabled":false,"rental_uris":{"android":"levelo://app?vid=492ddbaa-120d-4fd5-83ae-8f34d9afd278","ios":"levelo://app?vid=492ddbaa-120d-4fd5-83ae-8f34d9afd278"},"vehicle_type_id":"4","last_reported":1730930937,"current_range_meters":39200,"station_id":"ce4bhl12rcd13ifvqgf0","pricing_plan_id":"cebpf4jnsgd1na2vs0mg"},{"bike_id":"2dae4741-1d2e-4b23-b350-0ed48ec2a5f7","system_id":"levelo_inurba_marseille","lat":43.31761,"lon":5.39019,"is_reserved":false,"is_disabled":false,"rental_uris":{"android":"levelo://app?vid=2dae4741-1d2e-4b23-b350-0ed48ec2a5f7","ios":"levelo://app?vid=2dae4741-1d2e-4b23-b350-0ed48ec2a5f7"},"vehicle_type_id":"4","last_reported":1730930937,"current_range_meters":38400,"station_id":"ce4bhqp2rcd13ifvqhng","pricing_plan_id":"cebpf4jnsgd1na2vs0mg"},{"bike_id":"23a73cc8-f63a-4bde-bdb4-b454dab7fc6b","system_id":"levelo_inurba_marseille","lat":43.26575,"lon":5.39014,"is_reserved":false,"is_disabled":false,"rental_uris":{"android":"levelo://app?vid=23a73cc8-f63a-4bde-bdb4-b454dab7fc6b","ios":"levelo://app?vid=23a73cc8-f63a-4bde-bdb4-b454dab7fc6b"},"vehicle_type_id":"4","last_reported":1730930937,"current_range_meters":27600,"station_id":"ce4bhe12rcd13ifvqf30","pricing_plan_id":"cebpf4jnsgd1na2vs0mg"},{"bike_id":"59bd02cd-6226-4d5b-b14e-fa773f6ddf5d","system_id":"levelo_inurba_marseille","lat":43.29277,"lon":5.40115,"is_reserved":false,"is_disabled":false,"rental_uris":{"android":"levelo://app?vid=59bd02cd-6226-4d5b-b14e-fa773f6ddf5d","ios":"levelo://app?vid=59bd02cd-6226-4d5b-b14e-fa773f6ddf5d"},"vehicle_type_id":"4","last_reported":1730930937,"current_range_meters":24400,"station_id":"ce4bh312rcd13ifvqdk0","pricing_plan_id":"cebpf4jnsgd1na2vs0mg"},{"bike_id":"8a401a8a-30f9-4643-ad63-74116d1b600f","system_id":"levelo_inurba_marseille","lat":43.32489,"lon":5.36586,"is_reserved":false,"is_disabled":false,"rental_uris":{"android":"levelo://app?vid=8a401a8a-30f9-4643-ad63-74116d1b600f","ios":"levelo://app?vid=8a401a8a-30f9-4643-ad63-74116d1b600f"},"vehicle_type_id":"4","last_reported":1730930937,"current_range_meters":38400,"station_id":"ce4bhs12rcd13ifvqhvg","pricing_plan_id":"cebpf4jnsgd1na2vs0mg"},{"bike_id":"171db454-9231-4690-bd0b-fa5dcfdd830b","system_id":"levelo_inurba_marseille","lat":43.31762,"lon":5.39024,"is_reserved":false,"is_disabled":false,"rental_uris":{"android":"levelo://app?vid=171db454-9231-4690-bd0b-fa5dcfdd830b","ios":"levelo://app?vid=171db454-9231-4690-bd0b-fa5dcfdd830b"},"vehicle_type_id":"4","last_reported":1730930937,"current_range_meters":37600,"station_id":"ce4bhqp2rcd13ifvqhng","pricing_plan_id":"cebpf4jnsgd1na2vs0mg"},{"bike_id":"f45d2f04-021a-4800-a8ed-0424df737545","system_id":"levelo_inurba_marseille","lat":43.30593,"lon":5.39347,"is_reserved":false,"is_disabled":false,"rental_uris":{"android":"levelo://app?vid=f45d2f04-021a-4800-a8ed-0424df737545","ios":"levelo://app?vid=f45d2f04-021a-4800-a8ed-0424df737545"},"vehicle_type_id":"4","last_reported":1730930937,"current_range_meters":39200,"station_id":"ce4bh0p2rcd13ifvqd80","pricing_plan_id":"cebpf4jnsgd1na2vs0mg"},{"bike_id":"d0fcbdd4-64f5-49c0-9944-ad1d66720c7e","system_id":"levelo_inurba_marseille","lat":43.28404,"lon":5.37519,"is_reserved":false,"is_disabled":false,"rental_uris":{"android":"levelo://app?vid=d0fcbdd4-64f5-49c0-9944-ad1d66720c7e","ios":"levelo://app?vid=d0fcbdd4-64f5-49c0-9944-ad1d66720c7e"},"vehicle_type_id":"4","last_reported":1730930937,"current_range_meters":9200,"station_id":"ce4bh412rcd13ifvqds0","pricing_plan_id":"cebpf4jnsgd1na2vs0mg"},{"bike_id":"eaf74a67-c04d-4f4a-8ddf-7731a6f05c3a","system_id":"levelo_inurba_marseille","lat":43.29624,"lon":5.38118,"is_reserved":false,"is_disabled":false,"rental_uris":{"android":"levelo://app?vid=eaf74a67-c04d-4f4a-8ddf-7731a6f05c3a","ios":"levelo://app?vid=eaf74a67-c04d-4f4a-8ddf-7731a6f05c3a"},"vehicle_type_id":"4","last_reported":1730930937,"current_range_meters":32000,"station_id":"ce4bgvp2rcd13ifvqcu0","pricing_plan_id":"cebpf4jnsgd1na2vs0mg"},{"bike_id":"b7134e83-5a93-46f0-9e58-5c7421ed0cda","system_id":"levelo_inurba_marseille","lat":43.23177,"lon":5.399879,"is_reserved":false,"is_disabled":false,"rental_uris":{"android":"levelo://app?vid=b7134e83-5a93-46f0-9e58-5c7421ed0cda","ios":"levelo://app?vid=b7134e83-5a93-46f0-9e58-5c7421ed0cda"},"vehicle_type_id":"4","last_reported":1730930937,"current_range_meters":18000,"station_id":"ce4bhn12rcd13ifvqgqg","pricing_plan_id":"cebpf4jnsgd1na2vs0mg"},{"bike_id":"72ab18df-21fe-430a-8dc7-5381272d51d9","system_id":"levelo_inurba_marseille","lat":43.27941,"lon":5.41034,"is_reserved":false,"is_disabled":false,"rental_uris":{"android":"levelo://app?vid=72ab18df-21fe-430a-8dc7-5381272d51d9","ios":"levelo://app?vid=72ab18df-21fe-430a-8dc7-5381272d51d9"},"vehicle_type_id":"4","last_reported":1730930937,"current_range_meters":22800,"station_id":"ce4bhnp2rcd13ifvqh0g","pricing_plan_id":"cebpf4jnsgd1na2vs0mg"},{"bike_id":"872d59cd-dd29-4d8e-a06e-ec7edb147612","system_id":"levelo_inurba_marseille","lat":43.25495,"lon":5.37654,"is_reserved":false,"is_disabled":false,"rental_uris":{"android":"levelo://app?vid=872d59cd-dd29-4d8e-a06e-ec7edb147612","ios":"levelo://app?vid=872d59cd-dd29-4d8e-a06e-ec7edb147612"},"vehicle_type_id":"4","last_reported":1730930937,"current_range_meters":39200,"station_id":"ce4bhh12rcd13ifvqff0","pricing_plan_id":"cebpf4jnsgd1na2vs0mg"},{"bike_id":"328512fc-3e80-4303-8fb9-8bdfa1c9bb84","system_id":"levelo_inurba_marseille","lat":43.28945,"lon":5.39659,"is_reserved":false,"is_disabled":false,"rental_uris":{"android":"levelo://app?vid=328512fc-3e80-4303-8fb9-8bdfa1c9bb84","ios":"levelo://app?vid=328512fc-3e80-4303-8fb9-8bdfa1c9bb84"},"vehicle_type_id":"4","last_reported":1730930937,"current_range_meters":36400,"station_id":"ce4bh3h2rcd13ifvqdn0","pricing_plan_id":"cebpf4jnsgd1na2vs0mg"},{"bike_id":"d5e91622-e3dd-4f31-acce-52cf3f312cf4","system_id":"levelo_inurba_marseille","lat":43.24389,"lon":5.3706,"is_reserved":false,"is_disabled":false,"rental_uris":{"android":"levelo://app?vid=d5e91622-e3dd-4f31-acce-52cf3f312cf4","ios":"levelo://app?vid=d5e91622-e3dd-4f31-acce-52cf3f312cf4"},"vehicle_type_id":"4","last_reported":1730930937,"current_range_meters":8800,"station_id":"ce4bhhh2rcd13ifvqfk0","pricing_plan_id":"cebpf4jnsgd1na2vs0mg"},{"bike_id":"692f31da-ed64-4e18-b7cc-350f01a2fb79","system_id":"levelo_inurba_marseille","lat":43.30185,"lon":5.43763,"is_reserved":false,"is_disabled":false,"rental_uris":{"android":"levelo://app?vid=692f31da-ed64-4e18-b7cc-350f01a2fb79","ios":"levelo://app?vid=692f31da-ed64-4e18-b7cc-350f01a2fb79"},"vehicle_type_id":"4","last_reported":1730930937,"current_range_meters":16800,"station_id":"","pricing_plan_id":"cebpf4jnsgd1na2vs0mg"},{"bike_id":"8b1d7819-65f0-4cb2-bedd-ed63609540e6","system_id":"levelo_inurba_marseille","lat":43.30321,"lon":5.40437,"is_reserved":false,"is_disabled":false,"rental_uris":{"android":"levelo://app?vid=8b1d7819-65f0-4cb2-bedd-ed63609540e6","ios":"levelo://app?vid=8b1d7819-65f0-4cb2-bedd-ed63609540e6"},"vehicle_type_id":"4","last_reported":1730930937,"current_range_meters":35200,"station_id":"ce4bh012rcd13ifvqd10","pricing_plan_id":"cebpf4jnsgd1na2vs0mg"},{"bike_id":"396a9a9c-144b-4091-bde1-a8caae5f9db9","system_id":"levelo_inurba_marseille","lat":43.28943,"lon":5.36395,"is_reserved":false,"is_disabled":false,"rental_uris":{"android":"levelo://app?vid=396a9a9c-144b-4091-bde1-a8caae5f9db9","ios":"levelo://app?vid=396a9a9c-144b-4091-bde1-a8caae5f9db9"},"vehicle_type_id":"4","last_reported":1730930937,"current_range_meters":26800,"station_id":"ce4bhc92rcd13ifvqetg","pricing_plan_id":"cebpf4jnsgd1na2vs0mg"},{"bike_id":"a3255d5f-8521-4d98-aa45-6e66651a7918","system_id":"levelo_inurba_marseille","lat":43.30437,"lon":5.38892,"is_reserved":false,"is_disabled":false,"rental_uris":{"android":"levelo://app?vid=a3255d5f-8521-4d98-aa45-6e66651a7918","ios":"levelo://app?vid=a3255d5f-8521-4d98-aa45-6e66651a7918"},"vehicle_type_id":"4","last_reported":1730930937,"current_range_meters":38000,"station_id":"ce4bgk12rcd13ifvqbi0","pricing_plan_id":"cebpf4jnsgd1na2vs0mg"},{"bike_id":"b4acb205-fefb-4ff0-a0f5-e0b7a0a1fe0d","system_id":"levelo_inurba_marseille","lat":43.2799,"lon":5.41657,"is_reserved":false,"is_disabled":false,"rental_uris":{"android":"levelo://app?vid=b4acb205-fefb-4ff0-a0f5-e0b7a0a1fe0d","ios":"levelo://app?vid=b4acb205-fefb-4ff0-a0f5-e0b7a0a1fe0d"},"vehicle_type_id":"4","last_reported":1730930937,"current_range_meters":33600,"station_id":"ce4bho12rcd13ifvqh1g","pricing_plan_id":"cebpf4jnsgd1na2vs0mg"},{"bike_id":"3a265529-f2df-4840-bbc7-a2d699d588fb","system_id":"levelo_inurba_marseille","lat":43.24387,"lon":5.37053,"is_reserved":false,"is_disabled":false,"rental_uris":{"android":"levelo://app?vid=3a265529-f2df-4840-bbc7-a2d699d588fb","ios":"levelo://app?vid=3a265529-f2df-4840-bbc7-a2d699d588fb"},"vehicle_type_id":"4","last_reported":1730930937,"current_range_meters":20400,"station_id":"ce4bhhh2rcd13ifvqfk0","pricing_plan_id":"cebpf4jnsgd1na2vs0mg"},{"bike_id":"c4278566-e330-49d5-a230-d672fdaae7c5","system_id":"levelo_inurba_marseille","lat":43.27561,"lon":5.38434,"is_reserved":false,"is_disabled":false,"rental_uris":{"android":"levelo://app?vid=c4278566-e330-49d5-a230-d672fdaae7c5","ios":"levelo://app?vid=c4278566-e330-49d5-a230-d672fdaae7c5"},"vehicle_type_id":"4","last_reported":1730930937,"current_range_meters":39200,"station_id":"ce4bhh92rcd13ifvqfi0","pricing_plan_id":"cebpf4jnsgd1na2vs0mg"},{"bike_id":"dc17e306-8ad0-4f72-be8a-86e1adf7c59d","system_id":"levelo_inurba_marseille","lat":43.28661,"lon":5.3635,"is_reserved":false,"is_disabled":false,"rental_uris":{"android":"levelo://app?vid=dc17e306-8ad0-4f72-be8a-86e1adf7c59d","ios":"levelo://app?vid=dc17e306-8ad0-4f72-be8a-86e1adf7c59d"},"vehicle_type_id":"4","last_reported":1730930937,"current_range_meters":39200,"station_id":"ce4bhah2rcd13ifvqej0","pricing_plan_id":"cebpf4jnsgd1na2vs0mg"},{"bike_id":"933271ee-c87c-49ba-af4e-414a76ba1f14","system_id":"levelo_inurba_marseille","lat":43.29557,"lon":5.4228,"is_reserved":false,"is_disabled":false,"rental_uris":{"android":"levelo://app?vid=933271ee-c87c-49ba-af4e-414a76ba1f14","ios":"levelo://app?vid=933271ee-c87c-49ba-af4e-414a76ba1f14"},"vehicle_type_id":"4","last_reported":1730930937,"current_range_meters":11600,"station_id":"ce4bhph2rcd13ifvqhdg","pricing_plan_id":"cebpf4jnsgd1na2vs0mg"},{"bike_id":"2a125477-0965-4ee5-b6e9-03b33dc0ed04","system_id":"levelo_inurba_marseille","lat":43.3127,"lon":5.4017,"is_reserved":false,"is_disabled":false,"rental_uris":{"android":"levelo://app?vid=2a125477-0965-4ee5-b6e9-03b33dc0ed04","ios":"levelo://app?vid=2a125477-0965-4ee5-b6e9-03b33dc0ed04"},"vehicle_type_id":"4","last_reported":1730930937,"current_range_meters":35600,"station_id":"ce4bh092rcd13ifvqd30","pricing_plan_id":"cebpf4jnsgd1na2vs0mg"},{"bike_id":"78ea8e6b-fcbc-4ca9-b233-6e6fd40ab14f","system_id":"levelo_inurba_marseille","lat":43.28038,"lon":5.36941,"is_reserved":false,"is_disabled":false,"rental_uris":{"android":"levelo://app?vid=78ea8e6b-fcbc-4ca9-b233-6e6fd40ab14f","ios":"levelo://app?vid=78ea8e6b-fcbc-4ca9-b233-6e6fd40ab14f"},"vehicle_type_id":"4","last_reported":1730930937,"current_range_meters":32800,"station_id":"ce4bha12rcd13ifvqef0","pricing_plan_id":"cebpf4jnsgd1na2vs0mg"},{"bike_id":"66cadc2f-87dc-4b78-bb91-c6d6eee1cfce","system_id":"levelo_inurba_marseille","lat":43.30132,"lon":5.39873,"is_reserved":false,"is_disabled":false,"rental_uris":{"android":"levelo://app?vid=66cadc2f-87dc-4b78-bb91-c6d6eee1cfce","ios":"levelo://app?vid=66cadc2f-87dc-4b78-bb91-c6d6eee1cfce"},"vehicle_type_id":"4","last_reported":1730930937,"current_range_meters":16800,"station_id":"ce4bh0h2rcd13ifvqd40","pricing_plan_id":"cebpf4jnsgd1na2vs0mg"},{"bike_id":"4586eee4-c5dc-4955-a2ed-387cfd203fdd","system_id":"levelo_inurba_marseille","lat":43.2667,"lon":5.40289,"is_reserved":false,"is_disabled":false,"rental_uris":{"android":"levelo://app?vid=4586eee4-c5dc-4955-a2ed-387cfd203fdd","ios":"levelo://app?vid=4586eee4-c5dc-4955-a2ed-387cfd203fdd"},"vehicle_type_id":"4","last_reported":1730930937,"current_range_meters":18800,"station_id":"","pricing_plan_id":"cebpf4jnsgd1na2vs0mg"},{"bike_id":"5891e32d-bdd2-4b40-a25c-9c61439b13c8","system_id":"levelo_inurba_marseille","lat":43.3064,"lon":5.40077,"is_reserved":false,"is_disabled":false,"rental_uris":{"android":"levelo://app?vid=5891e32d-bdd2-4b40-a25c-9c61439b13c8","ios":"levelo://app?vid=5891e32d-bdd2-4b40-a25c-9c61439b13c8"},"vehicle_type_id":"4","last_reported":1730930937,"current_range_meters":27200,"station_id":"ce4bh112rcd13ifvqda0","pricing_plan_id":"cebpf4jnsgd1na2vs0mg"},{"bike_id":"081053e3-ccb9-46ca-9453-43abcf34915a","system_id":"levelo_inurba_marseille","lat":43.24667,"lon":5.38166,"is_reserved":false,"is_disabled":false,"rental_uris":{"android":"levelo://app?vid=081053e3-ccb9-46ca-9453-43abcf34915a","ios":"levelo://app?vid=081053e3-ccb9-46ca-9453-43abcf34915a"},"vehicle_type_id":"4","last_reported":1730930937,"current_range_meters":30000,"station_id":"ce4bhih2rcd13ifvqfr0","pricing_plan_id":"cebpf4jnsgd1na2vs0mg"},{"bike_id":"94cca890-79d8-473d-aa3d-66aeecf75673","system_id":"levelo_inurba_marseille","lat":43.23186,"lon":5.39988,"is_reserved":false,"is_disabled":false,"rental_uris":{"android":"levelo://app?vid=94cca890-79d8-473d-aa3d-66aeecf75673","ios":"levelo://app?vid=94cca890-79d8-473d-aa3d-66aeecf75673"},"vehicle_type_id":"4","last_reported":1730930937,"current_range_meters":28000,"station_id":"ce4bhn12rcd13ifvqgqg","pricing_plan_id":"cebpf4jnsgd1na2vs0mg"},{"bike_id":"0a3920c8-1611-4ebf-844c-9ebc33137697","system_id":"levelo_inurba_marseille","lat":43.28495,"lon":5.38424,"is_reserved":false,"is_disabled":false,"rental_uris":{"android":"levelo://app?vid=0a3920c8-1611-4ebf-844c-9ebc33137697","ios":"levelo://app?vid=0a3920c8-1611-4ebf-844c-9ebc33137697"},"vehicle_type_id":"4","last_reported":1730930937,"current_range_meters":30000,"station_id":"ce4bhh12rcd13ifvqfg0","pricing_plan_id":"cebpf4jnsgd1na2vs0mg"},{"bike_id":"8e0c185f-0e3b-4c3e-84c3-711b79a97013","system_id":"levelo_inurba_marseille","lat":43.3117,"lon":5.38714,"is_reserved":false,"is_disabled":false,"rental_uris":{"android":"levelo://app?vid=8e0c185f-0e3b-4c3e-84c3-711b79a97013","ios":"levelo://app?vid=8e0c185f-0e3b-4c3e-84c3-711b79a97013"},"vehicle_type_id":"4","last_reported":1730930937,"current_range_meters":26800,"station_id":"ce4bgv12rcd13ifvqcp0","pricing_plan_id":"cebpf4jnsgd1na2vs0mg"},{"bike_id":"03e19a4b-f7be-4329-878d-df4778c65899","system_id":"levelo_inurba_marseille","lat":43.28429,"lon":5.34997,"is_reserved":false,"is_disabled":false,"rental_uris":{"android":"levelo://app?vid=03e19a4b-f7be-4329-878d-df4778c65899","ios":"levelo://app?vid=03e19a4b-f7be-4329-878d-df4778c65899"},"vehicle_type_id":"4","last_reported":1730930937,"current_range_meters":31200,"station_id":"ce4bhbh2rcd13ifvqepg","pricing_plan_id":"cebpf4jnsgd1na2vs0mg"},{"bike_id":"092197f5-19dd-4af9-9edf-c4c032d4b8c4","system_id":"levelo_inurba_marseille","lat":43.28081,"lon":5.39661,"is_reserved":false,"is_disabled":false,"rental_uris":{"android":"levelo://app?vid=092197f5-19dd-4af9-9edf-c4c032d4b8c4","ios":"levelo://app?vid=092197f5-19dd-4af9-9edf-c4c032d4b8c4"},"vehicle_type_id":"4","last_reported":1730930937,"current_range_meters":36400,"station_id":"ce4bho12rcd13ifvqh2g","pricing_plan_id":"cebpf4jnsgd1na2vs0mg"},{"bike_id":"66f19576-170e-4bdc-8ddf-aa1c58792fe4","system_id":"levelo_inurba_marseille","lat":43.30639,"lon":5.40065,"is_reserved":false,"is_disabled":false,"rental_uris":{"android":"levelo://app?vid=66f19576-170e-4bdc-8ddf-aa1c58792fe4","ios":"levelo://app?vid=66f19576-170e-4bdc-8ddf-aa1c58792fe4"},"vehicle_type_id":"4","last_reported":1730930937,"current_range_meters":38800,"station_id":"ce4bh112rcd13ifvqda0","pricing_plan_id":"cebpf4jnsgd1na2vs0mg"},{"bike_id":"981e35e7-7a8c-46e2-824d-1f28d39b001f","system_id":"levelo_inurba_marseille","lat":43.31272,"lon":5.40163,"is_reserved":false,"is_disabled":false,"rental_uris":{"android":"levelo://app?vid=981e35e7-7a8c-46e2-824d-1f28d39b001f","ios":"levelo://app?vid=981e35e7-7a8c-46e2-824d-1f28d39b001f"},"vehicle_type_id":"4","last_reported":1730930937,"current_range_meters":18000,"station_id":"ce4bh092rcd13ifvqd30","pricing_plan_id":"cebpf4jnsgd1na2vs0mg"},{"bike_id":"f213d2df-9c93-4348-930e-c905d6e760da","system_id":"levelo_inurba_marseille","lat":43.31492,"lon":5.37309,"is_reserved":false,"is_disabled":false,"rental_uris":{"android":"levelo://app?vid=f213d2df-9c93-4348-930e-c905d6e760da","ios":"levelo://app?vid=f213d2df-9c93-4348-930e-c905d6e760da"},"vehicle_type_id":"4","last_reported":1730930937,"current_range_meters":36800,"station_id":"ce4bgt12rcd13ifvqcd0","pricing_plan_id":"cebpf4jnsgd1na2vs0mg"},{"bike_id":"42163e3e-5009-401f-a1ce-f09eb7e2a510","system_id":"levelo_inurba_marseille","lat":43.31331,"lon":5.39695,"is_reserved":false,"is_disabled":false,"rental_uris":{"android":"levelo://app?vid=42163e3e-5009-401f-a1ce-f09eb7e2a510","ios":"levelo://app?vid=42163e3e-5009-401f-a1ce-f09eb7e2a510"},"vehicle_type_id":"4","last_reported":1730930937,"current_range_meters":39200,"station_id":"ce4bgvp2rcd13ifvqcu0","pricing_plan_id":"cebpf4jnsgd1na2vs0mg"},{"bike_id":"4102c5da-b3bb-4e3b-b23f-eef2c213d450","system_id":"levelo_inurba_marseille","lat":43.23188,"lon":5.39985,"is_reserved":false,"is_disabled":false,"rental_uris":{"android":"levelo://app?vid=4102c5da-b3bb-4e3b-b23f-eef2c213d450","ios":"levelo://app?vid=4102c5da-b3bb-4e3b-b23f-eef2c213d450"},"vehicle_type_id":"4","last_reported":1730930937,"current_range_meters":38800,"station_id":"ce4bhn12rcd13ifvqgqg","pricing_plan_id":"cebpf4jnsgd1na2vs0mg"},{"bike_id":"c387d109-a438-4c28-8d50-eaf15ca22192","system_id":"levelo_inurba_marseille","lat":43.31887,"lon":5.4074,"is_reserved":false,"is_disabled":false,"rental_uris":{"android":"levelo://app?vid=c387d109-a438-4c28-8d50-eaf15ca22192","ios":"levelo://app?vid=c387d109-a438-4c28-8d50-eaf15ca22192"},"vehicle_type_id":"4","last_reported":1730930937,"current_range_meters":16400,"station_id":"ce4bhq12rcd13ifvqhig","pricing_plan_id":"cebpf4jnsgd1na2vs0mg"},{"bike_id":"a0db1695-32d8-4d9c-9829-ab1da773a69e","system_id":"levelo_inurba_marseille","lat":43.30135,"lon":5.39882,"is_reserved":false,"is_disabled":false,"rental_uris":{"android":"levelo://app?vid=a0db1695-32d8-4d9c-9829-ab1da773a69e","ios":"levelo://app?vid=a0db1695-32d8-4d9c-9829-ab1da773a69e"},"vehicle_type_id":"4","last_reported":1730930937,"current_range_meters":36000,"station_id":"ce4bh0h2rcd13ifvqd40","pricing_plan_id":"cebpf4jnsgd1na2vs0mg"},{"bike_id":"c11c2ccd-1a6b-426e-a6be-d7b8db656223","system_id":"levelo_inurba_marseille","lat":43.30878,"lon":5.39651,"is_reserved":false,"is_disabled":false,"rental_uris":{"android":"levelo://app?vid=c11c2ccd-1a6b-426e-a6be-d7b8db656223","ios":"levelo://app?vid=c11c2ccd-1a6b-426e-a6be-d7b8db656223"},"vehicle_type_id":"4","last_reported":1730930937,"current_range_meters":12800,"station_id":"ce4bh012rcd13ifvqcv0","pricing_plan_id":"cebpf4jnsgd1na2vs0mg"},{"bike_id":"1222545d-f607-4658-a0af-f3ecb0fb9e37","system_id":"levelo_inurba_marseille","lat":43.2508,"lon":5.39512,"is_reserved":false,"is_disabled":false,"rental_uris":{"android":"levelo://app?vid=1222545d-f607-4658-a0af-f3ecb0fb9e37","ios":"levelo://app?vid=1222545d-f607-4658-a0af-f3ecb0fb9e37"},"vehicle_type_id":"4","last_reported":1730930937,"current_range_meters":39200,"station_id":"ce4bhm12rcd13ifvqgkg","pricing_plan_id":"cebpf4jnsgd1na2vs0mg"},{"bike_id":"ae14cb4f-375f-4dca-901f-711422cf0e32","system_id":"levelo_inurba_marseille","lat":43.28698,"lon":5.3738,"is_reserved":false,"is_disabled":false,"rental_uris":{"android":"levelo://app?vid=ae14cb4f-375f-4dca-901f-711422cf0e32","ios":"levelo://app?vid=ae14cb4f-375f-4dca-901f-711422cf0e32"},"vehicle_type_id":"4","last_reported":1730930937,"current_range_meters":39200,"station_id":"ce4bh3p2rcd13ifvqdq0","pricing_plan_id":"cebpf4jnsgd1na2vs0mg"},{"bike_id":"916c1227-a089-47f0-b184-7006a96e3a45","system_id":"levelo_inurba_marseille","lat":43.2894,"lon":5.36384,"is_reserved":false,"is_disabled":false,"rental_uris":{"android":"levelo://app?vid=916c1227-a089-47f0-b184-7006a96e3a45","ios":"levelo://app?vid=916c1227-a089-47f0-b184-7006a96e3a45"},"vehicle_type_id":"4","last_reported":1730930937,"current_range_meters":18000,"station_id":"ce4bhc92rcd13ifvqetg","pricing_plan_id":"cebpf4jnsgd1na2vs0mg"},{"bike_id":"aea39243-f893-453d-a376-4e23c0bbf6e6","system_id":"levelo_inurba_marseille","lat":43.29194,"lon":5.39324,"is_reserved":false,"is_disabled":false,"rental_uris":{"android":"levelo://app?vid=aea39243-f893-453d-a376-4e23c0bbf6e6","ios":"levelo://app?vid=aea39243-f893-453d-a376-4e23c0bbf6e6"},"vehicle_type_id":"4","last_reported":1730930937,"current_range_meters":38000,"station_id":"ce4bh192rcd13ifvqdd0","pricing_plan_id":"cebpf4jnsgd1na2vs0mg"},{"bike_id":"17b2635b-cb35-405f-89f8-3b87581f3773","system_id":"levelo_inurba_marseille","lat":43.29892,"lon":5.43647,"is_reserved":false,"is_disabled":false,"rental_uris":{"android":"levelo://app?vid=17b2635b-cb35-405f-89f8-3b87581f3773","ios":"levelo://app?vid=17b2635b-cb35-405f-89f8-3b87581f3773"},"vehicle_type_id":"4","last_reported":1730930937,"current_range_meters":16000,"station_id":"ce4bhpp2rcd13ifvqhfg","pricing_plan_id":"cebpf4jnsgd1na2vs0mg"},{"bike_id":"6648ef17-3082-4729-9252-7b0bafb502be","system_id":"levelo_inurba_marseille","lat":43.276218,"lon":5.361061,"is_reserved":false,"is_disabled":false,"rental_uris":{"android":"levelo://app?vid=6648ef17-3082-4729-9252-7b0bafb502be","ios":"levelo://app?vid=6648ef17-3082-4729-9252-7b0bafb502be"},"vehicle_type_id":"4","last_reported":1730930937,"current_range_meters":9600,"station_id":"","pricing_plan_id":"cebpf4jnsgd1na2vs0mg"},{"bike_id":"19645b45-8dc5-44dd-9eea-afb63875c101","system_id":"levelo_inurba_marseille","lat":43.317,"lon":5.37736,"is_reserved":false,"is_disabled":false,"rental_uris":{"android":"levelo://app?vid=19645b45-8dc5-44dd-9eea-afb63875c101","ios":"levelo://app?vid=19645b45-8dc5-44dd-9eea-afb63875c101"},"vehicle_type_id":"4","last_reported":1730930937,"current_range_meters":7200,"station_id":"ce4bgth2rcd13ifvqch0","pricing_plan_id":"cebpf4jnsgd1na2vs0mg"},{"bike_id":"f5e86d30-c007-4821-873d-a631969d6565","system_id":"levelo_inurba_marseille","lat":43.28702,"lon":5.37396,"is_reserved":false,"is_disabled":false,"rental_uris":{"android":"levelo://app?vid=f5e86d30-c007-4821-873d-a631969d6565","ios":"levelo://app?vid=f5e86d30-c007-4821-873d-a631969d6565"},"vehicle_type_id":"4","last_reported":1730930937,"current_range_meters":25600,"station_id":"ce4bh3p2rcd13ifvqdq0","pricing_plan_id":"cebpf4jnsgd1na2vs0mg"},{"bike_id":"26b1df08-1bc0-4ba0-930e-e3b593d2225a","system_id":"levelo_inurba_marseille","lat":43.31122,"lon":5.37777,"is_reserved":false,"is_disabled":false,"rental_uris":{"android":"levelo://app?vid=26b1df08-1bc0-4ba0-930e-e3b593d2225a","ios":"levelo://app?vid=26b1df08-1bc0-4ba0-930e-e3b593d2225a"},"vehicle_type_id":"4","last_reported":1730930937,"current_range_meters":11200,"station_id":"ce4bgt92rcd13ifvqcg0","pricing_plan_id":"cebpf4jnsgd1na2vs0mg"},{"bike_id":"183de452-01ed-409d-8dea-fe6c95b31ab4","system_id":"levelo_inurba_marseille","lat":43.27941,"lon":5.41035,"is_reserved":false,"is_disabled":false,"rental_uris":{"android":"levelo://app?vid=183de452-01ed-409d-8dea-fe6c95b31ab4","ios":"levelo://app?vid=183de452-01ed-409d-8dea-fe6c95b31ab4"},"vehicle_type_id":"4","last_reported":1730930937,"current_range_meters":30000,"station_id":"ce4bhnp2rcd13ifvqh0g","pricing_plan_id":"cebpf4jnsgd1na2vs0mg"},{"bike_id":"deaf0c78-2653-47a3-a84b-1a36720bb08e","system_id":"levelo_inurba_marseille","lat":43.2861,"lon":5.37061,"is_reserved":false,"is_disabled":false,"rental_uris":{"android":"levelo://app?vid=deaf0c78-2653-47a3-a84b-1a36720bb08e","ios":"levelo://app?vid=deaf0c78-2653-47a3-a84b-1a36720bb08e"},"vehicle_type_id":"4","last_reported":1730930937,"current_range_meters":36000,"station_id":"ce4bht12rcd13ifvqi60","pricing_plan_id":"cebpf4jnsgd1na2vs0mg"},{"bike_id":"16f08dd0-76a9-4c3b-93a0-516b3a1b7232","system_id":"levelo_inurba_marseille","lat":43.31116,"lon":5.37784,"is_reserved":false,"is_disabled":false,"rental_uris":{"android":"levelo://app?vid=16f08dd0-76a9-4c3b-93a0-516b3a1b7232","ios":"levelo://app?vid=16f08dd0-76a9-4c3b-93a0-516b3a1b7232"},"vehicle_type_id":"4","last_reported":1730930937,"current_range_meters":38800,"station_id":"ce4bgt92rcd13ifvqcg0","pricing_plan_id":"cebpf4jnsgd1na2vs0mg"},{"bike_id":"4f2bdee6-4456-42ff-8942-9afb667ca1cb","system_id":"levelo_inurba_marseille","lat":43.26496,"lon":5.3954,"is_reserved":false,"is_disabled":false,"rental_uris":{"android":"levelo://app?vid=4f2bdee6-4456-42ff-8942-9afb667ca1cb","ios":"levelo://app?vid=4f2bdee6-4456-42ff-8942-9afb667ca1cb"},"vehicle_type_id":"4","last_reported":1730930937,"current_range_meters":36800,"station_id":"","pricing_plan_id":"cebpf4jnsgd1na2vs0mg"},{"bike_id":"c5b7820d-78fe-4750-89b8-a0efef8e5b8b","system_id":"levelo_inurba_marseille","lat":43.24664,"lon":5.38162,"is_reserved":false,"is_disabled":false,"rental_uris":{"android":"levelo://app?vid=c5b7820d-78fe-4750-89b8-a0efef8e5b8b","ios":"levelo://app?vid=c5b7820d-78fe-4750-89b8-a0efef8e5b8b"},"vehicle_type_id":"4","last_reported":1730930937,"current_range_meters":25600,"station_id":"ce4bhih2rcd13ifvqfr0","pricing_plan_id":"cebpf4jnsgd1na2vs0mg"},{"bike_id":"44fcf395-545c-4374-bb35-4ab3d378aa17","system_id":"levelo_inurba_marseille","lat":43.31077,"lon":5.3836,"is_reserved":false,"is_disabled":false,"rental_uris":{"android":"levelo://app?vid=44fcf395-545c-4374-bb35-4ab3d378aa17","ios":"levelo://app?vid=44fcf395-545c-4374-bb35-4ab3d378aa17"},"vehicle_type_id":"4","last_reported":1730930937,"current_range_meters":38800,"station_id":"ce4bgv92rcd13ifvqcr0","pricing_plan_id":"cebpf4jnsgd1na2vs0mg"},{"bike_id":"369de199-e470-43fd-b704-fefa60e0c590","system_id":"levelo_inurba_marseille","lat":43.28696,"lon":5.37383,"is_reserved":false,"is_disabled":false,"rental_uris":{"android":"levelo://app?vid=369de199-e470-43fd-b704-fefa60e0c590","ios":"levelo://app?vid=369de199-e470-43fd-b704-fefa60e0c590"},"vehicle_type_id":"4","last_reported":1730930937,"current_range_meters":36400,"station_id":"ce4bh3p2rcd13ifvqdq0","pricing_plan_id":"cebpf4jnsgd1na2vs0mg"},{"bike_id":"dd797a1d-435e-4213-a440-6cc632717ee1","system_id":"levelo_inurba_marseille","lat":43.33611,"lon":5.41048,"is_reserved":false,"is_disabled":false,"rental_uris":{"android":"levelo://app?vid=dd797a1d-435e-4213-a440-6cc632717ee1","ios":"levelo://app?vid=dd797a1d-435e-4213-a440-6cc632717ee1"},"vehicle_type_id":"4","last_reported":1730930937,"current_range_meters":8000,"station_id":"ce4bhqh2rcd13ifvqhmg","pricing_plan_id":"cebpf4jnsgd1na2vs0mg"},{"bike_id":"528eba06-d6b6-4dce-90ab-a903ec23230f","system_id":"levelo_inurba_marseille","lat":43.291948,"lon":5.357944,"is_reserved":false,"is_disabled":false,"rental_uris":{"android":"levelo://app?vid=528eba06-d6b6-4dce-90ab-a903ec23230f","ios":"levelo://app?vid=528eba06-d6b6-4dce-90ab-a903ec23230f"},"vehicle_type_id":"4","last_reported":1730930937,"current_range_meters":30000,"station_id":"ce4bhb12rcd13ifvqel0","pricing_plan_id":"cebpf4jnsgd1na2vs0mg"},{"bike_id":"73bfab2f-2160-41b5-95ab-d2e0665d7584","system_id":"levelo_inurba_marseille","lat":43.3153,"lon":5.3803,"is_reserved":false,"is_disabled":false,"rental_uris":{"android":"levelo://app?vid=73bfab2f-2160-41b5-95ab-d2e0665d7584","ios":"levelo://app?vid=73bfab2f-2160-41b5-95ab-d2e0665d7584"},"vehicle_type_id":"4","last_reported":1730930937,"current_range_meters":39200,"station_id":"ce4bhsp2rcd13ifvqi50","pricing_plan_id":"cebpf4jnsgd1na2vs0mg"},{"bike_id":"e53e5f72-9550-4bdf-a04d-643a9d23eeb5","system_id":"levelo_inurba_marseille","lat":43.30884,"lon":5.39646,"is_reserved":false,"is_disabled":false,"rental_uris":{"android":"levelo://app?vid=e53e5f72-9550-4bdf-a04d-643a9d23eeb5","ios":"levelo://app?vid=e53e5f72-9550-4bdf-a04d-643a9d23eeb5"},"vehicle_type_id":"4","last_reported":1730930937,"current_range_meters":6000,"station_id":"ce4bh012rcd13ifvqcv0","pricing_plan_id":"cebpf4jnsgd1na2vs0mg"},{"bike_id":"1f605dcf-489a-46c5-8ec0-74217c529382","system_id":"levelo_inurba_marseille","lat":43.24389,"lon":5.37056,"is_reserved":false,"is_disabled":false,"rental_uris":{"android":"levelo://app?vid=1f605dcf-489a-46c5-8ec0-74217c529382","ios":"levelo://app?vid=1f605dcf-489a-46c5-8ec0-74217c529382"},"vehicle_type_id":"4","last_reported":1730930937,"current_range_meters":10800,"station_id":"ce4bhhh2rcd13ifvqfk0","pricing_plan_id":"cebpf4jnsgd1na2vs0mg"},{"bike_id":"7681705d-d91b-40ed-b15b-e373d26800c1","system_id":"levelo_inurba_marseille","lat":43.289276,"lon":5.383904,"is_reserved":false,"is_disabled":false,"rental_uris":{"android":"levelo://app?vid=7681705d-d91b-40ed-b15b-e373d26800c1","ios":"levelo://app?vid=7681705d-d91b-40ed-b15b-e373d26800c1"},"vehicle_type_id":"4","last_reported":1730930937,"current_range_meters":39200,"station_id":"ce4bh612rcd13ifvqe6g","pricing_plan_id":"cebpf4jnsgd1na2vs0mg"},{"bike_id":"ee4e2628-0066-4f92-9883-aac3787b9751","system_id":"levelo_inurba_marseille","lat":43.3078,"lon":5.37651,"is_reserved":false,"is_disabled":false,"rental_uris":{"android":"levelo://app?vid=ee4e2628-0066-4f92-9883-aac3787b9751","ios":"levelo://app?vid=ee4e2628-0066-4f92-9883-aac3787b9751"},"vehicle_type_id":"4","last_reported":1730930937,"current_range_meters":29600,"station_id":"ce4bgv92rcd13ifvqcq0","pricing_plan_id":"cebpf4jnsgd1na2vs0mg"},{"bike_id":"9094defa-3c48-47d1-864e-b8ee2f1f0d2c","system_id":"levelo_inurba_marseille","lat":43.23197,"lon":5.35553,"is_reserved":false,"is_disabled":false,"rental_uris":{"android":"levelo://app?vid=9094defa-3c48-47d1-864e-b8ee2f1f0d2c","ios":"levelo://app?vid=9094defa-3c48-47d1-864e-b8ee2f1f0d2c"},"vehicle_type_id":"4","last_reported":1730930937,"current_range_meters":15200,"station_id":"ce4bhu92rcd13ifvqi70","pricing_plan_id":"cebpf4jnsgd1na2vs0mg"},{"bike_id":"138edf40-8b55-4b5b-8ebd-2a9cd72069a9","system_id":"levelo_inurba_marseille","lat":43.24669,"lon":5.38163,"is_reserved":false,"is_disabled":false,"rental_uris":{"android":"levelo://app?vid=138edf40-8b55-4b5b-8ebd-2a9cd72069a9","ios":"levelo://app?vid=138edf40-8b55-4b5b-8ebd-2a9cd72069a9"},"vehicle_type_id":"4","last_reported":1730930937,"current_range_meters":18000,"station_id":"ce4bhih2rcd13ifvqfr0","pricing_plan_id":"cebpf4jnsgd1na2vs0mg"},{"bike_id":"c1f11680-2672-40b6-8614-d00a9bc5e3c1","system_id":"levelo_inurba_marseille","lat":43.2586,"lon":5.39903,"is_reserved":false,"is_disabled":false,"rental_uris":{"android":"levelo://app?vid=c1f11680-2672-40b6-8614-d00a9bc5e3c1","ios":"levelo://app?vid=c1f11680-2672-40b6-8614-d00a9bc5e3c1"},"vehicle_type_id":"4","last_reported":1730930937,"current_range_meters":36800,"station_id":"ce4bhl92rcd13ifvqghg","pricing_plan_id":"cebpf4jnsgd1na2vs0mg"},{"bike_id":"cde33d01-4fdf-4588-9993-50576e545d63","system_id":"levelo_inurba_marseille","lat":43.29893,"lon":5.43652,"is_reserved":false,"is_disabled":false,"rental_uris":{"android":"levelo://app?vid=cde33d01-4fdf-4588-9993-50576e545d63","ios":"levelo://app?vid=cde33d01-4fdf-4588-9993-50576e545d63"},"vehicle_type_id":"4","last_reported":1730930937,"current_range_meters":36800,"station_id":"ce4bhpp2rcd13ifvqhfg","pricing_plan_id":"cebpf4jnsgd1na2vs0mg"},{"bike_id":"7b0fa45b-73b1-43d0-b318-c7b89f93ae59","system_id":"levelo_inurba_marseille","lat":43.3133,"lon":5.39693,"is_reserved":false,"is_disabled":false,"rental_uris":{"android":"levelo://app?vid=7b0fa45b-73b1-43d0-b318-c7b89f93ae59","ios":"levelo://app?vid=7b0fa45b-73b1-43d0-b318-c7b89f93ae59"},"vehicle_type_id":"4","last_reported":1730930937,"current_range_meters":7200,"station_id":"ce4bgvp2rcd13ifvqcu0","pricing_plan_id":"cebpf4jnsgd1na2vs0mg"},{"bike_id":"48f6d4cd-e599-4ef2-aea1-131e262bef81","system_id":"levelo_inurba_marseille","lat":43.29792,"lon":5.38113,"is_reserved":false,"is_disabled":false,"rental_uris":{"android":"levelo://app?vid=48f6d4cd-e599-4ef2-aea1-131e262bef81","ios":"levelo://app?vid=48f6d4cd-e599-4ef2-aea1-131e262bef81"},"vehicle_type_id":"4","last_reported":1730930937,"current_range_meters":38800,"station_id":"ce4bgip2rcd13ifvqbb0","pricing_plan_id":"cebpf4jnsgd1na2vs0mg"},{"bike_id":"76180087-7581-4fd5-b38a-35c240d40301","system_id":"levelo_inurba_marseille","lat":43.25861,"lon":5.39904,"is_reserved":false,"is_disabled":false,"rental_uris":{"android":"levelo://app?vid=76180087-7581-4fd5-b38a-35c240d40301","ios":"levelo://app?vid=76180087-7581-4fd5-b38a-35c240d40301"},"vehicle_type_id":"4","last_reported":1730930937,"current_range_meters":38000,"station_id":"ce4bhl92rcd13ifvqghg","pricing_plan_id":"cebpf4jnsgd1na2vs0mg"},{"bike_id":"2b6f0586-477f-4511-b655-74066c282c80","system_id":"levelo_inurba_marseille","lat":43.28846,"lon":5.35841,"is_reserved":false,"is_disabled":false,"rental_uris":{"android":"levelo://app?vid=2b6f0586-477f-4511-b655-74066c282c80","ios":"levelo://app?vid=2b6f0586-477f-4511-b655-74066c282c80"},"vehicle_type_id":"4","last_reported":1730930937,"current_range_meters":12800,"station_id":"ce4bhb12rcd13ifvqem0","pricing_plan_id":"cebpf4jnsgd1na2vs0mg"},{"bike_id":"308bba98-f889-4ff8-b49f-311533a44ba1","system_id":"levelo_inurba_marseille","lat":43.24998,"lon":5.38929,"is_reserved":false,"is_disabled":false,"rental_uris":{"android":"levelo://app?vid=308bba98-f889-4ff8-b49f-311533a44ba1","ios":"levelo://app?vid=308bba98-f889-4ff8-b49f-311533a44ba1"},"vehicle_type_id":"4","last_reported":1730930937,"current_range_meters":38000,"station_id":"ce4bhgp2rcd13ifvqfd0","pricing_plan_id":"cebpf4jnsgd1na2vs0mg"},{"bike_id":"89366d32-f18f-41cc-add5-a8ca219fef86","system_id":"levelo_inurba_marseille","lat":43.28726,"lon":5.36078,"is_reserved":false,"is_disabled":false,"rental_uris":{"android":"levelo://app?vid=89366d32-f18f-41cc-add5-a8ca219fef86","ios":"levelo://app?vid=89366d32-f18f-41cc-add5-a8ca219fef86"},"vehicle_type_id":"4","last_reported":1730930937,"current_range_meters":38800,"station_id":"cki0cbj6b192h4jlfktg","pricing_plan_id":"cebpf4jnsgd1na2vs0mg"},{"bike_id":"45e7adae-d936-4def-bb90-7a872cc45679","system_id":"levelo_inurba_marseille","lat":43.24826,"lon":5.40102,"is_reserved":false,"is_disabled":false,"rental_uris":{"android":"levelo://app?vid=45e7adae-d936-4def-bb90-7a872cc45679","ios":"levelo://app?vid=45e7adae-d936-4def-bb90-7a872cc45679"},"vehicle_type_id":"4","last_reported":1730930937,"current_range_meters":22000,"station_id":"","pricing_plan_id":"cebpf4jnsgd1na2vs0mg"},{"bike_id":"ce35c458-efa4-44e7-9708-b9d3d9ad5966","system_id":"levelo_inurba_marseille","lat":43.29202,"lon":5.3932,"is_reserved":false,"is_disabled":false,"rental_uris":{"android":"levelo://app?vid=ce35c458-efa4-44e7-9708-b9d3d9ad5966","ios":"levelo://app?vid=ce35c458-efa4-44e7-9708-b9d3d9ad5966"},"vehicle_type_id":"4","last_reported":1730930937,"current_range_meters":34000,"station_id":"ce4bh192rcd13ifvqdd0","pricing_plan_id":"cebpf4jnsgd1na2vs0mg"},{"bike_id":"5174ae6b-73b7-4eb9-b82e-9c61c1f78ce8","system_id":"levelo_inurba_marseille","lat":43.31221,"lon":5.40603,"is_reserved":false,"is_disabled":false,"rental_uris":{"android":"levelo://app?vid=5174ae6b-73b7-4eb9-b82e-9c61c1f78ce8","ios":"levelo://app?vid=5174ae6b-73b7-4eb9-b82e-9c61c1f78ce8"},"vehicle_type_id":"4","last_reported":1730930937,"current_range_meters":20000,"station_id":"","pricing_plan_id":"cebpf4jnsgd1na2vs0mg"},{"bike_id":"6c6067c7-81ca-4cfd-98d1-3c4aa468815b","system_id":"levelo_inurba_marseille","lat":43.31765,"lon":5.39009,"is_reserved":false,"is_disabled":false,"rental_uris":{"android":"levelo://app?vid=6c6067c7-81ca-4cfd-98d1-3c4aa468815b","ios":"levelo://app?vid=6c6067c7-81ca-4cfd-98d1-3c4aa468815b"},"vehicle_type_id":"4","last_reported":1730930937,"current_range_meters":38800,"station_id":"ce4bhqp2rcd13ifvqhng","pricing_plan_id":"cebpf4jnsgd1na2vs0mg"},{"bike_id":"698f04a8-8b31-4b26-bec7-b8ff5d19442b","system_id":"levelo_inurba_marseille","lat":43.31268,"lon":5.40163,"is_reserved":false,"is_disabled":false,"rental_uris":{"android":"levelo://app?vid=698f04a8-8b31-4b26-bec7-b8ff5d19442b","ios":"levelo://app?vid=698f04a8-8b31-4b26-bec7-b8ff5d19442b"},"vehicle_type_id":"4","last_reported":1730930937,"current_range_meters":36000,"station_id":"ce4bh092rcd13ifvqd30","pricing_plan_id":"cebpf4jnsgd1na2vs0mg"},{"bike_id":"73c53c13-4b99-443a-bf46-889ae8071c20","system_id":"levelo_inurba_marseille","lat":43.25085,"lon":5.39512,"is_reserved":false,"is_disabled":false,"rental_uris":{"android":"levelo://app?vid=73c53c13-4b99-443a-bf46-889ae8071c20","ios":"levelo://app?vid=73c53c13-4b99-443a-bf46-889ae8071c20"},"vehicle_type_id":"4","last_reported":1730930937,"current_range_meters":15200,"station_id":"ce4bhm12rcd13ifvqgkg","pricing_plan_id":"cebpf4jnsgd1na2vs0mg"},{"bike_id":"e877479d-cfb5-4613-ae40-bc0b4eef3ad4","system_id":"levelo_inurba_marseille","lat":43.297607,"lon":5.381107,"is_reserved":false,"is_disabled":false,"rental_uris":{"android":"levelo://app?vid=e877479d-cfb5-4613-ae40-bc0b4eef3ad4","ios":"levelo://app?vid=e877479d-cfb5-4613-ae40-bc0b4eef3ad4"},"vehicle_type_id":"4","last_reported":1730930937,"current_range_meters":38800,"station_id":"ce4bgv12rcd13ifvqcp0","pricing_plan_id":"cebpf4jnsgd1na2vs0mg"},{"bike_id":"2facdba2-ecb9-40ab-bffe-f6a10c31247c","system_id":"levelo_inurba_marseille","lat":43.33611,"lon":5.41037,"is_reserved":false,"is_disabled":false,"rental_uris":{"android":"levelo://app?vid=2facdba2-ecb9-40ab-bffe-f6a10c31247c","ios":"levelo://app?vid=2facdba2-ecb9-40ab-bffe-f6a10c31247c"},"vehicle_type_id":"4","last_reported":1730930937,"current_range_meters":30000,"station_id":"ce4bhqh2rcd13ifvqhmg","pricing_plan_id":"cebpf4jnsgd1na2vs0mg"},{"bike_id":"45c786d2-6de4-4f11-80dc-6ae8e747e679","system_id":"levelo_inurba_marseille","lat":43.30201,"lon":5.3945,"is_reserved":false,"is_disabled":false,"rental_uris":{"android":"levelo://app?vid=45c786d2-6de4-4f11-80dc-6ae8e747e679","ios":"levelo://app?vid=45c786d2-6de4-4f11-80dc-6ae8e747e679"},"vehicle_type_id":"4","last_reported":1730930937,"current_range_meters":33600,"station_id":"ce4bh0p2rcd13ifvqd70","pricing_plan_id":"cebpf4jnsgd1na2vs0mg"},{"bike_id":"ee8a3550-0001-4fcc-bd31-4beeb6d76621","system_id":"levelo_inurba_marseille","lat":43.31082,"lon":5.38361,"is_reserved":false,"is_disabled":false,"rental_uris":{"android":"levelo://app?vid=ee8a3550-0001-4fcc-bd31-4beeb6d76621","ios":"levelo://app?vid=ee8a3550-0001-4fcc-bd31-4beeb6d76621"},"vehicle_type_id":"4","last_reported":1730930937,"current_range_meters":11600,"station_id":"ce4bgv92rcd13ifvqcr0","pricing_plan_id":"cebpf4jnsgd1na2vs0mg"},{"bike_id":"d25cc44c-d51b-4657-b44d-4c31a96a9ac3","system_id":"levelo_inurba_marseille","lat":43.32343,"lon":5.40615,"is_reserved":false,"is_disabled":false,"rental_uris":{"android":"levelo://app?vid=d25cc44c-d51b-4657-b44d-4c31a96a9ac3","ios":"levelo://app?vid=d25cc44c-d51b-4657-b44d-4c31a96a9ac3"},"vehicle_type_id":"4","last_reported":1730930937,"current_range_meters":16400,"station_id":"ce4bhq92rcd13ifvqhjg","pricing_plan_id":"cebpf4jnsgd1na2vs0mg"},{"bike_id":"8eebcba0-c919-48bd-88f8-e35cda05e886","system_id":"levelo_inurba_marseille","lat":43.28691,"lon":5.38676,"is_reserved":false,"is_disabled":false,"rental_uris":{"android":"levelo://app?vid=8eebcba0-c919-48bd-88f8-e35cda05e886","ios":"levelo://app?vid=8eebcba0-c919-48bd-88f8-e35cda05e886"},"vehicle_type_id":"4","last_reported":1730930937,"current_range_meters":25200,"station_id":"ce4bh492rcd13ifvqdug","pricing_plan_id":"cebpf4jnsgd1na2vs0mg"},{"bike_id":"1a200d94-7fcc-43a0-baf7-0653f1297e9d","system_id":"levelo_inurba_marseille","lat":43.24667,"lon":5.38156,"is_reserved":false,"is_disabled":false,"rental_uris":{"android":"levelo://app?vid=1a200d94-7fcc-43a0-baf7-0653f1297e9d","ios":"levelo://app?vid=1a200d94-7fcc-43a0-baf7-0653f1297e9d"},"vehicle_type_id":"4","last_reported":1730930937,"current_range_meters":18800,"station_id":"ce4bhih2rcd13ifvqfr0","pricing_plan_id":"cebpf4jnsgd1na2vs0mg"},{"bike_id":"dd172bf8-d14d-45c6-9752-e4c7a309bb9f","system_id":"levelo_inurba_marseille","lat":43.25831,"lon":5.39434,"is_reserved":false,"is_disabled":false,"rental_uris":{"android":"levelo://app?vid=dd172bf8-d14d-45c6-9752-e4c7a309bb9f","ios":"levelo://app?vid=dd172bf8-d14d-45c6-9752-e4c7a309bb9f"},"vehicle_type_id":"4","last_reported":1730930937,"current_range_meters":37600,"station_id":"ce4bhip2rcd13ifvqft0","pricing_plan_id":"cebpf4jnsgd1na2vs0mg"},{"bike_id":"c819360e-bead-4d00-96c1-0cc47dde28e3","system_id":"levelo_inurba_marseille","lat":43.295531,"lon":5.422838,"is_reserved":false,"is_disabled":false,"rental_uris":{"android":"levelo://app?vid=c819360e-bead-4d00-96c1-0cc47dde28e3","ios":"levelo://app?vid=c819360e-bead-4d00-96c1-0cc47dde28e3"},"vehicle_type_id":"4","last_reported":1730930937,"current_range_meters":38800,"station_id":"ce4bhph2rcd13ifvqhdg","pricing_plan_id":"cebpf4jnsgd1na2vs0mg"},{"bike_id":"9fd2eafb-b3a2-4330-b6d6-848617578953","system_id":"levelo_inurba_marseille","lat":43.31997,"lon":5.38136,"is_reserved":false,"is_disabled":false,"rental_uris":{"android":"levelo://app?vid=9fd2eafb-b3a2-4330-b6d6-848617578953","ios":"levelo://app?vid=9fd2eafb-b3a2-4330-b6d6-848617578953"},"vehicle_type_id":"4","last_reported":1730930937,"current_range_meters":8400,"station_id":"ce4bhr12rcd13ifvqhpg","pricing_plan_id":"cebpf4jnsgd1na2vs0mg"},{"bike_id":"ed9d7a87-b2a5-4493-8ad8-420f1b483592","system_id":"levelo_inurba_marseille","lat":43.3088,"lon":5.3963,"is_reserved":false,"is_disabled":false,"rental_uris":{"android":"levelo://app?vid=ed9d7a87-b2a5-4493-8ad8-420f1b483592","ios":"levelo://app?vid=ed9d7a87-b2a5-4493-8ad8-420f1b483592"},"vehicle_type_id":"4","last_reported":1730930937,"current_range_meters":40000,"station_id":"ce4bh012rcd13ifvqcv0","pricing_plan_id":"cebpf4jnsgd1na2vs0mg"},{"bike_id":"5b0f60c7-ef1f-4634-8bc2-02af8f6e9225","system_id":"levelo_inurba_marseille","lat":43.29555,"lon":5.42277,"is_reserved":false,"is_disabled":false,"rental_uris":{"android":"levelo://app?vid=5b0f60c7-ef1f-4634-8bc2-02af8f6e9225","ios":"levelo://app?vid=5b0f60c7-ef1f-4634-8bc2-02af8f6e9225"},"vehicle_type_id":"4","last_reported":1730930937,"current_range_meters":23200,"station_id":"ce4bhph2rcd13ifvqhdg","pricing_plan_id":"cebpf4jnsgd1na2vs0mg"},{"bike_id":"420e4751-2784-4222-be4e-5723d5a12888","system_id":"levelo_inurba_marseille","lat":43.24386,"lon":5.37058,"is_reserved":false,"is_disabled":false,"rental_uris":{"android":"levelo://app?vid=420e4751-2784-4222-be4e-5723d5a12888","ios":"levelo://app?vid=420e4751-2784-4222-be4e-5723d5a12888"},"vehicle_type_id":"4","last_reported":1730930937,"current_range_meters":19600,"station_id":"ce4bhhh2rcd13ifvqfk0","pricing_plan_id":"cebpf4jnsgd1na2vs0mg"},{"bike_id":"837ded3d-8ab1-4eeb-9d54-012bc38338bd","system_id":"levelo_inurba_marseille","lat":43.28,"lon":5.400112,"is_reserved":false,"is_disabled":false,"rental_uris":{"android":"levelo://app?vid=837ded3d-8ab1-4eeb-9d54-012bc38338bd","ios":"levelo://app?vid=837ded3d-8ab1-4eeb-9d54-012bc38338bd"},"vehicle_type_id":"4","last_reported":1730930937,"current_range_meters":39200,"station_id":"ce4bho92rcd13ifvqh4g","pricing_plan_id":"cebpf4jnsgd1na2vs0mg"},{"bike_id":"2fe515d7-c2ba-40bc-af58-2812fb065090","system_id":"levelo_inurba_marseille","lat":43.29882,"lon":5.39739,"is_reserved":false,"is_disabled":false,"rental_uris":{"android":"levelo://app?vid=2fe515d7-c2ba-40bc-af58-2812fb065090","ios":"levelo://app?vid=2fe515d7-c2ba-40bc-af58-2812fb065090"},"vehicle_type_id":"4","last_reported":1730930937,"current_range_meters":40000,"station_id":"ce4bh0h2rcd13ifvqd50","pricing_plan_id":"cebpf4jnsgd1na2vs0mg"},{"bike_id":"94a14aeb-e8b9-4d00-a3d4-dcbfef13331d","system_id":"levelo_inurba_marseille","lat":43.30256,"lon":5.40055,"is_reserved":false,"is_disabled":false,"rental_uris":{"android":"levelo://app?vid=94a14aeb-e8b9-4d00-a3d4-dcbfef13331d","ios":"levelo://app?vid=94a14aeb-e8b9-4d00-a3d4-dcbfef13331d"},"vehicle_type_id":"4","last_reported":1730930937,"current_range_meters":33200,"station_id":"ce4bgvh2rcd13ifvqcs0","pricing_plan_id":"cebpf4jnsgd1na2vs0mg"},{"bike_id":"a5bc2fce-204d-4ecc-bd2f-0a758ce61f0d","system_id":"levelo_inurba_marseille","lat":43.27996,"lon":5.39996,"is_reserved":false,"is_disabled":false,"rental_uris":{"android":"levelo://app?vid=a5bc2fce-204d-4ecc-bd2f-0a758ce61f0d","ios":"levelo://app?vid=a5bc2fce-204d-4ecc-bd2f-0a758ce61f0d"},"vehicle_type_id":"4","last_reported":1730930937,"current_range_meters":8000,"station_id":"ce4bho92rcd13ifvqh4g","pricing_plan_id":"cebpf4jnsgd1na2vs0mg"},{"bike_id":"fd703d4d-2220-4eed-8a57-b09e4e7ca260","system_id":"levelo_inurba_marseille","lat":43.2945,"lon":5.39752,"is_reserved":false,"is_disabled":false,"rental_uris":{"android":"levelo://app?vid=fd703d4d-2220-4eed-8a57-b09e4e7ca260","ios":"levelo://app?vid=fd703d4d-2220-4eed-8a57-b09e4e7ca260"},"vehicle_type_id":"4","last_reported":1730930937,"current_range_meters":30000,"station_id":"ce4bh3h2rcd13ifvqdo0","pricing_plan_id":"cebpf4jnsgd1na2vs0mg"},{"bike_id":"ce9c29f4-99c2-42e0-bc51-19aa6bed5e01","system_id":"levelo_inurba_marseille","lat":43.30929,"lon":5.40136,"is_reserved":false,"is_disabled":false,"rental_uris":{"android":"levelo://app?vid=ce9c29f4-99c2-42e0-bc51-19aa6bed5e01","ios":"levelo://app?vid=ce9c29f4-99c2-42e0-bc51-19aa6bed5e01"},"vehicle_type_id":"4","last_reported":1730930937,"current_range_meters":24000,"station_id":"ce4bgvp2rcd13ifvqct0","pricing_plan_id":"cebpf4jnsgd1na2vs0mg"},{"bike_id":"4d3c374a-1f45-46b9-8607-f64397074506","system_id":"levelo_inurba_marseille","lat":43.25088,"lon":5.39518,"is_reserved":false,"is_disabled":false,"rental_uris":{"android":"levelo://app?vid=4d3c374a-1f45-46b9-8607-f64397074506","ios":"levelo://app?vid=4d3c374a-1f45-46b9-8607-f64397074506"},"vehicle_type_id":"4","last_reported":1730930937,"current_range_meters":28800,"station_id":"ce4bhm12rcd13ifvqgkg","pricing_plan_id":"cebpf4jnsgd1na2vs0mg"},{"bike_id":"6e5bb042-f0b5-471d-9711-9d10414d087e","system_id":"levelo_inurba_marseille","lat":43.28577,"lon":5.39488,"is_reserved":false,"is_disabled":false,"rental_uris":{"android":"levelo://app?vid=6e5bb042-f0b5-471d-9711-9d10414d087e","ios":"levelo://app?vid=6e5bb042-f0b5-471d-9711-9d10414d087e"},"vehicle_type_id":"4","last_reported":1730930937,"current_range_meters":8000,"station_id":"ce4bh292rcd13ifvqdg0","pricing_plan_id":"cebpf4jnsgd1na2vs0mg"},{"bike_id":"903b0ec3-2165-4ecf-84f1-2edb22136500","system_id":"levelo_inurba_marseille","lat":43.25727,"lon":5.41109,"is_reserved":false,"is_disabled":false,"rental_uris":{"android":"levelo://app?vid=903b0ec3-2165-4ecf-84f1-2edb22136500","ios":"levelo://app?vid=903b0ec3-2165-4ecf-84f1-2edb22136500"},"vehicle_type_id":"4","last_reported":1730930937,"current_range_meters":40000,"station_id":"ce4bhkp2rcd13ifvqgd0","pricing_plan_id":"cebpf4jnsgd1na2vs0mg"},{"bike_id":"b7dd8bea-767b-4a90-a1d4-bc825086e891","system_id":"levelo_inurba_marseille","lat":43.30138,"lon":5.39887,"is_reserved":false,"is_disabled":false,"rental_uris":{"android":"levelo://app?vid=b7dd8bea-767b-4a90-a1d4-bc825086e891","ios":"levelo://app?vid=b7dd8bea-767b-4a90-a1d4-bc825086e891"},"vehicle_type_id":"4","last_reported":1730930937,"current_range_meters":27200,"station_id":"ce4bh0h2rcd13ifvqd40","pricing_plan_id":"cebpf4jnsgd1na2vs0mg"},{"bike_id":"9a0ae2e4-d1fa-4de6-b4c7-29ff5e540266","system_id":"levelo_inurba_marseille","lat":43.34138,"lon":5.40907,"is_reserved":false,"is_disabled":false,"rental_uris":{"android":"levelo://app?vid=9a0ae2e4-d1fa-4de6-b4c7-29ff5e540266","ios":"levelo://app?vid=9a0ae2e4-d1fa-4de6-b4c7-29ff5e540266"},"vehicle_type_id":"4","last_reported":1730930937,"current_range_meters":33200,"station_id":"ce4bhqh2rcd13ifvqhlg","pricing_plan_id":"cebpf4jnsgd1na2vs0mg"},{"bike_id":"0ae9a65c-df56-4431-b28b-eae76520013a","system_id":"levelo_inurba_marseille","lat":43.32119,"lon":5.3885,"is_reserved":false,"is_disabled":false,"rental_uris":{"android":"levelo://app?vid=0ae9a65c-df56-4431-b28b-eae76520013a","ios":"levelo://app?vid=0ae9a65c-df56-4431-b28b-eae76520013a"},"vehicle_type_id":"4","last_reported":1730930937,"current_range_meters":36800,"station_id":"","pricing_plan_id":"cebpf4jnsgd1na2vs0mg"},{"bike_id":"688369d1-5be0-444d-b25e-23eb08c2c55f","system_id":"levelo_inurba_marseille","lat":43.31996,"lon":5.38141,"is_reserved":false,"is_disabled":false,"rental_uris":{"android":"levelo://app?vid=688369d1-5be0-444d-b25e-23eb08c2c55f","ios":"levelo://app?vid=688369d1-5be0-444d-b25e-23eb08c2c55f"},"vehicle_type_id":"4","last_reported":1730930937,"current_range_meters":12400,"station_id":"ce4bhr12rcd13ifvqhpg","pricing_plan_id":"cebpf4jnsgd1na2vs0mg"},{"bike_id":"0716099e-4daa-46f4-b3a0-9b0c2d84b63b","system_id":"levelo_inurba_marseille","lat":43.24806,"lon":5.37456,"is_reserved":false,"is_disabled":false,"rental_uris":{"android":"levelo://app?vid=0716099e-4daa-46f4-b3a0-9b0c2d84b63b","ios":"levelo://app?vid=0716099e-4daa-46f4-b3a0-9b0c2d84b63b"},"vehicle_type_id":"4","last_reported":1730930937,"current_range_meters":38800,"station_id":"ce4bhgh2rcd13ifvqfb0","pricing_plan_id":"cebpf4jnsgd1na2vs0mg"},{"bike_id":"55a677bd-87c6-4021-ae5c-c9a5693b7d71","system_id":"levelo_inurba_marseille","lat":43.31333,"lon":5.39695,"is_reserved":false,"is_disabled":false,"rental_uris":{"android":"levelo://app?vid=55a677bd-87c6-4021-ae5c-c9a5693b7d71","ios":"levelo://app?vid=55a677bd-87c6-4021-ae5c-c9a5693b7d71"},"vehicle_type_id":"4","last_reported":1730930937,"current_range_meters":40000,"station_id":"ce4bgvp2rcd13ifvqcu0","pricing_plan_id":"cebpf4jnsgd1na2vs0mg"},{"bike_id":"4e5d727a-7c34-44b8-af94-45a54b88c1cc","system_id":"levelo_inurba_marseille","lat":43.33726,"lon":5.39175,"is_reserved":false,"is_disabled":false,"rental_uris":{"android":"levelo://app?vid=4e5d727a-7c34-44b8-af94-45a54b88c1cc","ios":"levelo://app?vid=4e5d727a-7c34-44b8-af94-45a54b88c1cc"},"vehicle_type_id":"4","last_reported":1730930937,"current_range_meters":40000,"station_id":"ce4bhr92rcd13ifvqhsg","pricing_plan_id":"cebpf4jnsgd1na2vs0mg"},{"bike_id":"4d3b85b2-074c-4592-ac59-ac28cff03ca1","system_id":"levelo_inurba_marseille","lat":43.27904,"lon":5.37998,"is_reserved":false,"is_disabled":false,"rental_uris":{"android":"levelo://app?vid=4d3b85b2-074c-4592-ac59-ac28cff03ca1","ios":"levelo://app?vid=4d3b85b2-074c-4592-ac59-ac28cff03ca1"},"vehicle_type_id":"4","last_reported":1730930937,"current_range_meters":30000,"station_id":"ce4bhf92rcd13ifvqf50","pricing_plan_id":"cebpf4jnsgd1na2vs0mg"},{"bike_id":"fdbdbf66-3e22-4580-bd64-fe92a7e616b0","system_id":"levelo_inurba_marseille","lat":43.25091,"lon":5.39518,"is_reserved":false,"is_disabled":false,"rental_uris":{"android":"levelo://app?vid=fdbdbf66-3e22-4580-bd64-fe92a7e616b0","ios":"levelo://app?vid=fdbdbf66-3e22-4580-bd64-fe92a7e616b0"},"vehicle_type_id":"4","last_reported":1730930937,"current_range_meters":18000,"station_id":"ce4bhm12rcd13ifvqgkg","pricing_plan_id":"cebpf4jnsgd1na2vs0mg"},{"bike_id":"c75b9b52-b430-4c81-b723-a17bcc7311fb","system_id":"levelo_inurba_marseille","lat":43.28933,"lon":5.36409,"is_reserved":false,"is_disabled":false,"rental_uris":{"android":"levelo://app?vid=c75b9b52-b430-4c81-b723-a17bcc7311fb","ios":"levelo://app?vid=c75b9b52-b430-4c81-b723-a17bcc7311fb"},"vehicle_type_id":"4","last_reported":1730930937,"current_range_meters":40000,"station_id":"ce4bhc92rcd13ifvqetg","pricing_plan_id":"cebpf4jnsgd1na2vs0mg"},{"bike_id":"2ac59b30-95ad-4d41-84cd-66b709f67fc4","system_id":"levelo_inurba_marseille","lat":43.337444,"lon":5.374475,"is_reserved":false,"is_disabled":false,"rental_uris":{"android":"levelo://app?vid=2ac59b30-95ad-4d41-84cd-66b709f67fc4","ios":"levelo://app?vid=2ac59b30-95ad-4d41-84cd-66b709f67fc4"},"vehicle_type_id":"4","last_reported":1730930937,"current_range_meters":35600,"station_id":"","pricing_plan_id":"cebpf4jnsgd1na2vs0mg"},{"bike_id":"93444b2e-a368-4e9a-bd78-d630f95be8a7","system_id":"levelo_inurba_marseille","lat":43.31359,"lon":5.3849,"is_reserved":false,"is_disabled":false,"rental_uris":{"android":"levelo://app?vid=93444b2e-a368-4e9a-bd78-d630f95be8a7","ios":"levelo://app?vid=93444b2e-a368-4e9a-bd78-d630f95be8a7"},"vehicle_type_id":"4","last_reported":1730930937,"current_range_meters":38800,"station_id":"ce4bgt92rcd13ifvqcf0","pricing_plan_id":"cebpf4jnsgd1na2vs0mg"},{"bike_id":"d398d794-d5fa-4ae6-b063-9466efe93a0b","system_id":"levelo_inurba_marseille","lat":43.3234,"lon":5.40618,"is_reserved":false,"is_disabled":false,"rental_uris":{"android":"levelo://app?vid=d398d794-d5fa-4ae6-b063-9466efe93a0b","ios":"levelo://app?vid=d398d794-d5fa-4ae6-b063-9466efe93a0b"},"vehicle_type_id":"4","last_reported":1730930937,"current_range_meters":22400,"station_id":"ce4bhq92rcd13ifvqhjg","pricing_plan_id":"cebpf4jnsgd1na2vs0mg"},{"bike_id":"a429d417-ae34-4edf-87c8-05ac18f72a29","system_id":"levelo_inurba_marseille","lat":43.31081,"lon":5.38356,"is_reserved":false,"is_disabled":false,"rental_uris":{"android":"levelo://app?vid=a429d417-ae34-4edf-87c8-05ac18f72a29","ios":"levelo://app?vid=a429d417-ae34-4edf-87c8-05ac18f72a29"},"vehicle_type_id":"4","last_reported":1730930937,"current_range_meters":8000,"station_id":"ce4bgv92rcd13ifvqcr0","pricing_plan_id":"cebpf4jnsgd1na2vs0mg"},{"bike_id":"8d2e1d93-53af-4416-b8d6-8b4edd66eaa5","system_id":"levelo_inurba_marseille","lat":43.29528,"lon":5.39397,"is_reserved":false,"is_disabled":false,"rental_uris":{"android":"levelo://app?vid=8d2e1d93-53af-4416-b8d6-8b4edd66eaa5","ios":"levelo://app?vid=8d2e1d93-53af-4416-b8d6-8b4edd66eaa5"},"vehicle_type_id":"4","last_reported":1730930937,"current_range_meters":38800,"station_id":"ce4bh292rcd13ifvqdf0","pricing_plan_id":"cebpf4jnsgd1na2vs0mg"},{"bike_id":"b14a9bae-5644-45d5-b166-8cba06b667a6","system_id":"levelo_inurba_marseille","lat":43.28721,"lon":5.37943,"is_reserved":false,"is_disabled":false,"rental_uris":{"android":"levelo://app?vid=b14a9bae-5644-45d5-b166-8cba06b667a6","ios":"levelo://app?vid=b14a9bae-5644-45d5-b166-8cba06b667a6"},"vehicle_type_id":"4","last_reported":1730930937,"current_range_meters":29600,"station_id":"ce4bh9p2rcd13ifvqec0","pricing_plan_id":"cebpf4jnsgd1na2vs0mg"},{"bike_id":"3a819ef6-4ad2-478d-8e5d-e5d03c067e60","system_id":"levelo_inurba_marseille","lat":43.29578,"lon":5.36731,"is_reserved":false,"is_disabled":false,"rental_uris":{"android":"levelo://app?vid=3a819ef6-4ad2-478d-8e5d-e5d03c067e60","ios":"levelo://app?vid=3a819ef6-4ad2-478d-8e5d-e5d03c067e60"},"vehicle_type_id":"4","last_reported":1730930937,"current_range_meters":28000,"station_id":"ce4bgph2rcd13ifvqc2g","pricing_plan_id":"cebpf4jnsgd1na2vs0mg"},{"bike_id":"3d161c35-9f40-4b08-a68a-f579008f18ef","system_id":"levelo_inurba_marseille","lat":43.2572,"lon":5.41106,"is_reserved":false,"is_disabled":false,"rental_uris":{"android":"levelo://app?vid=3d161c35-9f40-4b08-a68a-f579008f18ef","ios":"levelo://app?vid=3d161c35-9f40-4b08-a68a-f579008f18ef"},"vehicle_type_id":"4","last_reported":1730930937,"current_range_meters":39200,"station_id":"ce4bhkp2rcd13ifvqgd0","pricing_plan_id":"cebpf4jnsgd1na2vs0mg"},{"bike_id":"1e59035c-5193-446f-a559-600e748f580e","system_id":"levelo_inurba_marseille","lat":43.30893,"lon":5.37195,"is_reserved":false,"is_disabled":false,"rental_uris":{"android":"levelo://app?vid=1e59035c-5193-446f-a559-600e748f580e","ios":"levelo://app?vid=1e59035c-5193-446f-a559-600e748f580e"},"vehicle_type_id":"4","last_reported":1730930937,"current_range_meters":22400,"station_id":"ce4bguh2rcd13ifvqckg","pricing_plan_id":"cebpf4jnsgd1na2vs0mg"},{"bike_id":"91dbb18e-7c31-498e-8c65-eddd96e1049a","system_id":"levelo_inurba_marseille","lat":43.28703,"lon":5.37387,"is_reserved":false,"is_disabled":false,"rental_uris":{"android":"levelo://app?vid=91dbb18e-7c31-498e-8c65-eddd96e1049a","ios":"levelo://app?vid=91dbb18e-7c31-498e-8c65-eddd96e1049a"},"vehicle_type_id":"4","last_reported":1730930937,"current_range_meters":33600,"station_id":"ce4bh3p2rcd13ifvqdq0","pricing_plan_id":"cebpf4jnsgd1na2vs0mg"},{"bike_id":"a53b139e-364b-46e8-b9bf-a9a5a826f0ed","system_id":"levelo_inurba_marseille","lat":43.2744,"lon":5.39402,"is_reserved":false,"is_disabled":false,"rental_uris":{"android":"levelo://app?vid=a53b139e-364b-46e8-b9bf-a9a5a826f0ed","ios":"levelo://app?vid=a53b139e-364b-46e8-b9bf-a9a5a826f0ed"},"vehicle_type_id":"4","last_reported":1730930937,"current_range_meters":38800,"station_id":"ce4bhdp2rcd13ifvqf20","pricing_plan_id":"cebpf4jnsgd1na2vs0mg"},{"bike_id":"81752ee9-f5be-4b48-b2c7-cae1b2469600","system_id":"levelo_inurba_marseille","lat":43.30934,"lon":5.40143,"is_reserved":false,"is_disabled":false,"rental_uris":{"android":"levelo://app?vid=81752ee9-f5be-4b48-b2c7-cae1b2469600","ios":"levelo://app?vid=81752ee9-f5be-4b48-b2c7-cae1b2469600"},"vehicle_type_id":"4","last_reported":1730930937,"current_range_meters":30400,"station_id":"ce4bgvp2rcd13ifvqct0","pricing_plan_id":"cebpf4jnsgd1na2vs0mg"},{"bike_id":"5a027fe5-3341-4a1a-a767-a7d3c06f0c1e","system_id":"levelo_inurba_marseille","lat":43.28941,"lon":5.36637,"is_reserved":false,"is_disabled":false,"rental_uris":{"android":"levelo://app?vid=5a027fe5-3341-4a1a-a767-a7d3c06f0c1e","ios":"levelo://app?vid=5a027fe5-3341-4a1a-a767-a7d3c06f0c1e"},"vehicle_type_id":"4","last_reported":1730930937,"current_range_meters":3200,"station_id":"ce4bhap2rcd13ifvqek0","pricing_plan_id":"cebpf4jnsgd1na2vs0mg"},{"bike_id":"85de2998-380a-4d61-b23b-be8766460c85","system_id":"levelo_inurba_marseille","lat":43.27922,"lon":5.39579,"is_reserved":false,"is_disabled":false,"rental_uris":{"android":"levelo://app?vid=85de2998-380a-4d61-b23b-be8766460c85","ios":"levelo://app?vid=85de2998-380a-4d61-b23b-be8766460c85"},"vehicle_type_id":"4","last_reported":1730930937,"current_range_meters":6400,"station_id":"ce4bhf92rcd13ifvqf40","pricing_plan_id":"cebpf4jnsgd1na2vs0mg"},{"bike_id":"f5aea827-bc8b-4408-a1ee-d19c04db8117","system_id":"levelo_inurba_marseille","lat":43.31718,"lon":5.3777,"is_reserved":false,"is_disabled":false,"rental_uris":{"android":"levelo://app?vid=f5aea827-bc8b-4408-a1ee-d19c04db8117","ios":"levelo://app?vid=f5aea827-bc8b-4408-a1ee-d19c04db8117"},"vehicle_type_id":"4","last_reported":1730930937,"current_range_meters":33600,"station_id":"ce4bgth2rcd13ifvqch0","pricing_plan_id":"cebpf4jnsgd1na2vs0mg"},{"bike_id":"0072c09f-84dc-4387-89a5-d8c408b867ad","system_id":"levelo_inurba_marseille","lat":43.30143,"lon":5.39874,"is_reserved":false,"is_disabled":false,"rental_uris":{"android":"levelo://app?vid=0072c09f-84dc-4387-89a5-d8c408b867ad","ios":"levelo://app?vid=0072c09f-84dc-4387-89a5-d8c408b867ad"},"vehicle_type_id":"4","last_reported":1730930937,"current_range_meters":38800,"station_id":"ce4bh0h2rcd13ifvqd40","pricing_plan_id":"cebpf4jnsgd1na2vs0mg"},{"bike_id":"ecc2597c-73b2-4662-b036-f015722a8a69","system_id":"levelo_inurba_marseille","lat":43.22941,"lon":5.35377,"is_reserved":false,"is_disabled":false,"rental_uris":{"android":"levelo://app?vid=ecc2597c-73b2-4662-b036-f015722a8a69","ios":"levelo://app?vid=ecc2597c-73b2-4662-b036-f015722a8a69"},"vehicle_type_id":"4","last_reported":1730930937,"current_range_meters":38000,"station_id":"cpo3532slgdg3j2ikp40","pricing_plan_id":"cebpf4jnsgd1na2vs0mg"},{"bike_id":"ba358931-b444-4977-afd4-cf9fc66e9573","system_id":"levelo_inurba_marseille","lat":43.2871,"lon":5.37937,"is_reserved":false,"is_disabled":false,"rental_uris":{"android":"levelo://app?vid=ba358931-b444-4977-afd4-cf9fc66e9573","ios":"levelo://app?vid=ba358931-b444-4977-afd4-cf9fc66e9573"},"vehicle_type_id":"4","last_reported":1730930937,"current_range_meters":38800,"station_id":"ce4bh9p2rcd13ifvqec0","pricing_plan_id":"cebpf4jnsgd1na2vs0mg"},{"bike_id":"52af7a3b-ddda-465a-a3b9-5cc6f08e1552","system_id":"levelo_inurba_marseille","lat":43.24165,"lon":5.36397,"is_reserved":false,"is_disabled":false,"rental_uris":{"android":"levelo://app?vid=52af7a3b-ddda-465a-a3b9-5cc6f08e1552","ios":"levelo://app?vid=52af7a3b-ddda-465a-a3b9-5cc6f08e1552"},"vehicle_type_id":"4","last_reported":1730930937,"current_range_meters":18800,"station_id":"cpo36qri1sfpv3e86is0","pricing_plan_id":"cebpf4jnsgd1na2vs0mg"},{"bike_id":"c8908898-597c-4769-9a3c-a8548f4da9f2","system_id":"levelo_inurba_marseille","lat":43.312771,"lon":5.401651,"is_reserved":false,"is_disabled":false,"rental_uris":{"android":"levelo://app?vid=c8908898-597c-4769-9a3c-a8548f4da9f2","ios":"levelo://app?vid=c8908898-597c-4769-9a3c-a8548f4da9f2"},"vehicle_type_id":"4","last_reported":1730930937,"current_range_meters":19200,"station_id":"ce4bh092rcd13ifvqd30","pricing_plan_id":"cebpf4jnsgd1na2vs0mg"},{"bike_id":"467cd5cb-e6f2-47b1-b614-a2adddbeea06","system_id":"levelo_inurba_marseille","lat":43.31366,"lon":5.38498,"is_reserved":false,"is_disabled":false,"rental_uris":{"android":"levelo://app?vid=467cd5cb-e6f2-47b1-b614-a2adddbeea06","ios":"levelo://app?vid=467cd5cb-e6f2-47b1-b614-a2adddbeea06"},"vehicle_type_id":"4","last_reported":1730930937,"current_range_meters":20000,"station_id":"ce4bgt92rcd13ifvqcf0","pricing_plan_id":"cebpf4jnsgd1na2vs0mg"},{"bike_id":"5a8f45b8-fcb6-44f2-b4d1-84488ddcd1ab","system_id":"levelo_inurba_marseille","lat":43.30885,"lon":5.39645,"is_reserved":false,"is_disabled":false,"rental_uris":{"android":"levelo://app?vid=5a8f45b8-fcb6-44f2-b4d1-84488ddcd1ab","ios":"levelo://app?vid=5a8f45b8-fcb6-44f2-b4d1-84488ddcd1ab"},"vehicle_type_id":"4","last_reported":1730930937,"current_range_meters":28000,"station_id":"ce4bh012rcd13ifvqcv0","pricing_plan_id":"cebpf4jnsgd1na2vs0mg"},{"bike_id":"923d8709-2f23-428d-889a-a4c82a103832","system_id":"levelo_inurba_marseille","lat":43.30417,"lon":5.41279,"is_reserved":false,"is_disabled":false,"rental_uris":{"android":"levelo://app?vid=923d8709-2f23-428d-889a-a4c82a103832","ios":"levelo://app?vid=923d8709-2f23-428d-889a-a4c82a103832"},"vehicle_type_id":"4","last_reported":1730930937,"current_range_meters":38000,"station_id":"ce4bhop2rcd13ifvqh8g","pricing_plan_id":"cebpf4jnsgd1na2vs0mg"},{"bike_id":"9488880d-0de3-457a-a2b5-2368d1f3c310","system_id":"levelo_inurba_marseille","lat":43.3089,"lon":5.39662,"is_reserved":false,"is_disabled":false,"rental_uris":{"android":"levelo://app?vid=9488880d-0de3-457a-a2b5-2368d1f3c310","ios":"levelo://app?vid=9488880d-0de3-457a-a2b5-2368d1f3c310"},"vehicle_type_id":"4","last_reported":1730930937,"current_range_meters":8000,"station_id":"ce4bh012rcd13ifvqcv0","pricing_plan_id":"cebpf4jnsgd1na2vs0mg"},{"bike_id":"dd591836-f417-403f-84a9-67ff85978f8f","system_id":"levelo_inurba_marseille","lat":43.23193,"lon":5.39974,"is_reserved":false,"is_disabled":false,"rental_uris":{"android":"levelo://app?vid=dd591836-f417-403f-84a9-67ff85978f8f","ios":"levelo://app?vid=dd591836-f417-403f-84a9-67ff85978f8f"},"vehicle_type_id":"4","last_reported":1730930937,"current_range_meters":6000,"station_id":"ce4bhn12rcd13ifvqgqg","pricing_plan_id":"cebpf4jnsgd1na2vs0mg"},{"bike_id":"bb017bc9-c270-4adf-9073-adf578799d78","system_id":"levelo_inurba_marseille","lat":43.316962,"lon":5.404699,"is_reserved":false,"is_disabled":false,"rental_uris":{"android":"levelo://app?vid=bb017bc9-c270-4adf-9073-adf578799d78","ios":"levelo://app?vid=bb017bc9-c270-4adf-9073-adf578799d78"},"vehicle_type_id":"4","last_reported":1730930937,"current_range_meters":7200,"station_id":"ce4bh012rcd13ifvqd00","pricing_plan_id":"cebpf4jnsgd1na2vs0mg"},{"bike_id":"3dec25da-d0c6-4951-a8d2-159d7102cdbc","system_id":"levelo_inurba_marseille","lat":43.27812,"lon":5.4071,"is_reserved":false,"is_disabled":false,"rental_uris":{"android":"levelo://app?vid=3dec25da-d0c6-4951-a8d2-159d7102cdbc","ios":"levelo://app?vid=3dec25da-d0c6-4951-a8d2-159d7102cdbc"},"vehicle_type_id":"4","last_reported":1730930937,"current_range_meters":8000,"station_id":"ce4bhnh2rcd13ifvqgtg","pricing_plan_id":"cebpf4jnsgd1na2vs0mg"},{"bike_id":"90ffd07d-b3d0-4148-aab7-31b6d0e600fd","system_id":"levelo_inurba_marseille","lat":43.28272,"lon":5.35076,"is_reserved":false,"is_disabled":false,"rental_uris":{"android":"levelo://app?vid=90ffd07d-b3d0-4148-aab7-31b6d0e600fd","ios":"levelo://app?vid=90ffd07d-b3d0-4148-aab7-31b6d0e600fd"},"vehicle_type_id":"4","last_reported":1730930937,"current_range_meters":16400,"station_id":"ce4bhbp2rcd13ifvqerg","pricing_plan_id":"cebpf4jnsgd1na2vs0mg"},{"bike_id":"e004a523-5703-45de-87b9-5b41ddb786ae","system_id":"levelo_inurba_marseille","lat":43.30597,"lon":5.39357,"is_reserved":false,"is_disabled":false,"rental_uris":{"android":"levelo://app?vid=e004a523-5703-45de-87b9-5b41ddb786ae","ios":"levelo://app?vid=e004a523-5703-45de-87b9-5b41ddb786ae"},"vehicle_type_id":"4","last_reported":1730930937,"current_range_meters":36000,"station_id":"ce4bh0p2rcd13ifvqd80","pricing_plan_id":"cebpf4jnsgd1na2vs0mg"},{"bike_id":"61680a4c-ec35-4c78-acb4-59a8d40b101c","system_id":"levelo_inurba_marseille","lat":43.27568,"lon":5.38486,"is_reserved":false,"is_disabled":false,"rental_uris":{"android":"levelo://app?vid=61680a4c-ec35-4c78-acb4-59a8d40b101c","ios":"levelo://app?vid=61680a4c-ec35-4c78-acb4-59a8d40b101c"},"vehicle_type_id":"4","last_reported":1730930937,"current_range_meters":38800,"station_id":"ce4bhh92rcd13ifvqfi0","pricing_plan_id":"cebpf4jnsgd1na2vs0mg"},{"bike_id":"85359c8d-cc51-4aa1-991a-1be21e554660","system_id":"levelo_inurba_marseille","lat":43.23186,"lon":5.39984,"is_reserved":false,"is_disabled":false,"rental_uris":{"android":"levelo://app?vid=85359c8d-cc51-4aa1-991a-1be21e554660","ios":"levelo://app?vid=85359c8d-cc51-4aa1-991a-1be21e554660"},"vehicle_type_id":"4","last_reported":1730930937,"current_range_meters":9600,"station_id":"ce4bhn12rcd13ifvqgqg","pricing_plan_id":"cebpf4jnsgd1na2vs0mg"},{"bike_id":"38780a4c-9535-4968-b1c7-71a04802861b","system_id":"levelo_inurba_marseille","lat":43.29775,"lon":5.37107,"is_reserved":false,"is_disabled":false,"rental_uris":{"android":"levelo://app?vid=38780a4c-9535-4968-b1c7-71a04802861b","ios":"levelo://app?vid=38780a4c-9535-4968-b1c7-71a04802861b"},"vehicle_type_id":"4","last_reported":1730930937,"current_range_meters":22800,"station_id":"ce4bgop2rcd13ifvqc1g","pricing_plan_id":"cebpf4jnsgd1na2vs0mg"},{"bike_id":"03e3d18b-a415-4f79-96ef-4cd3fb356397","system_id":"levelo_inurba_marseille","lat":43.28845,"lon":5.35855,"is_reserved":false,"is_disabled":false,"rental_uris":{"android":"levelo://app?vid=03e3d18b-a415-4f79-96ef-4cd3fb356397","ios":"levelo://app?vid=03e3d18b-a415-4f79-96ef-4cd3fb356397"},"vehicle_type_id":"4","last_reported":1730930937,"current_range_meters":10000,"station_id":"ce4bhb12rcd13ifvqem0","pricing_plan_id":"cebpf4jnsgd1na2vs0mg"},{"bike_id":"af546fe3-bcc5-4039-9c62-1b20f638cc9c","system_id":"levelo_inurba_marseille","lat":43.27569,"lon":5.38423,"is_reserved":false,"is_disabled":false,"rental_uris":{"android":"levelo://app?vid=af546fe3-bcc5-4039-9c62-1b20f638cc9c","ios":"levelo://app?vid=af546fe3-bcc5-4039-9c62-1b20f638cc9c"},"vehicle_type_id":"4","last_reported":1730930937,"current_range_meters":38000,"station_id":"ce4bhh92rcd13ifvqfi0","pricing_plan_id":"cebpf4jnsgd1na2vs0mg"},{"bike_id":"1f4703ba-401c-4a49-8335-c0e133381c89","system_id":"levelo_inurba_marseille","lat":43.29266,"lon":5.38442,"is_reserved":false,"is_disabled":false,"rental_uris":{"android":"levelo://app?vid=1f4703ba-401c-4a49-8335-c0e133381c89","ios":"levelo://app?vid=1f4703ba-401c-4a49-8335-c0e133381c89"},"vehicle_type_id":"4","last_reported":1730930937,"current_range_meters":38800,"station_id":"ce4bh692rcd13ifvqea0","pricing_plan_id":"cebpf4jnsgd1na2vs0mg"},{"bike_id":"b90b2c99-8d53-4ffd-bebc-8805e3eaa459","system_id":"levelo_inurba_marseille","lat":43.31276,"lon":5.40163,"is_reserved":false,"is_disabled":false,"rental_uris":{"android":"levelo://app?vid=b90b2c99-8d53-4ffd-bebc-8805e3eaa459","ios":"levelo://app?vid=b90b2c99-8d53-4ffd-bebc-8805e3eaa459"},"vehicle_type_id":"4","last_reported":1730930937,"current_range_meters":28400,"station_id":"ce4bh092rcd13ifvqd30","pricing_plan_id":"cebpf4jnsgd1na2vs0mg"},{"bike_id":"5335c7ad-0841-43aa-932e-a1f6a43a39ae","system_id":"levelo_inurba_marseille","lat":43.28698,"lon":5.37392,"is_reserved":false,"is_disabled":false,"rental_uris":{"android":"levelo://app?vid=5335c7ad-0841-43aa-932e-a1f6a43a39ae","ios":"levelo://app?vid=5335c7ad-0841-43aa-932e-a1f6a43a39ae"},"vehicle_type_id":"4","last_reported":1730930937,"current_range_meters":3200,"station_id":"ce4bh3p2rcd13ifvqdq0","pricing_plan_id":"cebpf4jnsgd1na2vs0mg"},{"bike_id":"60a50fe5-0db8-4381-94dc-eb72cb98b906","system_id":"levelo_inurba_marseille","lat":43.29096,"lon":5.38151,"is_reserved":false,"is_disabled":false,"rental_uris":{"android":"levelo://app?vid=60a50fe5-0db8-4381-94dc-eb72cb98b906","ios":"levelo://app?vid=60a50fe5-0db8-4381-94dc-eb72cb98b906"},"vehicle_type_id":"4","last_reported":1730930937,"current_range_meters":39200,"station_id":"ce4bh512rcd13ifvqe2g","pricing_plan_id":"cebpf4jnsgd1na2vs0mg"},{"bike_id":"d9bbf1c0-094c-464e-9ae6-21c662c890df","system_id":"levelo_inurba_marseille","lat":43.29882,"lon":5.39729,"is_reserved":false,"is_disabled":false,"rental_uris":{"android":"levelo://app?vid=d9bbf1c0-094c-464e-9ae6-21c662c890df","ios":"levelo://app?vid=d9bbf1c0-094c-464e-9ae6-21c662c890df"},"vehicle_type_id":"4","last_reported":1730930937,"current_range_meters":36800,"station_id":"ce4bh0h2rcd13ifvqd50","pricing_plan_id":"cebpf4jnsgd1na2vs0mg"},{"bike_id":"b876e512-e982-443f-a1de-beeabdcec0b2","system_id":"levelo_inurba_marseille","lat":43.30506,"lon":5.3809,"is_reserved":false,"is_disabled":false,"rental_uris":{"android":"levelo://app?vid=b876e512-e982-443f-a1de-beeabdcec0b2","ios":"levelo://app?vid=b876e512-e982-443f-a1de-beeabdcec0b2"},"vehicle_type_id":"4","last_reported":1730930937,"current_range_meters":14800,"station_id":"","pricing_plan_id":"cebpf4jnsgd1na2vs0mg"},{"bike_id":"7b03e489-e38f-490f-b482-ed7db3c26bb0","system_id":"levelo_inurba_marseille","lat":43.29885,"lon":5.39744,"is_reserved":false,"is_disabled":false,"rental_uris":{"android":"levelo://app?vid=7b03e489-e38f-490f-b482-ed7db3c26bb0","ios":"levelo://app?vid=7b03e489-e38f-490f-b482-ed7db3c26bb0"},"vehicle_type_id":"4","last_reported":1730930937,"current_range_meters":29600,"station_id":"ce4bh0h2rcd13ifvqd50","pricing_plan_id":"cebpf4jnsgd1na2vs0mg"},{"bike_id":"ced8706c-4472-4b4f-8a25-94042c427a41","system_id":"levelo_inurba_marseille","lat":43.30354,"lon":5.41883,"is_reserved":false,"is_disabled":false,"rental_uris":{"android":"levelo://app?vid=ced8706c-4472-4b4f-8a25-94042c427a41","ios":"levelo://app?vid=ced8706c-4472-4b4f-8a25-94042c427a41"},"vehicle_type_id":"4","last_reported":1730930937,"current_range_meters":15200,"station_id":"ce4bhop2rcd13ifvqh7g","pricing_plan_id":"cebpf4jnsgd1na2vs0mg"},{"bike_id":"ed17c239-cb6f-4f10-b65f-0cc43f17f6f9","system_id":"levelo_inurba_marseille","lat":43.28854,"lon":5.39316,"is_reserved":false,"is_disabled":false,"rental_uris":{"android":"levelo://app?vid=ed17c239-cb6f-4f10-b65f-0cc43f17f6f9","ios":"levelo://app?vid=ed17c239-cb6f-4f10-b65f-0cc43f17f6f9"},"vehicle_type_id":"4","last_reported":1730930937,"current_range_meters":23200,"station_id":"ce4bh2p2rcd13ifvqdi0","pricing_plan_id":"cebpf4jnsgd1na2vs0mg"},{"bike_id":"82e9ea93-4a43-4d8f-b3a4-4c2b075f6c82","system_id":"levelo_inurba_marseille","lat":43.31687,"lon":5.4047,"is_reserved":false,"is_disabled":false,"rental_uris":{"android":"levelo://app?vid=82e9ea93-4a43-4d8f-b3a4-4c2b075f6c82","ios":"levelo://app?vid=82e9ea93-4a43-4d8f-b3a4-4c2b075f6c82"},"vehicle_type_id":"4","last_reported":1730930937,"current_range_meters":14000,"station_id":"ce4bh012rcd13ifvqd00","pricing_plan_id":"cebpf4jnsgd1na2vs0mg"},{"bike_id":"f7580a0d-9afe-4cc1-8e42-f3683f9d2ed1","system_id":"levelo_inurba_marseille","lat":43.27905,"lon":5.38018,"is_reserved":false,"is_disabled":false,"rental_uris":{"android":"levelo://app?vid=f7580a0d-9afe-4cc1-8e42-f3683f9d2ed1","ios":"levelo://app?vid=f7580a0d-9afe-4cc1-8e42-f3683f9d2ed1"},"vehicle_type_id":"4","last_reported":1730930937,"current_range_meters":12000,"station_id":"ce4bhf92rcd13ifvqf50","pricing_plan_id":"cebpf4jnsgd1na2vs0mg"},{"bike_id":"c66cfd2b-6b27-48f4-8608-0c3afce51f13","system_id":"levelo_inurba_marseille","lat":43.30885,"lon":5.39641,"is_reserved":false,"is_disabled":false,"rental_uris":{"android":"levelo://app?vid=c66cfd2b-6b27-48f4-8608-0c3afce51f13","ios":"levelo://app?vid=c66cfd2b-6b27-48f4-8608-0c3afce51f13"},"vehicle_type_id":"4","last_reported":1730930937,"current_range_meters":25200,"station_id":"ce4bh012rcd13ifvqcv0","pricing_plan_id":"cebpf4jnsgd1na2vs0mg"},{"bike_id":"95a18c43-005b-4f4c-a0a0-e2f3ea31cfab","system_id":"levelo_inurba_marseille","lat":43.26063,"lon":5.39398,"is_reserved":false,"is_disabled":false,"rental_uris":{"android":"levelo://app?vid=95a18c43-005b-4f4c-a0a0-e2f3ea31cfab","ios":"levelo://app?vid=95a18c43-005b-4f4c-a0a0-e2f3ea31cfab"},"vehicle_type_id":"4","last_reported":1730930937,"current_range_meters":25200,"station_id":"ce4bhh92rcd13ifvqfj0","pricing_plan_id":"cebpf4jnsgd1na2vs0mg"},{"bike_id":"63679012-d0a0-44a9-a805-20815a46a99d","system_id":"levelo_inurba_marseille","lat":43.30793,"lon":5.40028,"is_reserved":false,"is_disabled":false,"rental_uris":{"android":"levelo://app?vid=63679012-d0a0-44a9-a805-20815a46a99d","ios":"levelo://app?vid=63679012-d0a0-44a9-a805-20815a46a99d"},"vehicle_type_id":"4","last_reported":1730930937,"current_range_meters":10000,"station_id":"","pricing_plan_id":"cebpf4jnsgd1na2vs0mg"},{"bike_id":"b5738913-2886-4b79-9515-3dd20595a79d","system_id":"levelo_inurba_marseille","lat":43.27373,"lon":5.36265,"is_reserved":false,"is_disabled":false,"rental_uris":{"android":"levelo://app?vid=b5738913-2886-4b79-9515-3dd20595a79d","ios":"levelo://app?vid=b5738913-2886-4b79-9515-3dd20595a79d"},"vehicle_type_id":"4","last_reported":1730930937,"current_range_meters":38800,"station_id":"ce4bhbh2rcd13ifvqeo0","pricing_plan_id":"cebpf4jnsgd1na2vs0mg"},{"bike_id":"887340df-7083-4187-8953-4bc94f3e841b","system_id":"levelo_inurba_marseille","lat":43.31175,"lon":5.38722,"is_reserved":false,"is_disabled":false,"rental_uris":{"android":"levelo://app?vid=887340df-7083-4187-8953-4bc94f3e841b","ios":"levelo://app?vid=887340df-7083-4187-8953-4bc94f3e841b"},"vehicle_type_id":"4","last_reported":1730930937,"current_range_meters":39200,"station_id":"ce4bgv12rcd13ifvqcp0","pricing_plan_id":"cebpf4jnsgd1na2vs0mg"},{"bike_id":"0007c120-2b8f-49c1-b3a2-b69854c6b2ad","system_id":"levelo_inurba_marseille","lat":43.2799,"lon":5.40007,"is_reserved":false,"is_disabled":false,"rental_uris":{"android":"levelo://app?vid=0007c120-2b8f-49c1-b3a2-b69854c6b2ad","ios":"levelo://app?vid=0007c120-2b8f-49c1-b3a2-b69854c6b2ad"},"vehicle_type_id":"4","last_reported":1730930937,"current_range_meters":33200,"station_id":"ce4bho92rcd13ifvqh4g","pricing_plan_id":"cebpf4jnsgd1na2vs0mg"},{"bike_id":"3b9b5e3d-e963-46e0-ab09-140e02d0d6f7","system_id":"levelo_inurba_marseille","lat":43.290558,"lon":5.380155,"is_reserved":false,"is_disabled":false,"rental_uris":{"android":"levelo://app?vid=3b9b5e3d-e963-46e0-ab09-140e02d0d6f7","ios":"levelo://app?vid=3b9b5e3d-e963-46e0-ab09-140e02d0d6f7"},"vehicle_type_id":"4","last_reported":1730930937,"current_range_meters":18800,"station_id":"ce4bh4p2rcd13ifvqe1g","pricing_plan_id":"cebpf4jnsgd1na2vs0mg"},{"bike_id":"0676d849-58b6-4143-8d93-e6ea116edbf5","system_id":"levelo_inurba_marseille","lat":43.257302,"lon":5.411056,"is_reserved":false,"is_disabled":false,"rental_uris":{"android":"levelo://app?vid=0676d849-58b6-4143-8d93-e6ea116edbf5","ios":"levelo://app?vid=0676d849-58b6-4143-8d93-e6ea116edbf5"},"vehicle_type_id":"4","last_reported":1730930937,"current_range_meters":30000,"station_id":"ce4bhkp2rcd13ifvqgd0","pricing_plan_id":"cebpf4jnsgd1na2vs0mg"},{"bike_id":"76a6e6d2-4686-4b04-b754-fb622b90a2bd","system_id":"levelo_inurba_marseille","lat":43.30137,"lon":5.3989,"is_reserved":false,"is_disabled":false,"rental_uris":{"android":"levelo://app?vid=76a6e6d2-4686-4b04-b754-fb622b90a2bd","ios":"levelo://app?vid=76a6e6d2-4686-4b04-b754-fb622b90a2bd"},"vehicle_type_id":"4","last_reported":1730930937,"current_range_meters":38800,"station_id":"ce4bh0h2rcd13ifvqd40","pricing_plan_id":"cebpf4jnsgd1na2vs0mg"},{"bike_id":"da8139e0-821f-473f-96e2-ae3d6a872e63","system_id":"levelo_inurba_marseille","lat":43.30732,"lon":5.42416,"is_reserved":false,"is_disabled":false,"rental_uris":{"android":"levelo://app?vid=da8139e0-821f-473f-96e2-ae3d6a872e63","ios":"levelo://app?vid=da8139e0-821f-473f-96e2-ae3d6a872e63"},"vehicle_type_id":"4","last_reported":1730930937,"current_range_meters":4400,"station_id":"","pricing_plan_id":"cebpf4jnsgd1na2vs0mg"},{"bike_id":"00fe3816-0493-45e7-9996-c04de4179916","system_id":"levelo_inurba_marseille","lat":43.28609,"lon":5.37064,"is_reserved":false,"is_disabled":false,"rental_uris":{"android":"levelo://app?vid=00fe3816-0493-45e7-9996-c04de4179916","ios":"levelo://app?vid=00fe3816-0493-45e7-9996-c04de4179916"},"vehicle_type_id":"4","last_reported":1730930937,"current_range_meters":6000,"station_id":"ce4bht12rcd13ifvqi60","pricing_plan_id":"cebpf4jnsgd1na2vs0mg"},{"bike_id":"52e611de-2867-41b7-900c-5ba8930a6ac8","system_id":"levelo_inurba_marseille","lat":43.29041,"lon":5.39954,"is_reserved":false,"is_disabled":false,"rental_uris":{"android":"levelo://app?vid=52e611de-2867-41b7-900c-5ba8930a6ac8","ios":"levelo://app?vid=52e611de-2867-41b7-900c-5ba8930a6ac8"},"vehicle_type_id":"4","last_reported":1730930937,"current_range_meters":38800,"station_id":"ce4bh392rcd13ifvqdm0","pricing_plan_id":"cebpf4jnsgd1na2vs0mg"},{"bike_id":"08ea0481-773d-4f98-aecd-294cbb3bff31","system_id":"levelo_inurba_marseille","lat":43.31723,"lon":5.42399,"is_reserved":false,"is_disabled":false,"rental_uris":{"android":"levelo://app?vid=08ea0481-773d-4f98-aecd-294cbb3bff31","ios":"levelo://app?vid=08ea0481-773d-4f98-aecd-294cbb3bff31"},"vehicle_type_id":"4","last_reported":1730930937,"current_range_meters":24800,"station_id":"ce4bhp92rcd13ifvqhbg","pricing_plan_id":"cebpf4jnsgd1na2vs0mg"},{"bike_id":"8436ecb3-47e0-4cca-9ae8-d7421c2f92f4","system_id":"levelo_inurba_marseille","lat":43.2319,"lon":5.39974,"is_reserved":false,"is_disabled":false,"rental_uris":{"android":"levelo://app?vid=8436ecb3-47e0-4cca-9ae8-d7421c2f92f4","ios":"levelo://app?vid=8436ecb3-47e0-4cca-9ae8-d7421c2f92f4"},"vehicle_type_id":"4","last_reported":1730930937,"current_range_meters":8800,"station_id":"ce4bhn12rcd13ifvqgqg","pricing_plan_id":"cebpf4jnsgd1na2vs0mg"},{"bike_id":"20c6ca9a-76ba-4e3f-9eeb-2a6da9712f70","system_id":"levelo_inurba_marseille","lat":43.31271,"lon":5.40163,"is_reserved":false,"is_disabled":false,"rental_uris":{"android":"levelo://app?vid=20c6ca9a-76ba-4e3f-9eeb-2a6da9712f70","ios":"levelo://app?vid=20c6ca9a-76ba-4e3f-9eeb-2a6da9712f70"},"vehicle_type_id":"4","last_reported":1730930937,"current_range_meters":14000,"station_id":"ce4bh092rcd13ifvqd30","pricing_plan_id":"cebpf4jnsgd1na2vs0mg"},{"bike_id":"0235ad22-6d87-4f43-b0e9-92ff12bebbf1","system_id":"levelo_inurba_marseille","lat":43.2465,"lon":5.38895,"is_reserved":false,"is_disabled":false,"rental_uris":{"android":"levelo://app?vid=0235ad22-6d87-4f43-b0e9-92ff12bebbf1","ios":"levelo://app?vid=0235ad22-6d87-4f43-b0e9-92ff12bebbf1"},"vehicle_type_id":"4","last_reported":1730930937,"current_range_meters":39200,"station_id":"ce4bhg12rcd13ifvqf60","pricing_plan_id":"cebpf4jnsgd1na2vs0mg"},{"bike_id":"d0572fc5-2ea8-424c-891e-4dca024c9b18","system_id":"levelo_inurba_marseille","lat":43.30951,"lon":5.39045,"is_reserved":false,"is_disabled":false,"rental_uris":{"android":"levelo://app?vid=d0572fc5-2ea8-424c-891e-4dca024c9b18","ios":"levelo://app?vid=d0572fc5-2ea8-424c-891e-4dca024c9b18"},"vehicle_type_id":"4","last_reported":1730930937,"current_range_meters":30000,"station_id":"ce4bgup2rcd13ifvqco0","pricing_plan_id":"cebpf4jnsgd1na2vs0mg"},{"bike_id":"bf1b6577-a242-4d3a-a901-2ef675cbe89f","system_id":"levelo_inurba_marseille","lat":43.29048,"lon":5.35911,"is_reserved":false,"is_disabled":false,"rental_uris":{"android":"levelo://app?vid=bf1b6577-a242-4d3a-a901-2ef675cbe89f","ios":"levelo://app?vid=bf1b6577-a242-4d3a-a901-2ef675cbe89f"},"vehicle_type_id":"4","last_reported":1730930937,"current_range_meters":38000,"station_id":"ce4bha92rcd13ifvqeg0","pricing_plan_id":"cebpf4jnsgd1na2vs0mg"},{"bike_id":"436ef769-34a6-47fe-a884-d5fab131c5b4","system_id":"levelo_inurba_marseille","lat":43.25866,"lon":5.39902,"is_reserved":false,"is_disabled":false,"rental_uris":{"android":"levelo://app?vid=436ef769-34a6-47fe-a884-d5fab131c5b4","ios":"levelo://app?vid=436ef769-34a6-47fe-a884-d5fab131c5b4"},"vehicle_type_id":"4","last_reported":1730930937,"current_range_meters":38800,"station_id":"ce4bhl92rcd13ifvqghg","pricing_plan_id":"cebpf4jnsgd1na2vs0mg"},{"bike_id":"ae71a3a8-d9d9-4d77-8cbf-c0abe19dcab1","system_id":"levelo_inurba_marseille","lat":43.31169,"lon":5.38711,"is_reserved":false,"is_disabled":false,"rental_uris":{"android":"levelo://app?vid=ae71a3a8-d9d9-4d77-8cbf-c0abe19dcab1","ios":"levelo://app?vid=ae71a3a8-d9d9-4d77-8cbf-c0abe19dcab1"},"vehicle_type_id":"4","last_reported":1730930937,"current_range_meters":8000,"station_id":"ce4bgv12rcd13ifvqcp0","pricing_plan_id":"cebpf4jnsgd1na2vs0mg"},{"bike_id":"eddbfe76-8b03-461a-80ed-f58e73c78f72","system_id":"levelo_inurba_marseille","lat":43.30323,"lon":5.40439,"is_reserved":false,"is_disabled":false,"rental_uris":{"android":"levelo://app?vid=eddbfe76-8b03-461a-80ed-f58e73c78f72","ios":"levelo://app?vid=eddbfe76-8b03-461a-80ed-f58e73c78f72"},"vehicle_type_id":"4","last_reported":1730930937,"current_range_meters":38400,"station_id":"ce4bh012rcd13ifvqd10","pricing_plan_id":"cebpf4jnsgd1na2vs0mg"},{"bike_id":"5eb185e5-1702-4485-9e7e-f887c0652563","system_id":"levelo_inurba_marseille","lat":43.27314,"lon":5.39141,"is_reserved":false,"is_disabled":false,"rental_uris":{"android":"levelo://app?vid=5eb185e5-1702-4485-9e7e-f887c0652563","ios":"levelo://app?vid=5eb185e5-1702-4485-9e7e-f887c0652563"},"vehicle_type_id":"4","last_reported":1730930937,"current_range_meters":38800,"station_id":"ce4bhgp2rcd13ifvqfe0","pricing_plan_id":"cebpf4jnsgd1na2vs0mg"},{"bike_id":"f2505e30-345e-484e-b2e1-ae1a32d61553","system_id":"levelo_inurba_marseille","lat":43.24809,"lon":5.37456,"is_reserved":false,"is_disabled":false,"rental_uris":{"android":"levelo://app?vid=f2505e30-345e-484e-b2e1-ae1a32d61553","ios":"levelo://app?vid=f2505e30-345e-484e-b2e1-ae1a32d61553"},"vehicle_type_id":"4","last_reported":1730930937,"current_range_meters":38800,"station_id":"ce4bhgh2rcd13ifvqfb0","pricing_plan_id":"cebpf4jnsgd1na2vs0mg"},{"bike_id":"2f232e17-caa8-4763-88d4-ba452830fd53","system_id":"levelo_inurba_marseille","lat":43.315,"lon":5.3727,"is_reserved":false,"is_disabled":false,"rental_uris":{"android":"levelo://app?vid=2f232e17-caa8-4763-88d4-ba452830fd53","ios":"levelo://app?vid=2f232e17-caa8-4763-88d4-ba452830fd53"},"vehicle_type_id":"4","last_reported":1730930937,"current_range_meters":39200,"station_id":"ce4bgt12rcd13ifvqcd0","pricing_plan_id":"cebpf4jnsgd1na2vs0mg"},{"bike_id":"265096aa-09f0-4048-a8c9-572fabdb72f6","system_id":"levelo_inurba_marseille","lat":43.30782,"lon":5.37654,"is_reserved":false,"is_disabled":false,"rental_uris":{"android":"levelo://app?vid=265096aa-09f0-4048-a8c9-572fabdb72f6","ios":"levelo://app?vid=265096aa-09f0-4048-a8c9-572fabdb72f6"},"vehicle_type_id":"4","last_reported":1730930937,"current_range_meters":36800,"station_id":"ce4bgv92rcd13ifvqcq0","pricing_plan_id":"cebpf4jnsgd1na2vs0mg"},{"bike_id":"a731dd33-10c2-4158-b07e-2a8192e06221","system_id":"levelo_inurba_marseille","lat":43.27172,"lon":5.40992,"is_reserved":false,"is_disabled":false,"rental_uris":{"android":"levelo://app?vid=a731dd33-10c2-4158-b07e-2a8192e06221","ios":"levelo://app?vid=a731dd33-10c2-4158-b07e-2a8192e06221"},"vehicle_type_id":"4","last_reported":1730930937,"current_range_meters":33200,"station_id":"ce4bhl12rcd13ifvqgf0","pricing_plan_id":"cebpf4jnsgd1na2vs0mg"},{"bike_id":"59416991-7a58-4a42-ab7f-50de4ace5b32","system_id":"levelo_inurba_marseille","lat":43.28655,"lon":5.3635,"is_reserved":false,"is_disabled":false,"rental_uris":{"android":"levelo://app?vid=59416991-7a58-4a42-ab7f-50de4ace5b32","ios":"levelo://app?vid=59416991-7a58-4a42-ab7f-50de4ace5b32"},"vehicle_type_id":"4","last_reported":1730930937,"current_range_meters":19600,"station_id":"ce4bhah2rcd13ifvqej0","pricing_plan_id":"cebpf4jnsgd1na2vs0mg"},{"bike_id":"d4c18f27-9621-4995-970c-0ef0e8e838f7","system_id":"levelo_inurba_marseille","lat":43.30881,"lon":5.39635,"is_reserved":false,"is_disabled":false,"rental_uris":{"android":"levelo://app?vid=d4c18f27-9621-4995-970c-0ef0e8e838f7","ios":"levelo://app?vid=d4c18f27-9621-4995-970c-0ef0e8e838f7"},"vehicle_type_id":"4","last_reported":1730930937,"current_range_meters":38800,"station_id":"ce4bh012rcd13ifvqcv0","pricing_plan_id":"cebpf4jnsgd1na2vs0mg"},{"bike_id":"1d3b5267-b0f2-4113-9405-d63e466792fa","system_id":"levelo_inurba_marseille","lat":43.28658,"lon":5.36329,"is_reserved":false,"is_disabled":false,"rental_uris":{"android":"levelo://app?vid=1d3b5267-b0f2-4113-9405-d63e466792fa","ios":"levelo://app?vid=1d3b5267-b0f2-4113-9405-d63e466792fa"},"vehicle_type_id":"4","last_reported":1730930937,"current_range_meters":27200,"station_id":"ce4bhah2rcd13ifvqej0","pricing_plan_id":"cebpf4jnsgd1na2vs0mg"},{"bike_id":"df76b8db-bee4-47ad-aa31-b0ce8e8067a3","system_id":"levelo_inurba_marseille","lat":43.3021,"lon":5.39461,"is_reserved":false,"is_disabled":false,"rental_uris":{"android":"levelo://app?vid=df76b8db-bee4-47ad-aa31-b0ce8e8067a3","ios":"levelo://app?vid=df76b8db-bee4-47ad-aa31-b0ce8e8067a3"},"vehicle_type_id":"4","last_reported":1730930937,"current_range_meters":11200,"station_id":"ce4bh0p2rcd13ifvqd70","pricing_plan_id":"cebpf4jnsgd1na2vs0mg"},{"bike_id":"34b7db2b-5531-4d9a-a398-5dbde2b68d3b","system_id":"levelo_inurba_marseille","lat":43.28456,"lon":5.35885,"is_reserved":false,"is_disabled":false,"rental_uris":{"android":"levelo://app?vid=34b7db2b-5531-4d9a-a398-5dbde2b68d3b","ios":"levelo://app?vid=34b7db2b-5531-4d9a-a398-5dbde2b68d3b"},"vehicle_type_id":"4","last_reported":1730930937,"current_range_meters":36400,"station_id":"ce4bhah2rcd13ifvqei0","pricing_plan_id":"cebpf4jnsgd1na2vs0mg"},{"bike_id":"9a99320d-2bac-4820-94e2-5233b29d5407","system_id":"levelo_inurba_marseille","lat":43.28366,"lon":5.38632,"is_reserved":false,"is_disabled":false,"rental_uris":{"android":"levelo://app?vid=9a99320d-2bac-4820-94e2-5233b29d5407","ios":"levelo://app?vid=9a99320d-2bac-4820-94e2-5233b29d5407"},"vehicle_type_id":"4","last_reported":1730930937,"current_range_meters":31200,"station_id":"ce4bh492rcd13ifvqdvg","pricing_plan_id":"cebpf4jnsgd1na2vs0mg"},{"bike_id":"a0dba6cc-6a3f-493d-870f-1cb8636de567","system_id":"levelo_inurba_marseille","lat":43.30936,"lon":5.40147,"is_reserved":false,"is_disabled":false,"rental_uris":{"android":"levelo://app?vid=a0dba6cc-6a3f-493d-870f-1cb8636de567","ios":"levelo://app?vid=a0dba6cc-6a3f-493d-870f-1cb8636de567"},"vehicle_type_id":"4","last_reported":1730930937,"current_range_meters":40000,"station_id":"ce4bgvp2rcd13ifvqct0","pricing_plan_id":"cebpf4jnsgd1na2vs0mg"},{"bike_id":"e8e8e8e9-08c1-402e-b5a4-f215d1376162","system_id":"levelo_inurba_marseille","lat":43.24173,"lon":5.39728,"is_reserved":false,"is_disabled":false,"rental_uris":{"android":"levelo://app?vid=e8e8e8e9-08c1-402e-b5a4-f215d1376162","ios":"levelo://app?vid=e8e8e8e9-08c1-402e-b5a4-f215d1376162"},"vehicle_type_id":"4","last_reported":1730930937,"current_range_meters":37600,"station_id":"ce4bhn12rcd13ifvqgpg","pricing_plan_id":"cebpf4jnsgd1na2vs0mg"},