{"last_updated":1747739360,"ttl":60,"version":"2.2","data":{"bikes":[{"bike_id":"c0b9fd4f-e181-46ce-b0bf-f5119973334f","system_id":"levelo_inurba_marseille","lat":43.33771,"lon":5.37424,"is_reserved":false,"is_disabled":true,"rental_uris":{"android":"levelo://app?vid=c0b9fd4f-e181-46ce-b0bf-f5119973334f","ios":"levelo://app?vid=c0b9fd4f-e181-46ce-b0bf-f5119973334f"},"vehicle_type_id":"4","last_reported":1747739360,"current_range_meters":0,"station_id":"","pricing_plan_id":"cebpf4jnsgd1na2vs0mg"},{"bike_id":"fc2577e7-1497-425b-9d4f-ab8d7dc843c6","system_id":"levelo_inurba_marseille","lat":43.33771,"lon":5.37485,"is_reserved":false,"is_disabled":true,"rental_uris":{"android":"levelo://app?vid=fc2577e7-1497-425b-9d4f-ab8d7dc843c6","ios":"levelo://app?vid=fc2577e7-1497-425b-9d4f-ab8d7dc843c6"},"vehicle_type_id":"4","last_reported":1747739360,"current_range_meters":0,"station_id":"","pricing_plan_id":"cebpf4jnsgd1na2vs0mg"},{"bike_id":"2c6dfaae-8fbc-47cb-ad6a-20995bfdbd79","system_id":"levelo_inurba_marseille","lat":43.29977,"lon":5.38494,"is_reserved":false,"is_disabled":true,"rental_uris":{"android":"levelo://app?vid=2c6dfaae-8fbc-47cb-ad6a-20995bfdbd79","ios":"levelo://app?vid=2c6dfaae-8fbc-47cb-ad6a-20995bfdbd79"},"vehicle_type_id":"4","last_reported":1747739360,"current_range_meters":0,"station_id":"","pricing_plan_id":"cebpf4jnsgd1na2vs0mg"},{"bike_id":"ae351b4c-6c40-4ffb-b987-63a0f21a3b81","system_id":"levelo_inurba_marseille","lat":43.337444,"lon":5.374475,"is_reserved":false,"is_disabled":true,"rental_uris":{"android":"levelo://app?vid=ae351b4c-6c40-4ffb-b987-63a0f21a3b81","ios":"levelo://app?vid=ae351b4c-6c40-4ffb-b987-63a0f21a3b81"},"vehicle_type_id":"4","last_reported":1747739360,"current_range_meters":0,"station_id":"","pricing_plan_id":"cebpf4jnsgd1na2vs0mg"},{"bike_id":"e9dd3aa4-b5e7-4480-926d-d7f537719bfa","system_id":"levelo_inurba_marseille","lat":43.23033,"lon":5.4019,"is_reserved":false,"is_disabled":true,"rental_uris":{"android":"levelo://app?vid=e9dd3aa4-b5e7-4480-926d-d7f537719bfa","ios":"levelo://app?vid=e9dd3aa4-b5e7-4480-926d-d7f537719bfa"},"vehicle_type_id":"4","last_reported":1747739360,"current_range_meters":0,"station_id":"","pricing_plan_id":"cebpf4jnsgd1na2vs0mg"},{"bike_id":"0d685775-68e7-46ae-a823-0c3f4437667d","system_id":"levelo_inurba_marseille","lat":43.30949,"lon":5.39027,"is_reserved":false,"is_disabled":true,"rental_uris":{"android":"levelo://app?vid=0d685775-68e7-46ae-a823-0c3f4437667d","ios":"levelo://app?vid=0d685775-68e7-46ae-a823-0c3f4437667d"},"vehicle_type_id":"4","last_reported":1747739360,"current_range_meters":0,"station_id":"ce4bgup2rcd13ifvqco0","pricing_plan_id":"cebpf4jnsgd1na2vs0mg"},{"bike_id":"663a698d-eb03-4971-9dc3-e121ecd1896d","system_id":"levelo_inurba_marseille","lat":43.2808,"lon":5.39651,"is_reserved":false,"is_disabled":true,"rental_uris":{"android":"levelo://app?vid=663a698d-eb03-4971-9dc3-e121ecd1896d","ios":"levelo://app?vid=663a698d-eb03-4971-9dc3-e121ecd1896d"},"vehicle_type_id":"4","last_reported":1747739360,"current_range_meters":400,"station_id":"ce4bho12rcd13ifvqh2g","pricing_plan_id":"cebpf4jnsgd1na2vs0mg"},{"bike_id":"b085a21d-208a-41e1-a684-35d05e107c69","system_id":"levelo_inurba_marseille","lat":43.27837,"lon":5.39199,"is_reserved":false,"is_disabled":true,"rental_uris":{"android":"levelo://app?vid=b085a21d-208a-41e1-a684-35d05e107c69","ios":"levelo://app?vid=b085a21d-208a-41e1-a684-35d05e107c69"},"vehicle_type_id":"4","last_reported":1747739360,"current_range_meters":800,"station_id":"ce4bhjp2rcd13ifvqga0","pricing_plan_id":"cebpf4jnsgd1na2vs0mg"},{"bike_id":"9fdbc117-4b03-451a-81bb-390c99038b2e","system_id":"levelo_inurba_marseille","lat":43.270739,"lon":5.422814,"is_reserved":false,"is_disabled":true,"rental_uris":{"android":"levelo://app?vid=9fdbc117-4b03-451a-81bb-390c99038b2e","ios":"levelo://app?vid=9fdbc117-4b03-451a-81bb-390c99038b2e"},"vehicle_type_id":"4","last_reported":1747739360,"current_range_meters":800,"station_id":"ce4bhk92rcd13ifvqgb0","pricing_plan_id":"cebpf4jnsgd1na2vs0mg"},{"bike_id":"3ee2b977-8e2a-4ddb-a3e6-fe706bf5ae63","system_id":"levelo_inurba_marseille","lat":43.27969,"lon":5.41668,"is_reserved":false,"is_disabled":true,"rental_uris":{"android":"levelo://app?vid=3ee2b977-8e2a-4ddb-a3e6-fe706bf5ae63","ios":"levelo://app?vid=3ee2b977-8e2a-4ddb-a3e6-fe706bf5ae63"},"vehicle_type_id":"4","last_reported":1747739360,"current_range_meters":2000,"station_id":"ce4bho12rcd13ifvqh1g","pricing_plan_id":"cebpf4jnsgd1na2vs0mg"},{"bike_id":"c0765eee-8739-487d-a05d-67c63c45599f","system_id":"levelo_inurba_marseille","lat":43.3091,"lon":5.36852,"is_reserved":false,"is_disabled":false,"rental_uris":{"android":"levelo://app?vid=c0765eee-8739-487d-a05d-67c63c45599f","ios":"levelo://app?vid=c0765eee-8739-487d-a05d-67c63c45599f"},"vehicle_type_id":"4","last_reported":1747739360,"current_range_meters":2800,"station_id":"ce4bgn92rcd13ifvqbvg","pricing_plan_id":"cebpf4jnsgd1na2vs0mg"},{"bike_id":"758e16fd-ceec-4fbc-b4ed-eef9b3ab872c","system_id":"levelo_inurba_marseille","lat":43.26495,"lon":5.39539,"is_reserved":false,"is_disabled":false,"rental_uris":{"android":"levelo://app?vid=758e16fd-ceec-4fbc-b4ed-eef9b3ab872c","ios":"levelo://app?vid=758e16fd-ceec-4fbc-b4ed-eef9b3ab872c"},"vehicle_type_id":"4","last_reported":1747739360,"current_range_meters":2800,"station_id":"ce4bhi12rcd13ifvqfq0","pricing_plan_id":"cebpf4jnsgd1na2vs0mg"},{"bike_id":"91cd1efe-86e7-4388-8c1a-709ee6b860f5","system_id":"levelo_inurba_marseille","lat":43.24545,"lon":5.39526,"is_reserved":false,"is_disabled":false,"rental_uris":{"android":"levelo://app?vid=91cd1efe-86e7-4388-8c1a-709ee6b860f5","ios":"levelo://app?vid=91cd1efe-86e7-4388-8c1a-709ee6b860f5"},"vehicle_type_id":"4","last_reported":1747739360,"current_range_meters":2800,"station_id":"ce4bhlp2rcd13ifvqgjg","pricing_plan_id":"cebpf4jnsgd1na2vs0mg"},{"bike_id":"6ce27d7b-c18f-4077-9f22-648e3d2b619e","system_id":"levelo_inurba_marseille","lat":43.2594,"lon":5.40902,"is_reserved":false,"is_disabled":false,"rental_uris":{"android":"levelo://app?vid=6ce27d7b-c18f-4077-9f22-648e3d2b619e","ios":"levelo://app?vid=6ce27d7b-c18f-4077-9f22-648e3d2b619e"},"vehicle_type_id":"4","last_reported":1747739360,"current_range_meters":2800,"station_id":"ce4bhm92rcd13ifvqglg","pricing_plan_id":"cebpf4jnsgd1na2vs0mg"},{"bike_id":"14312a4f-5518-4993-ba17-b9a97fb5ebf1","system_id":"levelo_inurba_marseille","lat":43.28927,"lon":5.39606,"is_reserved":false,"is_disabled":false,"rental_uris":{"android":"levelo://app?vid=14312a4f-5518-4993-ba17-b9a97fb5ebf1","ios":"levelo://app?vid=14312a4f-5518-4993-ba17-b9a97fb5ebf1"},"vehicle_type_id":"4","last_reported":1747739360,"current_range_meters":3200,"station_id":"ce4bh3h2rcd13ifvqdn0","pricing_plan_id":"cebpf4jnsgd1na2vs0mg"},{"bike_id":"ed34d33b-1070-459b-840e-0edc0b5be910","system_id":"levelo_inurba_marseille","lat":43.2707,"lon":5.42281,"is_reserved":false,"is_disabled":false,"rental_uris":{"android":"levelo://app?vid=ed34d33b-1070-459b-840e-0edc0b5be910","ios":"levelo://app?vid=ed34d33b-1070-459b-840e-0edc0b5be910"},"vehicle_type_id":"4","last_reported":1747739360,"current_range_meters":3200,"station_id":"ce4bhk92rcd13ifvqgb0","pricing_plan_id":"cebpf4jnsgd1na2vs0mg"},{"bike_id":"6e3a4264-0256-4fdc-ae68-33d7bc0f653c","system_id":"levelo_inurba_marseille","lat":43.30868,"lon":5.371955,"is_reserved":false,"is_disabled":false,"rental_uris":{"android":"levelo://app?vid=6e3a4264-0256-4fdc-ae68-33d7bc0f653c","ios":"levelo://app?vid=6e3a4264-0256-4fdc-ae68-33d7bc0f653c"},"vehicle_type_id":"4","last_reported":1747739360,"current_range_meters":3600,"station_id":"ce4bguh2rcd13ifvqckg","pricing_plan_id":"cebpf4jnsgd1na2vs0mg"},{"bike_id":"a72405ee-8da1-4b5b-b5e9-c911c9ff9827","system_id":"levelo_inurba_marseille","lat":43.284818,"lon":5.385597,"is_reserved":false,"is_disabled":false,"rental_uris":{"android":"levelo://app?vid=a72405ee-8da1-4b5b-b5e9-c911c9ff9827","ios":"levelo://app?vid=a72405ee-8da1-4b5b-b5e9-c911c9ff9827"},"vehicle_type_id":"4","last_reported":1747739360,"current_range_meters":3600,"station_id":"ce4bh8p2rcd13ifvqeb0","pricing_plan_id":"cebpf4jnsgd1na2vs0mg"},{"bike_id":"53e03d51-c1e6-453c-88fd-288468381a0a","system_id":"levelo_inurba_marseille","lat":43.28162,"lon":5.42645,"is_reserved":false,"is_disabled":false,"rental_uris":{"android":"levelo://app?vid=53e03d51-c1e6-453c-88fd-288468381a0a","ios":"levelo://app?vid=53e03d51-c1e6-453c-88fd-288468381a0a"},"vehicle_type_id":"4","last_reported":1747739360,"current_range_meters":3600,"station_id":"ce4bhnh2rcd13ifvqgug","pricing_plan_id":"cebpf4jnsgd1na2vs0mg"},{"bike_id":"3c2e874b-823b-4069-8a4a-aca4fb4238f3","system_id":"levelo_inurba_marseille","lat":43.27631,"lon":5.397415,"is_reserved":false,"is_disabled":false,"rental_uris":{"android":"levelo://app?vid=3c2e874b-823b-4069-8a4a-aca4fb4238f3","ios":"levelo://app?vid=3c2e874b-823b-4069-8a4a-aca4fb4238f3"},"vehicle_type_id":"4","last_reported":1747739360,"current_range_meters":4000,"station_id":"","pricing_plan_id":"cebpf4jnsgd1na2vs0mg"},{"bike_id":"81a0980e-1995-43f6-8a6e-45f1bead6527","system_id":"levelo_inurba_marseille","lat":43.29364,"lon":5.37834,"is_reserved":false,"is_disabled":false,"rental_uris":{"android":"levelo://app?vid=81a0980e-1995-43f6-8a6e-45f1bead6527","ios":"levelo://app?vid=81a0980e-1995-43f6-8a6e-45f1bead6527"},"vehicle_type_id":"4","last_reported":1747739360,"current_range_meters":4000,"station_id":"ce4bgjh2rcd13ifvqbf0","pricing_plan_id":"cebpf4jnsgd1na2vs0mg"},{"bike_id":"0814fc28-7c82-4444-bf57-b7589c01a901","system_id":"levelo_inurba_marseille","lat":43.249991,"lon":5.389352,"is_reserved":false,"is_disabled":false,"rental_uris":{"android":"levelo://app?vid=0814fc28-7c82-4444-bf57-b7589c01a901","ios":"levelo://app?vid=0814fc28-7c82-4444-bf57-b7589c01a901"},"vehicle_type_id":"4","last_reported":1747739360,"current_range_meters":4000,"station_id":"ce4bhgp2rcd13ifvqfd0","pricing_plan_id":"cebpf4jnsgd1na2vs0mg"},{"bike_id":"8e763bb0-389e-4267-9620-ad834198c627","system_id":"levelo_inurba_marseille","lat":43.23156,"lon":5.43704,"is_reserved":false,"is_disabled":false,"rental_uris":{"android":"levelo://app?vid=8e763bb0-389e-4267-9620-ad834198c627","ios":"levelo://app?vid=8e763bb0-389e-4267-9620-ad834198c627"},"vehicle_type_id":"4","last_reported":1747739360,"current_range_meters":4000,"station_id":"ce4bhmp2rcd13ifvqgog","pricing_plan_id":"cebpf4jnsgd1na2vs0mg"},{"bike_id":"99eb9016-246e-4ac1-84f4-2df151f93c10","system_id":"levelo_inurba_marseille","lat":43.30089,"lon":5.39073,"is_reserved":false,"is_disabled":false,"rental_uris":{"android":"levelo://app?vid=99eb9016-246e-4ac1-84f4-2df151f93c10","ios":"levelo://app?vid=99eb9016-246e-4ac1-84f4-2df151f93c10"},"vehicle_type_id":"4","last_reported":1747739360,"current_range_meters":4400,"station_id":"ce4bh192rcd13ifvqdb0","pricing_plan_id":"cebpf4jnsgd1na2vs0mg"},{"bike_id":"39623d61-4997-4363-9c6e-29c93d49b3fe","system_id":"levelo_inurba_marseille","lat":43.3015,"lon":5.37419,"is_reserved":false,"is_disabled":false,"rental_uris":{"android":"levelo://app?vid=39623d61-4997-4363-9c6e-29c93d49b3fe","ios":"levelo://app?vid=39623d61-4997-4363-9c6e-29c93d49b3fe"},"vehicle_type_id":"4","last_reported":1747739360,"current_range_meters":4800,"station_id":"ce4bgs92rcd13ifvqcc0","pricing_plan_id":"cebpf4jnsgd1na2vs0mg"},{"bike_id":"cbf18129-71b2-4226-bd86-a2475539b80c","system_id":"levelo_inurba_marseille","lat":43.304608,"lon":5.379138,"is_reserved":false,"is_disabled":false,"rental_uris":{"android":"levelo://app?vid=cbf18129-71b2-4226-bd86-a2475539b80c","ios":"levelo://app?vid=cbf18129-71b2-4226-bd86-a2475539b80c"},"vehicle_type_id":"4","last_reported":1747739360,"current_range_meters":4800,"station_id":"ce4bgup2rcd13ifvqcn0","pricing_plan_id":"cebpf4jnsgd1na2vs0mg"},{"bike_id":"cf2e5c45-aac0-4784-a8f5-2a28a2e32c91","system_id":"levelo_inurba_marseille","lat":43.27173,"lon":5.40994,"is_reserved":false,"is_disabled":false,"rental_uris":{"android":"levelo://app?vid=cf2e5c45-aac0-4784-a8f5-2a28a2e32c91","ios":"levelo://app?vid=cf2e5c45-aac0-4784-a8f5-2a28a2e32c91"},"vehicle_type_id":"4","last_reported":1747739360,"current_range_meters":4800,"station_id":"ce4bhl12rcd13ifvqgf0","pricing_plan_id":"cebpf4jnsgd1na2vs0mg"},{"bike_id":"d091858a-1553-4cc0-871e-c11df7e1b4f9","system_id":"levelo_inurba_marseille","lat":43.27917,"lon":5.3958,"is_reserved":false,"is_disabled":false,"rental_uris":{"android":"levelo://app?vid=d091858a-1553-4cc0-871e-c11df7e1b4f9","ios":"levelo://app?vid=d091858a-1553-4cc0-871e-c11df7e1b4f9"},"vehicle_type_id":"4","last_reported":1747739360,"current_range_meters":5600,"station_id":"ce4bhf92rcd13ifvqf40","pricing_plan_id":"cebpf4jnsgd1na2vs0mg"},{"bike_id":"300f470f-014f-44e1-885a-f2f6553d166f","system_id":"levelo_inurba_marseille","lat":43.323368,"lon":5.406251,"is_reserved":false,"is_disabled":false,"rental_uris":{"android":"levelo://app?vid=300f470f-014f-44e1-885a-f2f6553d166f","ios":"levelo://app?vid=300f470f-014f-44e1-885a-f2f6553d166f"},"vehicle_type_id":"4","last_reported":1747739360,"current_range_meters":5600,"station_id":"ce4bhq92rcd13ifvqhjg","pricing_plan_id":"cebpf4jnsgd1na2vs0mg"},{"bike_id":"cfe42310-cc98-43e4-af2f-e80110da49ee","system_id":"levelo_inurba_marseille","lat":43.29573,"lon":5.37517,"is_reserved":false,"is_disabled":false,"rental_uris":{"android":"levelo://app?vid=cfe42310-cc98-43e4-af2f-e80110da49ee","ios":"levelo://app?vid=cfe42310-cc98-43e4-af2f-e80110da49ee"},"vehicle_type_id":"4","last_reported":1747739360,"current_range_meters":6000,"station_id":"ce4bgh92rcd13ifvqb50","pricing_plan_id":"cebpf4jnsgd1na2vs0mg"},{"bike_id":"aaf419d2-0e4a-4afc-a0c5-ae838d26765f","system_id":"levelo_inurba_marseille","lat":43.30473,"lon":5.37899,"is_reserved":false,"is_disabled":false,"rental_uris":{"android":"levelo://app?vid=aaf419d2-0e4a-4afc-a0c5-ae838d26765f","ios":"levelo://app?vid=aaf419d2-0e4a-4afc-a0c5-ae838d26765f"},"vehicle_type_id":"4","last_reported":1747739360,"current_range_meters":6000,"station_id":"ce4bgup2rcd13ifvqcn0","pricing_plan_id":"cebpf4jnsgd1na2vs0mg"},{"bike_id":"e836f4fc-fafc-4fb2-bdf8-672ed0ed036f","system_id":"levelo_inurba_marseille","lat":43.28856,"lon":5.39298,"is_reserved":false,"is_disabled":false,"rental_uris":{"android":"levelo://app?vid=e836f4fc-fafc-4fb2-bdf8-672ed0ed036f","ios":"levelo://app?vid=e836f4fc-fafc-4fb2-bdf8-672ed0ed036f"},"vehicle_type_id":"4","last_reported":1747739360,"current_range_meters":6000,"station_id":"ce4bh2p2rcd13ifvqdi0","pricing_plan_id":"cebpf4jnsgd1na2vs0mg"},{"bike_id":"38252f41-0325-4a9c-87f5-87f5485f18e2","system_id":"levelo_inurba_marseille","lat":43.285156,"lon":5.385098,"is_reserved":false,"is_disabled":false,"rental_uris":{"android":"levelo://app?vid=38252f41-0325-4a9c-87f5-87f5485f18e2","ios":"levelo://app?vid=38252f41-0325-4a9c-87f5-87f5485f18e2"},"vehicle_type_id":"4","last_reported":1747739360,"current_range_meters":6000,"station_id":"ce4bh8p2rcd13ifvqeb0","pricing_plan_id":"cebpf4jnsgd1na2vs0mg"},{"bike_id":"e8eb6260-6190-4deb-8bc6-509e2d62fefb","system_id":"levelo_inurba_marseille","lat":43.28365,"lon":5.38647,"is_reserved":false,"is_disabled":false,"rental_uris":{"android":"levelo://app?vid=e8eb6260-6190-4deb-8bc6-509e2d62fefb","ios":"levelo://app?vid=e8eb6260-6190-4deb-8bc6-509e2d62fefb"},"vehicle_type_id":"4","last_reported":1747739360,"current_range_meters":6400,"station_id":"ce4bh492rcd13ifvqdvg","pricing_plan_id":"cebpf4jnsgd1na2vs0mg"},{"bike_id":"41961dba-2a13-4bf9-8818-8551feed5678","system_id":"levelo_inurba_marseille","lat":43.25579,"lon":5.38247,"is_reserved":false,"is_disabled":false,"rental_uris":{"android":"levelo://app?vid=41961dba-2a13-4bf9-8818-8551feed5678","ios":"levelo://app?vid=41961dba-2a13-4bf9-8818-8551feed5678"},"vehicle_type_id":"4","last_reported":1747739360,"current_range_meters":6400,"station_id":"ce4bhih2rcd13ifvqfs0","pricing_plan_id":"cebpf4jnsgd1na2vs0mg"},{"bike_id":"dd7c0cde-7eb6-4e64-bf6f-6554154fdaa3","system_id":"levelo_inurba_marseille","lat":43.24062,"lon":5.37761,"is_reserved":false,"is_disabled":false,"rental_uris":{"android":"levelo://app?vid=dd7c0cde-7eb6-4e64-bf6f-6554154fdaa3","ios":"levelo://app?vid=dd7c0cde-7eb6-4e64-bf6f-6554154fdaa3"},"vehicle_type_id":"4","last_reported":1747739360,"current_range_meters":6400,"station_id":"ce4bhnp2rcd13ifvqgvg","pricing_plan_id":"cebpf4jnsgd1na2vs0mg"},{"bike_id":"e64e36d1-c3e7-4427-9260-70ac75fa0a1c","system_id":"levelo_inurba_marseille","lat":43.299227,"lon":5.401914,"is_reserved":false,"is_disabled":false,"rental_uris":{"android":"levelo://app?vid=e64e36d1-c3e7-4427-9260-70ac75fa0a1c","ios":"levelo://app?vid=e64e36d1-c3e7-4427-9260-70ac75fa0a1c"},"vehicle_type_id":"4","last_reported":1747739360,"current_range_meters":6800,"station_id":"","pricing_plan_id":"cebpf4jnsgd1na2vs0mg"},{"bike_id":"20bee342-4a3f-4f34-940d-bb6cf00d52ae","system_id":"levelo_inurba_marseille","lat":43.26669,"lon":5.38585,"is_reserved":false,"is_disabled":false,"rental_uris":{"android":"levelo://app?vid=20bee342-4a3f-4f34-940d-bb6cf00d52ae","ios":"levelo://app?vid=20bee342-4a3f-4f34-940d-bb6cf00d52ae"},"vehicle_type_id":"4","last_reported":1747739360,"current_range_meters":6800,"station_id":"","pricing_plan_id":"cebpf4jnsgd1na2vs0mg"},{"bike_id":"6926bdc6-426a-46ef-a67f-e5a0f69029a6","system_id":"levelo_inurba_marseille","lat":43.30467,"lon":5.37906,"is_reserved":false,"is_disabled":false,"rental_uris":{"android":"levelo://app?vid=6926bdc6-426a-46ef-a67f-e5a0f69029a6","ios":"levelo://app?vid=6926bdc6-426a-46ef-a67f-e5a0f69029a6"},"vehicle_type_id":"4","last_reported":1747739360,"current_range_meters":6800,"station_id":"ce4bgup2rcd13ifvqcn0","pricing_plan_id":"cebpf4jnsgd1na2vs0mg"},{"bike_id":"fd75852b-aa6e-4e0d-81eb-426bc55f475e","system_id":"levelo_inurba_marseille","lat":43.26227,"lon":5.40456,"is_reserved":false,"is_disabled":false,"rental_uris":{"android":"levelo://app?vid=fd75852b-aa6e-4e0d-81eb-426bc55f475e","ios":"levelo://app?vid=fd75852b-aa6e-4e0d-81eb-426bc55f475e"},"vehicle_type_id":"4","last_reported":1747739360,"current_range_meters":6800,"station_id":"ce4bhmh2rcd13ifvqgmg","pricing_plan_id":"cebpf4jnsgd1na2vs0mg"},{"bike_id":"06e452b4-00bd-4194-8cf0-97e51cbae02e","system_id":"levelo_inurba_marseille","lat":43.23184,"lon":5.39991,"is_reserved":false,"is_disabled":false,"rental_uris":{"android":"levelo://app?vid=06e452b4-00bd-4194-8cf0-97e51cbae02e","ios":"levelo://app?vid=06e452b4-00bd-4194-8cf0-97e51cbae02e"},"vehicle_type_id":"4","last_reported":1747739360,"current_range_meters":6800,"station_id":"ce4bhn12rcd13ifvqgqg","pricing_plan_id":"cebpf4jnsgd1na2vs0mg"},{"bike_id":"bcbdbd69-7be8-42f8-a855-a4358565de8f","system_id":"levelo_inurba_marseille","lat":43.277263,"lon":5.413923,"is_reserved":false,"is_disabled":false,"rental_uris":{"android":"levelo://app?vid=bcbdbd69-7be8-42f8-a855-a4358565de8f","ios":"levelo://app?vid=bcbdbd69-7be8-42f8-a855-a4358565de8f"},"vehicle_type_id":"4","last_reported":1747739360,"current_range_meters":8000,"station_id":"","pricing_plan_id":"cebpf4jnsgd1na2vs0mg"},{"bike_id":"6e9fd6c3-275e-4e35-98a9-c8a5f58e37b2","system_id":"levelo_inurba_marseille","lat":43.301423,"lon":5.381023,"is_reserved":false,"is_disabled":false,"rental_uris":{"android":"levelo://app?vid=6e9fd6c3-275e-4e35-98a9-c8a5f58e37b2","ios":"levelo://app?vid=6e9fd6c3-275e-4e35-98a9-c8a5f58e37b2"},"vehicle_type_id":"4","last_reported":1747739360,"current_range_meters":8000,"station_id":"ce4bgjp2rcd13ifvqbh0","pricing_plan_id":"cebpf4jnsgd1na2vs0mg"},{"bike_id":"43a3da34-2fdd-417d-a1ec-17e708b591ee","system_id":"levelo_inurba_marseille","lat":43.308869,"lon":5.371933,"is_reserved":false,"is_disabled":false,"rental_uris":{"android":"levelo://app?vid=43a3da34-2fdd-417d-a1ec-17e708b591ee","ios":"levelo://app?vid=43a3da34-2fdd-417d-a1ec-17e708b591ee"},"vehicle_type_id":"4","last_reported":1747739360,"current_range_meters":8000,"station_id":"ce4bguh2rcd13ifvqckg","pricing_plan_id":"cebpf4jnsgd1na2vs0mg"},{"bike_id":"d4cbe921-99f3-4409-a25e-6c675a19c6ea","system_id":"levelo_inurba_marseille","lat":43.30468,"lon":5.37902,"is_reserved":false,"is_disabled":false,"rental_uris":{"android":"levelo://app?vid=d4cbe921-99f3-4409-a25e-6c675a19c6ea","ios":"levelo://app?vid=d4cbe921-99f3-4409-a25e-6c675a19c6ea"},"vehicle_type_id":"4","last_reported":1747739360,"current_range_meters":8000,"station_id":"ce4bgup2rcd13ifvqcn0","pricing_plan_id":"cebpf4jnsgd1na2vs0mg"},{"bike_id":"57c11ae7-b071-4549-ad59-ce0fae2e16fc","system_id":"levelo_inurba_marseille","lat":43.24395,"lon":5.37057,"is_reserved":false,"is_disabled":false,"rental_uris":{"android":"levelo://app?vid=57c11ae7-b071-4549-ad59-ce0fae2e16fc","ios":"levelo://app?vid=57c11ae7-b071-4549-ad59-ce0fae2e16fc"},"vehicle_type_id":"4","last_reported":1747739360,"current_range_meters":8000,"station_id":"ce4bhhh2rcd13ifvqfk0","pricing_plan_id":"cebpf4jnsgd1na2vs0mg"},{"bike_id":"47288d18-52ac-4136-9b65-6c991cf177ae","system_id":"levelo_inurba_marseille","lat":43.26227,"lon":5.4046,"is_reserved":false,"is_disabled":false,"rental_uris":{"android":"levelo://app?vid=47288d18-52ac-4136-9b65-6c991cf177ae","ios":"levelo://app?vid=47288d18-52ac-4136-9b65-6c991cf177ae"},"vehicle_type_id":"4","last_reported":1747739360,"current_range_meters":8000,"station_id":"ce4bhmh2rcd13ifvqgmg","pricing_plan_id":"cebpf4jnsgd1na2vs0mg"},{"bike_id":"8f0f531d-6a65-4647-8a6f-baa3d982f42f","system_id":"levelo_inurba_marseille","lat":43.28119,"lon":5.42571,"is_reserved":false,"is_disabled":false,"rental_uris":{"android":"levelo://app?vid=8f0f531d-6a65-4647-8a6f-baa3d982f42f","ios":"levelo://app?vid=8f0f531d-6a65-4647-8a6f-baa3d982f42f"},"vehicle_type_id":"4","last_reported":1747739360,"current_range_meters":8400,"station_id":"","pricing_plan_id":"cebpf4jnsgd1na2vs0mg"},{"bike_id":"b26c40ae-f0b3-42f4-a94b-479d46a553ee","system_id":"levelo_inurba_marseille","lat":43.27919,"lon":5.39578,"is_reserved":false,"is_disabled":false,"rental_uris":{"android":"levelo://app?vid=b26c40ae-f0b3-42f4-a94b-479d46a553ee","ios":"levelo://app?vid=b26c40ae-f0b3-42f4-a94b-479d46a553ee"},"vehicle_type_id":"4","last_reported":1747739360,"current_range_meters":8400,"station_id":"ce4bhf92rcd13ifvqf40","pricing_plan_id":"cebpf4jnsgd1na2vs0mg"},{"bike_id":"85eaca89-9437-48d0-9bca-a254337b88db","system_id":"levelo_inurba_marseille","lat":43.27454,"lon":5.40961,"is_reserved":false,"is_disabled":false,"rental_uris":{"android":"levelo://app?vid=85eaca89-9437-48d0-9bca-a254337b88db","ios":"levelo://app?vid=85eaca89-9437-48d0-9bca-a254337b88db"},"vehicle_type_id":"4","last_reported":1747739360,"current_range_meters":8800,"station_id":"","pricing_plan_id":"cebpf4jnsgd1na2vs0mg"},{"bike_id":"dbf8222a-eea0-42f0-80c2-a4791ac4ed58","system_id":"levelo_inurba_marseille","lat":43.24994,"lon":5.38937,"is_reserved":false,"is_disabled":false,"rental_uris":{"android":"levelo://app?vid=dbf8222a-eea0-42f0-80c2-a4791ac4ed58","ios":"levelo://app?vid=dbf8222a-eea0-42f0-80c2-a4791ac4ed58"},"vehicle_type_id":"4","last_reported":1747739360,"current_range_meters":8800,"station_id":"ce4bhgp2rcd13ifvqfd0","pricing_plan_id":"cebpf4jnsgd1na2vs0mg"},{"bike_id":"c076ad54-d589-4eeb-ac51-e1376a33ec39","system_id":"levelo_inurba_marseille","lat":43.29555,"lon":5.42268,"is_reserved":false,"is_disabled":false,"rental_uris":{"android":"levelo://app?vid=c076ad54-d589-4eeb-ac51-e1376a33ec39","ios":"levelo://app?vid=c076ad54-d589-4eeb-ac51-e1376a33ec39"},"vehicle_type_id":"4","last_reported":1747739360,"current_range_meters":8800,"station_id":"ce4bhph2rcd13ifvqhdg","pricing_plan_id":"cebpf4jnsgd1na2vs0mg"},{"bike_id":"396e6c48-f5a3-4cea-8c48-cfaba2264ddf","system_id":"levelo_inurba_marseille","lat":43.27608,"lon":5.36125,"is_reserved":false,"is_disabled":false,"rental_uris":{"android":"levelo://app?vid=396e6c48-f5a3-4cea-8c48-cfaba2264ddf","ios":"levelo://app?vid=396e6c48-f5a3-4cea-8c48-cfaba2264ddf"},"vehicle_type_id":"4","last_reported":1747739360,"current_range_meters":9200,"station_id":"ce4bgj92rcd13ifvqbe0","pricing_plan_id":"cebpf4jnsgd1na2vs0mg"},{"bike_id":"e3f3e0d3-497f-4c68-b952-1a2b34561ab0","system_id":"levelo_inurba_marseille","lat":43.29973,"lon":5.37178,"is_reserved":false,"is_disabled":false,"rental_uris":{"android":"levelo://app?vid=e3f3e0d3-497f-4c68-b952-1a2b34561ab0","ios":"levelo://app?vid=e3f3e0d3-497f-4c68-b952-1a2b34561ab0"},"vehicle_type_id":"4","last_reported":1747739360,"current_range_meters":9200,"station_id":"ce4bgr92rcd13ifvqc7g","pricing_plan_id":"cebpf4jnsgd1na2vs0mg"},{"bike_id":"b16e2a2f-7b77-425a-aaff-4e8ab168639c","system_id":"levelo_inurba_marseille","lat":43.23178,"lon":5.39989,"is_reserved":false,"is_disabled":false,"rental_uris":{"android":"levelo://app?vid=b16e2a2f-7b77-425a-aaff-4e8ab168639c","ios":"levelo://app?vid=b16e2a2f-7b77-425a-aaff-4e8ab168639c"},"vehicle_type_id":"4","last_reported":1747739360,"current_range_meters":9200,"station_id":"ce4bhn12rcd13ifvqgqg","pricing_plan_id":"cebpf4jnsgd1na2vs0mg"},{"bike_id":"bffbaf88-357a-4e87-a68c-a9a27a6e01e6","system_id":"levelo_inurba_marseille","lat":43.26236,"lon":5.42123,"is_reserved":false,"is_disabled":false,"rental_uris":{"android":"levelo://app?vid=bffbaf88-357a-4e87-a68c-a9a27a6e01e6","ios":"levelo://app?vid=bffbaf88-357a-4e87-a68c-a9a27a6e01e6"},"vehicle_type_id":"4","last_reported":1747739360,"current_range_meters":9600,"station_id":"","pricing_plan_id":"cebpf4jnsgd1na2vs0mg"},{"bike_id":"f295336c-744a-4aae-827e-8817c128646f","system_id":"levelo_inurba_marseille","lat":43.269523,"lon":5.386415,"is_reserved":false,"is_disabled":false,"rental_uris":{"android":"levelo://app?vid=f295336c-744a-4aae-827e-8817c128646f","ios":"levelo://app?vid=f295336c-744a-4aae-827e-8817c128646f"},"vehicle_type_id":"4","last_reported":1747739360,"current_range_meters":10000,"station_id":"ce4bhh92rcd13ifvqfh0","pricing_plan_id":"cebpf4jnsgd1na2vs0mg"},{"bike_id":"ab756091-2c46-457a-8903-1638e5289e41","system_id":"levelo_inurba_marseille","lat":43.23189,"lon":5.39982,"is_reserved":false,"is_disabled":false,"rental_uris":{"android":"levelo://app?vid=ab756091-2c46-457a-8903-1638e5289e41","ios":"levelo://app?vid=ab756091-2c46-457a-8903-1638e5289e41"},"vehicle_type_id":"4","last_reported":1747739360,"current_range_meters":10000,"station_id":"ce4bhn12rcd13ifvqgqg","pricing_plan_id":"cebpf4jnsgd1na2vs0mg"},{"bike_id":"dd7fba58-2be7-4c3f-a64e-0e0ac913f5ed","system_id":"levelo_inurba_marseille","lat":43.28075,"lon":5.39665,"is_reserved":false,"is_disabled":false,"rental_uris":{"android":"levelo://app?vid=dd7fba58-2be7-4c3f-a64e-0e0ac913f5ed","ios":"levelo://app?vid=dd7fba58-2be7-4c3f-a64e-0e0ac913f5ed"},"vehicle_type_id":"4","last_reported":1747739360,"current_range_meters":10000,"station_id":"ce4bho12rcd13ifvqh2g","pricing_plan_id":"cebpf4jnsgd1na2vs0mg"},{"bike_id":"598900bc-cc96-46f3-b8f9-32958f862dd5","system_id":"levelo_inurba_marseille","lat":43.30408,"lon":5.36789,"is_reserved":false,"is_disabled":false,"rental_uris":{"android":"levelo://app?vid=598900bc-cc96-46f3-b8f9-32958f862dd5","ios":"levelo://app?vid=598900bc-cc96-46f3-b8f9-32958f862dd5"},"vehicle_type_id":"4","last_reported":1747739360,"current_range_meters":10800,"station_id":"","pricing_plan_id":"cebpf4jnsgd1na2vs0mg"},{"bike_id":"5f96d315-d5d0-4273-9916-2739433976e2","system_id":"levelo_inurba_marseille","lat":43.30532,"lon":5.36536,"is_reserved":false,"is_disabled":false,"rental_uris":{"android":"levelo://app?vid=5f96d315-d5d0-4273-9916-2739433976e2","ios":"levelo://app?vid=5f96d315-d5d0-4273-9916-2739433976e2"},"vehicle_type_id":"4","last_reported":1747739360,"current_range_meters":10800,"station_id":"ce4bgs12rcd13ifvqcag","pricing_plan_id":"cebpf4jnsgd1na2vs0mg"},{"bike_id":"58edc354-c183-4da4-b527-1ba0f2d395e0","system_id":"levelo_inurba_marseille","lat":43.276784,"lon":5.357391,"is_reserved":false,"is_disabled":false,"rental_uris":{"android":"levelo://app?vid=58edc354-c183-4da4-b527-1ba0f2d395e0","ios":"levelo://app?vid=58edc354-c183-4da4-b527-1ba0f2d395e0"},"vehicle_type_id":"4","last_reported":1747739360,"current_range_meters":11200,"station_id":"","pricing_plan_id":"cebpf4jnsgd1na2vs0mg"},{"bike_id":"b2a4efb4-1a77-46ac-9743-17553c883508","system_id":"levelo_inurba_marseille","lat":43.29847,"lon":5.3629,"is_reserved":false,"is_disabled":false,"rental_uris":{"android":"levelo://app?vid=b2a4efb4-1a77-46ac-9743-17553c883508","ios":"levelo://app?vid=b2a4efb4-1a77-46ac-9743-17553c883508"},"vehicle_type_id":"4","last_reported":1747739360,"current_range_meters":11200,"station_id":"ce4bgpp2rcd13ifvqc3g","pricing_plan_id":"cebpf4jnsgd1na2vs0mg"},{"bike_id":"e8162579-a5ad-485f-ad83-fec8a2ebe7e1","system_id":"levelo_inurba_marseille","lat":43.26826,"lon":5.39099,"is_reserved":false,"is_disabled":false,"rental_uris":{"android":"levelo://app?vid=e8162579-a5ad-485f-ad83-fec8a2ebe7e1","ios":"levelo://app?vid=e8162579-a5ad-485f-ad83-fec8a2ebe7e1"},"vehicle_type_id":"4","last_reported":1747739360,"current_range_meters":11600,"station_id":"","pricing_plan_id":"cebpf4jnsgd1na2vs0mg"},{"bike_id":"59b8a132-4666-485c-b6ad-3e889f0d9322","system_id":"levelo_inurba_marseille","lat":43.25494,"lon":5.376613,"is_reserved":false,"is_disabled":false,"rental_uris":{"android":"levelo://app?vid=59b8a132-4666-485c-b6ad-3e889f0d9322","ios":"levelo://app?vid=59b8a132-4666-485c-b6ad-3e889f0d9322"},"vehicle_type_id":"4","last_reported":1747739360,"current_range_meters":11600,"station_id":"ce4bhh12rcd13ifvqff0","pricing_plan_id":"cebpf4jnsgd1na2vs0mg"},{"bike_id":"211d782c-93fe-44fc-931b-5c466bfda976","system_id":"levelo_inurba_marseille","lat":43.26937,"lon":5.38645,"is_reserved":false,"is_disabled":false,"rental_uris":{"android":"levelo://app?vid=211d782c-93fe-44fc-931b-5c466bfda976","ios":"levelo://app?vid=211d782c-93fe-44fc-931b-5c466bfda976"},"vehicle_type_id":"4","last_reported":1747739360,"current_range_meters":11600,"station_id":"ce4bhh92rcd13ifvqfh0","pricing_plan_id":"cebpf4jnsgd1na2vs0mg"},{"bike_id":"9ce9cace-c3c4-41f2-9ceb-59a4bec340a7","system_id":"levelo_inurba_marseille","lat":43.26055,"lon":5.39385,"is_reserved":false,"is_disabled":false,"rental_uris":{"android":"levelo://app?vid=9ce9cace-c3c4-41f2-9ceb-59a4bec340a7","ios":"levelo://app?vid=9ce9cace-c3c4-41f2-9ceb-59a4bec340a7"},"vehicle_type_id":"4","last_reported":1747739360,"current_range_meters":11600,"station_id":"ce4bhh92rcd13ifvqfj0","pricing_plan_id":"cebpf4jnsgd1na2vs0mg"},{"bike_id":"33e5cbd5-31c8-4fa0-9d70-cf685e1c2a15","system_id":"levelo_inurba_marseille","lat":43.25123,"lon":5.4031,"is_reserved":false,"is_disabled":false,"rental_uris":{"android":"levelo://app?vid=33e5cbd5-31c8-4fa0-9d70-cf685e1c2a15","ios":"levelo://app?vid=33e5cbd5-31c8-4fa0-9d70-cf685e1c2a15"},"vehicle_type_id":"4","last_reported":1747739360,"current_range_meters":11600,"station_id":"ce4bhlh2rcd13ifvqgig","pricing_plan_id":"cebpf4jnsgd1na2vs0mg"},{"bike_id":"98a6af6c-4e2f-4f75-b744-fe7062c9d3a4","system_id":"levelo_inurba_marseille","lat":43.259086,"lon":5.40877,"is_reserved":false,"is_disabled":false,"rental_uris":{"android":"levelo://app?vid=98a6af6c-4e2f-4f75-b744-fe7062c9d3a4","ios":"levelo://app?vid=98a6af6c-4e2f-4f75-b744-fe7062c9d3a4"},"vehicle_type_id":"4","last_reported":1747739360,"current_range_meters":11600,"station_id":"ce4bhm92rcd13ifvqglg","pricing_plan_id":"cebpf4jnsgd1na2vs0mg"},{"bike_id":"1d41639d-8362-4e59-b521-ff16cc162930","system_id":"levelo_inurba_marseille","lat":43.31524,"lon":5.38037,"is_reserved":false,"is_disabled":false,"rental_uris":{"android":"levelo://app?vid=1d41639d-8362-4e59-b521-ff16cc162930","ios":"levelo://app?vid=1d41639d-8362-4e59-b521-ff16cc162930"},"vehicle_type_id":"4","last_reported":1747739360,"current_range_meters":11600,"station_id":"ce4bhsp2rcd13ifvqi50","pricing_plan_id":"cebpf4jnsgd1na2vs0mg"},{"bike_id":"f86c23eb-4c15-495f-85b4-866100e9911f","system_id":"levelo_inurba_marseille","lat":43.30789,"lon":5.376425,"is_reserved":false,"is_disabled":false,"rental_uris":{"android":"levelo://app?vid=f86c23eb-4c15-495f-85b4-866100e9911f","ios":"levelo://app?vid=f86c23eb-4c15-495f-85b4-866100e9911f"},"vehicle_type_id":"4","last_reported":1747739360,"current_range_meters":12000,"station_id":"ce4bgv92rcd13ifvqcq0","pricing_plan_id":"cebpf4jnsgd1na2vs0mg"},{"bike_id":"f5343ba4-e228-4861-87d1-df1b6fc8be8a","system_id":"levelo_inurba_marseille","lat":43.27945,"lon":5.41052,"is_reserved":false,"is_disabled":false,"rental_uris":{"android":"levelo://app?vid=f5343ba4-e228-4861-87d1-df1b6fc8be8a","ios":"levelo://app?vid=f5343ba4-e228-4861-87d1-df1b6fc8be8a"},"vehicle_type_id":"4","last_reported":1747739360,"current_range_meters":12000,"station_id":"ce4bhnp2rcd13ifvqh0g","pricing_plan_id":"cebpf4jnsgd1na2vs0mg"},{"bike_id":"3552fbf2-b43a-446f-93f5-d695fc251b73","system_id":"levelo_inurba_marseille","lat":43.25168,"lon":5.37515,"is_reserved":false,"is_disabled":false,"rental_uris":{"android":"levelo://app?vid=3552fbf2-b43a-446f-93f5-d695fc251b73","ios":"levelo://app?vid=3552fbf2-b43a-446f-93f5-d695fc251b73"},"vehicle_type_id":"4","last_reported":1747739360,"current_range_meters":12400,"station_id":"","pricing_plan_id":"cebpf4jnsgd1na2vs0mg"},{"bike_id":"24134b30-f679-4285-a2f7-10efbcb9499b","system_id":"levelo_inurba_marseille","lat":43.31756,"lon":5.39021,"is_reserved":false,"is_disabled":false,"rental_uris":{"android":"levelo://app?vid=24134b30-f679-4285-a2f7-10efbcb9499b","ios":"levelo://app?vid=24134b30-f679-4285-a2f7-10efbcb9499b"},"vehicle_type_id":"4","last_reported":1747739360,"current_range_meters":12400,"station_id":"ce4bhqp2rcd13ifvqhng","pricing_plan_id":"cebpf4jnsgd1na2vs0mg"},{"bike_id":"a03d5265-da37-4e54-8713-4c8aac46e5e1","system_id":"levelo_inurba_marseille","lat":43.26042,"lon":5.41709,"is_reserved":false,"is_disabled":false,"rental_uris":{"android":"levelo://app?vid=a03d5265-da37-4e54-8713-4c8aac46e5e1","ios":"levelo://app?vid=a03d5265-da37-4e54-8713-4c8aac46e5e1"},"vehicle_type_id":"4","last_reported":1747739360,"current_range_meters":12800,"station_id":"","pricing_plan_id":"cebpf4jnsgd1na2vs0mg"},{"bike_id":"6386b301-5c5b-41dc-9be6-064d845d26a2","system_id":"levelo_inurba_marseille","lat":43.286288,"lon":5.406581,"is_reserved":false,"is_disabled":false,"rental_uris":{"android":"levelo://app?vid=6386b301-5c5b-41dc-9be6-064d845d26a2","ios":"levelo://app?vid=6386b301-5c5b-41dc-9be6-064d845d26a2"},"vehicle_type_id":"4","last_reported":1747739360,"current_range_meters":12800,"station_id":"","pricing_plan_id":"cebpf4jnsgd1na2vs0mg"},{"bike_id":"4e2ee494-42b8-426b-a0e7-610d3e8e6962","system_id":"levelo_inurba_marseille","lat":43.31488,"lon":5.37306,"is_reserved":false,"is_disabled":false,"rental_uris":{"android":"levelo://app?vid=4e2ee494-42b8-426b-a0e7-610d3e8e6962","ios":"levelo://app?vid=4e2ee494-42b8-426b-a0e7-610d3e8e6962"},"vehicle_type_id":"4","last_reported":1747739360,"current_range_meters":12800,"station_id":"ce4bgt12rcd13ifvqcd0","pricing_plan_id":"cebpf4jnsgd1na2vs0mg"},{"bike_id":"71c6238d-48c6-452e-8793-3a9c91efa259","system_id":"levelo_inurba_marseille","lat":43.27304,"lon":5.39068,"is_reserved":false,"is_disabled":false,"rental_uris":{"android":"levelo://app?vid=71c6238d-48c6-452e-8793-3a9c91efa259","ios":"levelo://app?vid=71c6238d-48c6-452e-8793-3a9c91efa259"},"vehicle_type_id":"4","last_reported":1747739360,"current_range_meters":12800,"station_id":"ce4bhgp2rcd13ifvqfe0","pricing_plan_id":"cebpf4jnsgd1na2vs0mg"},{"bike_id":"40c0d26d-b52d-45c3-8cbb-2440b7e4d426","system_id":"levelo_inurba_marseille","lat":43.23148,"lon":5.43712,"is_reserved":false,"is_disabled":false,"rental_uris":{"android":"levelo://app?vid=40c0d26d-b52d-45c3-8cbb-2440b7e4d426","ios":"levelo://app?vid=40c0d26d-b52d-45c3-8cbb-2440b7e4d426"},"vehicle_type_id":"4","last_reported":1747739360,"current_range_meters":12800,"station_id":"ce4bhmp2rcd13ifvqgog","pricing_plan_id":"cebpf4jnsgd1na2vs0mg"},{"bike_id":"526bbe8a-1f6a-4b4d-839e-5a64c855f516","system_id":"levelo_inurba_marseille","lat":43.23153,"lon":5.43699,"is_reserved":false,"is_disabled":false,"rental_uris":{"android":"levelo://app?vid=526bbe8a-1f6a-4b4d-839e-5a64c855f516","ios":"levelo://app?vid=526bbe8a-1f6a-4b4d-839e-5a64c855f516"},"vehicle_type_id":"4","last_reported":1747739360,"current_range_meters":12800,"station_id":"ce4bhmp2rcd13ifvqgog","pricing_plan_id":"cebpf4jnsgd1na2vs0mg"},{"bike_id":"0c75e290-2f49-4428-9202-02a35670787a","system_id":"levelo_inurba_marseille","lat":43.23185,"lon":5.39985,"is_reserved":false,"is_disabled":false,"rental_uris":{"android":"levelo://app?vid=0c75e290-2f49-4428-9202-02a35670787a","ios":"levelo://app?vid=0c75e290-2f49-4428-9202-02a35670787a"},"vehicle_type_id":"4","last_reported":1747739360,"current_range_meters":12800,"station_id":"ce4bhn12rcd13ifvqgqg","pricing_plan_id":"cebpf4jnsgd1na2vs0mg"},{"bike_id":"c3c11b11-8507-45b4-bd48-1e3bdd46fbbe","system_id":"levelo_inurba_marseille","lat":43.23191,"lon":5.39967,"is_reserved":false,"is_disabled":false,"rental_uris":{"android":"levelo://app?vid=c3c11b11-8507-45b4-bd48-1e3bdd46fbbe","ios":"levelo://app?vid=c3c11b11-8507-45b4-bd48-1e3bdd46fbbe"},"vehicle_type_id":"4","last_reported":1747739360,"current_range_meters":12800,"station_id":"ce4bhn12rcd13ifvqgqg","pricing_plan_id":"cebpf4jnsgd1na2vs0mg"},{"bike_id":"1e0be349-75ac-43ce-a2c7-9ea54df984f0","system_id":"levelo_inurba_marseille","lat":43.30373,"lon":5.42488,"is_reserved":false,"is_disabled":false,"rental_uris":{"android":"levelo://app?vid=1e0be349-75ac-43ce-a2c7-9ea54df984f0","ios":"levelo://app?vid=1e0be349-75ac-43ce-a2c7-9ea54df984f0"},"vehicle_type_id":"4","last_reported":1747739360,"current_range_meters":12800,"station_id":"ce4bhoh2rcd13ifvqh6g","pricing_plan_id":"cebpf4jnsgd1na2vs0mg"},{"bike_id":"91472278-a869-416d-9887-bf36ad7f00db","system_id":"levelo_inurba_marseille","lat":43.304187,"lon":5.412813,"is_reserved":false,"is_disabled":false,"rental_uris":{"android":"levelo://app?vid=91472278-a869-416d-9887-bf36ad7f00db","ios":"levelo://app?vid=91472278-a869-416d-9887-bf36ad7f00db"},"vehicle_type_id":"4","last_reported":1747739360,"current_range_meters":12800,"station_id":"ce4bhop2rcd13ifvqh8g","pricing_plan_id":"cebpf4jnsgd1na2vs0mg"},{"bike_id":"5b901e5e-403b-4185-82f4-a7aec929e853","system_id":"levelo_inurba_marseille","lat":43.28608,"lon":5.3706,"is_reserved":false,"is_disabled":false,"rental_uris":{"android":"levelo://app?vid=5b901e5e-403b-4185-82f4-a7aec929e853","ios":"levelo://app?vid=5b901e5e-403b-4185-82f4-a7aec929e853"},"vehicle_type_id":"4","last_reported":1747739360,"current_range_meters":13600,"station_id":"ce4bht12rcd13ifvqi60","pricing_plan_id":"cebpf4jnsgd1na2vs0mg"},{"bike_id":"23fc3c6f-6338-49d5-b298-60e9f24c5069","system_id":"levelo_inurba_marseille","lat":43.29532,"lon":5.38524,"is_reserved":false,"is_disabled":false,"rental_uris":{"android":"levelo://app?vid=23fc3c6f-6338-49d5-b298-60e9f24c5069","ios":"levelo://app?vid=23fc3c6f-6338-49d5-b298-60e9f24c5069"},"vehicle_type_id":"4","last_reported":1747739360,"current_range_meters":14000,"station_id":"ce4bgih2rcd13ifvqba0","pricing_plan_id":"cebpf4jnsgd1na2vs0mg"},{"bike_id":"4b03dace-9673-40e6-8e9c-8843ef60a35e","system_id":"levelo_inurba_marseille","lat":43.289324,"lon":5.396289,"is_reserved":false,"is_disabled":false,"rental_uris":{"android":"levelo://app?vid=4b03dace-9673-40e6-8e9c-8843ef60a35e","ios":"levelo://app?vid=4b03dace-9673-40e6-8e9c-8843ef60a35e"},"vehicle_type_id":"4","last_reported":1747739360,"current_range_meters":14000,"station_id":"ce4bh3h2rcd13ifvqdn0","pricing_plan_id":"cebpf4jnsgd1na2vs0mg"},{"bike_id":"1e0c8eaa-3584-4d8c-9652-b1f9d2de19bb","system_id":"levelo_inurba_marseille","lat":43.27173,"lon":5.40989,"is_reserved":false,"is_disabled":false,"rental_uris":{"android":"levelo://app?vid=1e0c8eaa-3584-4d8c-9652-b1f9d2de19bb","ios":"levelo://app?vid=1e0c8eaa-3584-4d8c-9652-b1f9d2de19bb"},"vehicle_type_id":"4","last_reported":1747739360,"current_range_meters":14000,"station_id":"ce4bhl12rcd13ifvqgf0","pricing_plan_id":"cebpf4jnsgd1na2vs0mg"},{"bike_id":"4f13f9f9-16ff-4a15-947b-39be74fa93cd","system_id":"levelo_inurba_marseille","lat":43.25929,"lon":5.40873,"is_reserved":false,"is_disabled":false,"rental_uris":{"android":"levelo://app?vid=4f13f9f9-16ff-4a15-947b-39be74fa93cd","ios":"levelo://app?vid=4f13f9f9-16ff-4a15-947b-39be74fa93cd"},"vehicle_type_id":"4","last_reported":1747739360,"current_range_meters":14000,"station_id":"ce4bhm92rcd13ifvqglg","pricing_plan_id":"cebpf4jnsgd1na2vs0mg"},{"bike_id":"6abf9179-5919-4aea-b8e3-feb1f3d71154","system_id":"levelo_inurba_marseille","lat":43.32355,"lon":5.36756,"is_reserved":false,"is_disabled":false,"rental_uris":{"android":"levelo://app?vid=6abf9179-5919-4aea-b8e3-feb1f3d71154","ios":"levelo://app?vid=6abf9179-5919-4aea-b8e3-feb1f3d71154"},"vehicle_type_id":"4","last_reported":1747739360,"current_range_meters":14000,"station_id":"ce4bhsh2rcd13ifvqi2g","pricing_plan_id":"cebpf4jnsgd1na2vs0mg"},{"bike_id":"675df11d-0326-4b58-a7bb-6254b954e2c1","system_id":"levelo_inurba_marseille","lat":43.27909,"lon":5.39599,"is_reserved":false,"is_disabled":false,"rental_uris":{"android":"levelo://app?vid=675df11d-0326-4b58-a7bb-6254b954e2c1","ios":"levelo://app?vid=675df11d-0326-4b58-a7bb-6254b954e2c1"},"vehicle_type_id":"4","last_reported":1747739360,"current_range_meters":14400,"station_id":"ce4bhf92rcd13ifvqf40","pricing_plan_id":"cebpf4jnsgd1na2vs0mg"},{"bike_id":"dc80936a-51b4-4ef9-b71e-e259b58f2ac3","system_id":"levelo_inurba_marseille","lat":43.23185,"lon":5.39991,"is_reserved":false,"is_disabled":false,"rental_uris":{"android":"levelo://app?vid=dc80936a-51b4-4ef9-b71e-e259b58f2ac3","ios":"levelo://app?vid=dc80936a-51b4-4ef9-b71e-e259b58f2ac3"},"vehicle_type_id":"4","last_reported":1747739360,"current_range_meters":14400,"station_id":"ce4bhn12rcd13ifvqgqg","pricing_plan_id":"cebpf4jnsgd1na2vs0mg"},{"bike_id":"ba91cf30-8a94-4e60-a03e-f9eed44741ca","system_id":"levelo_inurba_marseille","lat":43.27506,"lon":5.42454,"is_reserved":false,"is_disabled":false,"rental_uris":{"android":"levelo://app?vid=ba91cf30-8a94-4e60-a03e-f9eed44741ca","ios":"levelo://app?vid=ba91cf30-8a94-4e60-a03e-f9eed44741ca"},"vehicle_type_id":"4","last_reported":1747739360,"current_range_meters":14400,"station_id":"ce4bhn92rcd13ifvqgrg","pricing_plan_id":"cebpf4jnsgd1na2vs0mg"},{"bike_id":"bfadeaec-216b-47d1-99b4-74d81f9ee763","system_id":"levelo_inurba_marseille","lat":43.321268,"lon":5.367694,"is_reserved":false,"is_disabled":false,"rental_uris":{"android":"levelo://app?vid=bfadeaec-216b-47d1-99b4-74d81f9ee763","ios":"levelo://app?vid=bfadeaec-216b-47d1-99b4-74d81f9ee763"},"vehicle_type_id":"4","last_reported":1747739360,"current_range_meters":14400,"station_id":"ce4bhrh2rcd13ifvqhug","pricing_plan_id":"cebpf4jnsgd1na2vs0mg"},{"bike_id":"2bc0ac61-689e-4842-b330-ccf42e338a4d","system_id":"levelo_inurba_marseille","lat":43.27388,"lon":5.43396,"is_reserved":false,"is_disabled":false,"rental_uris":{"android":"levelo://app?vid=2bc0ac61-689e-4842-b330-ccf42e338a4d","ios":"levelo://app?vid=2bc0ac61-689e-4842-b330-ccf42e338a4d"},"vehicle_type_id":"4","last_reported":1747739360,"current_range_meters":14800,"station_id":"","pricing_plan_id":"cebpf4jnsgd1na2vs0mg"},{"bike_id":"8da7c00b-5199-431e-9e81-0f430be4a158","system_id":"levelo_inurba_marseille","lat":43.30154,"lon":5.38091,"is_reserved":false,"is_disabled":false,"rental_uris":{"android":"levelo://app?vid=8da7c00b-5199-431e-9e81-0f430be4a158","ios":"levelo://app?vid=8da7c00b-5199-431e-9e81-0f430be4a158"},"vehicle_type_id":"4","last_reported":1747739360,"current_range_meters":14800,"station_id":"ce4bgjp2rcd13ifvqbh0","pricing_plan_id":"cebpf4jnsgd1na2vs0mg"},{"bike_id":"871fb97e-4211-4632-827d-80f67cab558a","system_id":"levelo_inurba_marseille","lat":43.33777,"lon":5.37438,"is_reserved":false,"is_disabled":false,"rental_uris":{"android":"levelo://app?vid=871fb97e-4211-4632-827d-80f67cab558a","ios":"levelo://app?vid=871fb97e-4211-4632-827d-80f67cab558a"},"vehicle_type_id":"4","last_reported":1747739360,"current_range_meters":15200,"station_id":"","pricing_plan_id":"cebpf4jnsgd1na2vs0mg"},{"bike_id":"7c992c65-8b06-4407-8e9a-c46be4063ba2","system_id":"levelo_inurba_marseille","lat":43.305487,"lon":5.3655,"is_reserved":false,"is_disabled":false,"rental_uris":{"android":"levelo://app?vid=7c992c65-8b06-4407-8e9a-c46be4063ba2","ios":"levelo://app?vid=7c992c65-8b06-4407-8e9a-c46be4063ba2"},"vehicle_type_id":"4","last_reported":1747739360,"current_range_meters":15200,"station_id":"ce4bgs12rcd13ifvqcag","pricing_plan_id":"cebpf4jnsgd1na2vs0mg"},{"bike_id":"e59e5f45-9513-445e-bc33-b808576c4008","system_id":"levelo_inurba_marseille","lat":43.290455,"lon":5.39958,"is_reserved":false,"is_disabled":false,"rental_uris":{"android":"levelo://app?vid=e59e5f45-9513-445e-bc33-b808576c4008","ios":"levelo://app?vid=e59e5f45-9513-445e-bc33-b808576c4008"},"vehicle_type_id":"4","last_reported":1747739360,"current_range_meters":15200,"station_id":"ce4bh392rcd13ifvqdm0","pricing_plan_id":"cebpf4jnsgd1na2vs0mg"},{"bike_id":"cd2a417d-f533-45cd-9759-d0171f9aa58e","system_id":"levelo_inurba_marseille","lat":43.28848,"lon":5.35853,"is_reserved":false,"is_disabled":false,"rental_uris":{"android":"levelo://app?vid=cd2a417d-f533-45cd-9759-d0171f9aa58e","ios":"levelo://app?vid=cd2a417d-f533-45cd-9759-d0171f9aa58e"},"vehicle_type_id":"4","last_reported":1747739360,"current_range_meters":15200,"station_id":"ce4bhb12rcd13ifvqem0","pricing_plan_id":"cebpf4jnsgd1na2vs0mg"},{"bike_id":"0eddecc8-322f-4e49-8ba4-d63d90de2c16","system_id":"levelo_inurba_marseille","lat":43.278193,"lon":5.40701,"is_reserved":false,"is_disabled":false,"rental_uris":{"android":"levelo://app?vid=0eddecc8-322f-4e49-8ba4-d63d90de2c16","ios":"levelo://app?vid=0eddecc8-322f-4e49-8ba4-d63d90de2c16"},"vehicle_type_id":"4","last_reported":1747739360,"current_range_meters":15200,"station_id":"ce4bhnh2rcd13ifvqgtg","pricing_plan_id":"cebpf4jnsgd1na2vs0mg"},{"bike_id":"c64832ea-cbd0-47ba-a7f9-dddb8ed879b4","system_id":"levelo_inurba_marseille","lat":43.30536,"lon":5.36535,"is_reserved":false,"is_disabled":false,"rental_uris":{"android":"levelo://app?vid=c64832ea-cbd0-47ba-a7f9-dddb8ed879b4","ios":"levelo://app?vid=c64832ea-cbd0-47ba-a7f9-dddb8ed879b4"},"vehicle_type_id":"4","last_reported":1747739360,"current_range_meters":16000,"station_id":"ce4bgs12rcd13ifvqcag","pricing_plan_id":"cebpf4jnsgd1na2vs0mg"},{"bike_id":"756a8a4f-5ce1-4c36-aab2-f96d84104e0e","system_id":"levelo_inurba_marseille","lat":43.30209,"lon":5.39487,"is_reserved":false,"is_disabled":false,"rental_uris":{"android":"levelo://app?vid=756a8a4f-5ce1-4c36-aab2-f96d84104e0e","ios":"levelo://app?vid=756a8a4f-5ce1-4c36-aab2-f96d84104e0e"},"vehicle_type_id":"4","last_reported":1747739360,"current_range_meters":16000,"station_id":"ce4bh0p2rcd13ifvqd70","pricing_plan_id":"cebpf4jnsgd1na2vs0mg"},{"bike_id":"3b13e82c-f0cc-4ef0-b4d1-3f132a484ab4","system_id":"levelo_inurba_marseille","lat":43.2885,"lon":5.39307,"is_reserved":false,"is_disabled":false,"rental_uris":{"android":"levelo://app?vid=3b13e82c-f0cc-4ef0-b4d1-3f132a484ab4","ios":"levelo://app?vid=3b13e82c-f0cc-4ef0-b4d1-3f132a484ab4"},"vehicle_type_id":"4","last_reported":1747739360,"current_range_meters":16000,"station_id":"ce4bh2p2rcd13ifvqdi0","pricing_plan_id":"cebpf4jnsgd1na2vs0mg"},{"bike_id":"69d5c7f1-4f92-461f-b477-498f4f13df0d","system_id":"levelo_inurba_marseille","lat":43.307995,"lon":5.38156,"is_reserved":false,"is_disabled":false,"rental_uris":{"android":"levelo://app?vid=69d5c7f1-4f92-461f-b477-498f4f13df0d","ios":"levelo://app?vid=69d5c7f1-4f92-461f-b477-498f4f13df0d"},"vehicle_type_id":"4","last_reported":1747739360,"current_range_meters":16400,"station_id":"ce4bgt12rcd13ifvqce0","pricing_plan_id":"cebpf4jnsgd1na2vs0mg"},{"bike_id":"c5789e8e-9391-4585-bc68-58b9f31d6733","system_id":"levelo_inurba_marseille","lat":43.30463,"lon":5.37909,"is_reserved":false,"is_disabled":false,"rental_uris":{"android":"levelo://app?vid=c5789e8e-9391-4585-bc68-58b9f31d6733","ios":"levelo://app?vid=c5789e8e-9391-4585-bc68-58b9f31d6733"},"vehicle_type_id":"4","last_reported":1747739360,"current_range_meters":16400,"station_id":"ce4bgup2rcd13ifvqcn0","pricing_plan_id":"cebpf4jnsgd1na2vs0mg"},{"bike_id":"eb800977-530e-4537-8467-7acb1f63460a","system_id":"levelo_inurba_marseille","lat":43.283447,"lon":5.381027,"is_reserved":false,"is_disabled":false,"rental_uris":{"android":"levelo://app?vid=eb800977-530e-4537-8467-7acb1f63460a","ios":"levelo://app?vid=eb800977-530e-4537-8467-7acb1f63460a"},"vehicle_type_id":"4","last_reported":1747739360,"current_range_meters":16400,"station_id":"ce4bh412rcd13ifvqdr0","pricing_plan_id":"cebpf4jnsgd1na2vs0mg"},{"bike_id":"48e28f2d-0a04-45c0-90f6-debf5bacf347","system_id":"levelo_inurba_marseille","lat":43.2706,"lon":5.40256,"is_reserved":false,"is_disabled":false,"rental_uris":{"android":"levelo://app?vid=48e28f2d-0a04-45c0-90f6-debf5bacf347","ios":"levelo://app?vid=48e28f2d-0a04-45c0-90f6-debf5bacf347"},"vehicle_type_id":"4","last_reported":1747739360,"current_range_meters":16400,"station_id":"ce4bhk92rcd13ifvqgc0","pricing_plan_id":"cebpf4jnsgd1na2vs0mg"},{"bike_id":"10e5120c-1eab-4a5b-856d-d14805609b22","system_id":"levelo_inurba_marseille","lat":43.259378,"lon":5.40899,"is_reserved":false,"is_disabled":false,"rental_uris":{"android":"levelo://app?vid=10e5120c-1eab-4a5b-856d-d14805609b22","ios":"levelo://app?vid=10e5120c-1eab-4a5b-856d-d14805609b22"},"vehicle_type_id":"4","last_reported":1747739360,"current_range_meters":16400,"station_id":"ce4bhm92rcd13ifvqglg","pricing_plan_id":"cebpf4jnsgd1na2vs0mg"},{"bike_id":"6ed8eb2e-4617-409f-9e20-3e97dffc3b6a","system_id":"levelo_inurba_marseille","lat":43.290364,"lon":5.399759,"is_reserved":false,"is_disabled":false,"rental_uris":{"android":"levelo://app?vid=6ed8eb2e-4617-409f-9e20-3e97dffc3b6a","ios":"levelo://app?vid=6ed8eb2e-4617-409f-9e20-3e97dffc3b6a"},"vehicle_type_id":"4","last_reported":1747739360,"current_range_meters":16800,"station_id":"ce4bh392rcd13ifvqdm0","pricing_plan_id":"cebpf4jnsgd1na2vs0mg"},{"bike_id":"5765434c-77b5-41b5-8b14-b978e4d6dd10","system_id":"levelo_inurba_marseille","lat":43.21213,"lon":5.35081,"is_reserved":false,"is_disabled":false,"rental_uris":{"android":"levelo://app?vid=5765434c-77b5-41b5-8b14-b978e4d6dd10","ios":"levelo://app?vid=5765434c-77b5-41b5-8b14-b978e4d6dd10"},"vehicle_type_id":"4","last_reported":1747739360,"current_range_meters":16800,"station_id":"st_cvj6sg6p6f1abm77japg","pricing_plan_id":"cebpf4jnsgd1na2vs0mg"},{"bike_id":"d22b0fd0-78a6-46fc-aad8-ce2ca2a629e3","system_id":"levelo_inurba_marseille","lat":43.21188,"lon":5.35082,"is_reserved":false,"is_disabled":false,"rental_uris":{"android":"levelo://app?vid=d22b0fd0-78a6-46fc-aad8-ce2ca2a629e3","ios":"levelo://app?vid=d22b0fd0-78a6-46fc-aad8-ce2ca2a629e3"},"vehicle_type_id":"4","last_reported":1747739360,"current_range_meters":16800,"station_id":"st_cvj6sg6p6f1abm77japg","pricing_plan_id":"cebpf4jnsgd1na2vs0mg"},{"bike_id":"7781b729-cd1a-43aa-be5d-6d584b3e6a90","system_id":"levelo_inurba_marseille","lat":43.30543,"lon":5.36542,"is_reserved":false,"is_disabled":false,"rental_uris":{"android":"levelo://app?vid=7781b729-cd1a-43aa-be5d-6d584b3e6a90","ios":"levelo://app?vid=7781b729-cd1a-43aa-be5d-6d584b3e6a90"},"vehicle_type_id":"4","last_reported":1747739360,"current_range_meters":17200,"station_id":"ce4bgs12rcd13ifvqcag","pricing_plan_id":"cebpf4jnsgd1na2vs0mg"},{"bike_id":"71451117-a4f4-4248-b612-f05d462b1ffb","system_id":"levelo_inurba_marseille","lat":43.28848,"lon":5.35839,"is_reserved":false,"is_disabled":false,"rental_uris":{"android":"levelo://app?vid=71451117-a4f4-4248-b612-f05d462b1ffb","ios":"levelo://app?vid=71451117-a4f4-4248-b612-f05d462b1ffb"},"vehicle_type_id":"4","last_reported":1747739360,"current_range_meters":17200,"station_id":"ce4bhb12rcd13ifvqem0","pricing_plan_id":"cebpf4jnsgd1na2vs0mg"},{"bike_id":"ad137882-3dda-426b-a055-3792c4184664","system_id":"levelo_inurba_marseille","lat":43.27916,"lon":5.39575,"is_reserved":false,"is_disabled":false,"rental_uris":{"android":"levelo://app?vid=ad137882-3dda-426b-a055-3792c4184664","ios":"levelo://app?vid=ad137882-3dda-426b-a055-3792c4184664"},"vehicle_type_id":"4","last_reported":1747739360,"current_range_meters":17200,"station_id":"ce4bhf92rcd13ifvqf40","pricing_plan_id":"cebpf4jnsgd1na2vs0mg"},{"bike_id":"8f391498-fce1-471c-9edf-95e0451b6745","system_id":"levelo_inurba_marseille","lat":43.26211,"lon":5.37917,"is_reserved":false,"is_disabled":false,"rental_uris":{"android":"levelo://app?vid=8f391498-fce1-471c-9edf-95e0451b6745","ios":"levelo://app?vid=8f391498-fce1-471c-9edf-95e0451b6745"},"vehicle_type_id":"4","last_reported":1747739360,"current_range_meters":17200,"station_id":"ce4bhjp2rcd13ifvqg90","pricing_plan_id":"cebpf4jnsgd1na2vs0mg"},{"bike_id":"4c72191e-6073-4998-bc4f-01c7336db6da","system_id":"levelo_inurba_marseille","lat":43.30373,"lon":5.41854,"is_reserved":false,"is_disabled":false,"rental_uris":{"android":"levelo://app?vid=4c72191e-6073-4998-bc4f-01c7336db6da","ios":"levelo://app?vid=4c72191e-6073-4998-bc4f-01c7336db6da"},"vehicle_type_id":"4","last_reported":1747739360,"current_range_meters":17200,"station_id":"ce4bhop2rcd13ifvqh7g","pricing_plan_id":"cebpf4jnsgd1na2vs0mg"},{"bike_id":"a253706b-1cb9-4ca4-9560-173eeb92ac1f","system_id":"levelo_inurba_marseille","lat":43.307973,"lon":5.435313,"is_reserved":false,"is_disabled":false,"rental_uris":{"android":"levelo://app?vid=a253706b-1cb9-4ca4-9560-173eeb92ac1f","ios":"levelo://app?vid=a253706b-1cb9-4ca4-9560-173eeb92ac1f"},"vehicle_type_id":"4","last_reported":1747739360,"current_range_meters":17200,"station_id":"ce4bhph2rcd13ifvqheg","pricing_plan_id":"cebpf4jnsgd1na2vs0mg"},{"bike_id":"2730a49a-5fc6-4ae9-9364-e1ee30e9806b","system_id":"levelo_inurba_marseille","lat":43.289448,"lon":5.396366,"is_reserved":false,"is_disabled":false,"rental_uris":{"android":"levelo://app?vid=2730a49a-5fc6-4ae9-9364-e1ee30e9806b","ios":"levelo://app?vid=2730a49a-5fc6-4ae9-9364-e1ee30e9806b"},"vehicle_type_id":"4","last_reported":1747739360,"current_range_meters":17600,"station_id":"ce4bh3h2rcd13ifvqdn0","pricing_plan_id":"cebpf4jnsgd1na2vs0mg"},{"bike_id":"24dc12dd-e0a1-4ccc-b473-486d35ddca69","system_id":"levelo_inurba_marseille","lat":43.31706,"lon":5.43699,"is_reserved":false,"is_disabled":false,"rental_uris":{"android":"levelo://app?vid=24dc12dd-e0a1-4ccc-b473-486d35ddca69","ios":"levelo://app?vid=24dc12dd-e0a1-4ccc-b473-486d35ddca69"},"vehicle_type_id":"4","last_reported":1747739360,"current_range_meters":17600,"station_id":"ce4bhp92rcd13ifvqhcg","pricing_plan_id":"cebpf4jnsgd1na2vs0mg"},{"bike_id":"dcdd1230-b367-4c95-b902-7d72ba080b7b","system_id":"levelo_inurba_marseille","lat":43.30458,"lon":5.37906,"is_reserved":false,"is_disabled":false,"rental_uris":{"android":"levelo://app?vid=dcdd1230-b367-4c95-b902-7d72ba080b7b","ios":"levelo://app?vid=dcdd1230-b367-4c95-b902-7d72ba080b7b"},"vehicle_type_id":"4","last_reported":1747739360,"current_range_meters":18000,"station_id":"ce4bgup2rcd13ifvqcn0","pricing_plan_id":"cebpf4jnsgd1na2vs0mg"},{"bike_id":"92f91e94-ac98-4d37-9f39-e934690f9111","system_id":"levelo_inurba_marseille","lat":43.29039,"lon":5.39943,"is_reserved":false,"is_disabled":false,"rental_uris":{"android":"levelo://app?vid=92f91e94-ac98-4d37-9f39-e934690f9111","ios":"levelo://app?vid=92f91e94-ac98-4d37-9f39-e934690f9111"},"vehicle_type_id":"4","last_reported":1747739360,"current_range_meters":18000,"station_id":"ce4bh392rcd13ifvqdm0","pricing_plan_id":"cebpf4jnsgd1na2vs0mg"},{"bike_id":"b2812a3f-2332-493f-85e4-6bc85b95ec70","system_id":"levelo_inurba_marseille","lat":43.262211,"lon":5.404531,"is_reserved":false,"is_disabled":false,"rental_uris":{"android":"levelo://app?vid=b2812a3f-2332-493f-85e4-6bc85b95ec70","ios":"levelo://app?vid=b2812a3f-2332-493f-85e4-6bc85b95ec70"},"vehicle_type_id":"4","last_reported":1747739360,"current_range_meters":18000,"station_id":"ce4bhmh2rcd13ifvqgmg","pricing_plan_id":"cebpf4jnsgd1na2vs0mg"},{"bike_id":"d8d96cdf-c373-444d-a09b-3cb75aaf5e41","system_id":"levelo_inurba_marseille","lat":43.29631,"lon":5.37719,"is_reserved":false,"is_disabled":false,"rental_uris":{"android":"levelo://app?vid=d8d96cdf-c373-444d-a09b-3cb75aaf5e41","ios":"levelo://app?vid=d8d96cdf-c373-444d-a09b-3cb75aaf5e41"},"vehicle_type_id":"4","last_reported":1747739360,"current_range_meters":18800,"station_id":"ce4bgi92rcd13ifvqb90","pricing_plan_id":"cebpf4jnsgd1na2vs0mg"},{"bike_id":"f54c6101-846a-4727-877d-1091fb98fe51","system_id":"levelo_inurba_marseille","lat":43.29716,"lon":5.37677,"is_reserved":false,"is_disabled":false,"rental_uris":{"android":"levelo://app?vid=f54c6101-846a-4727-877d-1091fb98fe51","ios":"levelo://app?vid=f54c6101-846a-4727-877d-1091fb98fe51"},"vehicle_type_id":"4","last_reported":1747739360,"current_range_meters":18800,"station_id":"ce4bgkh2rcd13ifvqbl0","pricing_plan_id":"cebpf4jnsgd1na2vs0mg"},{"bike_id":"0e6bb125-ff93-4853-97e0-da4a593482f4","system_id":"levelo_inurba_marseille","lat":43.28076,"lon":5.39639,"is_reserved":false,"is_disabled":false,"rental_uris":{"android":"levelo://app?vid=0e6bb125-ff93-4853-97e0-da4a593482f4","ios":"levelo://app?vid=0e6bb125-ff93-4853-97e0-da4a593482f4"},"vehicle_type_id":"4","last_reported":1747739360,"current_range_meters":18800,"station_id":"ce4bho12rcd13ifvqh2g","pricing_plan_id":"cebpf4jnsgd1na2vs0mg"},{"bike_id":"a59de1d6-344a-4a3c-8232-4015f5cad701","system_id":"levelo_inurba_marseille","lat":43.308,"lon":5.43524,"is_reserved":false,"is_disabled":false,"rental_uris":{"android":"levelo://app?vid=a59de1d6-344a-4a3c-8232-4015f5cad701","ios":"levelo://app?vid=a59de1d6-344a-4a3c-8232-4015f5cad701"},"vehicle_type_id":"4","last_reported":1747739360,"current_range_meters":18800,"station_id":"ce4bhph2rcd13ifvqheg","pricing_plan_id":"cebpf4jnsgd1na2vs0mg"},{"bike_id":"ed514aee-d6d1-41a9-9ad4-46ff3d96cf65","system_id":"levelo_inurba_marseille","lat":43.32327,"lon":5.4062,"is_reserved":false,"is_disabled":false,"rental_uris":{"android":"levelo://app?vid=ed514aee-d6d1-41a9-9ad4-46ff3d96cf65","ios":"levelo://app?vid=ed514aee-d6d1-41a9-9ad4-46ff3d96cf65"},"vehicle_type_id":"4","last_reported":1747739360,"current_range_meters":18800,"station_id":"ce4bhq92rcd13ifvqhjg","pricing_plan_id":"cebpf4jnsgd1na2vs0mg"},{"bike_id":"3adda00d-ec95-42b3-b6c9-08314086c3a5","system_id":"levelo_inurba_marseille","lat":43.31531,"lon":5.3804,"is_reserved":false,"is_disabled":false,"rental_uris":{"android":"levelo://app?vid=3adda00d-ec95-42b3-b6c9-08314086c3a5","ios":"levelo://app?vid=3adda00d-ec95-42b3-b6c9-08314086c3a5"},"vehicle_type_id":"4","last_reported":1747739360,"current_range_meters":18800,"station_id":"ce4bhsp2rcd13ifvqi50","pricing_plan_id":"cebpf4jnsgd1na2vs0mg"},{"bike_id":"e31833c9-3629-4b2f-810c-c09df0eb266c","system_id":"levelo_inurba_marseille","lat":43.33751,"lon":5.37509,"is_reserved":false,"is_disabled":false,"rental_uris":{"android":"levelo://app?vid=e31833c9-3629-4b2f-810c-c09df0eb266c","ios":"levelo://app?vid=e31833c9-3629-4b2f-810c-c09df0eb266c"},"vehicle_type_id":"4","last_reported":1747739360,"current_range_meters":19200,"station_id":"","pricing_plan_id":"cebpf4jnsgd1na2vs0mg"},{"bike_id":"31c20936-c4ed-4687-b318-4f0bd4a8c315","system_id":"levelo_inurba_marseille","lat":43.30461,"lon":5.37911,"is_reserved":false,"is_disabled":false,"rental_uris":{"android":"levelo://app?vid=31c20936-c4ed-4687-b318-4f0bd4a8c315","ios":"levelo://app?vid=31c20936-c4ed-4687-b318-4f0bd4a8c315"},"vehicle_type_id":"4","last_reported":1747739360,"current_range_meters":19200,"station_id":"ce4bgup2rcd13ifvqcn0","pricing_plan_id":"cebpf4jnsgd1na2vs0mg"},{"bike_id":"869cfffe-2f4a-4c85-8893-bc8d2c15d749","system_id":"levelo_inurba_marseille","lat":43.29266,"lon":5.40902,"is_reserved":false,"is_disabled":false,"rental_uris":{"android":"levelo://app?vid=869cfffe-2f4a-4c85-8893-bc8d2c15d749","ios":"levelo://app?vid=869cfffe-2f4a-4c85-8893-bc8d2c15d749"},"vehicle_type_id":"4","last_reported":1747739360,"current_range_meters":19200,"station_id":"ce4bh192rcd13ifvqdc0","pricing_plan_id":"cebpf4jnsgd1na2vs0mg"},{"bike_id":"fc5c4b82-c821-49b0-b8fd-bf552f3775f4","system_id":"levelo_inurba_marseille","lat":43.24177,"lon":5.39723,"is_reserved":false,"is_disabled":false,"rental_uris":{"android":"levelo://app?vid=fc5c4b82-c821-49b0-b8fd-bf552f3775f4","ios":"levelo://app?vid=fc5c4b82-c821-49b0-b8fd-bf552f3775f4"},"vehicle_type_id":"4","last_reported":1747739360,"current_range_meters":19200,"station_id":"ce4bhn12rcd13ifvqgpg","pricing_plan_id":"cebpf4jnsgd1na2vs0mg"},{"bike_id":"cf048671-1ddd-4ca1-a00d-6b243746d946","system_id":"levelo_inurba_marseille","lat":43.29719,"lon":5.37676,"is_reserved":false,"is_disabled":false,"rental_uris":{"android":"levelo://app?vid=cf048671-1ddd-4ca1-a00d-6b243746d946","ios":"levelo://app?vid=cf048671-1ddd-4ca1-a00d-6b243746d946"},"vehicle_type_id":"4","last_reported":1747739360,"current_range_meters":19600,"station_id":"ce4bgkh2rcd13ifvqbl0","pricing_plan_id":"cebpf4jnsgd1na2vs0mg"},{"bike_id":"128904f3-815c-42a0-8e9f-93990280fe97","system_id":"levelo_inurba_marseille","lat":43.248094,"lon":5.374564,"is_reserved":false,"is_disabled":false,"rental_uris":{"android":"levelo://app?vid=128904f3-815c-42a0-8e9f-93990280fe97","ios":"levelo://app?vid=128904f3-815c-42a0-8e9f-93990280fe97"},"vehicle_type_id":"4","last_reported":1747739360,"current_range_meters":19600,"station_id":"ce4bhgh2rcd13ifvqfb0","pricing_plan_id":"cebpf4jnsgd1na2vs0mg"},{"bike_id":"3dcad5d8-af4e-4703-83f3-fa445bdd7237","system_id":"levelo_inurba_marseille","lat":43.27313,"lon":5.39068,"is_reserved":false,"is_disabled":false,"rental_uris":{"android":"levelo://app?vid=3dcad5d8-af4e-4703-83f3-fa445bdd7237","ios":"levelo://app?vid=3dcad5d8-af4e-4703-83f3-fa445bdd7237"},"vehicle_type_id":"4","last_reported":1747739360,"current_range_meters":19600,"station_id":"ce4bhgp2rcd13ifvqfe0","pricing_plan_id":"cebpf4jnsgd1na2vs0mg"},{"bike_id":"c4f0ddbf-912f-4dc6-81b8-da7688e7978e","system_id":"levelo_inurba_marseille","lat":43.30799,"lon":5.43529,"is_reserved":false,"is_disabled":false,"rental_uris":{"android":"levelo://app?vid=c4f0ddbf-912f-4dc6-81b8-da7688e7978e","ios":"levelo://app?vid=c4f0ddbf-912f-4dc6-81b8-da7688e7978e"},"vehicle_type_id":"4","last_reported":1747739360,"current_range_meters":19600,"station_id":"ce4bhph2rcd13ifvqheg","pricing_plan_id":"cebpf4jnsgd1na2vs0mg"},{"bike_id":"4ab8d95e-9d60-4562-a7d4-2cad08d5a345","system_id":"levelo_inurba_marseille","lat":43.29529,"lon":5.38546,"is_reserved":false,"is_disabled":false,"rental_uris":{"android":"levelo://app?vid=4ab8d95e-9d60-4562-a7d4-2cad08d5a345","ios":"levelo://app?vid=4ab8d95e-9d60-4562-a7d4-2cad08d5a345"},"vehicle_type_id":"4","last_reported":1747739360,"current_range_meters":20000,"station_id":"ce4bgih2rcd13ifvqba0","pricing_plan_id":"cebpf4jnsgd1na2vs0mg"},{"bike_id":"d3433e92-bf5d-42b3-8af1-396f34324daa","system_id":"levelo_inurba_marseille","lat":43.27614,"lon":5.36131,"is_reserved":false,"is_disabled":false,"rental_uris":{"android":"levelo://app?vid=d3433e92-bf5d-42b3-8af1-396f34324daa","ios":"levelo://app?vid=d3433e92-bf5d-42b3-8af1-396f34324daa"},"vehicle_type_id":"4","last_reported":1747739360,"current_range_meters":20000,"station_id":"ce4bgj92rcd13ifvqbe0","pricing_plan_id":"cebpf4jnsgd1na2vs0mg"},{"bike_id":"8bb7d43c-e583-40c0-9a6a-a2f0c4f03243","system_id":"levelo_inurba_marseille","lat":43.29232,"lon":5.40898,"is_reserved":false,"is_disabled":false,"rental_uris":{"android":"levelo://app?vid=8bb7d43c-e583-40c0-9a6a-a2f0c4f03243","ios":"levelo://app?vid=8bb7d43c-e583-40c0-9a6a-a2f0c4f03243"},"vehicle_type_id":"4","last_reported":1747739360,"current_range_meters":20000,"station_id":"ce4bh192rcd13ifvqdc0","pricing_plan_id":"cebpf4jnsgd1na2vs0mg"},{"bike_id":"7b335122-ce8c-4460-bab1-c9b581bd882c","system_id":"levelo_inurba_marseille","lat":43.31762,"lon":5.39007,"is_reserved":false,"is_disabled":false,"rental_uris":{"android":"levelo://app?vid=7b335122-ce8c-4460-bab1-c9b581bd882c","ios":"levelo://app?vid=7b335122-ce8c-4460-bab1-c9b581bd882c"},"vehicle_type_id":"4","last_reported":1747739360,"current_range_meters":20000,"station_id":"ce4bhqp2rcd13ifvqhng","pricing_plan_id":"cebpf4jnsgd1na2vs0mg"},{"bike_id":"18d4f046-c73b-4ed1-bd45-69ca2f62023e","system_id":"levelo_inurba_marseille","lat":43.22519,"lon":5.34787,"is_reserved":false,"is_disabled":false,"rental_uris":{"android":"levelo://app?vid=18d4f046-c73b-4ed1-bd45-69ca2f62023e","ios":"levelo://app?vid=18d4f046-c73b-4ed1-bd45-69ca2f62023e"},"vehicle_type_id":"4","last_reported":1747739360,"current_range_meters":20000,"station_id":"st_cvj5dfep6f1abm77gieg","pricing_plan_id":"cebpf4jnsgd1na2vs0mg"},{"bike_id":"c9a00e74-029a-454e-8e85-1b3d994b9d78","system_id":"levelo_inurba_marseille","lat":43.211928,"lon":5.350746,"is_reserved":false,"is_disabled":false,"rental_uris":{"android":"levelo://app?vid=c9a00e74-029a-454e-8e85-1b3d994b9d78","ios":"levelo://app?vid=c9a00e74-029a-454e-8e85-1b3d994b9d78"},"vehicle_type_id":"4","last_reported":1747739360,"current_range_meters":20000,"station_id":"st_cvj6sg6p6f1abm77japg","pricing_plan_id":"cebpf4jnsgd1na2vs0mg"},{"bike_id":"4afc6658-b9b2-4530-a4e5-c540ac486363","system_id":"levelo_inurba_marseille","lat":43.2959,"lon":5.38112,"is_reserved":false,"is_disabled":false,"rental_uris":{"android":"levelo://app?vid=4afc6658-b9b2-4530-a4e5-c540ac486363","ios":"levelo://app?vid=4afc6658-b9b2-4530-a4e5-c540ac486363"},"vehicle_type_id":"4","last_reported":1747739360,"current_range_meters":20400,"station_id":"ce4bgl12rcd13ifvqbo0","pricing_plan_id":"cebpf4jnsgd1na2vs0mg"},{"bike_id":"c4ea5a45-10f8-4771-8462-3d11a6370860","system_id":"levelo_inurba_marseille","lat":43.24662,"lon":5.38172,"is_reserved":false,"is_disabled":false,"rental_uris":{"android":"levelo://app?vid=c4ea5a45-10f8-4771-8462-3d11a6370860","ios":"levelo://app?vid=c4ea5a45-10f8-4771-8462-3d11a6370860"},"vehicle_type_id":"4","last_reported":1747739360,"current_range_meters":20400,"station_id":"ce4bhih2rcd13ifvqfr0","pricing_plan_id":"cebpf4jnsgd1na2vs0mg"},{"bike_id":"e7f7f362-42a6-4526-a860-b6f212c9a260","system_id":"levelo_inurba_marseille","lat":43.24082,"lon":5.37747,"is_reserved":false,"is_disabled":false,"rental_uris":{"android":"levelo://app?vid=e7f7f362-42a6-4526-a860-b6f212c9a260","ios":"levelo://app?vid=e7f7f362-42a6-4526-a860-b6f212c9a260"},"vehicle_type_id":"4","last_reported":1747739360,"current_range_meters":20400,"station_id":"ce4bhnp2rcd13ifvqgvg","pricing_plan_id":"cebpf4jnsgd1na2vs0mg"},{"bike_id":"d2243da5-46a4-4675-a166-c5959f727fa3","system_id":"levelo_inurba_marseille","lat":43.27941,"lon":5.41041,"is_reserved":false,"is_disabled":false,"rental_uris":{"android":"levelo://app?vid=d2243da5-46a4-4675-a166-c5959f727fa3","ios":"levelo://app?vid=d2243da5-46a4-4675-a166-c5959f727fa3"},"vehicle_type_id":"4","last_reported":1747739360,"current_range_meters":20400,"station_id":"ce4bhnp2rcd13ifvqh0g","pricing_plan_id":"cebpf4jnsgd1na2vs0mg"},{"bike_id":"8668fe88-d71a-4b6b-a5f7-0c2667e50620","system_id":"levelo_inurba_marseille","lat":43.28079,"lon":5.39659,"is_reserved":false,"is_disabled":false,"rental_uris":{"android":"levelo://app?vid=8668fe88-d71a-4b6b-a5f7-0c2667e50620","ios":"levelo://app?vid=8668fe88-d71a-4b6b-a5f7-0c2667e50620"},"vehicle_type_id":"4","last_reported":1747739360,"current_range_meters":20400,"station_id":"ce4bho12rcd13ifvqh2g","pricing_plan_id":"cebpf4jnsgd1na2vs0mg"},{"bike_id":"53640e62-0748-4407-97da-6e8c01be4123","system_id":"levelo_inurba_marseille","lat":43.29557,"lon":5.42291,"is_reserved":false,"is_disabled":false,"rental_uris":{"android":"levelo://app?vid=53640e62-0748-4407-97da-6e8c01be4123","ios":"levelo://app?vid=53640e62-0748-4407-97da-6e8c01be4123"},"vehicle_type_id":"4","last_reported":1747739360,"current_range_meters":20400,"station_id":"ce4bhph2rcd13ifvqhdg","pricing_plan_id":"cebpf4jnsgd1na2vs0mg"},{"bike_id":"c771854a-864d-4806-894f-ed5195dec318","system_id":"levelo_inurba_marseille","lat":43.29581,"lon":5.37518,"is_reserved":false,"is_disabled":false,"rental_uris":{"android":"levelo://app?vid=c771854a-864d-4806-894f-ed5195dec318","ios":"levelo://app?vid=c771854a-864d-4806-894f-ed5195dec318"},"vehicle_type_id":"4","last_reported":1747739360,"current_range_meters":20800,"station_id":"ce4bgh92rcd13ifvqb50","pricing_plan_id":"cebpf4jnsgd1na2vs0mg"},{"bike_id":"faecb85d-3a30-4dd6-9b06-bac630b1a6b9","system_id":"levelo_inurba_marseille","lat":43.29105,"lon":5.38138,"is_reserved":false,"is_disabled":false,"rental_uris":{"android":"levelo://app?vid=faecb85d-3a30-4dd6-9b06-bac630b1a6b9","ios":"levelo://app?vid=faecb85d-3a30-4dd6-9b06-bac630b1a6b9"},"vehicle_type_id":"4","last_reported":1747739360,"current_range_meters":20800,"station_id":"ce4bh512rcd13ifvqe2g","pricing_plan_id":"cebpf4jnsgd1na2vs0mg"},{"bike_id":"5eba9c6f-af52-4678-b92e-599eadfb62a3","system_id":"levelo_inurba_marseille","lat":43.28941,"lon":5.36638,"is_reserved":false,"is_disabled":false,"rental_uris":{"android":"levelo://app?vid=5eba9c6f-af52-4678-b92e-599eadfb62a3","ios":"levelo://app?vid=5eba9c6f-af52-4678-b92e-599eadfb62a3"},"vehicle_type_id":"4","last_reported":1747739360,"current_range_meters":20800,"station_id":"ce4bhap2rcd13ifvqek0","pricing_plan_id":"cebpf4jnsgd1na2vs0mg"},{"bike_id":"9a707967-dc2e-4e67-8fbc-a59d49e0145b","system_id":"levelo_inurba_marseille","lat":43.29211,"lon":5.36054,"is_reserved":false,"is_disabled":false,"rental_uris":{"android":"levelo://app?vid=9a707967-dc2e-4e67-8fbc-a59d49e0145b","ios":"levelo://app?vid=9a707967-dc2e-4e67-8fbc-a59d49e0145b"},"vehicle_type_id":"4","last_reported":1747739360,"current_range_meters":20800,"station_id":"ce4bhbh2rcd13ifvqeqg","pricing_plan_id":"cebpf4jnsgd1na2vs0mg"},{"bike_id":"4cfa97d5-d3ed-4671-8003-01f459c4be7e","system_id":"levelo_inurba_marseille","lat":43.3376,"lon":5.37438,"is_reserved":false,"is_disabled":false,"rental_uris":{"android":"levelo://app?vid=4cfa97d5-d3ed-4671-8003-01f459c4be7e","ios":"levelo://app?vid=4cfa97d5-d3ed-4671-8003-01f459c4be7e"},"vehicle_type_id":"4","last_reported":1747739360,"current_range_meters":21600,"station_id":"","pricing_plan_id":"cebpf4jnsgd1na2vs0mg"},{"bike_id":"8e32636f-7071-428f-9b42-726645625fe5","system_id":"levelo_inurba_marseille","lat":43.25577,"lon":5.38235,"is_reserved":false,"is_disabled":false,"rental_uris":{"android":"levelo://app?vid=8e32636f-7071-428f-9b42-726645625fe5","ios":"levelo://app?vid=8e32636f-7071-428f-9b42-726645625fe5"},"vehicle_type_id":"4","last_reported":1747739360,"current_range_meters":21600,"station_id":"ce4bhih2rcd13ifvqfs0","pricing_plan_id":"cebpf4jnsgd1na2vs0mg"},{"bike_id":"ff8f33db-3629-4c9f-b748-0302de2820e9","system_id":"levelo_inurba_marseille","lat":43.28078,"lon":5.39657,"is_reserved":false,"is_disabled":false,"rental_uris":{"android":"levelo://app?vid=ff8f33db-3629-4c9f-b748-0302de2820e9","ios":"levelo://app?vid=ff8f33db-3629-4c9f-b748-0302de2820e9"},"vehicle_type_id":"4","last_reported":1747739360,"current_range_meters":21600,"station_id":"ce4bho12rcd13ifvqh2g","pricing_plan_id":"cebpf4jnsgd1na2vs0mg"},{"bike_id":"148f418d-e249-43d2-b729-114f61865fc2","system_id":"levelo_inurba_marseille","lat":43.279998,"lon":5.400182,"is_reserved":false,"is_disabled":false,"rental_uris":{"android":"levelo://app?vid=148f418d-e249-43d2-b729-114f61865fc2","ios":"levelo://app?vid=148f418d-e249-43d2-b729-114f61865fc2"},"vehicle_type_id":"4","last_reported":1747739360,"current_range_meters":21600,"station_id":"ce4bho92rcd13ifvqh4g","pricing_plan_id":"cebpf4jnsgd1na2vs0mg"},{"bike_id":"aeb76bba-7d0f-433e-b86b-6d57d4b7d83d","system_id":"levelo_inurba_marseille","lat":43.298,"lon":5.3809,"is_reserved":false,"is_disabled":false,"rental_uris":{"android":"levelo://app?vid=aeb76bba-7d0f-433e-b86b-6d57d4b7d83d","ios":"levelo://app?vid=aeb76bba-7d0f-433e-b86b-6d57d4b7d83d"},"vehicle_type_id":"4","last_reported":1747739360,"current_range_meters":22000,"station_id":"ce4bgip2rcd13ifvqbb0","pricing_plan_id":"cebpf4jnsgd1na2vs0mg"},{"bike_id":"0cb63a73-6dea-4357-a2ae-d0d200f1a1e1","system_id":"levelo_inurba_marseille","lat":43.29862,"lon":5.36275,"is_reserved":false,"is_disabled":false,"rental_uris":{"android":"levelo://app?vid=0cb63a73-6dea-4357-a2ae-d0d200f1a1e1","ios":"levelo://app?vid=0cb63a73-6dea-4357-a2ae-d0d200f1a1e1"},"vehicle_type_id":"4","last_reported":1747739360,"current_range_meters":22000,"station_id":"ce4bgpp2rcd13ifvqc3g","pricing_plan_id":"cebpf4jnsgd1na2vs0mg"},{"bike_id":"1b0be663-9268-487b-b8b0-37d46f9787e1","system_id":"levelo_inurba_marseille","lat":43.29871,"lon":5.39726,"is_reserved":false,"is_disabled":false,"rental_uris":{"android":"levelo://app?vid=1b0be663-9268-487b-b8b0-37d46f9787e1","ios":"levelo://app?vid=1b0be663-9268-487b-b8b0-37d46f9787e1"},"vehicle_type_id":"4","last_reported":1747739360,"current_range_meters":22000,"station_id":"ce4bh0h2rcd13ifvqd50","pricing_plan_id":"cebpf4jnsgd1na2vs0mg"},{"bike_id":"53bedfa7-1ce5-4a05-84b9-c89eed1d6e6a","system_id":"levelo_inurba_marseille","lat":43.29224,"lon":5.36898,"is_reserved":false,"is_disabled":false,"rental_uris":{"android":"levelo://app?vid=53bedfa7-1ce5-4a05-84b9-c89eed1d6e6a","ios":"levelo://app?vid=53bedfa7-1ce5-4a05-84b9-c89eed1d6e6a"},"vehicle_type_id":"4","last_reported":1747739360,"current_range_meters":22000,"station_id":"ce4bhbp2rcd13ifvqesg","pricing_plan_id":"cebpf4jnsgd1na2vs0mg"},{"bike_id":"32c377c5-5335-4199-8968-242ecd5c8a81","system_id":"levelo_inurba_marseille","lat":43.271854,"lon":5.409916,"is_reserved":false,"is_disabled":false,"rental_uris":{"android":"levelo://app?vid=32c377c5-5335-4199-8968-242ecd5c8a81","ios":"levelo://app?vid=32c377c5-5335-4199-8968-242ecd5c8a81"},"vehicle_type_id":"4","last_reported":1747739360,"current_range_meters":22000,"station_id":"ce4bhl12rcd13ifvqgf0","pricing_plan_id":"cebpf4jnsgd1na2vs0mg"},{"bike_id":"dc61c065-6ed1-487e-9ecf-5a93a8f61ca7","system_id":"levelo_inurba_marseille","lat":43.231919,"lon":5.399778,"is_reserved":false,"is_disabled":false,"rental_uris":{"android":"levelo://app?vid=dc61c065-6ed1-487e-9ecf-5a93a8f61ca7","ios":"levelo://app?vid=dc61c065-6ed1-487e-9ecf-5a93a8f61ca7"},"vehicle_type_id":"4","last_reported":1747739360,"current_range_meters":22000,"station_id":"ce4bhn12rcd13ifvqgqg","pricing_plan_id":"cebpf4jnsgd1na2vs0mg"},{"bike_id":"512cad48-a180-4060-b1f1-89c6ef5852f2","system_id":"levelo_inurba_marseille","lat":43.23206,"lon":5.39979,"is_reserved":false,"is_disabled":false,"rental_uris":{"android":"levelo://app?vid=512cad48-a180-4060-b1f1-89c6ef5852f2","ios":"levelo://app?vid=512cad48-a180-4060-b1f1-89c6ef5852f2"},"vehicle_type_id":"4","last_reported":1747739360,"current_range_meters":22000,"station_id":"ce4bhn12rcd13ifvqgqg","pricing_plan_id":"cebpf4jnsgd1na2vs0mg"},{"bike_id":"ac284784-9a8d-4900-915b-a5ac8a57cfad","system_id":"levelo_inurba_marseille","lat":43.28075,"lon":5.39644,"is_reserved":false,"is_disabled":false,"rental_uris":{"android":"levelo://app?vid=ac284784-9a8d-4900-915b-a5ac8a57cfad","ios":"levelo://app?vid=ac284784-9a8d-4900-915b-a5ac8a57cfad"},"vehicle_type_id":"4","last_reported":1747739360,"current_range_meters":22000,"station_id":"ce4bho12rcd13ifvqh2g","pricing_plan_id":"cebpf4jnsgd1na2vs0mg"},{"bike_id":"fc77af91-7d92-4b9d-8b86-b06c6f6c6e33","system_id":"levelo_inurba_marseille","lat":43.29537,"lon":5.38548,"is_reserved":false,"is_disabled":false,"rental_uris":{"android":"levelo://app?vid=fc77af91-7d92-4b9d-8b86-b06c6f6c6e33","ios":"levelo://app?vid=fc77af91-7d92-4b9d-8b86-b06c6f6c6e33"},"vehicle_type_id":"4","last_reported":1747739360,"current_range_meters":22400,"station_id":"ce4bgih2rcd13ifvqba0","pricing_plan_id":"cebpf4jnsgd1na2vs0mg"},{"bike_id":"c818589e-656e-4b36-81ce-2806783f3a4d","system_id":"levelo_inurba_marseille","lat":43.29975,"lon":5.38484,"is_reserved":false,"is_disabled":false,"rental_uris":{"android":"levelo://app?vid=c818589e-656e-4b36-81ce-2806783f3a4d","ios":"levelo://app?vid=c818589e-656e-4b36-81ce-2806783f3a4d"},"vehicle_type_id":"4","last_reported":1747739360,"current_range_meters":22400,"station_id":"ce4bgj92rcd13ifvqbd0","pricing_plan_id":"cebpf4jnsgd1na2vs0mg"},{"bike_id":"ffc85876-67f6-44a4-a623-29a203293aa2","system_id":"levelo_inurba_marseille","lat":43.30537,"lon":5.36528,"is_reserved":false,"is_disabled":false,"rental_uris":{"android":"levelo://app?vid=ffc85876-67f6-44a4-a623-29a203293aa2","ios":"levelo://app?vid=ffc85876-67f6-44a4-a623-29a203293aa2"},"vehicle_type_id":"4","last_reported":1747739360,"current_range_meters":22400,"station_id":"ce4bgs12rcd13ifvqcag","pricing_plan_id":"cebpf4jnsgd1na2vs0mg"},{"bike_id":"93ab2e77-e5ea-4852-b6a0-a034922a6d30","system_id":"levelo_inurba_marseille","lat":43.26061,"lon":5.39395,"is_reserved":false,"is_disabled":false,"rental_uris":{"android":"levelo://app?vid=93ab2e77-e5ea-4852-b6a0-a034922a6d30","ios":"levelo://app?vid=93ab2e77-e5ea-4852-b6a0-a034922a6d30"},"vehicle_type_id":"4","last_reported":1747739360,"current_range_meters":22400,"station_id":"ce4bhh92rcd13ifvqfj0","pricing_plan_id":"cebpf4jnsgd1na2vs0mg"},{"bike_id":"7be8e76c-bfd2-4f47-b830-fe6f45410bf9","system_id":"levelo_inurba_marseille","lat":43.284496,"lon":5.358594,"is_reserved":false,"is_disabled":false,"rental_uris":{"android":"levelo://app?vid=7be8e76c-bfd2-4f47-b830-fe6f45410bf9","ios":"levelo://app?vid=7be8e76c-bfd2-4f47-b830-fe6f45410bf9"},"vehicle_type_id":"4","last_reported":1747739360,"current_range_meters":22800,"station_id":"","pricing_plan_id":"cebpf4jnsgd1na2vs0mg"},{"bike_id":"ada11e73-cd5a-4471-921e-6f243271ddb1","system_id":"levelo_inurba_marseille","lat":43.30306,"lon":5.36887,"is_reserved":false,"is_disabled":false,"rental_uris":{"android":"levelo://app?vid=ada11e73-cd5a-4471-921e-6f243271ddb1","ios":"levelo://app?vid=ada11e73-cd5a-4471-921e-6f243271ddb1"},"vehicle_type_id":"4","last_reported":1747739360,"current_range_meters":22800,"station_id":"ce4bgqh2rcd13ifvqc5g","pricing_plan_id":"cebpf4jnsgd1na2vs0mg"},{"bike_id":"5e57fa99-d12d-4f57-bc37-8da169f71b9b","system_id":"levelo_inurba_marseille","lat":43.29091,"lon":5.38138,"is_reserved":false,"is_disabled":false,"rental_uris":{"android":"levelo://app?vid=5e57fa99-d12d-4f57-bc37-8da169f71b9b","ios":"levelo://app?vid=5e57fa99-d12d-4f57-bc37-8da169f71b9b"},"vehicle_type_id":"4","last_reported":1747739360,"current_range_meters":22800,"station_id":"ce4bh512rcd13ifvqe2g","pricing_plan_id":"cebpf4jnsgd1na2vs0mg"},{"bike_id":"daae48b3-aecd-44d0-bd78-1a9dd2cda69f","system_id":"levelo_inurba_marseille","lat":43.28729,"lon":5.37944,"is_reserved":false,"is_disabled":false,"rental_uris":{"android":"levelo://app?vid=daae48b3-aecd-44d0-bd78-1a9dd2cda69f","ios":"levelo://app?vid=daae48b3-aecd-44d0-bd78-1a9dd2cda69f"},"vehicle_type_id":"4","last_reported":1747739360,"current_range_meters":22800,"station_id":"ce4bh9p2rcd13ifvqec0","pricing_plan_id":"cebpf4jnsgd1na2vs0mg"},{"bike_id":"da824f8c-2dfd-4072-88a1-69fe29708e25","system_id":"levelo_inurba_marseille","lat":43.26226,"lon":5.37441,"is_reserved":false,"is_disabled":false,"rental_uris":{"android":"levelo://app?vid=da824f8c-2dfd-4072-88a1-69fe29708e25","ios":"levelo://app?vid=da824f8c-2dfd-4072-88a1-69fe29708e25"},"vehicle_type_id":"4","last_reported":1747739360,"current_range_meters":22800,"station_id":"ce4bhgp2rcd13ifvqfc0","pricing_plan_id":"cebpf4jnsgd1na2vs0mg"},{"bike_id":"6c0c550c-ec31-4921-afec-d928643b580e","system_id":"levelo_inurba_marseille","lat":43.320996,"lon":5.367861,"is_reserved":false,"is_disabled":false,"rental_uris":{"android":"levelo://app?vid=6c0c550c-ec31-4921-afec-d928643b580e","ios":"levelo://app?vid=6c0c550c-ec31-4921-afec-d928643b580e"},"vehicle_type_id":"4","last_reported":1747739360,"current_range_meters":22800,"station_id":"ce4bhrh2rcd13ifvqhug","pricing_plan_id":"cebpf4jnsgd1na2vs0mg"},{"bike_id":"70e70b25-86aa-4fd0-9d2d-38db75c6503f","system_id":"levelo_inurba_marseille","lat":43.297179,"lon":5.376854,"is_reserved":false,"is_disabled":false,"rental_uris":{"android":"levelo://app?vid=70e70b25-86aa-4fd0-9d2d-38db75c6503f","ios":"levelo://app?vid=70e70b25-86aa-4fd0-9d2d-38db75c6503f"},"vehicle_type_id":"4","last_reported":1747739360,"current_range_meters":23200,"station_id":"ce4bgkh2rcd13ifvqbl0","pricing_plan_id":"cebpf4jnsgd1na2vs0mg"},{"bike_id":"b0d63ff5-6f05-4225-a4c4-6593a5b1cb47","system_id":"levelo_inurba_marseille","lat":43.29518,"lon":5.37508,"is_reserved":false,"is_disabled":false,"rental_uris":{"android":"levelo://app?vid=b0d63ff5-6f05-4225-a4c4-6593a5b1cb47","ios":"levelo://app?vid=b0d63ff5-6f05-4225-a4c4-6593a5b1cb47"},"vehicle_type_id":"4","last_reported":1747739360,"current_range_meters":23200,"station_id":"ce4bgkp2rcd13ifvqbmg","pricing_plan_id":"cebpf4jnsgd1na2vs0mg"},{"bike_id":"edd89315-230a-4c33-aeef-aa1e7dd0643f","system_id":"levelo_inurba_marseille","lat":43.30461,"lon":5.37902,"is_reserved":false,"is_disabled":false,"rental_uris":{"android":"levelo://app?vid=edd89315-230a-4c33-aeef-aa1e7dd0643f","ios":"levelo://app?vid=edd89315-230a-4c33-aeef-aa1e7dd0643f"},"vehicle_type_id":"4","last_reported":1747739360,"current_range_meters":23200,"station_id":"ce4bgup2rcd13ifvqcn0","pricing_plan_id":"cebpf4jnsgd1na2vs0mg"},{"bike_id":"2cc6cb49-77af-4ebd-82f4-0e4509d5971a","system_id":"levelo_inurba_marseille","lat":43.30794,"lon":5.37641,"is_reserved":false,"is_disabled":false,"rental_uris":{"android":"levelo://app?vid=2cc6cb49-77af-4ebd-82f4-0e4509d5971a","ios":"levelo://app?vid=2cc6cb49-77af-4ebd-82f4-0e4509d5971a"},"vehicle_type_id":"4","last_reported":1747739360,"current_range_meters":23200,"station_id":"ce4bgv92rcd13ifvqcq0","pricing_plan_id":"cebpf4jnsgd1na2vs0mg"},{"bike_id":"b391cb77-518b-4eb8-a4e0-131a7bff4e42","system_id":"levelo_inurba_marseille","lat":43.290486,"lon":5.399595,"is_reserved":false,"is_disabled":false,"rental_uris":{"android":"levelo://app?vid=b391cb77-518b-4eb8-a4e0-131a7bff4e42","ios":"levelo://app?vid=b391cb77-518b-4eb8-a4e0-131a7bff4e42"},"vehicle_type_id":"4","last_reported":1747739360,"current_range_meters":23200,"station_id":"ce4bh392rcd13ifvqdm0","pricing_plan_id":"cebpf4jnsgd1na2vs0mg"},{"bike_id":"291e20fb-1fea-4cfe-9c63-d2a07c34e161","system_id":"levelo_inurba_marseille","lat":43.28205,"lon":5.35104,"is_reserved":false,"is_disabled":false,"rental_uris":{"android":"levelo://app?vid=291e20fb-1fea-4cfe-9c63-d2a07c34e161","ios":"levelo://app?vid=291e20fb-1fea-4cfe-9c63-d2a07c34e161"},"vehicle_type_id":"4","last_reported":1747739360,"current_range_meters":23200,"station_id":"ce4bhbp2rcd13ifvqerg","pricing_plan_id":"cebpf4jnsgd1na2vs0mg"},{"bike_id":"68a5f42b-dcac-481e-a6ff-64cbd7ffa024","system_id":"levelo_inurba_marseille","lat":43.33028,"lon":5.39039,"is_reserved":false,"is_disabled":false,"rental_uris":{"android":"levelo://app?vid=68a5f42b-dcac-481e-a6ff-64cbd7ffa024","ios":"levelo://app?vid=68a5f42b-dcac-481e-a6ff-64cbd7ffa024"},"vehicle_type_id":"4","last_reported":1747739360,"current_range_meters":23200,"station_id":"ce4bhr92rcd13ifvqhrg","pricing_plan_id":"cebpf4jnsgd1na2vs0mg"},{"bike_id":"93203a06-af48-4d0e-a021-0fbcd69a0022","system_id":"levelo_inurba_marseille","lat":43.31227,"lon":5.36861,"is_reserved":false,"is_disabled":false,"rental_uris":{"android":"levelo://app?vid=93203a06-af48-4d0e-a021-0fbcd69a0022","ios":"levelo://app?vid=93203a06-af48-4d0e-a021-0fbcd69a0022"},"vehicle_type_id":"4","last_reported":1747739360,"current_range_meters":24000,"station_id":"ce4bgl92rcd13ifvqbq0","pricing_plan_id":"cebpf4jnsgd1na2vs0mg"},{"bike_id":"605365fd-0976-4fcc-a42a-ee810d6ebd22","system_id":"levelo_inurba_marseille","lat":43.25095,"lon":5.39522,"is_reserved":false,"is_disabled":false,"rental_uris":{"android":"levelo://app?vid=605365fd-0976-4fcc-a42a-ee810d6ebd22","ios":"levelo://app?vid=605365fd-0976-4fcc-a42a-ee810d6ebd22"},"vehicle_type_id":"4","last_reported":1747739360,"current_range_meters":24000,"station_id":"ce4bhm12rcd13ifvqgkg","pricing_plan_id":"cebpf4jnsgd1na2vs0mg"},{"bike_id":"110aad4f-532a-43cb-9ff3-9184dd543347","system_id":"levelo_inurba_marseille","lat":43.26206,"lon":5.40506,"is_reserved":false,"is_disabled":false,"rental_uris":{"android":"levelo://app?vid=110aad4f-532a-43cb-9ff3-9184dd543347","ios":"levelo://app?vid=110aad4f-532a-43cb-9ff3-9184dd543347"},"vehicle_type_id":"4","last_reported":1747739360,"current_range_meters":24000,"station_id":"ce4bhmh2rcd13ifvqgmg","pricing_plan_id":"cebpf4jnsgd1na2vs0mg"},{"bike_id":"4b6d781d-5bd7-449a-b215-f3e71eca3002","system_id":"levelo_inurba_marseille","lat":43.24072,"lon":5.37758,"is_reserved":false,"is_disabled":false,"rental_uris":{"android":"levelo://app?vid=4b6d781d-5bd7-449a-b215-f3e71eca3002","ios":"levelo://app?vid=4b6d781d-5bd7-449a-b215-f3e71eca3002"},"vehicle_type_id":"4","last_reported":1747739360,"current_range_meters":24000,"station_id":"ce4bhnp2rcd13ifvqgvg","pricing_plan_id":"cebpf4jnsgd1na2vs0mg"},{"bike_id":"d12559b7-bb60-445a-943b-0c75368df724","system_id":"levelo_inurba_marseille","lat":43.316559,"lon":5.423987,"is_reserved":false,"is_disabled":false,"rental_uris":{"android":"levelo://app?vid=d12559b7-bb60-445a-943b-0c75368df724","ios":"levelo://app?vid=d12559b7-bb60-445a-943b-0c75368df724"},"vehicle_type_id":"4","last_reported":1747739360,"current_range_meters":24000,"station_id":"ce4bhp92rcd13ifvqhbg","pricing_plan_id":"cebpf4jnsgd1na2vs0mg"},{"bike_id":"ab07a680-cf1f-405a-9ce9-ffa74fd973fc","system_id":"levelo_inurba_marseille","lat":43.325445,"lon":5.41433,"is_reserved":false,"is_disabled":false,"rental_uris":{"android":"levelo://app?vid=ab07a680-cf1f-405a-9ce9-ffa74fd973fc","ios":"levelo://app?vid=ab07a680-cf1f-405a-9ce9-ffa74fd973fc"},"vehicle_type_id":"4","last_reported":1747739360,"current_range_meters":24000,"station_id":"ce4bhq12rcd13ifvqhhg","pricing_plan_id":"cebpf4jnsgd1na2vs0mg"},{"bike_id":"e7732b4e-c657-419b-a05d-d8ef89fcac35","system_id":"levelo_inurba_marseille","lat":43.33781,"lon":5.37416,"is_reserved":false,"is_disabled":false,"rental_uris":{"android":"levelo://app?vid=e7732b4e-c657-419b-a05d-d8ef89fcac35","ios":"levelo://app?vid=e7732b4e-c657-419b-a05d-d8ef89fcac35"},"vehicle_type_id":"4","last_reported":1747739360,"current_range_meters":24400,"station_id":"","pricing_plan_id":"cebpf4jnsgd1na2vs0mg"},{"bike_id":"61bbb369-0ca5-4314-a651-c5499e67302b","system_id":"levelo_inurba_marseille","lat":43.30451,"lon":5.37913,"is_reserved":false,"is_disabled":false,"rental_uris":{"android":"levelo://app?vid=61bbb369-0ca5-4314-a651-c5499e67302b","ios":"levelo://app?vid=61bbb369-0ca5-4314-a651-c5499e67302b"},"vehicle_type_id":"4","last_reported":1747739360,"current_range_meters":24400,"station_id":"ce4bgup2rcd13ifvqcn0","pricing_plan_id":"cebpf4jnsgd1na2vs0mg"},{"bike_id":"1ef3dc1d-b20e-46a2-b5dc-591013bd9ae3","system_id":"levelo_inurba_marseille","lat":43.28554,"lon":5.39488,"is_reserved":false,"is_disabled":false,"rental_uris":{"android":"levelo://app?vid=1ef3dc1d-b20e-46a2-b5dc-591013bd9ae3","ios":"levelo://app?vid=1ef3dc1d-b20e-46a2-b5dc-591013bd9ae3"},"vehicle_type_id":"4","last_reported":1747739360,"current_range_meters":24400,"station_id":"ce4bh292rcd13ifvqdg0","pricing_plan_id":"cebpf4jnsgd1na2vs0mg"},{"bike_id":"f8909dca-ad09-4275-b032-aa5d0cfa6121","system_id":"levelo_inurba_marseille","lat":43.28274,"lon":5.35064,"is_reserved":false,"is_disabled":false,"rental_uris":{"android":"levelo://app?vid=f8909dca-ad09-4275-b032-aa5d0cfa6121","ios":"levelo://app?vid=f8909dca-ad09-4275-b032-aa5d0cfa6121"},"vehicle_type_id":"4","last_reported":1747739360,"current_range_meters":24400,"station_id":"ce4bhbp2rcd13ifvqerg","pricing_plan_id":"cebpf4jnsgd1na2vs0mg"},{"bike_id":"0db4e430-24a6-4649-8557-4aff33358be4","system_id":"levelo_inurba_marseille","lat":43.26566,"lon":5.39017,"is_reserved":false,"is_disabled":false,"rental_uris":{"android":"levelo://app?vid=0db4e430-24a6-4649-8557-4aff33358be4","ios":"levelo://app?vid=0db4e430-24a6-4649-8557-4aff33358be4"},"vehicle_type_id":"4","last_reported":1747739360,"current_range_meters":24400,"station_id":"ce4bhe12rcd13ifvqf30","pricing_plan_id":"cebpf4jnsgd1na2vs0mg"},{"bike_id":"69c71e19-284f-4b0f-b944-28b6abbb1e94","system_id":"levelo_inurba_marseille","lat":43.25834,"lon":5.39443,"is_reserved":false,"is_disabled":false,"rental_uris":{"android":"levelo://app?vid=69c71e19-284f-4b0f-b944-28b6abbb1e94","ios":"levelo://app?vid=69c71e19-284f-4b0f-b944-28b6abbb1e94"},"vehicle_type_id":"4","last_reported":1747739360,"current_range_meters":24400,"station_id":"ce4bhip2rcd13ifvqft0","pricing_plan_id":"cebpf4jnsgd1na2vs0mg"},{"bike_id":"20f515fb-61c9-4421-ad2b-c8a13f98b87e","system_id":"levelo_inurba_marseille","lat":43.26214,"lon":5.40438,"is_reserved":false,"is_disabled":false,"rental_uris":{"android":"levelo://app?vid=20f515fb-61c9-4421-ad2b-c8a13f98b87e","ios":"levelo://app?vid=20f515fb-61c9-4421-ad2b-c8a13f98b87e"},"vehicle_type_id":"4","last_reported":1747739360,"current_range_meters":24400,"station_id":"ce4bhmh2rcd13ifvqgmg","pricing_plan_id":"cebpf4jnsgd1na2vs0mg"},{"bike_id":"bf72e3e6-b56b-446d-ac76-370b17e8fff1","system_id":"levelo_inurba_marseille","lat":43.305334,"lon":5.365186,"is_reserved":false,"is_disabled":false,"rental_uris":{"android":"levelo://app?vid=bf72e3e6-b56b-446d-ac76-370b17e8fff1","ios":"levelo://app?vid=bf72e3e6-b56b-446d-ac76-370b17e8fff1"},"vehicle_type_id":"4","last_reported":1747739360,"current_range_meters":24800,"station_id":"ce4bgs12rcd13ifvqcag","pricing_plan_id":"cebpf4jnsgd1na2vs0mg"},{"bike_id":"4a2a4c15-5204-4b06-8b91-34eee62c81af","system_id":"levelo_inurba_marseille","lat":43.31488,"lon":5.37309,"is_reserved":false,"is_disabled":false,"rental_uris":{"android":"levelo://app?vid=4a2a4c15-5204-4b06-8b91-34eee62c81af","ios":"levelo://app?vid=4a2a4c15-5204-4b06-8b91-34eee62c81af"},"vehicle_type_id":"4","last_reported":1747739360,"current_range_meters":24800,"station_id":"ce4bgt12rcd13ifvqcd0","pricing_plan_id":"cebpf4jnsgd1na2vs0mg"},{"bike_id":"00416f7f-dd49-4aaf-822c-acc11283a8b7","system_id":"levelo_inurba_marseille","lat":43.26215,"lon":5.40466,"is_reserved":false,"is_disabled":false,"rental_uris":{"android":"levelo://app?vid=00416f7f-dd49-4aaf-822c-acc11283a8b7","ios":"levelo://app?vid=00416f7f-dd49-4aaf-822c-acc11283a8b7"},"vehicle_type_id":"4","last_reported":1747739360,"current_range_meters":24800,"station_id":"ce4bhmh2rcd13ifvqgmg","pricing_plan_id":"cebpf4jnsgd1na2vs0mg"},{"bike_id":"e4d02d3b-dbd1-482e-b691-b4055cbf8c0e","system_id":"levelo_inurba_marseille","lat":43.27824,"lon":5.4068,"is_reserved":false,"is_disabled":false,"rental_uris":{"android":"levelo://app?vid=e4d02d3b-dbd1-482e-b691-b4055cbf8c0e","ios":"levelo://app?vid=e4d02d3b-dbd1-482e-b691-b4055cbf8c0e"},"vehicle_type_id":"4","last_reported":1747739360,"current_range_meters":24800,"station_id":"ce4bhnh2rcd13ifvqgtg","pricing_plan_id":"cebpf4jnsgd1na2vs0mg"},{"bike_id":"375a1889-a82a-4e34-bcc4-cb1f99405608","system_id":"levelo_inurba_marseille","lat":43.32121,"lon":5.36756,"is_reserved":false,"is_disabled":false,"rental_uris":{"android":"levelo://app?vid=375a1889-a82a-4e34-bcc4-cb1f99405608","ios":"levelo://app?vid=375a1889-a82a-4e34-bcc4-cb1f99405608"},"vehicle_type_id":"4","last_reported":1747739360,"current_range_meters":24800,"station_id":"ce4bhrh2rcd13ifvqhug","pricing_plan_id":"cebpf4jnsgd1na2vs0mg"},{"bike_id":"4ece7580-64b6-4527-b96b-80d24d16a117","system_id":"levelo_inurba_marseille","lat":43.31238,"lon":5.36881,"is_reserved":false,"is_disabled":false,"rental_uris":{"android":"levelo://app?vid=4ece7580-64b6-4527-b96b-80d24d16a117","ios":"levelo://app?vid=4ece7580-64b6-4527-b96b-80d24d16a117"},"vehicle_type_id":"4","last_reported":1747739360,"current_range_meters":25200,"station_id":"ce4bgl92rcd13ifvqbq0","pricing_plan_id":"cebpf4jnsgd1na2vs0mg"},{"bike_id":"a6d39bb6-dcb3-4d54-a2b3-cc4719d85d09","system_id":"levelo_inurba_marseille","lat":43.30538,"lon":5.36548,"is_reserved":false,"is_disabled":false,"rental_uris":{"android":"levelo://app?vid=a6d39bb6-dcb3-4d54-a2b3-cc4719d85d09","ios":"levelo://app?vid=a6d39bb6-dcb3-4d54-a2b3-cc4719d85d09"},"vehicle_type_id":"4","last_reported":1747739360,"current_range_meters":25200,"station_id":"ce4bgs12rcd13ifvqcag","pricing_plan_id":"cebpf4jnsgd1na2vs0mg"},{"bike_id":"e1ef0e3f-cb5a-4a79-b12d-1ad7cfdca158","system_id":"levelo_inurba_marseille","lat":43.30481,"lon":5.37907,"is_reserved":false,"is_disabled":false,"rental_uris":{"android":"levelo://app?vid=e1ef0e3f-cb5a-4a79-b12d-1ad7cfdca158","ios":"levelo://app?vid=e1ef0e3f-cb5a-4a79-b12d-1ad7cfdca158"},"vehicle_type_id":"4","last_reported":1747739360,"current_range_meters":25200,"station_id":"ce4bgup2rcd13ifvqcn0","pricing_plan_id":"cebpf4jnsgd1na2vs0mg"},{"bike_id":"fae60a31-1dac-487e-871c-368bdfa43efe","system_id":"levelo_inurba_marseille","lat":43.29439,"lon":5.39738,"is_reserved":false,"is_disabled":false,"rental_uris":{"android":"levelo://app?vid=fae60a31-1dac-487e-871c-368bdfa43efe","ios":"levelo://app?vid=fae60a31-1dac-487e-871c-368bdfa43efe"},"vehicle_type_id":"4","last_reported":1747739360,"current_range_meters":25200,"station_id":"ce4bh3h2rcd13ifvqdo0","pricing_plan_id":"cebpf4jnsgd1na2vs0mg"},{"bike_id":"d9ddc1a4-e0bc-4360-896d-257b1fd128f4","system_id":"levelo_inurba_marseille","lat":43.2466,"lon":5.38161,"is_reserved":false,"is_disabled":false,"rental_uris":{"android":"levelo://app?vid=d9ddc1a4-e0bc-4360-896d-257b1fd128f4","ios":"levelo://app?vid=d9ddc1a4-e0bc-4360-896d-257b1fd128f4"},"vehicle_type_id":"4","last_reported":1747739360,"current_range_meters":25200,"station_id":"ce4bhih2rcd13ifvqfr0","pricing_plan_id":"cebpf4jnsgd1na2vs0mg"},{"bike_id":"26f9c1d6-cfcf-446b-8efd-9de82752f017","system_id":"levelo_inurba_marseille","lat":43.25925,"lon":5.40933,"is_reserved":false,"is_disabled":false,"rental_uris":{"android":"levelo://app?vid=26f9c1d6-cfcf-446b-8efd-9de82752f017","ios":"levelo://app?vid=26f9c1d6-cfcf-446b-8efd-9de82752f017"},"vehicle_type_id":"4","last_reported":1747739360,"current_range_meters":25200,"station_id":"ce4bhm92rcd13ifvqglg","pricing_plan_id":"cebpf4jnsgd1na2vs0mg"},{"bike_id":"8ff1229b-6b2c-40ca-b971-549aac98bcde","system_id":"levelo_inurba_marseille","lat":43.32112,"lon":5.36763,"is_reserved":false,"is_disabled":false,"rental_uris":{"android":"levelo://app?vid=8ff1229b-6b2c-40ca-b971-549aac98bcde","ios":"levelo://app?vid=8ff1229b-6b2c-40ca-b971-549aac98bcde"},"vehicle_type_id":"4","last_reported":1747739360,"current_range_meters":25200,"station_id":"ce4bhrh2rcd13ifvqhug","pricing_plan_id":"cebpf4jnsgd1na2vs0mg"},{"bike_id":"1f1a9ece-8d69-478f-83eb-37838168f9ad","system_id":"levelo_inurba_marseille","lat":43.32387,"lon":5.36755,"is_reserved":false,"is_disabled":false,"rental_uris":{"android":"levelo://app?vid=1f1a9ece-8d69-478f-83eb-37838168f9ad","ios":"levelo://app?vid=1f1a9ece-8d69-478f-83eb-37838168f9ad"},"vehicle_type_id":"4","last_reported":1747739360,"current_range_meters":25200,"station_id":"ce4bhsh2rcd13ifvqi2g","pricing_plan_id":"cebpf4jnsgd1na2vs0mg"},{"bike_id":"101149da-51be-41e1-95a0-bfc17b6d2c75","system_id":"levelo_inurba_marseille","lat":43.2978,"lon":5.39331,"is_reserved":false,"is_disabled":false,"rental_uris":{"android":"levelo://app?vid=101149da-51be-41e1-95a0-bfc17b6d2c75","ios":"levelo://app?vid=101149da-51be-41e1-95a0-bfc17b6d2c75"},"vehicle_type_id":"4","last_reported":1747739360,"current_range_meters":25200,"station_id":"chh1huq6cuj3fo74tm60","pricing_plan_id":"cebpf4jnsgd1na2vs0mg"},{"bike_id":"32ed920a-76a6-47ec-b9db-d66be18bd10d","system_id":"levelo_inurba_marseille","lat":43.2823,"lon":5.39082,"is_reserved":false,"is_disabled":false,"rental_uris":{"android":"levelo://app?vid=32ed920a-76a6-47ec-b9db-d66be18bd10d","ios":"levelo://app?vid=32ed920a-76a6-47ec-b9db-d66be18bd10d"},"vehicle_type_id":"4","last_reported":1747739360,"current_range_meters":25600,"station_id":"","pricing_plan_id":"cebpf4jnsgd1na2vs0mg"},{"bike_id":"dfb686ba-f4e8-47d3-8d46-a4e8cf266e8c","system_id":"levelo_inurba_marseille","lat":43.31387,"lon":5.38503,"is_reserved":false,"is_disabled":false,"rental_uris":{"android":"levelo://app?vid=dfb686ba-f4e8-47d3-8d46-a4e8cf266e8c","ios":"levelo://app?vid=dfb686ba-f4e8-47d3-8d46-a4e8cf266e8c"},"vehicle_type_id":"4","last_reported":1747739360,"current_range_meters":25600,"station_id":"ce4bgt92rcd13ifvqcf0","pricing_plan_id":"cebpf4jnsgd1na2vs0mg"},{"bike_id":"5f810321-4dcf-40f5-967b-c94e43aac83f","system_id":"levelo_inurba_marseille","lat":43.30467,"lon":5.37906,"is_reserved":false,"is_disabled":false,"rental_uris":{"android":"levelo://app?vid=5f810321-4dcf-40f5-967b-c94e43aac83f","ios":"levelo://app?vid=5f810321-4dcf-40f5-967b-c94e43aac83f"},"vehicle_type_id":"4","last_reported":1747739360,"current_range_meters":25600,"station_id":"ce4bgup2rcd13ifvqcn0","pricing_plan_id":"cebpf4jnsgd1na2vs0mg"},{"bike_id":"cb170f0c-1ea2-454f-831d-76bb21b7b6c9","system_id":"levelo_inurba_marseille","lat":43.29438,"lon":5.39742,"is_reserved":false,"is_disabled":false,"rental_uris":{"android":"levelo://app?vid=cb170f0c-1ea2-454f-831d-76bb21b7b6c9","ios":"levelo://app?vid=cb170f0c-1ea2-454f-831d-76bb21b7b6c9"},"vehicle_type_id":"4","last_reported":1747739360,"current_range_meters":25600,"station_id":"ce4bh3h2rcd13ifvqdo0","pricing_plan_id":"cebpf4jnsgd1na2vs0mg"},{"bike_id":"33f0a237-7c06-4a19-a062-54034d3a1c25","system_id":"levelo_inurba_marseille","lat":43.269637,"lon":5.386323,"is_reserved":false,"is_disabled":false,"rental_uris":{"android":"levelo://app?vid=33f0a237-7c06-4a19-a062-54034d3a1c25","ios":"levelo://app?vid=33f0a237-7c06-4a19-a062-54034d3a1c25"},"vehicle_type_id":"4","last_reported":1747739360,"current_range_meters":25600,"station_id":"ce4bhh92rcd13ifvqfh0","pricing_plan_id":"cebpf4jnsgd1na2vs0mg"},{"bike_id":"8244348f-59ca-4f72-a0e1-79f1a1091d82","system_id":"levelo_inurba_marseille","lat":43.28702,"lon":5.39985,"is_reserved":false,"is_disabled":false,"rental_uris":{"android":"levelo://app?vid=8244348f-59ca-4f72-a0e1-79f1a1091d82","ios":"levelo://app?vid=8244348f-59ca-4f72-a0e1-79f1a1091d82"},"vehicle_type_id":"4","last_reported":1747739360,"current_range_meters":25600,"station_id":"ce4bho92rcd13ifvqh3g","pricing_plan_id":"cebpf4jnsgd1na2vs0mg"},{"bike_id":"41fa62e9-1dd1-46b1-ad31-3a55f2603f76","system_id":"levelo_inurba_marseille","lat":43.33134,"lon":5.41403,"is_reserved":false,"is_disabled":false,"rental_uris":{"android":"levelo://app?vid=41fa62e9-1dd1-46b1-ad31-3a55f2603f76","ios":"levelo://app?vid=41fa62e9-1dd1-46b1-ad31-3a55f2603f76"},"vehicle_type_id":"4","last_reported":1747739360,"current_range_meters":26000,"station_id":"","pricing_plan_id":"cebpf4jnsgd1na2vs0mg"},{"bike_id":"f8d27781-36ea-4f89-8404-1a7409b681fe","system_id":"levelo_inurba_marseille","lat":43.29902,"lon":5.3747,"is_reserved":false,"is_disabled":false,"rental_uris":{"android":"levelo://app?vid=f8d27781-36ea-4f89-8404-1a7409b681fe","ios":"levelo://app?vid=f8d27781-36ea-4f89-8404-1a7409b681fe"},"vehicle_type_id":"4","last_reported":1747739360,"current_range_meters":26000,"station_id":"ce4bgjh2rcd13ifvqbg0","pricing_plan_id":"cebpf4jnsgd1na2vs0mg"},{"bike_id":"5b6fc566-17a6-446a-9920-3ed95644407b","system_id":"levelo_inurba_marseille","lat":43.30799,"lon":5.38152,"is_reserved":false,"is_disabled":false,"rental_uris":{"android":"levelo://app?vid=5b6fc566-17a6-446a-9920-3ed95644407b","ios":"levelo://app?vid=5b6fc566-17a6-446a-9920-3ed95644407b"},"vehicle_type_id":"4","last_reported":1747739360,"current_range_meters":26000,"station_id":"ce4bgt12rcd13ifvqce0","pricing_plan_id":"cebpf4jnsgd1na2vs0mg"},{"bike_id":"e5f1c9c5-d50f-4a24-9df6-626011f6a238","system_id":"levelo_inurba_marseille","lat":43.28699,"lon":5.37386,"is_reserved":false,"is_disabled":false,"rental_uris":{"android":"levelo://app?vid=e5f1c9c5-d50f-4a24-9df6-626011f6a238","ios":"levelo://app?vid=e5f1c9c5-d50f-4a24-9df6-626011f6a238"},"vehicle_type_id":"4","last_reported":1747739360,"current_range_meters":26000,"station_id":"ce4bh3p2rcd13ifvqdq0","pricing_plan_id":"cebpf4jnsgd1na2vs0mg"},{"bike_id":"b2793d83-bf28-4a22-990b-969641906258","system_id":"levelo_inurba_marseille","lat":43.26949,"lon":5.38637,"is_reserved":false,"is_disabled":false,"rental_uris":{"android":"levelo://app?vid=b2793d83-bf28-4a22-990b-969641906258","ios":"levelo://app?vid=b2793d83-bf28-4a22-990b-969641906258"},