{"last_updated":1721408855,"ttl":30,"version":"2.2","data":{"bikes":[{"bike_id":"d1d81e54-fed9-443c-944a-6820c8a62e66","system_id":"levelo_inurba_marseille","lat":43.31251,"lon":5.36793,"is_reserved":false,"is_disabled":false,"rental_uris":{"android":"levelo://app?vid=d1d81e54-fed9-443c-944a-6820c8a62e66","ios":"levelo://app?vid=d1d81e54-fed9-443c-944a-6820c8a62e66"},"vehicle_type_id":"4","last_reported":1721408855,"current_range_meters":4000,"station_id":"","pricing_plan_id":"cebpf4jnsgd1na2vs0mg"},{"bike_id":"c4d441aa-eec2-4824-9f06-fde1c220e0f8","system_id":"levelo_inurba_marseille","lat":43.31169,"lon":5.36923,"is_reserved":false,"is_disabled":false,"rental_uris":{"android":"levelo://app?vid=c4d441aa-eec2-4824-9f06-fde1c220e0f8","ios":"levelo://app?vid=c4d441aa-eec2-4824-9f06-fde1c220e0f8"},"vehicle_type_id":"4","last_reported":1721408855,"current_range_meters":0,"station_id":"","pricing_plan_id":"cebpf4jnsgd1na2vs0mg"},{"bike_id":"05f07ccb-8582-4f95-8459-1f17a1d31808","system_id":"levelo_inurba_marseille","lat":43.309076,"lon":5.368465,"is_reserved":false,"is_disabled":false,"rental_uris":{"android":"levelo://app?vid=05f07ccb-8582-4f95-8459-1f17a1d31808","ios":"levelo://app?vid=05f07ccb-8582-4f95-8459-1f17a1d31808"},"vehicle_type_id":"4","last_reported":1721408855,"current_range_meters":0,"station_id":"ce4bgn92rcd13ifvqbvg","pricing_plan_id":"cebpf4jnsgd1na2vs0mg"},{"bike_id":"7df8dd4a-c865-4f29-b768-21740d0daaaa","system_id":"levelo_inurba_marseille","lat":43.314495,"lon":5.373782,"is_reserved":false,"is_disabled":false,"rental_uris":{"android":"levelo://app?vid=7df8dd4a-c865-4f29-b768-21740d0daaaa","ios":"levelo://app?vid=7df8dd4a-c865-4f29-b768-21740d0daaaa"},"vehicle_type_id":"4","last_reported":1721408855,"current_range_meters":27200,"station_id":"","pricing_plan_id":"cebpf4jnsgd1na2vs0mg"},{"bike_id":"4f843a89-c095-43ad-810f-70f65d0849d5","system_id":"levelo_inurba_marseille","lat":43.31847,"lon":5.36264,"is_reserved":false,"is_disabled":false,"rental_uris":{"android":"levelo://app?vid=4f843a89-c095-43ad-810f-70f65d0849d5","ios":"levelo://app?vid=4f843a89-c095-43ad-810f-70f65d0849d5"},"vehicle_type_id":"4","last_reported":1721408855,"current_range_meters":7600,"station_id":"","pricing_plan_id":"cebpf4jnsgd1na2vs0mg"},{"bike_id":"22f22bab-7d33-48ff-9aef-57dee8db7f43","system_id":"levelo_inurba_marseille","lat":43.305712,"lon":5.365641,"is_reserved":false,"is_disabled":false,"rental_uris":{"android":"levelo://app?vid=22f22bab-7d33-48ff-9aef-57dee8db7f43","ios":"levelo://app?vid=22f22bab-7d33-48ff-9aef-57dee8db7f43"},"vehicle_type_id":"4","last_reported":1721408855,"current_range_meters":12800,"station_id":"ce4bgs12rcd13ifvqcag","pricing_plan_id":"cebpf4jnsgd1na2vs0mg"},{"bike_id":"1698c211-5c12-4e07-a6b1-c48954471a52","system_id":"levelo_inurba_marseille","lat":43.305714,"lon":5.365633,"is_reserved":false,"is_disabled":false,"rental_uris":{"android":"levelo://app?vid=1698c211-5c12-4e07-a6b1-c48954471a52","ios":"levelo://app?vid=1698c211-5c12-4e07-a6b1-c48954471a52"},"vehicle_type_id":"4","last_reported":1721408855,"current_range_meters":26400,"station_id":"ce4bgs12rcd13ifvqcag","pricing_plan_id":"cebpf4jnsgd1na2vs0mg"},{"bike_id":"70465c97-b6ce-4cce-97b8-8a7b5d6bd44e","system_id":"levelo_inurba_marseille","lat":43.3053,"lon":5.36652,"is_reserved":false,"is_disabled":false,"rental_uris":{"android":"levelo://app?vid=70465c97-b6ce-4cce-97b8-8a7b5d6bd44e","ios":"levelo://app?vid=70465c97-b6ce-4cce-97b8-8a7b5d6bd44e"},"vehicle_type_id":"4","last_reported":1721408855,"current_range_meters":1200,"station_id":"","pricing_plan_id":"cebpf4jnsgd1na2vs0mg"},{"bike_id":"41a094fc-6757-424c-ad27-81616df81d33","system_id":"levelo_inurba_marseille","lat":43.305989,"lon":5.37225,"is_reserved":false,"is_disabled":false,"rental_uris":{"android":"levelo://app?vid=41a094fc-6757-424c-ad27-81616df81d33","ios":"levelo://app?vid=41a094fc-6757-424c-ad27-81616df81d33"},"vehicle_type_id":"4","last_reported":1721408855,"current_range_meters":20800,"station_id":"ce4bgqh2rcd13ifvqc4g","pricing_plan_id":"cebpf4jnsgd1na2vs0mg"},{"bike_id":"5b11a98d-be1c-4557-a878-edd2f6009ddc","system_id":"levelo_inurba_marseille","lat":43.307945,"lon":5.376487,"is_reserved":false,"is_disabled":false,"rental_uris":{"android":"levelo://app?vid=5b11a98d-be1c-4557-a878-edd2f6009ddc","ios":"levelo://app?vid=5b11a98d-be1c-4557-a878-edd2f6009ddc"},"vehicle_type_id":"4","last_reported":1721408855,"current_range_meters":2800,"station_id":"ce4bgv92rcd13ifvqcq0","pricing_plan_id":"cebpf4jnsgd1na2vs0mg"},{"bike_id":"1b5c9243-7e78-47a1-95bb-a8af431b81c3","system_id":"levelo_inurba_marseille","lat":43.303046,"lon":5.368981,"is_reserved":false,"is_disabled":false,"rental_uris":{"android":"levelo://app?vid=1b5c9243-7e78-47a1-95bb-a8af431b81c3","ios":"levelo://app?vid=1b5c9243-7e78-47a1-95bb-a8af431b81c3"},"vehicle_type_id":"4","last_reported":1721408855,"current_range_meters":0,"station_id":"ce4bgqh2rcd13ifvqc5g","pricing_plan_id":"cebpf4jnsgd1na2vs0mg"},{"bike_id":"76a061d0-1df0-43fe-9fb7-49f46b3824e1","system_id":"levelo_inurba_marseille","lat":43.303046,"lon":5.368981,"is_reserved":false,"is_disabled":false,"rental_uris":{"android":"levelo://app?vid=76a061d0-1df0-43fe-9fb7-49f46b3824e1","ios":"levelo://app?vid=76a061d0-1df0-43fe-9fb7-49f46b3824e1"},"vehicle_type_id":"4","last_reported":1721408855,"current_range_meters":0,"station_id":"ce4bgqh2rcd13ifvqc5g","pricing_plan_id":"cebpf4jnsgd1na2vs0mg"},{"bike_id":"fbec1e2f-c1c0-43d5-b5ce-5e90cf2aa4f3","system_id":"levelo_inurba_marseille","lat":43.315289,"lon":5.380349,"is_reserved":false,"is_disabled":false,"rental_uris":{"android":"levelo://app?vid=fbec1e2f-c1c0-43d5-b5ce-5e90cf2aa4f3","ios":"levelo://app?vid=fbec1e2f-c1c0-43d5-b5ce-5e90cf2aa4f3"},"vehicle_type_id":"4","last_reported":1721408855,"current_range_meters":6800,"station_id":"ce4bhsp2rcd13ifvqi50","pricing_plan_id":"cebpf4jnsgd1na2vs0mg"},{"bike_id":"85913dbb-4cc1-4967-a6d2-0a732edd11e2","system_id":"levelo_inurba_marseille","lat":43.301939,"lon":5.366286,"is_reserved":false,"is_disabled":false,"rental_uris":{"android":"levelo://app?vid=85913dbb-4cc1-4967-a6d2-0a732edd11e2","ios":"levelo://app?vid=85913dbb-4cc1-4967-a6d2-0a732edd11e2"},"vehicle_type_id":"4","last_reported":1721408855,"current_range_meters":0,"station_id":"ce4bgrh2rcd13ifvqc8g","pricing_plan_id":"cebpf4jnsgd1na2vs0mg"},{"bike_id":"aa9ca346-eacd-4e09-89c2-18f10efcead8","system_id":"levelo_inurba_marseille","lat":43.304606,"lon":5.379026,"is_reserved":false,"is_disabled":false,"rental_uris":{"android":"levelo://app?vid=aa9ca346-eacd-4e09-89c2-18f10efcead8","ios":"levelo://app?vid=aa9ca346-eacd-4e09-89c2-18f10efcead8"},"vehicle_type_id":"4","last_reported":1721408855,"current_range_meters":0,"station_id":"ce4bgup2rcd13ifvqcn0","pricing_plan_id":"cebpf4jnsgd1na2vs0mg"},{"bike_id":"b3458870-e998-4d5a-9b4d-f42f5ca5991f","system_id":"levelo_inurba_marseille","lat":43.304606,"lon":5.379026,"is_reserved":false,"is_disabled":false,"rental_uris":{"android":"levelo://app?vid=b3458870-e998-4d5a-9b4d-f42f5ca5991f","ios":"levelo://app?vid=b3458870-e998-4d5a-9b4d-f42f5ca5991f"},"vehicle_type_id":"4","last_reported":1721408855,"current_range_meters":0,"station_id":"ce4bgup2rcd13ifvqcn0","pricing_plan_id":"cebpf4jnsgd1na2vs0mg"},{"bike_id":"c7397470-e9f8-4781-8e6c-2b5a1b24c186","system_id":"levelo_inurba_marseille","lat":43.304606,"lon":5.379026,"is_reserved":false,"is_disabled":false,"rental_uris":{"android":"levelo://app?vid=c7397470-e9f8-4781-8e6c-2b5a1b24c186","ios":"levelo://app?vid=c7397470-e9f8-4781-8e6c-2b5a1b24c186"},"vehicle_type_id":"4","last_reported":1721408855,"current_range_meters":15600,"station_id":"ce4bgup2rcd13ifvqcn0","pricing_plan_id":"cebpf4jnsgd1na2vs0mg"},{"bike_id":"7300f5f5-41c7-4a61-bbdc-b550c07398ca","system_id":"levelo_inurba_marseille","lat":43.324771,"lon":5.36557,"is_reserved":false,"is_disabled":false,"rental_uris":{"android":"levelo://app?vid=7300f5f5-41c7-4a61-bbdc-b550c07398ca","ios":"levelo://app?vid=7300f5f5-41c7-4a61-bbdc-b550c07398ca"},"vehicle_type_id":"4","last_reported":1721408855,"current_range_meters":20400,"station_id":"ce4bhs12rcd13ifvqhvg","pricing_plan_id":"cebpf4jnsgd1na2vs0mg"},{"bike_id":"49c9174c-e04b-4e00-9848-b6d035396dd2","system_id":"levelo_inurba_marseille","lat":43.324771,"lon":5.36557,"is_reserved":false,"is_disabled":false,"rental_uris":{"android":"levelo://app?vid=49c9174c-e04b-4e00-9848-b6d035396dd2","ios":"levelo://app?vid=49c9174c-e04b-4e00-9848-b6d035396dd2"},"vehicle_type_id":"4","last_reported":1721408855,"current_range_meters":22000,"station_id":"ce4bhs12rcd13ifvqhvg","pricing_plan_id":"cebpf4jnsgd1na2vs0mg"},{"bike_id":"a355c726-fb69-4fd4-bba1-4e98caec148f","system_id":"levelo_inurba_marseille","lat":43.324771,"lon":5.36557,"is_reserved":false,"is_disabled":false,"rental_uris":{"android":"levelo://app?vid=a355c726-fb69-4fd4-bba1-4e98caec148f","ios":"levelo://app?vid=a355c726-fb69-4fd4-bba1-4e98caec148f"},"vehicle_type_id":"4","last_reported":1721408855,"current_range_meters":7200,"station_id":"ce4bhs12rcd13ifvqhvg","pricing_plan_id":"cebpf4jnsgd1na2vs0mg"},{"bike_id":"5e15dcab-a1c9-4912-9076-62d7c2dbe330","system_id":"levelo_inurba_marseille","lat":43.324771,"lon":5.36557,"is_reserved":false,"is_disabled":false,"rental_uris":{"android":"levelo://app?vid=5e15dcab-a1c9-4912-9076-62d7c2dbe330","ios":"levelo://app?vid=5e15dcab-a1c9-4912-9076-62d7c2dbe330"},"vehicle_type_id":"4","last_reported":1721408855,"current_range_meters":27200,"station_id":"ce4bhs12rcd13ifvqhvg","pricing_plan_id":"cebpf4jnsgd1na2vs0mg"},{"bike_id":"87d924df-b730-440f-98f4-5bc2ceb0ac24","system_id":"levelo_inurba_marseille","lat":43.32478,"lon":5.3657,"is_reserved":false,"is_disabled":false,"rental_uris":{"android":"levelo://app?vid=87d924df-b730-440f-98f4-5bc2ceb0ac24","ios":"levelo://app?vid=87d924df-b730-440f-98f4-5bc2ceb0ac24"},"vehicle_type_id":"4","last_reported":1721408855,"current_range_meters":22800,"station_id":"ce4bhs12rcd13ifvqhvg","pricing_plan_id":"cebpf4jnsgd1na2vs0mg"},{"bike_id":"7be3282a-b6f6-4e7b-a1b0-43769aad1701","system_id":"levelo_inurba_marseille","lat":43.324771,"lon":5.36557,"is_reserved":false,"is_disabled":false,"rental_uris":{"android":"levelo://app?vid=7be3282a-b6f6-4e7b-a1b0-43769aad1701","ios":"levelo://app?vid=7be3282a-b6f6-4e7b-a1b0-43769aad1701"},"vehicle_type_id":"4","last_reported":1721408855,"current_range_meters":9200,"station_id":"ce4bhs12rcd13ifvqhvg","pricing_plan_id":"cebpf4jnsgd1na2vs0mg"},{"bike_id":"843acb09-ec00-42a4-8f8a-3a11a4562824","system_id":"levelo_inurba_marseille","lat":43.324771,"lon":5.36557,"is_reserved":false,"is_disabled":false,"rental_uris":{"android":"levelo://app?vid=843acb09-ec00-42a4-8f8a-3a11a4562824","ios":"levelo://app?vid=843acb09-ec00-42a4-8f8a-3a11a4562824"},"vehicle_type_id":"4","last_reported":1721408855,"current_range_meters":31200,"station_id":"ce4bhs12rcd13ifvqhvg","pricing_plan_id":"cebpf4jnsgd1na2vs0mg"},{"bike_id":"646f785f-c490-46ef-839a-0e5b18a1ad44","system_id":"levelo_inurba_marseille","lat":43.324771,"lon":5.36557,"is_reserved":false,"is_disabled":false,"rental_uris":{"android":"levelo://app?vid=646f785f-c490-46ef-839a-0e5b18a1ad44","ios":"levelo://app?vid=646f785f-c490-46ef-839a-0e5b18a1ad44"},"vehicle_type_id":"4","last_reported":1721408855,"current_range_meters":6000,"station_id":"ce4bhs12rcd13ifvqhvg","pricing_plan_id":"cebpf4jnsgd1na2vs0mg"},{"bike_id":"8f962ede-c569-4563-8b57-1cf223c13657","system_id":"levelo_inurba_marseille","lat":43.324771,"lon":5.36557,"is_reserved":false,"is_disabled":false,"rental_uris":{"android":"levelo://app?vid=8f962ede-c569-4563-8b57-1cf223c13657","ios":"levelo://app?vid=8f962ede-c569-4563-8b57-1cf223c13657"},"vehicle_type_id":"4","last_reported":1721408855,"current_range_meters":15200,"station_id":"ce4bhs12rcd13ifvqhvg","pricing_plan_id":"cebpf4jnsgd1na2vs0mg"},{"bike_id":"2cc0e66a-a2fa-466f-8a05-5990f0e1d535","system_id":"levelo_inurba_marseille","lat":43.324771,"lon":5.36557,"is_reserved":false,"is_disabled":false,"rental_uris":{"android":"levelo://app?vid=2cc0e66a-a2fa-466f-8a05-5990f0e1d535","ios":"levelo://app?vid=2cc0e66a-a2fa-466f-8a05-5990f0e1d535"},"vehicle_type_id":"4","last_reported":1721408855,"current_range_meters":6000,"station_id":"ce4bhs12rcd13ifvqhvg","pricing_plan_id":"cebpf4jnsgd1na2vs0mg"},{"bike_id":"2baca4ef-0d69-4564-91f0-6aa88a9ace5b","system_id":"levelo_inurba_marseille","lat":43.324771,"lon":5.36557,"is_reserved":false,"is_disabled":false,"rental_uris":{"android":"levelo://app?vid=2baca4ef-0d69-4564-91f0-6aa88a9ace5b","ios":"levelo://app?vid=2baca4ef-0d69-4564-91f0-6aa88a9ace5b"},"vehicle_type_id":"4","last_reported":1721408855,"current_range_meters":15200,"station_id":"ce4bhs12rcd13ifvqhvg","pricing_plan_id":"cebpf4jnsgd1na2vs0mg"},{"bike_id":"e0425a99-5dbd-429a-b0bb-a2151061784b","system_id":"levelo_inurba_marseille","lat":43.30143,"lon":5.37413,"is_reserved":false,"is_disabled":false,"rental_uris":{"android":"levelo://app?vid=e0425a99-5dbd-429a-b0bb-a2151061784b","ios":"levelo://app?vid=e0425a99-5dbd-429a-b0bb-a2151061784b"},"vehicle_type_id":"4","last_reported":1721408855,"current_range_meters":27200,"station_id":"ce4bgs92rcd13ifvqcc0","pricing_plan_id":"cebpf4jnsgd1na2vs0mg"},{"bike_id":"42bbeec2-55d8-4186-8932-6468a5c79af6","system_id":"levelo_inurba_marseille","lat":43.302784,"lon":5.377158,"is_reserved":false,"is_disabled":false,"rental_uris":{"android":"levelo://app?vid=42bbeec2-55d8-4186-8932-6468a5c79af6","ios":"levelo://app?vid=42bbeec2-55d8-4186-8932-6468a5c79af6"},"vehicle_type_id":"4","last_reported":1721408855,"current_range_meters":800,"station_id":"ce4bguh2rcd13ifvqcj0","pricing_plan_id":"cebpf4jnsgd1na2vs0mg"},{"bike_id":"3ce919f2-2df5-4f56-83b9-a2c0725df5a1","system_id":"levelo_inurba_marseille","lat":43.3057,"lon":5.38142,"is_reserved":false,"is_disabled":false,"rental_uris":{"android":"levelo://app?vid=3ce919f2-2df5-4f56-83b9-a2c0725df5a1","ios":"levelo://app?vid=3ce919f2-2df5-4f56-83b9-a2c0725df5a1"},"vehicle_type_id":"4","last_reported":1721408855,"current_range_meters":18800,"station_id":"","pricing_plan_id":"cebpf4jnsgd1na2vs0mg"},{"bike_id":"0c542167-59a1-4de5-9e79-54119b9f5a77","system_id":"levelo_inurba_marseille","lat":43.319935,"lon":5.381699,"is_reserved":false,"is_disabled":false,"rental_uris":{"android":"levelo://app?vid=0c542167-59a1-4de5-9e79-54119b9f5a77","ios":"levelo://app?vid=0c542167-59a1-4de5-9e79-54119b9f5a77"},"vehicle_type_id":"4","last_reported":1721408855,"current_range_meters":13600,"station_id":"ce4bhr12rcd13ifvqhpg","pricing_plan_id":"cebpf4jnsgd1na2vs0mg"},{"bike_id":"5fd14075-2cff-42d7-aafa-bcfe265bf5b7","system_id":"levelo_inurba_marseille","lat":43.299724,"lon":5.371829,"is_reserved":false,"is_disabled":false,"rental_uris":{"android":"levelo://app?vid=5fd14075-2cff-42d7-aafa-bcfe265bf5b7","ios":"levelo://app?vid=5fd14075-2cff-42d7-aafa-bcfe265bf5b7"},"vehicle_type_id":"4","last_reported":1721408855,"current_range_meters":30000,"station_id":"ce4bgr92rcd13ifvqc7g","pricing_plan_id":"cebpf4jnsgd1na2vs0mg"},{"bike_id":"03653056-f781-4ef8-ad4e-7770b1c6c17f","system_id":"levelo_inurba_marseille","lat":43.298433,"lon":5.362774,"is_reserved":false,"is_disabled":false,"rental_uris":{"android":"levelo://app?vid=03653056-f781-4ef8-ad4e-7770b1c6c17f","ios":"levelo://app?vid=03653056-f781-4ef8-ad4e-7770b1c6c17f"},"vehicle_type_id":"4","last_reported":1721408855,"current_range_meters":26800,"station_id":"ce4bgpp2rcd13ifvqc3g","pricing_plan_id":"cebpf4jnsgd1na2vs0mg"},{"bike_id":"c99c20ca-ebbf-4e94-b69c-57ac5775aca3","system_id":"levelo_inurba_marseille","lat":43.305364,"lon":5.384119,"is_reserved":false,"is_disabled":false,"rental_uris":{"android":"levelo://app?vid=c99c20ca-ebbf-4e94-b69c-57ac5775aca3","ios":"levelo://app?vid=c99c20ca-ebbf-4e94-b69c-57ac5775aca3"},"vehicle_type_id":"4","last_reported":1721408855,"current_range_meters":0,"station_id":"ce4bgg92rcd13ifvqb30","pricing_plan_id":"cebpf4jnsgd1na2vs0mg"},{"bike_id":"463701ec-eaa8-41f9-b9e2-4815cb2fff43","system_id":"levelo_inurba_marseille","lat":43.299243,"lon":5.374807,"is_reserved":false,"is_disabled":false,"rental_uris":{"android":"levelo://app?vid=463701ec-eaa8-41f9-b9e2-4815cb2fff43","ios":"levelo://app?vid=463701ec-eaa8-41f9-b9e2-4815cb2fff43"},"vehicle_type_id":"4","last_reported":1721408855,"current_range_meters":2000,"station_id":"ce4bgjh2rcd13ifvqbg0","pricing_plan_id":"cebpf4jnsgd1na2vs0mg"},{"bike_id":"f45e669a-cc19-4a31-9a6f-90bcda7468bc","system_id":"levelo_inurba_marseille","lat":43.31173,"lon":5.38711,"is_reserved":false,"is_disabled":false,"rental_uris":{"android":"levelo://app?vid=f45e669a-cc19-4a31-9a6f-90bcda7468bc","ios":"levelo://app?vid=f45e669a-cc19-4a31-9a6f-90bcda7468bc"},"vehicle_type_id":"4","last_reported":1721408855,"current_range_meters":0,"station_id":"ce4bgv12rcd13ifvqcp0","pricing_plan_id":"cebpf4jnsgd1na2vs0mg"},{"bike_id":"3cd2d9e8-ede8-4e2c-853e-03b81bbd3e1c","system_id":"levelo_inurba_marseille","lat":43.311722,"lon":5.387247,"is_reserved":false,"is_disabled":false,"rental_uris":{"android":"levelo://app?vid=3cd2d9e8-ede8-4e2c-853e-03b81bbd3e1c","ios":"levelo://app?vid=3cd2d9e8-ede8-4e2c-853e-03b81bbd3e1c"},"vehicle_type_id":"4","last_reported":1721408855,"current_range_meters":19200,"station_id":"ce4bgv12rcd13ifvqcp0","pricing_plan_id":"cebpf4jnsgd1na2vs0mg"},{"bike_id":"2c84fbad-2736-4002-a3a0-db945b3b0e10","system_id":"levelo_inurba_marseille","lat":43.28573,"lon":5.394992,"is_reserved":false,"is_disabled":false,"rental_uris":{"android":"levelo://app?vid=2c84fbad-2736-4002-a3a0-db945b3b0e10","ios":"levelo://app?vid=2c84fbad-2736-4002-a3a0-db945b3b0e10"},"vehicle_type_id":"4","last_reported":1721408855,"current_range_meters":20800,"station_id":"ce4bh292rcd13ifvqdg0","pricing_plan_id":"cebpf4jnsgd1na2vs0mg"},{"bike_id":"a9629d6f-3f90-430d-9f88-78342679067b","system_id":"levelo_inurba_marseille","lat":43.322872,"lon":5.382756,"is_reserved":false,"is_disabled":false,"rental_uris":{"android":"levelo://app?vid=a9629d6f-3f90-430d-9f88-78342679067b","ios":"levelo://app?vid=a9629d6f-3f90-430d-9f88-78342679067b"},"vehicle_type_id":"4","last_reported":1721408855,"current_range_meters":23600,"station_id":"ce4bhr12rcd13ifvqhqg","pricing_plan_id":"cebpf4jnsgd1na2vs0mg"},{"bike_id":"f2a85c7c-29ad-4686-bf53-45069e733b5b","system_id":"levelo_inurba_marseille","lat":43.311722,"lon":5.387247,"is_reserved":false,"is_disabled":false,"rental_uris":{"android":"levelo://app?vid=f2a85c7c-29ad-4686-bf53-45069e733b5b","ios":"levelo://app?vid=f2a85c7c-29ad-4686-bf53-45069e733b5b"},"vehicle_type_id":"4","last_reported":1721408855,"current_range_meters":0,"station_id":"ce4bgv12rcd13ifvqcp0","pricing_plan_id":"cebpf4jnsgd1na2vs0mg"},{"bike_id":"91eade11-af16-41f5-a658-6ff3797d996d","system_id":"levelo_inurba_marseille","lat":43.29678,"lon":5.37293,"is_reserved":false,"is_disabled":false,"rental_uris":{"android":"levelo://app?vid=91eade11-af16-41f5-a658-6ff3797d996d","ios":"levelo://app?vid=91eade11-af16-41f5-a658-6ff3797d996d"},"vehicle_type_id":"4","last_reported":1721408855,"current_range_meters":15200,"station_id":"ce4bgk12rcd13ifvqbj0","pricing_plan_id":"cebpf4jnsgd1na2vs0mg"},{"bike_id":"f2aafacc-45d8-4013-8ade-e0d3cd65d0b2","system_id":"levelo_inurba_marseille","lat":43.296131,"lon":5.370791,"is_reserved":false,"is_disabled":false,"rental_uris":{"android":"levelo://app?vid=f2aafacc-45d8-4013-8ade-e0d3cd65d0b2","ios":"levelo://app?vid=f2aafacc-45d8-4013-8ade-e0d3cd65d0b2"},"vehicle_type_id":"4","last_reported":1721408855,"current_range_meters":0,"station_id":"ce4bgnh2rcd13ifvqc0g","pricing_plan_id":"cebpf4jnsgd1na2vs0mg"},{"bike_id":"1ec214d5-93ab-4490-9882-7b479d12653f","system_id":"levelo_inurba_marseille","lat":43.296129,"lon":5.370777,"is_reserved":false,"is_disabled":false,"rental_uris":{"android":"levelo://app?vid=1ec214d5-93ab-4490-9882-7b479d12653f","ios":"levelo://app?vid=1ec214d5-93ab-4490-9882-7b479d12653f"},"vehicle_type_id":"4","last_reported":1721408855,"current_range_meters":6000,"station_id":"ce4bgnh2rcd13ifvqc0g","pricing_plan_id":"cebpf4jnsgd1na2vs0mg"},{"bike_id":"e003bf9d-df73-46bf-bb79-a77231a6ce2a","system_id":"levelo_inurba_marseille","lat":43.296131,"lon":5.370791,"is_reserved":false,"is_disabled":false,"rental_uris":{"android":"levelo://app?vid=e003bf9d-df73-46bf-bb79-a77231a6ce2a","ios":"levelo://app?vid=e003bf9d-df73-46bf-bb79-a77231a6ce2a"},"vehicle_type_id":"4","last_reported":1721408855,"current_range_meters":15200,"station_id":"ce4bgnh2rcd13ifvqc0g","pricing_plan_id":"cebpf4jnsgd1na2vs0mg"},{"bike_id":"86010eb4-bb83-4c8d-a073-210ad735e39e","system_id":"levelo_inurba_marseille","lat":43.296131,"lon":5.370791,"is_reserved":false,"is_disabled":false,"rental_uris":{"android":"levelo://app?vid=86010eb4-bb83-4c8d-a073-210ad735e39e","ios":"levelo://app?vid=86010eb4-bb83-4c8d-a073-210ad735e39e"},"vehicle_type_id":"4","last_reported":1721408855,"current_range_meters":800,"station_id":"ce4bgnh2rcd13ifvqc0g","pricing_plan_id":"cebpf4jnsgd1na2vs0mg"},{"bike_id":"09903a34-2b24-47cd-8caf-4d57ceef6cf1","system_id":"levelo_inurba_marseille","lat":43.29573,"lon":5.367355,"is_reserved":false,"is_disabled":false,"rental_uris":{"android":"levelo://app?vid=09903a34-2b24-47cd-8caf-4d57ceef6cf1","ios":"levelo://app?vid=09903a34-2b24-47cd-8caf-4d57ceef6cf1"},"vehicle_type_id":"4","last_reported":1721408855,"current_range_meters":17200,"station_id":"ce4bgph2rcd13ifvqc2g","pricing_plan_id":"cebpf4jnsgd1na2vs0mg"},{"bike_id":"b3bd5dd8-9a6e-4b2d-9346-8b2258fb896d","system_id":"levelo_inurba_marseille","lat":43.29573,"lon":5.367355,"is_reserved":false,"is_disabled":false,"rental_uris":{"android":"levelo://app?vid=b3bd5dd8-9a6e-4b2d-9346-8b2258fb896d","ios":"levelo://app?vid=b3bd5dd8-9a6e-4b2d-9346-8b2258fb896d"},"vehicle_type_id":"4","last_reported":1721408855,"current_range_meters":8400,"station_id":"ce4bgph2rcd13ifvqc2g","pricing_plan_id":"cebpf4jnsgd1na2vs0mg"},{"bike_id":"597e43a0-68c4-4a35-833a-93d350c358fb","system_id":"levelo_inurba_marseille","lat":43.29573,"lon":5.367355,"is_reserved":false,"is_disabled":false,"rental_uris":{"android":"levelo://app?vid=597e43a0-68c4-4a35-833a-93d350c358fb","ios":"levelo://app?vid=597e43a0-68c4-4a35-833a-93d350c358fb"},"vehicle_type_id":"4","last_reported":1721408855,"current_range_meters":19200,"station_id":"ce4bgph2rcd13ifvqc2g","pricing_plan_id":"cebpf4jnsgd1na2vs0mg"},{"bike_id":"ae3f9d3f-3ce2-480f-b36e-91d0650ef46a","system_id":"levelo_inurba_marseille","lat":43.309589,"lon":5.390258,"is_reserved":false,"is_disabled":false,"rental_uris":{"android":"levelo://app?vid=ae3f9d3f-3ce2-480f-b36e-91d0650ef46a","ios":"levelo://app?vid=ae3f9d3f-3ce2-480f-b36e-91d0650ef46a"},"vehicle_type_id":"4","last_reported":1721408855,"current_range_meters":2400,"station_id":"ce4bgup2rcd13ifvqco0","pricing_plan_id":"cebpf4jnsgd1na2vs0mg"},{"bike_id":"3b7b8914-0231-4a8d-b57a-eb2829831339","system_id":"levelo_inurba_marseille","lat":43.309589,"lon":5.390258,"is_reserved":false,"is_disabled":false,"rental_uris":{"android":"levelo://app?vid=3b7b8914-0231-4a8d-b57a-eb2829831339","ios":"levelo://app?vid=3b7b8914-0231-4a8d-b57a-eb2829831339"},"vehicle_type_id":"4","last_reported":1721408855,"current_range_meters":6800,"station_id":"ce4bgup2rcd13ifvqco0","pricing_plan_id":"cebpf4jnsgd1na2vs0mg"},{"bike_id":"1242ce38-b40c-4982-8479-f470571b71a0","system_id":"levelo_inurba_marseille","lat":43.309589,"lon":5.390258,"is_reserved":false,"is_disabled":false,"rental_uris":{"android":"levelo://app?vid=1242ce38-b40c-4982-8479-f470571b71a0","ios":"levelo://app?vid=1242ce38-b40c-4982-8479-f470571b71a0"},"vehicle_type_id":"4","last_reported":1721408855,"current_range_meters":3200,"station_id":"ce4bgup2rcd13ifvqco0","pricing_plan_id":"cebpf4jnsgd1na2vs0mg"},{"bike_id":"fceade41-7754-4a2e-a9f5-28d21d240216","system_id":"levelo_inurba_marseille","lat":43.317557,"lon":5.390173,"is_reserved":false,"is_disabled":false,"rental_uris":{"android":"levelo://app?vid=fceade41-7754-4a2e-a9f5-28d21d240216","ios":"levelo://app?vid=fceade41-7754-4a2e-a9f5-28d21d240216"},"vehicle_type_id":"4","last_reported":1721408855,"current_range_meters":10000,"station_id":"ce4bhqp2rcd13ifvqhng","pricing_plan_id":"cebpf4jnsgd1na2vs0mg"},{"bike_id":"799b4541-ac41-4dbf-828d-38db214bc147","system_id":"levelo_inurba_marseille","lat":43.317557,"lon":5.390173,"is_reserved":false,"is_disabled":false,"rental_uris":{"android":"levelo://app?vid=799b4541-ac41-4dbf-828d-38db214bc147","ios":"levelo://app?vid=799b4541-ac41-4dbf-828d-38db214bc147"},"vehicle_type_id":"4","last_reported":1721408855,"current_range_meters":6800,"station_id":"ce4bhqp2rcd13ifvqhng","pricing_plan_id":"cebpf4jnsgd1na2vs0mg"},{"bike_id":"dbef88be-1855-42ca-ba86-7fc038895537","system_id":"levelo_inurba_marseille","lat":43.29809,"lon":5.38101,"is_reserved":false,"is_disabled":false,"rental_uris":{"android":"levelo://app?vid=dbef88be-1855-42ca-ba86-7fc038895537","ios":"levelo://app?vid=dbef88be-1855-42ca-ba86-7fc038895537"},"vehicle_type_id":"4","last_reported":1721408855,"current_range_meters":31600,"station_id":"ce4bgip2rcd13ifvqbb0","pricing_plan_id":"cebpf4jnsgd1na2vs0mg"},{"bike_id":"79401e89-ae76-4e49-9cc4-6691347c6967","system_id":"levelo_inurba_marseille","lat":43.29795,"lon":5.38099,"is_reserved":false,"is_disabled":false,"rental_uris":{"android":"levelo://app?vid=79401e89-ae76-4e49-9cc4-6691347c6967","ios":"levelo://app?vid=79401e89-ae76-4e49-9cc4-6691347c6967"},"vehicle_type_id":"4","last_reported":1721408855,"current_range_meters":22000,"station_id":"ce4bgip2rcd13ifvqbb0","pricing_plan_id":"cebpf4jnsgd1na2vs0mg"},{"bike_id":"8b0cbb8a-b0ae-4a06-a759-9efe38546447","system_id":"levelo_inurba_marseille","lat":43.29702,"lon":5.37896,"is_reserved":false,"is_disabled":false,"rental_uris":{"android":"levelo://app?vid=8b0cbb8a-b0ae-4a06-a759-9efe38546447","ios":"levelo://app?vid=8b0cbb8a-b0ae-4a06-a759-9efe38546447"},"vehicle_type_id":"4","last_reported":1721408855,"current_range_meters":19600,"station_id":"","pricing_plan_id":"cebpf4jnsgd1na2vs0mg"},{"bike_id":"44ee5bc8-5332-4461-b9da-f0eac4f9030b","system_id":"levelo_inurba_marseille","lat":43.295748,"lon":5.37522,"is_reserved":false,"is_disabled":false,"rental_uris":{"android":"levelo://app?vid=44ee5bc8-5332-4461-b9da-f0eac4f9030b","ios":"levelo://app?vid=44ee5bc8-5332-4461-b9da-f0eac4f9030b"},"vehicle_type_id":"4","last_reported":1721408855,"current_range_meters":0,"station_id":"ce4bgh92rcd13ifvqb50","pricing_plan_id":"cebpf4jnsgd1na2vs0mg"},{"bike_id":"e32d48c0-43d8-47c1-a1e1-dcb3c564bea7","system_id":"levelo_inurba_marseille","lat":43.296263,"lon":5.377094,"is_reserved":false,"is_disabled":false,"rental_uris":{"android":"levelo://app?vid=e32d48c0-43d8-47c1-a1e1-dcb3c564bea7","ios":"levelo://app?vid=e32d48c0-43d8-47c1-a1e1-dcb3c564bea7"},"vehicle_type_id":"4","last_reported":1721408855,"current_range_meters":5600,"station_id":"ce4bgi92rcd13ifvqb90","pricing_plan_id":"cebpf4jnsgd1na2vs0mg"},{"bike_id":"6393502f-2dd7-44ee-b20d-db50eaeb2465","system_id":"levelo_inurba_marseille","lat":43.303845,"lon":5.389205,"is_reserved":false,"is_disabled":false,"rental_uris":{"android":"levelo://app?vid=6393502f-2dd7-44ee-b20d-db50eaeb2465","ios":"levelo://app?vid=6393502f-2dd7-44ee-b20d-db50eaeb2465"},"vehicle_type_id":"4","last_reported":1721408855,"current_range_meters":4400,"station_id":"ce4bgk12rcd13ifvqbi0","pricing_plan_id":"cebpf4jnsgd1na2vs0mg"},{"bike_id":"18491e9b-089a-423d-92a6-2224fb4ac1cb","system_id":"levelo_inurba_marseille","lat":43.30473,"lon":5.39011,"is_reserved":false,"is_disabled":false,"rental_uris":{"android":"levelo://app?vid=18491e9b-089a-423d-92a6-2224fb4ac1cb","ios":"levelo://app?vid=18491e9b-089a-423d-92a6-2224fb4ac1cb"},"vehicle_type_id":"4","last_reported":1721408855,"current_range_meters":6800,"station_id":"","pricing_plan_id":"cebpf4jnsgd1na2vs0mg"},{"bike_id":"1f96ffd1-2552-4472-a9f1-6125882131ee","system_id":"levelo_inurba_marseille","lat":43.284219,"lon":5.3497,"is_reserved":false,"is_disabled":false,"rental_uris":{"android":"levelo://app?vid=1f96ffd1-2552-4472-a9f1-6125882131ee","ios":"levelo://app?vid=1f96ffd1-2552-4472-a9f1-6125882131ee"},"vehicle_type_id":"4","last_reported":1721408855,"current_range_meters":6800,"station_id":"ce4bhbh2rcd13ifvqepg","pricing_plan_id":"cebpf4jnsgd1na2vs0mg"},{"bike_id":"699930d7-5eb0-4e91-8a3e-775df911a2bc","system_id":"levelo_inurba_marseille","lat":43.301396,"lon":5.387812,"is_reserved":false,"is_disabled":false,"rental_uris":{"android":"levelo://app?vid=699930d7-5eb0-4e91-8a3e-775df911a2bc","ios":"levelo://app?vid=699930d7-5eb0-4e91-8a3e-775df911a2bc"},"vehicle_type_id":"4","last_reported":1721408855,"current_range_meters":11200,"station_id":"ce4bghh2rcd13ifvqb60","pricing_plan_id":"cebpf4jnsgd1na2vs0mg"},{"bike_id":"191b455c-aca1-4380-a5e1-2c64da616da0","system_id":"levelo_inurba_marseille","lat":43.301396,"lon":5.387812,"is_reserved":false,"is_disabled":false,"rental_uris":{"android":"levelo://app?vid=191b455c-aca1-4380-a5e1-2c64da616da0","ios":"levelo://app?vid=191b455c-aca1-4380-a5e1-2c64da616da0"},"vehicle_type_id":"4","last_reported":1721408855,"current_range_meters":31200,"station_id":"ce4bghh2rcd13ifvqb60","pricing_plan_id":"cebpf4jnsgd1na2vs0mg"},{"bike_id":"e9b4e90d-8d64-45e1-985e-aced2109a896","system_id":"levelo_inurba_marseille","lat":43.301396,"lon":5.387812,"is_reserved":false,"is_disabled":false,"rental_uris":{"android":"levelo://app?vid=e9b4e90d-8d64-45e1-985e-aced2109a896","ios":"levelo://app?vid=e9b4e90d-8d64-45e1-985e-aced2109a896"},"vehicle_type_id":"4","last_reported":1721408855,"current_range_meters":31200,"station_id":"ce4bghh2rcd13ifvqb60","pricing_plan_id":"cebpf4jnsgd1na2vs0mg"},{"bike_id":"7f6b25f1-4239-4087-a2ce-bcb438e6eb42","system_id":"levelo_inurba_marseille","lat":43.32367,"lon":5.388836,"is_reserved":false,"is_disabled":false,"rental_uris":{"android":"levelo://app?vid=7f6b25f1-4239-4087-a2ce-bcb438e6eb42","ios":"levelo://app?vid=7f6b25f1-4239-4087-a2ce-bcb438e6eb42"},"vehicle_type_id":"4","last_reported":1721408855,"current_range_meters":16800,"station_id":"ce4bhqp2rcd13ifvqhog","pricing_plan_id":"cebpf4jnsgd1na2vs0mg"},{"bike_id":"b157a1d9-b83a-4c27-b403-c691f7c315ff","system_id":"levelo_inurba_marseille","lat":43.32367,"lon":5.388836,"is_reserved":false,"is_disabled":false,"rental_uris":{"android":"levelo://app?vid=b157a1d9-b83a-4c27-b403-c691f7c315ff","ios":"levelo://app?vid=b157a1d9-b83a-4c27-b403-c691f7c315ff"},"vehicle_type_id":"4","last_reported":1721408855,"current_range_meters":18000,"station_id":"ce4bhqp2rcd13ifvqhog","pricing_plan_id":"cebpf4jnsgd1na2vs0mg"},{"bike_id":"9e172040-56d8-4cdf-9dd1-d085b96f58b2","system_id":"levelo_inurba_marseille","lat":43.29602,"lon":5.381084,"is_reserved":false,"is_disabled":false,"rental_uris":{"android":"levelo://app?vid=9e172040-56d8-4cdf-9dd1-d085b96f58b2","ios":"levelo://app?vid=9e172040-56d8-4cdf-9dd1-d085b96f58b2"},"vehicle_type_id":"4","last_reported":1721408855,"current_range_meters":14000,"station_id":"ce4bgl12rcd13ifvqbo0","pricing_plan_id":"cebpf4jnsgd1na2vs0mg"},{"bike_id":"06a50326-abbc-4f4e-8e43-a6a6128faba4","system_id":"levelo_inurba_marseille","lat":43.293259,"lon":5.371586,"is_reserved":false,"is_disabled":false,"rental_uris":{"android":"levelo://app?vid=06a50326-abbc-4f4e-8e43-a6a6128faba4","ios":"levelo://app?vid=06a50326-abbc-4f4e-8e43-a6a6128faba4"},"vehicle_type_id":"4","last_reported":1721408855,"current_range_meters":14400,"station_id":"ce4bgh92rcd13ifvqb40","pricing_plan_id":"cebpf4jnsgd1na2vs0mg"},{"bike_id":"a00bc0e0-05cc-4598-b4c6-99b9ed5559fc","system_id":"levelo_inurba_marseille","lat":43.293259,"lon":5.371586,"is_reserved":false,"is_disabled":false,"rental_uris":{"android":"levelo://app?vid=a00bc0e0-05cc-4598-b4c6-99b9ed5559fc","ios":"levelo://app?vid=a00bc0e0-05cc-4598-b4c6-99b9ed5559fc"},"vehicle_type_id":"4","last_reported":1721408855,"current_range_meters":5200,"station_id":"ce4bgh92rcd13ifvqb40","pricing_plan_id":"cebpf4jnsgd1na2vs0mg"},{"bike_id":"d6694537-632e-4c37-86ec-7820b7db83f0","system_id":"levelo_inurba_marseille","lat":43.293249,"lon":5.371578,"is_reserved":false,"is_disabled":false,"rental_uris":{"android":"levelo://app?vid=d6694537-632e-4c37-86ec-7820b7db83f0","ios":"levelo://app?vid=d6694537-632e-4c37-86ec-7820b7db83f0"},"vehicle_type_id":"4","last_reported":1721408855,"current_range_meters":4800,"station_id":"ce4bgh92rcd13ifvqb40","pricing_plan_id":"cebpf4jnsgd1na2vs0mg"},{"bike_id":"3a1b5f1b-c9d1-4d32-a503-087f1225d06b","system_id":"levelo_inurba_marseille","lat":43.293259,"lon":5.371586,"is_reserved":false,"is_disabled":false,"rental_uris":{"android":"levelo://app?vid=3a1b5f1b-c9d1-4d32-a503-087f1225d06b","ios":"levelo://app?vid=3a1b5f1b-c9d1-4d32-a503-087f1225d06b"},"vehicle_type_id":"4","last_reported":1721408855,"current_range_meters":0,"station_id":"ce4bgh92rcd13ifvqb40","pricing_plan_id":"cebpf4jnsgd1na2vs0mg"},{"bike_id":"736a8855-3fe2-436e-a204-3f0309527ad0","system_id":"levelo_inurba_marseille","lat":43.292749,"lon":5.368402,"is_reserved":false,"is_disabled":false,"rental_uris":{"android":"levelo://app?vid=736a8855-3fe2-436e-a204-3f0309527ad0","ios":"levelo://app?vid=736a8855-3fe2-436e-a204-3f0309527ad0"},"vehicle_type_id":"4","last_reported":1721408855,"current_range_meters":0,"station_id":"ce4bhbp2rcd13ifvqesg","pricing_plan_id":"cebpf4jnsgd1na2vs0mg"},{"bike_id":"81f6f935-0814-4776-86f2-77860a2ccc01","system_id":"levelo_inurba_marseille","lat":43.29275,"lon":5.36844,"is_reserved":false,"is_disabled":false,"rental_uris":{"android":"levelo://app?vid=81f6f935-0814-4776-86f2-77860a2ccc01","ios":"levelo://app?vid=81f6f935-0814-4776-86f2-77860a2ccc01"},"vehicle_type_id":"4","last_reported":1721408855,"current_range_meters":0,"station_id":"ce4bhbp2rcd13ifvqesg","pricing_plan_id":"cebpf4jnsgd1na2vs0mg"},{"bike_id":"be5fcbe9-afc6-4861-964a-6d056d485ff7","system_id":"levelo_inurba_marseille","lat":43.292749,"lon":5.368402,"is_reserved":false,"is_disabled":false,"rental_uris":{"android":"levelo://app?vid=be5fcbe9-afc6-4861-964a-6d056d485ff7","ios":"levelo://app?vid=be5fcbe9-afc6-4861-964a-6d056d485ff7"},"vehicle_type_id":"4","last_reported":1721408855,"current_range_meters":10400,"station_id":"ce4bhbp2rcd13ifvqesg","pricing_plan_id":"cebpf4jnsgd1na2vs0mg"},{"bike_id":"45df4f4a-14e7-4e40-8432-3c939e8475ab","system_id":"levelo_inurba_marseille","lat":43.29238,"lon":5.36558,"is_reserved":false,"is_disabled":false,"rental_uris":{"android":"levelo://app?vid=45df4f4a-14e7-4e40-8432-3c939e8475ab","ios":"levelo://app?vid=45df4f4a-14e7-4e40-8432-3c939e8475ab"},"vehicle_type_id":"4","last_reported":1721408855,"current_range_meters":0,"station_id":"","pricing_plan_id":"cebpf4jnsgd1na2vs0mg"},{"bike_id":"f1899919-faa3-4f8a-ba18-5820faf0a2b7","system_id":"levelo_inurba_marseille","lat":43.293009,"lon":5.374584,"is_reserved":false,"is_disabled":false,"rental_uris":{"android":"levelo://app?vid=f1899919-faa3-4f8a-ba18-5820faf0a2b7","ios":"levelo://app?vid=f1899919-faa3-4f8a-ba18-5820faf0a2b7"},"vehicle_type_id":"4","last_reported":1721408855,"current_range_meters":28800,"station_id":"ce4bgi12rcd13ifvqb70","pricing_plan_id":"cebpf4jnsgd1na2vs0mg"},{"bike_id":"367bc1dd-5eeb-473d-8487-9077416e7a01","system_id":"levelo_inurba_marseille","lat":43.305994,"lon":5.393687,"is_reserved":false,"is_disabled":false,"rental_uris":{"android":"levelo://app?vid=367bc1dd-5eeb-473d-8487-9077416e7a01","ios":"levelo://app?vid=367bc1dd-5eeb-473d-8487-9077416e7a01"},"vehicle_type_id":"4","last_reported":1721408855,"current_range_meters":15200,"station_id":"ce4bh0p2rcd13ifvqd80","pricing_plan_id":"cebpf4jnsgd1na2vs0mg"},{"bike_id":"39c011aa-4365-4347-b3ae-1a3fd728ce0d","system_id":"levelo_inurba_marseille","lat":43.302992,"lon":5.392136,"is_reserved":false,"is_disabled":false,"rental_uris":{"android":"levelo://app?vid=39c011aa-4365-4347-b3ae-1a3fd728ce0d","ios":"levelo://app?vid=39c011aa-4365-4347-b3ae-1a3fd728ce0d"},"vehicle_type_id":"4","last_reported":1721408855,"current_range_meters":31200,"station_id":"ce4bgkh2rcd13ifvqbk0","pricing_plan_id":"cebpf4jnsgd1na2vs0mg"},{"bike_id":"a89b6328-8ee5-4178-8af5-a5a9efd7923b","system_id":"levelo_inurba_marseille","lat":43.30306,"lon":5.39209,"is_reserved":false,"is_disabled":false,"rental_uris":{"android":"levelo://app?vid=a89b6328-8ee5-4178-8af5-a5a9efd7923b","ios":"levelo://app?vid=a89b6328-8ee5-4178-8af5-a5a9efd7923b"},"vehicle_type_id":"4","last_reported":1721408855,"current_range_meters":0,"station_id":"ce4bgkh2rcd13ifvqbk0","pricing_plan_id":"cebpf4jnsgd1na2vs0mg"},{"bike_id":"672ad694-4443-4ac8-8fbf-2c5c7d160b2d","system_id":"levelo_inurba_marseille","lat":43.302992,"lon":5.392136,"is_reserved":false,"is_disabled":false,"rental_uris":{"android":"levelo://app?vid=672ad694-4443-4ac8-8fbf-2c5c7d160b2d","ios":"levelo://app?vid=672ad694-4443-4ac8-8fbf-2c5c7d160b2d"},"vehicle_type_id":"4","last_reported":1721408855,"current_range_meters":25200,"station_id":"ce4bgkh2rcd13ifvqbk0","pricing_plan_id":"cebpf4jnsgd1na2vs0mg"},{"bike_id":"cd2c81d1-326a-43cf-aeea-0edf70fc4abe","system_id":"levelo_inurba_marseille","lat":43.30305,"lon":5.39215,"is_reserved":false,"is_disabled":false,"rental_uris":{"android":"levelo://app?vid=cd2c81d1-326a-43cf-aeea-0edf70fc4abe","ios":"levelo://app?vid=cd2c81d1-326a-43cf-aeea-0edf70fc4abe"},"vehicle_type_id":"4","last_reported":1721408855,"current_range_meters":10400,"station_id":"ce4bgkh2rcd13ifvqbk0","pricing_plan_id":"cebpf4jnsgd1na2vs0mg"},{"bike_id":"78b63b94-9b39-47a2-8ed2-856900824ca2","system_id":"levelo_inurba_marseille","lat":43.245581,"lon":5.395069,"is_reserved":false,"is_disabled":false,"rental_uris":{"android":"levelo://app?vid=78b63b94-9b39-47a2-8ed2-856900824ca2","ios":"levelo://app?vid=78b63b94-9b39-47a2-8ed2-856900824ca2"},"vehicle_type_id":"4","last_reported":1721408855,"current_range_meters":0,"station_id":"ce4bhlp2rcd13ifvqgjg","pricing_plan_id":"cebpf4jnsgd1na2vs0mg"},{"bike_id":"bff69b0e-7715-4d54-9566-19d87c6916f5","system_id":"levelo_inurba_marseille","lat":43.292311,"lon":5.360731,"is_reserved":false,"is_disabled":false,"rental_uris":{"android":"levelo://app?vid=bff69b0e-7715-4d54-9566-19d87c6916f5","ios":"levelo://app?vid=bff69b0e-7715-4d54-9566-19d87c6916f5"},"vehicle_type_id":"4","last_reported":1721408855,"current_range_meters":9200,"station_id":"ce4bhbh2rcd13ifvqeqg","pricing_plan_id":"cebpf4jnsgd1na2vs0mg"},{"bike_id":"44241c11-0ea4-4a4a-b67c-e98ba8b5fa92","system_id":"levelo_inurba_marseille","lat":43.292311,"lon":5.360731,"is_reserved":false,"is_disabled":false,"rental_uris":{"android":"levelo://app?vid=44241c11-0ea4-4a4a-b67c-e98ba8b5fa92","ios":"levelo://app?vid=44241c11-0ea4-4a4a-b67c-e98ba8b5fa92"},"vehicle_type_id":"4","last_reported":1721408855,"current_range_meters":31200,"station_id":"ce4bhbh2rcd13ifvqeqg","pricing_plan_id":"cebpf4jnsgd1na2vs0mg"},{"bike_id":"6a385615-f9e8-4e50-b3ec-534b81d8cff0","system_id":"levelo_inurba_marseille","lat":43.273613,"lon":5.362705,"is_reserved":false,"is_disabled":false,"rental_uris":{"android":"levelo://app?vid=6a385615-f9e8-4e50-b3ec-534b81d8cff0","ios":"levelo://app?vid=6a385615-f9e8-4e50-b3ec-534b81d8cff0"},"vehicle_type_id":"4","last_reported":1721408855,"current_range_meters":12400,"station_id":"ce4bhbh2rcd13ifvqeo0","pricing_plan_id":"cebpf4jnsgd1na2vs0mg"},{"bike_id":"3747ddeb-c715-409d-a449-eb71cafc721b","system_id":"levelo_inurba_marseille","lat":43.30085,"lon":5.390856,"is_reserved":false,"is_disabled":false,"rental_uris":{"android":"levelo://app?vid=3747ddeb-c715-409d-a449-eb71cafc721b","ios":"levelo://app?vid=3747ddeb-c715-409d-a449-eb71cafc721b"},"vehicle_type_id":"4","last_reported":1721408855,"current_range_meters":0,"station_id":"ce4bh192rcd13ifvqdb0","pricing_plan_id":"cebpf4jnsgd1na2vs0mg"},{"bike_id":"f1b45294-e0c3-44cd-b3bb-aeb3bd64fdfb","system_id":"levelo_inurba_marseille","lat":43.298764,"lon":5.388973,"is_reserved":false,"is_disabled":false,"rental_uris":{"android":"levelo://app?vid=f1b45294-e0c3-44cd-b3bb-aeb3bd64fdfb","ios":"levelo://app?vid=f1b45294-e0c3-44cd-b3bb-aeb3bd64fdfb"},"vehicle_type_id":"4","last_reported":1721408855,"current_range_meters":6000,"station_id":"ce4bh392rcd13ifvqdl0","pricing_plan_id":"cebpf4jnsgd1na2vs0mg"},{"bike_id":"992503b8-ae68-49ab-9a3d-0404dcd80343","system_id":"levelo_inurba_marseille","lat":43.292005,"lon":5.357875,"is_reserved":false,"is_disabled":false,"rental_uris":{"android":"levelo://app?vid=992503b8-ae68-49ab-9a3d-0404dcd80343","ios":"levelo://app?vid=992503b8-ae68-49ab-9a3d-0404dcd80343"},"vehicle_type_id":"4","last_reported":1721408855,"current_range_meters":6000,"station_id":"ce4bhb12rcd13ifvqel0","pricing_plan_id":"cebpf4jnsgd1na2vs0mg"},{"bike_id":"babd661c-634f-4e11-9566-3e92babd14f0","system_id":"levelo_inurba_marseille","lat":43.291813,"lon":5.375203,"is_reserved":false,"is_disabled":false,"rental_uris":{"android":"levelo://app?vid=babd661c-634f-4e11-9566-3e92babd14f0","ios":"levelo://app?vid=babd661c-634f-4e11-9566-3e92babd14f0"},"vehicle_type_id":"4","last_reported":1721408855,"current_range_meters":0,"station_id":"","pricing_plan_id":"cebpf4jnsgd1na2vs0mg"},{"bike_id":"ed822381-46a1-486e-8297-0e7c01efa052","system_id":"levelo_inurba_marseille","lat":43.291994,"lon":5.357886,"is_reserved":false,"is_disabled":false,"rental_uris":{"android":"levelo://app?vid=ed822381-46a1-486e-8297-0e7c01efa052","ios":"levelo://app?vid=ed822381-46a1-486e-8297-0e7c01efa052"},"vehicle_type_id":"4","last_reported":1721408855,"current_range_meters":22800,"station_id":"ce4bhb12rcd13ifvqel0","pricing_plan_id":"cebpf4jnsgd1na2vs0mg"},{"bike_id":"f6278906-f036-48df-a51d-c366e301c062","system_id":"levelo_inurba_marseille","lat":43.309047,"lon":5.396551,"is_reserved":false,"is_disabled":false,"rental_uris":{"android":"levelo://app?vid=f6278906-f036-48df-a51d-c366e301c062","ios":"levelo://app?vid=f6278906-f036-48df-a51d-c366e301c062"},"vehicle_type_id":"4","last_reported":1721408855,"current_range_meters":30800,"station_id":"ce4bh012rcd13ifvqcv0","pricing_plan_id":"cebpf4jnsgd1na2vs0mg"},{"bike_id":"b5fec4f5-9742-4625-b8f1-072f5633cf99","system_id":"levelo_inurba_marseille","lat":43.309038,"lon":5.396546,"is_reserved":false,"is_disabled":false,"rental_uris":{"android":"levelo://app?vid=b5fec4f5-9742-4625-b8f1-072f5633cf99","ios":"levelo://app?vid=b5fec4f5-9742-4625-b8f1-072f5633cf99"},"vehicle_type_id":"4","last_reported":1721408855,"current_range_meters":6800,"station_id":"ce4bh012rcd13ifvqcv0","pricing_plan_id":"cebpf4jnsgd1na2vs0mg"},{"bike_id":"cb64042c-8226-46bc-8515-46baa4799789","system_id":"levelo_inurba_marseille","lat":43.290169,"lon":5.367652,"is_reserved":false,"is_disabled":false,"rental_uris":{"android":"levelo://app?vid=cb64042c-8226-46bc-8515-46baa4799789","ios":"levelo://app?vid=cb64042c-8226-46bc-8515-46baa4799789"},"vehicle_type_id":"4","last_reported":1721408855,"current_range_meters":2800,"station_id":"","pricing_plan_id":"cebpf4jnsgd1na2vs0mg"},{"bike_id":"355aa58a-ee3c-43ed-8541-04439e2645dd","system_id":"levelo_inurba_marseille","lat":43.290412,"lon":5.375667,"is_reserved":false,"is_disabled":false,"rental_uris":{"android":"levelo://app?vid=355aa58a-ee3c-43ed-8541-04439e2645dd","ios":"levelo://app?vid=355aa58a-ee3c-43ed-8541-04439e2645dd"},"vehicle_type_id":"4","last_reported":1721408855,"current_range_meters":9200,"station_id":"ce4bh692rcd13ifvqe90","pricing_plan_id":"cebpf4jnsgd1na2vs0mg"},{"bike_id":"e4babcea-58b7-4618-acb7-9f565bbf6d5f","system_id":"levelo_inurba_marseille","lat":43.290319,"lon":5.375732,"is_reserved":false,"is_disabled":false,"rental_uris":{"android":"levelo://app?vid=e4babcea-58b7-4618-acb7-9f565bbf6d5f","ios":"levelo://app?vid=e4babcea-58b7-4618-acb7-9f565bbf6d5f"},"vehicle_type_id":"4","last_reported":1721408855,"current_range_meters":17600,"station_id":"ce4bh692rcd13ifvqe90","pricing_plan_id":"cebpf4jnsgd1na2vs0mg"},{"bike_id":"bdf27ca8-dae7-43a8-9923-bdf4ba875153","system_id":"levelo_inurba_marseille","lat":43.290319,"lon":5.375732,"is_reserved":false,"is_disabled":false,"rental_uris":{"android":"levelo://app?vid=bdf27ca8-dae7-43a8-9923-bdf4ba875153","ios":"levelo://app?vid=bdf27ca8-dae7-43a8-9923-bdf4ba875153"},"vehicle_type_id":"4","last_reported":1721408855,"current_range_meters":0,"station_id":"ce4bh692rcd13ifvqe90","pricing_plan_id":"cebpf4jnsgd1na2vs0mg"},{"bike_id":"30e000bf-6a7d-441f-aaa4-f626d22178dc","system_id":"levelo_inurba_marseille","lat":43.28937,"lon":5.36644,"is_reserved":false,"is_disabled":false,"rental_uris":{"android":"levelo://app?vid=30e000bf-6a7d-441f-aaa4-f626d22178dc","ios":"levelo://app?vid=30e000bf-6a7d-441f-aaa4-f626d22178dc"},"vehicle_type_id":"4","last_reported":1721408855,"current_range_meters":0,"station_id":"ce4bhap2rcd13ifvqek0","pricing_plan_id":"cebpf4jnsgd1na2vs0mg"},{"bike_id":"5ac04728-d401-461d-b1e2-b41bd179a5c1","system_id":"levelo_inurba_marseille","lat":43.289184,"lon":5.366408,"is_reserved":false,"is_disabled":false,"rental_uris":{"android":"levelo://app?vid=5ac04728-d401-461d-b1e2-b41bd179a5c1","ios":"levelo://app?vid=5ac04728-d401-461d-b1e2-b41bd179a5c1"},"vehicle_type_id":"4","last_reported":1721408855,"current_range_meters":3600,"station_id":"ce4bhap2rcd13ifvqek0","pricing_plan_id":"cebpf4jnsgd1na2vs0mg"},{"bike_id":"ed7759e8-d056-4d39-bd88-344eecc77176","system_id":"levelo_inurba_marseille","lat":43.29023,"lon":5.37605,"is_reserved":false,"is_disabled":false,"rental_uris":{"android":"levelo://app?vid=ed7759e8-d056-4d39-bd88-344eecc77176","ios":"levelo://app?vid=ed7759e8-d056-4d39-bd88-344eecc77176"},"vehicle_type_id":"4","last_reported":1721408855,"current_range_meters":2800,"station_id":"","pricing_plan_id":"cebpf4jnsgd1na2vs0mg"},{"bike_id":"d5445edc-895d-4423-927f-f88451d9dfd8","system_id":"levelo_inurba_marseille","lat":43.292642,"lon":5.384254,"is_reserved":false,"is_disabled":false,"rental_uris":{"android":"levelo://app?vid=d5445edc-895d-4423-927f-f88451d9dfd8","ios":"levelo://app?vid=d5445edc-895d-4423-927f-f88451d9dfd8"},"vehicle_type_id":"4","last_reported":1721408855,"current_range_meters":11200,"station_id":"ce4bh692rcd13ifvqea0","pricing_plan_id":"cebpf4jnsgd1na2vs0mg"},{"bike_id":"8dd111fb-6823-4322-8dbf-49c366ae1d9b","system_id":"levelo_inurba_marseille","lat":43.292642,"lon":5.384254,"is_reserved":false,"is_disabled":false,"rental_uris":{"android":"levelo://app?vid=8dd111fb-6823-4322-8dbf-49c366ae1d9b","ios":"levelo://app?vid=8dd111fb-6823-4322-8dbf-49c366ae1d9b"},"vehicle_type_id":"4","last_reported":1721408855,"current_range_meters":13200,"station_id":"ce4bh692rcd13ifvqea0","pricing_plan_id":"cebpf4jnsgd1na2vs0mg"},{"bike_id":"b14df45e-f855-4841-ad2f-de014178cc87","system_id":"levelo_inurba_marseille","lat":43.292642,"lon":5.384254,"is_reserved":false,"is_disabled":false,"rental_uris":{"android":"levelo://app?vid=b14df45e-f855-4841-ad2f-de014178cc87","ios":"levelo://app?vid=b14df45e-f855-4841-ad2f-de014178cc87"},"vehicle_type_id":"4","last_reported":1721408855,"current_range_meters":0,"station_id":"ce4bh692rcd13ifvqea0","pricing_plan_id":"cebpf4jnsgd1na2vs0mg"},{"bike_id":"22270877-7b57-4c47-b4b0-0682063df3d8","system_id":"levelo_inurba_marseille","lat":43.292642,"lon":5.384254,"is_reserved":false,"is_disabled":false,"rental_uris":{"android":"levelo://app?vid=22270877-7b57-4c47-b4b0-0682063df3d8","ios":"levelo://app?vid=22270877-7b57-4c47-b4b0-0682063df3d8"},"vehicle_type_id":"4","last_reported":1721408855,"current_range_meters":7200,"station_id":"ce4bh692rcd13ifvqea0","pricing_plan_id":"cebpf4jnsgd1na2vs0mg"},{"bike_id":"a61dbb8b-c0b4-4e4e-80ac-a5c30c251ac8","system_id":"levelo_inurba_marseille","lat":43.290104,"lon":5.356111,"is_reserved":false,"is_disabled":false,"rental_uris":{"android":"levelo://app?vid=a61dbb8b-c0b4-4e4e-80ac-a5c30c251ac8","ios":"levelo://app?vid=a61dbb8b-c0b4-4e4e-80ac-a5c30c251ac8"},"vehicle_type_id":"4","last_reported":1721408855,"current_range_meters":31600,"station_id":"ce4bhb92rcd13ifvqen0","pricing_plan_id":"cebpf4jnsgd1na2vs0mg"},{"bike_id":"2381489f-dfa3-4d50-9c42-3d072ec52b95","system_id":"levelo_inurba_marseille","lat":43.290104,"lon":5.356111,"is_reserved":false,"is_disabled":false,"rental_uris":{"android":"levelo://app?vid=2381489f-dfa3-4d50-9c42-3d072ec52b95","ios":"levelo://app?vid=2381489f-dfa3-4d50-9c42-3d072ec52b95"},"vehicle_type_id":"4","last_reported":1721408855,"current_range_meters":26400,"station_id":"ce4bhb92rcd13ifvqen0","pricing_plan_id":"cebpf4jnsgd1na2vs0mg"},{"bike_id":"0b62092d-9228-4b86-af08-12201014a993","system_id":"levelo_inurba_marseille","lat":43.290104,"lon":5.356111,"is_reserved":false,"is_disabled":false,"rental_uris":{"android":"levelo://app?vid=0b62092d-9228-4b86-af08-12201014a993","ios":"levelo://app?vid=0b62092d-9228-4b86-af08-12201014a993"},"vehicle_type_id":"4","last_reported":1721408855,"current_range_meters":13200,"station_id":"ce4bhb92rcd13ifvqen0","pricing_plan_id":"cebpf4jnsgd1na2vs0mg"},{"bike_id":"a182a53c-6626-47bf-b83d-fa6131c9654d","system_id":"levelo_inurba_marseille","lat":43.290104,"lon":5.356111,"is_reserved":false,"is_disabled":false,"rental_uris":{"android":"levelo://app?vid=a182a53c-6626-47bf-b83d-fa6131c9654d","ios":"levelo://app?vid=a182a53c-6626-47bf-b83d-fa6131c9654d"},"vehicle_type_id":"4","last_reported":1721408855,"current_range_meters":0,"station_id":"ce4bhb92rcd13ifvqen0","pricing_plan_id":"cebpf4jnsgd1na2vs0mg"},{"bike_id":"9b79c398-d776-4a56-bd8a-b1af7003c16e","system_id":"levelo_inurba_marseille","lat":43.290103,"lon":5.356114,"is_reserved":false,"is_disabled":false,"rental_uris":{"android":"levelo://app?vid=9b79c398-d776-4a56-bd8a-b1af7003c16e","ios":"levelo://app?vid=9b79c398-d776-4a56-bd8a-b1af7003c16e"},"vehicle_type_id":"4","last_reported":1721408855,"current_range_meters":4800,"station_id":"ce4bhb92rcd13ifvqen0","pricing_plan_id":"cebpf4jnsgd1na2vs0mg"},{"bike_id":"f2eeb4e3-91fa-4aab-a31f-599c46b468da","system_id":"levelo_inurba_marseille","lat":43.290104,"lon":5.356111,"is_reserved":false,"is_disabled":false,"rental_uris":{"android":"levelo://app?vid=f2eeb4e3-91fa-4aab-a31f-599c46b468da","ios":"levelo://app?vid=f2eeb4e3-91fa-4aab-a31f-599c46b468da"},"vehicle_type_id":"4","last_reported":1721408855,"current_range_meters":10800,"station_id":"ce4bhb92rcd13ifvqen0","pricing_plan_id":"cebpf4jnsgd1na2vs0mg"},{"bike_id":"a3e85a14-089d-4c0e-85be-8d89fb13d928","system_id":"levelo_inurba_marseille","lat":43.290103,"lon":5.356114,"is_reserved":false,"is_disabled":false,"rental_uris":{"android":"levelo://app?vid=a3e85a14-089d-4c0e-85be-8d89fb13d928","ios":"levelo://app?vid=a3e85a14-089d-4c0e-85be-8d89fb13d928"},"vehicle_type_id":"4","last_reported":1721408855,"current_range_meters":18400,"station_id":"ce4bhb92rcd13ifvqen0","pricing_plan_id":"cebpf4jnsgd1na2vs0mg"},{"bike_id":"43b19b7d-2a30-4587-9c01-d52d288ff457","system_id":"levelo_inurba_marseille","lat":43.29781,"lon":5.39346,"is_reserved":false,"is_disabled":false,"rental_uris":{"android":"levelo://app?vid=43b19b7d-2a30-4587-9c01-d52d288ff457","ios":"levelo://app?vid=43b19b7d-2a30-4587-9c01-d52d288ff457"},"vehicle_type_id":"4","last_reported":1721408855,"current_range_meters":4800,"station_id":"chh1huq6cuj3fo74tm60","pricing_plan_id":"cebpf4jnsgd1na2vs0mg"},{"bike_id":"8905691a-b73f-4a5a-bdcc-67670db76f0f","system_id":"levelo_inurba_marseille","lat":43.295169,"lon":5.390426,"is_reserved":false,"is_disabled":false,"rental_uris":{"android":"levelo://app?vid=8905691a-b73f-4a5a-bdcc-67670db76f0f","ios":"levelo://app?vid=8905691a-b73f-4a5a-bdcc-67670db76f0f"},"vehicle_type_id":"4","last_reported":1721408855,"current_range_meters":22000,"station_id":"ce4bh3p2rcd13ifvqdp0","pricing_plan_id":"cebpf4jnsgd1na2vs0mg"},{"bike_id":"8e6f9a01-67ea-466b-b9de-a1796d04d5c0","system_id":"levelo_inurba_marseille","lat":43.295169,"lon":5.390426,"is_reserved":false,"is_disabled":false,"rental_uris":{"android":"levelo://app?vid=8e6f9a01-67ea-466b-b9de-a1796d04d5c0","ios":"levelo://app?vid=8e6f9a01-67ea-466b-b9de-a1796d04d5c0"},"vehicle_type_id":"4","last_reported":1721408855,"current_range_meters":2400,"station_id":"ce4bh3p2rcd13ifvqdp0","pricing_plan_id":"cebpf4jnsgd1na2vs0mg"},{"bike_id":"2a658ea2-c5a0-489b-82bd-2a38ce3b764b","system_id":"levelo_inurba_marseille","lat":43.290631,"lon":5.359244,"is_reserved":false,"is_disabled":false,"rental_uris":{"android":"levelo://app?vid=2a658ea2-c5a0-489b-82bd-2a38ce3b764b","ios":"levelo://app?vid=2a658ea2-c5a0-489b-82bd-2a38ce3b764b"},"vehicle_type_id":"4","last_reported":1721408855,"current_range_meters":4400,"station_id":"ce4bha92rcd13ifvqeg0","pricing_plan_id":"cebpf4jnsgd1na2vs0mg"},{"bike_id":"71085967-7310-4e5b-ba1f-e04ee61728dd","system_id":"levelo_inurba_marseille","lat":43.29023,"lon":5.38139,"is_reserved":false,"is_disabled":false,"rental_uris":{"android":"levelo://app?vid=71085967-7310-4e5b-ba1f-e04ee61728dd","ios":"levelo://app?vid=71085967-7310-4e5b-ba1f-e04ee61728dd"},"vehicle_type_id":"4","last_reported":1721408855,"current_range_meters":0,"station_id":"ce4bh4p2rcd13ifvqe1g","pricing_plan_id":"cebpf4jnsgd1na2vs0mg"},{"bike_id":"6afa8b78-cf8c-48d9-896e-07be64797160","system_id":"levelo_inurba_marseille","lat":43.28856,"lon":5.35849,"is_reserved":false,"is_disabled":false,"rental_uris":{"android":"levelo://app?vid=6afa8b78-cf8c-48d9-896e-07be64797160","ios":"levelo://app?vid=6afa8b78-cf8c-48d9-896e-07be64797160"},"vehicle_type_id":"4","last_reported":1721408855,"current_range_meters":0,"station_id":"ce4bhb12rcd13ifvqem0","pricing_plan_id":"cebpf4jnsgd1na2vs0mg"},{"bike_id":"e823a7de-632d-422e-8b51-ab2657944981","system_id":"levelo_inurba_marseille","lat":43.29027,"lon":5.38187,"is_reserved":false,"is_disabled":false,"rental_uris":{"android":"levelo://app?vid=e823a7de-632d-422e-8b51-ab2657944981","ios":"levelo://app?vid=e823a7de-632d-422e-8b51-ab2657944981"},"vehicle_type_id":"4","last_reported":1721408855,"current_range_meters":17200,"station_id":"","pricing_plan_id":"cebpf4jnsgd1na2vs0mg"},{"bike_id":"2fa640f1-364a-4305-a770-4fde35db0c1c","system_id":"levelo_inurba_marseille","lat":43.28856,"lon":5.358371,"is_reserved":false,"is_disabled":false,"rental_uris":{"android":"levelo://app?vid=2fa640f1-364a-4305-a770-4fde35db0c1c","ios":"levelo://app?vid=2fa640f1-364a-4305-a770-4fde35db0c1c"},"vehicle_type_id":"4","last_reported":1721408855,"current_range_meters":400,"station_id":"ce4bhb12rcd13ifvqem0","pricing_plan_id":"cebpf4jnsgd1na2vs0mg"},{"bike_id":"522edc04-6c0d-4e5a-bd30-c5930e89c900","system_id":"levelo_inurba_marseille","lat":43.28856,"lon":5.358371,"is_reserved":false,"is_disabled":false,"rental_uris":{"android":"levelo://app?vid=522edc04-6c0d-4e5a-bd30-c5930e89c900","ios":"levelo://app?vid=522edc04-6c0d-4e5a-bd30-c5930e89c900"},"vehicle_type_id":"4","last_reported":1721408855,"current_range_meters":0,"station_id":"ce4bhb12rcd13ifvqem0","pricing_plan_id":"cebpf4jnsgd1na2vs0mg"},{"bike_id":"00dcef1a-50c4-4f10-8147-ab12f48adb27","system_id":"levelo_inurba_marseille","lat":43.28856,"lon":5.358371,"is_reserved":false,"is_disabled":false,"rental_uris":{"android":"levelo://app?vid=00dcef1a-50c4-4f10-8147-ab12f48adb27","ios":"levelo://app?vid=00dcef1a-50c4-4f10-8147-ab12f48adb27"},"vehicle_type_id":"4","last_reported":1721408855,"current_range_meters":12000,"station_id":"ce4bhb12rcd13ifvqem0","pricing_plan_id":"cebpf4jnsgd1na2vs0mg"},{"bike_id":"a1012dc7-0ba9-47ba-8934-b0951758faaa","system_id":"levelo_inurba_marseille","lat":43.28856,"lon":5.358371,"is_reserved":false,"is_disabled":false,"rental_uris":{"android":"levelo://app?vid=a1012dc7-0ba9-47ba-8934-b0951758faaa","ios":"levelo://app?vid=a1012dc7-0ba9-47ba-8934-b0951758faaa"},"vehicle_type_id":"4","last_reported":1721408855,"current_range_meters":5200,"station_id":"ce4bhb12rcd13ifvqem0","pricing_plan_id":"cebpf4jnsgd1na2vs0mg"},{"bike_id":"393abd2a-85ff-4d74-b00b-92ac15e00648","system_id":"levelo_inurba_marseille","lat":43.28856,"lon":5.358371,"is_reserved":false,"is_disabled":false,"rental_uris":{"android":"levelo://app?vid=393abd2a-85ff-4d74-b00b-92ac15e00648","ios":"levelo://app?vid=393abd2a-85ff-4d74-b00b-92ac15e00648"},"vehicle_type_id":"4","last_reported":1721408855,"current_range_meters":7600,"station_id":"ce4bhb12rcd13ifvqem0","pricing_plan_id":"cebpf4jnsgd1na2vs0mg"},{"bike_id":"7cdd7d71-dc3e-40e3-b947-a9bf9f4f23fe","system_id":"levelo_inurba_marseille","lat":43.28856,"lon":5.358371,"is_reserved":false,"is_disabled":false,"rental_uris":{"android":"levelo://app?vid=7cdd7d71-dc3e-40e3-b947-a9bf9f4f23fe","ios":"levelo://app?vid=7cdd7d71-dc3e-40e3-b947-a9bf9f4f23fe"},"vehicle_type_id":"4","last_reported":1721408855,"current_range_meters":2400,"station_id":"ce4bhb12rcd13ifvqem0","pricing_plan_id":"cebpf4jnsgd1na2vs0mg"},{"bike_id":"83430109-ecbf-47c2-8af1-be9b34e8f1b5","system_id":"levelo_inurba_marseille","lat":43.30926,"lon":5.40147,"is_reserved":false,"is_disabled":false,"rental_uris":{"android":"levelo://app?vid=83430109-ecbf-47c2-8af1-be9b34e8f1b5","ios":"levelo://app?vid=83430109-ecbf-47c2-8af1-be9b34e8f1b5"},"vehicle_type_id":"4","last_reported":1721408855,"current_range_meters":0,"station_id":"ce4bgvp2rcd13ifvqct0","pricing_plan_id":"cebpf4jnsgd1na2vs0mg"},{"bike_id":"37c51fb5-853b-49ed-a407-717d67ff13df","system_id":"levelo_inurba_marseille","lat":43.298681,"lon":5.397225,"is_reserved":false,"is_disabled":false,"rental_uris":{"android":"levelo://app?vid=37c51fb5-853b-49ed-a407-717d67ff13df","ios":"levelo://app?vid=37c51fb5-853b-49ed-a407-717d67ff13df"},"vehicle_type_id":"4","last_reported":1721408855,"current_range_meters":3600,"station_id":"ce4bh0h2rcd13ifvqd50","pricing_plan_id":"cebpf4jnsgd1na2vs0mg"},{"bike_id":"e8e7e8ca-59ba-41d6-bfa7-27905593d0f3","system_id":"levelo_inurba_marseille","lat":43.306412,"lon":5.401035,"is_reserved":false,"is_disabled":false,"rental_uris":{"android":"levelo://app?vid=e8e7e8ca-59ba-41d6-bfa7-27905593d0f3","ios":"levelo://app?vid=e8e7e8ca-59ba-41d6-bfa7-27905593d0f3"},"vehicle_type_id":"4","last_reported":1721408855,"current_range_meters":9200,"station_id":"ce4bh112rcd13ifvqda0","pricing_plan_id":"cebpf4jnsgd1na2vs0mg"},{"bike_id":"1d6f5669-533c-4455-a3d5-daa642934144","system_id":"levelo_inurba_marseille","lat":43.30642,"lon":5.401031,"is_reserved":false,"is_disabled":false,"rental_uris":{"android":"levelo://app?vid=1d6f5669-533c-4455-a3d5-daa642934144","ios":"levelo://app?vid=1d6f5669-533c-4455-a3d5-daa642934144"},"vehicle_type_id":"4","last_reported":1721408855,"current_range_meters":5600,"station_id":"ce4bh112rcd13ifvqda0","pricing_plan_id":"cebpf4jnsgd1na2vs0mg"},{"bike_id":"b5f84fb0-09bb-4914-b36d-004ae4988198","system_id":"levelo_inurba_marseille","lat":43.33769,"lon":5.374615,"is_reserved":false,"is_disabled":false,"rental_uris":{"android":"levelo://app?vid=b5f84fb0-09bb-4914-b36d-004ae4988198","ios":"levelo://app?vid=b5f84fb0-09bb-4914-b36d-004ae4988198"},"vehicle_type_id":"4","last_reported":1721408855,"current_range_meters":0,"station_id":"","pricing_plan_id":"cebpf4jnsgd1na2vs0mg"},{"bike_id":"ac377a63-6a02-42fa-8a70-d5bb9b7546c9","system_id":"levelo_inurba_marseille","lat":43.337739,"lon":5.374331,"is_reserved":false,"is_disabled":false,"rental_uris":{"android":"levelo://app?vid=ac377a63-6a02-42fa-8a70-d5bb9b7546c9","ios":"levelo://app?vid=ac377a63-6a02-42fa-8a70-d5bb9b7546c9"},"vehicle_type_id":"4","last_reported":1721408855,"current_range_meters":24800,"station_id":"","pricing_plan_id":"cebpf4jnsgd1na2vs0mg"},{"bike_id":"4f95275f-62bd-497f-ab0a-1e7438181481","system_id":"levelo_inurba_marseille","lat":43.301117,"lon":5.398795,"is_reserved":false,"is_disabled":false,"rental_uris":{"android":"levelo://app?vid=4f95275f-62bd-497f-ab0a-1e7438181481","ios":"levelo://app?vid=4f95275f-62bd-497f-ab0a-1e7438181481"},"vehicle_type_id":"4","last_reported":1721408855,"current_range_meters":12000,"station_id":"ce4bh0h2rcd13ifvqd40","pricing_plan_id":"cebpf4jnsgd1na2vs0mg"},{"bike_id":"cd24f1cf-7c1d-4d85-b756-ed221bbd5a6d","system_id":"levelo_inurba_marseille","lat":43.28727,"lon":5.36078,"is_reserved":false,"is_disabled":false,"rental_uris":{"android":"levelo://app?vid=cd24f1cf-7c1d-4d85-b756-ed221bbd5a6d","ios":"levelo://app?vid=cd24f1cf-7c1d-4d85-b756-ed221bbd5a6d"},"vehicle_type_id":"4","last_reported":1721408855,"current_range_meters":2800,"station_id":"cki0cbj6b192h4jlfktg","pricing_plan_id":"cebpf4jnsgd1na2vs0mg"},{"bike_id":"fe374d5e-6f86-46e8-9695-eb5ee810ca94","system_id":"levelo_inurba_marseille","lat":43.286961,"lon":5.373785,"is_reserved":false,"is_disabled":false,"rental_uris":{"android":"levelo://app?vid=fe374d5e-6f86-46e8-9695-eb5ee810ca94","ios":"levelo://app?vid=fe374d5e-6f86-46e8-9695-eb5ee810ca94"},"vehicle_type_id":"4","last_reported":1721408855,"current_range_meters":6000,"station_id":"ce4bh3p2rcd13ifvqdq0","pricing_plan_id":"cebpf4jnsgd1na2vs0mg"},{"bike_id":"92733a11-636d-4e77-8f45-635ca716dcd5","system_id":"levelo_inurba_marseille","lat":43.297946,"lon":5.404063,"is_reserved":false,"is_disabled":false,"rental_uris":{"android":"levelo://app?vid=92733a11-636d-4e77-8f45-635ca716dcd5","ios":"levelo://app?vid=92733a11-636d-4e77-8f45-635ca716dcd5"},"vehicle_type_id":"4","last_reported":1721408855,"current_range_meters":18800,"station_id":"ce4bh112rcd13ifvqd90","pricing_plan_id":"cebpf4jnsgd1na2vs0mg"},{"bike_id":"9b9b8410-1c80-4b42-a6f6-62d55c2240b5","system_id":"levelo_inurba_marseille","lat":43.298681,"lon":5.397225,"is_reserved":false,"is_disabled":false,"rental_uris":{"android":"levelo://app?vid=9b9b8410-1c80-4b42-a6f6-62d55c2240b5","ios":"levelo://app?vid=9b9b8410-1c80-4b42-a6f6-62d55c2240b5"},"vehicle_type_id":"4","last_reported":1721408855,"current_range_meters":4800,"station_id":"ce4bh0h2rcd13ifvqd50","pricing_plan_id":"cebpf4jnsgd1na2vs0mg"},{"bike_id":"839b562a-0e49-4071-88b7-8fcc688ac4f8","system_id":"levelo_inurba_marseille","lat":43.290336,"lon":5.386425,"is_reserved":false,"is_disabled":false,"rental_uris":{"android":"levelo://app?vid=839b562a-0e49-4071-88b7-8fcc688ac4f8","ios":"levelo://app?vid=839b562a-0e49-4071-88b7-8fcc688ac4f8"},"vehicle_type_id":"4","last_reported":1721408855,"current_range_meters":800,"station_id":"ce4bh4p2rcd13ifvqe0g","pricing_plan_id":"cebpf4jnsgd1na2vs0mg"},{"bike_id":"46cb2137-ab29-4324-bb5d-fd190ce650aa","system_id":"levelo_inurba_marseille","lat":43.302759,"lon":5.400793,"is_reserved":false,"is_disabled":false,"rental_uris":{"android":"levelo://app?vid=46cb2137-ab29-4324-bb5d-fd190ce650aa","ios":"levelo://app?vid=46cb2137-ab29-4324-bb5d-fd190ce650aa"},"vehicle_type_id":"4","last_reported":1721408855,"current_range_meters":24800,"station_id":"ce4bgvh2rcd13ifvqcs0","pricing_plan_id":"cebpf4jnsgd1na2vs0mg"},{"bike_id":"676df8fd-8d7c-4e42-ac8d-0eb401d5f255","system_id":"levelo_inurba_marseille","lat":43.287184,"lon":5.37937,"is_reserved":false,"is_disabled":false,"rental_uris":{"android":"levelo://app?vid=676df8fd-8d7c-4e42-ac8d-0eb401d5f255","ios":"levelo://app?vid=676df8fd-8d7c-4e42-ac8d-0eb401d5f255"},"vehicle_type_id":"4","last_reported":1721408855,"current_range_meters":19600,"station_id":"ce4bh9p2rcd13ifvqec0","pricing_plan_id":"cebpf4jnsgd1na2vs0mg"},{"bike_id":"365ee26a-f095-433e-994c-27ae27fabe32","system_id":"levelo_inurba_marseille","lat":43.287184,"lon":5.37937,"is_reserved":false,"is_disabled":false,"rental_uris":{"android":"levelo://app?vid=365ee26a-f095-433e-994c-27ae27fabe32","ios":"levelo://app?vid=365ee26a-f095-433e-994c-27ae27fabe32"},"vehicle_type_id":"4","last_reported":1721408855,"current_range_meters":0,"station_id":"ce4bh9p2rcd13ifvqec0","pricing_plan_id":"cebpf4jnsgd1na2vs0mg"},{"bike_id":"45f17989-e800-4ffa-82da-69b658a00dd1","system_id":"levelo_inurba_marseille","lat":43.28722,"lon":5.37941,"is_reserved":false,"is_disabled":false,"rental_uris":{"android":"levelo://app?vid=45f17989-e800-4ffa-82da-69b658a00dd1","ios":"levelo://app?vid=45f17989-e800-4ffa-82da-69b658a00dd1"},"vehicle_type_id":"4","last_reported":1721408855,"current_range_meters":18800,"station_id":"ce4bh9p2rcd13ifvqec0","pricing_plan_id":"cebpf4jnsgd1na2vs0mg"},{"bike_id":"31a35e04-1082-4508-b485-e671beafb82b","system_id":"levelo_inurba_marseille","lat":43.31696,"lon":5.4047,"is_reserved":false,"is_disabled":false,"rental_uris":{"android":"levelo://app?vid=31a35e04-1082-4508-b485-e671beafb82b","ios":"levelo://app?vid=31a35e04-1082-4508-b485-e671beafb82b"},"vehicle_type_id":"4","last_reported":1721408855,"current_range_meters":4000,"station_id":"ce4bh012rcd13ifvqd00","pricing_plan_id":"cebpf4jnsgd1na2vs0mg"},{"bike_id":"f6d48b99-42d3-4513-ad97-1774fd5af8c2","system_id":"levelo_inurba_marseille","lat":43.31688,"lon":5.40475,"is_reserved":false,"is_disabled":false,"rental_uris":{"android":"levelo://app?vid=f6d48b99-42d3-4513-ad97-1774fd5af8c2","ios":"levelo://app?vid=f6d48b99-42d3-4513-ad97-1774fd5af8c2"},"vehicle_type_id":"4","last_reported":1721408855,"current_range_meters":400,"station_id":"ce4bh012rcd13ifvqd00","pricing_plan_id":"cebpf4jnsgd1na2vs0mg"},{"bike_id":"962ba986-e2a2-4afd-963b-4e20bfe9b3d4","system_id":"levelo_inurba_marseille","lat":43.316821,"lon":5.404737,"is_reserved":false,"is_disabled":false,"rental_uris":{"android":"levelo://app?vid=962ba986-e2a2-4afd-963b-4e20bfe9b3d4","ios":"levelo://app?vid=962ba986-e2a2-4afd-963b-4e20bfe9b3d4"},"vehicle_type_id":"4","last_reported":1721408855,"current_range_meters":3600,"station_id":"ce4bh012rcd13ifvqd00","pricing_plan_id":"cebpf4jnsgd1na2vs0mg"},{"bike_id":"678c35a7-4335-4d38-b1ea-fd61cb0fb898","system_id":"levelo_inurba_marseille","lat":43.29201,"lon":5.39317,"is_reserved":false,"is_disabled":false,"rental_uris":{"android":"levelo://app?vid=678c35a7-4335-4d38-b1ea-fd61cb0fb898","ios":"levelo://app?vid=678c35a7-4335-4d38-b1ea-fd61cb0fb898"},"vehicle_type_id":"4","last_reported":1721408855,"current_range_meters":0,"station_id":"ce4bh192rcd13ifvqdd0","pricing_plan_id":"cebpf4jnsgd1na2vs0mg"},{"bike_id":"a5e918e4-37bb-491d-b186-409faa884fd2","system_id":"levelo_inurba_marseille","lat":43.29194,"lon":5.39311,"is_reserved":false,"is_disabled":false,"rental_uris":{"android":"levelo://app?vid=a5e918e4-37bb-491d-b186-409faa884fd2","ios":"levelo://app?vid=a5e918e4-37bb-491d-b186-409faa884fd2"},"vehicle_type_id":"4","last_reported":1721408855,"current_range_meters":0,"station_id":"ce4bh192rcd13ifvqdd0","pricing_plan_id":"cebpf4jnsgd1na2vs0mg"},{"bike_id":"2b208ada-615a-448d-b277-a3f395b9fc52","system_id":"levelo_inurba_marseille","lat":43.291994,"lon":5.392907,"is_reserved":false,"is_disabled":false,"rental_uris":{"android":"levelo://app?vid=2b208ada-615a-448d-b277-a3f395b9fc52","ios":"levelo://app?vid=2b208ada-615a-448d-b277-a3f395b9fc52"},"vehicle_type_id":"4","last_reported":1721408855,"current_range_meters":25600,"station_id":"ce4bh192rcd13ifvqdd0","pricing_plan_id":"cebpf4jnsgd1na2vs0mg"},{"bike_id":"4389c9dc-b7a4-4c36-b2ba-bf4f594a9903","system_id":"levelo_inurba_marseille","lat":43.284538,"lon":5.358657,"is_reserved":false,"is_disabled":false,"rental_uris":{"android":"levelo://app?vid=4389c9dc-b7a4-4c36-b2ba-bf4f594a9903","ios":"levelo://app?vid=4389c9dc-b7a4-4c36-b2ba-bf4f594a9903"},"vehicle_type_id":"4","last_reported":1721408855,"current_range_meters":12400,"station_id":"ce4bhah2rcd13ifvqei0","pricing_plan_id":"cebpf4jnsgd1na2vs0mg"},{"bike_id":"51979a41-aeb8-4722-8e74-79222a0c1863","system_id":"levelo_inurba_marseille","lat":43.294314,"lon":5.397498,"is_reserved":false,"is_disabled":false,"rental_uris":{"android":"levelo://app?vid=51979a41-aeb8-4722-8e74-79222a0c1863","ios":"levelo://app?vid=51979a41-aeb8-4722-8e74-79222a0c1863"},"vehicle_type_id":"4","last_reported":1721408855,"current_range_meters":12000,"station_id":"ce4bh3h2rcd13ifvqdo0","pricing_plan_id":"cebpf4jnsgd1na2vs0mg"},{"bike_id":"f2341a28-c9c6-4d1d-9b04-cdeccf41549d","system_id":"levelo_inurba_marseille","lat":43.28624,"lon":5.35107,"is_reserved":false,"is_disabled":false,"rental_uris":{"android":"levelo://app?vid=f2341a28-c9c6-4d1d-9b04-cdeccf41549d","ios":"levelo://app?vid=f2341a28-c9c6-4d1d-9b04-cdeccf41549d"},"vehicle_type_id":"4","last_reported":1721408855,"current_range_meters":7200,"station_id":"ce4bhch2rcd13ifvqeug","pricing_plan_id":"cebpf4jnsgd1na2vs0mg"},{"bike_id":"70396462-f5c8-4fdd-9b74-f7c88aefe884","system_id":"levelo_inurba_marseille","lat":43.28623,"lon":5.35109,"is_reserved":false,"is_disabled":false,"rental_uris":{"android":"levelo://app?vid=70396462-f5c8-4fdd-9b74-f7c88aefe884","ios":"levelo://app?vid=70396462-f5c8-4fdd-9b74-f7c88aefe884"},"vehicle_type_id":"4","last_reported":1721408855,"current_range_meters":2000,"station_id":"ce4bhb12rcd13ifvqem0","pricing_plan_id":"cebpf4jnsgd1na2vs0mg"},{"bike_id":"a6fbf63d-4cc3-43cf-bf01-848dfa8906d4","system_id":"levelo_inurba_marseille","lat":43.28621,"lon":5.3511,"is_reserved":false,"is_disabled":false,"rental_uris":{"android":"levelo://app?vid=a6fbf63d-4cc3-43cf-bf01-848dfa8906d4","ios":"levelo://app?vid=a6fbf63d-4cc3-43cf-bf01-848dfa8906d4"},"vehicle_type_id":"4","last_reported":1721408855,"current_range_meters":4800,"station_id":"ce4bhch2rcd13ifvqeug","pricing_plan_id":"cebpf4jnsgd1na2vs0mg"},{"bike_id":"4f07802d-14e2-43c8-aa2a-6f5f72f8adbf","system_id":"levelo_inurba_marseille","lat":43.2862,"lon":5.3511,"is_reserved":false,"is_disabled":false,"rental_uris":{"android":"levelo://app?vid=4f07802d-14e2-43c8-aa2a-6f5f72f8adbf","ios":"levelo://app?vid=4f07802d-14e2-43c8-aa2a-6f5f72f8adbf"},"vehicle_type_id":"4","last_reported":1721408855,"current_range_meters":22400,"station_id":"ce4bhch2rcd13ifvqeug","pricing_plan_id":"cebpf4jnsgd1na2vs0mg"},{"bike_id":"b3590562-213d-4101-a928-d826f43b7cb3","system_id":"levelo_inurba_marseille","lat":43.2862,"lon":5.35106,"is_reserved":false,"is_disabled":false,"rental_uris":{"android":"levelo://app?vid=b3590562-213d-4101-a928-d826f43b7cb3","ios":"levelo://app?vid=b3590562-213d-4101-a928-d826f43b7cb3"},"vehicle_type_id":"4","last_reported":1721408855,"current_range_meters":4000,"station_id":"ce4bhch2rcd13ifvqeug","pricing_plan_id":"cebpf4jnsgd1na2vs0mg"},{"bike_id":"cc1f3db7-4c7d-4ac5-9d28-b171f46a2186","system_id":"levelo_inurba_marseille","lat":43.28619,"lon":5.35108,"is_reserved":false,"is_disabled":false,"rental_uris":{"android":"levelo://app?vid=cc1f3db7-4c7d-4ac5-9d28-b171f46a2186","ios":"levelo://app?vid=cc1f3db7-4c7d-4ac5-9d28-b171f46a2186"},"vehicle_type_id":"4","last_reported":1721408855,"current_range_meters":18000,"station_id":"ce4bhch2rcd13ifvqeug","pricing_plan_id":"cebpf4jnsgd1na2vs0mg"},{"bike_id":"f1867bc1-b50a-43fa-8b09-0920b9645790","system_id":"levelo_inurba_marseille","lat":43.28619,"lon":5.35107,"is_reserved":false,"is_disabled":false,"rental_uris":{"android":"levelo://app?vid=f1867bc1-b50a-43fa-8b09-0920b9645790","ios":"levelo://app?vid=f1867bc1-b50a-43fa-8b09-0920b9645790"},"vehicle_type_id":"4","last_reported":1721408855,"current_range_meters":31200,"station_id":"ce4bhch2rcd13ifvqeug","pricing_plan_id":"cebpf4jnsgd1na2vs0mg"},{"bike_id":"84c4629e-0f07-4559-bda5-8a3d7937d60c","system_id":"levelo_inurba_marseille","lat":43.28618,"lon":5.35109,"is_reserved":false,"is_disabled":false,"rental_uris":{"android":"levelo://app?vid=84c4629e-0f07-4559-bda5-8a3d7937d60c","ios":"levelo://app?vid=84c4629e-0f07-4559-bda5-8a3d7937d60c"},"vehicle_type_id":"4","last_reported":1721408855,"current_range_meters":4800,"station_id":"ce4bhch2rcd13ifvqeug","pricing_plan_id":"cebpf4jnsgd1na2vs0mg"},{"bike_id":"16fb9995-c78c-4a22-9f4a-10a8f153b835","system_id":"levelo_inurba_marseille","lat":43.28618,"lon":5.35109,"is_reserved":false,"is_disabled":false,"rental_uris":{"android":"levelo://app?vid=16fb9995-c78c-4a22-9f4a-10a8f153b835","ios":"levelo://app?vid=16fb9995-c78c-4a22-9f4a-10a8f153b835"},"vehicle_type_id":"4","last_reported":1721408855,"current_range_meters":31200,"station_id":"ce4bhch2rcd13ifvqeug","pricing_plan_id":"cebpf4jnsgd1na2vs0mg"},{"bike_id":"a434d9f1-68ca-4a85-a9cf-4d404e5bb872","system_id":"levelo_inurba_marseille","lat":43.285856,"lon":5.350771,"is_reserved":false,"is_disabled":false,"rental_uris":{"android":"levelo://app?vid=a434d9f1-68ca-4a85-a9cf-4d404e5bb872","ios":"levelo://app?vid=a434d9f1-68ca-4a85-a9cf-4d404e5bb872"},"vehicle_type_id":"4","last_reported":1721408855,"current_range_meters":9200,"station_id":"ce4bhch2rcd13ifvqeug","pricing_plan_id":"cebpf4jnsgd1na2vs0mg"},{"bike_id":"321ab57b-136a-4703-8a5e-5b0af4dc1fc8","system_id":"levelo_inurba_marseille","lat":43.28618,"lon":5.35107,"is_reserved":false,"is_disabled":false,"rental_uris":{"android":"levelo://app?vid=321ab57b-136a-4703-8a5e-5b0af4dc1fc8","ios":"levelo://app?vid=321ab57b-136a-4703-8a5e-5b0af4dc1fc8"},"vehicle_type_id":"4","last_reported":1721408855,"current_range_meters":31200,"station_id":"ce4bhch2rcd13ifvqeug","pricing_plan_id":"cebpf4jnsgd1na2vs0mg"},{"bike_id":"5ca8b89f-5c90-42e6-a9b5-fe595117294c","system_id":"levelo_inurba_marseille","lat":43.28629,"lon":5.38313,"is_reserved":false,"is_disabled":false,"rental_uris":{"android":"levelo://app?vid=5ca8b89f-5c90-42e6-a9b5-fe595117294c","ios":"levelo://app?vid=5ca8b89f-5c90-42e6-a9b5-fe595117294c"},"vehicle_type_id":"4","last_reported":1721408855,"current_range_meters":5200,"station_id":"ce4bh4p2rcd13ifvqe1g","pricing_plan_id":"cebpf4jnsgd1na2vs0mg"},{"bike_id":"95e0cc1e-fa30-42cd-8a31-c891b35a4304","system_id":"levelo_inurba_marseille","lat":43.28621,"lon":5.35097,"is_reserved":false,"is_disabled":false,"rental_uris":{"android":"levelo://app?vid=95e0cc1e-fa30-42cd-8a31-c891b35a4304","ios":"levelo://app?vid=95e0cc1e-fa30-42cd-8a31-c891b35a4304"},"vehicle_type_id":"4","last_reported":1721408855,"current_range_meters":10400,"station_id":"ce4bhch2rcd13ifvqeug","pricing_plan_id":"cebpf4jnsgd1na2vs0mg"},{"bike_id":"56039a57-1662-42ca-8949-1347c5fde01f","system_id":"levelo_inurba_marseille","lat":43.285856,"lon":5.350771,"is_reserved":false,"is_disabled":false,"rental_uris":{"android":"levelo://app?vid=56039a57-1662-42ca-8949-1347c5fde01f","ios":"levelo://app?vid=56039a57-1662-42ca-8949-1347c5fde01f"},"vehicle_type_id":"4","last_reported":1721408855,"current_range_meters":29200,"station_id":"ce4bhch2rcd13ifvqeug","pricing_plan_id":"cebpf4jnsgd1na2vs0mg"},{"bike_id":"11c16963-829c-4f0b-a9f0-5d7843bd52d4","system_id":"levelo_inurba_marseille","lat":43.28619,"lon":5.35102,"is_reserved":false,"is_disabled":false,"rental_uris":{"android":"levelo://app?vid=11c16963-829c-4f0b-a9f0-5d7843bd52d4","ios":"levelo://app?vid=11c16963-829c-4f0b-a9f0-5d7843bd52d4"},"vehicle_type_id":"4","last_reported":1721408855,"current_range_meters":10800,"station_id":"ce4bhch2rcd13ifvqeug","pricing_plan_id":"cebpf4jnsgd1na2vs0mg"},{"bike_id":"3c83e445-9339-473f-8465-065d679d2502","system_id":"levelo_inurba_marseille","lat":43.285856,"lon":5.350771,"is_reserved":false,"is_disabled":false,"rental_uris":{"android":"levelo://app?vid=3c83e445-9339-473f-8465-065d679d2502","ios":"levelo://app?vid=3c83e445-9339-473f-8465-065d679d2502"},"vehicle_type_id":"4","last_reported":1721408855,"current_range_meters":0,"station_id":"ce4bhch2rcd13ifvqeug","pricing_plan_id":"cebpf4jnsgd1na2vs0mg"},{"bike_id":"d7eeb3df-27f4-4105-818d-83beaaa7a2be","system_id":"levelo_inurba_marseille","lat":43.28616,"lon":5.35103,"is_reserved":false,"is_disabled":false,"rental_uris":{"android":"levelo://app?vid=d7eeb3df-27f4-4105-818d-83beaaa7a2be","ios":"levelo://app?vid=d7eeb3df-27f4-4105-818d-83beaaa7a2be"},"vehicle_type_id":"4","last_reported":1721408855,"current_range_meters":14400,"station_id":"ce4bhch2rcd13ifvqeug","pricing_plan_id":"cebpf4jnsgd1na2vs0mg"},{"bike_id":"9bacedbe-251e-47d8-877f-318a46a3d97f","system_id":"levelo_inurba_marseille","lat":43.28616,"lon":5.35103,"is_reserved":false,"is_disabled":false,"rental_uris":{"android":"levelo://app?vid=9bacedbe-251e-47d8-877f-318a46a3d97f","ios":"levelo://app?vid=9bacedbe-251e-47d8-877f-318a46a3d97f"},"vehicle_type_id":"4","last_reported":1721408855,"current_range_meters":31200,"station_id":"ce4bhch2rcd13ifvqeug","pricing_plan_id":"cebpf4jnsgd1na2vs0mg"},{"bike_id":"9ab2c131-758a-4b43-89dd-016b9c016f60","system_id":"levelo_inurba_marseille","lat":43.285856,"lon":5.350771,"is_reserved":false,"is_disabled":false,"rental_uris":{"android":"levelo://app?vid=9ab2c131-758a-4b43-89dd-016b9c016f60","ios":"levelo://app?vid=9ab2c131-758a-4b43-89dd-016b9c016f60"},"vehicle_type_id":"4","last_reported":1721408855,"current_range_meters":31200,"station_id":"ce4bhch2rcd13ifvqeug","pricing_plan_id":"cebpf4jnsgd1na2vs0mg"},{"bike_id":"624ac2a3-f6da-4cac-b267-a281fc53663d","system_id":"levelo_inurba_marseille","lat":43.28614,"lon":5.35108,"is_reserved":false,"is_disabled":false,"rental_uris":{"android":"levelo://app?vid=624ac2a3-f6da-4cac-b267-a281fc53663d","ios":"levelo://app?vid=624ac2a3-f6da-4cac-b267-a281fc53663d"},"vehicle_type_id":"4","last_reported":1721408855,"current_range_meters":7200,"station_id":"ce4bhch2rcd13ifvqeug","pricing_plan_id":"cebpf4jnsgd1na2vs0mg"},{"bike_id":"45df5da1-719f-48e1-9e72-1d247a31a9a2","system_id":"levelo_inurba_marseille","lat":43.286152,"lon":5.351038,"is_reserved":false,"is_disabled":false,"rental_uris":{"android":"levelo://app?vid=45df5da1-719f-48e1-9e72-1d247a31a9a2","ios":"levelo://app?vid=45df5da1-719f-48e1-9e72-1d247a31a9a2"},"vehicle_type_id":"4","last_reported":1721408855,"current_range_meters":3200,"station_id":"ce4bhch2rcd13ifvqeug","pricing_plan_id":"cebpf4jnsgd1na2vs0mg"},{"bike_id":"b5ec4810-5fc9-46a3-a831-6d56d719779e","system_id":"levelo_inurba_marseille","lat":43.28614,"lon":5.35107,"is_reserved":false,"is_disabled":false,"rental_uris":{"android":"levelo://app?vid=b5ec4810-5fc9-46a3-a831-6d56d719779e","ios":"levelo://app?vid=b5ec4810-5fc9-46a3-a831-6d56d719779e"},"vehicle_type_id":"4","last_reported":1721408855,"current_range_meters":29600,"station_id":"ce4bhch2rcd13ifvqeug","pricing_plan_id":"cebpf4jnsgd1na2vs0mg"},{"bike_id":"fcd1d44a-6fee-41fa-a06e-e203771b06cb","system_id":"levelo_inurba_marseille","lat":43.28615,"lon":5.35103,"is_reserved":false,"is_disabled":false,"rental_uris":{"android":"levelo://app?vid=fcd1d44a-6fee-41fa-a06e-e203771b06cb","ios":"levelo://app?vid=fcd1d44a-6fee-41fa-a06e-e203771b06cb"},"vehicle_type_id":"4","last_reported":1721408855,"current_range_meters":16000,"station_id":"ce4bhch2rcd13ifvqeug","pricing_plan_id":"cebpf4jnsgd1na2vs0mg"},{"bike_id":"88b75c36-9df1-41c1-98d9-bc6d360078c6","system_id":"levelo_inurba_marseille","lat":43.28614,"lon":5.35106,"is_reserved":false,"is_disabled":false,"rental_uris":{"android":"levelo://app?vid=88b75c36-9df1-41c1-98d9-bc6d360078c6","ios":"levelo://app?vid=88b75c36-9df1-41c1-98d9-bc6d360078c6"},"vehicle_type_id":"4","last_reported":1721408855,"current_range_meters":22000,"station_id":"ce4bhch2rcd13ifvqeug","pricing_plan_id":"cebpf4jnsgd1na2vs0mg"},{"bike_id":"3f1bf83f-01a8-47aa-8bad-855bed86a15f","system_id":"levelo_inurba_marseille","lat":43.28614,"lon":5.35105,"is_reserved":false,"is_disabled":false,"rental_uris":{"android":"levelo://app?vid=3f1bf83f-01a8-47aa-8bad-855bed86a15f","ios":"levelo://app?vid=3f1bf83f-01a8-47aa-8bad-855bed86a15f"},"vehicle_type_id":"4","last_reported":1721408855,"current_range_meters":0,"station_id":"ce4bhch2rcd13ifvqeug","pricing_plan_id":"cebpf4jnsgd1na2vs0mg"},{"bike_id":"a9cac9d5-971e-4337-9c34-2508a74c87ac","system_id":"levelo_inurba_marseille","lat":43.28615,"lon":5.35101,"is_reserved":false,"is_disabled":false,"rental_uris":{"android":"levelo://app?vid=a9cac9d5-971e-4337-9c34-2508a74c87ac","ios":"levelo://app?vid=a9cac9d5-971e-4337-9c34-2508a74c87ac"},"vehicle_type_id":"4","last_reported":1721408855,"current_range_meters":18800,"station_id":"ce4bhch2rcd13ifvqeug","pricing_plan_id":"cebpf4jnsgd1na2vs0mg"},{"bike_id":"c1497b21-d888-4e35-a350-a0f9b5d18988","system_id":"levelo_inurba_marseille","lat":43.28614,"lon":5.35104,"is_reserved":false,"is_disabled":false,"rental_uris":{"android":"levelo://app?vid=c1497b21-d888-4e35-a350-a0f9b5d18988","ios":"levelo://app?vid=c1497b21-d888-4e35-a350-a0f9b5d18988"},"vehicle_type_id":"4","last_reported":1721408855,"current_range_meters":7200,"station_id":"ce4bhch2rcd13ifvqeug","pricing_plan_id":"cebpf4jnsgd1na2vs0mg"},{"bike_id":"db5804ca-0927-4d39-9ba1-dfc52bdd38b5","system_id":"levelo_inurba_marseille","lat":43.28614,"lon":5.35104,"is_reserved":false,"is_disabled":false,"rental_uris":{"android":"levelo://app?vid=db5804ca-0927-4d39-9ba1-dfc52bdd38b5","ios":"levelo://app?vid=db5804ca-0927-4d39-9ba1-dfc52bdd38b5"},"vehicle_type_id":"4","last_reported":1721408855,"current_range_meters":20800,"station_id":"ce4bhch2rcd13ifvqeug","pricing_plan_id":"cebpf4jnsgd1na2vs0mg"},{"bike_id":"4152004c-5971-425d-aec4-a56f03a2ad4a","system_id":"levelo_inurba_marseille","lat":43.28614,"lon":5.351027,"is_reserved":false,"is_disabled":false,"rental_uris":{"android":"levelo://app?vid=4152004c-5971-425d-aec4-a56f03a2ad4a","ios":"levelo://app?vid=4152004c-5971-425d-aec4-a56f03a2ad4a"},"vehicle_type_id":"4","last_reported":1721408855,"current_range_meters":20800,"station_id":"","pricing_plan_id":"cebpf4jnsgd1na2vs0mg"},{"bike_id":"74ab1e53-4590-4cd4-b8ee-1e62e3d8ac01","system_id":"levelo_inurba_marseille","lat":43.28613,"lon":5.35104,"is_reserved":false,"is_disabled":false,"rental_uris":{"android":"levelo://app?vid=74ab1e53-4590-4cd4-b8ee-1e62e3d8ac01","ios":"levelo://app?vid=74ab1e53-4590-4cd4-b8ee-1e62e3d8ac01"},"vehicle_type_id":"4","last_reported":1721408855,"current_range_meters":25200,"station_id":"ce4bhch2rcd13ifvqeug","pricing_plan_id":"cebpf4jnsgd1na2vs0mg"},{"bike_id":"b1e82b11-1c71-4b79-86e7-e78ea197fd72","system_id":"levelo_inurba_marseille","lat":43.28613,"lon":5.35104,"is_reserved":false,"is_disabled":false,"rental_uris":{"android":"levelo://app?vid=b1e82b11-1c71-4b79-86e7-e78ea197fd72","ios":"levelo://app?vid=b1e82b11-1c71-4b79-86e7-e78ea197fd72"},"vehicle_type_id":"4","last_reported":1721408855,"current_range_meters":27200,"station_id":"ce4bhch2rcd13ifvqeug","pricing_plan_id":"cebpf4jnsgd1na2vs0mg"},{"bike_id":"5d8c4e57-036d-445b-8a6b-bd419cb1e9e0","system_id":"levelo_inurba_marseille","lat":43.28612,"lon":5.35107,"is_reserved":false,"is_disabled":false,"rental_uris":{"android":"levelo://app?vid=5d8c4e57-036d-445b-8a6b-bd419cb1e9e0","ios":"levelo://app?vid=5d8c4e57-036d-445b-8a6b-bd419cb1e9e0"},"vehicle_type_id":"4","last_reported":1721408855,"current_range_meters":14400,"station_id":"ce4bhch2rcd13ifvqeug","pricing_plan_id":"cebpf4jnsgd1na2vs0mg"},{"bike_id":"bb16a811-dbce-4ed4-8efc-388a840a8f72","system_id":"levelo_inurba_marseille","lat":43.28611,"lon":5.3511,"is_reserved":false,"is_disabled":false,"rental_uris":{"android":"levelo://app?vid=bb16a811-dbce-4ed4-8efc-388a840a8f72","ios":"levelo://app?vid=bb16a811-dbce-4ed4-8efc-388a840a8f72"},"vehicle_type_id":"4","last_reported":1721408855,"current_range_meters":29200,"station_id":"ce4bhch2rcd13ifvqeug","pricing_plan_id":"cebpf4jnsgd1na2vs0mg"},{"bike_id":"68492d5d-cc30-47b9-8229-3b8e5a1bd167","system_id":"levelo_inurba_marseille","lat":43.285856,"lon":5.350771,"is_reserved":false,"is_disabled":false,"rental_uris":{"android":"levelo://app?vid=68492d5d-cc30-47b9-8229-3b8e5a1bd167","ios":"levelo://app?vid=68492d5d-cc30-47b9-8229-3b8e5a1bd167"},"vehicle_type_id":"4","last_reported":1721408855,"current_range_meters":28800,"station_id":"ce4bhch2rcd13ifvqeug","pricing_plan_id":"cebpf4jnsgd1na2vs0mg"},{"bike_id":"7f926067-68c7-4c05-81ed-2eb8ea32bc33","system_id":"levelo_inurba_marseille","lat":43.2861,"lon":5.35111,"is_reserved":false,"is_disabled":false,"rental_uris":{"android":"levelo://app?vid=7f926067-68c7-4c05-81ed-2eb8ea32bc33","ios":"levelo://app?vid=7f926067-68c7-4c05-81ed-2eb8ea32bc33"},"vehicle_type_id":"4","last_reported":1721408855,"current_range_meters":10000,"station_id":"ce4bhch2rcd13ifvqeug","pricing_plan_id":"cebpf4jnsgd1na2vs0mg"},{"bike_id":"4c09a479-8fc0-4c87-a15a-c2882c31bba2","system_id":"levelo_inurba_marseille","lat":43.28612,"lon":5.35098,"is_reserved":false,"is_disabled":false,"rental_uris":{"android":"levelo://app?vid=4c09a479-8fc0-4c87-a15a-c2882c31bba2","ios":"levelo://app?vid=4c09a479-8fc0-4c87-a15a-c2882c31bba2"},"vehicle_type_id":"4","last_reported":1721408855,"current_range_meters":22800,"station_id":"ce4bhch2rcd13ifvqeug","pricing_plan_id":"cebpf4jnsgd1na2vs0mg"},{"bike_id":"42609ca6-3ac0-432e-98b8-e19d4f0613a4","system_id":"levelo_inurba_marseille","lat":43.2861,"lon":5.35101,"is_reserved":false,"is_disabled":false,"rental_uris":{"android":"levelo://app?vid=42609ca6-3ac0-432e-98b8-e19d4f0613a4","ios":"levelo://app?vid=42609ca6-3ac0-432e-98b8-e19d4f0613a4"},"vehicle_type_id":"4","last_reported":1721408855,"current_range_meters":13600,"station_id":"ce4bhch2rcd13ifvqeug","pricing_plan_id":"cebpf4jnsgd1na2vs0mg"},{"bike_id":"aec824f7-152b-4f30-a2a9-b3508bf0e40c","system_id":"levelo_inurba_marseille","lat":43.283998,"lon":5.375062,"is_reserved":false,"is_disabled":false,"rental_uris":{"android":"levelo://app?vid=aec824f7-152b-4f30-a2a9-b3508bf0e40c","ios":"levelo://app?vid=aec824f7-152b-4f30-a2a9-b3508bf0e40c"},"vehicle_type_id":"4","last_reported":1721408855,"current_range_meters":3600,"station_id":"ce4bh412rcd13ifvqds0","pricing_plan_id":"cebpf4jnsgd1na2vs0mg"},{"bike_id":"d750d27e-2336-4c98-af7c-897525aa6256","system_id":"levelo_inurba_marseille","lat":43.283998,"lon":5.375062,"is_reserved":false,"is_disabled":false,"rental_uris":{"android":"levelo://app?vid=d750d27e-2336-4c98-af7c-897525aa6256","ios":"levelo://app?vid=d750d27e-2336-4c98-af7c-897525aa6256"},"vehicle_type_id":"4","last_reported":1721408855,"current_range_meters":6400,"station_id":"ce4bh412rcd13ifvqds0","pricing_plan_id":"cebpf4jnsgd1na2vs0mg"},{"bike_id":"f8fce933-996c-4ad1-8cbd-4e41159b9452","system_id":"levelo_inurba_marseille","lat":43.283998,"lon":5.375062,"is_reserved":false,"is_disabled":false,"rental_uris":{"android":"levelo://app?vid=f8fce933-996c-4ad1-8cbd-4e41159b9452","ios":"levelo://app?vid=f8fce933-996c-4ad1-8cbd-4e41159b9452"},"vehicle_type_id":"4","last_reported":1721408855,"current_range_meters":0,"station_id":"ce4bh412rcd13ifvqds0","pricing_plan_id":"cebpf4jnsgd1na2vs0mg"},{"bike_id":"f0c7f6ab-1c50-4c84-af7a-bd5129ddb049","system_id":"levelo_inurba_marseille","lat":43.283998,"lon":5.375062,"is_reserved":false,"is_disabled":false,"rental_uris":{"android":"levelo://app?vid=f0c7f6ab-1c50-4c84-af7a-bd5129ddb049","ios":"levelo://app?vid=f0c7f6ab-1c50-4c84-af7a-bd5129ddb049"},"vehicle_type_id":"4","last_reported":1721408855,"current_range_meters":28400,"station_id":"ce4bh412rcd13ifvqds0","pricing_plan_id":"cebpf4jnsgd1na2vs0mg"},{"bike_id":"ab647258-241a-47ba-8d95-d27d439f2f9a","system_id":"levelo_inurba_marseille","lat":43.295713,"lon":5.399639,"is_reserved":false,"is_disabled":false,"rental_uris":{"android":"levelo://app?vid=ab647258-241a-47ba-8d95-d27d439f2f9a","ios":"levelo://app?vid=ab647258-241a-47ba-8d95-d27d439f2f9a"},"vehicle_type_id":"4","last_reported":1721408855,"current_range_meters":800,"station_id":"ce4bh312rcd13ifvqdj0","pricing_plan_id":"cebpf4jnsgd1na2vs0mg"},{"bike_id":"bf2896eb-aa36-4837-ba7e-1eb786b03e00","system_id":"levelo_inurba_marseille","lat":43.298037,"lon":5.381066,"is_reserved":false,"is_disabled":false,"rental_uris":{"android":"levelo://app?vid=bf2896eb-aa36-4837-ba7e-1eb786b03e00","ios":"levelo://app?vid=bf2896eb-aa36-4837-ba7e-1eb786b03e00"},"vehicle_type_id":"4","last_reported":1721408855,"current_range_meters":1600,"station_id":"ce4bgip2rcd13ifvqbb0","pricing_plan_id":"cebpf4jnsgd1na2vs0mg"},{"bike_id":"c97c4d69-9e84-42f5-b2c6-ced8bf99daef","system_id":"levelo_inurba_marseille","lat":43.284967,"lon":5.351331,"is_reserved":false,"is_disabled":false,"rental_uris":{"android":"levelo://app?vid=c97c4d69-9e84-42f5-b2c6-ced8bf99daef","ios":"levelo://app?vid=c97c4d69-9e84-42f5-b2c6-ced8bf99daef"},"vehicle_type_id":"4","last_reported":1721408855,"current_range_meters":21600,"station_id":"","pricing_plan_id":"cebpf4jnsgd1na2vs0mg"},{"bike_id":"de8d108a-a404-4cc4-8816-2a7ae4b35f50","system_id":"levelo_inurba_marseille","lat":43.323464,"lon":5.406297,"is_reserved":false,"is_disabled":false,"rental_uris":{"android":"levelo://app?vid=de8d108a-a404-4cc4-8816-2a7ae4b35f50","ios":"levelo://app?vid=de8d108a-a404-4cc4-8816-2a7ae4b35f50"},"vehicle_type_id":"4","last_reported":1721408855,"current_range_meters":11600,"station_id":"ce4bhq92rcd13ifvqhjg","pricing_plan_id":"cebpf4jnsgd1na2vs0mg"},{"bike_id":"d6fc13ce-375a-44ee-b2fa-f15ebebf57af","system_id":"levelo_inurba_marseille","lat":43.33717,"lon":5.391857,"is_reserved":false,"is_disabled":false,"rental_uris":{"android":"levelo://app?vid=d6fc13ce-375a-44ee-b2fa-f15ebebf57af","ios":"levelo://app?vid=d6fc13ce-375a-44ee-b2fa-f15ebebf57af"},"vehicle_type_id":"4","last_reported":1721408855,"current_range_meters":26400,"station_id":"ce4bhr92rcd13ifvqhsg","pricing_plan_id":"cebpf4jnsgd1na2vs0mg"},{"bike_id":"371efaaa-8354-4056-9d70-a2c2ac1cdc6a","system_id":"levelo_inurba_marseille","lat":43.323464,"lon":5.406297,"is_reserved":false,"is_disabled":false,"rental_uris":{"android":"levelo://app?vid=371efaaa-8354-4056-9d70-a2c2ac1cdc6a","ios":"levelo://app?vid=371efaaa-8354-4056-9d70-a2c2ac1cdc6a"},"vehicle_type_id":"4","last_reported":1721408855,"current_range_meters":0,"station_id":"ce4bhq92rcd13ifvqhjg","pricing_plan_id":"cebpf4jnsgd1na2vs0mg"},{"bike_id":"11a6ba27-e351-4dd3-9b99-e9ebffad6830","system_id":"levelo_inurba_marseille","lat":43.323464,"lon":5.406297,"is_reserved":false,"is_disabled":false,"rental_uris":{"android":"levelo://app?vid=11a6ba27-e351-4dd3-9b99-e9ebffad6830","ios":"levelo://app?vid=11a6ba27-e351-4dd3-9b99-e9ebffad6830"},"vehicle_type_id":"4","last_reported":1721408855,"current_range_meters":11200,"station_id":"ce4bhq92rcd13ifvqhjg","pricing_plan_id":"cebpf4jnsgd1na2vs0mg"},{"bike_id":"2ee2ddcf-2dba-47d0-ae9c-f64276433281","system_id":"levelo_inurba_marseille","lat":43.323464,"lon":5.406297,"is_reserved":false,"is_disabled":false,"rental_uris":{"android":"levelo://app?vid=2ee2ddcf-2dba-47d0-ae9c-f64276433281","ios":"levelo://app?vid=2ee2ddcf-2dba-47d0-ae9c-f64276433281"},"vehicle_type_id":"4","last_reported":1721408855,"current_range_meters":30000,"station_id":"ce4bhq92rcd13ifvqhjg","pricing_plan_id":"cebpf4jnsgd1na2vs0mg"},{"bike_id":"b01a5fef-2e31-4323-bb19-728ad6efb962","system_id":"levelo_inurba_marseille","lat":43.283494,"lon":5.380945,"is_reserved":false,"is_disabled":false,"rental_uris":{"android":"levelo://app?vid=b01a5fef-2e31-4323-bb19-728ad6efb962","ios":"levelo://app?vid=b01a5fef-2e31-4323-bb19-728ad6efb962"},"vehicle_type_id":"4","last_reported":1721408855,"current_range_meters":800,"station_id":"ce4bh412rcd13ifvqdr0","pricing_plan_id":"cebpf4jnsgd1na2vs0mg"},{"bike_id":"144f00f8-8ed8-4364-997b-52b9fc732cad","system_id":"levelo_inurba_marseille","lat":43.28427,"lon":5.350012,"is_reserved":false,"is_disabled":false,"rental_uris":{"android":"levelo://app?vid=144f00f8-8ed8-4364-997b-52b9fc732cad","ios":"levelo://app?vid=144f00f8-8ed8-4364-997b-52b9fc732cad"},"vehicle_type_id":"4","last_reported":1721408855,"current_range_meters":0,"station_id":"ce4bhbh2rcd13ifvqepg","pricing_plan_id":"cebpf4jnsgd1na2vs0mg"},{"bike_id":"3206a138-438c-4569-9709-06c0ed4a152c","system_id":"levelo_inurba_marseille","lat":43.284776,"lon":5.385603,"is_reserved":false,"is_disabled":false,"rental_uris":{"android":"levelo://app?vid=3206a138-438c-4569-9709-06c0ed4a152c","ios":"levelo://app?vid=3206a138-438c-4569-9709-06c0ed4a152c"},"vehicle_type_id":"4","last_reported":1721408855,"current_range_meters":0,"station_id":"ce4bh8p2rcd13ifvqeb0","pricing_plan_id":"cebpf4jnsgd1na2vs0mg"},{"bike_id":"763b0cdd-59d4-4a3f-bdbe-adcab2d39046","system_id":"levelo_inurba_marseille","lat":43.28428,"lon":5.34983,"is_reserved":false,"is_disabled":false,"rental_uris":{"android":"levelo://app?vid=763b0cdd-59d4-4a3f-bdbe-adcab2d39046","ios":"levelo://app?vid=763b0cdd-59d4-4a3f-bdbe-adcab2d39046"},"vehicle_type_id":"4","last_reported":1721408855,"current_range_meters":30000,"station_id":"ce4bhbh2rcd13ifvqepg","pricing_plan_id":"cebpf4jnsgd1na2vs0mg"},{"bike_id":"5aacd088-d5a6-4cd3-83a3-c11191736117","system_id":"levelo_inurba_marseille","lat":43.284264,"lon":5.349876,"is_reserved":false,"is_disabled":false,"rental_uris":{"android":"levelo://app?vid=5aacd088-d5a6-4cd3-83a3-c11191736117","ios":"levelo://app?vid=5aacd088-d5a6-4cd3-83a3-c11191736117"},"vehicle_type_id":"4","last_reported":1721408855,"current_range_meters":18400,"station_id":"ce4bhbh2rcd13ifvqepg","pricing_plan_id":"cebpf4jnsgd1na2vs0mg"},{"bike_id":"e72edf5f-de15-4665-91aa-1093aaf660c2","system_id":"levelo_inurba_marseille","lat":43.284214,"lon":5.349706,"is_reserved":false,"is_disabled":false,"rental_uris":{"android":"levelo://app?vid=e72edf5f-de15-4665-91aa-1093aaf660c2","ios":"levelo://app?vid=e72edf5f-de15-4665-91aa-1093aaf660c2"},"vehicle_type_id":"4","last_reported":1721408855,"current_range_meters":9600,"station_id":"ce4bhbh2rcd13ifvqepg","pricing_plan_id":"cebpf4jnsgd1na2vs0mg"},{"bike_id":"8eab00ec-f191-4002-bd43-cde297f0632c","system_id":"levelo_inurba_marseille","lat":43.284214,"lon":5.349706,"is_reserved":false,"is_disabled":false,"rental_uris":{"android":"levelo://app?vid=8eab00ec-f191-4002-bd43-cde297f0632c","ios":"levelo://app?vid=8eab00ec-f191-4002-bd43-cde297f0632c"},"vehicle_type_id":"4","last_reported":1721408855,"current_range_meters":29200,"station_id":"ce4bhbh2rcd13ifvqepg","pricing_plan_id":"cebpf4jnsgd1na2vs0mg"},{"bike_id":"bc6dcc68-40f0-4982-a18c-accb1486a91e","system_id":"levelo_inurba_marseille","lat":43.284252,"lon":5.349887,"is_reserved":false,"is_disabled":false,"rental_uris":{"android":"levelo://app?vid=bc6dcc68-40f0-4982-a18c-accb1486a91e","ios":"levelo://app?vid=bc6dcc68-40f0-4982-a18c-accb1486a91e"},"vehicle_type_id":"4","last_reported":1721408855,"current_range_meters":8800,"station_id":"ce4bhbh2rcd13ifvqepg","pricing_plan_id":"cebpf4jnsgd1na2vs0mg"},{"bike_id":"1d20729d-6a77-4926-879d-72de4bd48bbe","system_id":"levelo_inurba_marseille","lat":43.284214,"lon":5.349706,"is_reserved":false,"is_disabled":false,"rental_uris":{"android":"levelo://app?vid=1d20729d-6a77-4926-879d-72de4bd48bbe","ios":"levelo://app?vid=1d20729d-6a77-4926-879d-72de4bd48bbe"},"vehicle_type_id":"4","last_reported":1721408855,"current_range_meters":23200,"station_id":"ce4bhbh2rcd13ifvqepg","pricing_plan_id":"cebpf4jnsgd1na2vs0mg"},{"bike_id":"5c98fc45-4306-40c6-adb8-6129c5537a52","system_id":"levelo_inurba_marseille","lat":43.284214,"lon":5.349706,"is_reserved":false,"is_disabled":false,"rental_uris":{"android":"levelo://app?vid=5c98fc45-4306-40c6-adb8-6129c5537a52","ios":"levelo://app?vid=5c98fc45-4306-40c6-adb8-6129c5537a52"},"vehicle_type_id":"4","last_reported":1721408855,"current_range_meters":8400,"station_id":"ce4bhbh2rcd13ifvqepg","pricing_plan_id":"cebpf4jnsgd1na2vs0mg"},{"bike_id":"6dfbba8d-ac0a-451a-9f97-486304d2aef7","system_id":"levelo_inurba_marseille","lat":43.284231,"lon":5.349902,"is_reserved":false,"is_disabled":false,"rental_uris":{"android":"levelo://app?vid=6dfbba8d-ac0a-451a-9f97-486304d2aef7","ios":"levelo://app?vid=6dfbba8d-ac0a-451a-9f97-486304d2aef7"},"vehicle_type_id":"4","last_reported":1721408855,"current_range_meters":29200,"station_id":"ce4bhbh2rcd13ifvqepg","pricing_plan_id":"cebpf4jnsgd1na2vs0mg"},{"bike_id":"17f5adde-75b6-4910-9761-d3bb0f69e7bd","system_id":"levelo_inurba_marseille","lat":43.284225,"lon":5.349916,"is_reserved":false,"is_disabled":false,"rental_uris":{"android":"levelo://app?vid=17f5adde-75b6-4910-9761-d3bb0f69e7bd","ios":"levelo://app?vid=17f5adde-75b6-4910-9761-d3bb0f69e7bd"},"vehicle_type_id":"4","last_reported":1721408855,"current_range_meters":17200,"station_id":"ce4bhbh2rcd13ifvqepg","pricing_plan_id":"cebpf4jnsgd1na2vs0mg"},{"bike_id":"70a10d4f-b1bc-4adf-bd63-43153b70b9da","system_id":"levelo_inurba_marseille","lat":43.28427,"lon":5.34977,"is_reserved":false,"is_disabled":false,"rental_uris":{"android":"levelo://app?vid=70a10d4f-b1bc-4adf-bd63-43153b70b9da","ios":"levelo://app?vid=70a10d4f-b1bc-4adf-bd63-43153b70b9da"},"vehicle_type_id":"4","last_reported":1721408855,"current_range_meters":10400,"station_id":"ce4bhbh2rcd13ifvqepg","pricing_plan_id":"cebpf4jnsgd1na2vs0mg"},{"bike_id":"0e8316bb-b0e6-4398-bcab-e352a1d87d09","system_id":"levelo_inurba_marseille","lat":43.28422,"lon":5.34992,"is_reserved":false,"is_disabled":false,"rental_uris":{"android":"levelo://app?vid=0e8316bb-b0e6-4398-bcab-e352a1d87d09","ios":"levelo://app?vid=0e8316bb-b0e6-4398-bcab-e352a1d87d09"},"vehicle_type_id":"4","last_reported":1721408855,"current_range_meters":16400,"station_id":"ce4bhbh2rcd13ifvqepg","pricing_plan_id":"cebpf4jnsgd1na2vs0mg"},{"bike_id":"df4d945f-06df-4e4c-8928-8b965ef2168f","system_id":"levelo_inurba_marseille","lat":43.284217,"lon":5.349697,"is_reserved":false,"is_disabled":false,"rental_uris":{"android":"levelo://app?vid=df4d945f-06df-4e4c-8928-8b965ef2168f","ios":"levelo://app?vid=df4d945f-06df-4e4c-8928-8b965ef2168f"},"vehicle_type_id":"4","last_reported":1721408855,"current_range_meters":6400,"station_id":"ce4bhbh2rcd13ifvqepg","pricing_plan_id":"cebpf4jnsgd1na2vs0mg"},{"bike_id":"dc5cf6dd-5c72-4b11-8762-f588aef2bfbb","system_id":"levelo_inurba_marseille","lat":43.28424,"lon":5.34982,"is_reserved":false,"is_disabled":false,"rental_uris":{"android":"levelo://app?vid=dc5cf6dd-5c72-4b11-8762-f588aef2bfbb","ios":"levelo://app?vid=dc5cf6dd-5c72-4b11-8762-f588aef2bfbb"},"vehicle_type_id":"4","last_reported":1721408855,"current_range_meters":24000,"station_id":"ce4bhbh2rcd13ifvqepg","pricing_plan_id":"cebpf4jnsgd1na2vs0mg"},{"bike_id":"8cc6e015-b714-4bd3-85e1-95f12dcd6b27","system_id":"levelo_inurba_marseille","lat":43.284208,"lon":5.349917,"is_reserved":false,"is_disabled":false,"rental_uris":{"android":"levelo://app?vid=8cc6e015-b714-4bd3-85e1-95f12dcd6b27","ios":"levelo://app?vid=8cc6e015-b714-4bd3-85e1-95f12dcd6b27"},"vehicle_type_id":"4","last_reported":1721408855,"current_range_meters":31200,"station_id":"ce4bhbh2rcd13ifvqepg","pricing_plan_id":"cebpf4jnsgd1na2vs0mg"},{"bike_id":"4b29c6ef-2f0c-49a3-9d93-112cdade8fdb","system_id":"levelo_inurba_marseille","lat":43.284206,"lon":5.349916,"is_reserved":false,"is_disabled":false,"rental_uris":{"android":"levelo://app?vid=4b29c6ef-2f0c-49a3-9d93-112cdade8fdb","ios":"levelo://app?vid=4b29c6ef-2f0c-49a3-9d93-112cdade8fdb"},"vehicle_type_id":"4","last_reported":1721408855,"current_range_meters":17200,"station_id":"ce4bhbh2rcd13ifvqepg","pricing_plan_id":"cebpf4jnsgd1na2vs0mg"},{"bike_id":"05380e0b-87e8-48ea-b480-cd135979b6c8","system_id":"levelo_inurba_marseille","lat":43.28423,"lon":5.34983,"is_reserved":false,"is_disabled":false,"rental_uris":{"android":"levelo://app?vid=05380e0b-87e8-48ea-b480-cd135979b6c8","ios":"levelo://app?vid=05380e0b-87e8-48ea-b480-cd135979b6c8"},"vehicle_type_id":"4","last_reported":1721408855,"current_range_meters":25200,"station_id":"ce4bhbh2rcd13ifvqepg","pricing_plan_id":"cebpf4jnsgd1na2vs0mg"},{"bike_id":"e9482bd0-8d33-4e6e-ab1d-58cc81b2bde8","system_id":"levelo_inurba_marseille","lat":43.28425,"lon":5.34974,"is_reserved":false,"is_disabled":false,"rental_uris":{"android":"levelo://app?vid=e9482bd0-8d33-4e6e-ab1d-58cc81b2bde8","ios":"levelo://app?vid=e9482bd0-8d33-4e6e-ab1d-58cc81b2bde8"},"vehicle_type_id":"4","last_reported":1721408855,"current_range_meters":31200,"station_id":"ce4bhbh2rcd13ifvqepg","pricing_plan_id":"cebpf4jnsgd1na2vs0mg"},{"bike_id":"9299d715-d6ba-4f5b-b3b4-8712f0d16f99","system_id":"levelo_inurba_marseille","lat":43.28418,"lon":5.34996,"is_reserved":false,"is_disabled":false,"rental_uris":{"android":"levelo://app?vid=9299d715-d6ba-4f5b-b3b4-8712f0d16f99","ios":"levelo://app?vid=9299d715-d6ba-4f5b-b3b4-8712f0d16f99"},"vehicle_type_id":"4","last_reported":1721408855,"current_range_meters":6800,"station_id":"ce4bhbh2rcd13ifvqepg","pricing_plan_id":"cebpf4jnsgd1na2vs0mg"},{"bike_id":"c3b9093d-1ac3-4481-af00-e9ca11259eba","system_id":"levelo_inurba_marseille","lat":43.284214,"lon":5.349706,"is_reserved":false,"is_disabled":false,"rental_uris":{"android":"levelo://app?vid=c3b9093d-1ac3-4481-af00-e9ca11259eba","ios":"levelo://app?vid=c3b9093d-1ac3-4481-af00-e9ca11259eba"},"vehicle_type_id":"4","last_reported":1721408855,"current_range_meters":18000,"station_id":"ce4bhbh2rcd13ifvqepg","pricing_plan_id":"cebpf4jnsgd1na2vs0mg"},