{"last_updated":1678946993,"ttl":30,"version":"2.2","data":{"bikes":[{"bike_id":"1254bf78-fc33-4932-90d7-5aac8e894ca7","system_id":"levelo_inurba_marseille","lat":43.309076,"lon":5.368465,"is_reserved":false,"is_disabled":false,"rental_uris":{"android":"levelo://app?vid=1254bf78-fc33-4932-90d7-5aac8e894ca7","ios":"levelo://app?vid=1254bf78-fc33-4932-90d7-5aac8e894ca7"},"vehicle_type_id":"4","last_reported":1678946993,"current_range_meters":21600,"station_id":"ce4bgn92rcd13ifvqbvg","pricing_plan_id":"free"},{"bike_id":"47496908-0161-4cf5-9497-3f0d52381615","system_id":"levelo_inurba_marseille","lat":43.309076,"lon":5.368465,"is_reserved":false,"is_disabled":false,"rental_uris":{"android":"levelo://app?vid=47496908-0161-4cf5-9497-3f0d52381615","ios":"levelo://app?vid=47496908-0161-4cf5-9497-3f0d52381615"},"vehicle_type_id":"4","last_reported":1678946993,"current_range_meters":22000,"station_id":"ce4bgn92rcd13ifvqbvg","pricing_plan_id":"free"},{"bike_id":"c37ad831-46e2-4899-849c-a4438eed46df","system_id":"levelo_inurba_marseille","lat":43.309076,"lon":5.368465,"is_reserved":false,"is_disabled":false,"rental_uris":{"android":"levelo://app?vid=c37ad831-46e2-4899-849c-a4438eed46df","ios":"levelo://app?vid=c37ad831-46e2-4899-849c-a4438eed46df"},"vehicle_type_id":"4","last_reported":1678946993,"current_range_meters":24400,"station_id":"ce4bgn92rcd13ifvqbvg","pricing_plan_id":"free"},{"bike_id":"4cf41e89-b1a6-4ec5-bf40-75cf3258d11a","system_id":"levelo_inurba_marseille","lat":43.309076,"lon":5.368465,"is_reserved":false,"is_disabled":false,"rental_uris":{"android":"levelo://app?vid=4cf41e89-b1a6-4ec5-bf40-75cf3258d11a","ios":"levelo://app?vid=4cf41e89-b1a6-4ec5-bf40-75cf3258d11a"},"vehicle_type_id":"4","last_reported":1678946993,"current_range_meters":25600,"station_id":"ce4bgn92rcd13ifvqbvg","pricing_plan_id":"free"},{"bike_id":"b4d4e9c7-58bc-4c4e-b80f-4b136c8abfb5","system_id":"levelo_inurba_marseille","lat":43.309076,"lon":5.368465,"is_reserved":false,"is_disabled":false,"rental_uris":{"android":"levelo://app?vid=b4d4e9c7-58bc-4c4e-b80f-4b136c8abfb5","ios":"levelo://app?vid=b4d4e9c7-58bc-4c4e-b80f-4b136c8abfb5"},"vehicle_type_id":"4","last_reported":1678946993,"current_range_meters":26000,"station_id":"ce4bgn92rcd13ifvqbvg","pricing_plan_id":"free"},{"bike_id":"a68d8393-688d-431c-ac0a-2eed504fcf5c","system_id":"levelo_inurba_marseille","lat":43.309076,"lon":5.368465,"is_reserved":false,"is_disabled":false,"rental_uris":{"android":"levelo://app?vid=a68d8393-688d-431c-ac0a-2eed504fcf5c","ios":"levelo://app?vid=a68d8393-688d-431c-ac0a-2eed504fcf5c"},"vehicle_type_id":"4","last_reported":1678946993,"current_range_meters":28000,"station_id":"ce4bgn92rcd13ifvqbvg","pricing_plan_id":"free"},{"bike_id":"5321a542-54a0-4760-82a3-51ec1a0c8eba","system_id":"levelo_inurba_marseille","lat":43.309076,"lon":5.368465,"is_reserved":false,"is_disabled":false,"rental_uris":{"android":"levelo://app?vid=5321a542-54a0-4760-82a3-51ec1a0c8eba","ios":"levelo://app?vid=5321a542-54a0-4760-82a3-51ec1a0c8eba"},"vehicle_type_id":"4","last_reported":1678946993,"current_range_meters":24400,"station_id":"ce4bgn92rcd13ifvqbvg","pricing_plan_id":"free"},{"bike_id":"95e6049c-2605-47c4-b001-3baae7c54289","system_id":"levelo_inurba_marseille","lat":43.309076,"lon":5.368465,"is_reserved":false,"is_disabled":false,"rental_uris":{"android":"levelo://app?vid=95e6049c-2605-47c4-b001-3baae7c54289","ios":"levelo://app?vid=95e6049c-2605-47c4-b001-3baae7c54289"},"vehicle_type_id":"4","last_reported":1678946993,"current_range_meters":28400,"station_id":"ce4bgn92rcd13ifvqbvg","pricing_plan_id":"free"},{"bike_id":"fc7b0183-8dbc-4d42-bfe1-dab4d2624f75","system_id":"levelo_inurba_marseille","lat":43.309076,"lon":5.368465,"is_reserved":false,"is_disabled":false,"rental_uris":{"android":"levelo://app?vid=fc7b0183-8dbc-4d42-bfe1-dab4d2624f75","ios":"levelo://app?vid=fc7b0183-8dbc-4d42-bfe1-dab4d2624f75"},"vehicle_type_id":"4","last_reported":1678946993,"current_range_meters":22400,"station_id":"ce4bgn92rcd13ifvqbvg","pricing_plan_id":"free"},{"bike_id":"72b51999-c1c4-4f8f-bb67-358ec1c1b629","system_id":"levelo_inurba_marseille","lat":43.309076,"lon":5.368465,"is_reserved":false,"is_disabled":false,"rental_uris":{"android":"levelo://app?vid=72b51999-c1c4-4f8f-bb67-358ec1c1b629","ios":"levelo://app?vid=72b51999-c1c4-4f8f-bb67-358ec1c1b629"},"vehicle_type_id":"4","last_reported":1678946993,"current_range_meters":25200,"station_id":"ce4bgn92rcd13ifvqbvg","pricing_plan_id":"free"},{"bike_id":"a12bc9da-26aa-4d73-885a-9b0fb35d9edd","system_id":"levelo_inurba_marseille","lat":43.309076,"lon":5.368465,"is_reserved":false,"is_disabled":false,"rental_uris":{"android":"levelo://app?vid=a12bc9da-26aa-4d73-885a-9b0fb35d9edd","ios":"levelo://app?vid=a12bc9da-26aa-4d73-885a-9b0fb35d9edd"},"vehicle_type_id":"4","last_reported":1678946993,"current_range_meters":29200,"station_id":"ce4bgn92rcd13ifvqbvg","pricing_plan_id":"free"},{"bike_id":"b82e16db-5572-4a1a-8dd9-e1380f043210","system_id":"levelo_inurba_marseille","lat":43.309076,"lon":5.368465,"is_reserved":false,"is_disabled":false,"rental_uris":{"android":"levelo://app?vid=b82e16db-5572-4a1a-8dd9-e1380f043210","ios":"levelo://app?vid=b82e16db-5572-4a1a-8dd9-e1380f043210"},"vehicle_type_id":"4","last_reported":1678946993,"current_range_meters":12400,"station_id":"ce4bgn92rcd13ifvqbvg","pricing_plan_id":"free"},{"bike_id":"c3ea06f4-9104-4d45-9c76-0173605c7779","system_id":"levelo_inurba_marseille","lat":43.309076,"lon":5.368465,"is_reserved":false,"is_disabled":false,"rental_uris":{"android":"levelo://app?vid=c3ea06f4-9104-4d45-9c76-0173605c7779","ios":"levelo://app?vid=c3ea06f4-9104-4d45-9c76-0173605c7779"},"vehicle_type_id":"4","last_reported":1678946993,"current_range_meters":23600,"station_id":"ce4bgn92rcd13ifvqbvg","pricing_plan_id":"free"},{"bike_id":"eeee9c6c-292f-4b38-8820-d53974d0aaee","system_id":"levelo_inurba_marseille","lat":43.314811,"lon":5.373103,"is_reserved":false,"is_disabled":false,"rental_uris":{"android":"levelo://app?vid=eeee9c6c-292f-4b38-8820-d53974d0aaee","ios":"levelo://app?vid=eeee9c6c-292f-4b38-8820-d53974d0aaee"},"vehicle_type_id":"4","last_reported":1678946993,"current_range_meters":6800,"station_id":"ce4bgt12rcd13ifvqcd0","pricing_plan_id":"free"},{"bike_id":"d7fc06c9-95b7-450b-817e-cb37a20ff9b3","system_id":"levelo_inurba_marseille","lat":43.314811,"lon":5.373103,"is_reserved":false,"is_disabled":false,"rental_uris":{"android":"levelo://app?vid=d7fc06c9-95b7-450b-817e-cb37a20ff9b3","ios":"levelo://app?vid=d7fc06c9-95b7-450b-817e-cb37a20ff9b3"},"vehicle_type_id":"4","last_reported":1678946993,"current_range_meters":0,"station_id":"ce4bgt12rcd13ifvqcd0","pricing_plan_id":"free"},{"bike_id":"d63f7a72-0ce3-45b6-893f-35ff1cf7cf87","system_id":"levelo_inurba_marseille","lat":43.308614,"lon":5.372098,"is_reserved":false,"is_disabled":false,"rental_uris":{"android":"levelo://app?vid=d63f7a72-0ce3-45b6-893f-35ff1cf7cf87","ios":"levelo://app?vid=d63f7a72-0ce3-45b6-893f-35ff1cf7cf87"},"vehicle_type_id":"4","last_reported":1678946993,"current_range_meters":4800,"station_id":"ce4bguh2rcd13ifvqckg","pricing_plan_id":"free"},{"bike_id":"439cef63-d55d-4416-adbf-7688f062e9c5","system_id":"levelo_inurba_marseille","lat":43.319702,"lon":5.366109,"is_reserved":false,"is_disabled":false,"rental_uris":{"android":"levelo://app?vid=439cef63-d55d-4416-adbf-7688f062e9c5","ios":"levelo://app?vid=439cef63-d55d-4416-adbf-7688f062e9c5"},"vehicle_type_id":"4","last_reported":1678946993,"current_range_meters":0,"station_id":"","pricing_plan_id":"free"},{"bike_id":"5988d63b-51dd-4a46-af91-2e6cc4827ab7","system_id":"levelo_inurba_marseille","lat":43.305021,"lon":5.367165,"is_reserved":false,"is_disabled":false,"rental_uris":{"android":"levelo://app?vid=5988d63b-51dd-4a46-af91-2e6cc4827ab7","ios":"levelo://app?vid=5988d63b-51dd-4a46-af91-2e6cc4827ab7"},"vehicle_type_id":"4","last_reported":1678946993,"current_range_meters":0,"station_id":"","pricing_plan_id":"free"},{"bike_id":"7b24eb50-39f3-4e58-b91a-44546fcd7185","system_id":"levelo_inurba_marseille","lat":43.317075,"lon":5.377367,"is_reserved":false,"is_disabled":false,"rental_uris":{"android":"levelo://app?vid=7b24eb50-39f3-4e58-b91a-44546fcd7185","ios":"levelo://app?vid=7b24eb50-39f3-4e58-b91a-44546fcd7185"},"vehicle_type_id":"4","last_reported":1678946993,"current_range_meters":31600,"station_id":"ce4bgth2rcd13ifvqch0","pricing_plan_id":"free"},{"bike_id":"1cf6af16-3f6b-4964-8c06-804960a18216","system_id":"levelo_inurba_marseille","lat":43.301944,"lon":5.366223,"is_reserved":false,"is_disabled":false,"rental_uris":{"android":"levelo://app?vid=1cf6af16-3f6b-4964-8c06-804960a18216","ios":"levelo://app?vid=1cf6af16-3f6b-4964-8c06-804960a18216"},"vehicle_type_id":"4","last_reported":1678946993,"current_range_meters":24800,"station_id":"ce4bgrh2rcd13ifvqc8g","pricing_plan_id":"free"},{"bike_id":"eb4258c4-20ed-4e9d-a431-c884f6a0464b","system_id":"levelo_inurba_marseille","lat":43.301939,"lon":5.366286,"is_reserved":false,"is_disabled":false,"rental_uris":{"android":"levelo://app?vid=eb4258c4-20ed-4e9d-a431-c884f6a0464b","ios":"levelo://app?vid=eb4258c4-20ed-4e9d-a431-c884f6a0464b"},"vehicle_type_id":"4","last_reported":1678946993,"current_range_meters":22800,"station_id":"ce4bgrh2rcd13ifvqc8g","pricing_plan_id":"free"},{"bike_id":"c465eed8-80ae-4dfc-acc9-30ec30b4675f","system_id":"levelo_inurba_marseille","lat":43.304606,"lon":5.379026,"is_reserved":false,"is_disabled":false,"rental_uris":{"android":"levelo://app?vid=c465eed8-80ae-4dfc-acc9-30ec30b4675f","ios":"levelo://app?vid=c465eed8-80ae-4dfc-acc9-30ec30b4675f"},"vehicle_type_id":"4","last_reported":1678946993,"current_range_meters":26400,"station_id":"ce4bgup2rcd13ifvqcn0","pricing_plan_id":"free"},{"bike_id":"6aff741b-8cc7-4f43-90c0-dbb16f9a153d","system_id":"levelo_inurba_marseille","lat":43.304606,"lon":5.379026,"is_reserved":false,"is_disabled":false,"rental_uris":{"android":"levelo://app?vid=6aff741b-8cc7-4f43-90c0-dbb16f9a153d","ios":"levelo://app?vid=6aff741b-8cc7-4f43-90c0-dbb16f9a153d"},"vehicle_type_id":"4","last_reported":1678946993,"current_range_meters":10000,"station_id":"ce4bgup2rcd13ifvqcn0","pricing_plan_id":"free"},{"bike_id":"6433e3a8-dc53-42f3-b8bb-d10a0cb55934","system_id":"levelo_inurba_marseille","lat":43.304606,"lon":5.379026,"is_reserved":false,"is_disabled":false,"rental_uris":{"android":"levelo://app?vid=6433e3a8-dc53-42f3-b8bb-d10a0cb55934","ios":"levelo://app?vid=6433e3a8-dc53-42f3-b8bb-d10a0cb55934"},"vehicle_type_id":"4","last_reported":1678946993,"current_range_meters":21200,"station_id":"ce4bgup2rcd13ifvqcn0","pricing_plan_id":"free"},{"bike_id":"c66a4958-8bdb-4eee-87ea-581c0be10a41","system_id":"levelo_inurba_marseille","lat":43.304606,"lon":5.379026,"is_reserved":false,"is_disabled":false,"rental_uris":{"android":"levelo://app?vid=c66a4958-8bdb-4eee-87ea-581c0be10a41","ios":"levelo://app?vid=c66a4958-8bdb-4eee-87ea-581c0be10a41"},"vehicle_type_id":"4","last_reported":1678946993,"current_range_meters":26400,"station_id":"ce4bgup2rcd13ifvqcn0","pricing_plan_id":"free"},{"bike_id":"5909740d-a466-4108-a538-497e02a20943","system_id":"levelo_inurba_marseille","lat":43.304606,"lon":5.379026,"is_reserved":false,"is_disabled":false,"rental_uris":{"android":"levelo://app?vid=5909740d-a466-4108-a538-497e02a20943","ios":"levelo://app?vid=5909740d-a466-4108-a538-497e02a20943"},"vehicle_type_id":"4","last_reported":1678946993,"current_range_meters":7600,"station_id":"ce4bgup2rcd13ifvqcn0","pricing_plan_id":"free"},{"bike_id":"f489bb03-3a82-47dc-885a-2906677fb08c","system_id":"levelo_inurba_marseille","lat":43.304606,"lon":5.379026,"is_reserved":false,"is_disabled":false,"rental_uris":{"android":"levelo://app?vid=f489bb03-3a82-47dc-885a-2906677fb08c","ios":"levelo://app?vid=f489bb03-3a82-47dc-885a-2906677fb08c"},"vehicle_type_id":"4","last_reported":1678946993,"current_range_meters":29600,"station_id":"ce4bgup2rcd13ifvqcn0","pricing_plan_id":"free"},{"bike_id":"2a3278f2-10f6-449c-8e02-d0194f1050ee","system_id":"levelo_inurba_marseille","lat":43.304606,"lon":5.379026,"is_reserved":false,"is_disabled":false,"rental_uris":{"android":"levelo://app?vid=2a3278f2-10f6-449c-8e02-d0194f1050ee","ios":"levelo://app?vid=2a3278f2-10f6-449c-8e02-d0194f1050ee"},"vehicle_type_id":"4","last_reported":1678946993,"current_range_meters":18800,"station_id":"ce4bgup2rcd13ifvqcn0","pricing_plan_id":"free"},{"bike_id":"377ae3eb-b180-42b7-836b-789e5705b919","system_id":"levelo_inurba_marseille","lat":43.304606,"lon":5.379026,"is_reserved":false,"is_disabled":false,"rental_uris":{"android":"levelo://app?vid=377ae3eb-b180-42b7-836b-789e5705b919","ios":"levelo://app?vid=377ae3eb-b180-42b7-836b-789e5705b919"},"vehicle_type_id":"4","last_reported":1678946993,"current_range_meters":18000,"station_id":"ce4bgup2rcd13ifvqcn0","pricing_plan_id":"free"},{"bike_id":"8fe4cbef-f45d-4d87-ba00-97754ad4d765","system_id":"levelo_inurba_marseille","lat":43.304606,"lon":5.379026,"is_reserved":false,"is_disabled":false,"rental_uris":{"android":"levelo://app?vid=8fe4cbef-f45d-4d87-ba00-97754ad4d765","ios":"levelo://app?vid=8fe4cbef-f45d-4d87-ba00-97754ad4d765"},"vehicle_type_id":"4","last_reported":1678946993,"current_range_meters":26000,"station_id":"ce4bgup2rcd13ifvqcn0","pricing_plan_id":"free"},{"bike_id":"ec133dff-772c-46b6-a796-2973cb2c583f","system_id":"levelo_inurba_marseille","lat":43.304606,"lon":5.379026,"is_reserved":false,"is_disabled":false,"rental_uris":{"android":"levelo://app?vid=ec133dff-772c-46b6-a796-2973cb2c583f","ios":"levelo://app?vid=ec133dff-772c-46b6-a796-2973cb2c583f"},"vehicle_type_id":"4","last_reported":1678946993,"current_range_meters":17200,"station_id":"ce4bgup2rcd13ifvqcn0","pricing_plan_id":"free"},{"bike_id":"d78da0e4-5f8e-4091-9bde-6798075fd161","system_id":"levelo_inurba_marseille","lat":43.304606,"lon":5.379026,"is_reserved":false,"is_disabled":false,"rental_uris":{"android":"levelo://app?vid=d78da0e4-5f8e-4091-9bde-6798075fd161","ios":"levelo://app?vid=d78da0e4-5f8e-4091-9bde-6798075fd161"},"vehicle_type_id":"4","last_reported":1678946993,"current_range_meters":12000,"station_id":"ce4bgup2rcd13ifvqcn0","pricing_plan_id":"free"},{"bike_id":"31470b08-b651-457b-8fce-005973de4e54","system_id":"levelo_inurba_marseille","lat":43.304606,"lon":5.379026,"is_reserved":false,"is_disabled":false,"rental_uris":{"android":"levelo://app?vid=31470b08-b651-457b-8fce-005973de4e54","ios":"levelo://app?vid=31470b08-b651-457b-8fce-005973de4e54"},"vehicle_type_id":"4","last_reported":1678946993,"current_range_meters":6000,"station_id":"ce4bgup2rcd13ifvqcn0","pricing_plan_id":"free"},{"bike_id":"2eb33535-d484-4771-875f-2d12ee632822","system_id":"levelo_inurba_marseille","lat":43.304606,"lon":5.379026,"is_reserved":false,"is_disabled":false,"rental_uris":{"android":"levelo://app?vid=2eb33535-d484-4771-875f-2d12ee632822","ios":"levelo://app?vid=2eb33535-d484-4771-875f-2d12ee632822"},"vehicle_type_id":"4","last_reported":1678946993,"current_range_meters":26400,"station_id":"ce4bgup2rcd13ifvqcn0","pricing_plan_id":"free"},{"bike_id":"587a61d5-ad7e-4eb0-b080-12541d6a2422","system_id":"levelo_inurba_marseille","lat":43.304606,"lon":5.379026,"is_reserved":false,"is_disabled":false,"rental_uris":{"android":"levelo://app?vid=587a61d5-ad7e-4eb0-b080-12541d6a2422","ios":"levelo://app?vid=587a61d5-ad7e-4eb0-b080-12541d6a2422"},"vehicle_type_id":"4","last_reported":1678946993,"current_range_meters":24000,"station_id":"ce4bgup2rcd13ifvqcn0","pricing_plan_id":"free"},{"bike_id":"75d80507-69d2-4f65-b9a1-1bf8bc91486f","system_id":"levelo_inurba_marseille","lat":43.304606,"lon":5.379026,"is_reserved":false,"is_disabled":false,"rental_uris":{"android":"levelo://app?vid=75d80507-69d2-4f65-b9a1-1bf8bc91486f","ios":"levelo://app?vid=75d80507-69d2-4f65-b9a1-1bf8bc91486f"},"vehicle_type_id":"4","last_reported":1678946993,"current_range_meters":16000,"station_id":"ce4bgup2rcd13ifvqcn0","pricing_plan_id":"free"},{"bike_id":"83805768-3aaf-41fe-b663-38deeb930852","system_id":"levelo_inurba_marseille","lat":43.304606,"lon":5.379026,"is_reserved":false,"is_disabled":false,"rental_uris":{"android":"levelo://app?vid=83805768-3aaf-41fe-b663-38deeb930852","ios":"levelo://app?vid=83805768-3aaf-41fe-b663-38deeb930852"},"vehicle_type_id":"4","last_reported":1678946993,"current_range_meters":20800,"station_id":"ce4bgup2rcd13ifvqcn0","pricing_plan_id":"free"},{"bike_id":"2b04ea3b-5cfe-4ff7-801a-5eb81d141547","system_id":"levelo_inurba_marseille","lat":43.304606,"lon":5.379026,"is_reserved":false,"is_disabled":false,"rental_uris":{"android":"levelo://app?vid=2b04ea3b-5cfe-4ff7-801a-5eb81d141547","ios":"levelo://app?vid=2b04ea3b-5cfe-4ff7-801a-5eb81d141547"},"vehicle_type_id":"4","last_reported":1678946993,"current_range_meters":14800,"station_id":"ce4bgup2rcd13ifvqcn0","pricing_plan_id":"free"},{"bike_id":"447217be-bf83-4e3d-a144-93067b07cc95","system_id":"levelo_inurba_marseille","lat":43.304606,"lon":5.379026,"is_reserved":false,"is_disabled":false,"rental_uris":{"android":"levelo://app?vid=447217be-bf83-4e3d-a144-93067b07cc95","ios":"levelo://app?vid=447217be-bf83-4e3d-a144-93067b07cc95"},"vehicle_type_id":"4","last_reported":1678946993,"current_range_meters":25600,"station_id":"ce4bgup2rcd13ifvqcn0","pricing_plan_id":"free"},{"bike_id":"7bf25025-966b-4e57-9c60-c4921201869a","system_id":"levelo_inurba_marseille","lat":43.304606,"lon":5.379026,"is_reserved":false,"is_disabled":false,"rental_uris":{"android":"levelo://app?vid=7bf25025-966b-4e57-9c60-c4921201869a","ios":"levelo://app?vid=7bf25025-966b-4e57-9c60-c4921201869a"},"vehicle_type_id":"4","last_reported":1678946993,"current_range_meters":22000,"station_id":"ce4bgup2rcd13ifvqcn0","pricing_plan_id":"free"},{"bike_id":"477be08b-ebb4-4c55-b1b4-2b6f3e6efc45","system_id":"levelo_inurba_marseille","lat":43.30143,"lon":5.37413,"is_reserved":false,"is_disabled":false,"rental_uris":{"android":"levelo://app?vid=477be08b-ebb4-4c55-b1b4-2b6f3e6efc45","ios":"levelo://app?vid=477be08b-ebb4-4c55-b1b4-2b6f3e6efc45"},"vehicle_type_id":"4","last_reported":1678946993,"current_range_meters":0,"station_id":"ce4bgs92rcd13ifvqcc0","pricing_plan_id":"free"},{"bike_id":"e94da7f7-f591-44d6-bd72-c90d0ed42705","system_id":"levelo_inurba_marseille","lat":43.306855,"lon":5.382648,"is_reserved":false,"is_disabled":false,"rental_uris":{"android":"levelo://app?vid=e94da7f7-f591-44d6-bd72-c90d0ed42705","ios":"levelo://app?vid=e94da7f7-f591-44d6-bd72-c90d0ed42705"},"vehicle_type_id":"4","last_reported":1678946993,"current_range_meters":0,"station_id":"","pricing_plan_id":"free"},{"bike_id":"81f5f40d-ac7a-43e6-9f1a-35129f769a33","system_id":"levelo_inurba_marseille","lat":43.313571,"lon":5.384829,"is_reserved":false,"is_disabled":false,"rental_uris":{"android":"levelo://app?vid=81f5f40d-ac7a-43e6-9f1a-35129f769a33","ios":"levelo://app?vid=81f5f40d-ac7a-43e6-9f1a-35129f769a33"},"vehicle_type_id":"4","last_reported":1678946993,"current_range_meters":14400,"station_id":"ce4bgt92rcd13ifvqcf0","pricing_plan_id":"free"},{"bike_id":"365bcd01-4c97-4b32-af61-0594b4c4e6bd","system_id":"levelo_inurba_marseille","lat":43.313571,"lon":5.384829,"is_reserved":false,"is_disabled":false,"rental_uris":{"android":"levelo://app?vid=365bcd01-4c97-4b32-af61-0594b4c4e6bd","ios":"levelo://app?vid=365bcd01-4c97-4b32-af61-0594b4c4e6bd"},"vehicle_type_id":"4","last_reported":1678946993,"current_range_meters":7600,"station_id":"ce4bgt92rcd13ifvqcf0","pricing_plan_id":"free"},{"bike_id":"52f1f5f6-c514-4e54-9555-3518aad383f5","system_id":"levelo_inurba_marseille","lat":43.313571,"lon":5.384829,"is_reserved":false,"is_disabled":false,"rental_uris":{"android":"levelo://app?vid=52f1f5f6-c514-4e54-9555-3518aad383f5","ios":"levelo://app?vid=52f1f5f6-c514-4e54-9555-3518aad383f5"},"vehicle_type_id":"4","last_reported":1678946993,"current_range_meters":10800,"station_id":"ce4bgt92rcd13ifvqcf0","pricing_plan_id":"free"},{"bike_id":"d29cc535-5471-4a42-9238-9a9825bc55b1","system_id":"levelo_inurba_marseille","lat":43.313571,"lon":5.384829,"is_reserved":false,"is_disabled":false,"rental_uris":{"android":"levelo://app?vid=d29cc535-5471-4a42-9238-9a9825bc55b1","ios":"levelo://app?vid=d29cc535-5471-4a42-9238-9a9825bc55b1"},"vehicle_type_id":"4","last_reported":1678946993,"current_range_meters":9600,"station_id":"ce4bgt92rcd13ifvqcf0","pricing_plan_id":"free"},{"bike_id":"9f2895c5-7213-41b2-97f8-13fb0c2d26a9","system_id":"levelo_inurba_marseille","lat":43.313571,"lon":5.384829,"is_reserved":false,"is_disabled":false,"rental_uris":{"android":"levelo://app?vid=9f2895c5-7213-41b2-97f8-13fb0c2d26a9","ios":"levelo://app?vid=9f2895c5-7213-41b2-97f8-13fb0c2d26a9"},"vehicle_type_id":"4","last_reported":1678946993,"current_range_meters":800,"station_id":"ce4bgt92rcd13ifvqcf0","pricing_plan_id":"free"},{"bike_id":"812aee92-56dd-4892-af2e-66642d1e07ea","system_id":"levelo_inurba_marseille","lat":43.313571,"lon":5.384829,"is_reserved":false,"is_disabled":false,"rental_uris":{"android":"levelo://app?vid=812aee92-56dd-4892-af2e-66642d1e07ea","ios":"levelo://app?vid=812aee92-56dd-4892-af2e-66642d1e07ea"},"vehicle_type_id":"4","last_reported":1678946993,"current_range_meters":0,"station_id":"ce4bgt92rcd13ifvqcf0","pricing_plan_id":"free"},{"bike_id":"3425c642-b1a9-4056-a9b4-6d16616193e1","system_id":"levelo_inurba_marseille","lat":43.305393,"lon":5.383699,"is_reserved":false,"is_disabled":false,"rental_uris":{"android":"levelo://app?vid=3425c642-b1a9-4056-a9b4-6d16616193e1","ios":"levelo://app?vid=3425c642-b1a9-4056-a9b4-6d16616193e1"},"vehicle_type_id":"4","last_reported":1678946993,"current_range_meters":0,"station_id":"","pricing_plan_id":"free"},{"bike_id":"ed87d67b-3938-4eaf-8bd3-91df12f7cabd","system_id":"levelo_inurba_marseille","lat":43.298433,"lon":5.362774,"is_reserved":false,"is_disabled":false,"rental_uris":{"android":"levelo://app?vid=ed87d67b-3938-4eaf-8bd3-91df12f7cabd","ios":"levelo://app?vid=ed87d67b-3938-4eaf-8bd3-91df12f7cabd"},"vehicle_type_id":"4","last_reported":1678946993,"current_range_meters":28400,"station_id":"ce4bgpp2rcd13ifvqc3g","pricing_plan_id":"free"},{"bike_id":"d03f3625-7fac-430e-96f0-d91b01fe3509","system_id":"levelo_inurba_marseille","lat":43.311722,"lon":5.387247,"is_reserved":false,"is_disabled":false,"rental_uris":{"android":"levelo://app?vid=d03f3625-7fac-430e-96f0-d91b01fe3509","ios":"levelo://app?vid=d03f3625-7fac-430e-96f0-d91b01fe3509"},"vehicle_type_id":"4","last_reported":1678946993,"current_range_meters":27200,"station_id":"ce4bgv12rcd13ifvqcp0","pricing_plan_id":"free"},{"bike_id":"9f3219ac-2278-49c0-8ac5-4a78bce711fd","system_id":"levelo_inurba_marseille","lat":43.311722,"lon":5.387247,"is_reserved":false,"is_disabled":false,"rental_uris":{"android":"levelo://app?vid=9f3219ac-2278-49c0-8ac5-4a78bce711fd","ios":"levelo://app?vid=9f3219ac-2278-49c0-8ac5-4a78bce711fd"},"vehicle_type_id":"4","last_reported":1678946993,"current_range_meters":30000,"station_id":"ce4bgv12rcd13ifvqcp0","pricing_plan_id":"free"},{"bike_id":"6f1fe1b6-a4e8-4600-bb94-e030a4b23ce9","system_id":"levelo_inurba_marseille","lat":43.311722,"lon":5.387247,"is_reserved":false,"is_disabled":false,"rental_uris":{"android":"levelo://app?vid=6f1fe1b6-a4e8-4600-bb94-e030a4b23ce9","ios":"levelo://app?vid=6f1fe1b6-a4e8-4600-bb94-e030a4b23ce9"},"vehicle_type_id":"4","last_reported":1678946993,"current_range_meters":31600,"station_id":"ce4bgv12rcd13ifvqcp0","pricing_plan_id":"free"},{"bike_id":"9086a0cb-3266-41ff-906f-aff4c300acb5","system_id":"levelo_inurba_marseille","lat":43.311722,"lon":5.387247,"is_reserved":false,"is_disabled":false,"rental_uris":{"android":"levelo://app?vid=9086a0cb-3266-41ff-906f-aff4c300acb5","ios":"levelo://app?vid=9086a0cb-3266-41ff-906f-aff4c300acb5"},"vehicle_type_id":"4","last_reported":1678946993,"current_range_meters":31200,"station_id":"ce4bgv12rcd13ifvqcp0","pricing_plan_id":"free"},{"bike_id":"ac2f1eda-5465-44dc-84dc-e35cddfe5a89","system_id":"levelo_inurba_marseille","lat":43.311722,"lon":5.387247,"is_reserved":false,"is_disabled":false,"rental_uris":{"android":"levelo://app?vid=ac2f1eda-5465-44dc-84dc-e35cddfe5a89","ios":"levelo://app?vid=ac2f1eda-5465-44dc-84dc-e35cddfe5a89"},"vehicle_type_id":"4","last_reported":1678946993,"current_range_meters":9600,"station_id":"ce4bgv12rcd13ifvqcp0","pricing_plan_id":"free"},{"bike_id":"d894811d-ad94-44b8-89ff-52a7d770de8e","system_id":"levelo_inurba_marseille","lat":43.328272,"lon":5.366888,"is_reserved":false,"is_disabled":false,"rental_uris":{"android":"levelo://app?vid=d894811d-ad94-44b8-89ff-52a7d770de8e","ios":"levelo://app?vid=d894811d-ad94-44b8-89ff-52a7d770de8e"},"vehicle_type_id":"4","last_reported":1678946993,"current_range_meters":0,"station_id":"ce4bhs92rcd13ifvqi0g","pricing_plan_id":"free"},{"bike_id":"b25b5cb8-1e30-4f2f-b49f-6ba07fc5ad7f","system_id":"levelo_inurba_marseille","lat":43.32829,"lon":5.36685,"is_reserved":false,"is_disabled":false,"rental_uris":{"android":"levelo://app?vid=b25b5cb8-1e30-4f2f-b49f-6ba07fc5ad7f","ios":"levelo://app?vid=b25b5cb8-1e30-4f2f-b49f-6ba07fc5ad7f"},"vehicle_type_id":"4","last_reported":1678946993,"current_range_meters":22000,"station_id":"ce4bhs92rcd13ifvqi0g","pricing_plan_id":"free"},{"bike_id":"3f1ecbd0-cf15-4224-9648-75f1ceebf9d1","system_id":"levelo_inurba_marseille","lat":43.32829,"lon":5.3668,"is_reserved":false,"is_disabled":false,"rental_uris":{"android":"levelo://app?vid=3f1ecbd0-cf15-4224-9648-75f1ceebf9d1","ios":"levelo://app?vid=3f1ecbd0-cf15-4224-9648-75f1ceebf9d1"},"vehicle_type_id":"4","last_reported":1678946993,"current_range_meters":22800,"station_id":"ce4bhs92rcd13ifvqi0g","pricing_plan_id":"free"},{"bike_id":"61e87ae3-1630-4850-b4a1-3247adcaaef1","system_id":"levelo_inurba_marseille","lat":43.328323,"lon":5.366872,"is_reserved":false,"is_disabled":false,"rental_uris":{"android":"levelo://app?vid=61e87ae3-1630-4850-b4a1-3247adcaaef1","ios":"levelo://app?vid=61e87ae3-1630-4850-b4a1-3247adcaaef1"},"vehicle_type_id":"4","last_reported":1678946993,"current_range_meters":4000,"station_id":"","pricing_plan_id":"free"},{"bike_id":"df4bc3c7-85f8-44ad-b5ad-7f631bbd65c1","system_id":"levelo_inurba_marseille","lat":43.328324,"lon":5.366858,"is_reserved":false,"is_disabled":false,"rental_uris":{"android":"levelo://app?vid=df4bc3c7-85f8-44ad-b5ad-7f631bbd65c1","ios":"levelo://app?vid=df4bc3c7-85f8-44ad-b5ad-7f631bbd65c1"},"vehicle_type_id":"4","last_reported":1678946993,"current_range_meters":15600,"station_id":"ce4bhs92rcd13ifvqi0g","pricing_plan_id":"free"},{"bike_id":"a068649e-e639-48d5-b474-32fc330f3063","system_id":"levelo_inurba_marseille","lat":43.328325,"lon":5.366938,"is_reserved":false,"is_disabled":false,"rental_uris":{"android":"levelo://app?vid=a068649e-e639-48d5-b474-32fc330f3063","ios":"levelo://app?vid=a068649e-e639-48d5-b474-32fc330f3063"},"vehicle_type_id":"4","last_reported":1678946993,"current_range_meters":21200,"station_id":"ce4bhs92rcd13ifvqi0g","pricing_plan_id":"free"},{"bike_id":"61276a3b-a248-47d7-a858-9e09345028d8","system_id":"levelo_inurba_marseille","lat":43.328328,"lon":5.366929,"is_reserved":false,"is_disabled":false,"rental_uris":{"android":"levelo://app?vid=61276a3b-a248-47d7-a858-9e09345028d8","ios":"levelo://app?vid=61276a3b-a248-47d7-a858-9e09345028d8"},"vehicle_type_id":"4","last_reported":1678946993,"current_range_meters":2800,"station_id":"ce4bhs92rcd13ifvqi0g","pricing_plan_id":"free"},{"bike_id":"1bc07ca8-ed4d-42ea-a511-e057049d23ee","system_id":"levelo_inurba_marseille","lat":43.29853,"lon":5.378513,"is_reserved":false,"is_disabled":false,"rental_uris":{"android":"levelo://app?vid=1bc07ca8-ed4d-42ea-a511-e057049d23ee","ios":"levelo://app?vid=1bc07ca8-ed4d-42ea-a511-e057049d23ee"},"vehicle_type_id":"4","last_reported":1678946993,"current_range_meters":5600,"station_id":"","pricing_plan_id":"free"},{"bike_id":"5e2a2cc6-9f29-4bc3-870f-484a9faa6fcd","system_id":"levelo_inurba_marseille","lat":43.29573,"lon":5.367355,"is_reserved":false,"is_disabled":false,"rental_uris":{"android":"levelo://app?vid=5e2a2cc6-9f29-4bc3-870f-484a9faa6fcd","ios":"levelo://app?vid=5e2a2cc6-9f29-4bc3-870f-484a9faa6fcd"},"vehicle_type_id":"4","last_reported":1678946993,"current_range_meters":28800,"station_id":"ce4bgph2rcd13ifvqc2g","pricing_plan_id":"free"},{"bike_id":"db781b33-b2df-405c-9639-6f0876b17aa8","system_id":"levelo_inurba_marseille","lat":43.29573,"lon":5.367355,"is_reserved":false,"is_disabled":false,"rental_uris":{"android":"levelo://app?vid=db781b33-b2df-405c-9639-6f0876b17aa8","ios":"levelo://app?vid=db781b33-b2df-405c-9639-6f0876b17aa8"},"vehicle_type_id":"4","last_reported":1678946993,"current_range_meters":30400,"station_id":"ce4bgph2rcd13ifvqc2g","pricing_plan_id":"free"},{"bike_id":"d1ae40bf-2fa3-4371-b35f-0b6797c90d0e","system_id":"levelo_inurba_marseille","lat":43.309589,"lon":5.390258,"is_reserved":false,"is_disabled":false,"rental_uris":{"android":"levelo://app?vid=d1ae40bf-2fa3-4371-b35f-0b6797c90d0e","ios":"levelo://app?vid=d1ae40bf-2fa3-4371-b35f-0b6797c90d0e"},"vehicle_type_id":"4","last_reported":1678946993,"current_range_meters":29600,"station_id":"ce4bgup2rcd13ifvqco0","pricing_plan_id":"free"},{"bike_id":"2885090b-4ab0-4ecf-9afc-cf23c52f8201","system_id":"levelo_inurba_marseille","lat":43.309589,"lon":5.390258,"is_reserved":false,"is_disabled":false,"rental_uris":{"android":"levelo://app?vid=2885090b-4ab0-4ecf-9afc-cf23c52f8201","ios":"levelo://app?vid=2885090b-4ab0-4ecf-9afc-cf23c52f8201"},"vehicle_type_id":"4","last_reported":1678946993,"current_range_meters":31600,"station_id":"ce4bgup2rcd13ifvqco0","pricing_plan_id":"free"},{"bike_id":"dec9233e-e574-443c-88b3-6630f48e7f5d","system_id":"levelo_inurba_marseille","lat":43.309589,"lon":5.390258,"is_reserved":false,"is_disabled":false,"rental_uris":{"android":"levelo://app?vid=dec9233e-e574-443c-88b3-6630f48e7f5d","ios":"levelo://app?vid=dec9233e-e574-443c-88b3-6630f48e7f5d"},"vehicle_type_id":"4","last_reported":1678946993,"current_range_meters":29600,"station_id":"ce4bgup2rcd13ifvqco0","pricing_plan_id":"free"},{"bike_id":"7fd3e7d5-dcbb-44a7-95dd-24beb056c0c2","system_id":"levelo_inurba_marseille","lat":43.304278,"lon":5.388868,"is_reserved":false,"is_disabled":false,"rental_uris":{"android":"levelo://app?vid=7fd3e7d5-dcbb-44a7-95dd-24beb056c0c2","ios":"levelo://app?vid=7fd3e7d5-dcbb-44a7-95dd-24beb056c0c2"},"vehicle_type_id":"4","last_reported":1678946993,"current_range_meters":13600,"station_id":"ce4bgk12rcd13ifvqbi0","pricing_plan_id":"free"},{"bike_id":"5782e82a-24ac-4ca5-aaad-c76cd1b9bc9d","system_id":"levelo_inurba_marseille","lat":43.295748,"lon":5.37522,"is_reserved":false,"is_disabled":false,"rental_uris":{"android":"levelo://app?vid=5782e82a-24ac-4ca5-aaad-c76cd1b9bc9d","ios":"levelo://app?vid=5782e82a-24ac-4ca5-aaad-c76cd1b9bc9d"},"vehicle_type_id":"4","last_reported":1678946993,"current_range_meters":1200,"station_id":"ce4bgh92rcd13ifvqb50","pricing_plan_id":"free"},{"bike_id":"940e3ac4-6ca7-444a-9325-085502700d97","system_id":"levelo_inurba_marseille","lat":43.304278,"lon":5.388868,"is_reserved":false,"is_disabled":false,"rental_uris":{"android":"levelo://app?vid=940e3ac4-6ca7-444a-9325-085502700d97","ios":"levelo://app?vid=940e3ac4-6ca7-444a-9325-085502700d97"},"vehicle_type_id":"4","last_reported":1678946993,"current_range_meters":0,"station_id":"ce4bgk12rcd13ifvqbi0","pricing_plan_id":"free"},{"bike_id":"fae6cd4c-6137-47d6-a5d0-2bf03b592654","system_id":"levelo_inurba_marseille","lat":43.295748,"lon":5.37522,"is_reserved":false,"is_disabled":false,"rental_uris":{"android":"levelo://app?vid=fae6cd4c-6137-47d6-a5d0-2bf03b592654","ios":"levelo://app?vid=fae6cd4c-6137-47d6-a5d0-2bf03b592654"},"vehicle_type_id":"4","last_reported":1678946993,"current_range_meters":26800,"station_id":"ce4bgh92rcd13ifvqb50","pricing_plan_id":"free"},{"bike_id":"75da7629-2811-447e-a752-e7e970e80b37","system_id":"levelo_inurba_marseille","lat":43.299793,"lon":5.384933,"is_reserved":false,"is_disabled":false,"rental_uris":{"android":"levelo://app?vid=75da7629-2811-447e-a752-e7e970e80b37","ios":"levelo://app?vid=75da7629-2811-447e-a752-e7e970e80b37"},"vehicle_type_id":"4","last_reported":1678946993,"current_range_meters":0,"station_id":"","pricing_plan_id":"free"},{"bike_id":"869ccc29-7a6f-4430-902f-356a43ec82ba","system_id":"levelo_inurba_marseille","lat":43.2943,"lon":5.37408,"is_reserved":false,"is_disabled":false,"rental_uris":{"android":"levelo://app?vid=869ccc29-7a6f-4430-902f-356a43ec82ba","ios":"levelo://app?vid=869ccc29-7a6f-4430-902f-356a43ec82ba"},"vehicle_type_id":"4","last_reported":1678946993,"current_range_meters":0,"station_id":"","pricing_plan_id":"free"},{"bike_id":"b390b54b-bd09-4ac9-acb7-e1f37473b1e8","system_id":"levelo_inurba_marseille","lat":43.32367,"lon":5.388836,"is_reserved":false,"is_disabled":false,"rental_uris":{"android":"levelo://app?vid=b390b54b-bd09-4ac9-acb7-e1f37473b1e8","ios":"levelo://app?vid=b390b54b-bd09-4ac9-acb7-e1f37473b1e8"},"vehicle_type_id":"4","last_reported":1678946993,"current_range_meters":7200,"station_id":"ce4bhqp2rcd13ifvqhog","pricing_plan_id":"free"},{"bike_id":"21942cec-8a6e-4b01-8f9c-0d9cac4488d0","system_id":"levelo_inurba_marseille","lat":43.32367,"lon":5.388836,"is_reserved":false,"is_disabled":false,"rental_uris":{"android":"levelo://app?vid=21942cec-8a6e-4b01-8f9c-0d9cac4488d0","ios":"levelo://app?vid=21942cec-8a6e-4b01-8f9c-0d9cac4488d0"},"vehicle_type_id":"4","last_reported":1678946993,"current_range_meters":12400,"station_id":"ce4bhqp2rcd13ifvqhog","pricing_plan_id":"free"},{"bike_id":"8456916d-eef8-48e9-9e53-b7ead72ab421","system_id":"levelo_inurba_marseille","lat":43.32367,"lon":5.388836,"is_reserved":false,"is_disabled":false,"rental_uris":{"android":"levelo://app?vid=8456916d-eef8-48e9-9e53-b7ead72ab421","ios":"levelo://app?vid=8456916d-eef8-48e9-9e53-b7ead72ab421"},"vehicle_type_id":"4","last_reported":1678946993,"current_range_meters":26800,"station_id":"ce4bhqp2rcd13ifvqhog","pricing_plan_id":"free"},{"bike_id":"addf4342-2a0b-4fca-9dcf-e4cdaf425f82","system_id":"levelo_inurba_marseille","lat":43.32367,"lon":5.388836,"is_reserved":false,"is_disabled":false,"rental_uris":{"android":"levelo://app?vid=addf4342-2a0b-4fca-9dcf-e4cdaf425f82","ios":"levelo://app?vid=addf4342-2a0b-4fca-9dcf-e4cdaf425f82"},"vehicle_type_id":"4","last_reported":1678946993,"current_range_meters":16400,"station_id":"ce4bhqp2rcd13ifvqhog","pricing_plan_id":"free"},{"bike_id":"4c25f8c8-9b8c-4089-8843-c728edae5513","system_id":"levelo_inurba_marseille","lat":43.32367,"lon":5.388836,"is_reserved":false,"is_disabled":false,"rental_uris":{"android":"levelo://app?vid=4c25f8c8-9b8c-4089-8843-c728edae5513","ios":"levelo://app?vid=4c25f8c8-9b8c-4089-8843-c728edae5513"},"vehicle_type_id":"4","last_reported":1678946993,"current_range_meters":14400,"station_id":"ce4bhqp2rcd13ifvqhog","pricing_plan_id":"free"},{"bike_id":"a808b8d9-6228-4724-84f4-46578b1508c9","system_id":"levelo_inurba_marseille","lat":43.32367,"lon":5.388836,"is_reserved":false,"is_disabled":false,"rental_uris":{"android":"levelo://app?vid=a808b8d9-6228-4724-84f4-46578b1508c9","ios":"levelo://app?vid=a808b8d9-6228-4724-84f4-46578b1508c9"},"vehicle_type_id":"4","last_reported":1678946993,"current_range_meters":0,"station_id":"ce4bhqp2rcd13ifvqhog","pricing_plan_id":"free"},{"bike_id":"83ac2e38-1ea8-40f0-bc0d-30d7ec38c593","system_id":"levelo_inurba_marseille","lat":43.32367,"lon":5.388836,"is_reserved":false,"is_disabled":false,"rental_uris":{"android":"levelo://app?vid=83ac2e38-1ea8-40f0-bc0d-30d7ec38c593","ios":"levelo://app?vid=83ac2e38-1ea8-40f0-bc0d-30d7ec38c593"},"vehicle_type_id":"4","last_reported":1678946993,"current_range_meters":30400,"station_id":"ce4bhqp2rcd13ifvqhog","pricing_plan_id":"free"},{"bike_id":"673e9078-e30d-4da4-b477-ca4d7c3f3464","system_id":"levelo_inurba_marseille","lat":43.293249,"lon":5.371578,"is_reserved":false,"is_disabled":false,"rental_uris":{"android":"levelo://app?vid=673e9078-e30d-4da4-b477-ca4d7c3f3464","ios":"levelo://app?vid=673e9078-e30d-4da4-b477-ca4d7c3f3464"},"vehicle_type_id":"4","last_reported":1678946993,"current_range_meters":11600,"station_id":"ce4bgh92rcd13ifvqb40","pricing_plan_id":"free"},{"bike_id":"8f805ca1-2879-41e7-9eac-5bc9b9a72c89","system_id":"levelo_inurba_marseille","lat":43.2927,"lon":5.359736,"is_reserved":false,"is_disabled":false,"rental_uris":{"android":"levelo://app?vid=8f805ca1-2879-41e7-9eac-5bc9b9a72c89","ios":"levelo://app?vid=8f805ca1-2879-41e7-9eac-5bc9b9a72c89"},"vehicle_type_id":"4","last_reported":1678946993,"current_range_meters":3600,"station_id":"","pricing_plan_id":"free"},{"bike_id":"e0c9272b-425d-44ee-870f-9735ee06a094","system_id":"levelo_inurba_marseille","lat":43.292311,"lon":5.360731,"is_reserved":false,"is_disabled":false,"rental_uris":{"android":"levelo://app?vid=e0c9272b-425d-44ee-870f-9735ee06a094","ios":"levelo://app?vid=e0c9272b-425d-44ee-870f-9735ee06a094"},"vehicle_type_id":"4","last_reported":1678946993,"current_range_meters":5200,"station_id":"ce4bhbh2rcd13ifvqeqg","pricing_plan_id":"free"},{"bike_id":"b3648487-3de3-40ad-93ce-222c983aded4","system_id":"levelo_inurba_marseille","lat":43.291675,"lon":5.371583,"is_reserved":false,"is_disabled":false,"rental_uris":{"android":"levelo://app?vid=b3648487-3de3-40ad-93ce-222c983aded4","ios":"levelo://app?vid=b3648487-3de3-40ad-93ce-222c983aded4"},"vehicle_type_id":"4","last_reported":1678946993,"current_range_meters":0,"station_id":"ce4bha92rcd13ifvqeh0","pricing_plan_id":"free"},{"bike_id":"52d38384-a5b4-4a29-a89b-5c782e2e133a","system_id":"levelo_inurba_marseille","lat":43.313291,"lon":5.396838,"is_reserved":false,"is_disabled":false,"rental_uris":{"android":"levelo://app?vid=52d38384-a5b4-4a29-a89b-5c782e2e133a","ios":"levelo://app?vid=52d38384-a5b4-4a29-a89b-5c782e2e133a"},"vehicle_type_id":"4","last_reported":1678946993,"current_range_meters":20000,"station_id":"ce4bgvp2rcd13ifvqcu0","pricing_plan_id":"free"},{"bike_id":"52f4fea3-1a73-4251-b90d-8d291db4a608","system_id":"levelo_inurba_marseille","lat":43.313291,"lon":5.396838,"is_reserved":false,"is_disabled":false,"rental_uris":{"android":"levelo://app?vid=52f4fea3-1a73-4251-b90d-8d291db4a608","ios":"levelo://app?vid=52f4fea3-1a73-4251-b90d-8d291db4a608"},"vehicle_type_id":"4","last_reported":1678946993,"current_range_meters":29200,"station_id":"ce4bgvp2rcd13ifvqcu0","pricing_plan_id":"free"},{"bike_id":"4f740943-6208-4791-9dff-33cfeaebcdee","system_id":"levelo_inurba_marseille","lat":43.313291,"lon":5.396838,"is_reserved":false,"is_disabled":false,"rental_uris":{"android":"levelo://app?vid=4f740943-6208-4791-9dff-33cfeaebcdee","ios":"levelo://app?vid=4f740943-6208-4791-9dff-33cfeaebcdee"},"vehicle_type_id":"4","last_reported":1678946993,"current_range_meters":12400,"station_id":"ce4bgvp2rcd13ifvqcu0","pricing_plan_id":"free"},{"bike_id":"ec3144fc-1874-4f8c-a438-a7ca92572ed5","system_id":"levelo_inurba_marseille","lat":43.313291,"lon":5.396838,"is_reserved":false,"is_disabled":false,"rental_uris":{"android":"levelo://app?vid=ec3144fc-1874-4f8c-a438-a7ca92572ed5","ios":"levelo://app?vid=ec3144fc-1874-4f8c-a438-a7ca92572ed5"},"vehicle_type_id":"4","last_reported":1678946993,"current_range_meters":24400,"station_id":"ce4bgvp2rcd13ifvqcu0","pricing_plan_id":"free"},{"bike_id":"3c00b7d5-223d-41d5-8044-d600f6f8fd45","system_id":"levelo_inurba_marseille","lat":43.313291,"lon":5.396838,"is_reserved":false,"is_disabled":false,"rental_uris":{"android":"levelo://app?vid=3c00b7d5-223d-41d5-8044-d600f6f8fd45","ios":"levelo://app?vid=3c00b7d5-223d-41d5-8044-d600f6f8fd45"},"vehicle_type_id":"4","last_reported":1678946993,"current_range_meters":29200,"station_id":"ce4bgvp2rcd13ifvqcu0","pricing_plan_id":"free"},{"bike_id":"92d5a00f-ddb1-4af8-823b-7c1ee4a3b988","system_id":"levelo_inurba_marseille","lat":43.32251,"lon":5.39468,"is_reserved":false,"is_disabled":false,"rental_uris":{"android":"levelo://app?vid=92d5a00f-ddb1-4af8-823b-7c1ee4a3b988","ios":"levelo://app?vid=92d5a00f-ddb1-4af8-823b-7c1ee4a3b988"},"vehicle_type_id":"4","last_reported":1678946993,"current_range_meters":5600,"station_id":"","pricing_plan_id":"free"},{"bike_id":"4dbc4523-e84f-4a88-afc7-aaea9a2ada17","system_id":"levelo_inurba_marseille","lat":43.290624,"lon":5.359245,"is_reserved":false,"is_disabled":false,"rental_uris":{"android":"levelo://app?vid=4dbc4523-e84f-4a88-afc7-aaea9a2ada17","ios":"levelo://app?vid=4dbc4523-e84f-4a88-afc7-aaea9a2ada17"},"vehicle_type_id":"4","last_reported":1678946993,"current_range_meters":16000,"station_id":"ce4bha92rcd13ifvqeg0","pricing_plan_id":"free"},{"bike_id":"80c9196f-aaa3-461c-bcdd-7abf00ef6893","system_id":"levelo_inurba_marseille","lat":43.289432,"lon":5.366281,"is_reserved":false,"is_disabled":false,"rental_uris":{"android":"levelo://app?vid=80c9196f-aaa3-461c-bcdd-7abf00ef6893","ios":"levelo://app?vid=80c9196f-aaa3-461c-bcdd-7abf00ef6893"},"vehicle_type_id":"4","last_reported":1678946993,"current_range_meters":0,"station_id":"","pricing_plan_id":"free"},{"bike_id":"39cdeb8b-8daa-4cd1-a543-91d30aaa6359","system_id":"levelo_inurba_marseille","lat":43.30427,"lon":5.39752,"is_reserved":false,"is_disabled":false,"rental_uris":{"android":"levelo://app?vid=39cdeb8b-8daa-4cd1-a543-91d30aaa6359","ios":"levelo://app?vid=39cdeb8b-8daa-4cd1-a543-91d30aaa6359"},"vehicle_type_id":"4","last_reported":1678946993,"current_range_meters":11200,"station_id":"","pricing_plan_id":"free"},{"bike_id":"0f4ac15a-8de2-4d53-955b-92049a5de83c","system_id":"levelo_inurba_marseille","lat":43.30425,"lon":5.397545,"is_reserved":false,"is_disabled":false,"rental_uris":{"android":"levelo://app?vid=0f4ac15a-8de2-4d53-955b-92049a5de83c","ios":"levelo://app?vid=0f4ac15a-8de2-4d53-955b-92049a5de83c"},"vehicle_type_id":"4","last_reported":1678946993,"current_range_meters":20000,"station_id":"","pricing_plan_id":"free"},{"bike_id":"698cd8b6-8866-4c27-a103-fbc11606c8e3","system_id":"levelo_inurba_marseille","lat":43.290104,"lon":5.356111,"is_reserved":false,"is_disabled":false,"rental_uris":{"android":"levelo://app?vid=698cd8b6-8866-4c27-a103-fbc11606c8e3","ios":"levelo://app?vid=698cd8b6-8866-4c27-a103-fbc11606c8e3"},"vehicle_type_id":"4","last_reported":1678946993,"current_range_meters":25200,"station_id":"ce4bhb92rcd13ifvqen0","pricing_plan_id":"free"},{"bike_id":"1207d575-9b70-4249-b7d1-e3e698bf9b6c","system_id":"levelo_inurba_marseille","lat":43.330442,"lon":5.389148,"is_reserved":false,"is_disabled":false,"rental_uris":{"android":"levelo://app?vid=1207d575-9b70-4249-b7d1-e3e698bf9b6c","ios":"levelo://app?vid=1207d575-9b70-4249-b7d1-e3e698bf9b6c"},"vehicle_type_id":"4","last_reported":1678946993,"current_range_meters":0,"station_id":"ce4bhr92rcd13ifvqhrg","pricing_plan_id":"free"},{"bike_id":"bac6081a-042d-46d4-9926-783de1c9bec2","system_id":"levelo_inurba_marseille","lat":43.290104,"lon":5.356111,"is_reserved":false,"is_disabled":false,"rental_uris":{"android":"levelo://app?vid=bac6081a-042d-46d4-9926-783de1c9bec2","ios":"levelo://app?vid=bac6081a-042d-46d4-9926-783de1c9bec2"},"vehicle_type_id":"4","last_reported":1678946993,"current_range_meters":3600,"station_id":"ce4bhb92rcd13ifvqen0","pricing_plan_id":"free"},{"bike_id":"0dbf783c-31fd-499e-8ebc-c337379481d6","system_id":"levelo_inurba_marseille","lat":43.30642,"lon":5.401031,"is_reserved":false,"is_disabled":false,"rental_uris":{"android":"levelo://app?vid=0dbf783c-31fd-499e-8ebc-c337379481d6","ios":"levelo://app?vid=0dbf783c-31fd-499e-8ebc-c337379481d6"},"vehicle_type_id":"4","last_reported":1678946993,"current_range_meters":12800,"station_id":"ce4bh112rcd13ifvqda0","pricing_plan_id":"free"},{"bike_id":"b37c9b88-5770-4d91-80e6-fcf5d1ca448f","system_id":"levelo_inurba_marseille","lat":43.337531,"lon":5.374439,"is_reserved":false,"is_disabled":false,"rental_uris":{"android":"levelo://app?vid=b37c9b88-5770-4d91-80e6-fcf5d1ca448f","ios":"levelo://app?vid=b37c9b88-5770-4d91-80e6-fcf5d1ca448f"},"vehicle_type_id":"4","last_reported":1678946993,"current_range_meters":30000,"station_id":"","pricing_plan_id":"free"},{"bike_id":"7ad2f54f-922c-429a-b2c8-486f7b8fe164","system_id":"levelo_inurba_marseille","lat":43.30642,"lon":5.401031,"is_reserved":false,"is_disabled":false,"rental_uris":{"android":"levelo://app?vid=7ad2f54f-922c-429a-b2c8-486f7b8fe164","ios":"levelo://app?vid=7ad2f54f-922c-429a-b2c8-486f7b8fe164"},"vehicle_type_id":"4","last_reported":1678946993,"current_range_meters":5200,"station_id":"ce4bh112rcd13ifvqda0","pricing_plan_id":"free"},{"bike_id":"f3703038-5d5f-4c17-aec6-6ba76d71435c","system_id":"levelo_inurba_marseille","lat":43.301384,"lon":5.398699,"is_reserved":false,"is_disabled":false,"rental_uris":{"android":"levelo://app?vid=f3703038-5d5f-4c17-aec6-6ba76d71435c","ios":"levelo://app?vid=f3703038-5d5f-4c17-aec6-6ba76d71435c"},"vehicle_type_id":"4","last_reported":1678946993,"current_range_meters":21200,"station_id":"","pricing_plan_id":"free"},{"bike_id":"3eddc584-e3d3-45f2-a5a4-7554ecbad844","system_id":"levelo_inurba_marseille","lat":43.298681,"lon":5.397225,"is_reserved":false,"is_disabled":false,"rental_uris":{"android":"levelo://app?vid=3eddc584-e3d3-45f2-a5a4-7554ecbad844","ios":"levelo://app?vid=3eddc584-e3d3-45f2-a5a4-7554ecbad844"},"vehicle_type_id":"4","last_reported":1678946993,"current_range_meters":29600,"station_id":"ce4bh0h2rcd13ifvqd50","pricing_plan_id":"free"},{"bike_id":"9df923c6-7966-41fb-bf2a-118903e2e802","system_id":"levelo_inurba_marseille","lat":43.286593,"lon":5.363346,"is_reserved":false,"is_disabled":false,"rental_uris":{"android":"levelo://app?vid=9df923c6-7966-41fb-bf2a-118903e2e802","ios":"levelo://app?vid=9df923c6-7966-41fb-bf2a-118903e2e802"},"vehicle_type_id":"4","last_reported":1678946993,"current_range_meters":26000,"station_id":"ce4bhah2rcd13ifvqej0","pricing_plan_id":"free"},{"bike_id":"9078ab25-0fa2-4176-9133-f438dbfda9b5","system_id":"levelo_inurba_marseille","lat":43.286593,"lon":5.363346,"is_reserved":false,"is_disabled":false,"rental_uris":{"android":"levelo://app?vid=9078ab25-0fa2-4176-9133-f438dbfda9b5","ios":"levelo://app?vid=9078ab25-0fa2-4176-9133-f438dbfda9b5"},"vehicle_type_id":"4","last_reported":1678946993,"current_range_meters":3600,"station_id":"ce4bhah2rcd13ifvqej0","pricing_plan_id":"free"},{"bike_id":"4776f611-2fde-45b4-bc0f-d785d8ad784f","system_id":"levelo_inurba_marseille","lat":43.298681,"lon":5.397225,"is_reserved":false,"is_disabled":false,"rental_uris":{"android":"levelo://app?vid=4776f611-2fde-45b4-bc0f-d785d8ad784f","ios":"levelo://app?vid=4776f611-2fde-45b4-bc0f-d785d8ad784f"},"vehicle_type_id":"4","last_reported":1678946993,"current_range_meters":30000,"station_id":"ce4bh0h2rcd13ifvqd50","pricing_plan_id":"free"},{"bike_id":"9991a574-7eff-460d-af65-223f414b1a0a","system_id":"levelo_inurba_marseille","lat":43.295271,"lon":5.393945,"is_reserved":false,"is_disabled":false,"rental_uris":{"android":"levelo://app?vid=9991a574-7eff-460d-af65-223f414b1a0a","ios":"levelo://app?vid=9991a574-7eff-460d-af65-223f414b1a0a"},"vehicle_type_id":"4","last_reported":1678946993,"current_range_meters":26400,"station_id":"ce4bh212rcd13ifvqde0","pricing_plan_id":"free"},{"bike_id":"e53fbb2e-8091-4de4-96f3-638dd775aa62","system_id":"levelo_inurba_marseille","lat":43.295206,"lon":5.393989,"is_reserved":false,"is_disabled":false,"rental_uris":{"android":"levelo://app?vid=e53fbb2e-8091-4de4-96f3-638dd775aa62","ios":"levelo://app?vid=e53fbb2e-8091-4de4-96f3-638dd775aa62"},"vehicle_type_id":"4","last_reported":1678946993,"current_range_meters":31600,"station_id":"ce4bh292rcd13ifvqdf0","pricing_plan_id":"free"},{"bike_id":"d4d7f0f0-92c7-4b49-bfc0-5f8e5d2b5b74","system_id":"levelo_inurba_marseille","lat":43.286039,"lon":5.370679,"is_reserved":false,"is_disabled":false,"rental_uris":{"android":"levelo://app?vid=d4d7f0f0-92c7-4b49-bfc0-5f8e5d2b5b74","ios":"levelo://app?vid=d4d7f0f0-92c7-4b49-bfc0-5f8e5d2b5b74"},"vehicle_type_id":"4","last_reported":1678946993,"current_range_meters":400,"station_id":"ce4bht12rcd13ifvqi60","pricing_plan_id":"free"},{"bike_id":"c59863ce-ce7a-423c-b83e-d8702041734f","system_id":"levelo_inurba_marseille","lat":43.287159,"lon":5.379357,"is_reserved":false,"is_disabled":false,"rental_uris":{"android":"levelo://app?vid=c59863ce-ce7a-423c-b83e-d8702041734f","ios":"levelo://app?vid=c59863ce-ce7a-423c-b83e-d8702041734f"},"vehicle_type_id":"4","last_reported":1678946993,"current_range_meters":0,"station_id":"","pricing_plan_id":"free"},{"bike_id":"f2a04e5b-4a99-4a08-b64e-7213844dcfc4","system_id":"levelo_inurba_marseille","lat":43.287135,"lon":5.379419,"is_reserved":false,"is_disabled":false,"rental_uris":{"android":"levelo://app?vid=f2a04e5b-4a99-4a08-b64e-7213844dcfc4","ios":"levelo://app?vid=f2a04e5b-4a99-4a08-b64e-7213844dcfc4"},"vehicle_type_id":"4","last_reported":1678946993,"current_range_meters":0,"station_id":"ce4bh9p2rcd13ifvqec0","pricing_plan_id":"free"},{"bike_id":"8e868719-bd9d-47cd-83a3-7745510c11ac","system_id":"levelo_inurba_marseille","lat":43.316517,"lon":5.404375,"is_reserved":false,"is_disabled":false,"rental_uris":{"android":"levelo://app?vid=8e868719-bd9d-47cd-83a3-7745510c11ac","ios":"levelo://app?vid=8e868719-bd9d-47cd-83a3-7745510c11ac"},"vehicle_type_id":"4","last_reported":1678946993,"current_range_meters":18000,"station_id":"ce4bh012rcd13ifvqd00","pricing_plan_id":"free"},{"bike_id":"d530f5ee-ba20-49de-b773-7a5fd5ca6eb5","system_id":"levelo_inurba_marseille","lat":43.316517,"lon":5.404375,"is_reserved":false,"is_disabled":false,"rental_uris":{"android":"levelo://app?vid=d530f5ee-ba20-49de-b773-7a5fd5ca6eb5","ios":"levelo://app?vid=d530f5ee-ba20-49de-b773-7a5fd5ca6eb5"},"vehicle_type_id":"4","last_reported":1678946993,"current_range_meters":18000,"station_id":"ce4bh012rcd13ifvqd00","pricing_plan_id":"free"},{"bike_id":"043aabb7-6b04-4935-88ba-619e7ddc9881","system_id":"levelo_inurba_marseille","lat":43.316517,"lon":5.404375,"is_reserved":false,"is_disabled":false,"rental_uris":{"android":"levelo://app?vid=043aabb7-6b04-4935-88ba-619e7ddc9881","ios":"levelo://app?vid=043aabb7-6b04-4935-88ba-619e7ddc9881"},"vehicle_type_id":"4","last_reported":1678946993,"current_range_meters":13200,"station_id":"ce4bh012rcd13ifvqd00","pricing_plan_id":"free"},{"bike_id":"59f1d4ee-1ac3-43cd-8930-42a79c7a6a31","system_id":"levelo_inurba_marseille","lat":43.316517,"lon":5.404375,"is_reserved":false,"is_disabled":false,"rental_uris":{"android":"levelo://app?vid=59f1d4ee-1ac3-43cd-8930-42a79c7a6a31","ios":"levelo://app?vid=59f1d4ee-1ac3-43cd-8930-42a79c7a6a31"},"vehicle_type_id":"4","last_reported":1678946993,"current_range_meters":16000,"station_id":"ce4bh012rcd13ifvqd00","pricing_plan_id":"free"},{"bike_id":"f7af8d6b-ce6b-4eab-acb1-9b05edeca1aa","system_id":"levelo_inurba_marseille","lat":43.316503,"lon":5.404403,"is_reserved":false,"is_disabled":false,"rental_uris":{"android":"levelo://app?vid=f7af8d6b-ce6b-4eab-acb1-9b05edeca1aa","ios":"levelo://app?vid=f7af8d6b-ce6b-4eab-acb1-9b05edeca1aa"},"vehicle_type_id":"4","last_reported":1678946993,"current_range_meters":4400,"station_id":"","pricing_plan_id":"free"},{"bike_id":"a4311828-e2ab-4f66-aab4-2d510d848faf","system_id":"levelo_inurba_marseille","lat":43.31648,"lon":5.40444,"is_reserved":false,"is_disabled":false,"rental_uris":{"android":"levelo://app?vid=a4311828-e2ab-4f66-aab4-2d510d848faf","ios":"levelo://app?vid=a4311828-e2ab-4f66-aab4-2d510d848faf"},"vehicle_type_id":"4","last_reported":1678946993,"current_range_meters":5200,"station_id":"ce4bh012rcd13ifvqd00","pricing_plan_id":"free"},{"bike_id":"7bdcf89e-def5-452b-8e0a-e3cc10b1f7ea","system_id":"levelo_inurba_marseille","lat":43.284534,"lon":5.358662,"is_reserved":false,"is_disabled":false,"rental_uris":{"android":"levelo://app?vid=7bdcf89e-def5-452b-8e0a-e3cc10b1f7ea","ios":"levelo://app?vid=7bdcf89e-def5-452b-8e0a-e3cc10b1f7ea"},"vehicle_type_id":"4","last_reported":1678946993,"current_range_meters":8000,"station_id":"ce4bhah2rcd13ifvqei0","pricing_plan_id":"free"},{"bike_id":"b0594579-eea9-4155-97a5-dc0e0c253c84","system_id":"levelo_inurba_marseille","lat":43.284534,"lon":5.358662,"is_reserved":false,"is_disabled":false,"rental_uris":{"android":"levelo://app?vid=b0594579-eea9-4155-97a5-dc0e0c253c84","ios":"levelo://app?vid=b0594579-eea9-4155-97a5-dc0e0c253c84"},"vehicle_type_id":"4","last_reported":1678946993,"current_range_meters":2000,"station_id":"ce4bhah2rcd13ifvqei0","pricing_plan_id":"free"},{"bike_id":"18a0e4ef-1fd6-4fac-a61b-a0a6786fca16","system_id":"levelo_inurba_marseille","lat":43.284593,"lon":5.35893,"is_reserved":false,"is_disabled":false,"rental_uris":{"android":"levelo://app?vid=18a0e4ef-1fd6-4fac-a61b-a0a6786fca16","ios":"levelo://app?vid=18a0e4ef-1fd6-4fac-a61b-a0a6786fca16"},"vehicle_type_id":"4","last_reported":1678946993,"current_range_meters":19600,"station_id":"","pricing_plan_id":"free"},{"bike_id":"6ad02cbb-083c-401d-9fe2-62b99ca5356c","system_id":"levelo_inurba_marseille","lat":43.284588,"lon":5.358962,"is_reserved":false,"is_disabled":false,"rental_uris":{"android":"levelo://app?vid=6ad02cbb-083c-401d-9fe2-62b99ca5356c","ios":"levelo://app?vid=6ad02cbb-083c-401d-9fe2-62b99ca5356c"},"vehicle_type_id":"4","last_reported":1678946993,"current_range_meters":18400,"station_id":"ce4bhah2rcd13ifvqei0","pricing_plan_id":"free"},{"bike_id":"6c86db45-cb62-42ba-ab47-63485ca1a647","system_id":"levelo_inurba_marseille","lat":43.284534,"lon":5.358662,"is_reserved":false,"is_disabled":false,"rental_uris":{"android":"levelo://app?vid=6c86db45-cb62-42ba-ab47-63485ca1a647","ios":"levelo://app?vid=6c86db45-cb62-42ba-ab47-63485ca1a647"},"vehicle_type_id":"4","last_reported":1678946993,"current_range_meters":16800,"station_id":"ce4bhah2rcd13ifvqei0","pricing_plan_id":"free"},{"bike_id":"f602a9b4-8dfb-4aa8-a4db-6856e75b7a83","system_id":"levelo_inurba_marseille","lat":43.284534,"lon":5.358662,"is_reserved":false,"is_disabled":false,"rental_uris":{"android":"levelo://app?vid=f602a9b4-8dfb-4aa8-a4db-6856e75b7a83","ios":"levelo://app?vid=f602a9b4-8dfb-4aa8-a4db-6856e75b7a83"},"vehicle_type_id":"4","last_reported":1678946993,"current_range_meters":0,"station_id":"ce4bhah2rcd13ifvqei0","pricing_plan_id":"free"},{"bike_id":"540155df-12d4-4b0b-93e8-6386c91c6cb2","system_id":"levelo_inurba_marseille","lat":43.284534,"lon":5.358662,"is_reserved":false,"is_disabled":false,"rental_uris":{"android":"levelo://app?vid=540155df-12d4-4b0b-93e8-6386c91c6cb2","ios":"levelo://app?vid=540155df-12d4-4b0b-93e8-6386c91c6cb2"},"vehicle_type_id":"4","last_reported":1678946993,"current_range_meters":10800,"station_id":"ce4bhah2rcd13ifvqei0","pricing_plan_id":"free"},{"bike_id":"facf2475-b1e8-4a1b-b9c4-23daf07dbc4b","system_id":"levelo_inurba_marseille","lat":43.284534,"lon":5.358662,"is_reserved":false,"is_disabled":false,"rental_uris":{"android":"levelo://app?vid=facf2475-b1e8-4a1b-b9c4-23daf07dbc4b","ios":"levelo://app?vid=facf2475-b1e8-4a1b-b9c4-23daf07dbc4b"},"vehicle_type_id":"4","last_reported":1678946993,"current_range_meters":16800,"station_id":"ce4bhah2rcd13ifvqei0","pricing_plan_id":"free"},{"bike_id":"ce0d4665-c41f-481f-8ad4-f8d6796bae07","system_id":"levelo_inurba_marseille","lat":43.284534,"lon":5.358662,"is_reserved":false,"is_disabled":false,"rental_uris":{"android":"levelo://app?vid=ce0d4665-c41f-481f-8ad4-f8d6796bae07","ios":"levelo://app?vid=ce0d4665-c41f-481f-8ad4-f8d6796bae07"},"vehicle_type_id":"4","last_reported":1678946993,"current_range_meters":12800,"station_id":"ce4bhah2rcd13ifvqei0","pricing_plan_id":"free"},{"bike_id":"ae5f0943-0138-4f55-abf3-8f7ce060568e","system_id":"levelo_inurba_marseille","lat":43.284534,"lon":5.358662,"is_reserved":false,"is_disabled":false,"rental_uris":{"android":"levelo://app?vid=ae5f0943-0138-4f55-abf3-8f7ce060568e","ios":"levelo://app?vid=ae5f0943-0138-4f55-abf3-8f7ce060568e"},"vehicle_type_id":"4","last_reported":1678946993,"current_range_meters":0,"station_id":"ce4bhah2rcd13ifvqei0","pricing_plan_id":"free"},{"bike_id":"5829f9ca-6c06-4c3f-b2a3-680568a3192e","system_id":"levelo_inurba_marseille","lat":43.284534,"lon":5.358662,"is_reserved":false,"is_disabled":false,"rental_uris":{"android":"levelo://app?vid=5829f9ca-6c06-4c3f-b2a3-680568a3192e","ios":"levelo://app?vid=5829f9ca-6c06-4c3f-b2a3-680568a3192e"},"vehicle_type_id":"4","last_reported":1678946993,"current_range_meters":16000,"station_id":"ce4bhah2rcd13ifvqei0","pricing_plan_id":"free"},{"bike_id":"7b6fa71b-3cfd-4322-a8d6-cb6fd8f1341b","system_id":"levelo_inurba_marseille","lat":43.284534,"lon":5.358662,"is_reserved":false,"is_disabled":false,"rental_uris":{"android":"levelo://app?vid=7b6fa71b-3cfd-4322-a8d6-cb6fd8f1341b","ios":"levelo://app?vid=7b6fa71b-3cfd-4322-a8d6-cb6fd8f1341b"},"vehicle_type_id":"4","last_reported":1678946993,"current_range_meters":22400,"station_id":"ce4bhah2rcd13ifvqei0","pricing_plan_id":"free"},{"bike_id":"67e83027-2f79-4b3d-8f8f-a61a8db40ddc","system_id":"levelo_inurba_marseille","lat":43.33717,"lon":5.391857,"is_reserved":false,"is_disabled":false,"rental_uris":{"android":"levelo://app?vid=67e83027-2f79-4b3d-8f8f-a61a8db40ddc","ios":"levelo://app?vid=67e83027-2f79-4b3d-8f8f-a61a8db40ddc"},"vehicle_type_id":"4","last_reported":1678946993,"current_range_meters":13600,"station_id":"ce4bhr92rcd13ifvqhsg","pricing_plan_id":"free"},{"bike_id":"3a6f38b9-b9cc-4171-9bd6-c985d4a0ccc5","system_id":"levelo_inurba_marseille","lat":43.33717,"lon":5.391857,"is_reserved":false,"is_disabled":false,"rental_uris":{"android":"levelo://app?vid=3a6f38b9-b9cc-4171-9bd6-c985d4a0ccc5","ios":"levelo://app?vid=3a6f38b9-b9cc-4171-9bd6-c985d4a0ccc5"},"vehicle_type_id":"4","last_reported":1678946993,"current_range_meters":22800,"station_id":"ce4bhr92rcd13ifvqhsg","pricing_plan_id":"free"},{"bike_id":"15df1050-e905-43ff-99b8-0146d350e97e","system_id":"levelo_inurba_marseille","lat":43.33717,"lon":5.391857,"is_reserved":false,"is_disabled":false,"rental_uris":{"android":"levelo://app?vid=15df1050-e905-43ff-99b8-0146d350e97e","ios":"levelo://app?vid=15df1050-e905-43ff-99b8-0146d350e97e"},"vehicle_type_id":"4","last_reported":1678946993,"current_range_meters":24000,"station_id":"ce4bhr92rcd13ifvqhsg","pricing_plan_id":"free"},{"bike_id":"d0aa1e4c-312a-41c0-b187-587e4460478d","system_id":"levelo_inurba_marseille","lat":43.323399,"lon":5.406151,"is_reserved":false,"is_disabled":false,"rental_uris":{"android":"levelo://app?vid=d0aa1e4c-312a-41c0-b187-587e4460478d","ios":"levelo://app?vid=d0aa1e4c-312a-41c0-b187-587e4460478d"},"vehicle_type_id":"4","last_reported":1678946993,"current_range_meters":7200,"station_id":"","pricing_plan_id":"free"},{"bike_id":"7602820e-a98d-42a0-90f2-9a2b257ac9e9","system_id":"levelo_inurba_marseille","lat":43.33717,"lon":5.391857,"is_reserved":false,"is_disabled":false,"rental_uris":{"android":"levelo://app?vid=7602820e-a98d-42a0-90f2-9a2b257ac9e9","ios":"levelo://app?vid=7602820e-a98d-42a0-90f2-9a2b257ac9e9"},"vehicle_type_id":"4","last_reported":1678946993,"current_range_meters":10000,"station_id":"ce4bhr92rcd13ifvqhsg","pricing_plan_id":"free"},{"bike_id":"34b7b8d0-079e-43aa-9abd-0106fac3b082","system_id":"levelo_inurba_marseille","lat":43.337241,"lon":5.391826,"is_reserved":false,"is_disabled":false,"rental_uris":{"android":"levelo://app?vid=34b7b8d0-079e-43aa-9abd-0106fac3b082","ios":"levelo://app?vid=34b7b8d0-079e-43aa-9abd-0106fac3b082"},"vehicle_type_id":"4","last_reported":1678946993,"current_range_meters":30400,"station_id":"ce4bhr92rcd13ifvqhsg","pricing_plan_id":"free"},{"bike_id":"42896b38-34ac-492d-ad87-9574b998f595","system_id":"levelo_inurba_marseille","lat":43.323381,"lon":5.406171,"is_reserved":false,"is_disabled":false,"rental_uris":{"android":"levelo://app?vid=42896b38-34ac-492d-ad87-9574b998f595","ios":"levelo://app?vid=42896b38-34ac-492d-ad87-9574b998f595"},"vehicle_type_id":"4","last_reported":1678946993,"current_range_meters":28800,"station_id":"","pricing_plan_id":"free"},{"bike_id":"239772d2-119e-4412-85dd-25078d160443","system_id":"levelo_inurba_marseille","lat":43.32339,"lon":5.40617,"is_reserved":false,"is_disabled":false,"rental_uris":{"android":"levelo://app?vid=239772d2-119e-4412-85dd-25078d160443","ios":"levelo://app?vid=239772d2-119e-4412-85dd-25078d160443"},"vehicle_type_id":"4","last_reported":1678946993,"current_range_meters":29200,"station_id":"","pricing_plan_id":"free"},{"bike_id":"4bd797f9-7454-4f80-aa0c-bf48d3a8d990","system_id":"levelo_inurba_marseille","lat":43.337278,"lon":5.391798,"is_reserved":false,"is_disabled":false,"rental_uris":{"android":"levelo://app?vid=4bd797f9-7454-4f80-aa0c-bf48d3a8d990","ios":"levelo://app?vid=4bd797f9-7454-4f80-aa0c-bf48d3a8d990"},"vehicle_type_id":"4","last_reported":1678946993,"current_range_meters":20000,"station_id":"ce4bhr92rcd13ifvqhsg","pricing_plan_id":"free"},{"bike_id":"0ca02bf8-9760-47db-8ebd-6c6e6e5c741c","system_id":"levelo_inurba_marseille","lat":43.323396,"lon":5.406195,"is_reserved":false,"is_disabled":false,"rental_uris":{"android":"levelo://app?vid=0ca02bf8-9760-47db-8ebd-6c6e6e5c741c","ios":"levelo://app?vid=0ca02bf8-9760-47db-8ebd-6c6e6e5c741c"},"vehicle_type_id":"4","last_reported":1678946993,"current_range_meters":7600,"station_id":"","pricing_plan_id":"free"},{"bike_id":"d0c7feb2-bfdc-4875-a862-7fe128d8ff4d","system_id":"levelo_inurba_marseille","lat":43.323396,"lon":5.406196,"is_reserved":false,"is_disabled":false,"rental_uris":{"android":"levelo://app?vid=d0c7feb2-bfdc-4875-a862-7fe128d8ff4d","ios":"levelo://app?vid=d0c7feb2-bfdc-4875-a862-7fe128d8ff4d"},"vehicle_type_id":"4","last_reported":1678946993,"current_range_meters":12400,"station_id":"","pricing_plan_id":"free"},{"bike_id":"f6f723d4-e9d5-4c79-838f-446827faea01","system_id":"levelo_inurba_marseille","lat":43.32335,"lon":5.40622,"is_reserved":false,"is_disabled":false,"rental_uris":{"android":"levelo://app?vid=f6f723d4-e9d5-4c79-838f-446827faea01","ios":"levelo://app?vid=f6f723d4-e9d5-4c79-838f-446827faea01"},"vehicle_type_id":"4","last_reported":1678946993,"current_range_meters":400,"station_id":"","pricing_plan_id":"free"},{"bike_id":"dc36b888-c12e-496f-b05c-f1f98a68fb93","system_id":"levelo_inurba_marseille","lat":43.32337,"lon":5.40622,"is_reserved":false,"is_disabled":false,"rental_uris":{"android":"levelo://app?vid=dc36b888-c12e-496f-b05c-f1f98a68fb93","ios":"levelo://app?vid=dc36b888-c12e-496f-b05c-f1f98a68fb93"},"vehicle_type_id":"4","last_reported":1678946993,"current_range_meters":29600,"station_id":"","pricing_plan_id":"free"},{"bike_id":"339853a6-89f4-4b3b-9100-a20aa9d5d2ac","system_id":"levelo_inurba_marseille","lat":43.32341,"lon":5.4062,"is_reserved":false,"is_disabled":false,"rental_uris":{"android":"levelo://app?vid=339853a6-89f4-4b3b-9100-a20aa9d5d2ac","ios":"levelo://app?vid=339853a6-89f4-4b3b-9100-a20aa9d5d2ac"},"vehicle_type_id":"4","last_reported":1678946993,"current_range_meters":25200,"station_id":"","pricing_plan_id":"free"},{"bike_id":"dd8a9b3f-4ef3-4b61-bd11-f09470902131","system_id":"levelo_inurba_marseille","lat":43.3234,"lon":5.40621,"is_reserved":false,"is_disabled":false,"rental_uris":{"android":"levelo://app?vid=dd8a9b3f-4ef3-4b61-bd11-f09470902131","ios":"levelo://app?vid=dd8a9b3f-4ef3-4b61-bd11-f09470902131"},"vehicle_type_id":"4","last_reported":1678946993,"current_range_meters":13600,"station_id":"","pricing_plan_id":"free"},{"bike_id":"fb475c56-a592-455f-972f-ec9c5f4dc6af","system_id":"levelo_inurba_marseille","lat":43.337285,"lon":5.39183,"is_reserved":false,"is_disabled":false,"rental_uris":{"android":"levelo://app?vid=fb475c56-a592-455f-972f-ec9c5f4dc6af","ios":"levelo://app?vid=fb475c56-a592-455f-972f-ec9c5f4dc6af"},"vehicle_type_id":"4","last_reported":1678946993,"current_range_meters":24400,"station_id":"ce4bhr92rcd13ifvqhsg","pricing_plan_id":"free"},{"bike_id":"7e527013-48c8-43b3-92b5-c0280bdc931c","system_id":"levelo_inurba_marseille","lat":43.33728,"lon":5.391853,"is_reserved":false,"is_disabled":false,"rental_uris":{"android":"levelo://app?vid=7e527013-48c8-43b3-92b5-c0280bdc931c","ios":"levelo://app?vid=7e527013-48c8-43b3-92b5-c0280bdc931c"},"vehicle_type_id":"4","last_reported":1678946993,"current_range_meters":17600,"station_id":"ce4bhr92rcd13ifvqhsg","pricing_plan_id":"free"},{"bike_id":"0fa145cf-096f-44e0-a1b4-7c986a435945","system_id":"levelo_inurba_marseille","lat":43.284793,"lon":5.384113,"is_reserved":false,"is_disabled":false,"rental_uris":{"android":"levelo://app?vid=0fa145cf-096f-44e0-a1b4-7c986a435945","ios":"levelo://app?vid=0fa145cf-096f-44e0-a1b4-7c986a435945"},"vehicle_type_id":"4","last_reported":1678946993,"current_range_meters":28000,"station_id":"ce4bh512rcd13ifvqe3g","pricing_plan_id":"free"},{"bike_id":"847acb12-71ac-4e46-b86f-80cb765a213d","system_id":"levelo_inurba_marseille","lat":43.284787,"lon":5.384116,"is_reserved":false,"is_disabled":false,"rental_uris":{"android":"levelo://app?vid=847acb12-71ac-4e46-b86f-80cb765a213d","ios":"levelo://app?vid=847acb12-71ac-4e46-b86f-80cb765a213d"},"vehicle_type_id":"4","last_reported":1678946993,"current_range_meters":29600,"station_id":"ce4bh512rcd13ifvqe3g","pricing_plan_id":"free"},{"bike_id":"fe1019a3-0029-4563-b56f-c37e6692edcc","system_id":"levelo_inurba_marseille","lat":43.284787,"lon":5.384116,"is_reserved":false,"is_disabled":false,"rental_uris":{"android":"levelo://app?vid=fe1019a3-0029-4563-b56f-c37e6692edcc","ios":"levelo://app?vid=fe1019a3-0029-4563-b56f-c37e6692edcc"},"vehicle_type_id":"4","last_reported":1678946993,"current_range_meters":28000,"station_id":"ce4bh512rcd13ifvqe3g","pricing_plan_id":"free"},{"bike_id":"d6437f02-a767-4cc1-9a2a-09230bf3e3ec","system_id":"levelo_inurba_marseille","lat":43.284793,"lon":5.384113,"is_reserved":false,"is_disabled":false,"rental_uris":{"android":"levelo://app?vid=d6437f02-a767-4cc1-9a2a-09230bf3e3ec","ios":"levelo://app?vid=d6437f02-a767-4cc1-9a2a-09230bf3e3ec"},"vehicle_type_id":"4","last_reported":1678946993,"current_range_meters":24400,"station_id":"ce4bh512rcd13ifvqe3g","pricing_plan_id":"free"},{"bike_id":"05a86a7b-499c-47e3-accc-2ebbd09448ab","system_id":"levelo_inurba_marseille","lat":43.284793,"lon":5.384119,"is_reserved":false,"is_disabled":false,"rental_uris":{"android":"levelo://app?vid=05a86a7b-499c-47e3-accc-2ebbd09448ab","ios":"levelo://app?vid=05a86a7b-499c-47e3-accc-2ebbd09448ab"},"vehicle_type_id":"4","last_reported":1678946993,"current_range_meters":28800,"station_id":"ce4bh512rcd13ifvqe3g","pricing_plan_id":"free"},{"bike_id":"c6db0243-0e61-408f-a9f6-4381a28f1e2e","system_id":"levelo_inurba_marseille","lat":43.309076,"lon":5.368465,"is_reserved":false,"is_disabled":false,"rental_uris":{"android":"levelo://app?vid=c6db0243-0e61-408f-a9f6-4381a28f1e2e","ios":"levelo://app?vid=c6db0243-0e61-408f-a9f6-4381a28f1e2e"},"vehicle_type_id":"4","last_reported":1678946993,"current_range_meters":29200,"station_id":"ce4bgn92rcd13ifvqbvg","pricing_plan_id":"free"},{"bike_id":"5d4facda-6d85-4047-98b3-27db9f30ace3","system_id":"levelo_inurba_marseille","lat":43.284787,"lon":5.384116,"is_reserved":false,"is_disabled":false,"rental_uris":{"android":"levelo://app?vid=5d4facda-6d85-4047-98b3-27db9f30ace3","ios":"levelo://app?vid=5d4facda-6d85-4047-98b3-27db9f30ace3"},"vehicle_type_id":"4","last_reported":1678946993,"current_range_meters":24800,"station_id":"ce4bh512rcd13ifvqe3g","pricing_plan_id":"free"},{"bike_id":"7550bc7d-b767-4924-ab8b-4317b7bba445","system_id":"levelo_inurba_marseille","lat":43.284793,"lon":5.384119,"is_reserved":false,"is_disabled":false,"rental_uris":{"android":"levelo://app?vid=7550bc7d-b767-4924-ab8b-4317b7bba445","ios":"levelo://app?vid=7550bc7d-b767-4924-ab8b-4317b7bba445"},"vehicle_type_id":"4","last_reported":1678946993,"current_range_meters":28800,"station_id":"ce4bh512rcd13ifvqe3g","pricing_plan_id":"free"},{"bike_id":"3f906d2f-5757-44e8-bad4-c5281cd7f81d","system_id":"levelo_inurba_marseille","lat":43.284793,"lon":5.384119,"is_reserved":false,"is_disabled":false,"rental_uris":{"android":"levelo://app?vid=3f906d2f-5757-44e8-bad4-c5281cd7f81d","ios":"levelo://app?vid=3f906d2f-5757-44e8-bad4-c5281cd7f81d"},"vehicle_type_id":"4","last_reported":1678946993,"current_range_meters":26000,"station_id":"ce4bh512rcd13ifvqe3g","pricing_plan_id":"free"},{"bike_id":"48226e7a-ad6a-4012-b3fe-1929e2c1c252","system_id":"levelo_inurba_marseille","lat":43.284793,"lon":5.384119,"is_reserved":false,"is_disabled":false,"rental_uris":{"android":"levelo://app?vid=48226e7a-ad6a-4012-b3fe-1929e2c1c252","ios":"levelo://app?vid=48226e7a-ad6a-4012-b3fe-1929e2c1c252"},"vehicle_type_id":"4","last_reported":1678946993,"current_range_meters":31600,"station_id":"ce4bh512rcd13ifvqe3g","pricing_plan_id":"free"},{"bike_id":"8401fb18-1c16-4ec8-9470-ad62ba406ddb","system_id":"levelo_inurba_marseille","lat":43.284219,"lon":5.3497,"is_reserved":false,"is_disabled":false,"rental_uris":{"android":"levelo://app?vid=8401fb18-1c16-4ec8-9470-ad62ba406ddb","ios":"levelo://app?vid=8401fb18-1c16-4ec8-9470-ad62ba406ddb"},"vehicle_type_id":"4","last_reported":1678946993,"current_range_meters":18000,"station_id":"ce4bhbh2rcd13ifvqepg","pricing_plan_id":"free"},{"bike_id":"8579fdb6-246d-438a-b198-b051963e2622","system_id":"levelo_inurba_marseille","lat":43.284276,"lon":5.349833,"is_reserved":false,"is_disabled":false,"rental_uris":{"android":"levelo://app?vid=8579fdb6-246d-438a-b198-b051963e2622","ios":"levelo://app?vid=8579fdb6-246d-438a-b198-b051963e2622"},"vehicle_type_id":"4","last_reported":1678946993,"current_range_meters":29600,"station_id":"ce4bhbh2rcd13ifvqepg","pricing_plan_id":"free"},{"bike_id":"355236a6-d794-4ef3-b1a5-c760337d7ff9","system_id":"levelo_inurba_marseille","lat":43.284275,"lon":5.349836,"is_reserved":false,"is_disabled":false,"rental_uris":{"android":"levelo://app?vid=355236a6-d794-4ef3-b1a5-c760337d7ff9","ios":"levelo://app?vid=355236a6-d794-4ef3-b1a5-c760337d7ff9"},"vehicle_type_id":"4","last_reported":1678946993,"current_range_meters":24400,"station_id":"ce4bhbh2rcd13ifvqepg","pricing_plan_id":"free"},{"bike_id":"419f2412-30e8-4a75-8caa-a5b53c3bde39","system_id":"levelo_inurba_marseille","lat":43.28426,"lon":5.349849,"is_reserved":false,"is_disabled":false,"rental_uris":{"android":"levelo://app?vid=419f2412-30e8-4a75-8caa-a5b53c3bde39","ios":"levelo://app?vid=419f2412-30e8-4a75-8caa-a5b53c3bde39"},"vehicle_type_id":"4","last_reported":1678946993,"current_range_meters":29200,"station_id":"ce4bhbh2rcd13ifvqepg","pricing_plan_id":"free"},{"bike_id":"17a11a64-66d2-4b19-9e7a-5d9ca54e4669","system_id":"levelo_inurba_marseille","lat":43.284219,"lon":5.3497,"is_reserved":false,"is_disabled":false,"rental_uris":{"android":"levelo://app?vid=17a11a64-66d2-4b19-9e7a-5d9ca54e4669","ios":"levelo://app?vid=17a11a64-66d2-4b19-9e7a-5d9ca54e4669"},"vehicle_type_id":"4","last_reported":1678946993,"current_range_meters":0,"station_id":"ce4bhbh2rcd13ifvqepg","pricing_plan_id":"free"},{"bike_id":"ea3e7dca-da16-441c-89ce-ed63e0bec06f","system_id":"levelo_inurba_marseille","lat":43.284219,"lon":5.3497,"is_reserved":false,"is_disabled":false,"rental_uris":{"android":"levelo://app?vid=ea3e7dca-da16-441c-89ce-ed63e0bec06f","ios":"levelo://app?vid=ea3e7dca-da16-441c-89ce-ed63e0bec06f"},"vehicle_type_id":"4","last_reported":1678946993,"current_range_meters":30000,"station_id":"ce4bhbh2rcd13ifvqepg","pricing_plan_id":"free"},{"bike_id":"99b84986-473c-44c0-b65a-bdb725a88df9","system_id":"levelo_inurba_marseille","lat":43.28937,"lon":5.39632,"is_reserved":false,"is_disabled":false,"rental_uris":{"android":"levelo://app?vid=99b84986-473c-44c0-b65a-bdb725a88df9","ios":"levelo://app?vid=99b84986-473c-44c0-b65a-bdb725a88df9"},"vehicle_type_id":"4","last_reported":1678946993,"current_range_meters":26000,"station_id":"ce4bh3h2rcd13ifvqdn0","pricing_plan_id":"free"},{"bike_id":"8d77a2bb-d265-4cd4-aa81-a60bc38f0744","system_id":"levelo_inurba_marseille","lat":43.289363,"lon":5.396322,"is_reserved":false,"is_disabled":false,"rental_uris":{"android":"levelo://app?vid=8d77a2bb-d265-4cd4-aa81-a60bc38f0744","ios":"levelo://app?vid=8d77a2bb-d265-4cd4-aa81-a60bc38f0744"},"vehicle_type_id":"4","last_reported":1678946993,"current_range_meters":29600,"station_id":"ce4bh3h2rcd13ifvqdn0","pricing_plan_id":"free"},{"bike_id":"7ae8dae2-29ae-4d69-ab0c-0861cedc9cfd","system_id":"levelo_inurba_marseille","lat":43.282754,"lon":5.350519,"is_reserved":false,"is_disabled":false,"rental_uris":{"android":"levelo://app?vid=7ae8dae2-29ae-4d69-ab0c-0861cedc9cfd","ios":"levelo://app?vid=7ae8dae2-29ae-4d69-ab0c-0861cedc9cfd"},"vehicle_type_id":"4","last_reported":1678946993,"current_range_meters":31600,"station_id":"ce4bhbp2rcd13ifvqerg","pricing_plan_id":"free"},{"bike_id":"f026e0c2-af79-47fc-9653-0cff3d7b885b","system_id":"levelo_inurba_marseille","lat":43.283502,"lon":5.386471,"is_reserved":false,"is_disabled":false,"rental_uris":{"android":"levelo://app?vid=f026e0c2-af79-47fc-9653-0cff3d7b885b","ios":"levelo://app?vid=f026e0c2-af79-47fc-9653-0cff3d7b885b"},"vehicle_type_id":"4","last_reported":1678946993,"current_range_meters":31600,"station_id":"ce4bh492rcd13ifvqdvg","pricing_plan_id":"free"},{"bike_id":"19635b07-ce27-445e-a6dd-f4524555a2c5","system_id":"levelo_inurba_marseille","lat":43.282754,"lon":5.350519,"is_reserved":false,"is_disabled":false,"rental_uris":{"android":"levelo://app?vid=19635b07-ce27-445e-a6dd-f4524555a2c5","ios":"levelo://app?vid=19635b07-ce27-445e-a6dd-f4524555a2c5"},"vehicle_type_id":"4","last_reported":1678946993,"current_range_meters":29600,"station_id":"ce4bhbp2rcd13ifvqerg","pricing_plan_id":"free"},{"bike_id":"dc22176d-8fc3-41bd-9182-9e0682dbb3af","system_id":"levelo_inurba_marseille","lat":43.28039,"lon":5.369297,"is_reserved":false,"is_disabled":false,"rental_uris":{"android":"levelo://app?vid=dc22176d-8fc3-41bd-9182-9e0682dbb3af","ios":"levelo://app?vid=dc22176d-8fc3-41bd-9182-9e0682dbb3af"},"vehicle_type_id":"4","last_reported":1678946993,"current_range_meters":29200,"station_id":"ce4bha12rcd13ifvqef0","pricing_plan_id":"free"},{"bike_id":"526aebc5-a422-488c-91c1-746f36cd2970","system_id":"levelo_inurba_marseille","lat":43.290412,"lon":5.399633,"is_reserved":false,"is_disabled":false,"rental_uris":{"android":"levelo://app?vid=526aebc5-a422-488c-91c1-746f36cd2970","ios":"levelo://app?vid=526aebc5-a422-488c-91c1-746f36cd2970"},"vehicle_type_id":"4","last_reported":1678946993,"current_range_meters":17200,"station_id":"ce4bh392rcd13ifvqdm0","pricing_plan_id":"free"},{"bike_id":"fbd81724-0b1b-4143-95dc-ca9086439d49","system_id":"levelo_inurba_marseille","lat":43.281747,"lon":5.352756,"is_reserved":false,"is_disabled":false,"rental_uris":{"android":"levelo://app?vid=fbd81724-0b1b-4143-95dc-ca9086439d49","ios":"levelo://app?vid=fbd81724-0b1b-4143-95dc-ca9086439d49"},"vehicle_type_id":"4","last_reported":1678946993,"current_range_meters":3200,"station_id":"","pricing_plan_id":"free"},{"bike_id":"966d5ab0-4ca4-434a-9793-79a1cf86528e","system_id":"levelo_inurba_marseille","lat":43.290343,"lon":5.399613,"is_reserved":false,"is_disabled":false,"rental_uris":{"android":"levelo://app?vid=966d5ab0-4ca4-434a-9793-79a1cf86528e","ios":"levelo://app?vid=966d5ab0-4ca4-434a-9793-79a1cf86528e"},"vehicle_type_id":"4","last_reported":1678946993,"current_range_meters":2800,"station_id":"","pricing_plan_id":"free"},{"bike_id":"3932fe38-1417-47d1-9abe-62052899ddbd","system_id":"levelo_inurba_marseille","lat":43.29041,"lon":5.399634,"is_reserved":false,"is_disabled":false,"rental_uris":{"android":"levelo://app?vid=3932fe38-1417-47d1-9abe-62052899ddbd","ios":"levelo://app?vid=3932fe38-1417-47d1-9abe-62052899ddbd"},"vehicle_type_id":"4","last_reported":1678946993,"current_range_meters":26800,"station_id":"ce4bh392rcd13ifvqdm0","pricing_plan_id":"free"},{"bike_id":"5ada3bdb-107c-4fd1-b7f6-d40bebf5c558","system_id":"levelo_inurba_marseille","lat":43.29041,"lon":5.399634,"is_reserved":false,"is_disabled":false,"rental_uris":{"android":"levelo://app?vid=5ada3bdb-107c-4fd1-b7f6-d40bebf5c558","ios":"levelo://app?vid=5ada3bdb-107c-4fd1-b7f6-d40bebf5c558"},"vehicle_type_id":"4","last_reported":1678946993,"current_range_meters":29600,"station_id":"ce4bh392rcd13ifvqdm0","pricing_plan_id":"free"},{"bike_id":"969e4d6b-d680-4bc0-ae53-5f611c86d04a","system_id":"levelo_inurba_marseille","lat":43.296263,"lon":5.40601,"is_reserved":false,"is_disabled":false,"rental_uris":{"android":"levelo://app?vid=969e4d6b-d680-4bc0-ae53-5f611c86d04a","ios":"levelo://app?vid=969e4d6b-d680-4bc0-ae53-5f611c86d04a"},"vehicle_type_id":"4","last_reported":1678946993,"current_range_meters":13600,"station_id":"ce4bh0h2rcd13ifvqd60","pricing_plan_id":"free"},{"bike_id":"41824ba0-6d84-4f3f-80dd-090f4d7dae2e","system_id":"levelo_inurba_marseille","lat":43.281044,"lon":5.378308,"is_reserved":false,"is_disabled":false,"rental_uris":{"android":"levelo://app?vid=41824ba0-6d84-4f3f-80dd-090f4d7dae2e","ios":"levelo://app?vid=41824ba0-6d84-4f3f-80dd-090f4d7dae2e"},"vehicle_type_id":"4","last_reported":1678946993,"current_range_meters":12000,"station_id":"ce4bha12rcd13ifvqee0","pricing_plan_id":"free"},{"bike_id":"eabce44f-edcc-43cd-b933-cbc1add29404","system_id":"levelo_inurba_marseille","lat":43.28091,"lon":5.37842,"is_reserved":false,"is_disabled":false,"rental_uris":{"android":"levelo://app?vid=eabce44f-edcc-43cd-b933-cbc1add29404","ios":"levelo://app?vid=eabce44f-edcc-43cd-b933-cbc1add29404"},"vehicle_type_id":"4","last_reported":1678946993,"current_range_meters":14400,"station_id":"ce4bha12rcd13ifvqee0","pricing_plan_id":"free"},{"bike_id":"1ec40e65-09be-4270-be28-39334a4fc083","system_id":"levelo_inurba_marseille","lat":43.28033,"lon":5.378063,"is_reserved":false,"is_disabled":false,"rental_uris":{"android":"levelo://app?vid=1ec40e65-09be-4270-be28-39334a4fc083","ios":"levelo://app?vid=1ec40e65-09be-4270-be28-39334a4fc083"},"vehicle_type_id":"4","last_reported":1678946993,"current_range_meters":0,"station_id":"","pricing_plan_id":"free"},{"bike_id":"ef4007f1-ebf9-4fa4-b984-d0af2f1c6bbf","system_id":"levelo_inurba_marseille","lat":43.283318,"lon":5.389013,"is_reserved":false,"is_disabled":false,"rental_uris":{"android":"levelo://app?vid=ef4007f1-ebf9-4fa4-b984-d0af2f1c6bbf","ios":"levelo://app?vid=ef4007f1-ebf9-4fa4-b984-d0af2f1c6bbf"},"vehicle_type_id":"4","last_reported":1678946993,"current_range_meters":17200,"station_id":"","pricing_plan_id":"free"},{"bike_id":"b3101a7c-395b-4d83-b890-3bb761fe7df6","system_id":"levelo_inurba_marseille","lat":43.287154,"lon":5.399979,"is_reserved":false,"is_disabled":false,"rental_uris":{"android":"levelo://app?vid=b3101a7c-395b-4d83-b890-3bb761fe7df6","ios":"levelo://app?vid=b3101a7c-395b-4d83-b890-3bb761fe7df6"},"vehicle_type_id":"4","last_reported":1678946993,"current_range_meters":27600,"station_id":"ce4bho92rcd13ifvqh3g","pricing_plan_id":"free"},{"bike_id":"183236d0-ce32-4ac7-b526-aa6ba63704c9","system_id":"levelo_inurba_marseille","lat":43.287154,"lon":5.399979,"is_reserved":false,"is_disabled":false,"rental_uris":{"android":"levelo://app?vid=183236d0-ce32-4ac7-b526-aa6ba63704c9","ios":"levelo://app?vid=183236d0-ce32-4ac7-b526-aa6ba63704c9"},"vehicle_type_id":"4","last_reported":1678946993,"current_range_meters":30400,"station_id":"ce4bho92rcd13ifvqh3g","pricing_plan_id":"free"},{"bike_id":"ff556860-2b3f-4f2f-ba48-3b0f1bab815d","system_id":"levelo_inurba_marseille","lat":43.287154,"lon":5.399979,"is_reserved":false,"is_disabled":false,"rental_uris":{"android":"levelo://app?vid=ff556860-2b3f-4f2f-ba48-3b0f1bab815d","ios":"levelo://app?vid=ff556860-2b3f-4f2f-ba48-3b0f1bab815d"},"vehicle_type_id":"4","last_reported":1678946993,"current_range_meters":29200,"station_id":"ce4bho92rcd13ifvqh3g","pricing_plan_id":"free"},{"bike_id":"7ebe3670-3630-49c7-b4e5-903b6dd9d672","system_id":"levelo_inurba_marseille","lat":43.287154,"lon":5.399979,"is_reserved":false,"is_disabled":false,"rental_uris":{"android":"levelo://app?vid=7ebe3670-3630-49c7-b4e5-903b6dd9d672","ios":"levelo://app?vid=7ebe3670-3630-49c7-b4e5-903b6dd9d672"},"vehicle_type_id":"4","last_reported":1678946993,"current_range_meters":25600,"station_id":"ce4bho92rcd13ifvqh3g","pricing_plan_id":"free"},{"bike_id":"432797e4-5862-47a3-85db-fc9c2708489a","system_id":"levelo_inurba_marseille","lat":43.287154,"lon":5.399979,"is_reserved":false,"is_disabled":false,"rental_uris":{"android":"levelo://app?vid=432797e4-5862-47a3-85db-fc9c2708489a","ios":"levelo://app?vid=432797e4-5862-47a3-85db-fc9c2708489a"},"vehicle_type_id":"4","last_reported":1678946993,"current_range_meters":20400,"station_id":"ce4bho92rcd13ifvqh3g","pricing_plan_id":"free"},{"bike_id":"aea02ae5-2f40-4e3c-827b-6fa97ac1401e","system_id":"levelo_inurba_marseille","lat":43.320488,"lon":5.415383,"is_reserved":false,"is_disabled":false,"rental_uris":{"android":"levelo://app?vid=aea02ae5-2f40-4e3c-827b-6fa97ac1401e","ios":"levelo://app?vid=aea02ae5-2f40-4e3c-827b-6fa97ac1401e"},"vehicle_type_id":"4","last_reported":1678946993,"current_range_meters":0,"station_id":"","pricing_plan_id":"free"},{"bike_id":"8863285f-1dc9-4c91-8ddb-504641c24191","system_id":"levelo_inurba_marseille","lat":43.279742,"lon":5.38744,"is_reserved":false,"is_disabled":false,"rental_uris":{"android":"levelo://app?vid=8863285f-1dc9-4c91-8ddb-504641c24191","ios":"levelo://app?vid=8863285f-1dc9-4c91-8ddb-504641c24191"},"vehicle_type_id":"4","last_reported":1678946993,"current_range_meters":27200,"station_id":"ce4bhg12rcd13ifvqf80","pricing_plan_id":"free"},{"bike_id":"1cbc6233-ae13-4330-8702-a5b2b8fd4573","system_id":"levelo_inurba_marseille","lat":43.320045,"lon":5.415048,"is_reserved":false,"is_disabled":false,"rental_uris":{"android":"levelo://app?vid=1cbc6233-ae13-4330-8702-a5b2b8fd4573","ios":"levelo://app?vid=1cbc6233-ae13-4330-8702-a5b2b8fd4573"},"vehicle_type_id":"4","last_reported":1678946993,"current_range_meters":28800,"station_id":"ce4bhq92rcd13ifvqhkg","pricing_plan_id":"free"},{"bike_id":"18748e66-c446-4b52-820e-c6c0a5239b64","system_id":"levelo_inurba_marseille","lat":43.29986,"lon":5.41361,"is_reserved":false,"is_disabled":false,"rental_uris":{"android":"levelo://app?vid=18748e66-c446-4b52-820e-c6c0a5239b64","ios":"levelo://app?vid=18748e66-c446-4b52-820e-c6c0a5239b64"},"vehicle_type_id":"4","last_reported":1678946993,"current_range_meters":22000,"station_id":"","pricing_plan_id":"free"},{"bike_id":"124b51a5-c4ec-4bc9-acfa-5ca6df1a4a93","system_id":"levelo_inurba_marseille","lat":43.292571,"lon":5.409107,"is_reserved":false,"is_disabled":false,"rental_uris":{"android":"levelo://app?vid=124b51a5-c4ec-4bc9-acfa-5ca6df1a4a93","ios":"levelo://app?vid=124b51a5-c4ec-4bc9-acfa-5ca6df1a4a93"},"vehicle_type_id":"4","last_reported":1678946993,"current_range_meters":9200,"station_id":"ce4bh192rcd13ifvqdc0","pricing_plan_id":"free"},{"bike_id":"ba90f40d-133c-4f05-8f63-fc18dc680875","system_id":"levelo_inurba_marseille","lat":43.32511,"lon":5.41444,"is_reserved":false,"is_disabled":false,"rental_uris":{"android":"levelo://app?vid=ba90f40d-133c-4f05-8f63-fc18dc680875","ios":"levelo://app?vid=ba90f40d-133c-4f05-8f63-fc18dc680875"},"vehicle_type_id":"4","last_reported":1678946993,"current_range_meters":21600,"station_id":"","pricing_plan_id":"free"},{"bike_id":"4710e668-322b-4cc2-82ae-e24b8e70f886","system_id":"levelo_inurba_marseille","lat":43.32518,"lon":5.41441,"is_reserved":false,"is_disabled":false,"rental_uris":{"android":"levelo://app?vid=4710e668-322b-4cc2-82ae-e24b8e70f886","ios":"levelo://app?vid=4710e668-322b-4cc2-82ae-e24b8e70f886"},"vehicle_type_id":"4","last_reported":1678946993,"current_range_meters":27600,"station_id":"ce4bhq12rcd13ifvqhhg","pricing_plan_id":"free"},{"bike_id":"469a25b0-3a5b-46da-97e9-c656ae8a6663","system_id":"levelo_inurba_marseille","lat":43.32521,"lon":5.414413,"is_reserved":false,"is_disabled":false,"rental_uris":{"android":"levelo://app?vid=469a25b0-3a5b-46da-97e9-c656ae8a6663","ios":"levelo://app?vid=469a25b0-3a5b-46da-97e9-c656ae8a6663"},"vehicle_type_id":"4","last_reported":1678946993,"current_range_meters":30400,"station_id":"","pricing_plan_id":"free"},{"bike_id":"99992138-152b-4a9d-ad3c-9c9a6c891f74","system_id":"levelo_inurba_marseille","lat":43.32516,"lon":5.41445,"is_reserved":false,"is_disabled":false,"rental_uris":{"android":"levelo://app?vid=99992138-152b-4a9d-ad3c-9c9a6c891f74","ios":"levelo://app?vid=99992138-152b-4a9d-ad3c-9c9a6c891f74"},"vehicle_type_id":"4","last_reported":1678946993,"current_range_meters":22800,"station_id":"ce4bhq12rcd13ifvqhhg","pricing_plan_id":"free"},{"bike_id":"7b72843c-84a2-4397-9ba7-d1635d220645","system_id":"levelo_inurba_marseille","lat":43.325395,"lon":5.414422,"is_reserved":false,"is_disabled":false,"rental_uris":{"android":"levelo://app?vid=7b72843c-84a2-4397-9ba7-d1635d220645","ios":"levelo://app?vid=7b72843c-84a2-4397-9ba7-d1635d220645"},"vehicle_type_id":"4","last_reported":1678946993,"current_range_meters":28400,"station_id":"","pricing_plan_id":"free"},{"bike_id":"f7dfeac4-f961-48fa-8de0-42431e6b2a37","system_id":"levelo_inurba_marseille","lat":43.276109,"lon":5.361103,"is_reserved":false,"is_disabled":false,"rental_uris":{"android":"levelo://app?vid=f7dfeac4-f961-48fa-8de0-42431e6b2a37","ios":"levelo://app?vid=f7dfeac4-f961-48fa-8de0-42431e6b2a37"},"vehicle_type_id":"4","last_reported":1678946993,"current_range_meters":0,"station_id":"ce4bgj92rcd13ifvqbe0","pricing_plan_id":"free"},{"bike_id":"acb09af2-c401-4271-ac4f-58fd706bca31","system_id":"levelo_inurba_marseille","lat":43.280784,"lon":5.396622,"is_reserved":false,"is_disabled":false,"rental_uris":{"android":"levelo://app?vid=acb09af2-c401-4271-ac4f-58fd706bca31","ios":"levelo://app?vid=acb09af2-c401-4271-ac4f-58fd706bca31"},"vehicle_type_id":"4","last_reported":1678946993,"current_range_meters":3600,"station_id":"ce4bho12rcd13ifvqh2g","pricing_plan_id":"free"},{"bike_id":"aacf1ec1-5b18-4094-b867-845fda51720f","system_id":"levelo_inurba_marseille","lat":43.280784,"lon":5.396622,"is_reserved":false,"is_disabled":false,"rental_uris":{"android":"levelo://app?vid=aacf1ec1-5b18-4094-b867-845fda51720f","ios":"levelo://app?vid=aacf1ec1-5b18-4094-b867-845fda51720f"},"vehicle_type_id":"4","last_reported":1678946993,"current_range_meters":3600,"station_id":"ce4bho12rcd13ifvqh2g","pricing_plan_id":"free"},{"bike_id":"7ec011ad-16d0-42ed-a9e3-bd91400db7d3","system_id":"levelo_inurba_marseille","lat":43.280784,"lon":5.396622,"is_reserved":false,"is_disabled":false,"rental_uris":{"android":"levelo://app?vid=7ec011ad-16d0-42ed-a9e3-bd91400db7d3","ios":"levelo://app?vid=7ec011ad-16d0-42ed-a9e3-bd91400db7d3"},"vehicle_type_id":"4","last_reported":1678946993,"current_range_meters":400,"station_id":"ce4bho12rcd13ifvqh2g","pricing_plan_id":"free"},{"bike_id":"a57054b4-3944-411e-9bb4-e348cd1f9b6c","system_id":"levelo_inurba_marseille","lat":43.28076,"lon":5.39658,"is_reserved":false,"is_disabled":false,"rental_uris":{"android":"levelo://app?vid=a57054b4-3944-411e-9bb4-e348cd1f9b6c","ios":"levelo://app?vid=a57054b4-3944-411e-9bb4-e348cd1f9b6c"},"vehicle_type_id":"4","last_reported":1678946993,"current_range_meters":0,"station_id":"","pricing_plan_id":"free"},{"bike_id":"0d65cf68-9e3c-4f75-aa57-dd331cfc64fb","system_id":"levelo_inurba_marseille","lat":43.273613,"lon":5.362705,"is_reserved":false,"is_disabled":false,"rental_uris":{"android":"levelo://app?vid=0d65cf68-9e3c-4f75-aa57-dd331cfc64fb","ios":"levelo://app?vid=0d65cf68-9e3c-4f75-aa57-dd331cfc64fb"},"vehicle_type_id":"4","last_reported":1678946993,"current_range_meters":30000,"station_id":"ce4bhbh2rcd13ifvqeo0","pricing_plan_id":"free"},{"bike_id":"923d8507-12c3-40fd-b22f-c57feba2b4fe","system_id":"levelo_inurba_marseille","lat":43.273613,"lon":5.362705,"is_reserved":false,"is_disabled":false,"rental_uris":{"android":"levelo://app?vid=923d8507-12c3-40fd-b22f-c57feba2b4fe","ios":"levelo://app?vid=923d8507-12c3-40fd-b22f-c57feba2b4fe"},"vehicle_type_id":"4","last_reported":1678946993,"current_range_meters":26400,"station_id":"ce4bhbh2rcd13ifvqeo0","pricing_plan_id":"free"},{"bike_id":"fed67d13-cd19-41a8-b7c9-28172b0c2266","system_id":"levelo_inurba_marseille","lat":43.273613,"lon":5.362705,"is_reserved":false,"is_disabled":false,"rental_uris":{"android":"levelo://app?vid=fed67d13-cd19-41a8-b7c9-28172b0c2266","ios":"levelo://app?vid=fed67d13-cd19-41a8-b7c9-28172b0c2266"},"vehicle_type_id":"4","last_reported":1678946993,"current_range_meters":28400,"station_id":"ce4bhbh2rcd13ifvqeo0","pricing_plan_id":"free"},{"bike_id":"536e0f45-325d-443f-bea7-4114006c3f94","system_id":"levelo_inurba_marseille","lat":43.273613,"lon":5.362705,"is_reserved":false,"is_disabled":false,"rental_uris":{"android":"levelo://app?vid=536e0f45-325d-443f-bea7-4114006c3f94","ios":"levelo://app?vid=536e0f45-325d-443f-bea7-4114006c3f94"},"vehicle_type_id":"4","last_reported":1678946993,"current_range_meters":28800,"station_id":"ce4bhbh2rcd13ifvqeo0","pricing_plan_id":"free"},{"bike_id":"6ec05a53-8a13-4418-932e-ca3661ae3af4","system_id":"levelo_inurba_marseille","lat":43.273613,"lon":5.362705,"is_reserved":false,"is_disabled":false,"rental_uris":{"android":"levelo://app?vid=6ec05a53-8a13-4418-932e-ca3661ae3af4","ios":"levelo://app?vid=6ec05a53-8a13-4418-932e-ca3661ae3af4"},"vehicle_type_id":"4","last_reported":1678946993,"current_range_meters":27200,"station_id":"ce4bhbh2rcd13ifvqeo0","pricing_plan_id":"free"},{"bike_id":"8d9be07a-6be3-4aff-be6e-cb563df5f0e8","system_id":"levelo_inurba_marseille","lat":43.273613,"lon":5.362705,"is_reserved":false,"is_disabled":false,"rental_uris":{"android":"levelo://app?vid=8d9be07a-6be3-4aff-be6e-cb563df5f0e8","ios":"levelo://app?vid=8d9be07a-6be3-4aff-be6e-cb563df5f0e8"},"vehicle_type_id":"4","last_reported":1678946993,"current_range_meters":22000,"station_id":"ce4bhbh2rcd13ifvqeo0","pricing_plan_id":"free"},{"bike_id":"3cb0cf11-7213-47b0-b35e-15bb3d7e4a83","system_id":"levelo_inurba_marseille","lat":43.273613,"lon":5.362705,"is_reserved":false,"is_disabled":false,"rental_uris":{"android":"levelo://app?vid=3cb0cf11-7213-47b0-b35e-15bb3d7e4a83","ios":"levelo://app?vid=3cb0cf11-7213-47b0-b35e-15bb3d7e4a83"},"vehicle_type_id":"4","last_reported":1678946993,"current_range_meters":24000,"station_id":"ce4bhbh2rcd13ifvqeo0","pricing_plan_id":"free"},{"bike_id":"0aa5fc87-3d2e-40bb-9e32-7b66c02088eb","system_id":"levelo_inurba_marseille","lat":43.273613,"lon":5.362705,"is_reserved":false,"is_disabled":false,"rental_uris":{"android":"levelo://app?vid=0aa5fc87-3d2e-40bb-9e32-7b66c02088eb","ios":"levelo://app?vid=0aa5fc87-3d2e-40bb-9e32-7b66c02088eb"},"vehicle_type_id":"4","last_reported":1678946993,"current_range_meters":17600,"station_id":"ce4bhbh2rcd13ifvqeo0","pricing_plan_id":"free"},{"bike_id":"b4f4117f-976e-4860-9a18-3222cc308aa0","system_id":"levelo_inurba_marseille","lat":43.336134,"lon":5.410341,"is_reserved":false,"is_disabled":false,"rental_uris":{"android":"levelo://app?vid=b4f4117f-976e-4860-9a18-3222cc308aa0","ios":"levelo://app?vid=b4f4117f-976e-4860-9a18-3222cc308aa0"},"vehicle_type_id":"4","last_reported":1678946993,"current_range_meters":21600,"station_id":"ce4bhqh2rcd13ifvqhmg","pricing_plan_id":"free"},{"bike_id":"07585d5b-f490-4106-95ae-63d3ce04dd54","system_id":"levelo_inurba_marseille","lat":43.273613,"lon":5.362705,"is_reserved":false,"is_disabled":false,"rental_uris":{"android":"levelo://app?vid=07585d5b-f490-4106-95ae-63d3ce04dd54","ios":"levelo://app?vid=07585d5b-f490-4106-95ae-63d3ce04dd54"},"vehicle_type_id":"4","last_reported":1678946993,"current_range_meters":4400,"station_id":"ce4bhbh2rcd13ifvqeo0","pricing_plan_id":"free"},{"bike_id":"6b73d5c0-a578-40bd-a875-a716878a19a9","system_id":"levelo_inurba_marseille","lat":43.336134,"lon":5.410341,"is_reserved":false,"is_disabled":false,"rental_uris":{"android":"levelo://app?vid=6b73d5c0-a578-40bd-a875-a716878a19a9","ios":"levelo://app?vid=6b73d5c0-a578-40bd-a875-a716878a19a9"},"vehicle_type_id":"4","last_reported":1678946993,"current_range_meters":4800,"station_id":"ce4bhqh2rcd13ifvqhmg","pricing_plan_id":"free"},{"bike_id":"c320380f-56e2-4cd8-a900-3ee550ab89ed","system_id":"levelo_inurba_marseille","lat":43.336134,"lon":5.410341,"is_reserved":false,"is_disabled":false,"rental_uris":{"android":"levelo://app?vid=c320380f-56e2-4cd8-a900-3ee550ab89ed","ios":"levelo://app?vid=c320380f-56e2-4cd8-a900-3ee550ab89ed"},"vehicle_type_id":"4","last_reported":1678946993,"current_range_meters":10800,"station_id":"ce4bhqh2rcd13ifvqhmg","pricing_plan_id":"free"},{"bike_id":"cc5fd69f-584a-47b4-a535-ce57865fa0d6","system_id":"levelo_inurba_marseille","lat":43.273613,"lon":5.362705,"is_reserved":false,"is_disabled":false,"rental_uris":{"android":"levelo://app?vid=cc5fd69f-584a-47b4-a535-ce57865fa0d6","ios":"levelo://app?vid=cc5fd69f-584a-47b4-a535-ce57865fa0d6"},"vehicle_type_id":"4","last_reported":1678946993,"current_range_meters":22400,"station_id":"ce4bhbh2rcd13ifvqeo0","pricing_plan_id":"free"},{"bike_id":"c8d6dc36-f745-4c55-ad20-d0c751ac4a42","system_id":"levelo_inurba_marseille","lat":43.336134,"lon":5.410341,"is_reserved":false,"is_disabled":false,"rental_uris":{"android":"levelo://app?vid=c8d6dc36-f745-4c55-ad20-d0c751ac4a42","ios":"levelo://app?vid=c8d6dc36-f745-4c55-ad20-d0c751ac4a42"},"vehicle_type_id":"4","last_reported":1678946993,"current_range_meters":21600,"station_id":"ce4bhqh2rcd13ifvqhmg","pricing_plan_id":"free"},{"bike_id":"bd196805-466c-4d1c-82b2-b64f2f01e95a","system_id":"levelo_inurba_marseille","lat":43.336134,"lon":5.410341,"is_reserved":false,"is_disabled":false,"rental_uris":{"android":"levelo://app?vid=bd196805-466c-4d1c-82b2-b64f2f01e95a","ios":"levelo://app?vid=bd196805-466c-4d1c-82b2-b64f2f01e95a"},"vehicle_type_id":"4","last_reported":1678946993,"current_range_meters":5600,"station_id":"ce4bhqh2rcd13ifvqhmg","pricing_plan_id":"free"},{"bike_id":"80e6e7fc-2611-466a-bad7-099b0ef4c34d","system_id":"levelo_inurba_marseille","lat":43.336134,"lon":5.410341,"is_reserved":false,"is_disabled":false,"rental_uris":{"android":"levelo://app?vid=80e6e7fc-2611-466a-bad7-099b0ef4c34d","ios":"levelo://app?vid=80e6e7fc-2611-466a-bad7-099b0ef4c34d"},"vehicle_type_id":"4","last_reported":1678946993,"current_range_meters":4400,"station_id":"ce4bhqh2rcd13ifvqhmg","pricing_plan_id":"free"},{"bike_id":"ddf2a235-42e0-47e0-9c2e-2d3ef747a613","system_id":"levelo_inurba_marseille","lat":43.336134,"lon":5.410341,"is_reserved":false,"is_disabled":false,"rental_uris":{"android":"levelo://app?vid=ddf2a235-42e0-47e0-9c2e-2d3ef747a613","ios":"levelo://app?vid=ddf2a235-42e0-47e0-9c2e-2d3ef747a613"},"vehicle_type_id":"4","last_reported":1678946993,"current_range_meters":21600,"station_id":"ce4bhqh2rcd13ifvqhmg","pricing_plan_id":"free"},{"bike_id":"14625d7b-3ab3-47b9-9a8a-02bd14120c1e","system_id":"levelo_inurba_marseille","lat":43.336134,"lon":5.410341,"is_reserved":false,"is_disabled":false,"rental_uris":{"android":"levelo://app?vid=14625d7b-3ab3-47b9-9a8a-02bd14120c1e","ios":"levelo://app?vid=14625d7b-3ab3-47b9-9a8a-02bd14120c1e"},"vehicle_type_id":"4","last_reported":1678946993,"current_range_meters":20400,"station_id":"ce4bhqh2rcd13ifvqhmg","pricing_plan_id":"free"},{"bike_id":"8107960d-0a99-4f7a-9212-899186ebd724","system_id":"levelo_inurba_marseille","lat":43.276769,"lon":5.388787,"is_reserved":false,"is_disabled":false,"rental_uris":{"android":"levelo://app?vid=8107960d-0a99-4f7a-9212-899186ebd724","ios":"levelo://app?vid=8107960d-0a99-4f7a-9212-899186ebd724"},"vehicle_type_id":"4","last_reported":1678946993,"current_range_meters":25200,"station_id":"ce4bhi12rcd13ifvqfo0","pricing_plan_id":"free"},{"bike_id":"bc10b753-e9d4-48eb-a2b3-8a48c5fb37bb","system_id":"levelo_inurba_marseille","lat":43.328052,"lon":5.418206,"is_reserved":false,"is_disabled":false,"rental_uris":{"android":"levelo://app?vid=bc10b753-e9d4-48eb-a2b3-8a48c5fb37bb","ios":"levelo://app?vid=bc10b753-e9d4-48eb-a2b3-8a48c5fb37bb"},"vehicle_type_id":"4","last_reported":1678946993,"current_range_meters":5600,"station_id":"","pricing_plan_id":"free"},{"bike_id":"373555f5-cc9f-4638-9b9e-0175f17884f4","system_id":"levelo_inurba_marseille","lat":43.275541,"lon":5.389586,"is_reserved":false,"is_disabled":false,"rental_uris":{"android":"levelo://app?vid=373555f5-cc9f-4638-9b9e-0175f17884f4","ios":"levelo://app?vid=373555f5-cc9f-4638-9b9e-0175f17884f4"},"vehicle_type_id":"4","last_reported":1678946993,"current_range_meters":0,"station_id":"","pricing_plan_id":"free"},{"bike_id":"4de02cdf-c69d-4ca6-a020-8ecb8e0dcffd","system_id":"levelo_inurba_marseille","lat":43.317121,"lon":5.423936,"is_reserved":false,"is_disabled":false,"rental_uris":{"android":"levelo://app?vid=4de02cdf-c69d-4ca6-a020-8ecb8e0dcffd","ios":"levelo://app?vid=4de02cdf-c69d-4ca6-a020-8ecb8e0dcffd"},"vehicle_type_id":"4","last_reported":1678946993,"current_range_meters":28000,"station_id":"ce4bhp92rcd13ifvqhbg","pricing_plan_id":"free"},{"bike_id":"63dee804-3724-4c91-8499-c6b93aaeb9df","system_id":"levelo_inurba_marseille","lat":43.310785,"lon":5.424305,"is_reserved":false,"is_disabled":false,"rental_uris":{"android":"levelo://app?vid=63dee804-3724-4c91-8499-c6b93aaeb9df","ios":"levelo://app?vid=63dee804-3724-4c91-8499-c6b93aaeb9df"},"vehicle_type_id":"4","last_reported":1678946993,"current_range_meters":28000,"station_id":"ce4bhp92rcd13ifvqhag","pricing_plan_id":"free"},{"bike_id":"11d3f005-0bef-433d-9ef3-b4c0773e7151","system_id":"levelo_inurba_marseille","lat":43.33242,"lon":5.41971,"is_reserved":false,"is_disabled":false,"rental_uris":{"android":"levelo://app?vid=11d3f005-0bef-433d-9ef3-b4c0773e7151","ios":"levelo://app?vid=11d3f005-0bef-433d-9ef3-b4c0773e7151"},"vehicle_type_id":"4","last_reported":1678946993,"current_range_meters":0,"station_id":"","pricing_plan_id":"free"},{"bike_id":"d826ca49-4eae-42ec-8e35-714afbe405b0","system_id":"levelo_inurba_marseille","lat":43.304096,"lon":5.425385,"is_reserved":false,"is_disabled":false,"rental_uris":{"android":"levelo://app?vid=d826ca49-4eae-42ec-8e35-714afbe405b0","ios":"levelo://app?vid=d826ca49-4eae-42ec-8e35-714afbe405b0"},"vehicle_type_id":"4","last_reported":1678946993,"current_range_meters":13200,"station_id":"ce4bhoh2rcd13ifvqh6g","pricing_plan_id":"free"},{"bike_id":"ec8baa6f-fe57-418a-9bb7-8191b5dd3c56","system_id":"levelo_inurba_marseille","lat":43.295552,"lon":5.422812,"is_reserved":false,"is_disabled":false,"rental_uris":{"android":"levelo://app?vid=ec8baa6f-fe57-418a-9bb7-8191b5dd3c56","ios":"levelo://app?vid=ec8baa6f-fe57-418a-9bb7-8191b5dd3c56"},"vehicle_type_id":"4","last_reported":1678946993,"current_range_meters":0,"station_id":"ce4bhph2rcd13ifvqhdg","pricing_plan_id":"free"},{"bike_id":"d5d264fa-7a75-47af-8e5d-cdec1091e656","system_id":"levelo_inurba_marseille","lat":43.29554,"lon":5.42286,"is_reserved":false,"is_disabled":false,"rental_uris":{"android":"levelo://app?vid=d5d264fa-7a75-47af-8e5d-cdec1091e656","ios":"levelo://app?vid=d5d264fa-7a75-47af-8e5d-cdec1091e656"},"vehicle_type_id":"4","last_reported":1678946993,"current_range_meters":4000,"station_id":"ce4bhph2rcd13ifvqhdg","pricing_plan_id":"free"},{"bike_id":"6ab8e7e2-5dcf-4930-9677-6d490aa70312","system_id":"levelo_inurba_marseille","lat":43.272116,"lon":5.391747,"is_reserved":false,"is_disabled":false,"rental_uris":{"android":"levelo://app?vid=6ab8e7e2-5dcf-4930-9677-6d490aa70312","ios":"levelo://app?vid=6ab8e7e2-5dcf-4930-9677-6d490aa70312"},"vehicle_type_id":"4","last_reported":1678946993,"current_range_meters":24000,"station_id":"ce4bhhp2rcd13ifvqfm0","pricing_plan_id":"free"},{"bike_id":"3c4c17e5-cd71-4d35-975c-554e24bfb4c4","system_id":"levelo_inurba_marseille","lat":43.272116,"lon":5.391763,"is_reserved":false,"is_disabled":false,"rental_uris":{"android":"levelo://app?vid=3c4c17e5-cd71-4d35-975c-554e24bfb4c4","ios":"levelo://app?vid=3c4c17e5-cd71-4d35-975c-554e24bfb4c4"},"vehicle_type_id":"4","last_reported":1678946993,"current_range_meters":29600,"station_id":"ce4bhhp2rcd13ifvqfm0","pricing_plan_id":"free"},{"bike_id":"3e8f9a2e-076e-483f-b21e-d42926d013ae","system_id":"levelo_inurba_marseille","lat":43.272124,"lon":5.391768,"is_reserved":false,"is_disabled":false,"rental_uris":{"android":"levelo://app?vid=3e8f9a2e-076e-483f-b21e-d42926d013ae","ios":"levelo://app?vid=3e8f9a2e-076e-483f-b21e-d42926d013ae"},