{"last_updated":1728590965,"ttl":60,"version":"2.2","data":{"bikes":[{"bike_id":"ef7b77a5-37cf-4574-ac2c-76847eef67ea","system_id":"levelo_inurba_marseille","lat":43.24811,"lon":5.37458,"is_reserved":false,"is_disabled":false,"rental_uris":{"android":"levelo://app?vid=ef7b77a5-37cf-4574-ac2c-76847eef67ea","ios":"levelo://app?vid=ef7b77a5-37cf-4574-ac2c-76847eef67ea"},"vehicle_type_id":"4","last_reported":1728590965,"current_range_meters":37600,"station_id":"ce4bhgh2rcd13ifvqfb0","pricing_plan_id":"cebpf4jnsgd1na2vs0mg"},{"bike_id":"78bd00ee-cfc3-4e09-bf3b-3c0deb6ca425","system_id":"levelo_inurba_marseille","lat":43.30366,"lon":5.41883,"is_reserved":false,"is_disabled":false,"rental_uris":{"android":"levelo://app?vid=78bd00ee-cfc3-4e09-bf3b-3c0deb6ca425","ios":"levelo://app?vid=78bd00ee-cfc3-4e09-bf3b-3c0deb6ca425"},"vehicle_type_id":"4","last_reported":1728590965,"current_range_meters":28400,"station_id":"ce4bhop2rcd13ifvqh7g","pricing_plan_id":"cebpf4jnsgd1na2vs0mg"},{"bike_id":"3342229a-448c-4e67-8c8b-1ef839d1dd73","system_id":"levelo_inurba_marseille","lat":43.26561,"lon":5.37286,"is_reserved":false,"is_disabled":false,"rental_uris":{"android":"levelo://app?vid=3342229a-448c-4e67-8c8b-1ef839d1dd73","ios":"levelo://app?vid=3342229a-448c-4e67-8c8b-1ef839d1dd73"},"vehicle_type_id":"4","last_reported":1728590965,"current_range_meters":38800,"station_id":"ce4bhg12rcd13ifvqf70","pricing_plan_id":"cebpf4jnsgd1na2vs0mg"},{"bike_id":"8987944d-171f-4c9a-85f0-009c07db5b2a","system_id":"levelo_inurba_marseille","lat":43.30139,"lon":5.38769,"is_reserved":false,"is_disabled":false,"rental_uris":{"android":"levelo://app?vid=8987944d-171f-4c9a-85f0-009c07db5b2a","ios":"levelo://app?vid=8987944d-171f-4c9a-85f0-009c07db5b2a"},"vehicle_type_id":"4","last_reported":1728590965,"current_range_meters":7200,"station_id":"ce4bghh2rcd13ifvqb60","pricing_plan_id":"cebpf4jnsgd1na2vs0mg"},{"bike_id":"4df3827b-0c3a-4d8b-b99c-c7ce02d9fc6d","system_id":"levelo_inurba_marseille","lat":43.25493,"lon":5.3765,"is_reserved":false,"is_disabled":false,"rental_uris":{"android":"levelo://app?vid=4df3827b-0c3a-4d8b-b99c-c7ce02d9fc6d","ios":"levelo://app?vid=4df3827b-0c3a-4d8b-b99c-c7ce02d9fc6d"},"vehicle_type_id":"4","last_reported":1728590965,"current_range_meters":38800,"station_id":"ce4bhh12rcd13ifvqff0","pricing_plan_id":"cebpf4jnsgd1na2vs0mg"},{"bike_id":"fb1080ac-bd8c-493a-bcf9-fda94d437a95","system_id":"levelo_inurba_marseille","lat":43.30588,"lon":5.39356,"is_reserved":false,"is_disabled":false,"rental_uris":{"android":"levelo://app?vid=fb1080ac-bd8c-493a-bcf9-fda94d437a95","ios":"levelo://app?vid=fb1080ac-bd8c-493a-bcf9-fda94d437a95"},"vehicle_type_id":"4","last_reported":1728590965,"current_range_meters":33600,"station_id":"ce4bh0p2rcd13ifvqd80","pricing_plan_id":"cebpf4jnsgd1na2vs0mg"},{"bike_id":"e7dd607a-117d-4da6-817d-74a5531fce2a","system_id":"levelo_inurba_marseille","lat":43.31547,"lon":5.38018,"is_reserved":false,"is_disabled":false,"rental_uris":{"android":"levelo://app?vid=e7dd607a-117d-4da6-817d-74a5531fce2a","ios":"levelo://app?vid=e7dd607a-117d-4da6-817d-74a5531fce2a"},"vehicle_type_id":"4","last_reported":1728590965,"current_range_meters":18000,"station_id":"ce4bhsp2rcd13ifvqi50","pricing_plan_id":"cebpf4jnsgd1na2vs0mg"},{"bike_id":"49dfb0db-3460-4333-94fb-d1008cabd62c","system_id":"levelo_inurba_marseille","lat":43.29418,"lon":5.3863,"is_reserved":false,"is_disabled":false,"rental_uris":{"android":"levelo://app?vid=49dfb0db-3460-4333-94fb-d1008cabd62c","ios":"levelo://app?vid=49dfb0db-3460-4333-94fb-d1008cabd62c"},"vehicle_type_id":"4","last_reported":1728590965,"current_range_meters":38800,"station_id":"ce4bh2h2rcd13ifvqdh0","pricing_plan_id":"cebpf4jnsgd1na2vs0mg"},{"bike_id":"7a9b4a24-80bc-423f-86f6-90903bd77281","system_id":"levelo_inurba_marseille","lat":43.29277,"lon":5.3685,"is_reserved":false,"is_disabled":false,"rental_uris":{"android":"levelo://app?vid=7a9b4a24-80bc-423f-86f6-90903bd77281","ios":"levelo://app?vid=7a9b4a24-80bc-423f-86f6-90903bd77281"},"vehicle_type_id":"4","last_reported":1728590965,"current_range_meters":38800,"station_id":"ce4bhbp2rcd13ifvqesg","pricing_plan_id":"cebpf4jnsgd1na2vs0mg"},{"bike_id":"85400ec7-189c-47e6-8c6d-5e437f804eb8","system_id":"levelo_inurba_marseille","lat":43.29418,"lon":5.38625,"is_reserved":false,"is_disabled":false,"rental_uris":{"android":"levelo://app?vid=85400ec7-189c-47e6-8c6d-5e437f804eb8","ios":"levelo://app?vid=85400ec7-189c-47e6-8c6d-5e437f804eb8"},"vehicle_type_id":"4","last_reported":1728590965,"current_range_meters":38800,"station_id":"ce4bh2h2rcd13ifvqdh0","pricing_plan_id":"cebpf4jnsgd1na2vs0mg"},{"bike_id":"a071a389-75c1-4234-a691-b6e27bf84a02","system_id":"levelo_inurba_marseille","lat":43.287201,"lon":5.360851,"is_reserved":false,"is_disabled":false,"rental_uris":{"android":"levelo://app?vid=a071a389-75c1-4234-a691-b6e27bf84a02","ios":"levelo://app?vid=a071a389-75c1-4234-a691-b6e27bf84a02"},"vehicle_type_id":"4","last_reported":1728590965,"current_range_meters":9200,"station_id":"cki0cbj6b192h4jlfktg","pricing_plan_id":"cebpf4jnsgd1na2vs0mg"},{"bike_id":"5ce2a66a-b949-4239-ae17-6ee1644fc5f2","system_id":"levelo_inurba_marseille","lat":43.25499,"lon":5.3765,"is_reserved":false,"is_disabled":false,"rental_uris":{"android":"levelo://app?vid=5ce2a66a-b949-4239-ae17-6ee1644fc5f2","ios":"levelo://app?vid=5ce2a66a-b949-4239-ae17-6ee1644fc5f2"},"vehicle_type_id":"4","last_reported":1728590965,"current_range_meters":18000,"station_id":"ce4bhh12rcd13ifvqff0","pricing_plan_id":"cebpf4jnsgd1na2vs0mg"},{"bike_id":"6cb2fd54-0aca-4f7d-aadb-bc057dc4fb59","system_id":"levelo_inurba_marseille","lat":43.23073,"lon":5.35492,"is_reserved":false,"is_disabled":false,"rental_uris":{"android":"levelo://app?vid=6cb2fd54-0aca-4f7d-aadb-bc057dc4fb59","ios":"levelo://app?vid=6cb2fd54-0aca-4f7d-aadb-bc057dc4fb59"},"vehicle_type_id":"4","last_reported":1728590965,"current_range_meters":31200,"station_id":"cpo3342slgdg3j2ifvpg","pricing_plan_id":"cebpf4jnsgd1na2vs0mg"},{"bike_id":"7f266107-f2ae-48c7-93b7-20431aa22414","system_id":"levelo_inurba_marseille","lat":43.28156,"lon":5.42648,"is_reserved":false,"is_disabled":false,"rental_uris":{"android":"levelo://app?vid=7f266107-f2ae-48c7-93b7-20431aa22414","ios":"levelo://app?vid=7f266107-f2ae-48c7-93b7-20431aa22414"},"vehicle_type_id":"4","last_reported":1728590965,"current_range_meters":2000,"station_id":"ce4bhnh2rcd13ifvqgug","pricing_plan_id":"cebpf4jnsgd1na2vs0mg"},{"bike_id":"73a4bfa9-5eea-4e08-94c5-4ce42462ba93","system_id":"levelo_inurba_marseille","lat":43.29972,"lon":5.38477,"is_reserved":false,"is_disabled":false,"rental_uris":{"android":"levelo://app?vid=73a4bfa9-5eea-4e08-94c5-4ce42462ba93","ios":"levelo://app?vid=73a4bfa9-5eea-4e08-94c5-4ce42462ba93"},"vehicle_type_id":"4","last_reported":1728590965,"current_range_meters":36400,"station_id":"ce4bgj92rcd13ifvqbd0","pricing_plan_id":"cebpf4jnsgd1na2vs0mg"},{"bike_id":"71031026-8d2a-4ee4-8ef1-d6635513dab8","system_id":"levelo_inurba_marseille","lat":43.29799,"lon":5.37407,"is_reserved":false,"is_disabled":false,"rental_uris":{"android":"levelo://app?vid=71031026-8d2a-4ee4-8ef1-d6635513dab8","ios":"levelo://app?vid=71031026-8d2a-4ee4-8ef1-d6635513dab8"},"vehicle_type_id":"4","last_reported":1728590965,"current_range_meters":17200,"station_id":"ce4bgjh2rcd13ifvqbg0","pricing_plan_id":"cebpf4jnsgd1na2vs0mg"},{"bike_id":"7ae79265-a4f3-408c-9c9a-ba4aa51d6423","system_id":"levelo_inurba_marseille","lat":43.24671,"lon":5.38157,"is_reserved":false,"is_disabled":false,"rental_uris":{"android":"levelo://app?vid=7ae79265-a4f3-408c-9c9a-ba4aa51d6423","ios":"levelo://app?vid=7ae79265-a4f3-408c-9c9a-ba4aa51d6423"},"vehicle_type_id":"4","last_reported":1728590965,"current_range_meters":38000,"station_id":"ce4bhih2rcd13ifvqfr0","pricing_plan_id":"cebpf4jnsgd1na2vs0mg"},{"bike_id":"64eed1d5-ad43-4843-90ca-92dd71d6f243","system_id":"levelo_inurba_marseille","lat":43.2847,"lon":5.35894,"is_reserved":false,"is_disabled":false,"rental_uris":{"android":"levelo://app?vid=64eed1d5-ad43-4843-90ca-92dd71d6f243","ios":"levelo://app?vid=64eed1d5-ad43-4843-90ca-92dd71d6f243"},"vehicle_type_id":"4","last_reported":1728590965,"current_range_meters":38800,"station_id":"ce4bhah2rcd13ifvqei0","pricing_plan_id":"cebpf4jnsgd1na2vs0mg"},{"bike_id":"0d1a388f-a31d-472e-afc1-ba8d098fb8a6","system_id":"levelo_inurba_marseille","lat":43.28862,"lon":5.35868,"is_reserved":false,"is_disabled":false,"rental_uris":{"android":"levelo://app?vid=0d1a388f-a31d-472e-afc1-ba8d098fb8a6","ios":"levelo://app?vid=0d1a388f-a31d-472e-afc1-ba8d098fb8a6"},"vehicle_type_id":"4","last_reported":1728590965,"current_range_meters":38400,"station_id":"ce4bhb12rcd13ifvqem0","pricing_plan_id":"cebpf4jnsgd1na2vs0mg"},{"bike_id":"a381101a-699f-4448-b24c-2d8a9de228d7","system_id":"levelo_inurba_marseille","lat":43.26564,"lon":5.39012,"is_reserved":false,"is_disabled":false,"rental_uris":{"android":"levelo://app?vid=a381101a-699f-4448-b24c-2d8a9de228d7","ios":"levelo://app?vid=a381101a-699f-4448-b24c-2d8a9de228d7"},"vehicle_type_id":"4","last_reported":1728590965,"current_range_meters":28400,"station_id":"ce4bhe12rcd13ifvqf30","pricing_plan_id":"cebpf4jnsgd1na2vs0mg"},{"bike_id":"e3922387-448d-47fb-a213-f4adf9e12e50","system_id":"levelo_inurba_marseille","lat":43.28286,"lon":5.39829,"is_reserved":false,"is_disabled":false,"rental_uris":{"android":"levelo://app?vid=e3922387-448d-47fb-a213-f4adf9e12e50","ios":"levelo://app?vid=e3922387-448d-47fb-a213-f4adf9e12e50"},"vehicle_type_id":"4","last_reported":1728590965,"current_range_meters":3600,"station_id":"ce4bhn92rcd13ifvqgrg","pricing_plan_id":"cebpf4jnsgd1na2vs0mg"},{"bike_id":"6fccb379-adca-4617-bbeb-442137e4c023","system_id":"levelo_inurba_marseille","lat":43.28465,"lon":5.35884,"is_reserved":false,"is_disabled":false,"rental_uris":{"android":"levelo://app?vid=6fccb379-adca-4617-bbeb-442137e4c023","ios":"levelo://app?vid=6fccb379-adca-4617-bbeb-442137e4c023"},"vehicle_type_id":"4","last_reported":1728590965,"current_range_meters":20800,"station_id":"ce4bhah2rcd13ifvqei0","pricing_plan_id":"cebpf4jnsgd1na2vs0mg"},{"bike_id":"f21ff7cf-a5e7-4036-9a78-a2aa83b6340b","system_id":"levelo_inurba_marseille","lat":43.23193,"lon":5.3555,"is_reserved":false,"is_disabled":false,"rental_uris":{"android":"levelo://app?vid=f21ff7cf-a5e7-4036-9a78-a2aa83b6340b","ios":"levelo://app?vid=f21ff7cf-a5e7-4036-9a78-a2aa83b6340b"},"vehicle_type_id":"4","last_reported":1728590965,"current_range_meters":38800,"station_id":"ce4bhu92rcd13ifvqi70","pricing_plan_id":"cebpf4jnsgd1na2vs0mg"},{"bike_id":"db0f29d4-48fb-4f25-9465-ea5338ef12e5","system_id":"levelo_inurba_marseille","lat":43.30889,"lon":5.39631,"is_reserved":false,"is_disabled":false,"rental_uris":{"android":"levelo://app?vid=db0f29d4-48fb-4f25-9465-ea5338ef12e5","ios":"levelo://app?vid=db0f29d4-48fb-4f25-9465-ea5338ef12e5"},"vehicle_type_id":"4","last_reported":1728590965,"current_range_meters":14400,"station_id":"ce4bh012rcd13ifvqcv0","pricing_plan_id":"cebpf4jnsgd1na2vs0mg"},{"bike_id":"9d3769ba-a2ff-4238-aa8d-406995215697","system_id":"levelo_inurba_marseille","lat":43.30789,"lon":5.37657,"is_reserved":false,"is_disabled":false,"rental_uris":{"android":"levelo://app?vid=9d3769ba-a2ff-4238-aa8d-406995215697","ios":"levelo://app?vid=9d3769ba-a2ff-4238-aa8d-406995215697"},"vehicle_type_id":"4","last_reported":1728590965,"current_range_meters":18800,"station_id":"ce4bgv92rcd13ifvqcq0","pricing_plan_id":"cebpf4jnsgd1na2vs0mg"},{"bike_id":"6302552d-0538-4406-bf49-43803291e745","system_id":"levelo_inurba_marseille","lat":43.30429,"lon":5.39747,"is_reserved":false,"is_disabled":false,"rental_uris":{"android":"levelo://app?vid=6302552d-0538-4406-bf49-43803291e745","ios":"levelo://app?vid=6302552d-0538-4406-bf49-43803291e745"},"vehicle_type_id":"4","last_reported":1728590965,"current_range_meters":38400,"station_id":"ce4bh092rcd13ifvqd20","pricing_plan_id":"cebpf4jnsgd1na2vs0mg"},{"bike_id":"30269cb4-758d-4356-a15b-be02aa9f4e1b","system_id":"levelo_inurba_marseille","lat":43.30895,"lon":5.37199,"is_reserved":false,"is_disabled":false,"rental_uris":{"android":"levelo://app?vid=30269cb4-758d-4356-a15b-be02aa9f4e1b","ios":"levelo://app?vid=30269cb4-758d-4356-a15b-be02aa9f4e1b"},"vehicle_type_id":"4","last_reported":1728590965,"current_range_meters":37600,"station_id":"ce4bguh2rcd13ifvqckg","pricing_plan_id":"cebpf4jnsgd1na2vs0mg"},{"bike_id":"c1d9081d-5c83-435f-a1c0-6bfca5f3a752","system_id":"levelo_inurba_marseille","lat":43.28463,"lon":5.35891,"is_reserved":false,"is_disabled":false,"rental_uris":{"android":"levelo://app?vid=c1d9081d-5c83-435f-a1c0-6bfca5f3a752","ios":"levelo://app?vid=c1d9081d-5c83-435f-a1c0-6bfca5f3a752"},"vehicle_type_id":"4","last_reported":1728590965,"current_range_meters":36800,"station_id":"ce4bhah2rcd13ifvqei0","pricing_plan_id":"cebpf4jnsgd1na2vs0mg"},{"bike_id":"6e7d9ad6-b3f3-42f9-8e61-c655b64004ec","system_id":"levelo_inurba_marseille","lat":43.31179,"lon":5.386893,"is_reserved":false,"is_disabled":false,"rental_uris":{"android":"levelo://app?vid=6e7d9ad6-b3f3-42f9-8e61-c655b64004ec","ios":"levelo://app?vid=6e7d9ad6-b3f3-42f9-8e61-c655b64004ec"},"vehicle_type_id":"4","last_reported":1728590965,"current_range_meters":38800,"station_id":"ce4bgv12rcd13ifvqcp0","pricing_plan_id":"cebpf4jnsgd1na2vs0mg"},{"bike_id":"8489a8f2-98b9-4f3f-82d7-366096c80597","system_id":"levelo_inurba_marseille","lat":43.31533,"lon":5.38032,"is_reserved":false,"is_disabled":false,"rental_uris":{"android":"levelo://app?vid=8489a8f2-98b9-4f3f-82d7-366096c80597","ios":"levelo://app?vid=8489a8f2-98b9-4f3f-82d7-366096c80597"},"vehicle_type_id":"4","last_reported":1728590965,"current_range_meters":16000,"station_id":"ce4bhsp2rcd13ifvqi50","pricing_plan_id":"cebpf4jnsgd1na2vs0mg"},{"bike_id":"57add596-5b6d-4189-8e90-4c3eff7a193a","system_id":"levelo_inurba_marseille","lat":43.31368,"lon":5.38512,"is_reserved":false,"is_disabled":false,"rental_uris":{"android":"levelo://app?vid=57add596-5b6d-4189-8e90-4c3eff7a193a","ios":"levelo://app?vid=57add596-5b6d-4189-8e90-4c3eff7a193a"},"vehicle_type_id":"4","last_reported":1728590965,"current_range_meters":8400,"station_id":"ce4bgt92rcd13ifvqcf0","pricing_plan_id":"cebpf4jnsgd1na2vs0mg"},{"bike_id":"2a527804-908f-45f1-82f8-582eaa71c5fa","system_id":"levelo_inurba_marseille","lat":43.29996,"lon":5.37153,"is_reserved":false,"is_disabled":false,"rental_uris":{"android":"levelo://app?vid=2a527804-908f-45f1-82f8-582eaa71c5fa","ios":"levelo://app?vid=2a527804-908f-45f1-82f8-582eaa71c5fa"},"vehicle_type_id":"4","last_reported":1728590965,"current_range_meters":38000,"station_id":"ce4bgr92rcd13ifvqc7g","pricing_plan_id":"cebpf4jnsgd1na2vs0mg"},{"bike_id":"9db4d985-7949-4b7f-b898-6a0ca7ba3693","system_id":"levelo_inurba_marseille","lat":43.3377,"lon":5.37455,"is_reserved":false,"is_disabled":false,"rental_uris":{"android":"levelo://app?vid=9db4d985-7949-4b7f-b898-6a0ca7ba3693","ios":"levelo://app?vid=9db4d985-7949-4b7f-b898-6a0ca7ba3693"},"vehicle_type_id":"4","last_reported":1728590965,"current_range_meters":33600,"station_id":"ce4rr2p2rcd13i802rgg","pricing_plan_id":"cebpf4jnsgd1na2vs0mg"},{"bike_id":"bd2aec49-c05b-410c-856c-a14327810257","system_id":"levelo_inurba_marseille","lat":43.30882,"lon":5.39639,"is_reserved":false,"is_disabled":false,"rental_uris":{"android":"levelo://app?vid=bd2aec49-c05b-410c-856c-a14327810257","ios":"levelo://app?vid=bd2aec49-c05b-410c-856c-a14327810257"},"vehicle_type_id":"4","last_reported":1728590965,"current_range_meters":40000,"station_id":"ce4bh012rcd13ifvqcv0","pricing_plan_id":"cebpf4jnsgd1na2vs0mg"},{"bike_id":"993d1cf8-e533-4dda-8405-3f2a846d5998","system_id":"levelo_inurba_marseille","lat":43.2871,"lon":5.37393,"is_reserved":false,"is_disabled":false,"rental_uris":{"android":"levelo://app?vid=993d1cf8-e533-4dda-8405-3f2a846d5998","ios":"levelo://app?vid=993d1cf8-e533-4dda-8405-3f2a846d5998"},"vehicle_type_id":"4","last_reported":1728590965,"current_range_meters":38800,"station_id":"ce4bh3p2rcd13ifvqdq0","pricing_plan_id":"cebpf4jnsgd1na2vs0mg"},{"bike_id":"79983262-f8b4-48c7-a7ea-97b97d4cbffb","system_id":"levelo_inurba_marseille","lat":43.29849,"lon":5.3627,"is_reserved":false,"is_disabled":false,"rental_uris":{"android":"levelo://app?vid=79983262-f8b4-48c7-a7ea-97b97d4cbffb","ios":"levelo://app?vid=79983262-f8b4-48c7-a7ea-97b97d4cbffb"},"vehicle_type_id":"4","last_reported":1728590965,"current_range_meters":3200,"station_id":"ce4bgpp2rcd13ifvqc3g","pricing_plan_id":"cebpf4jnsgd1na2vs0mg"},{"bike_id":"9bfa2009-dc7f-4679-a991-da64da56d45e","system_id":"levelo_inurba_marseille","lat":43.29309,"lon":5.37175,"is_reserved":false,"is_disabled":false,"rental_uris":{"android":"levelo://app?vid=9bfa2009-dc7f-4679-a991-da64da56d45e","ios":"levelo://app?vid=9bfa2009-dc7f-4679-a991-da64da56d45e"},"vehicle_type_id":"4","last_reported":1728590965,"current_range_meters":36800,"station_id":"ce4bgh92rcd13ifvqb40","pricing_plan_id":"cebpf4jnsgd1na2vs0mg"},{"bike_id":"c2709d8c-182c-4c66-9678-32143d413767","system_id":"levelo_inurba_marseille","lat":43.22936,"lon":5.35378,"is_reserved":false,"is_disabled":false,"rental_uris":{"android":"levelo://app?vid=c2709d8c-182c-4c66-9678-32143d413767","ios":"levelo://app?vid=c2709d8c-182c-4c66-9678-32143d413767"},"vehicle_type_id":"4","last_reported":1728590965,"current_range_meters":35600,"station_id":"cpo3532slgdg3j2ikp40","pricing_plan_id":"cebpf4jnsgd1na2vs0mg"},{"bike_id":"5e8a3ce9-ffb9-4abb-98be-bae98a1d7a20","system_id":"levelo_inurba_marseille","lat":43.309787,"lon":5.390345,"is_reserved":false,"is_disabled":false,"rental_uris":{"android":"levelo://app?vid=5e8a3ce9-ffb9-4abb-98be-bae98a1d7a20","ios":"levelo://app?vid=5e8a3ce9-ffb9-4abb-98be-bae98a1d7a20"},"vehicle_type_id":"4","last_reported":1728590965,"current_range_meters":38800,"station_id":"ce4bgup2rcd13ifvqco0","pricing_plan_id":"cebpf4jnsgd1na2vs0mg"},{"bike_id":"0ea03536-1625-40a3-9e84-a19dc051879d","system_id":"levelo_inurba_marseille","lat":43.28722,"lon":5.37394,"is_reserved":false,"is_disabled":false,"rental_uris":{"android":"levelo://app?vid=0ea03536-1625-40a3-9e84-a19dc051879d","ios":"levelo://app?vid=0ea03536-1625-40a3-9e84-a19dc051879d"},"vehicle_type_id":"4","last_reported":1728590965,"current_range_meters":38800,"station_id":"ce4bh3p2rcd13ifvqdq0","pricing_plan_id":"cebpf4jnsgd1na2vs0mg"},{"bike_id":"b4e8bd77-a3ff-4b3b-85c3-f17839ebfc15","system_id":"levelo_inurba_marseille","lat":43.31752,"lon":5.3903,"is_reserved":false,"is_disabled":false,"rental_uris":{"android":"levelo://app?vid=b4e8bd77-a3ff-4b3b-85c3-f17839ebfc15","ios":"levelo://app?vid=b4e8bd77-a3ff-4b3b-85c3-f17839ebfc15"},"vehicle_type_id":"4","last_reported":1728590965,"current_range_meters":7200,"station_id":"ce4bhqp2rcd13ifvqhng","pricing_plan_id":"cebpf4jnsgd1na2vs0mg"},{"bike_id":"6b4d4992-733f-430b-aea2-91a05acfdf97","system_id":"levelo_inurba_marseille","lat":43.30089,"lon":5.39086,"is_reserved":false,"is_disabled":false,"rental_uris":{"android":"levelo://app?vid=6b4d4992-733f-430b-aea2-91a05acfdf97","ios":"levelo://app?vid=6b4d4992-733f-430b-aea2-91a05acfdf97"},"vehicle_type_id":"4","last_reported":1728590965,"current_range_meters":22800,"station_id":"ce4bh192rcd13ifvqdb0","pricing_plan_id":"cebpf4jnsgd1na2vs0mg"},{"bike_id":"b7554bb3-5ab4-4f54-a78e-c99f671808e1","system_id":"levelo_inurba_marseille","lat":43.30802,"lon":5.38157,"is_reserved":false,"is_disabled":false,"rental_uris":{"android":"levelo://app?vid=b7554bb3-5ab4-4f54-a78e-c99f671808e1","ios":"levelo://app?vid=b7554bb3-5ab4-4f54-a78e-c99f671808e1"},"vehicle_type_id":"4","last_reported":1728590965,"current_range_meters":36000,"station_id":"ce4bgt12rcd13ifvqce0","pricing_plan_id":"cebpf4jnsgd1na2vs0mg"},{"bike_id":"0f930c1c-d332-4864-ac6e-660916694ec2","system_id":"levelo_inurba_marseille","lat":43.27621,"lon":5.3612,"is_reserved":false,"is_disabled":false,"rental_uris":{"android":"levelo://app?vid=0f930c1c-d332-4864-ac6e-660916694ec2","ios":"levelo://app?vid=0f930c1c-d332-4864-ac6e-660916694ec2"},"vehicle_type_id":"4","last_reported":1728590965,"current_range_meters":9200,"station_id":"ce4bgj92rcd13ifvqbe0","pricing_plan_id":"cebpf4jnsgd1na2vs0mg"},{"bike_id":"6dfa3c8d-8a00-4d6a-8e9c-760e33de478b","system_id":"levelo_inurba_marseille","lat":43.29187,"lon":5.39316,"is_reserved":false,"is_disabled":false,"rental_uris":{"android":"levelo://app?vid=6dfa3c8d-8a00-4d6a-8e9c-760e33de478b","ios":"levelo://app?vid=6dfa3c8d-8a00-4d6a-8e9c-760e33de478b"},"vehicle_type_id":"4","last_reported":1728590965,"current_range_meters":38800,"station_id":"ce4bh192rcd13ifvqdd0","pricing_plan_id":"cebpf4jnsgd1na2vs0mg"},{"bike_id":"f92a9fb8-9f73-4cf9-bc9b-2bdf5b520248","system_id":"levelo_inurba_marseille","lat":43.3254,"lon":5.4144,"is_reserved":false,"is_disabled":false,"rental_uris":{"android":"levelo://app?vid=f92a9fb8-9f73-4cf9-bc9b-2bdf5b520248","ios":"levelo://app?vid=f92a9fb8-9f73-4cf9-bc9b-2bdf5b520248"},"vehicle_type_id":"4","last_reported":1728590965,"current_range_meters":38800,"station_id":"ce4bhq12rcd13ifvqhhg","pricing_plan_id":"cebpf4jnsgd1na2vs0mg"},{"bike_id":"4b7be203-7111-4ecd-9808-00597656e983","system_id":"levelo_inurba_marseille","lat":43.33026,"lon":5.39042,"is_reserved":false,"is_disabled":false,"rental_uris":{"android":"levelo://app?vid=4b7be203-7111-4ecd-9808-00597656e983","ios":"levelo://app?vid=4b7be203-7111-4ecd-9808-00597656e983"},"vehicle_type_id":"4","last_reported":1728590965,"current_range_meters":37600,"station_id":"ce4bhr92rcd13ifvqhrg","pricing_plan_id":"cebpf4jnsgd1na2vs0mg"},{"bike_id":"6f45b516-3dc6-40f8-bf25-e6a320e8c7e4","system_id":"levelo_inurba_marseille","lat":43.29605,"lon":5.38669,"is_reserved":false,"is_disabled":false,"rental_uris":{"android":"levelo://app?vid=6f45b516-3dc6-40f8-bf25-e6a320e8c7e4","ios":"levelo://app?vid=6f45b516-3dc6-40f8-bf25-e6a320e8c7e4"},"vehicle_type_id":"4","last_reported":1728590965,"current_range_meters":36400,"station_id":"ce4bhsp2rcd13ifvqi50","pricing_plan_id":"cebpf4jnsgd1na2vs0mg"},{"bike_id":"9124e6ce-e135-4526-92bb-5f06b8e246c3","system_id":"levelo_inurba_marseille","lat":43.30542,"lon":5.36724,"is_reserved":false,"is_disabled":false,"rental_uris":{"android":"levelo://app?vid=9124e6ce-e135-4526-92bb-5f06b8e246c3","ios":"levelo://app?vid=9124e6ce-e135-4526-92bb-5f06b8e246c3"},"vehicle_type_id":"4","last_reported":1728590965,"current_range_meters":6800,"station_id":"ce4bgrp2rcd13ifvqc9g","pricing_plan_id":"cebpf4jnsgd1na2vs0mg"},{"bike_id":"50aa4af7-94b4-48c9-959d-eeec3eaec001","system_id":"levelo_inurba_marseille","lat":43.23198,"lon":5.35547,"is_reserved":false,"is_disabled":false,"rental_uris":{"android":"levelo://app?vid=50aa4af7-94b4-48c9-959d-eeec3eaec001","ios":"levelo://app?vid=50aa4af7-94b4-48c9-959d-eeec3eaec001"},"vehicle_type_id":"4","last_reported":1728590965,"current_range_meters":38800,"station_id":"ce4bhu92rcd13ifvqi70","pricing_plan_id":"cebpf4jnsgd1na2vs0mg"},{"bike_id":"dade3d2f-3f22-4b1e-92c9-4504fc72033e","system_id":"levelo_inurba_marseille","lat":43.26954,"lon":5.38625,"is_reserved":false,"is_disabled":false,"rental_uris":{"android":"levelo://app?vid=dade3d2f-3f22-4b1e-92c9-4504fc72033e","ios":"levelo://app?vid=dade3d2f-3f22-4b1e-92c9-4504fc72033e"},"vehicle_type_id":"4","last_reported":1728590965,"current_range_meters":30400,"station_id":"ce4bhh92rcd13ifvqfh0","pricing_plan_id":"cebpf4jnsgd1na2vs0mg"},{"bike_id":"8f58235a-d4da-4cab-bb8e-7e93577e7259","system_id":"levelo_inurba_marseille","lat":43.2319,"lon":5.39992,"is_reserved":false,"is_disabled":false,"rental_uris":{"android":"levelo://app?vid=8f58235a-d4da-4cab-bb8e-7e93577e7259","ios":"levelo://app?vid=8f58235a-d4da-4cab-bb8e-7e93577e7259"},"vehicle_type_id":"4","last_reported":1728590965,"current_range_meters":38400,"station_id":"ce4bhn12rcd13ifvqgqg","pricing_plan_id":"cebpf4jnsgd1na2vs0mg"},{"bike_id":"84c30ed3-60f2-43c6-a6ef-72b2abd8f6b1","system_id":"levelo_inurba_marseille","lat":43.26698,"lon":5.38287,"is_reserved":false,"is_disabled":false,"rental_uris":{"android":"levelo://app?vid=84c30ed3-60f2-43c6-a6ef-72b2abd8f6b1","ios":"levelo://app?vid=84c30ed3-60f2-43c6-a6ef-72b2abd8f6b1"},"vehicle_type_id":"4","last_reported":1728590965,"current_range_meters":36800,"station_id":"ce4bhg92rcd13ifvqf90","pricing_plan_id":"cebpf4jnsgd1na2vs0mg"},{"bike_id":"254faf2c-a0ec-49fa-9a73-7624dc4a0e91","system_id":"levelo_inurba_marseille","lat":43.29853,"lon":5.36291,"is_reserved":false,"is_disabled":false,"rental_uris":{"android":"levelo://app?vid=254faf2c-a0ec-49fa-9a73-7624dc4a0e91","ios":"levelo://app?vid=254faf2c-a0ec-49fa-9a73-7624dc4a0e91"},"vehicle_type_id":"4","last_reported":1728590965,"current_range_meters":38800,"station_id":"ce4bgpp2rcd13ifvqc3g","pricing_plan_id":"cebpf4jnsgd1na2vs0mg"},{"bike_id":"255093a8-c98a-4773-851f-60ca2d6fabdf","system_id":"levelo_inurba_marseille","lat":43.3357,"lon":5.36755,"is_reserved":false,"is_disabled":false,"rental_uris":{"android":"levelo://app?vid=255093a8-c98a-4773-851f-60ca2d6fabdf","ios":"levelo://app?vid=255093a8-c98a-4773-851f-60ca2d6fabdf"},"vehicle_type_id":"4","last_reported":1728590965,"current_range_meters":34800,"station_id":"","pricing_plan_id":"cebpf4jnsgd1na2vs0mg"},{"bike_id":"04cdfc0e-0712-459a-a56c-8097add52c1d","system_id":"levelo_inurba_marseille","lat":43.28084,"lon":5.39661,"is_reserved":false,"is_disabled":false,"rental_uris":{"android":"levelo://app?vid=04cdfc0e-0712-459a-a56c-8097add52c1d","ios":"levelo://app?vid=04cdfc0e-0712-459a-a56c-8097add52c1d"},"vehicle_type_id":"4","last_reported":1728590965,"current_range_meters":10000,"station_id":"ce4bho12rcd13ifvqh2g","pricing_plan_id":"cebpf4jnsgd1na2vs0mg"},{"bike_id":"17b4ffa1-e5cc-41f5-9179-86ec5c0f02ca","system_id":"levelo_inurba_marseille","lat":43.29855,"lon":5.36272,"is_reserved":false,"is_disabled":false,"rental_uris":{"android":"levelo://app?vid=17b4ffa1-e5cc-41f5-9179-86ec5c0f02ca","ios":"levelo://app?vid=17b4ffa1-e5cc-41f5-9179-86ec5c0f02ca"},"vehicle_type_id":"4","last_reported":1728590965,"current_range_meters":29600,"station_id":"ce4bgpp2rcd13ifvqc3g","pricing_plan_id":"cebpf4jnsgd1na2vs0mg"},{"bike_id":"02d49084-d15b-4d2c-a950-4c9c2aff4f89","system_id":"levelo_inurba_marseille","lat":43.27498,"lon":5.4245,"is_reserved":false,"is_disabled":false,"rental_uris":{"android":"levelo://app?vid=02d49084-d15b-4d2c-a950-4c9c2aff4f89","ios":"levelo://app?vid=02d49084-d15b-4d2c-a950-4c9c2aff4f89"},"vehicle_type_id":"4","last_reported":1728590965,"current_range_meters":30800,"station_id":"ce4bhn92rcd13ifvqgrg","pricing_plan_id":"cebpf4jnsgd1na2vs0mg"},{"bike_id":"bb835774-a982-4db0-ad65-395f4f818819","system_id":"levelo_inurba_marseille","lat":43.24746,"lon":5.39271,"is_reserved":false,"is_disabled":false,"rental_uris":{"android":"levelo://app?vid=bb835774-a982-4db0-ad65-395f4f818819","ios":"levelo://app?vid=bb835774-a982-4db0-ad65-395f4f818819"},"vehicle_type_id":"4","last_reported":1728590965,"current_range_meters":13600,"station_id":"ce4bhn12rcd13ifvqgpg","pricing_plan_id":"cebpf4jnsgd1na2vs0mg"},{"bike_id":"83671d62-48fd-4a45-9013-d19fc0b99460","system_id":"levelo_inurba_marseille","lat":43.29584,"lon":5.36745,"is_reserved":false,"is_disabled":false,"rental_uris":{"android":"levelo://app?vid=83671d62-48fd-4a45-9013-d19fc0b99460","ios":"levelo://app?vid=83671d62-48fd-4a45-9013-d19fc0b99460"},"vehicle_type_id":"4","last_reported":1728590965,"current_range_meters":17200,"station_id":"ce4bgph2rcd13ifvqc2g","pricing_plan_id":"cebpf4jnsgd1na2vs0mg"},{"bike_id":"f231d8e0-c0bf-4352-ab25-9cde863b20a8","system_id":"levelo_inurba_marseille","lat":43.29422,"lon":5.38627,"is_reserved":false,"is_disabled":false,"rental_uris":{"android":"levelo://app?vid=f231d8e0-c0bf-4352-ab25-9cde863b20a8","ios":"levelo://app?vid=f231d8e0-c0bf-4352-ab25-9cde863b20a8"},"vehicle_type_id":"4","last_reported":1728590965,"current_range_meters":38800,"station_id":"ce4bh2h2rcd13ifvqdh0","pricing_plan_id":"cebpf4jnsgd1na2vs0mg"},{"bike_id":"ff68b789-7173-415f-860f-fb58c1b9d01d","system_id":"levelo_inurba_marseille","lat":43.22928,"lon":5.35376,"is_reserved":false,"is_disabled":false,"rental_uris":{"android":"levelo://app?vid=ff68b789-7173-415f-860f-fb58c1b9d01d","ios":"levelo://app?vid=ff68b789-7173-415f-860f-fb58c1b9d01d"},"vehicle_type_id":"4","last_reported":1728590965,"current_range_meters":35200,"station_id":"cpo3532slgdg3j2ikp40","pricing_plan_id":"cebpf4jnsgd1na2vs0mg"},{"bike_id":"92d4d60b-bce5-4a8b-99fd-8561b3de061c","system_id":"levelo_inurba_marseille","lat":43.29592,"lon":5.38104,"is_reserved":false,"is_disabled":false,"rental_uris":{"android":"levelo://app?vid=92d4d60b-bce5-4a8b-99fd-8561b3de061c","ios":"levelo://app?vid=92d4d60b-bce5-4a8b-99fd-8561b3de061c"},"vehicle_type_id":"4","last_reported":1728590965,"current_range_meters":38800,"station_id":"ce4bgl12rcd13ifvqbo0","pricing_plan_id":"cebpf4jnsgd1na2vs0mg"},{"bike_id":"15af7706-f039-4880-a405-acd56cf7761a","system_id":"levelo_inurba_marseille","lat":43.29592,"lon":5.36739,"is_reserved":false,"is_disabled":false,"rental_uris":{"android":"levelo://app?vid=15af7706-f039-4880-a405-acd56cf7761a","ios":"levelo://app?vid=15af7706-f039-4880-a405-acd56cf7761a"},"vehicle_type_id":"4","last_reported":1728590965,"current_range_meters":38000,"station_id":"ce4bgph2rcd13ifvqc2g","pricing_plan_id":"cebpf4jnsgd1na2vs0mg"},{"bike_id":"6cb5b02c-2401-484a-8b7d-b4d2106d6b08","system_id":"levelo_inurba_marseille","lat":43.23201,"lon":5.35558,"is_reserved":false,"is_disabled":false,"rental_uris":{"android":"levelo://app?vid=6cb5b02c-2401-484a-8b7d-b4d2106d6b08","ios":"levelo://app?vid=6cb5b02c-2401-484a-8b7d-b4d2106d6b08"},"vehicle_type_id":"4","last_reported":1728590965,"current_range_meters":38400,"station_id":"ce4bhu92rcd13ifvqi70","pricing_plan_id":"cebpf4jnsgd1na2vs0mg"},{"bike_id":"f255bdbb-a497-4549-91a5-4dbe27c9af42","system_id":"levelo_inurba_marseille","lat":43.2467,"lon":5.38152,"is_reserved":false,"is_disabled":false,"rental_uris":{"android":"levelo://app?vid=f255bdbb-a497-4549-91a5-4dbe27c9af42","ios":"levelo://app?vid=f255bdbb-a497-4549-91a5-4dbe27c9af42"},"vehicle_type_id":"4","last_reported":1728590965,"current_range_meters":27200,"station_id":"ce4bhih2rcd13ifvqfr0","pricing_plan_id":"cebpf4jnsgd1na2vs0mg"},{"bike_id":"bcff8bb1-95e6-4190-8595-ac95877f7eb3","system_id":"levelo_inurba_marseille","lat":43.24078,"lon":5.3776,"is_reserved":false,"is_disabled":false,"rental_uris":{"android":"levelo://app?vid=bcff8bb1-95e6-4190-8595-ac95877f7eb3","ios":"levelo://app?vid=bcff8bb1-95e6-4190-8595-ac95877f7eb3"},"vehicle_type_id":"4","last_reported":1728590965,"current_range_meters":34800,"station_id":"ce4bhnp2rcd13ifvqgvg","pricing_plan_id":"cebpf4jnsgd1na2vs0mg"},{"bike_id":"a8fc1cbc-a762-4338-9c2e-875479f4153c","system_id":"levelo_inurba_marseille","lat":43.30542,"lon":5.367032,"is_reserved":false,"is_disabled":false,"rental_uris":{"android":"levelo://app?vid=a8fc1cbc-a762-4338-9c2e-875479f4153c","ios":"levelo://app?vid=a8fc1cbc-a762-4338-9c2e-875479f4153c"},"vehicle_type_id":"4","last_reported":1728590965,"current_range_meters":38000,"station_id":"ce4bgrp2rcd13ifvqc9g","pricing_plan_id":"cebpf4jnsgd1na2vs0mg"},{"bike_id":"261ac79a-76ac-4496-a46c-bfdc96b0911c","system_id":"levelo_inurba_marseille","lat":43.30643,"lon":5.40087,"is_reserved":false,"is_disabled":false,"rental_uris":{"android":"levelo://app?vid=261ac79a-76ac-4496-a46c-bfdc96b0911c","ios":"levelo://app?vid=261ac79a-76ac-4496-a46c-bfdc96b0911c"},"vehicle_type_id":"4","last_reported":1728590965,"current_range_meters":9200,"station_id":"ce4bh112rcd13ifvqda0","pricing_plan_id":"cebpf4jnsgd1na2vs0mg"},{"bike_id":"70e8d9e5-8396-4d7d-be39-1fc17a440db7","system_id":"levelo_inurba_marseille","lat":43.33614,"lon":5.41033,"is_reserved":false,"is_disabled":false,"rental_uris":{"android":"levelo://app?vid=70e8d9e5-8396-4d7d-be39-1fc17a440db7","ios":"levelo://app?vid=70e8d9e5-8396-4d7d-be39-1fc17a440db7"},"vehicle_type_id":"4","last_reported":1728590965,"current_range_meters":3200,"station_id":"ce4bhqh2rcd13ifvqhmg","pricing_plan_id":"cebpf4jnsgd1na2vs0mg"},{"bike_id":"b43e010f-69ea-40f6-9796-119442586a51","system_id":"levelo_inurba_marseille","lat":43.31334,"lon":5.39702,"is_reserved":false,"is_disabled":false,"rental_uris":{"android":"levelo://app?vid=b43e010f-69ea-40f6-9796-119442586a51","ios":"levelo://app?vid=b43e010f-69ea-40f6-9796-119442586a51"},"vehicle_type_id":"4","last_reported":1728590965,"current_range_meters":8400,"station_id":"ce4bgvp2rcd13ifvqcu0","pricing_plan_id":"cebpf4jnsgd1na2vs0mg"},{"bike_id":"f651e716-80af-4ba0-b5f0-5756f04bf27a","system_id":"levelo_inurba_marseille","lat":43.285553,"lon":5.39502,"is_reserved":false,"is_disabled":false,"rental_uris":{"android":"levelo://app?vid=f651e716-80af-4ba0-b5f0-5756f04bf27a","ios":"levelo://app?vid=f651e716-80af-4ba0-b5f0-5756f04bf27a"},"vehicle_type_id":"4","last_reported":1728590965,"current_range_meters":25200,"station_id":"ce4bh292rcd13ifvqdg0","pricing_plan_id":"cebpf4jnsgd1na2vs0mg"},{"bike_id":"b88acc46-208f-442f-82c2-468418a3d08f","system_id":"levelo_inurba_marseille","lat":43.3374,"lon":5.3918,"is_reserved":false,"is_disabled":false,"rental_uris":{"android":"levelo://app?vid=b88acc46-208f-442f-82c2-468418a3d08f","ios":"levelo://app?vid=b88acc46-208f-442f-82c2-468418a3d08f"},"vehicle_type_id":"4","last_reported":1728590965,"current_range_meters":36400,"station_id":"ce4bhr92rcd13ifvqhsg","pricing_plan_id":"cebpf4jnsgd1na2vs0mg"},{"bike_id":"1d483a38-1dea-49a3-87d6-3e0ebf825f0a","system_id":"levelo_inurba_marseille","lat":43.32115,"lon":5.36773,"is_reserved":false,"is_disabled":false,"rental_uris":{"android":"levelo://app?vid=1d483a38-1dea-49a3-87d6-3e0ebf825f0a","ios":"levelo://app?vid=1d483a38-1dea-49a3-87d6-3e0ebf825f0a"},"vehicle_type_id":"4","last_reported":1728590965,"current_range_meters":8800,"station_id":"ce4bhrh2rcd13ifvqhug","pricing_plan_id":"cebpf4jnsgd1na2vs0mg"},{"bike_id":"cbc310e6-435c-4359-8971-31c9bce35051","system_id":"levelo_inurba_marseille","lat":43.292,"lon":5.39325,"is_reserved":false,"is_disabled":false,"rental_uris":{"android":"levelo://app?vid=cbc310e6-435c-4359-8971-31c9bce35051","ios":"levelo://app?vid=cbc310e6-435c-4359-8971-31c9bce35051"},"vehicle_type_id":"4","last_reported":1728590965,"current_range_meters":38800,"station_id":"ce4bh192rcd13ifvqdd0","pricing_plan_id":"cebpf4jnsgd1na2vs0mg"},{"bike_id":"9a3ef8f3-8740-4e39-9c24-cf98b0108ac8","system_id":"levelo_inurba_marseille","lat":43.28035,"lon":5.36938,"is_reserved":false,"is_disabled":false,"rental_uris":{"android":"levelo://app?vid=9a3ef8f3-8740-4e39-9c24-cf98b0108ac8","ios":"levelo://app?vid=9a3ef8f3-8740-4e39-9c24-cf98b0108ac8"},"vehicle_type_id":"4","last_reported":1728590965,"current_range_meters":18800,"station_id":"ce4bha12rcd13ifvqef0","pricing_plan_id":"cebpf4jnsgd1na2vs0mg"},{"bike_id":"b09dbff8-a830-491c-a572-644fce18b85a","system_id":"levelo_inurba_marseille","lat":43.24664,"lon":5.38167,"is_reserved":false,"is_disabled":false,"rental_uris":{"android":"levelo://app?vid=b09dbff8-a830-491c-a572-644fce18b85a","ios":"levelo://app?vid=b09dbff8-a830-491c-a572-644fce18b85a"},"vehicle_type_id":"4","last_reported":1728590965,"current_range_meters":32000,"station_id":"ce4bhih2rcd13ifvqfr0","pricing_plan_id":"cebpf4jnsgd1na2vs0mg"},{"bike_id":"b403c7ea-19b1-464d-a198-125a8524abb8","system_id":"levelo_inurba_marseille","lat":43.28458,"lon":5.35885,"is_reserved":false,"is_disabled":false,"rental_uris":{"android":"levelo://app?vid=b403c7ea-19b1-464d-a198-125a8524abb8","ios":"levelo://app?vid=b403c7ea-19b1-464d-a198-125a8524abb8"},"vehicle_type_id":"4","last_reported":1728590965,"current_range_meters":28800,"station_id":"ce4bhah2rcd13ifvqei0","pricing_plan_id":"cebpf4jnsgd1na2vs0mg"},{"bike_id":"85871c01-d2d0-4cc9-8922-dce432635c5d","system_id":"levelo_inurba_marseille","lat":43.24181,"lon":5.39734,"is_reserved":false,"is_disabled":false,"rental_uris":{"android":"levelo://app?vid=85871c01-d2d0-4cc9-8922-dce432635c5d","ios":"levelo://app?vid=85871c01-d2d0-4cc9-8922-dce432635c5d"},"vehicle_type_id":"4","last_reported":1728590965,"current_range_meters":39200,"station_id":"ce4bhn12rcd13ifvqgpg","pricing_plan_id":"cebpf4jnsgd1na2vs0mg"},{"bike_id":"636fdb36-f9a2-4a59-a610-2adf92c2c7c1","system_id":"levelo_inurba_marseille","lat":43.28458,"lon":5.35895,"is_reserved":false,"is_disabled":false,"rental_uris":{"android":"levelo://app?vid=636fdb36-f9a2-4a59-a610-2adf92c2c7c1","ios":"levelo://app?vid=636fdb36-f9a2-4a59-a610-2adf92c2c7c1"},"vehicle_type_id":"4","last_reported":1728590965,"current_range_meters":9200,"station_id":"ce4bhah2rcd13ifvqei0","pricing_plan_id":"cebpf4jnsgd1na2vs0mg"},{"bike_id":"f67a3987-7f30-4919-aa1f-e349e4fa4868","system_id":"levelo_inurba_marseille","lat":43.3009,"lon":5.39083,"is_reserved":false,"is_disabled":false,"rental_uris":{"android":"levelo://app?vid=f67a3987-7f30-4919-aa1f-e349e4fa4868","ios":"levelo://app?vid=f67a3987-7f30-4919-aa1f-e349e4fa4868"},"vehicle_type_id":"4","last_reported":1728590965,"current_range_meters":38800,"station_id":"ce4bh192rcd13ifvqdb0","pricing_plan_id":"cebpf4jnsgd1na2vs0mg"},{"bike_id":"4bae06e8-deae-424a-93d9-e99c9cc62419","system_id":"levelo_inurba_marseille","lat":43.28081,"lon":5.39658,"is_reserved":false,"is_disabled":false,"rental_uris":{"android":"levelo://app?vid=4bae06e8-deae-424a-93d9-e99c9cc62419","ios":"levelo://app?vid=4bae06e8-deae-424a-93d9-e99c9cc62419"},"vehicle_type_id":"4","last_reported":1728590965,"current_range_meters":23200,"station_id":"ce4bho12rcd13ifvqh2g","pricing_plan_id":"cebpf4jnsgd1na2vs0mg"},{"bike_id":"73f76813-e7f3-4988-85f7-ffdb85ea1c79","system_id":"levelo_inurba_marseille","lat":43.29855,"lon":5.36288,"is_reserved":false,"is_disabled":false,"rental_uris":{"android":"levelo://app?vid=73f76813-e7f3-4988-85f7-ffdb85ea1c79","ios":"levelo://app?vid=73f76813-e7f3-4988-85f7-ffdb85ea1c79"},"vehicle_type_id":"4","last_reported":1728590965,"current_range_meters":19200,"station_id":"ce4bgpp2rcd13ifvqc3g","pricing_plan_id":"cebpf4jnsgd1na2vs0mg"},{"bike_id":"2b209c7c-c77f-4470-85d0-ae422550167b","system_id":"levelo_inurba_marseille","lat":43.30255,"lon":5.40083,"is_reserved":false,"is_disabled":false,"rental_uris":{"android":"levelo://app?vid=2b209c7c-c77f-4470-85d0-ae422550167b","ios":"levelo://app?vid=2b209c7c-c77f-4470-85d0-ae422550167b"},"vehicle_type_id":"4","last_reported":1728590965,"current_range_meters":38800,"station_id":"ce4bgvh2rcd13ifvqcs0","pricing_plan_id":"cebpf4jnsgd1na2vs0mg"},{"bike_id":"1e5f652c-4a49-4e5e-93d6-ba2d4440a647","system_id":"levelo_inurba_marseille","lat":43.31349,"lon":5.38369,"is_reserved":false,"is_disabled":false,"rental_uris":{"android":"levelo://app?vid=1e5f652c-4a49-4e5e-93d6-ba2d4440a647","ios":"levelo://app?vid=1e5f652c-4a49-4e5e-93d6-ba2d4440a647"},"vehicle_type_id":"4","last_reported":1728590965,"current_range_meters":6400,"station_id":"","pricing_plan_id":"cebpf4jnsgd1na2vs0mg"},{"bike_id":"32351642-6927-4fb9-8c7d-12e4382439d6","system_id":"levelo_inurba_marseille","lat":43.23151,"lon":5.43716,"is_reserved":false,"is_disabled":false,"rental_uris":{"android":"levelo://app?vid=32351642-6927-4fb9-8c7d-12e4382439d6","ios":"levelo://app?vid=32351642-6927-4fb9-8c7d-12e4382439d6"},"vehicle_type_id":"4","last_reported":1728590965,"current_range_meters":40000,"station_id":"ce4bhmp2rcd13ifvqgog","pricing_plan_id":"cebpf4jnsgd1na2vs0mg"},{"bike_id":"9d74ff6c-8cc7-4108-b4d5-2566e3636e33","system_id":"levelo_inurba_marseille","lat":43.29262,"lon":5.38445,"is_reserved":false,"is_disabled":false,"rental_uris":{"android":"levelo://app?vid=9d74ff6c-8cc7-4108-b4d5-2566e3636e33","ios":"levelo://app?vid=9d74ff6c-8cc7-4108-b4d5-2566e3636e33"},"vehicle_type_id":"4","last_reported":1728590965,"current_range_meters":9600,"station_id":"ce4bh692rcd13ifvqea0","pricing_plan_id":"cebpf4jnsgd1na2vs0mg"},{"bike_id":"f4242d47-0a61-48b8-871d-ac8468e3bd41","system_id":"levelo_inurba_marseille","lat":43.28457,"lon":5.35893,"is_reserved":false,"is_disabled":false,"rental_uris":{"android":"levelo://app?vid=f4242d47-0a61-48b8-871d-ac8468e3bd41","ios":"levelo://app?vid=f4242d47-0a61-48b8-871d-ac8468e3bd41"},"vehicle_type_id":"4","last_reported":1728590965,"current_range_meters":20400,"station_id":"ce4bhah2rcd13ifvqei0","pricing_plan_id":"cebpf4jnsgd1na2vs0mg"},{"bike_id":"484a4c63-4ef1-4433-b27a-9a9ca5ad2f9a","system_id":"levelo_inurba_marseille","lat":43.22929,"lon":5.35377,"is_reserved":false,"is_disabled":false,"rental_uris":{"android":"levelo://app?vid=484a4c63-4ef1-4433-b27a-9a9ca5ad2f9a","ios":"levelo://app?vid=484a4c63-4ef1-4433-b27a-9a9ca5ad2f9a"},"vehicle_type_id":"4","last_reported":1728590965,"current_range_meters":20000,"station_id":"cpo3532slgdg3j2ikp40","pricing_plan_id":"cebpf4jnsgd1na2vs0mg"},{"bike_id":"3bc0139c-b75b-4714-9259-b959caf57b72","system_id":"levelo_inurba_marseille","lat":43.30248,"lon":5.40056,"is_reserved":false,"is_disabled":false,"rental_uris":{"android":"levelo://app?vid=3bc0139c-b75b-4714-9259-b959caf57b72","ios":"levelo://app?vid=3bc0139c-b75b-4714-9259-b959caf57b72"},"vehicle_type_id":"4","last_reported":1728590965,"current_range_meters":10800,"station_id":"ce4bgvh2rcd13ifvqcs0","pricing_plan_id":"cebpf4jnsgd1na2vs0mg"},{"bike_id":"0d81f857-207f-4c04-bd23-1ca1a9f495cd","system_id":"levelo_inurba_marseille","lat":43.30914,"lon":5.36859,"is_reserved":false,"is_disabled":false,"rental_uris":{"android":"levelo://app?vid=0d81f857-207f-4c04-bd23-1ca1a9f495cd","ios":"levelo://app?vid=0d81f857-207f-4c04-bd23-1ca1a9f495cd"},"vehicle_type_id":"4","last_reported":1728590965,"current_range_meters":37600,"station_id":"ce4bgn92rcd13ifvqbvg","pricing_plan_id":"cebpf4jnsgd1na2vs0mg"},{"bike_id":"f994349e-8377-49e9-8dce-af23fa7d06cb","system_id":"levelo_inurba_marseille","lat":43.26498,"lon":5.39545,"is_reserved":false,"is_disabled":false,"rental_uris":{"android":"levelo://app?vid=f994349e-8377-49e9-8dce-af23fa7d06cb","ios":"levelo://app?vid=f994349e-8377-49e9-8dce-af23fa7d06cb"},"vehicle_type_id":"4","last_reported":1728590965,"current_range_meters":24400,"station_id":"ce4bhi12rcd13ifvqfq0","pricing_plan_id":"cebpf4jnsgd1na2vs0mg"},{"bike_id":"277d5336-17a9-4064-b3a1-e70853bf6191","system_id":"levelo_inurba_marseille","lat":43.309659,"lon":5.390294,"is_reserved":false,"is_disabled":false,"rental_uris":{"android":"levelo://app?vid=277d5336-17a9-4064-b3a1-e70853bf6191","ios":"levelo://app?vid=277d5336-17a9-4064-b3a1-e70853bf6191"},"vehicle_type_id":"4","last_reported":1728590965,"current_range_meters":38800,"station_id":"ce4bgup2rcd13ifvqco0","pricing_plan_id":"cebpf4jnsgd1na2vs0mg"},{"bike_id":"6d3c3236-09fe-4597-b7f6-12ab53f59fe1","system_id":"levelo_inurba_marseille","lat":43.29557,"lon":5.42294,"is_reserved":false,"is_disabled":false,"rental_uris":{"android":"levelo://app?vid=6d3c3236-09fe-4597-b7f6-12ab53f59fe1","ios":"levelo://app?vid=6d3c3236-09fe-4597-b7f6-12ab53f59fe1"},"vehicle_type_id":"4","last_reported":1728590965,"current_range_meters":22400,"station_id":"ce4bhph2rcd13ifvqhdg","pricing_plan_id":"cebpf4jnsgd1na2vs0mg"},{"bike_id":"830a55b5-b356-49d6-b4bd-23022c4ba6b3","system_id":"levelo_inurba_marseille","lat":43.28463,"lon":5.3588,"is_reserved":false,"is_disabled":false,"rental_uris":{"android":"levelo://app?vid=830a55b5-b356-49d6-b4bd-23022c4ba6b3","ios":"levelo://app?vid=830a55b5-b356-49d6-b4bd-23022c4ba6b3"},"vehicle_type_id":"4","last_reported":1728590965,"current_range_meters":7200,"station_id":"ce4bhah2rcd13ifvqei0","pricing_plan_id":"cebpf4jnsgd1na2vs0mg"},{"bike_id":"6be09faa-84d8-45a3-b27e-7cc5eabb3db6","system_id":"levelo_inurba_marseille","lat":43.2929,"lon":5.36894,"is_reserved":false,"is_disabled":false,"rental_uris":{"android":"levelo://app?vid=6be09faa-84d8-45a3-b27e-7cc5eabb3db6","ios":"levelo://app?vid=6be09faa-84d8-45a3-b27e-7cc5eabb3db6"},"vehicle_type_id":"4","last_reported":1728590965,"current_range_meters":28800,"station_id":"","pricing_plan_id":"cebpf4jnsgd1na2vs0mg"},{"bike_id":"0f0936fc-f3e1-4399-aac7-7782fd386ad6","system_id":"levelo_inurba_marseille","lat":43.294403,"lon":5.397541,"is_reserved":false,"is_disabled":false,"rental_uris":{"android":"levelo://app?vid=0f0936fc-f3e1-4399-aac7-7782fd386ad6","ios":"levelo://app?vid=0f0936fc-f3e1-4399-aac7-7782fd386ad6"},"vehicle_type_id":"4","last_reported":1728590965,"current_range_meters":6400,"station_id":"ce4bh3h2rcd13ifvqdo0","pricing_plan_id":"cebpf4jnsgd1na2vs0mg"},{"bike_id":"094b0290-c14c-4180-b038-e629d092904e","system_id":"levelo_inurba_marseille","lat":43.29034,"lon":5.38654,"is_reserved":false,"is_disabled":false,"rental_uris":{"android":"levelo://app?vid=094b0290-c14c-4180-b038-e629d092904e","ios":"levelo://app?vid=094b0290-c14c-4180-b038-e629d092904e"},"vehicle_type_id":"4","last_reported":1728590965,"current_range_meters":24000,"station_id":"ce4bh4p2rcd13ifvqe0g","pricing_plan_id":"cebpf4jnsgd1na2vs0mg"},{"bike_id":"2679da04-4fc7-44e6-87c2-fc29d2217a4e","system_id":"levelo_inurba_marseille","lat":43.28928,"lon":5.36387,"is_reserved":false,"is_disabled":false,"rental_uris":{"android":"levelo://app?vid=2679da04-4fc7-44e6-87c2-fc29d2217a4e","ios":"levelo://app?vid=2679da04-4fc7-44e6-87c2-fc29d2217a4e"},"vehicle_type_id":"4","last_reported":1728590965,"current_range_meters":24400,"station_id":"ce4bhc92rcd13ifvqetg","pricing_plan_id":"cebpf4jnsgd1na2vs0mg"},{"bike_id":"660141e5-2226-4597-9b99-88b874427942","system_id":"levelo_inurba_marseille","lat":43.28709,"lon":5.37393,"is_reserved":false,"is_disabled":false,"rental_uris":{"android":"levelo://app?vid=660141e5-2226-4597-9b99-88b874427942","ios":"levelo://app?vid=660141e5-2226-4597-9b99-88b874427942"},"vehicle_type_id":"4","last_reported":1728590965,"current_range_meters":37600,"station_id":"ce4bh3p2rcd13ifvqdq0","pricing_plan_id":"cebpf4jnsgd1na2vs0mg"},{"bike_id":"3372ba1c-93af-4ac9-8ffa-34868b7baae2","system_id":"levelo_inurba_marseille","lat":43.31763,"lon":5.39012,"is_reserved":false,"is_disabled":false,"rental_uris":{"android":"levelo://app?vid=3372ba1c-93af-4ac9-8ffa-34868b7baae2","ios":"levelo://app?vid=3372ba1c-93af-4ac9-8ffa-34868b7baae2"},"vehicle_type_id":"4","last_reported":1728590965,"current_range_meters":16400,"station_id":"ce4bhqp2rcd13ifvqhng","pricing_plan_id":"cebpf4jnsgd1na2vs0mg"},{"bike_id":"95df0637-4095-48d9-8eaa-5a6c8c4d8acd","system_id":"levelo_inurba_marseille","lat":43.29847,"lon":5.36263,"is_reserved":false,"is_disabled":false,"rental_uris":{"android":"levelo://app?vid=95df0637-4095-48d9-8eaa-5a6c8c4d8acd","ios":"levelo://app?vid=95df0637-4095-48d9-8eaa-5a6c8c4d8acd"},"vehicle_type_id":"4","last_reported":1728590965,"current_range_meters":35600,"station_id":"ce4bgpp2rcd13ifvqc3g","pricing_plan_id":"cebpf4jnsgd1na2vs0mg"},{"bike_id":"d536ef4b-b253-4bee-9285-eb782f8f6cab","system_id":"levelo_inurba_marseille","lat":43.32597,"lon":5.40471,"is_reserved":false,"is_disabled":false,"rental_uris":{"android":"levelo://app?vid=d536ef4b-b253-4bee-9285-eb782f8f6cab","ios":"levelo://app?vid=d536ef4b-b253-4bee-9285-eb782f8f6cab"},"vehicle_type_id":"4","last_reported":1728590965,"current_range_meters":30800,"station_id":"","pricing_plan_id":"cebpf4jnsgd1na2vs0mg"},{"bike_id":"104dce3b-2862-44f7-bb64-f1cb1800c635","system_id":"levelo_inurba_marseille","lat":43.33603,"lon":5.41043,"is_reserved":false,"is_disabled":false,"rental_uris":{"android":"levelo://app?vid=104dce3b-2862-44f7-bb64-f1cb1800c635","ios":"levelo://app?vid=104dce3b-2862-44f7-bb64-f1cb1800c635"},"vehicle_type_id":"4","last_reported":1728590965,"current_range_meters":19200,"station_id":"ce4bhqh2rcd13ifvqhmg","pricing_plan_id":"cebpf4jnsgd1na2vs0mg"},{"bike_id":"90fbc6c8-74c8-4f7f-a927-f3891c5b89aa","system_id":"levelo_inurba_marseille","lat":43.27614,"lon":5.36117,"is_reserved":false,"is_disabled":false,"rental_uris":{"android":"levelo://app?vid=90fbc6c8-74c8-4f7f-a927-f3891c5b89aa","ios":"levelo://app?vid=90fbc6c8-74c8-4f7f-a927-f3891c5b89aa"},"vehicle_type_id":"4","last_reported":1728590965,"current_range_meters":39200,"station_id":"ce4bgj92rcd13ifvqbe0","pricing_plan_id":"cebpf4jnsgd1na2vs0mg"},{"bike_id":"cb50ef30-26f4-40c6-aa28-e8b640dc2b0d","system_id":"levelo_inurba_marseille","lat":43.29856,"lon":5.3629,"is_reserved":false,"is_disabled":false,"rental_uris":{"android":"levelo://app?vid=cb50ef30-26f4-40c6-aa28-e8b640dc2b0d","ios":"levelo://app?vid=cb50ef30-26f4-40c6-aa28-e8b640dc2b0d"},"vehicle_type_id":"4","last_reported":1728590965,"current_range_meters":8000,"station_id":"ce4bgpp2rcd13ifvqc3g","pricing_plan_id":"cebpf4jnsgd1na2vs0mg"},{"bike_id":"d6aadd3e-16a1-4d4b-9f35-80564de8944a","system_id":"levelo_inurba_marseille","lat":43.22937,"lon":5.35378,"is_reserved":false,"is_disabled":false,"rental_uris":{"android":"levelo://app?vid=d6aadd3e-16a1-4d4b-9f35-80564de8944a","ios":"levelo://app?vid=d6aadd3e-16a1-4d4b-9f35-80564de8944a"},"vehicle_type_id":"4","last_reported":1728590965,"current_range_meters":24800,"station_id":"cpo3532slgdg3j2ikp40","pricing_plan_id":"cebpf4jnsgd1na2vs0mg"},{"bike_id":"8fb2b431-bcb9-46ba-80fb-e26e84592fc5","system_id":"levelo_inurba_marseille","lat":43.23191,"lon":5.3555,"is_reserved":false,"is_disabled":false,"rental_uris":{"android":"levelo://app?vid=8fb2b431-bcb9-46ba-80fb-e26e84592fc5","ios":"levelo://app?vid=8fb2b431-bcb9-46ba-80fb-e26e84592fc5"},"vehicle_type_id":"4","last_reported":1728590965,"current_range_meters":38800,"station_id":"ce4bhu92rcd13ifvqi70","pricing_plan_id":"cebpf4jnsgd1na2vs0mg"},{"bike_id":"39baa1c5-d80d-4991-9240-656a4ba772b3","system_id":"levelo_inurba_marseille","lat":43.28375,"lon":5.38625,"is_reserved":false,"is_disabled":false,"rental_uris":{"android":"levelo://app?vid=39baa1c5-d80d-4991-9240-656a4ba772b3","ios":"levelo://app?vid=39baa1c5-d80d-4991-9240-656a4ba772b3"},"vehicle_type_id":"4","last_reported":1728590965,"current_range_meters":2000,"station_id":"ce4bh492rcd13ifvqdvg","pricing_plan_id":"cebpf4jnsgd1na2vs0mg"},{"bike_id":"b52993a9-e462-498b-b487-23dcf260a615","system_id":"levelo_inurba_marseille","lat":43.28274,"lon":5.35076,"is_reserved":false,"is_disabled":false,"rental_uris":{"android":"levelo://app?vid=b52993a9-e462-498b-b487-23dcf260a615","ios":"levelo://app?vid=b52993a9-e462-498b-b487-23dcf260a615"},"vehicle_type_id":"4","last_reported":1728590965,"current_range_meters":24000,"station_id":"ce4bhbp2rcd13ifvqerg","pricing_plan_id":"cebpf4jnsgd1na2vs0mg"},{"bike_id":"dbfdb842-85c2-453f-8d8d-f6a72063d2db","system_id":"levelo_inurba_marseille","lat":43.28461,"lon":5.35895,"is_reserved":false,"is_disabled":false,"rental_uris":{"android":"levelo://app?vid=dbfdb842-85c2-453f-8d8d-f6a72063d2db","ios":"levelo://app?vid=dbfdb842-85c2-453f-8d8d-f6a72063d2db"},"vehicle_type_id":"4","last_reported":1728590965,"current_range_meters":6000,"station_id":"ce4bhah2rcd13ifvqei0","pricing_plan_id":"cebpf4jnsgd1na2vs0mg"},{"bike_id":"70f12c6e-a1e8-4861-8a8e-698db6ad0543","system_id":"levelo_inurba_marseille","lat":43.27179,"lon":5.40995,"is_reserved":false,"is_disabled":false,"rental_uris":{"android":"levelo://app?vid=70f12c6e-a1e8-4861-8a8e-698db6ad0543","ios":"levelo://app?vid=70f12c6e-a1e8-4861-8a8e-698db6ad0543"},"vehicle_type_id":"4","last_reported":1728590965,"current_range_meters":18000,"station_id":"ce4bhl12rcd13ifvqgf0","pricing_plan_id":"cebpf4jnsgd1na2vs0mg"},{"bike_id":"a8d753bc-7904-4569-8f1d-78785bffa7d7","system_id":"levelo_inurba_marseille","lat":43.31709,"lon":5.37742,"is_reserved":false,"is_disabled":false,"rental_uris":{"android":"levelo://app?vid=a8d753bc-7904-4569-8f1d-78785bffa7d7","ios":"levelo://app?vid=a8d753bc-7904-4569-8f1d-78785bffa7d7"},"vehicle_type_id":"4","last_reported":1728590965,"current_range_meters":38400,"station_id":"ce4bgth2rcd13ifvqch0","pricing_plan_id":"cebpf4jnsgd1na2vs0mg"},{"bike_id":"47e58452-78e8-4b80-bd1b-533509c8cfcd","system_id":"levelo_inurba_marseille","lat":43.25936,"lon":5.40913,"is_reserved":false,"is_disabled":false,"rental_uris":{"android":"levelo://app?vid=47e58452-78e8-4b80-bd1b-533509c8cfcd","ios":"levelo://app?vid=47e58452-78e8-4b80-bd1b-533509c8cfcd"},"vehicle_type_id":"4","last_reported":1728590965,"current_range_meters":10000,"station_id":"ce4bhm92rcd13ifvqglg","pricing_plan_id":"cebpf4jnsgd1na2vs0mg"},{"bike_id":"308cc5b1-650a-46f5-8879-e00584558dc5","system_id":"levelo_inurba_marseille","lat":43.298,"lon":5.37105,"is_reserved":false,"is_disabled":false,"rental_uris":{"android":"levelo://app?vid=308cc5b1-650a-46f5-8879-e00584558dc5","ios":"levelo://app?vid=308cc5b1-650a-46f5-8879-e00584558dc5"},"vehicle_type_id":"4","last_reported":1728590965,"current_range_meters":39200,"station_id":"ce4bgop2rcd13ifvqc1g","pricing_plan_id":"cebpf4jnsgd1na2vs0mg"},{"bike_id":"100515e6-0aa5-4606-8b5f-b39339aa3e83","system_id":"levelo_inurba_marseille","lat":43.29854,"lon":5.3628,"is_reserved":false,"is_disabled":false,"rental_uris":{"android":"levelo://app?vid=100515e6-0aa5-4606-8b5f-b39339aa3e83","ios":"levelo://app?vid=100515e6-0aa5-4606-8b5f-b39339aa3e83"},"vehicle_type_id":"4","last_reported":1728590965,"current_range_meters":9200,"station_id":"ce4bgpp2rcd13ifvqc3g","pricing_plan_id":"cebpf4jnsgd1na2vs0mg"},{"bike_id":"66c53e00-bc3c-47bf-96a7-e9512d8a40c8","system_id":"levelo_inurba_marseille","lat":43.28567,"lon":5.39513,"is_reserved":false,"is_disabled":false,"rental_uris":{"android":"levelo://app?vid=66c53e00-bc3c-47bf-96a7-e9512d8a40c8","ios":"levelo://app?vid=66c53e00-bc3c-47bf-96a7-e9512d8a40c8"},"vehicle_type_id":"4","last_reported":1728590965,"current_range_meters":20800,"station_id":"ce4bh292rcd13ifvqdg0","pricing_plan_id":"cebpf4jnsgd1na2vs0mg"},{"bike_id":"2e57e480-a324-489b-8946-f7d9d9edcf00","system_id":"levelo_inurba_marseille","lat":43.33618,"lon":5.41036,"is_reserved":false,"is_disabled":false,"rental_uris":{"android":"levelo://app?vid=2e57e480-a324-489b-8946-f7d9d9edcf00","ios":"levelo://app?vid=2e57e480-a324-489b-8946-f7d9d9edcf00"},"vehicle_type_id":"4","last_reported":1728590965,"current_range_meters":12800,"station_id":"ce4bhqh2rcd13ifvqhmg","pricing_plan_id":"cebpf4jnsgd1na2vs0mg"},{"bike_id":"ad46e3d5-dec8-4f3c-8268-c4ab89585c4a","system_id":"levelo_inurba_marseille","lat":43.24181,"lon":5.39736,"is_reserved":false,"is_disabled":false,"rental_uris":{"android":"levelo://app?vid=ad46e3d5-dec8-4f3c-8268-c4ab89585c4a","ios":"levelo://app?vid=ad46e3d5-dec8-4f3c-8268-c4ab89585c4a"},"vehicle_type_id":"4","last_reported":1728590965,"current_range_meters":25200,"station_id":"ce4bhn12rcd13ifvqgpg","pricing_plan_id":"cebpf4jnsgd1na2vs0mg"},{"bike_id":"ed292e8a-2929-41af-9597-bf863e95f34e","system_id":"levelo_inurba_marseille","lat":43.290985,"lon":5.381275,"is_reserved":false,"is_disabled":false,"rental_uris":{"android":"levelo://app?vid=ed292e8a-2929-41af-9597-bf863e95f34e","ios":"levelo://app?vid=ed292e8a-2929-41af-9597-bf863e95f34e"},"vehicle_type_id":"4","last_reported":1728590965,"current_range_meters":18800,"station_id":"ce4bh512rcd13ifvqe2g","pricing_plan_id":"cebpf4jnsgd1na2vs0mg"},{"bike_id":"bda3fe94-6c86-4ae7-a299-1014f0b7764b","system_id":"levelo_inurba_marseille","lat":43.28023,"lon":5.369454,"is_reserved":false,"is_disabled":false,"rental_uris":{"android":"levelo://app?vid=bda3fe94-6c86-4ae7-a299-1014f0b7764b","ios":"levelo://app?vid=bda3fe94-6c86-4ae7-a299-1014f0b7764b"},"vehicle_type_id":"4","last_reported":1728590965,"current_range_meters":38800,"station_id":"ce4bha12rcd13ifvqef0","pricing_plan_id":"cebpf4jnsgd1na2vs0mg"},{"bike_id":"4e6a08ae-9e79-48c6-89f4-c318fef764a9","system_id":"levelo_inurba_marseille","lat":43.32001,"lon":5.3815,"is_reserved":false,"is_disabled":false,"rental_uris":{"android":"levelo://app?vid=4e6a08ae-9e79-48c6-89f4-c318fef764a9","ios":"levelo://app?vid=4e6a08ae-9e79-48c6-89f4-c318fef764a9"},"vehicle_type_id":"4","last_reported":1728590965,"current_range_meters":5600,"station_id":"ce4bhr12rcd13ifvqhpg","pricing_plan_id":"cebpf4jnsgd1na2vs0mg"},{"bike_id":"c0aafa99-335a-412b-857f-d32ae5f44e1c","system_id":"levelo_inurba_marseille","lat":43.27892,"lon":5.38836,"is_reserved":false,"is_disabled":false,"rental_uris":{"android":"levelo://app?vid=c0aafa99-335a-412b-857f-d32ae5f44e1c","ios":"levelo://app?vid=c0aafa99-335a-412b-857f-d32ae5f44e1c"},"vehicle_type_id":"4","last_reported":1728590965,"current_range_meters":2800,"station_id":"","pricing_plan_id":"cebpf4jnsgd1na2vs0mg"},{"bike_id":"f44c4a7f-b2bb-4673-b48e-ddb3371109f0","system_id":"levelo_inurba_marseille","lat":43.29914,"lon":5.37495,"is_reserved":false,"is_disabled":false,"rental_uris":{"android":"levelo://app?vid=f44c4a7f-b2bb-4673-b48e-ddb3371109f0","ios":"levelo://app?vid=f44c4a7f-b2bb-4673-b48e-ddb3371109f0"},"vehicle_type_id":"4","last_reported":1728590965,"current_range_meters":8400,"station_id":"ce4bgjh2rcd13ifvqbg0","pricing_plan_id":"cebpf4jnsgd1na2vs0mg"},{"bike_id":"a8f0bfa5-7bc9-40e4-a9a2-5a1a8ec5daab","system_id":"levelo_inurba_marseille","lat":43.2798,"lon":5.38751,"is_reserved":false,"is_disabled":false,"rental_uris":{"android":"levelo://app?vid=a8f0bfa5-7bc9-40e4-a9a2-5a1a8ec5daab","ios":"levelo://app?vid=a8f0bfa5-7bc9-40e4-a9a2-5a1a8ec5daab"},"vehicle_type_id":"4","last_reported":1728590965,"current_range_meters":7200,"station_id":"ce4bhg12rcd13ifvqf80","pricing_plan_id":"cebpf4jnsgd1na2vs0mg"},{"bike_id":"74e8d552-9502-4fd9-b4f2-2eea68199539","system_id":"levelo_inurba_marseille","lat":43.30217,"lon":5.39473,"is_reserved":false,"is_disabled":false,"rental_uris":{"android":"levelo://app?vid=74e8d552-9502-4fd9-b4f2-2eea68199539","ios":"levelo://app?vid=74e8d552-9502-4fd9-b4f2-2eea68199539"},"vehicle_type_id":"4","last_reported":1728590965,"current_range_meters":18800,"station_id":"ce4bh0p2rcd13ifvqd70","pricing_plan_id":"cebpf4jnsgd1na2vs0mg"},{"bike_id":"72ee7b85-f94b-42bd-a8ba-27484902922f","system_id":"levelo_inurba_marseille","lat":43.29854,"lon":5.36289,"is_reserved":false,"is_disabled":false,"rental_uris":{"android":"levelo://app?vid=72ee7b85-f94b-42bd-a8ba-27484902922f","ios":"levelo://app?vid=72ee7b85-f94b-42bd-a8ba-27484902922f"},"vehicle_type_id":"4","last_reported":1728590965,"current_range_meters":38400,"station_id":"ce4bgpp2rcd13ifvqc3g","pricing_plan_id":"cebpf4jnsgd1na2vs0mg"},{"bike_id":"e6d379e8-26d9-4786-a1e4-4a50d55220bd","system_id":"levelo_inurba_marseille","lat":43.27212,"lon":5.39177,"is_reserved":false,"is_disabled":false,"rental_uris":{"android":"levelo://app?vid=e6d379e8-26d9-4786-a1e4-4a50d55220bd","ios":"levelo://app?vid=e6d379e8-26d9-4786-a1e4-4a50d55220bd"},"vehicle_type_id":"4","last_reported":1728590965,"current_range_meters":22000,"station_id":"ce4bhhp2rcd13ifvqfm0","pricing_plan_id":"cebpf4jnsgd1na2vs0mg"},{"bike_id":"0d665a2a-7be6-41c7-b2cd-59c0b7ad781d","system_id":"levelo_inurba_marseille","lat":43.28465,"lon":5.35898,"is_reserved":false,"is_disabled":false,"rental_uris":{"android":"levelo://app?vid=0d665a2a-7be6-41c7-b2cd-59c0b7ad781d","ios":"levelo://app?vid=0d665a2a-7be6-41c7-b2cd-59c0b7ad781d"},"vehicle_type_id":"4","last_reported":1728590965,"current_range_meters":7200,"station_id":"ce4bhah2rcd13ifvqei0","pricing_plan_id":"cebpf4jnsgd1na2vs0mg"},{"bike_id":"4baf9caf-3e5d-447c-b187-a2779cb16715","system_id":"levelo_inurba_marseille","lat":43.2587,"lon":5.39897,"is_reserved":false,"is_disabled":false,"rental_uris":{"android":"levelo://app?vid=4baf9caf-3e5d-447c-b187-a2779cb16715","ios":"levelo://app?vid=4baf9caf-3e5d-447c-b187-a2779cb16715"},"vehicle_type_id":"4","last_reported":1728590965,"current_range_meters":22800,"station_id":"ce4bhl92rcd13ifvqghg","pricing_plan_id":"cebpf4jnsgd1na2vs0mg"},{"bike_id":"27482599-6ac1-4451-896d-9d27077a44e3","system_id":"levelo_inurba_marseille","lat":43.26024,"lon":5.37552,"is_reserved":false,"is_disabled":false,"rental_uris":{"android":"levelo://app?vid=27482599-6ac1-4451-896d-9d27077a44e3","ios":"levelo://app?vid=27482599-6ac1-4451-896d-9d27077a44e3"},"vehicle_type_id":"4","last_reported":1728590965,"current_range_meters":32000,"station_id":"ce4bhgh2rcd13ifvqfa0","pricing_plan_id":"cebpf4jnsgd1na2vs0mg"},{"bike_id":"aa75c41c-1391-4d5a-b0ad-fb29c317877d","system_id":"levelo_inurba_marseille","lat":43.2307,"lon":5.35496,"is_reserved":false,"is_disabled":false,"rental_uris":{"android":"levelo://app?vid=aa75c41c-1391-4d5a-b0ad-fb29c317877d","ios":"levelo://app?vid=aa75c41c-1391-4d5a-b0ad-fb29c317877d"},"vehicle_type_id":"4","last_reported":1728590965,"current_range_meters":10000,"station_id":"cpo3342slgdg3j2ifvpg","pricing_plan_id":"cebpf4jnsgd1na2vs0mg"},{"bike_id":"7038b20e-eb7d-4386-9e9f-6324751d4789","system_id":"levelo_inurba_marseille","lat":43.28087,"lon":5.3927,"is_reserved":false,"is_disabled":false,"rental_uris":{"android":"levelo://app?vid=7038b20e-eb7d-4386-9e9f-6324751d4789","ios":"levelo://app?vid=7038b20e-eb7d-4386-9e9f-6324751d4789"},"vehicle_type_id":"4","last_reported":1728590965,"current_range_meters":16000,"station_id":"","pricing_plan_id":"cebpf4jnsgd1na2vs0mg"},{"bike_id":"75f1fd93-3fd8-468d-8eee-6eb32bebf085","system_id":"levelo_inurba_marseille","lat":43.2845,"lon":5.39188,"is_reserved":false,"is_disabled":false,"rental_uris":{"android":"levelo://app?vid=75f1fd93-3fd8-468d-8eee-6eb32bebf085","ios":"levelo://app?vid=75f1fd93-3fd8-468d-8eee-6eb32bebf085"},"vehicle_type_id":"4","last_reported":1728590965,"current_range_meters":38000,"station_id":"ce4bhoh2rcd13ifvqh5g","pricing_plan_id":"cebpf4jnsgd1na2vs0mg"},{"bike_id":"f724ee69-c9ae-4fb6-bfa9-7e350f159353","system_id":"levelo_inurba_marseille","lat":43.297428,"lon":5.40447,"is_reserved":false,"is_disabled":false,"rental_uris":{"android":"levelo://app?vid=f724ee69-c9ae-4fb6-bfa9-7e350f159353","ios":"levelo://app?vid=f724ee69-c9ae-4fb6-bfa9-7e350f159353"},"vehicle_type_id":"4","last_reported":1728590965,"current_range_meters":36400,"station_id":"","pricing_plan_id":"cebpf4jnsgd1na2vs0mg"},{"bike_id":"526612c6-ad66-47ef-9d3d-1c1860287526","system_id":"levelo_inurba_marseille","lat":43.29085,"lon":5.38146,"is_reserved":false,"is_disabled":false,"rental_uris":{"android":"levelo://app?vid=526612c6-ad66-47ef-9d3d-1c1860287526","ios":"levelo://app?vid=526612c6-ad66-47ef-9d3d-1c1860287526"},"vehicle_type_id":"4","last_reported":1728590965,"current_range_meters":35200,"station_id":"ce4bh512rcd13ifvqe2g","pricing_plan_id":"cebpf4jnsgd1na2vs0mg"},{"bike_id":"b1009450-6152-462c-a724-90df51eeb6db","system_id":"levelo_inurba_marseille","lat":43.32382,"lon":5.38917,"is_reserved":false,"is_disabled":false,"rental_uris":{"android":"levelo://app?vid=b1009450-6152-462c-a724-90df51eeb6db","ios":"levelo://app?vid=b1009450-6152-462c-a724-90df51eeb6db"},"vehicle_type_id":"4","last_reported":1728590965,"current_range_meters":8800,"station_id":"ce4bhqp2rcd13ifvqhog","pricing_plan_id":"cebpf4jnsgd1na2vs0mg"},{"bike_id":"7bb26e6f-2265-4167-b5d1-c637f899014e","system_id":"levelo_inurba_marseille","lat":43.27575,"lon":5.38417,"is_reserved":false,"is_disabled":false,"rental_uris":{"android":"levelo://app?vid=7bb26e6f-2265-4167-b5d1-c637f899014e","ios":"levelo://app?vid=7bb26e6f-2265-4167-b5d1-c637f899014e"},"vehicle_type_id":"4","last_reported":1728590965,"current_range_meters":36800,"station_id":"ce4bhh92rcd13ifvqfi0","pricing_plan_id":"cebpf4jnsgd1na2vs0mg"},{"bike_id":"d49254ea-353c-454e-8e6a-d7c994c807f1","system_id":"levelo_inurba_marseille","lat":43.308945,"lon":5.39661,"is_reserved":false,"is_disabled":false,"rental_uris":{"android":"levelo://app?vid=d49254ea-353c-454e-8e6a-d7c994c807f1","ios":"levelo://app?vid=d49254ea-353c-454e-8e6a-d7c994c807f1"},"vehicle_type_id":"4","last_reported":1728590965,"current_range_meters":20800,"station_id":"ce4bh012rcd13ifvqcv0","pricing_plan_id":"cebpf4jnsgd1na2vs0mg"},{"bike_id":"5299ee6a-9b9e-41e2-beb2-dab5073cd9b9","system_id":"levelo_inurba_marseille","lat":43.30249,"lon":5.40044,"is_reserved":false,"is_disabled":false,"rental_uris":{"android":"levelo://app?vid=5299ee6a-9b9e-41e2-beb2-dab5073cd9b9","ios":"levelo://app?vid=5299ee6a-9b9e-41e2-beb2-dab5073cd9b9"},"vehicle_type_id":"4","last_reported":1728590965,"current_range_meters":38800,"station_id":"ce4bgvh2rcd13ifvqcs0","pricing_plan_id":"cebpf4jnsgd1na2vs0mg"},{"bike_id":"5aa99b40-79ab-41bf-992f-ef069b73460b","system_id":"levelo_inurba_marseille","lat":43.29793,"lon":5.37102,"is_reserved":false,"is_disabled":false,"rental_uris":{"android":"levelo://app?vid=5aa99b40-79ab-41bf-992f-ef069b73460b","ios":"levelo://app?vid=5aa99b40-79ab-41bf-992f-ef069b73460b"},"vehicle_type_id":"4","last_reported":1728590965,"current_range_meters":17200,"station_id":"ce4bgop2rcd13ifvqc1g","pricing_plan_id":"cebpf4jnsgd1na2vs0mg"},{"bike_id":"4b949d47-cbac-4b1c-b4d5-3521cc7580af","system_id":"levelo_inurba_marseille","lat":43.294139,"lon":5.386334,"is_reserved":false,"is_disabled":false,"rental_uris":{"android":"levelo://app?vid=4b949d47-cbac-4b1c-b4d5-3521cc7580af","ios":"levelo://app?vid=4b949d47-cbac-4b1c-b4d5-3521cc7580af"},"vehicle_type_id":"4","last_reported":1728590965,"current_range_meters":8400,"station_id":"ce4bh2h2rcd13ifvqdh0","pricing_plan_id":"cebpf4jnsgd1na2vs0mg"},{"bike_id":"e3ae484b-ecfc-47da-baed-000f445a20b0","system_id":"levelo_inurba_marseille","lat":43.2846,"lon":5.35889,"is_reserved":false,"is_disabled":false,"rental_uris":{"android":"levelo://app?vid=e3ae484b-ecfc-47da-baed-000f445a20b0","ios":"levelo://app?vid=e3ae484b-ecfc-47da-baed-000f445a20b0"},"vehicle_type_id":"4","last_reported":1728590965,"current_range_meters":2800,"station_id":"ce4bhah2rcd13ifvqei0","pricing_plan_id":"cebpf4jnsgd1na2vs0mg"},{"bike_id":"a1f9acd4-c2e4-45fc-b38b-0e0aceb1d442","system_id":"levelo_inurba_marseille","lat":43.2467,"lon":5.38167,"is_reserved":false,"is_disabled":false,"rental_uris":{"android":"levelo://app?vid=a1f9acd4-c2e4-45fc-b38b-0e0aceb1d442","ios":"levelo://app?vid=a1f9acd4-c2e4-45fc-b38b-0e0aceb1d442"},"vehicle_type_id":"4","last_reported":1728590965,"current_range_meters":12400,"station_id":"ce4bhih2rcd13ifvqfr0","pricing_plan_id":"cebpf4jnsgd1na2vs0mg"},{"bike_id":"7e9118c7-ac91-4dfd-a123-fd0171c1170c","system_id":"levelo_inurba_marseille","lat":43.32527,"lon":5.36793,"is_reserved":false,"is_disabled":false,"rental_uris":{"android":"levelo://app?vid=7e9118c7-ac91-4dfd-a123-fd0171c1170c","ios":"levelo://app?vid=7e9118c7-ac91-4dfd-a123-fd0171c1170c"},"vehicle_type_id":"4","last_reported":1728590965,"current_range_meters":6800,"station_id":"","pricing_plan_id":"cebpf4jnsgd1na2vs0mg"},{"bike_id":"cc60357c-1287-4dc9-a114-d849a29aed15","system_id":"levelo_inurba_marseille","lat":43.31174,"lon":5.38709,"is_reserved":false,"is_disabled":false,"rental_uris":{"android":"levelo://app?vid=cc60357c-1287-4dc9-a114-d849a29aed15","ios":"levelo://app?vid=cc60357c-1287-4dc9-a114-d849a29aed15"},"vehicle_type_id":"4","last_reported":1728590965,"current_range_meters":30000,"station_id":"ce4bgv12rcd13ifvqcp0","pricing_plan_id":"cebpf4jnsgd1na2vs0mg"},{"bike_id":"1ebf97cf-bfe9-499d-8785-9ae7c6953836","system_id":"levelo_inurba_marseille","lat":43.29794,"lon":5.39343,"is_reserved":false,"is_disabled":false,"rental_uris":{"android":"levelo://app?vid=1ebf97cf-bfe9-499d-8785-9ae7c6953836","ios":"levelo://app?vid=1ebf97cf-bfe9-499d-8785-9ae7c6953836"},"vehicle_type_id":"4","last_reported":1728590965,"current_range_meters":38400,"station_id":"chh1huq6cuj3fo74tm60","pricing_plan_id":"cebpf4jnsgd1na2vs0mg"},{"bike_id":"f3f44d1a-43c5-4b0c-a09e-5e1f2235b774","system_id":"levelo_inurba_marseille","lat":43.32291,"lon":5.38266,"is_reserved":false,"is_disabled":false,"rental_uris":{"android":"levelo://app?vid=f3f44d1a-43c5-4b0c-a09e-5e1f2235b774","ios":"levelo://app?vid=f3f44d1a-43c5-4b0c-a09e-5e1f2235b774"},"vehicle_type_id":"4","last_reported":1728590965,"current_range_meters":25200,"station_id":"ce4bhr12rcd13ifvqhqg","pricing_plan_id":"cebpf4jnsgd1na2vs0mg"},{"bike_id":"e4d69715-31b8-43a3-9208-69b751e15fcd","system_id":"levelo_inurba_marseille","lat":43.32367,"lon":5.38878,"is_reserved":false,"is_disabled":false,"rental_uris":{"android":"levelo://app?vid=e4d69715-31b8-43a3-9208-69b751e15fcd","ios":"levelo://app?vid=e4d69715-31b8-43a3-9208-69b751e15fcd"},"vehicle_type_id":"4","last_reported":1728590965,"current_range_meters":31200,"station_id":"ce4bhqp2rcd13ifvqhog","pricing_plan_id":"cebpf4jnsgd1na2vs0mg"},{"bike_id":"c81d934a-b18d-44ee-831d-bacba8d8c3eb","system_id":"levelo_inurba_marseille","lat":43.29855,"lon":5.36281,"is_reserved":false,"is_disabled":false,"rental_uris":{"android":"levelo://app?vid=c81d934a-b18d-44ee-831d-bacba8d8c3eb","ios":"levelo://app?vid=c81d934a-b18d-44ee-831d-bacba8d8c3eb"},"vehicle_type_id":"4","last_reported":1728590965,"current_range_meters":36800,"station_id":"ce4bgpp2rcd13ifvqc3g","pricing_plan_id":"cebpf4jnsgd1na2vs0mg"},{"bike_id":"7f8ca378-4962-46a8-b93c-a0c767e3c983","system_id":"levelo_inurba_marseille","lat":43.26034,"lon":5.37551,"is_reserved":false,"is_disabled":false,"rental_uris":{"android":"levelo://app?vid=7f8ca378-4962-46a8-b93c-a0c767e3c983","ios":"levelo://app?vid=7f8ca378-4962-46a8-b93c-a0c767e3c983"},"vehicle_type_id":"4","last_reported":1728590965,"current_range_meters":28800,"station_id":"ce4bhgh2rcd13ifvqfa0","pricing_plan_id":"cebpf4jnsgd1na2vs0mg"},{"bike_id":"5211300e-8cc7-4ce3-90b9-f9f7a4a80867","system_id":"levelo_inurba_marseille","lat":43.23961,"lon":5.36637,"is_reserved":false,"is_disabled":false,"rental_uris":{"android":"levelo://app?vid=5211300e-8cc7-4ce3-90b9-f9f7a4a80867","ios":"levelo://app?vid=5211300e-8cc7-4ce3-90b9-f9f7a4a80867"},"vehicle_type_id":"4","last_reported":1728590965,"current_range_meters":18000,"station_id":"ce4bhi12rcd13ifvqfp0","pricing_plan_id":"cebpf4jnsgd1na2vs0mg"},{"bike_id":"a8736bee-a84b-4ee6-9924-e01a00138d84","system_id":"levelo_inurba_marseille","lat":43.26216,"lon":5.37442,"is_reserved":false,"is_disabled":false,"rental_uris":{"android":"levelo://app?vid=a8736bee-a84b-4ee6-9924-e01a00138d84","ios":"levelo://app?vid=a8736bee-a84b-4ee6-9924-e01a00138d84"},"vehicle_type_id":"4","last_reported":1728590965,"current_range_meters":39200,"station_id":"ce4bhgp2rcd13ifvqfc0","pricing_plan_id":"cebpf4jnsgd1na2vs0mg"},{"bike_id":"bc884902-5e2f-4b49-a18a-7812b4ee1657","system_id":"levelo_inurba_marseille","lat":43.28932,"lon":5.36395,"is_reserved":false,"is_disabled":false,"rental_uris":{"android":"levelo://app?vid=bc884902-5e2f-4b49-a18a-7812b4ee1657","ios":"levelo://app?vid=bc884902-5e2f-4b49-a18a-7812b4ee1657"},"vehicle_type_id":"4","last_reported":1728590965,"current_range_meters":12000,"station_id":"ce4bhc92rcd13ifvqetg","pricing_plan_id":"cebpf4jnsgd1na2vs0mg"},{"bike_id":"5a322aa4-cb61-414b-83a8-4efd14351d8c","system_id":"levelo_inurba_marseille","lat":43.29528,"lon":5.39401,"is_reserved":false,"is_disabled":false,"rental_uris":{"android":"levelo://app?vid=5a322aa4-cb61-414b-83a8-4efd14351d8c","ios":"levelo://app?vid=5a322aa4-cb61-414b-83a8-4efd14351d8c"},"vehicle_type_id":"4","last_reported":1728590965,"current_range_meters":38000,"station_id":"ce4bh292rcd13ifvqdf0","pricing_plan_id":"cebpf4jnsgd1na2vs0mg"},{"bike_id":"013b30d5-884c-49f0-b04a-e9cb3a75770c","system_id":"levelo_inurba_marseille","lat":43.290311,"lon":5.381403,"is_reserved":false,"is_disabled":false,"rental_uris":{"android":"levelo://app?vid=013b30d5-884c-49f0-b04a-e9cb3a75770c","ios":"levelo://app?vid=013b30d5-884c-49f0-b04a-e9cb3a75770c"},"vehicle_type_id":"4","last_reported":1728590965,"current_range_meters":38800,"station_id":"ce4bh4p2rcd13ifvqe1g","pricing_plan_id":"cebpf4jnsgd1na2vs0mg"},{"bike_id":"0e61c334-c8e4-4e84-8bc7-eae6f6806014","system_id":"levelo_inurba_marseille","lat":43.27176,"lon":5.40998,"is_reserved":false,"is_disabled":false,"rental_uris":{"android":"levelo://app?vid=0e61c334-c8e4-4e84-8bc7-eae6f6806014","ios":"levelo://app?vid=0e61c334-c8e4-4e84-8bc7-eae6f6806014"},"vehicle_type_id":"4","last_reported":1728590965,"current_range_meters":39200,"station_id":"ce4bhl12rcd13ifvqgf0","pricing_plan_id":"cebpf4jnsgd1na2vs0mg"},{"bike_id":"c198aa29-8019-4b39-9fd2-fc4dbf5016db","system_id":"levelo_inurba_marseille","lat":43.28849,"lon":5.35841,"is_reserved":false,"is_disabled":false,"rental_uris":{"android":"levelo://app?vid=c198aa29-8019-4b39-9fd2-fc4dbf5016db","ios":"levelo://app?vid=c198aa29-8019-4b39-9fd2-fc4dbf5016db"},"vehicle_type_id":"4","last_reported":1728590965,"current_range_meters":38000,"station_id":"ce4bhb12rcd13ifvqem0","pricing_plan_id":"cebpf4jnsgd1na2vs0mg"},{"bike_id":"89389244-3408-4399-88ba-053c7003f62b","system_id":"levelo_inurba_marseille","lat":43.32003,"lon":5.38162,"is_reserved":false,"is_disabled":false,"rental_uris":{"android":"levelo://app?vid=89389244-3408-4399-88ba-053c7003f62b","ios":"levelo://app?vid=89389244-3408-4399-88ba-053c7003f62b"},"vehicle_type_id":"4","last_reported":1728590965,"current_range_meters":19600,"station_id":"ce4bhr12rcd13ifvqhpg","pricing_plan_id":"cebpf4jnsgd1na2vs0mg"},{"bike_id":"2ff498e1-de40-4dba-8bbb-3e5c7525b4d6","system_id":"levelo_inurba_marseille","lat":43.29264,"lon":5.38442,"is_reserved":false,"is_disabled":false,"rental_uris":{"android":"levelo://app?vid=2ff498e1-de40-4dba-8bbb-3e5c7525b4d6","ios":"levelo://app?vid=2ff498e1-de40-4dba-8bbb-3e5c7525b4d6"},"vehicle_type_id":"4","last_reported":1728590965,"current_range_meters":27200,"station_id":"ce4bh692rcd13ifvqea0","pricing_plan_id":"cebpf4jnsgd1na2vs0mg"},{"bike_id":"bddabd11-ca19-4f46-9a6a-c5c059e44818","system_id":"levelo_inurba_marseille","lat":43.23194,"lon":5.35558,"is_reserved":false,"is_disabled":false,"rental_uris":{"android":"levelo://app?vid=bddabd11-ca19-4f46-9a6a-c5c059e44818","ios":"levelo://app?vid=bddabd11-ca19-4f46-9a6a-c5c059e44818"},"vehicle_type_id":"4","last_reported":1728590965,"current_range_meters":38800,"station_id":"ce4bhu92rcd13ifvqi70","pricing_plan_id":"cebpf4jnsgd1na2vs0mg"},{"bike_id":"3ae18fed-f345-4ef0-8ed2-3540202f3e73","system_id":"levelo_inurba_marseille","lat":43.33761,"lon":5.3744,"is_reserved":false,"is_disabled":false,"rental_uris":{"android":"levelo://app?vid=3ae18fed-f345-4ef0-8ed2-3540202f3e73","ios":"levelo://app?vid=3ae18fed-f345-4ef0-8ed2-3540202f3e73"},"vehicle_type_id":"4","last_reported":1728590965,"current_range_meters":30800,"station_id":"","pricing_plan_id":"cebpf4jnsgd1na2vs0mg"},{"bike_id":"11807e6b-d0f0-4a56-8136-5f9d78337ca2","system_id":"levelo_inurba_marseille","lat":43.28266,"lon":5.350798,"is_reserved":false,"is_disabled":false,"rental_uris":{"android":"levelo://app?vid=11807e6b-d0f0-4a56-8136-5f9d78337ca2","ios":"levelo://app?vid=11807e6b-d0f0-4a56-8136-5f9d78337ca2"},"vehicle_type_id":"4","last_reported":1728590965,"current_range_meters":38800,"station_id":"ce4bhbp2rcd13ifvqerg","pricing_plan_id":"cebpf4jnsgd1na2vs0mg"},{"bike_id":"0e5b16bf-694f-41c7-b744-6100aa0fe4bc","system_id":"levelo_inurba_marseille","lat":43.29312,"lon":5.37452,"is_reserved":false,"is_disabled":false,"rental_uris":{"android":"levelo://app?vid=0e5b16bf-694f-41c7-b744-6100aa0fe4bc","ios":"levelo://app?vid=0e5b16bf-694f-41c7-b744-6100aa0fe4bc"},"vehicle_type_id":"4","last_reported":1728590965,"current_range_meters":5600,"station_id":"ce4bgi12rcd13ifvqb70","pricing_plan_id":"cebpf4jnsgd1na2vs0mg"},{"bike_id":"930b0273-1712-46f6-82ec-7b6a4d41b7e6","system_id":"levelo_inurba_marseille","lat":43.27818,"lon":5.40707,"is_reserved":false,"is_disabled":false,"rental_uris":{"android":"levelo://app?vid=930b0273-1712-46f6-82ec-7b6a4d41b7e6","ios":"levelo://app?vid=930b0273-1712-46f6-82ec-7b6a4d41b7e6"},"vehicle_type_id":"4","last_reported":1728590965,"current_range_meters":29600,"station_id":"ce4bhnh2rcd13ifvqgtg","pricing_plan_id":"cebpf4jnsgd1na2vs0mg"},{"bike_id":"5563e06b-a814-4b84-86f4-cb06a7c02f32","system_id":"levelo_inurba_marseille","lat":43.31265,"lon":5.40174,"is_reserved":false,"is_disabled":false,"rental_uris":{"android":"levelo://app?vid=5563e06b-a814-4b84-86f4-cb06a7c02f32","ios":"levelo://app?vid=5563e06b-a814-4b84-86f4-cb06a7c02f32"},"vehicle_type_id":"4","last_reported":1728590965,"current_range_meters":37600,"station_id":"ce4bh092rcd13ifvqd30","pricing_plan_id":"cebpf4jnsgd1na2vs0mg"},{"bike_id":"55114b5e-c28c-4c20-b151-c91bcd654403","system_id":"levelo_inurba_marseille","lat":43.31085,"lon":5.42433,"is_reserved":false,"is_disabled":false,"rental_uris":{"android":"levelo://app?vid=55114b5e-c28c-4c20-b151-c91bcd654403","ios":"levelo://app?vid=55114b5e-c28c-4c20-b151-c91bcd654403"},"vehicle_type_id":"4","last_reported":1728590965,"current_range_meters":15200,"station_id":"ce4bhp92rcd13ifvqhag","pricing_plan_id":"cebpf4jnsgd1na2vs0mg"},{"bike_id":"595212db-7084-4a84-983e-aa1be55264e1","system_id":"levelo_inurba_marseille","lat":43.287053,"lon":5.399831,"is_reserved":false,"is_disabled":false,"rental_uris":{"android":"levelo://app?vid=595212db-7084-4a84-983e-aa1be55264e1","ios":"levelo://app?vid=595212db-7084-4a84-983e-aa1be55264e1"},"vehicle_type_id":"4","last_reported":1728590965,"current_range_meters":37600,"station_id":"ce4bhq12rcd13ifvqhig","pricing_plan_id":"cebpf4jnsgd1na2vs0mg"},{"bike_id":"d3515cc2-9931-4d17-a2b9-231072d9e4d2","system_id":"levelo_inurba_marseille","lat":43.23195,"lon":5.35554,"is_reserved":false,"is_disabled":false,"rental_uris":{"android":"levelo://app?vid=d3515cc2-9931-4d17-a2b9-231072d9e4d2","ios":"levelo://app?vid=d3515cc2-9931-4d17-a2b9-231072d9e4d2"},"vehicle_type_id":"4","last_reported":1728590965,"current_range_meters":26800,"station_id":"ce4bhu92rcd13ifvqi70","pricing_plan_id":"cebpf4jnsgd1na2vs0mg"},{"bike_id":"312b792e-9ab3-4c50-bc39-0daa5da2e7cb","system_id":"levelo_inurba_marseille","lat":43.28467,"lon":5.35888,"is_reserved":false,"is_disabled":false,"rental_uris":{"android":"levelo://app?vid=312b792e-9ab3-4c50-bc39-0daa5da2e7cb","ios":"levelo://app?vid=312b792e-9ab3-4c50-bc39-0daa5da2e7cb"},"vehicle_type_id":"4","last_reported":1728590965,"current_range_meters":39200,"station_id":"ce4bhah2rcd13ifvqei0","pricing_plan_id":"cebpf4jnsgd1na2vs0mg"},{"bike_id":"ac4cb82b-ab13-45ee-be9e-27314186ba8e","system_id":"levelo_inurba_marseille","lat":43.25825,"lon":5.39441,"is_reserved":false,"is_disabled":false,"rental_uris":{"android":"levelo://app?vid=ac4cb82b-ab13-45ee-be9e-27314186ba8e","ios":"levelo://app?vid=ac4cb82b-ab13-45ee-be9e-27314186ba8e"},"vehicle_type_id":"4","last_reported":1728590965,"current_range_meters":22400,"station_id":"ce4bhip2rcd13ifvqft0","pricing_plan_id":"cebpf4jnsgd1na2vs0mg"},{"bike_id":"de297cce-b679-43fe-b00c-f1df421469fc","system_id":"levelo_inurba_marseille","lat":43.3302,"lon":5.3904,"is_reserved":false,"is_disabled":false,"rental_uris":{"android":"levelo://app?vid=de297cce-b679-43fe-b00c-f1df421469fc","ios":"levelo://app?vid=de297cce-b679-43fe-b00c-f1df421469fc"},"vehicle_type_id":"4","last_reported":1728590965,"current_range_meters":12800,"station_id":"ce4bhr92rcd13ifvqhrg","pricing_plan_id":"cebpf4jnsgd1na2vs0mg"},{"bike_id":"7fc6da6b-c765-4d51-a705-31937ce64772","system_id":"levelo_inurba_marseille","lat":43.29191,"lon":5.39312,"is_reserved":false,"is_disabled":false,"rental_uris":{"android":"levelo://app?vid=7fc6da6b-c765-4d51-a705-31937ce64772","ios":"levelo://app?vid=7fc6da6b-c765-4d51-a705-31937ce64772"},"vehicle_type_id":"4","last_reported":1728590965,"current_range_meters":38800,"station_id":"ce4bh192rcd13ifvqdd0","pricing_plan_id":"cebpf4jnsgd1na2vs0mg"},{"bike_id":"6ec278b0-7e4c-4d8b-9e35-e37c4454aea5","system_id":"levelo_inurba_marseille","lat":43.28082,"lon":5.39654,"is_reserved":false,"is_disabled":false,"rental_uris":{"android":"levelo://app?vid=6ec278b0-7e4c-4d8b-9e35-e37c4454aea5","ios":"levelo://app?vid=6ec278b0-7e4c-4d8b-9e35-e37c4454aea5"},"vehicle_type_id":"4","last_reported":1728590965,"current_range_meters":4800,"station_id":"ce4bho12rcd13ifvqh2g","pricing_plan_id":"cebpf4jnsgd1na2vs0mg"},{"bike_id":"9f87b773-a968-4be2-afd9-19a626145a45","system_id":"levelo_inurba_marseille","lat":43.31117,"lon":5.37766,"is_reserved":false,"is_disabled":false,"rental_uris":{"android":"levelo://app?vid=9f87b773-a968-4be2-afd9-19a626145a45","ios":"levelo://app?vid=9f87b773-a968-4be2-afd9-19a626145a45"},"vehicle_type_id":"4","last_reported":1728590965,"current_range_meters":7200,"station_id":"ce4bgt92rcd13ifvqcg0","pricing_plan_id":"cebpf4jnsgd1na2vs0mg"},{"bike_id":"4143ecaa-1c0e-475e-a319-99dd19de2bfa","system_id":"levelo_inurba_marseille","lat":43.2695,"lon":5.38635,"is_reserved":false,"is_disabled":false,"rental_uris":{"android":"levelo://app?vid=4143ecaa-1c0e-475e-a319-99dd19de2bfa","ios":"levelo://app?vid=4143ecaa-1c0e-475e-a319-99dd19de2bfa"},"vehicle_type_id":"4","last_reported":1728590965,"current_range_meters":34800,"station_id":"ce4bhh92rcd13ifvqfh0","pricing_plan_id":"cebpf4jnsgd1na2vs0mg"},{"bike_id":"9bdc3def-f814-4c40-b7ba-a4601cff72a7","system_id":"levelo_inurba_marseille","lat":43.2953,"lon":5.39398,"is_reserved":false,"is_disabled":false,"rental_uris":{"android":"levelo://app?vid=9bdc3def-f814-4c40-b7ba-a4601cff72a7","ios":"levelo://app?vid=9bdc3def-f814-4c40-b7ba-a4601cff72a7"},"vehicle_type_id":"4","last_reported":1728590965,"current_range_meters":38800,"station_id":"ce4bh292rcd13ifvqdf0","pricing_plan_id":"cebpf4jnsgd1na2vs0mg"},{"bike_id":"2e8156e9-8f12-442e-95f9-a57ad0a2409a","system_id":"levelo_inurba_marseille","lat":43.25117,"lon":5.40323,"is_reserved":false,"is_disabled":false,"rental_uris":{"android":"levelo://app?vid=2e8156e9-8f12-442e-95f9-a57ad0a2409a","ios":"levelo://app?vid=2e8156e9-8f12-442e-95f9-a57ad0a2409a"},"vehicle_type_id":"4","last_reported":1728590965,"current_range_meters":4400,"station_id":"ce4bhlh2rcd13ifvqgig","pricing_plan_id":"cebpf4jnsgd1na2vs0mg"},{"bike_id":"caf03d74-3c7c-425f-9529-3141607b843c","system_id":"levelo_inurba_marseille","lat":43.30532,"lon":5.36543,"is_reserved":false,"is_disabled":false,"rental_uris":{"android":"levelo://app?vid=caf03d74-3c7c-425f-9529-3141607b843c","ios":"levelo://app?vid=caf03d74-3c7c-425f-9529-3141607b843c"},"vehicle_type_id":"4","last_reported":1728590965,"current_range_meters":38800,"station_id":"ce4bgs12rcd13ifvqcag","pricing_plan_id":"cebpf4jnsgd1na2vs0mg"},{"bike_id":"9697dbdf-cd4f-4047-a8bd-b48a32d44365","system_id":"levelo_inurba_marseille","lat":43.288617,"lon":5.358427,"is_reserved":false,"is_disabled":false,"rental_uris":{"android":"levelo://app?vid=9697dbdf-cd4f-4047-a8bd-b48a32d44365","ios":"levelo://app?vid=9697dbdf-cd4f-4047-a8bd-b48a32d44365"},"vehicle_type_id":"4","last_reported":1728590965,"current_range_meters":8000,"station_id":"ce4bhb12rcd13ifvqem0","pricing_plan_id":"cebpf4jnsgd1na2vs0mg"},{"bike_id":"1e27d64c-804b-44d0-82cc-67730ab1c318","system_id":"levelo_inurba_marseille","lat":43.2846,"lon":5.35878,"is_reserved":false,"is_disabled":false,"rental_uris":{"android":"levelo://app?vid=1e27d64c-804b-44d0-82cc-67730ab1c318","ios":"levelo://app?vid=1e27d64c-804b-44d0-82cc-67730ab1c318"},"vehicle_type_id":"4","last_reported":1728590965,"current_range_meters":38800,"station_id":"ce4bhah2rcd13ifvqei0","pricing_plan_id":"cebpf4jnsgd1na2vs0mg"},{"bike_id":"134221d1-b882-4e18-a906-df55efd551f5","system_id":"levelo_inurba_marseille","lat":43.25121,"lon":5.40324,"is_reserved":false,"is_disabled":false,"rental_uris":{"android":"levelo://app?vid=134221d1-b882-4e18-a906-df55efd551f5","ios":"levelo://app?vid=134221d1-b882-4e18-a906-df55efd551f5"},"vehicle_type_id":"4","last_reported":1728590965,"current_range_meters":19200,"station_id":"ce4bhlh2rcd13ifvqgig","pricing_plan_id":"cebpf4jnsgd1na2vs0mg"},{"bike_id":"900b105d-fa8a-46a6-9a94-e96f53e4c987","system_id":"levelo_inurba_marseille","lat":43.292172,"lon":5.360565,"is_reserved":false,"is_disabled":false,"rental_uris":{"android":"levelo://app?vid=900b105d-fa8a-46a6-9a94-e96f53e4c987","ios":"levelo://app?vid=900b105d-fa8a-46a6-9a94-e96f53e4c987"},"vehicle_type_id":"4","last_reported":1728590965,"current_range_meters":38800,"station_id":"ce4bhbh2rcd13ifvqeqg","pricing_plan_id":"cebpf4jnsgd1na2vs0mg"},{"bike_id":"c462ac31-e294-4267-bc1b-a4f664716350","system_id":"levelo_inurba_marseille","lat":43.231973,"lon":5.355524,"is_reserved":false,"is_disabled":false,"rental_uris":{"android":"levelo://app?vid=c462ac31-e294-4267-bc1b-a4f664716350","ios":"levelo://app?vid=c462ac31-e294-4267-bc1b-a4f664716350"},"vehicle_type_id":"4","last_reported":1728590965,"current_range_meters":29600,"station_id":"ce4bhu92rcd13ifvqi70","pricing_plan_id":"cebpf4jnsgd1na2vs0mg"},{"bike_id":"b4ed74cf-cbe3-403d-9235-81eb7c055113","system_id":"levelo_inurba_marseille","lat":43.3133,"lon":5.39692,"is_reserved":false,"is_disabled":false,"rental_uris":{"android":"levelo://app?vid=b4ed74cf-cbe3-403d-9235-81eb7c055113","ios":"levelo://app?vid=b4ed74cf-cbe3-403d-9235-81eb7c055113"},"vehicle_type_id":"4","last_reported":1728590965,"current_range_meters":20800,"station_id":"ce4bgvp2rcd13ifvqcu0","pricing_plan_id":"cebpf4jnsgd1na2vs0mg"},{"bike_id":"31d1eda3-bb82-4b79-a803-751010039ce2","system_id":"levelo_inurba_marseille","lat":43.28936,"lon":5.36638,"is_reserved":false,"is_disabled":false,"rental_uris":{"android":"levelo://app?vid=31d1eda3-bb82-4b79-a803-751010039ce2","ios":"levelo://app?vid=31d1eda3-bb82-4b79-a803-751010039ce2"},"vehicle_type_id":"4","last_reported":1728590965,"current_range_meters":28000,"station_id":"ce4bhap2rcd13ifvqek0","pricing_plan_id":"cebpf4jnsgd1na2vs0mg"},{"bike_id":"50609abc-8576-4139-ab3a-468d8ab73772","system_id":"levelo_inurba_marseille","lat":43.29848,"lon":5.36288,"is_reserved":false,"is_disabled":false,"rental_uris":{"android":"levelo://app?vid=50609abc-8576-4139-ab3a-468d8ab73772","ios":"levelo://app?vid=50609abc-8576-4139-ab3a-468d8ab73772"},"vehicle_type_id":"4","last_reported":1728590965,"current_range_meters":30800,"station_id":"ce4bgpp2rcd13ifvqc3g","pricing_plan_id":"cebpf4jnsgd1na2vs0mg"},{"bike_id":"0b7f0a4e-9893-4842-867d-cde95d21d292","system_id":"levelo_inurba_marseille","lat":43.30607,"lon":5.37247,"is_reserved":false,"is_disabled":false,"rental_uris":{"android":"levelo://app?vid=0b7f0a4e-9893-4842-867d-cde95d21d292","ios":"levelo://app?vid=0b7f0a4e-9893-4842-867d-cde95d21d292"},"vehicle_type_id":"4","last_reported":1728590965,"current_range_meters":24000,"station_id":"ce4bgqh2rcd13ifvqc4g","pricing_plan_id":"cebpf4jnsgd1na2vs0mg"},{"bike_id":"b1198f5c-b57b-47ce-bb3d-2d0b934219f9","system_id":"levelo_inurba_marseille","lat":43.28704,"lon":5.39978,"is_reserved":false,"is_disabled":false,"rental_uris":{"android":"levelo://app?vid=b1198f5c-b57b-47ce-bb3d-2d0b934219f9","ios":"levelo://app?vid=b1198f5c-b57b-47ce-bb3d-2d0b934219f9"},"vehicle_type_id":"4","last_reported":1728590965,"current_range_meters":16800,"station_id":"ce4bho92rcd13ifvqh3g","pricing_plan_id":"cebpf4jnsgd1na2vs0mg"},{"bike_id":"79705559-d0ef-4f22-a273-d9ab0aad9c4f","system_id":"levelo_inurba_marseille","lat":43.31759,"lon":5.39026,"is_reserved":false,"is_disabled":false,"rental_uris":{"android":"levelo://app?vid=79705559-d0ef-4f22-a273-d9ab0aad9c4f","ios":"levelo://app?vid=79705559-d0ef-4f22-a273-d9ab0aad9c4f"},"vehicle_type_id":"4","last_reported":1728590965,"current_range_meters":9600,"station_id":"ce4bhqp2rcd13ifvqhng","pricing_plan_id":"cebpf4jnsgd1na2vs0mg"},{"bike_id":"4b49dcb8-89d5-43ba-8efb-790d338e91d5","system_id":"levelo_inurba_marseille","lat":43.29188,"lon":5.35789,"is_reserved":false,"is_disabled":false,"rental_uris":{"android":"levelo://app?vid=4b49dcb8-89d5-43ba-8efb-790d338e91d5","ios":"levelo://app?vid=4b49dcb8-89d5-43ba-8efb-790d338e91d5"},"vehicle_type_id":"4","last_reported":1728590965,"current_range_meters":36400,"station_id":"ce4bhb12rcd13ifvqel0","pricing_plan_id":"cebpf4jnsgd1na2vs0mg"},{"bike_id":"3721803c-8cf5-4a3f-a962-146f90910b9c","system_id":"levelo_inurba_marseille","lat":43.28416,"lon":5.37522,"is_reserved":false,"is_disabled":false,"rental_uris":{"android":"levelo://app?vid=3721803c-8cf5-4a3f-a962-146f90910b9c","ios":"levelo://app?vid=3721803c-8cf5-4a3f-a962-146f90910b9c"},"vehicle_type_id":"4","last_reported":1728590965,"current_range_meters":38800,"station_id":"ce4bh412rcd13ifvqds0","pricing_plan_id":"cebpf4jnsgd1na2vs0mg"},{"bike_id":"524fe8a4-4631-42f8-9929-13811c7691da","system_id":"levelo_inurba_marseille","lat":43.28566,"lon":5.395,"is_reserved":false,"is_disabled":false,"rental_uris":{"android":"levelo://app?vid=524fe8a4-4631-42f8-9929-13811c7691da","ios":"levelo://app?vid=524fe8a4-4631-42f8-9929-13811c7691da"},"vehicle_type_id":"4","last_reported":1728590965,"current_range_meters":17200,"station_id":"ce4bh292rcd13ifvqdg0","pricing_plan_id":"cebpf4jnsgd1na2vs0mg"},{"bike_id":"66a13060-6db6-4f85-8421-21f588679947","system_id":"levelo_inurba_marseille","lat":43.25107,"lon":5.40328,"is_reserved":false,"is_disabled":false,"rental_uris":{"android":"levelo://app?vid=66a13060-6db6-4f85-8421-21f588679947","ios":"levelo://app?vid=66a13060-6db6-4f85-8421-21f588679947"},"vehicle_type_id":"4","last_reported":1728590965,"current_range_meters":28400,"station_id":"ce4bhlh2rcd13ifvqgig","pricing_plan_id":"cebpf4jnsgd1na2vs0mg"},{"bike_id":"8dcfba7a-3cbf-4f50-814a-e049c103d454","system_id":"levelo_inurba_marseille","lat":43.33021,"lon":5.39044,"is_reserved":false,"is_disabled":false,"rental_uris":{"android":"levelo://app?vid=8dcfba7a-3cbf-4f50-814a-e049c103d454","ios":"levelo://app?vid=8dcfba7a-3cbf-4f50-814a-e049c103d454"},"vehicle_type_id":"4","last_reported":1728590965,"current_range_meters":28400,"station_id":"ce4bhr92rcd13ifvqhrg","pricing_plan_id":"cebpf4jnsgd1na2vs0mg"},{"bike_id":"4f0a9538-eceb-4175-99e0-36549a67c785","system_id":"levelo_inurba_marseille","lat":43.30216,"lon":5.39465,"is_reserved":false,"is_disabled":false,"rental_uris":{"android":"levelo://app?vid=4f0a9538-eceb-4175-99e0-36549a67c785","ios":"levelo://app?vid=4f0a9538-eceb-4175-99e0-36549a67c785"},"vehicle_type_id":"4","last_reported":1728590965,"current_range_meters":28000,"station_id":"ce4bh0p2rcd13ifvqd70","pricing_plan_id":"cebpf4jnsgd1na2vs0mg"},{"bike_id":"665971cd-1ae6-4838-b07f-dafd5bcf86f0","system_id":"levelo_inurba_marseille","lat":43.29314,"lon":5.3718,"is_reserved":false,"is_disabled":false,"rental_uris":{"android":"levelo://app?vid=665971cd-1ae6-4838-b07f-dafd5bcf86f0","ios":"levelo://app?vid=665971cd-1ae6-4838-b07f-dafd5bcf86f0"},"vehicle_type_id":"4","last_reported":1728590965,"current_range_meters":18800,"station_id":"ce4bgh92rcd13ifvqb40","pricing_plan_id":"cebpf4jnsgd1na2vs0mg"},{"bike_id":"47cacfc8-4c61-44e8-81c7-7b05ca1a72d4","system_id":"levelo_inurba_marseille","lat":43.29842,"lon":5.36272,"is_reserved":false,"is_disabled":false,"rental_uris":{"android":"levelo://app?vid=47cacfc8-4c61-44e8-81c7-7b05ca1a72d4","ios":"levelo://app?vid=47cacfc8-4c61-44e8-81c7-7b05ca1a72d4"},"vehicle_type_id":"4","last_reported":1728590965,"current_range_meters":21600,"station_id":"ce4bgpp2rcd13ifvqc3g","pricing_plan_id":"cebpf4jnsgd1na2vs0mg"},{"bike_id":"07af045b-9089-41cc-977e-a861145e88af","system_id":"levelo_inurba_marseille","lat":43.31538,"lon":5.38037,"is_reserved":false,"is_disabled":false,"rental_uris":{"android":"levelo://app?vid=07af045b-9089-41cc-977e-a861145e88af","ios":"levelo://app?vid=07af045b-9089-41cc-977e-a861145e88af"},"vehicle_type_id":"4","last_reported":1728590965,"current_range_meters":28400,"station_id":"ce4bhsp2rcd13ifvqi50","pricing_plan_id":"cebpf4jnsgd1na2vs0mg"},{"bike_id":"0f1f8a10-896c-4767-bbf3-3581165b396f","system_id":"levelo_inurba_marseille","lat":43.25103,"lon":5.40311,"is_reserved":false,"is_disabled":false,"rental_uris":{"android":"levelo://app?vid=0f1f8a10-896c-4767-bbf3-3581165b396f","ios":"levelo://app?vid=0f1f8a10-896c-4767-bbf3-3581165b396f"},"vehicle_type_id":"4","last_reported":1728590965,"current_range_meters":34800,"station_id":"ce4bhlh2rcd13ifvqgig","pricing_plan_id":"cebpf4jnsgd1na2vs0mg"},{"bike_id":"d56f1de0-e5b7-4130-9f1d-81bf7b39c7d0","system_id":"levelo_inurba_marseille","lat":43.29523,"lon":5.39403,"is_reserved":false,"is_disabled":false,"rental_uris":{"android":"levelo://app?vid=d56f1de0-e5b7-4130-9f1d-81bf7b39c7d0","ios":"levelo://app?vid=d56f1de0-e5b7-4130-9f1d-81bf7b39c7d0"},"vehicle_type_id":"4","last_reported":1728590965,"current_range_meters":24000,"station_id":"ce4bh292rcd13ifvqdf0","pricing_plan_id":"cebpf4jnsgd1na2vs0mg"},{"bike_id":"9cf3db70-1431-4372-b452-2d0770d0c15d","system_id":"levelo_inurba_marseille","lat":43.23194,"lon":5.35553,"is_reserved":false,"is_disabled":false,"rental_uris":{"android":"levelo://app?vid=9cf3db70-1431-4372-b452-2d0770d0c15d","ios":"levelo://app?vid=9cf3db70-1431-4372-b452-2d0770d0c15d"},"vehicle_type_id":"4","last_reported":1728590965,"current_range_meters":38000,"station_id":"ce4bhu92rcd13ifvqi70","pricing_plan_id":"cebpf4jnsgd1na2vs0mg"},{"bike_id":"8eaaf5e9-01c4-454d-8dac-b4f11075182d","system_id":"levelo_inurba_marseille","lat":43.29266,"lon":5.38442,"is_reserved":false,"is_disabled":false,"rental_uris":{"android":"levelo://app?vid=8eaaf5e9-01c4-454d-8dac-b4f11075182d","ios":"levelo://app?vid=8eaaf5e9-01c4-454d-8dac-b4f11075182d"},"vehicle_type_id":"4","last_reported":1728590965,"current_range_meters":36000,"station_id":"ce4bh692rcd13ifvqea0","pricing_plan_id":"cebpf4jnsgd1na2vs0mg"},{"bike_id":"3fbd6a2f-de54-4d99-8190-99264c369572","system_id":"levelo_inurba_marseille","lat":43.28938,"lon":5.36641,"is_reserved":false,"is_disabled":false,"rental_uris":{"android":"levelo://app?vid=3fbd6a2f-de54-4d99-8190-99264c369572","ios":"levelo://app?vid=3fbd6a2f-de54-4d99-8190-99264c369572"},"vehicle_type_id":"4","last_reported":1728590965,"current_range_meters":32000,"station_id":"ce4bhap2rcd13ifvqek0","pricing_plan_id":"cebpf4jnsgd1na2vs0mg"},{"bike_id":"a42b1116-9baa-42dd-8eb1-4b278040dcf5","system_id":"levelo_inurba_marseille","lat":43.31722,"lon":5.42404,"is_reserved":false,"is_disabled":false,"rental_uris":{"android":"levelo://app?vid=a42b1116-9baa-42dd-8eb1-4b278040dcf5","ios":"levelo://app?vid=a42b1116-9baa-42dd-8eb1-4b278040dcf5"},"vehicle_type_id":"4","last_reported":1728590965,"current_range_meters":38000,"station_id":"ce4bhp92rcd13ifvqhbg","pricing_plan_id":"cebpf4jnsgd1na2vs0mg"},{"bike_id":"461b8479-45bc-40b8-b6d4-57bf63420878","system_id":"levelo_inurba_marseille","lat":43.30435,"lon":5.39748,"is_reserved":false,"is_disabled":false,"rental_uris":{"android":"levelo://app?vid=461b8479-45bc-40b8-b6d4-57bf63420878","ios":"levelo://app?vid=461b8479-45bc-40b8-b6d4-57bf63420878"},"vehicle_type_id":"4","last_reported":1728590965,"current_range_meters":31200,"station_id":"ce4bh092rcd13ifvqd20","pricing_plan_id":"cebpf4jnsgd1na2vs0mg"},{"bike_id":"25dd19f4-dde5-40bc-9cc3-df90123d3481","system_id":"levelo_inurba_marseille","lat":43.29787,"lon":5.37113,"is_reserved":false,"is_disabled":false,"rental_uris":{"android":"levelo://app?vid=25dd19f4-dde5-40bc-9cc3-df90123d3481","ios":"levelo://app?vid=25dd19f4-dde5-40bc-9cc3-df90123d3481"},"vehicle_type_id":"4","last_reported":1728590965,"current_range_meters":4800,"station_id":"ce4bgop2rcd13ifvqc1g","pricing_plan_id":"cebpf4jnsgd1na2vs0mg"},{"bike_id":"fe53b483-e6b0-4db0-a320-25d194226fd4","system_id":"levelo_inurba_marseille","lat":43.26218,"lon":5.37454,"is_reserved":false,"is_disabled":false,"rental_uris":{"android":"levelo://app?vid=fe53b483-e6b0-4db0-a320-25d194226fd4","ios":"levelo://app?vid=fe53b483-e6b0-4db0-a320-25d194226fd4"},"vehicle_type_id":"4","last_reported":1728590965,"current_range_meters":38800,"station_id":"ce4bhgp2rcd13ifvqfc0","pricing_plan_id":"cebpf4jnsgd1na2vs0mg"},{"bike_id":"b60034ae-5b7b-4cb2-b6aa-72366a960fa1","system_id":"levelo_inurba_marseille","lat":43.28933,"lon":5.36642,"is_reserved":false,"is_disabled":false,"rental_uris":{"android":"levelo://app?vid=b60034ae-5b7b-4cb2-b6aa-72366a960fa1","ios":"levelo://app?vid=b60034ae-5b7b-4cb2-b6aa-72366a960fa1"},"vehicle_type_id":"4","last_reported":1728590965,"current_range_meters":14000,"station_id":"ce4bhap2rcd13ifvqek0","pricing_plan_id":"cebpf4jnsgd1na2vs0mg"},{"bike_id":"3c25dded-f8d5-4193-a336-9fad641c4aac","system_id":"levelo_inurba_marseille","lat":43.33766,"lon":5.37447,"is_reserved":false,"is_disabled":false,"rental_uris":{"android":"levelo://app?vid=3c25dded-f8d5-4193-a336-9fad641c4aac","ios":"levelo://app?vid=3c25dded-f8d5-4193-a336-9fad641c4aac"},"vehicle_type_id":"4","last_reported":1728590965,"current_range_meters":15200,"station_id":"","pricing_plan_id":"cebpf4jnsgd1na2vs0mg"},{"bike_id":"d2237c1d-b93e-4a7a-9a01-239d0f18f10a","system_id":"levelo_inurba_marseille","lat":43.299957,"lon":5.377389,"is_reserved":false,"is_disabled":false,"rental_uris":{"android":"levelo://app?vid=d2237c1d-b93e-4a7a-9a01-239d0f18f10a","ios":"levelo://app?vid=d2237c1d-b93e-4a7a-9a01-239d0f18f10a"},"vehicle_type_id":"4","last_reported":1728590965,"current_range_meters":11600,"station_id":"ce4bgl92rcd13ifvqbq0","pricing_plan_id":"cebpf4jnsgd1na2vs0mg"},{"bike_id":"ede236ec-1bfa-466c-bf96-12243c15af2e","system_id":"levelo_inurba_marseille","lat":43.28451,"lon":5.39184,"is_reserved":false,"is_disabled":false,"rental_uris":{"android":"levelo://app?vid=ede236ec-1bfa-466c-bf96-12243c15af2e","ios":"levelo://app?vid=ede236ec-1bfa-466c-bf96-12243c15af2e"},"vehicle_type_id":"4","last_reported":1728590965,"current_range_meters":38400,"station_id":"ce4bhoh2rcd13ifvqh5g","pricing_plan_id":"cebpf4jnsgd1na2vs0mg"},{"bike_id":"afb0a7e9-d111-4f01-86de-f3c7874a7a5c","system_id":"levelo_inurba_marseille","lat":43.30936,"lon":5.40153,"is_reserved":false,"is_disabled":false,"rental_uris":{"android":"levelo://app?vid=afb0a7e9-d111-4f01-86de-f3c7874a7a5c","ios":"levelo://app?vid=afb0a7e9-d111-4f01-86de-f3c7874a7a5c"},"vehicle_type_id":"4","last_reported":1728590965,"current_range_meters":8000,"station_id":"ce4bgvp2rcd13ifvqct0","pricing_plan_id":"cebpf4jnsgd1na2vs0mg"},{"bike_id":"3af4e8c0-9d50-4259-9383-c5a3004e9350","system_id":"levelo_inurba_marseille","lat":43.29844,"lon":5.36281,"is_reserved":false,"is_disabled":false,"rental_uris":{"android":"levelo://app?vid=3af4e8c0-9d50-4259-9383-c5a3004e9350","ios":"levelo://app?vid=3af4e8c0-9d50-4259-9383-c5a3004e9350"},"vehicle_type_id":"4","last_reported":1728590965,"current_range_meters":16400,"station_id":"ce4bgpp2rcd13ifvqc3g","pricing_plan_id":"cebpf4jnsgd1na2vs0mg"},{"bike_id":"7975faaf-f260-41c7-87cd-147b9a3b3ebf","system_id":"levelo_inurba_marseille","lat":43.23065,"lon":5.35496,"is_reserved":false,"is_disabled":false,"rental_uris":{"android":"levelo://app?vid=7975faaf-f260-41c7-87cd-147b9a3b3ebf","ios":"levelo://app?vid=7975faaf-f260-41c7-87cd-147b9a3b3ebf"},"vehicle_type_id":"4","last_reported":1728590965,"current_range_meters":18800,"station_id":"cpo3342slgdg3j2ifvpg","pricing_plan_id":"cebpf4jnsgd1na2vs0mg"},{"bike_id":"b8c0f829-6e8f-4d69-b6ad-924afdd7a32f","system_id":"levelo_inurba_marseille","lat":43.29859,"lon":5.36289,"is_reserved":false,"is_disabled":false,"rental_uris":{"android":"levelo://app?vid=b8c0f829-6e8f-4d69-b6ad-924afdd7a32f","ios":"levelo://app?vid=b8c0f829-6e8f-4d69-b6ad-924afdd7a32f"},"vehicle_type_id":"4","last_reported":1728590965,"current_range_meters":10800,"station_id":"ce4bgpp2rcd13ifvqc3g","pricing_plan_id":"cebpf4jnsgd1na2vs0mg"},{"bike_id":"0fdcc39d-5e5d-4616-9603-d30e8dbc59ca","system_id":"levelo_inurba_marseille","lat":43.24176,"lon":5.363958,"is_reserved":false,"is_disabled":false,"rental_uris":{"android":"levelo://app?vid=0fdcc39d-5e5d-4616-9603-d30e8dbc59ca","ios":"levelo://app?vid=0fdcc39d-5e5d-4616-9603-d30e8dbc59ca"},"vehicle_type_id":"4","last_reported":1728590965,"current_range_meters":35600,"station_id":"ce4bhjp2rcd13ifvqg90","pricing_plan_id":"cebpf4jnsgd1na2vs0mg"},{"bike_id":"703d5faf-e8f5-42e8-a15c-36acb1ae64d2","system_id":"levelo_inurba_marseille","lat":43.22932,"lon":5.35382,"is_reserved":false,"is_disabled":false,"rental_uris":{"android":"levelo://app?vid=703d5faf-e8f5-42e8-a15c-36acb1ae64d2","ios":"levelo://app?vid=703d5faf-e8f5-42e8-a15c-36acb1ae64d2"},"vehicle_type_id":"4","last_reported":1728590965,"current_range_meters":7200,"station_id":"cpo3532slgdg3j2ikp40","pricing_plan_id":"cebpf4jnsgd1na2vs0mg"},{"bike_id":"d36c4d7b-41a7-4316-bcb7-27dd79cd862a","system_id":"levelo_inurba_marseille","lat":43.31259,"lon":5.38925,"is_reserved":false,"is_disabled":false,"rental_uris":{"android":"levelo://app?vid=d36c4d7b-41a7-4316-bcb7-27dd79cd862a","ios":"levelo://app?vid=d36c4d7b-41a7-4316-bcb7-27dd79cd862a"},"vehicle_type_id":"4","last_reported":1728590965,"current_range_meters":27200,"station_id":"ce4bgup2rcd13ifvqco0","pricing_plan_id":"cebpf4jnsgd1na2vs0mg"},