{"last_updated":1744560690,"ttl":60,"version":"2.2","data":{"bikes":[{"bike_id":"f96c0c65-7fce-4b6c-8bb2-232128e93959","system_id":"levelo_inurba_marseille","lat":43.30492,"lon":5.3931,"is_reserved":false,"is_disabled":false,"rental_uris":{"android":"levelo://app?vid=f96c0c65-7fce-4b6c-8bb2-232128e93959","ios":"levelo://app?vid=f96c0c65-7fce-4b6c-8bb2-232128e93959"},"vehicle_type_id":"4","last_reported":1744560691,"current_range_meters":2800,"station_id":"","pricing_plan_id":"cebpf4jnsgd1na2vs0mg"},{"bike_id":"e4380e13-6ea1-432c-b547-badeba89c1b3","system_id":"levelo_inurba_marseille","lat":43.28849,"lon":5.3937,"is_reserved":false,"is_disabled":true,"rental_uris":{"android":"levelo://app?vid=e4380e13-6ea1-432c-b547-badeba89c1b3","ios":"levelo://app?vid=e4380e13-6ea1-432c-b547-badeba89c1b3"},"vehicle_type_id":"4","last_reported":1744560691,"current_range_meters":2800,"station_id":"ce4bh2p2rcd13ifvqdi0","pricing_plan_id":"cebpf4jnsgd1na2vs0mg"},{"bike_id":"3f08cc69-711e-4264-b923-68891203ffa4","system_id":"levelo_inurba_marseille","lat":43.32285,"lon":5.38243,"is_reserved":false,"is_disabled":true,"rental_uris":{"android":"levelo://app?vid=3f08cc69-711e-4264-b923-68891203ffa4","ios":"levelo://app?vid=3f08cc69-711e-4264-b923-68891203ffa4"},"vehicle_type_id":"4","last_reported":1744560691,"current_range_meters":2800,"station_id":"ce4bhr12rcd13ifvqhqg","pricing_plan_id":"cebpf4jnsgd1na2vs0mg"},{"bike_id":"d9e99f86-34e7-420b-b61e-9be835fd1e56","system_id":"levelo_inurba_marseille","lat":43.29314,"lon":5.37163,"is_reserved":false,"is_disabled":false,"rental_uris":{"android":"levelo://app?vid=d9e99f86-34e7-420b-b61e-9be835fd1e56","ios":"levelo://app?vid=d9e99f86-34e7-420b-b61e-9be835fd1e56"},"vehicle_type_id":"4","last_reported":1744560691,"current_range_meters":3200,"station_id":"ce4bgh92rcd13ifvqb40","pricing_plan_id":"cebpf4jnsgd1na2vs0mg"},{"bike_id":"b6ff7e66-b821-4f07-a3cf-b9f4abde04e1","system_id":"levelo_inurba_marseille","lat":43.27997,"lon":5.40025,"is_reserved":false,"is_disabled":true,"rental_uris":{"android":"levelo://app?vid=b6ff7e66-b821-4f07-a3cf-b9f4abde04e1","ios":"levelo://app?vid=b6ff7e66-b821-4f07-a3cf-b9f4abde04e1"},"vehicle_type_id":"4","last_reported":1744560691,"current_range_meters":3200,"station_id":"ce4bho92rcd13ifvqh4g","pricing_plan_id":"cebpf4jnsgd1na2vs0mg"},{"bike_id":"d6928106-8637-4170-b220-58a8f4235d68","system_id":"levelo_inurba_marseille","lat":43.26193,"lon":5.37456,"is_reserved":false,"is_disabled":false,"rental_uris":{"android":"levelo://app?vid=d6928106-8637-4170-b220-58a8f4235d68","ios":"levelo://app?vid=d6928106-8637-4170-b220-58a8f4235d68"},"vehicle_type_id":"4","last_reported":1744560691,"current_range_meters":3600,"station_id":"ce4bhgp2rcd13ifvqfc0","pricing_plan_id":"cebpf4jnsgd1na2vs0mg"},{"bike_id":"6bec2495-4902-44c3-ae07-d8eded489e79","system_id":"levelo_inurba_marseille","lat":43.24805,"lon":5.37454,"is_reserved":false,"is_disabled":false,"rental_uris":{"android":"levelo://app?vid=6bec2495-4902-44c3-ae07-d8eded489e79","ios":"levelo://app?vid=6bec2495-4902-44c3-ae07-d8eded489e79"},"vehicle_type_id":"4","last_reported":1744560691,"current_range_meters":3600,"station_id":"ce4bhgh2rcd13ifvqfb0","pricing_plan_id":"cebpf4jnsgd1na2vs0mg"},{"bike_id":"c2beed1d-6f4a-4898-8d0d-a15f11353eb8","system_id":"levelo_inurba_marseille","lat":43.28159,"lon":5.4264,"is_reserved":false,"is_disabled":false,"rental_uris":{"android":"levelo://app?vid=c2beed1d-6f4a-4898-8d0d-a15f11353eb8","ios":"levelo://app?vid=c2beed1d-6f4a-4898-8d0d-a15f11353eb8"},"vehicle_type_id":"4","last_reported":1744560691,"current_range_meters":3600,"station_id":"ce4bhnh2rcd13ifvqgug","pricing_plan_id":"cebpf4jnsgd1na2vs0mg"},{"bike_id":"ebfc4160-578d-4879-8a72-ce826c3f3d47","system_id":"levelo_inurba_marseille","lat":43.25092,"lon":5.39522,"is_reserved":false,"is_disabled":false,"rental_uris":{"android":"levelo://app?vid=ebfc4160-578d-4879-8a72-ce826c3f3d47","ios":"levelo://app?vid=ebfc4160-578d-4879-8a72-ce826c3f3d47"},"vehicle_type_id":"4","last_reported":1744560691,"current_range_meters":3600,"station_id":"ce4bhm12rcd13ifvqgkg","pricing_plan_id":"cebpf4jnsgd1na2vs0mg"},{"bike_id":"ada7e693-e1b5-4342-94d7-0fbaa61ff0aa","system_id":"levelo_inurba_marseille","lat":43.286682,"lon":5.386678,"is_reserved":false,"is_disabled":false,"rental_uris":{"android":"levelo://app?vid=ada7e693-e1b5-4342-94d7-0fbaa61ff0aa","ios":"levelo://app?vid=ada7e693-e1b5-4342-94d7-0fbaa61ff0aa"},"vehicle_type_id":"4","last_reported":1744560691,"current_range_meters":1200,"station_id":"ce4bh492rcd13ifvqdug","pricing_plan_id":"cebpf4jnsgd1na2vs0mg"},{"bike_id":"40302057-c945-4398-a863-c5b981eb2df9","system_id":"levelo_inurba_marseille","lat":43.29422,"lon":5.38625,"is_reserved":false,"is_disabled":false,"rental_uris":{"android":"levelo://app?vid=40302057-c945-4398-a863-c5b981eb2df9","ios":"levelo://app?vid=40302057-c945-4398-a863-c5b981eb2df9"},"vehicle_type_id":"4","last_reported":1744560691,"current_range_meters":4000,"station_id":"ce4bh2h2rcd13ifvqdh0","pricing_plan_id":"cebpf4jnsgd1na2vs0mg"},{"bike_id":"3438c5bd-1787-489f-9a0e-5eb33ff8500a","system_id":"levelo_inurba_marseille","lat":43.29555,"lon":5.42273,"is_reserved":false,"is_disabled":true,"rental_uris":{"android":"levelo://app?vid=3438c5bd-1787-489f-9a0e-5eb33ff8500a","ios":"levelo://app?vid=3438c5bd-1787-489f-9a0e-5eb33ff8500a"},"vehicle_type_id":"4","last_reported":1744560691,"current_range_meters":4400,"station_id":"ce4bhph2rcd13ifvqhdg","pricing_plan_id":"cebpf4jnsgd1na2vs0mg"},{"bike_id":"595662ae-40a4-4925-bd18-880276f7d659","system_id":"levelo_inurba_marseille","lat":43.30649,"lon":5.40093,"is_reserved":false,"is_disabled":false,"rental_uris":{"android":"levelo://app?vid=595662ae-40a4-4925-bd18-880276f7d659","ios":"levelo://app?vid=595662ae-40a4-4925-bd18-880276f7d659"},"vehicle_type_id":"4","last_reported":1744560691,"current_range_meters":4800,"station_id":"ce4bh112rcd13ifvqda0","pricing_plan_id":"cebpf4jnsgd1na2vs0mg"},{"bike_id":"e31def71-8891-422b-94fe-ae35c2b1343b","system_id":"levelo_inurba_marseille","lat":43.28343,"lon":5.3811,"is_reserved":false,"is_disabled":false,"rental_uris":{"android":"levelo://app?vid=e31def71-8891-422b-94fe-ae35c2b1343b","ios":"levelo://app?vid=e31def71-8891-422b-94fe-ae35c2b1343b"},"vehicle_type_id":"4","last_reported":1744560691,"current_range_meters":4800,"station_id":"ce4bh412rcd13ifvqdr0","pricing_plan_id":"cebpf4jnsgd1na2vs0mg"},{"bike_id":"f915ac58-55ab-4ba3-b885-a6a3dc326f9d","system_id":"levelo_inurba_marseille","lat":43.2682,"lon":5.40255,"is_reserved":false,"is_disabled":false,"rental_uris":{"android":"levelo://app?vid=f915ac58-55ab-4ba3-b885-a6a3dc326f9d","ios":"levelo://app?vid=f915ac58-55ab-4ba3-b885-a6a3dc326f9d"},"vehicle_type_id":"4","last_reported":1744560691,"current_range_meters":4800,"station_id":"ce501612rcd8frsf0b60","pricing_plan_id":"cebpf4jnsgd1na2vs0mg"},{"bike_id":"93d0edb4-46be-43c7-bb98-9ffe08caf198","system_id":"levelo_inurba_marseille","lat":43.26027,"lon":5.37552,"is_reserved":false,"is_disabled":false,"rental_uris":{"android":"levelo://app?vid=93d0edb4-46be-43c7-bb98-9ffe08caf198","ios":"levelo://app?vid=93d0edb4-46be-43c7-bb98-9ffe08caf198"},"vehicle_type_id":"4","last_reported":1744560691,"current_range_meters":5600,"station_id":"ce4bhgh2rcd13ifvqfa0","pricing_plan_id":"cebpf4jnsgd1na2vs0mg"},{"bike_id":"cfadcc33-5bb8-4f29-9a84-ae98565bb4a2","system_id":"levelo_inurba_marseille","lat":43.240782,"lon":5.377985,"is_reserved":false,"is_disabled":false,"rental_uris":{"android":"levelo://app?vid=cfadcc33-5bb8-4f29-9a84-ae98565bb4a2","ios":"levelo://app?vid=cfadcc33-5bb8-4f29-9a84-ae98565bb4a2"},"vehicle_type_id":"4","last_reported":1744560691,"current_range_meters":5600,"station_id":"ce4bhnp2rcd13ifvqgvg","pricing_plan_id":"cebpf4jnsgd1na2vs0mg"},{"bike_id":"8f14596d-7308-4658-8f03-41861b8bcf9b","system_id":"levelo_inurba_marseille","lat":43.27988,"lon":5.3883,"is_reserved":false,"is_disabled":false,"rental_uris":{"android":"levelo://app?vid=8f14596d-7308-4658-8f03-41861b8bcf9b","ios":"levelo://app?vid=8f14596d-7308-4658-8f03-41861b8bcf9b"},"vehicle_type_id":"4","last_reported":1744560691,"current_range_meters":5600,"station_id":"","pricing_plan_id":"cebpf4jnsgd1na2vs0mg"},{"bike_id":"4c893399-b4ed-40ed-a49f-713da320f269","system_id":"levelo_inurba_marseille","lat":43.29861,"lon":5.37841,"is_reserved":false,"is_disabled":false,"rental_uris":{"android":"levelo://app?vid=4c893399-b4ed-40ed-a49f-713da320f269","ios":"levelo://app?vid=4c893399-b4ed-40ed-a49f-713da320f269"},"vehicle_type_id":"4","last_reported":1744560691,"current_range_meters":5600,"station_id":"","pricing_plan_id":"cebpf4jnsgd1na2vs0mg"},{"bike_id":"fb3bf63f-cb8b-4e2d-97b5-e2bd30164ab5","system_id":"levelo_inurba_marseille","lat":43.3106,"lon":5.36728,"is_reserved":false,"is_disabled":false,"rental_uris":{"android":"levelo://app?vid=fb3bf63f-cb8b-4e2d-97b5-e2bd30164ab5","ios":"levelo://app?vid=fb3bf63f-cb8b-4e2d-97b5-e2bd30164ab5"},"vehicle_type_id":"4","last_reported":1744560691,"current_range_meters":5600,"station_id":"","pricing_plan_id":"cebpf4jnsgd1na2vs0mg"},{"bike_id":"ee37d139-b142-4b50-a9e7-ebe3a284e80c","system_id":"levelo_inurba_marseille","lat":43.22958,"lon":5.35403,"is_reserved":false,"is_disabled":false,"rental_uris":{"android":"levelo://app?vid=ee37d139-b142-4b50-a9e7-ebe3a284e80c","ios":"levelo://app?vid=ee37d139-b142-4b50-a9e7-ebe3a284e80c"},"vehicle_type_id":"4","last_reported":1744560691,"current_range_meters":6000,"station_id":"cpo3532slgdg3j2ikp40","pricing_plan_id":"cebpf4jnsgd1na2vs0mg"},{"bike_id":"ef291804-1477-432e-b153-82ea15725418","system_id":"levelo_inurba_marseille","lat":43.33742,"lon":5.37454,"is_reserved":false,"is_disabled":false,"rental_uris":{"android":"levelo://app?vid=ef291804-1477-432e-b153-82ea15725418","ios":"levelo://app?vid=ef291804-1477-432e-b153-82ea15725418"},"vehicle_type_id":"4","last_reported":1744560691,"current_range_meters":6000,"station_id":"","pricing_plan_id":"cebpf4jnsgd1na2vs0mg"},{"bike_id":"fd37bd7f-f835-4547-a26f-a07fa64a95ec","system_id":"levelo_inurba_marseille","lat":43.27374,"lon":5.36259,"is_reserved":false,"is_disabled":false,"rental_uris":{"android":"levelo://app?vid=fd37bd7f-f835-4547-a26f-a07fa64a95ec","ios":"levelo://app?vid=fd37bd7f-f835-4547-a26f-a07fa64a95ec"},"vehicle_type_id":"4","last_reported":1744560691,"current_range_meters":5600,"station_id":"ce4bhbh2rcd13ifvqeo0","pricing_plan_id":"cebpf4jnsgd1na2vs0mg"},{"bike_id":"bbabed49-02b8-4088-bff5-10aa8764dd8e","system_id":"levelo_inurba_marseille","lat":43.26061,"lon":5.39398,"is_reserved":false,"is_disabled":false,"rental_uris":{"android":"levelo://app?vid=bbabed49-02b8-4088-bff5-10aa8764dd8e","ios":"levelo://app?vid=bbabed49-02b8-4088-bff5-10aa8764dd8e"},"vehicle_type_id":"4","last_reported":1744560691,"current_range_meters":6000,"station_id":"ce4bhh92rcd13ifvqfj0","pricing_plan_id":"cebpf4jnsgd1na2vs0mg"},{"bike_id":"1130922e-9ccc-463b-9207-aadecd794edb","system_id":"levelo_inurba_marseille","lat":43.31996,"lon":5.38171,"is_reserved":false,"is_disabled":true,"rental_uris":{"android":"levelo://app?vid=1130922e-9ccc-463b-9207-aadecd794edb","ios":"levelo://app?vid=1130922e-9ccc-463b-9207-aadecd794edb"},"vehicle_type_id":"4","last_reported":1744560691,"current_range_meters":6400,"station_id":"ce4bhr12rcd13ifvqhpg","pricing_plan_id":"cebpf4jnsgd1na2vs0mg"},{"bike_id":"c013d600-5e08-48f0-830e-8c965978436b","system_id":"levelo_inurba_marseille","lat":43.30434,"lon":5.3891,"is_reserved":false,"is_disabled":true,"rental_uris":{"android":"levelo://app?vid=c013d600-5e08-48f0-830e-8c965978436b","ios":"levelo://app?vid=c013d600-5e08-48f0-830e-8c965978436b"},"vehicle_type_id":"4","last_reported":1744560691,"current_range_meters":6400,"station_id":"ce4bgk12rcd13ifvqbi0","pricing_plan_id":"cebpf4jnsgd1na2vs0mg"},{"bike_id":"2986b5b3-2afa-43b4-b78c-fba40c758e19","system_id":"levelo_inurba_marseille","lat":43.30303,"lon":5.36897,"is_reserved":false,"is_disabled":false,"rental_uris":{"android":"levelo://app?vid=2986b5b3-2afa-43b4-b78c-fba40c758e19","ios":"levelo://app?vid=2986b5b3-2afa-43b4-b78c-fba40c758e19"},"vehicle_type_id":"4","last_reported":1744560691,"current_range_meters":6400,"station_id":"ce4bgqh2rcd13ifvqc5g","pricing_plan_id":"cebpf4jnsgd1na2vs0mg"},{"bike_id":"9c286d5d-abe6-432e-8399-9f5242a07599","system_id":"levelo_inurba_marseille","lat":43.29962,"lon":5.41327,"is_reserved":false,"is_disabled":false,"rental_uris":{"android":"levelo://app?vid=9c286d5d-abe6-432e-8399-9f5242a07599","ios":"levelo://app?vid=9c286d5d-abe6-432e-8399-9f5242a07599"},"vehicle_type_id":"4","last_reported":1744560691,"current_range_meters":6400,"station_id":"ce4bhp12rcd13ifvqh9g","pricing_plan_id":"cebpf4jnsgd1na2vs0mg"},{"bike_id":"00fea045-3c47-4142-a992-83b23f578805","system_id":"levelo_inurba_marseille","lat":43.25088,"lon":5.3953,"is_reserved":false,"is_disabled":false,"rental_uris":{"android":"levelo://app?vid=00fea045-3c47-4142-a992-83b23f578805","ios":"levelo://app?vid=00fea045-3c47-4142-a992-83b23f578805"},"vehicle_type_id":"4","last_reported":1744560691,"current_range_meters":6400,"station_id":"ce4bhm12rcd13ifvqgkg","pricing_plan_id":"cebpf4jnsgd1na2vs0mg"},{"bike_id":"922d31d1-8143-4810-ad78-ced66ece92a4","system_id":"levelo_inurba_marseille","lat":43.27582,"lon":5.38497,"is_reserved":false,"is_disabled":true,"rental_uris":{"android":"levelo://app?vid=922d31d1-8143-4810-ad78-ced66ece92a4","ios":"levelo://app?vid=922d31d1-8143-4810-ad78-ced66ece92a4"},"vehicle_type_id":"4","last_reported":1744560691,"current_range_meters":6400,"station_id":"ce4bhh92rcd13ifvqfi0","pricing_plan_id":"cebpf4jnsgd1na2vs0mg"},{"bike_id":"88802da1-90f2-4aff-90a1-c3598e933096","system_id":"levelo_inurba_marseille","lat":43.30303,"lon":5.3912,"is_reserved":false,"is_disabled":false,"rental_uris":{"android":"levelo://app?vid=88802da1-90f2-4aff-90a1-c3598e933096","ios":"levelo://app?vid=88802da1-90f2-4aff-90a1-c3598e933096"},"vehicle_type_id":"4","last_reported":1744560691,"current_range_meters":6400,"station_id":"","pricing_plan_id":"cebpf4jnsgd1na2vs0mg"},{"bike_id":"51d8d644-93bd-4e8a-adf8-6eccc4f3865c","system_id":"levelo_inurba_marseille","lat":43.286941,"lon":5.37387,"is_reserved":false,"is_disabled":false,"rental_uris":{"android":"levelo://app?vid=51d8d644-93bd-4e8a-adf8-6eccc4f3865c","ios":"levelo://app?vid=51d8d644-93bd-4e8a-adf8-6eccc4f3865c"},"vehicle_type_id":"4","last_reported":1744560691,"current_range_meters":6400,"station_id":"ce4bh3p2rcd13ifvqdq0","pricing_plan_id":"cebpf4jnsgd1na2vs0mg"},{"bike_id":"73905670-6672-4dc0-933c-231ca8769af6","system_id":"levelo_inurba_marseille","lat":43.2694,"lon":5.40254,"is_reserved":false,"is_disabled":false,"rental_uris":{"android":"levelo://app?vid=73905670-6672-4dc0-933c-231ca8769af6","ios":"levelo://app?vid=73905670-6672-4dc0-933c-231ca8769af6"},"vehicle_type_id":"4","last_reported":1744560691,"current_range_meters":6800,"station_id":"cjm6bp8fraef2m0cb0m0","pricing_plan_id":"cebpf4jnsgd1na2vs0mg"},{"bike_id":"d53356ed-34e7-4ce0-8d94-e073954cdd85","system_id":"levelo_inurba_marseille","lat":43.27068,"lon":5.40263,"is_reserved":false,"is_disabled":true,"rental_uris":{"android":"levelo://app?vid=d53356ed-34e7-4ce0-8d94-e073954cdd85","ios":"levelo://app?vid=d53356ed-34e7-4ce0-8d94-e073954cdd85"},"vehicle_type_id":"4","last_reported":1744560691,"current_range_meters":6800,"station_id":"ce4bhk92rcd13ifvqgc0","pricing_plan_id":"cebpf4jnsgd1na2vs0mg"},{"bike_id":"48304a08-5a69-4a32-a932-369007df2aca","system_id":"levelo_inurba_marseille","lat":43.28627,"lon":5.3512,"is_reserved":false,"is_disabled":true,"rental_uris":{"android":"levelo://app?vid=48304a08-5a69-4a32-a932-369007df2aca","ios":"levelo://app?vid=48304a08-5a69-4a32-a932-369007df2aca"},"vehicle_type_id":"4","last_reported":1744560691,"current_range_meters":6800,"station_id":"ce4bhch2rcd13ifvqeug","pricing_plan_id":"cebpf4jnsgd1na2vs0mg"},{"bike_id":"1f6be261-82c4-4a04-bf9d-b88879150a4f","system_id":"levelo_inurba_marseille","lat":43.278288,"lon":5.397892,"is_reserved":false,"is_disabled":false,"rental_uris":{"android":"levelo://app?vid=1f6be261-82c4-4a04-bf9d-b88879150a4f","ios":"levelo://app?vid=1f6be261-82c4-4a04-bf9d-b88879150a4f"},"vehicle_type_id":"4","last_reported":1744560691,"current_range_meters":6800,"station_id":"ce4bhnh2rcd13ifvqgtg","pricing_plan_id":"cebpf4jnsgd1na2vs0mg"},{"bike_id":"05e5430a-e40e-4071-8cb9-e49052b9ed7b","system_id":"levelo_inurba_marseille","lat":43.27364,"lon":5.36257,"is_reserved":false,"is_disabled":false,"rental_uris":{"android":"levelo://app?vid=05e5430a-e40e-4071-8cb9-e49052b9ed7b","ios":"levelo://app?vid=05e5430a-e40e-4071-8cb9-e49052b9ed7b"},"vehicle_type_id":"4","last_reported":1744560691,"current_range_meters":6800,"station_id":"ce4bhbh2rcd13ifvqeo0","pricing_plan_id":"cebpf4jnsgd1na2vs0mg"},{"bike_id":"36e38036-f767-4b78-bdb4-ad91dc519fe6","system_id":"levelo_inurba_marseille","lat":43.2694,"lon":5.40264,"is_reserved":false,"is_disabled":false,"rental_uris":{"android":"levelo://app?vid=36e38036-f767-4b78-bdb4-ad91dc519fe6","ios":"levelo://app?vid=36e38036-f767-4b78-bdb4-ad91dc519fe6"},"vehicle_type_id":"4","last_reported":1744560691,"current_range_meters":7200,"station_id":"cjm6bp8fraef2m0cb0m0","pricing_plan_id":"cebpf4jnsgd1na2vs0mg"},{"bike_id":"d185f7a2-6136-496a-83f6-3acf32292f4c","system_id":"levelo_inurba_marseille","lat":43.29317,"lon":5.37173,"is_reserved":false,"is_disabled":true,"rental_uris":{"android":"levelo://app?vid=d185f7a2-6136-496a-83f6-3acf32292f4c","ios":"levelo://app?vid=d185f7a2-6136-496a-83f6-3acf32292f4c"},"vehicle_type_id":"4","last_reported":1744560691,"current_range_meters":7200,"station_id":"ce4bgh92rcd13ifvqb40","pricing_plan_id":"cebpf4jnsgd1na2vs0mg"},{"bike_id":"d8f603cd-3b83-4148-bab8-3a185ad2a59f","system_id":"levelo_inurba_marseille","lat":43.32416,"lon":5.3913,"is_reserved":false,"is_disabled":false,"rental_uris":{"android":"levelo://app?vid=d8f603cd-3b83-4148-bab8-3a185ad2a59f","ios":"levelo://app?vid=d8f603cd-3b83-4148-bab8-3a185ad2a59f"},"vehicle_type_id":"4","last_reported":1744560691,"current_range_meters":7200,"station_id":"","pricing_plan_id":"cebpf4jnsgd1na2vs0mg"},{"bike_id":"019576dd-4d5b-449f-bee3-6016e550c1da","system_id":"levelo_inurba_marseille","lat":43.30386,"lon":5.4253,"is_reserved":false,"is_disabled":false,"rental_uris":{"android":"levelo://app?vid=019576dd-4d5b-449f-bee3-6016e550c1da","ios":"levelo://app?vid=019576dd-4d5b-449f-bee3-6016e550c1da"},"vehicle_type_id":"4","last_reported":1744560691,"current_range_meters":7200,"station_id":"ce4bhoh2rcd13ifvqh6g","pricing_plan_id":"cebpf4jnsgd1na2vs0mg"},{"bike_id":"f84d2e83-2c36-4037-b408-e17151eec878","system_id":"levelo_inurba_marseille","lat":43.29382,"lon":5.3785,"is_reserved":false,"is_disabled":false,"rental_uris":{"android":"levelo://app?vid=f84d2e83-2c36-4037-b408-e17151eec878","ios":"levelo://app?vid=f84d2e83-2c36-4037-b408-e17151eec878"},"vehicle_type_id":"4","last_reported":1744560691,"current_range_meters":6800,"station_id":"ce4bgjh2rcd13ifvqbf0","pricing_plan_id":"cebpf4jnsgd1na2vs0mg"},{"bike_id":"826c0beb-b859-44fc-9e3b-2569fdc20685","system_id":"levelo_inurba_marseille","lat":43.30384,"lon":5.42488,"is_reserved":false,"is_disabled":false,"rental_uris":{"android":"levelo://app?vid=826c0beb-b859-44fc-9e3b-2569fdc20685","ios":"levelo://app?vid=826c0beb-b859-44fc-9e3b-2569fdc20685"},"vehicle_type_id":"4","last_reported":1744560691,"current_range_meters":7200,"station_id":"ce4bhoh2rcd13ifvqh6g","pricing_plan_id":"cebpf4jnsgd1na2vs0mg"},{"bike_id":"4a0973b0-92a0-41e8-9b0d-a99e944bafe0","system_id":"levelo_inurba_marseille","lat":43.3448,"lon":5.41281,"is_reserved":false,"is_disabled":false,"rental_uris":{"android":"levelo://app?vid=4a0973b0-92a0-41e8-9b0d-a99e944bafe0","ios":"levelo://app?vid=4a0973b0-92a0-41e8-9b0d-a99e944bafe0"},"vehicle_type_id":"4","last_reported":1744560691,"current_range_meters":7200,"station_id":"","pricing_plan_id":"cebpf4jnsgd1na2vs0mg"},{"bike_id":"894bf11c-5b85-40ad-8959-6ed9502db2e8","system_id":"levelo_inurba_marseille","lat":43.28408,"lon":5.37496,"is_reserved":false,"is_disabled":false,"rental_uris":{"android":"levelo://app?vid=894bf11c-5b85-40ad-8959-6ed9502db2e8","ios":"levelo://app?vid=894bf11c-5b85-40ad-8959-6ed9502db2e8"},"vehicle_type_id":"4","last_reported":1744560691,"current_range_meters":7200,"station_id":"ce4bh412rcd13ifvqds0","pricing_plan_id":"cebpf4jnsgd1na2vs0mg"},{"bike_id":"5b77a833-8185-45c2-9fe3-07eb40df54ca","system_id":"levelo_inurba_marseille","lat":43.33995,"lon":5.38057,"is_reserved":false,"is_disabled":false,"rental_uris":{"android":"levelo://app?vid=5b77a833-8185-45c2-9fe3-07eb40df54ca","ios":"levelo://app?vid=5b77a833-8185-45c2-9fe3-07eb40df54ca"},"vehicle_type_id":"4","last_reported":1744560691,"current_range_meters":7200,"station_id":"","pricing_plan_id":"cebpf4jnsgd1na2vs0mg"},{"bike_id":"2c9594fa-9531-4e5b-8e20-1c87347ae7b2","system_id":"levelo_inurba_marseille","lat":43.29107,"lon":5.38128,"is_reserved":false,"is_disabled":false,"rental_uris":{"android":"levelo://app?vid=2c9594fa-9531-4e5b-8e20-1c87347ae7b2","ios":"levelo://app?vid=2c9594fa-9531-4e5b-8e20-1c87347ae7b2"},"vehicle_type_id":"4","last_reported":1744560691,"current_range_meters":7200,"station_id":"ce4bh512rcd13ifvqe2g","pricing_plan_id":"cebpf4jnsgd1na2vs0mg"},{"bike_id":"f7d1eee0-1715-419d-beac-1b98ec9e62ed","system_id":"levelo_inurba_marseille","lat":43.30943,"lon":5.39041,"is_reserved":false,"is_disabled":true,"rental_uris":{"android":"levelo://app?vid=f7d1eee0-1715-419d-beac-1b98ec9e62ed","ios":"levelo://app?vid=f7d1eee0-1715-419d-beac-1b98ec9e62ed"},"vehicle_type_id":"4","last_reported":1744560691,"current_range_meters":8000,"station_id":"ce4bgup2rcd13ifvqco0","pricing_plan_id":"cebpf4jnsgd1na2vs0mg"},{"bike_id":"e6f7a354-eb81-4ac4-ac0d-e6ec7c75549c","system_id":"levelo_inurba_marseille","lat":43.29628,"lon":5.405955,"is_reserved":false,"is_disabled":false,"rental_uris":{"android":"levelo://app?vid=e6f7a354-eb81-4ac4-ac0d-e6ec7c75549c","ios":"levelo://app?vid=e6f7a354-eb81-4ac4-ac0d-e6ec7c75549c"},"vehicle_type_id":"4","last_reported":1744560691,"current_range_meters":8000,"station_id":"ce4bh8p2rcd13ifvqeb0","pricing_plan_id":"cebpf4jnsgd1na2vs0mg"},{"bike_id":"d3a0735f-573a-4104-997d-7c30322dda03","system_id":"levelo_inurba_marseille","lat":43.312611,"lon":5.401557,"is_reserved":false,"is_disabled":false,"rental_uris":{"android":"levelo://app?vid=d3a0735f-573a-4104-997d-7c30322dda03","ios":"levelo://app?vid=d3a0735f-573a-4104-997d-7c30322dda03"},"vehicle_type_id":"4","last_reported":1744560691,"current_range_meters":7200,"station_id":"ce4bh092rcd13ifvqd30","pricing_plan_id":"cebpf4jnsgd1na2vs0mg"},{"bike_id":"70eab1c4-edf9-4698-8664-b29d1501e1ec","system_id":"levelo_inurba_marseille","lat":43.28372,"lon":5.3863,"is_reserved":false,"is_disabled":false,"rental_uris":{"android":"levelo://app?vid=70eab1c4-edf9-4698-8664-b29d1501e1ec","ios":"levelo://app?vid=70eab1c4-edf9-4698-8664-b29d1501e1ec"},"vehicle_type_id":"4","last_reported":1744560691,"current_range_meters":8000,"station_id":"ce4bh492rcd13ifvqdvg","pricing_plan_id":"cebpf4jnsgd1na2vs0mg"},{"bike_id":"493cde9e-7859-4c26-a2e6-f744ee5d8553","system_id":"levelo_inurba_marseille","lat":43.31806,"lon":5.36798,"is_reserved":false,"is_disabled":false,"rental_uris":{"android":"levelo://app?vid=493cde9e-7859-4c26-a2e6-f744ee5d8553","ios":"levelo://app?vid=493cde9e-7859-4c26-a2e6-f744ee5d8553"},"vehicle_type_id":"4","last_reported":1744560691,"current_range_meters":8000,"station_id":"","pricing_plan_id":"cebpf4jnsgd1na2vs0mg"},{"bike_id":"97c5290c-6dcd-4f81-953a-f5953018fa5b","system_id":"levelo_inurba_marseille","lat":43.31082,"lon":5.37565,"is_reserved":false,"is_disabled":false,"rental_uris":{"android":"levelo://app?vid=97c5290c-6dcd-4f81-953a-f5953018fa5b","ios":"levelo://app?vid=97c5290c-6dcd-4f81-953a-f5953018fa5b"},"vehicle_type_id":"4","last_reported":1744560691,"current_range_meters":8000,"station_id":"","pricing_plan_id":"cebpf4jnsgd1na2vs0mg"},{"bike_id":"0e7bf4ae-5aed-4055-a1f8-96debbb9847e","system_id":"levelo_inurba_marseille","lat":43.24173,"lon":5.364,"is_reserved":false,"is_disabled":false,"rental_uris":{"android":"levelo://app?vid=0e7bf4ae-5aed-4055-a1f8-96debbb9847e","ios":"levelo://app?vid=0e7bf4ae-5aed-4055-a1f8-96debbb9847e"},"vehicle_type_id":"4","last_reported":1744560691,"current_range_meters":8000,"station_id":"cpo36qri1sfpv3e86is0","pricing_plan_id":"cebpf4jnsgd1na2vs0mg"},{"bike_id":"d66109f0-0468-4c1d-94c3-e100435b1735","system_id":"levelo_inurba_marseille","lat":43.3127,"lon":5.368891,"is_reserved":false,"is_disabled":false,"rental_uris":{"android":"levelo://app?vid=d66109f0-0468-4c1d-94c3-e100435b1735","ios":"levelo://app?vid=d66109f0-0468-4c1d-94c3-e100435b1735"},"vehicle_type_id":"4","last_reported":1744560691,"current_range_meters":8400,"station_id":"","pricing_plan_id":"cebpf4jnsgd1na2vs0mg"},{"bike_id":"78e01fb7-216c-4482-bf74-d86ba7c88f77","system_id":"levelo_inurba_marseille","lat":43.30313,"lon":5.36892,"is_reserved":false,"is_disabled":false,"rental_uris":{"android":"levelo://app?vid=78e01fb7-216c-4482-bf74-d86ba7c88f77","ios":"levelo://app?vid=78e01fb7-216c-4482-bf74-d86ba7c88f77"},"vehicle_type_id":"4","last_reported":1744560691,"current_range_meters":8400,"station_id":"ce4bgqh2rcd13ifvqc5g","pricing_plan_id":"cebpf4jnsgd1na2vs0mg"},{"bike_id":"4f38e127-be9f-468e-8871-e9cd4f365dca","system_id":"levelo_inurba_marseille","lat":43.24752,"lon":5.41097,"is_reserved":false,"is_disabled":false,"rental_uris":{"android":"levelo://app?vid=4f38e127-be9f-468e-8871-e9cd4f365dca","ios":"levelo://app?vid=4f38e127-be9f-468e-8871-e9cd4f365dca"},"vehicle_type_id":"4","last_reported":1744560691,"current_range_meters":8400,"station_id":"","pricing_plan_id":"cebpf4jnsgd1na2vs0mg"},{"bike_id":"b7e965ff-4854-44fc-8e2a-103893462049","system_id":"levelo_inurba_marseille","lat":43.337444,"lon":5.374475,"is_reserved":false,"is_disabled":true,"rental_uris":{"android":"levelo://app?vid=b7e965ff-4854-44fc-8e2a-103893462049","ios":"levelo://app?vid=b7e965ff-4854-44fc-8e2a-103893462049"},"vehicle_type_id":"4","last_reported":1744560691,"current_range_meters":8400,"station_id":"","pricing_plan_id":"cebpf4jnsgd1na2vs0mg"},{"bike_id":"ce2862df-6856-42eb-b83d-c41ef56970d4","system_id":"levelo_inurba_marseille","lat":43.28465,"lon":5.38409,"is_reserved":false,"is_disabled":false,"rental_uris":{"android":"levelo://app?vid=ce2862df-6856-42eb-b83d-c41ef56970d4","ios":"levelo://app?vid=ce2862df-6856-42eb-b83d-c41ef56970d4"},"vehicle_type_id":"4","last_reported":1744560691,"current_range_meters":8400,"station_id":"ce4bh512rcd13ifvqe3g","pricing_plan_id":"cebpf4jnsgd1na2vs0mg"},{"bike_id":"58eb859e-e212-4e30-a06a-b8930239cc96","system_id":"levelo_inurba_marseille","lat":43.30386,"lon":5.42487,"is_reserved":false,"is_disabled":false,"rental_uris":{"android":"levelo://app?vid=58eb859e-e212-4e30-a06a-b8930239cc96","ios":"levelo://app?vid=58eb859e-e212-4e30-a06a-b8930239cc96"},"vehicle_type_id":"4","last_reported":1744560691,"current_range_meters":8800,"station_id":"ce4bhoh2rcd13ifvqh6g","pricing_plan_id":"cebpf4jnsgd1na2vs0mg"},{"bike_id":"f7843f46-58aa-4cf6-a1d0-1b94b16f71c2","system_id":"levelo_inurba_marseille","lat":43.2983,"lon":5.39663,"is_reserved":false,"is_disabled":false,"rental_uris":{"android":"levelo://app?vid=f7843f46-58aa-4cf6-a1d0-1b94b16f71c2","ios":"levelo://app?vid=f7843f46-58aa-4cf6-a1d0-1b94b16f71c2"},"vehicle_type_id":"4","last_reported":1744560691,"current_range_meters":8800,"station_id":"","pricing_plan_id":"cebpf4jnsgd1na2vs0mg"},{"bike_id":"49ee7a2d-b87d-42ef-bdb3-cf1b5b3fae9b","system_id":"levelo_inurba_marseille","lat":43.24159,"lon":5.36474,"is_reserved":false,"is_disabled":false,"rental_uris":{"android":"levelo://app?vid=49ee7a2d-b87d-42ef-bdb3-cf1b5b3fae9b","ios":"levelo://app?vid=49ee7a2d-b87d-42ef-bdb3-cf1b5b3fae9b"},"vehicle_type_id":"4","last_reported":1744560691,"current_range_meters":8800,"station_id":"cpo36qri1sfpv3e86is0","pricing_plan_id":"cebpf4jnsgd1na2vs0mg"},{"bike_id":"2f5bc015-0a98-4a0d-a50f-f7181e1d6abe","system_id":"levelo_inurba_marseille","lat":43.2342,"lon":5.4128,"is_reserved":false,"is_disabled":false,"rental_uris":{"android":"levelo://app?vid=2f5bc015-0a98-4a0d-a50f-f7181e1d6abe","ios":"levelo://app?vid=2f5bc015-0a98-4a0d-a50f-f7181e1d6abe"},"vehicle_type_id":"4","last_reported":1744560691,"current_range_meters":8800,"station_id":"","pricing_plan_id":"cebpf4jnsgd1na2vs0mg"},{"bike_id":"998bf81d-ad9f-4ed4-abc9-e0d2ed6ed276","system_id":"levelo_inurba_marseille","lat":43.23194,"lon":5.35565,"is_reserved":false,"is_disabled":true,"rental_uris":{"android":"levelo://app?vid=998bf81d-ad9f-4ed4-abc9-e0d2ed6ed276","ios":"levelo://app?vid=998bf81d-ad9f-4ed4-abc9-e0d2ed6ed276"},"vehicle_type_id":"4","last_reported":1744560691,"current_range_meters":8800,"station_id":"ce4bhu92rcd13ifvqi70","pricing_plan_id":"cebpf4jnsgd1na2vs0mg"},{"bike_id":"9efc1f67-512e-4a40-becc-1a1908ea2965","system_id":"levelo_inurba_marseille","lat":43.28415,"lon":5.37509,"is_reserved":false,"is_disabled":false,"rental_uris":{"android":"levelo://app?vid=9efc1f67-512e-4a40-becc-1a1908ea2965","ios":"levelo://app?vid=9efc1f67-512e-4a40-becc-1a1908ea2965"},"vehicle_type_id":"4","last_reported":1744560691,"current_range_meters":8800,"station_id":"ce4bh412rcd13ifvqds0","pricing_plan_id":"cebpf4jnsgd1na2vs0mg"},{"bike_id":"30cc8b33-f5d2-402b-bc22-73b6e88b3714","system_id":"levelo_inurba_marseille","lat":43.24677,"lon":5.38173,"is_reserved":false,"is_disabled":false,"rental_uris":{"android":"levelo://app?vid=30cc8b33-f5d2-402b-bc22-73b6e88b3714","ios":"levelo://app?vid=30cc8b33-f5d2-402b-bc22-73b6e88b3714"},"vehicle_type_id":"4","last_reported":1744560691,"current_range_meters":8800,"station_id":"ce4bhih2rcd13ifvqfr0","pricing_plan_id":"cebpf4jnsgd1na2vs0mg"},{"bike_id":"76450c2c-888f-4d08-a5c0-d825237615aa","system_id":"levelo_inurba_marseille","lat":43.27228,"lon":5.42306,"is_reserved":false,"is_disabled":false,"rental_uris":{"android":"levelo://app?vid=76450c2c-888f-4d08-a5c0-d825237615aa","ios":"levelo://app?vid=76450c2c-888f-4d08-a5c0-d825237615aa"},"vehicle_type_id":"4","last_reported":1744560691,"current_range_meters":9200,"station_id":"","pricing_plan_id":"cebpf4jnsgd1na2vs0mg"},{"bike_id":"6e2ac28e-dfb7-46b8-8016-b7ae92b2a4f0","system_id":"levelo_inurba_marseille","lat":43.27993,"lon":5.40012,"is_reserved":false,"is_disabled":false,"rental_uris":{"android":"levelo://app?vid=6e2ac28e-dfb7-46b8-8016-b7ae92b2a4f0","ios":"levelo://app?vid=6e2ac28e-dfb7-46b8-8016-b7ae92b2a4f0"},"vehicle_type_id":"4","last_reported":1744560691,"current_range_meters":9200,"station_id":"ce4bho92rcd13ifvqh4g","pricing_plan_id":"cebpf4jnsgd1na2vs0mg"},{"bike_id":"fecb5e2e-ba6c-4f29-9893-46dd69a583b2","system_id":"levelo_inurba_marseille","lat":43.30105,"lon":5.39099,"is_reserved":false,"is_disabled":false,"rental_uris":{"android":"levelo://app?vid=fecb5e2e-ba6c-4f29-9893-46dd69a583b2","ios":"levelo://app?vid=fecb5e2e-ba6c-4f29-9893-46dd69a583b2"},"vehicle_type_id":"4","last_reported":1744560691,"current_range_meters":9200,"station_id":"ce4bh192rcd13ifvqdb0","pricing_plan_id":"cebpf4jnsgd1na2vs0mg"},{"bike_id":"0c30a5d7-82b9-4bb2-9032-224893c69d2f","system_id":"levelo_inurba_marseille","lat":43.26507,"lon":5.39596,"is_reserved":false,"is_disabled":true,"rental_uris":{"android":"levelo://app?vid=0c30a5d7-82b9-4bb2-9032-224893c69d2f","ios":"levelo://app?vid=0c30a5d7-82b9-4bb2-9032-224893c69d2f"},"vehicle_type_id":"4","last_reported":1744560691,"current_range_meters":9200,"station_id":"ce4bhi12rcd13ifvqfq0","pricing_plan_id":"cebpf4jnsgd1na2vs0mg"},{"bike_id":"eef662bd-49fa-4185-a5f5-5664aa402854","system_id":"levelo_inurba_marseille","lat":43.22932,"lon":5.35383,"is_reserved":false,"is_disabled":false,"rental_uris":{"android":"levelo://app?vid=eef662bd-49fa-4185-a5f5-5664aa402854","ios":"levelo://app?vid=eef662bd-49fa-4185-a5f5-5664aa402854"},"vehicle_type_id":"4","last_reported":1744560691,"current_range_meters":9200,"station_id":"cpo3532slgdg3j2ikp40","pricing_plan_id":"cebpf4jnsgd1na2vs0mg"},{"bike_id":"a94596a2-75af-475d-ac89-6565c567fec7","system_id":"levelo_inurba_marseille","lat":43.29853,"lon":5.36297,"is_reserved":false,"is_disabled":false,"rental_uris":{"android":"levelo://app?vid=a94596a2-75af-475d-ac89-6565c567fec7","ios":"levelo://app?vid=a94596a2-75af-475d-ac89-6565c567fec7"},"vehicle_type_id":"4","last_reported":1744560691,"current_range_meters":9200,"station_id":"ce4bgpp2rcd13ifvqc3g","pricing_plan_id":"cebpf4jnsgd1na2vs0mg"},{"bike_id":"71817b49-d189-44f2-a355-f9b87aadafc5","system_id":"levelo_inurba_marseille","lat":43.31726,"lon":5.42398,"is_reserved":false,"is_disabled":false,"rental_uris":{"android":"levelo://app?vid=71817b49-d189-44f2-a355-f9b87aadafc5","ios":"levelo://app?vid=71817b49-d189-44f2-a355-f9b87aadafc5"},"vehicle_type_id":"4","last_reported":1744560691,"current_range_meters":9200,"station_id":"ce4bhp92rcd13ifvqhbg","pricing_plan_id":"cebpf4jnsgd1na2vs0mg"},{"bike_id":"c14a3d0e-03f7-430a-80a8-18644645ea89","system_id":"levelo_inurba_marseille","lat":43.32406,"lon":5.40679,"is_reserved":false,"is_disabled":false,"rental_uris":{"android":"levelo://app?vid=c14a3d0e-03f7-430a-80a8-18644645ea89","ios":"levelo://app?vid=c14a3d0e-03f7-430a-80a8-18644645ea89"},"vehicle_type_id":"4","last_reported":1744560691,"current_range_meters":9200,"station_id":"ce4bhq92rcd13ifvqhjg","pricing_plan_id":"cebpf4jnsgd1na2vs0mg"},{"bike_id":"e8885786-f1c3-4b76-aa1c-547c98f127ca","system_id":"levelo_inurba_marseille","lat":43.29286,"lon":5.40126,"is_reserved":false,"is_disabled":false,"rental_uris":{"android":"levelo://app?vid=e8885786-f1c3-4b76-aa1c-547c98f127ca","ios":"levelo://app?vid=e8885786-f1c3-4b76-aa1c-547c98f127ca"},"vehicle_type_id":"4","last_reported":1744560691,"current_range_meters":9600,"station_id":"ce4bh312rcd13ifvqdk0","pricing_plan_id":"cebpf4jnsgd1na2vs0mg"},{"bike_id":"f7cd819f-b752-47cc-848d-ff43c669ccb8","system_id":"levelo_inurba_marseille","lat":43.30987,"lon":5.41721,"is_reserved":false,"is_disabled":false,"rental_uris":{"android":"levelo://app?vid=f7cd819f-b752-47cc-848d-ff43c669ccb8","ios":"levelo://app?vid=f7cd819f-b752-47cc-848d-ff43c669ccb8"},"vehicle_type_id":"4","last_reported":1744560691,"current_range_meters":9600,"station_id":"","pricing_plan_id":"cebpf4jnsgd1na2vs0mg"},{"bike_id":"ec21190a-faf1-41a4-a07a-e3f7322dbead","system_id":"levelo_inurba_marseille","lat":43.29867,"lon":5.39735,"is_reserved":false,"is_disabled":false,"rental_uris":{"android":"levelo://app?vid=ec21190a-faf1-41a4-a07a-e3f7322dbead","ios":"levelo://app?vid=ec21190a-faf1-41a4-a07a-e3f7322dbead"},"vehicle_type_id":"4","last_reported":1744560691,"current_range_meters":9600,"station_id":"ce4bh0h2rcd13ifvqd50","pricing_plan_id":"cebpf4jnsgd1na2vs0mg"},{"bike_id":"cb161100-80bb-4381-add4-1e33676ca3e3","system_id":"levelo_inurba_marseille","lat":43.30137,"lon":5.38786,"is_reserved":false,"is_disabled":false,"rental_uris":{"android":"levelo://app?vid=cb161100-80bb-4381-add4-1e33676ca3e3","ios":"levelo://app?vid=cb161100-80bb-4381-add4-1e33676ca3e3"},"vehicle_type_id":"4","last_reported":1744560691,"current_range_meters":9600,"station_id":"ce4bghh2rcd13ifvqb60","pricing_plan_id":"cebpf4jnsgd1na2vs0mg"},{"bike_id":"91fffdcd-2fa7-4f34-b242-95e7e93ac05b","system_id":"levelo_inurba_marseille","lat":43.26353,"lon":5.39747,"is_reserved":false,"is_disabled":false,"rental_uris":{"android":"levelo://app?vid=91fffdcd-2fa7-4f34-b242-95e7e93ac05b","ios":"levelo://app?vid=91fffdcd-2fa7-4f34-b242-95e7e93ac05b"},"vehicle_type_id":"4","last_reported":1744560691,"current_range_meters":9600,"station_id":"","pricing_plan_id":"cebpf4jnsgd1na2vs0mg"},{"bike_id":"037e6d66-8cf6-48a0-adb9-4244c34eaf82","system_id":"levelo_inurba_marseille","lat":43.25087,"lon":5.39521,"is_reserved":false,"is_disabled":false,"rental_uris":{"android":"levelo://app?vid=037e6d66-8cf6-48a0-adb9-4244c34eaf82","ios":"levelo://app?vid=037e6d66-8cf6-48a0-adb9-4244c34eaf82"},"vehicle_type_id":"4","last_reported":1744560691,"current_range_meters":9600,"station_id":"ce4bhm12rcd13ifvqgkg","pricing_plan_id":"cebpf4jnsgd1na2vs0mg"},{"bike_id":"74ed6cf3-ac68-4f61-a549-74b19b0a1378","system_id":"levelo_inurba_marseille","lat":43.29417,"lon":5.38624,"is_reserved":false,"is_disabled":false,"rental_uris":{"android":"levelo://app?vid=74ed6cf3-ac68-4f61-a549-74b19b0a1378","ios":"levelo://app?vid=74ed6cf3-ac68-4f61-a549-74b19b0a1378"},"vehicle_type_id":"4","last_reported":1744560691,"current_range_meters":9600,"station_id":"ce4bh2h2rcd13ifvqdh0","pricing_plan_id":"cebpf4jnsgd1na2vs0mg"},{"bike_id":"8da7fc62-c9fa-4a26-a5e8-90309f15300c","system_id":"levelo_inurba_marseille","lat":43.25627,"lon":5.42,"is_reserved":false,"is_disabled":false,"rental_uris":{"android":"levelo://app?vid=8da7fc62-c9fa-4a26-a5e8-90309f15300c","ios":"levelo://app?vid=8da7fc62-c9fa-4a26-a5e8-90309f15300c"},"vehicle_type_id":"4","last_reported":1744560691,"current_range_meters":9600,"station_id":"","pricing_plan_id":"cebpf4jnsgd1na2vs0mg"},{"bike_id":"4d49d7bf-c387-4802-8134-39419f66ab07","system_id":"levelo_inurba_marseille","lat":43.2511,"lon":5.39542,"is_reserved":false,"is_disabled":false,"rental_uris":{"android":"levelo://app?vid=4d49d7bf-c387-4802-8134-39419f66ab07","ios":"levelo://app?vid=4d49d7bf-c387-4802-8134-39419f66ab07"},"vehicle_type_id":"4","last_reported":1744560691,"current_range_meters":9600,"station_id":"ce4bhm12rcd13ifvqgkg","pricing_plan_id":"cebpf4jnsgd1na2vs0mg"},{"bike_id":"1578cdda-fa32-4486-ac62-617f457b0927","system_id":"levelo_inurba_marseille","lat":43.28912,"lon":5.35847,"is_reserved":false,"is_disabled":true,"rental_uris":{"android":"levelo://app?vid=1578cdda-fa32-4486-ac62-617f457b0927","ios":"levelo://app?vid=1578cdda-fa32-4486-ac62-617f457b0927"},"vehicle_type_id":"4","last_reported":1744560691,"current_range_meters":10000,"station_id":"ce4bhb12rcd13ifvqem0","pricing_plan_id":"cebpf4jnsgd1na2vs0mg"},{"bike_id":"98da6931-c340-4738-b270-3fd180ca3f97","system_id":"levelo_inurba_marseille","lat":43.28456,"lon":5.35888,"is_reserved":false,"is_disabled":false,"rental_uris":{"android":"levelo://app?vid=98da6931-c340-4738-b270-3fd180ca3f97","ios":"levelo://app?vid=98da6931-c340-4738-b270-3fd180ca3f97"},"vehicle_type_id":"4","last_reported":1744560691,"current_range_meters":10000,"station_id":"ce4bhah2rcd13ifvqei0","pricing_plan_id":"cebpf4jnsgd1na2vs0mg"},{"bike_id":"020e9999-d552-48d0-ae5f-b725af0dbea2","system_id":"levelo_inurba_marseille","lat":43.29908,"lon":5.43755,"is_reserved":false,"is_disabled":false,"rental_uris":{"android":"levelo://app?vid=020e9999-d552-48d0-ae5f-b725af0dbea2","ios":"levelo://app?vid=020e9999-d552-48d0-ae5f-b725af0dbea2"},"vehicle_type_id":"4","last_reported":1744560691,"current_range_meters":10000,"station_id":"","pricing_plan_id":"cebpf4jnsgd1na2vs0mg"},{"bike_id":"82d38bd3-c046-4f55-aec8-4eb686f05e29","system_id":"levelo_inurba_marseille","lat":43.22808,"lon":5.34802,"is_reserved":false,"is_disabled":true,"rental_uris":{"android":"levelo://app?vid=82d38bd3-c046-4f55-aec8-4eb686f05e29","ios":"levelo://app?vid=82d38bd3-c046-4f55-aec8-4eb686f05e29"},"vehicle_type_id":"4","last_reported":1744560691,"current_range_meters":10000,"station_id":"","pricing_plan_id":"cebpf4jnsgd1na2vs0mg"},{"bike_id":"efd328ca-f8bf-4550-bd94-c2fd75978f3c","system_id":"levelo_inurba_marseille","lat":43.33068,"lon":5.38089,"is_reserved":false,"is_disabled":false,"rental_uris":{"android":"levelo://app?vid=efd328ca-f8bf-4550-bd94-c2fd75978f3c","ios":"levelo://app?vid=efd328ca-f8bf-4550-bd94-c2fd75978f3c"},"vehicle_type_id":"4","last_reported":1744560691,"current_range_meters":10000,"station_id":"","pricing_plan_id":"cebpf4jnsgd1na2vs0mg"},{"bike_id":"e3033e51-0403-4e5c-9649-cc323385bf93","system_id":"levelo_inurba_marseille","lat":43.27496,"lon":5.42452,"is_reserved":false,"is_disabled":false,"rental_uris":{"android":"levelo://app?vid=e3033e51-0403-4e5c-9649-cc323385bf93","ios":"levelo://app?vid=e3033e51-0403-4e5c-9649-cc323385bf93"},"vehicle_type_id":"4","last_reported":1744560691,"current_range_meters":10800,"station_id":"ce4bhn92rcd13ifvqgrg","pricing_plan_id":"cebpf4jnsgd1na2vs0mg"},{"bike_id":"12aec038-db5e-4d5d-a5cf-e01dc2e28ea3","system_id":"levelo_inurba_marseille","lat":43.30141,"lon":5.40549,"is_reserved":false,"is_disabled":true,"rental_uris":{"android":"levelo://app?vid=12aec038-db5e-4d5d-a5cf-e01dc2e28ea3","ios":"levelo://app?vid=12aec038-db5e-4d5d-a5cf-e01dc2e28ea3"},"vehicle_type_id":"4","last_reported":1744560691,"current_range_meters":10800,"station_id":"","pricing_plan_id":"cebpf4jnsgd1na2vs0mg"},{"bike_id":"5bd83869-317c-4f7d-93ed-182a084c5a24","system_id":"levelo_inurba_marseille","lat":43.25701,"lon":5.411176,"is_reserved":false,"is_disabled":false,"rental_uris":{"android":"levelo://app?vid=5bd83869-317c-4f7d-93ed-182a084c5a24","ios":"levelo://app?vid=5bd83869-317c-4f7d-93ed-182a084c5a24"},"vehicle_type_id":"4","last_reported":1744560691,"current_range_meters":10800,"station_id":"ce4bhkp2rcd13ifvqgd0","pricing_plan_id":"cebpf4jnsgd1na2vs0mg"},{"bike_id":"b55dd5e7-54b2-4035-b945-7b626dd7afc7","system_id":"levelo_inurba_marseille","lat":43.27554,"lon":5.40915,"is_reserved":false,"is_disabled":false,"rental_uris":{"android":"levelo://app?vid=b55dd5e7-54b2-4035-b945-7b626dd7afc7","ios":"levelo://app?vid=b55dd5e7-54b2-4035-b945-7b626dd7afc7"},"vehicle_type_id":"4","last_reported":1744560691,"current_range_meters":10800,"station_id":"","pricing_plan_id":"cebpf4jnsgd1na2vs0mg"},{"bike_id":"982bb1bc-457f-43d7-ae21-85035c856353","system_id":"levelo_inurba_marseille","lat":43.22514,"lon":5.3479,"is_reserved":false,"is_disabled":true,"rental_uris":{"android":"levelo://app?vid=982bb1bc-457f-43d7-ae21-85035c856353","ios":"levelo://app?vid=982bb1bc-457f-43d7-ae21-85035c856353"},"vehicle_type_id":"4","last_reported":1744560691,"current_range_meters":10800,"station_id":"st_cvj5dfep6f1abm77gieg","pricing_plan_id":"cebpf4jnsgd1na2vs0mg"},{"bike_id":"ca858d8a-0de6-46b6-aa9c-b375c2a81341","system_id":"levelo_inurba_marseille","lat":43.31351,"lon":5.36718,"is_reserved":false,"is_disabled":false,"rental_uris":{"android":"levelo://app?vid=ca858d8a-0de6-46b6-aa9c-b375c2a81341","ios":"levelo://app?vid=ca858d8a-0de6-46b6-aa9c-b375c2a81341"},"vehicle_type_id":"4","last_reported":1744560691,"current_range_meters":10800,"station_id":"ce4bgr92rcd13ifvqc6g","pricing_plan_id":"cebpf4jnsgd1na2vs0mg"},{"bike_id":"a3bf51d9-08b7-458c-9b6d-ef5680cc95d6","system_id":"levelo_inurba_marseille","lat":43.21755,"lon":5.346,"is_reserved":false,"is_disabled":true,"rental_uris":{"android":"levelo://app?vid=a3bf51d9-08b7-458c-9b6d-ef5680cc95d6","ios":"levelo://app?vid=a3bf51d9-08b7-458c-9b6d-ef5680cc95d6"},"vehicle_type_id":"4","last_reported":1744560691,"current_range_meters":10800,"station_id":"st_cvj6r9ubvosntc0bgbag","pricing_plan_id":"cebpf4jnsgd1na2vs0mg"},{"bike_id":"73bbc97d-2b39-4276-bc22-fd7aa78f429c","system_id":"levelo_inurba_marseille","lat":43.2989,"lon":5.43613,"is_reserved":false,"is_disabled":false,"rental_uris":{"android":"levelo://app?vid=73bbc97d-2b39-4276-bc22-fd7aa78f429c","ios":"levelo://app?vid=73bbc97d-2b39-4276-bc22-fd7aa78f429c"},"vehicle_type_id":"4","last_reported":1744560691,"current_range_meters":10800,"station_id":"ce4bhpp2rcd13ifvqhfg","pricing_plan_id":"cebpf4jnsgd1na2vs0mg"},{"bike_id":"71d758d9-e1f9-440e-be18-d9a62c8ebcd3","system_id":"levelo_inurba_marseille","lat":43.27915,"lon":5.3959,"is_reserved":false,"is_disabled":false,"rental_uris":{"android":"levelo://app?vid=71d758d9-e1f9-440e-be18-d9a62c8ebcd3","ios":"levelo://app?vid=71d758d9-e1f9-440e-be18-d9a62c8ebcd3"},"vehicle_type_id":"4","last_reported":1744560691,"current_range_meters":10800,"station_id":"ce4bhf92rcd13ifvqf40","pricing_plan_id":"cebpf4jnsgd1na2vs0mg"},{"bike_id":"bb035562-0d08-4b52-a81a-3649fd2bad87","system_id":"levelo_inurba_marseille","lat":43.24078,"lon":5.37753,"is_reserved":false,"is_disabled":false,"rental_uris":{"android":"levelo://app?vid=bb035562-0d08-4b52-a81a-3649fd2bad87","ios":"levelo://app?vid=bb035562-0d08-4b52-a81a-3649fd2bad87"},"vehicle_type_id":"4","last_reported":1744560691,"current_range_meters":10800,"station_id":"ce4bhnp2rcd13ifvqgvg","pricing_plan_id":"cebpf4jnsgd1na2vs0mg"},{"bike_id":"66bf4ba3-2476-41b3-b01f-bfe5bc676a43","system_id":"levelo_inurba_marseille","lat":43.28419,"lon":5.34984,"is_reserved":false,"is_disabled":false,"rental_uris":{"android":"levelo://app?vid=66bf4ba3-2476-41b3-b01f-bfe5bc676a43","ios":"levelo://app?vid=66bf4ba3-2476-41b3-b01f-bfe5bc676a43"},"vehicle_type_id":"4","last_reported":1744560691,"current_range_meters":10800,"station_id":"ce4bhbh2rcd13ifvqepg","pricing_plan_id":"cebpf4jnsgd1na2vs0mg"},{"bike_id":"c70dc66c-d4a1-4e50-81d7-22e212eff3e3","system_id":"levelo_inurba_marseille","lat":43.24694,"lon":5.38169,"is_reserved":false,"is_disabled":false,"rental_uris":{"android":"levelo://app?vid=c70dc66c-d4a1-4e50-81d7-22e212eff3e3","ios":"levelo://app?vid=c70dc66c-d4a1-4e50-81d7-22e212eff3e3"},"vehicle_type_id":"4","last_reported":1744560691,"current_range_meters":11200,"station_id":"ce4bhih2rcd13ifvqfr0","pricing_plan_id":"cebpf4jnsgd1na2vs0mg"},{"bike_id":"939ff0b1-b4a0-4b9b-b8b2-f2f53c0b63f4","system_id":"levelo_inurba_marseille","lat":43.29375,"lon":5.37843,"is_reserved":false,"is_disabled":false,"rental_uris":{"android":"levelo://app?vid=939ff0b1-b4a0-4b9b-b8b2-f2f53c0b63f4","ios":"levelo://app?vid=939ff0b1-b4a0-4b9b-b8b2-f2f53c0b63f4"},"vehicle_type_id":"4","last_reported":1744560691,"current_range_meters":11200,"station_id":"ce4bgjh2rcd13ifvqbf0","pricing_plan_id":"cebpf4jnsgd1na2vs0mg"},{"bike_id":"0803a091-c700-4dfd-88fc-c4e9b81a29e0","system_id":"levelo_inurba_marseille","lat":43.29265,"lon":5.40912,"is_reserved":false,"is_disabled":false,"rental_uris":{"android":"levelo://app?vid=0803a091-c700-4dfd-88fc-c4e9b81a29e0","ios":"levelo://app?vid=0803a091-c700-4dfd-88fc-c4e9b81a29e0"},"vehicle_type_id":"4","last_reported":1744560691,"current_range_meters":11200,"station_id":"ce4bh192rcd13ifvqdc0","pricing_plan_id":"cebpf4jnsgd1na2vs0mg"},{"bike_id":"d8b9884b-4022-4710-9f87-50e0dbfd421d","system_id":"levelo_inurba_marseille","lat":43.24174,"lon":5.36385,"is_reserved":false,"is_disabled":false,"rental_uris":{"android":"levelo://app?vid=d8b9884b-4022-4710-9f87-50e0dbfd421d","ios":"levelo://app?vid=d8b9884b-4022-4710-9f87-50e0dbfd421d"},"vehicle_type_id":"4","last_reported":1744560691,"current_range_meters":11200,"station_id":"cpo36qri1sfpv3e86is0","pricing_plan_id":"cebpf4jnsgd1na2vs0mg"},{"bike_id":"b08ff1ed-f4f4-40ca-8bee-4fee56f2468d","system_id":"levelo_inurba_marseille","lat":43.31715,"lon":5.43708,"is_reserved":false,"is_disabled":false,"rental_uris":{"android":"levelo://app?vid=b08ff1ed-f4f4-40ca-8bee-4fee56f2468d","ios":"levelo://app?vid=b08ff1ed-f4f4-40ca-8bee-4fee56f2468d"},"vehicle_type_id":"4","last_reported":1744560691,"current_range_meters":10800,"station_id":"ce4bhp92rcd13ifvqhcg","pricing_plan_id":"cebpf4jnsgd1na2vs0mg"},{"bike_id":"cec9fed2-74bc-4f07-a628-035c465b00b6","system_id":"levelo_inurba_marseille","lat":43.2418,"lon":5.39736,"is_reserved":false,"is_disabled":false,"rental_uris":{"android":"levelo://app?vid=cec9fed2-74bc-4f07-a628-035c465b00b6","ios":"levelo://app?vid=cec9fed2-74bc-4f07-a628-035c465b00b6"},"vehicle_type_id":"4","last_reported":1744560691,"current_range_meters":11200,"station_id":"ce4bhn12rcd13ifvqgpg","pricing_plan_id":"cebpf4jnsgd1na2vs0mg"},{"bike_id":"213887c7-de43-48fb-8428-6ad367d901ca","system_id":"levelo_inurba_marseille","lat":43.26569,"lon":5.38998,"is_reserved":false,"is_disabled":false,"rental_uris":{"android":"levelo://app?vid=213887c7-de43-48fb-8428-6ad367d901ca","ios":"levelo://app?vid=213887c7-de43-48fb-8428-6ad367d901ca"},"vehicle_type_id":"4","last_reported":1744560691,"current_range_meters":11200,"station_id":"ce4bhe12rcd13ifvqf30","pricing_plan_id":"cebpf4jnsgd1na2vs0mg"},{"bike_id":"2d962046-2b76-4390-af88-3785c3666147","system_id":"levelo_inurba_marseille","lat":43.26803,"lon":5.39406,"is_reserved":false,"is_disabled":false,"rental_uris":{"android":"levelo://app?vid=2d962046-2b76-4390-af88-3785c3666147","ios":"levelo://app?vid=2d962046-2b76-4390-af88-3785c3666147"},"vehicle_type_id":"4","last_reported":1744560691,"current_range_meters":11200,"station_id":"ce4bhh12rcd13ifvqfg0","pricing_plan_id":"cebpf4jnsgd1na2vs0mg"},{"bike_id":"4bbe6e48-9bfa-4dec-aab0-5597477f7da1","system_id":"levelo_inurba_marseille","lat":43.32412,"lon":5.39141,"is_reserved":false,"is_disabled":false,"rental_uris":{"android":"levelo://app?vid=4bbe6e48-9bfa-4dec-aab0-5597477f7da1","ios":"levelo://app?vid=4bbe6e48-9bfa-4dec-aab0-5597477f7da1"},"vehicle_type_id":"4","last_reported":1744560691,"current_range_meters":11200,"station_id":"","pricing_plan_id":"cebpf4jnsgd1na2vs0mg"},{"bike_id":"70678c9a-44ed-4571-841d-a85340267238","system_id":"levelo_inurba_marseille","lat":43.26788,"lon":5.39419,"is_reserved":false,"is_disabled":false,"rental_uris":{"android":"levelo://app?vid=70678c9a-44ed-4571-841d-a85340267238","ios":"levelo://app?vid=70678c9a-44ed-4571-841d-a85340267238"},"vehicle_type_id":"4","last_reported":1744560691,"current_range_meters":11600,"station_id":"ce4bhh12rcd13ifvqfg0","pricing_plan_id":"cebpf4jnsgd1na2vs0mg"},{"bike_id":"1279d8c3-3857-4bc7-b8ec-cdc5588f5e44","system_id":"levelo_inurba_marseille","lat":43.30797,"lon":5.38154,"is_reserved":false,"is_disabled":false,"rental_uris":{"android":"levelo://app?vid=1279d8c3-3857-4bc7-b8ec-cdc5588f5e44","ios":"levelo://app?vid=1279d8c3-3857-4bc7-b8ec-cdc5588f5e44"},"vehicle_type_id":"4","last_reported":1744560691,"current_range_meters":11600,"station_id":"ce4bgt12rcd13ifvqce0","pricing_plan_id":"cebpf4jnsgd1na2vs0mg"},{"bike_id":"4555285b-fc13-4fe0-87f2-6130a0f57807","system_id":"levelo_inurba_marseille","lat":43.24549,"lon":5.39521,"is_reserved":false,"is_disabled":false,"rental_uris":{"android":"levelo://app?vid=4555285b-fc13-4fe0-87f2-6130a0f57807","ios":"levelo://app?vid=4555285b-fc13-4fe0-87f2-6130a0f57807"},"vehicle_type_id":"4","last_reported":1744560691,"current_range_meters":11200,"station_id":"ce4bhlp2rcd13ifvqgjg","pricing_plan_id":"cebpf4jnsgd1na2vs0mg"},{"bike_id":"d49ed5f3-63dd-41d8-a7c3-7b7860b035b1","system_id":"levelo_inurba_marseille","lat":43.248163,"lon":5.374622,"is_reserved":false,"is_disabled":true,"rental_uris":{"android":"levelo://app?vid=d49ed5f3-63dd-41d8-a7c3-7b7860b035b1","ios":"levelo://app?vid=d49ed5f3-63dd-41d8-a7c3-7b7860b035b1"},"vehicle_type_id":"4","last_reported":1744560691,"current_range_meters":11600,"station_id":"ce4bhgh2rcd13ifvqfb0","pricing_plan_id":"cebpf4jnsgd1na2vs0mg"},{"bike_id":"5591936e-ca63-41c7-89f3-9c9493c86f89","system_id":"levelo_inurba_marseille","lat":43.24175,"lon":5.36393,"is_reserved":false,"is_disabled":false,"rental_uris":{"android":"levelo://app?vid=5591936e-ca63-41c7-89f3-9c9493c86f89","ios":"levelo://app?vid=5591936e-ca63-41c7-89f3-9c9493c86f89"},"vehicle_type_id":"4","last_reported":1744560691,"current_range_meters":11600,"station_id":"cpo36qri1sfpv3e86is0","pricing_plan_id":"cebpf4jnsgd1na2vs0mg"},{"bike_id":"578ed75c-ac7c-4cce-a91d-84ec0beb45a3","system_id":"levelo_inurba_marseille","lat":43.32688,"lon":5.41006,"is_reserved":false,"is_disabled":false,"rental_uris":{"android":"levelo://app?vid=578ed75c-ac7c-4cce-a91d-84ec0beb45a3","ios":"levelo://app?vid=578ed75c-ac7c-4cce-a91d-84ec0beb45a3"},"vehicle_type_id":"4","last_reported":1744560691,"current_range_meters":12000,"station_id":"ce4bhpp2rcd13ifvqhgg","pricing_plan_id":"cebpf4jnsgd1na2vs0mg"},{"bike_id":"670350e7-8b16-4095-8222-1a9ab089eb5a","system_id":"levelo_inurba_marseille","lat":43.27946,"lon":5.41051,"is_reserved":false,"is_disabled":false,"rental_uris":{"android":"levelo://app?vid=670350e7-8b16-4095-8222-1a9ab089eb5a","ios":"levelo://app?vid=670350e7-8b16-4095-8222-1a9ab089eb5a"},"vehicle_type_id":"4","last_reported":1744560691,"current_range_meters":12000,"station_id":"ce4bhnp2rcd13ifvqh0g","pricing_plan_id":"cebpf4jnsgd1na2vs0mg"},{"bike_id":"eeecd2fe-6254-4002-abf4-dbb4c5b284dc","system_id":"levelo_inurba_marseille","lat":43.27987,"lon":5.41662,"is_reserved":false,"is_disabled":true,"rental_uris":{"android":"levelo://app?vid=eeecd2fe-6254-4002-abf4-dbb4c5b284dc","ios":"levelo://app?vid=eeecd2fe-6254-4002-abf4-dbb4c5b284dc"},"vehicle_type_id":"4","last_reported":1744560691,"current_range_meters":12000,"station_id":"ce4bho12rcd13ifvqh1g","pricing_plan_id":"cebpf4jnsgd1na2vs0mg"},{"bike_id":"d7a1af26-2e79-4cdc-a443-1ec7881b3017","system_id":"levelo_inurba_marseille","lat":43.29863,"lon":5.36271,"is_reserved":false,"is_disabled":false,"rental_uris":{"android":"levelo://app?vid=d7a1af26-2e79-4cdc-a443-1ec7881b3017","ios":"levelo://app?vid=d7a1af26-2e79-4cdc-a443-1ec7881b3017"},"vehicle_type_id":"4","last_reported":1744560691,"current_range_meters":12000,"station_id":"ce4bgpp2rcd13ifvqc3g","pricing_plan_id":"cebpf4jnsgd1na2vs0mg"},{"bike_id":"5e120263-75d5-4027-bdcc-a11e2bb1686a","system_id":"levelo_inurba_marseille","lat":43.3036,"lon":5.36909,"is_reserved":false,"is_disabled":false,"rental_uris":{"android":"levelo://app?vid=5e120263-75d5-4027-bdcc-a11e2bb1686a","ios":"levelo://app?vid=5e120263-75d5-4027-bdcc-a11e2bb1686a"},"vehicle_type_id":"4","last_reported":1744560691,"current_range_meters":12000,"station_id":"ce4bgqh2rcd13ifvqc5g","pricing_plan_id":"cebpf4jnsgd1na2vs0mg"},{"bike_id":"4d874086-2615-45ee-92bb-518b7ad00a4d","system_id":"levelo_inurba_marseille","lat":43.30973,"lon":5.39035,"is_reserved":false,"is_disabled":true,"rental_uris":{"android":"levelo://app?vid=4d874086-2615-45ee-92bb-518b7ad00a4d","ios":"levelo://app?vid=4d874086-2615-45ee-92bb-518b7ad00a4d"},"vehicle_type_id":"4","last_reported":1744560691,"current_range_meters":12000,"station_id":"ce4bgup2rcd13ifvqco0","pricing_plan_id":"cebpf4jnsgd1na2vs0mg"},{"bike_id":"239b457a-7da8-49b2-9197-3c47133b2b7d","system_id":"levelo_inurba_marseille","lat":43.29042,"lon":5.40002,"is_reserved":false,"is_disabled":true,"rental_uris":{"android":"levelo://app?vid=239b457a-7da8-49b2-9197-3c47133b2b7d","ios":"levelo://app?vid=239b457a-7da8-49b2-9197-3c47133b2b7d"},"vehicle_type_id":"4","last_reported":1744560691,"current_range_meters":12000,"station_id":"ce4bh392rcd13ifvqdm0","pricing_plan_id":"cebpf4jnsgd1na2vs0mg"},{"bike_id":"04f4d47f-bf83-47e9-8153-a4b7a81566b7","system_id":"levelo_inurba_marseille","lat":43.28979,"lon":5.37849,"is_reserved":false,"is_disabled":false,"rental_uris":{"android":"levelo://app?vid=04f4d47f-bf83-47e9-8153-a4b7a81566b7","ios":"levelo://app?vid=04f4d47f-bf83-47e9-8153-a4b7a81566b7"},"vehicle_type_id":"4","last_reported":1744560691,"current_range_meters":12000,"station_id":"ce4bh9p2rcd13ifvqed0","pricing_plan_id":"cebpf4jnsgd1na2vs0mg"},{"bike_id":"dc6aad21-ae61-4621-9ef0-c9bd2b9caa5a","system_id":"levelo_inurba_marseille","lat":43.225031,"lon":5.347893,"is_reserved":false,"is_disabled":false,"rental_uris":{"android":"levelo://app?vid=dc6aad21-ae61-4621-9ef0-c9bd2b9caa5a","ios":"levelo://app?vid=dc6aad21-ae61-4621-9ef0-c9bd2b9caa5a"},"vehicle_type_id":"4","last_reported":1744560691,"current_range_meters":12000,"station_id":"st_cvj5dfep6f1abm77gieg","pricing_plan_id":"cebpf4jnsgd1na2vs0mg"},{"bike_id":"61000a5e-5118-48ac-933c-becdfb65d024","system_id":"levelo_inurba_marseille","lat":43.28344,"lon":5.381,"is_reserved":false,"is_disabled":false,"rental_uris":{"android":"levelo://app?vid=61000a5e-5118-48ac-933c-becdfb65d024","ios":"levelo://app?vid=61000a5e-5118-48ac-933c-becdfb65d024"},"vehicle_type_id":"4","last_reported":1744560691,"current_range_meters":12400,"station_id":"ce4bh412rcd13ifvqdr0","pricing_plan_id":"cebpf4jnsgd1na2vs0mg"},{"bike_id":"c3328bd9-7cf0-4ab6-a57d-53226f36ad27","system_id":"levelo_inurba_marseille","lat":43.31344,"lon":5.36719,"is_reserved":false,"is_disabled":false,"rental_uris":{"android":"levelo://app?vid=c3328bd9-7cf0-4ab6-a57d-53226f36ad27","ios":"levelo://app?vid=c3328bd9-7cf0-4ab6-a57d-53226f36ad27"},"vehicle_type_id":"4","last_reported":1744560691,"current_range_meters":12400,"station_id":"ce4bgr92rcd13ifvqc6g","pricing_plan_id":"cebpf4jnsgd1na2vs0mg"},{"bike_id":"db00d5f3-9e18-4098-b356-218ddca088ca","system_id":"levelo_inurba_marseille","lat":43.29806,"lon":5.38097,"is_reserved":false,"is_disabled":false,"rental_uris":{"android":"levelo://app?vid=db00d5f3-9e18-4098-b356-218ddca088ca","ios":"levelo://app?vid=db00d5f3-9e18-4098-b356-218ddca088ca"},"vehicle_type_id":"4","last_reported":1744560691,"current_range_meters":12400,"station_id":"ce4bgip2rcd13ifvqbb0","pricing_plan_id":"cebpf4jnsgd1na2vs0mg"},{"bike_id":"114e524a-8e04-4f7f-97f3-1b140c248ad3","system_id":"levelo_inurba_marseille","lat":43.28596,"lon":5.37062,"is_reserved":false,"is_disabled":false,"rental_uris":{"android":"levelo://app?vid=114e524a-8e04-4f7f-97f3-1b140c248ad3","ios":"levelo://app?vid=114e524a-8e04-4f7f-97f3-1b140c248ad3"},"vehicle_type_id":"4","last_reported":1744560691,"current_range_meters":12800,"station_id":"ce4bht12rcd13ifvqi60","pricing_plan_id":"cebpf4jnsgd1na2vs0mg"},{"bike_id":"200af73b-2937-4e81-98d0-ccd616c3a62a","system_id":"levelo_inurba_marseille","lat":43.30531,"lon":5.36528,"is_reserved":false,"is_disabled":false,"rental_uris":{"android":"levelo://app?vid=200af73b-2937-4e81-98d0-ccd616c3a62a","ios":"levelo://app?vid=200af73b-2937-4e81-98d0-ccd616c3a62a"},"vehicle_type_id":"4","last_reported":1744560691,"current_range_meters":12800,"station_id":"ce4bgs12rcd13ifvqcag","pricing_plan_id":"cebpf4jnsgd1na2vs0mg"},{"bike_id":"b3a419e8-d91b-48c5-9378-78491c344eb5","system_id":"levelo_inurba_marseille","lat":43.299337,"lon":5.374883,"is_reserved":false,"is_disabled":false,"rental_uris":{"android":"levelo://app?vid=b3a419e8-d91b-48c5-9378-78491c344eb5","ios":"levelo://app?vid=b3a419e8-d91b-48c5-9378-78491c344eb5"},"vehicle_type_id":"4","last_reported":1744560691,"current_range_meters":12400,"station_id":"ce4bhbh2rcd13ifvqeqg","pricing_plan_id":"cebpf4jnsgd1na2vs0mg"},{"bike_id":"6a003e47-a1cc-4c38-b762-6e37af426d05","system_id":"levelo_inurba_marseille","lat":43.32372,"lon":5.36719,"is_reserved":false,"is_disabled":false,"rental_uris":{"android":"levelo://app?vid=6a003e47-a1cc-4c38-b762-6e37af426d05","ios":"levelo://app?vid=6a003e47-a1cc-4c38-b762-6e37af426d05"},"vehicle_type_id":"4","last_reported":1744560691,"current_range_meters":12800,"station_id":"ce4bhsh2rcd13ifvqi2g","pricing_plan_id":"cebpf4jnsgd1na2vs0mg"},{"bike_id":"f0c42fab-e412-4214-817b-6df9af2b69bd","system_id":"levelo_inurba_marseille","lat":43.270629,"lon":5.40265,"is_reserved":false,"is_disabled":false,"rental_uris":{"android":"levelo://app?vid=f0c42fab-e412-4214-817b-6df9af2b69bd","ios":"levelo://app?vid=f0c42fab-e412-4214-817b-6df9af2b69bd"},"vehicle_type_id":"4","last_reported":1744560691,"current_range_meters":12800,"station_id":"ce4bhk92rcd13ifvqgc0","pricing_plan_id":"cebpf4jnsgd1na2vs0mg"},{"bike_id":"6dcf4bb2-c577-4c3d-9ecf-f0cb98f3709a","system_id":"levelo_inurba_marseille","lat":43.27061,"lon":5.40262,"is_reserved":false,"is_disabled":false,"rental_uris":{"android":"levelo://app?vid=6dcf4bb2-c577-4c3d-9ecf-f0cb98f3709a","ios":"levelo://app?vid=6dcf4bb2-c577-4c3d-9ecf-f0cb98f3709a"},"vehicle_type_id":"4","last_reported":1744560691,"current_range_meters":12800,"station_id":"ce4bhk92rcd13ifvqgc0","pricing_plan_id":"cebpf4jnsgd1na2vs0mg"},{"bike_id":"d1168d87-5b6f-4ffc-9ab3-7932b3985ed5","system_id":"levelo_inurba_marseille","lat":43.27371,"lon":5.3626,"is_reserved":false,"is_disabled":false,"rental_uris":{"android":"levelo://app?vid=d1168d87-5b6f-4ffc-9ab3-7932b3985ed5","ios":"levelo://app?vid=d1168d87-5b6f-4ffc-9ab3-7932b3985ed5"},"vehicle_type_id":"4","last_reported":1744560691,"current_range_meters":13600,"station_id":"ce4bhbh2rcd13ifvqeo0","pricing_plan_id":"cebpf4jnsgd1na2vs0mg"},{"bike_id":"0a88015e-3a53-42ef-91a2-acfbe091dc5b","system_id":"levelo_inurba_marseille","lat":43.27567,"lon":5.38419,"is_reserved":false,"is_disabled":false,"rental_uris":{"android":"levelo://app?vid=0a88015e-3a53-42ef-91a2-acfbe091dc5b","ios":"levelo://app?vid=0a88015e-3a53-42ef-91a2-acfbe091dc5b"},"vehicle_type_id":"4","last_reported":1744560691,"current_range_meters":13600,"station_id":"ce4bhh92rcd13ifvqfi0","pricing_plan_id":"cebpf4jnsgd1na2vs0mg"},{"bike_id":"3468da11-b552-430d-b07b-9e8a785eafd9","system_id":"levelo_inurba_marseille","lat":43.29931,"lon":5.36541,"is_reserved":false,"is_disabled":false,"rental_uris":{"android":"levelo://app?vid=3468da11-b552-430d-b07b-9e8a785eafd9","ios":"levelo://app?vid=3468da11-b552-430d-b07b-9e8a785eafd9"},"vehicle_type_id":"4","last_reported":1744560691,"current_range_meters":13600,"station_id":"ce4bgm92rcd13ifvqbr0","pricing_plan_id":"cebpf4jnsgd1na2vs0mg"},{"bike_id":"c5de9f04-a68c-4314-9995-789e3d717983","system_id":"levelo_inurba_marseille","lat":43.24409,"lon":5.37066,"is_reserved":false,"is_disabled":true,"rental_uris":{"android":"levelo://app?vid=c5de9f04-a68c-4314-9995-789e3d717983","ios":"levelo://app?vid=c5de9f04-a68c-4314-9995-789e3d717983"},"vehicle_type_id":"4","last_reported":1744560691,"current_range_meters":14000,"station_id":"ce4bhhh2rcd13ifvqfk0","pricing_plan_id":"cebpf4jnsgd1na2vs0mg"},{"bike_id":"4671866b-1b85-46bf-bb2d-6ddf168622b9","system_id":"levelo_inurba_marseille","lat":43.29535,"lon":5.38537,"is_reserved":false,"is_disabled":false,"rental_uris":{"android":"levelo://app?vid=4671866b-1b85-46bf-bb2d-6ddf168622b9","ios":"levelo://app?vid=4671866b-1b85-46bf-bb2d-6ddf168622b9"},"vehicle_type_id":"4","last_reported":1744560691,"current_range_meters":14000,"station_id":"ce4bgih2rcd13ifvqba0","pricing_plan_id":"cebpf4jnsgd1na2vs0mg"},{"bike_id":"7a74560f-bb9f-45a7-809b-9297d9bf7f11","system_id":"levelo_inurba_marseille","lat":43.26789,"lon":5.39462,"is_reserved":false,"is_disabled":false,"rental_uris":{"android":"levelo://app?vid=7a74560f-bb9f-45a7-809b-9297d9bf7f11","ios":"levelo://app?vid=7a74560f-bb9f-45a7-809b-9297d9bf7f11"},"vehicle_type_id":"4","last_reported":1744560691,"current_range_meters":13600,"station_id":"ce4bhh12rcd13ifvqfg0","pricing_plan_id":"cebpf4jnsgd1na2vs0mg"},{"bike_id":"cb918d5b-8793-4d93-bf83-5042608ad86c","system_id":"levelo_inurba_marseille","lat":43.33224,"lon":5.3955,"is_reserved":false,"is_disabled":false,"rental_uris":{"android":"levelo://app?vid=cb918d5b-8793-4d93-bf83-5042608ad86c","ios":"levelo://app?vid=cb918d5b-8793-4d93-bf83-5042608ad86c"},"vehicle_type_id":"4","last_reported":1744560691,"current_range_meters":14000,"station_id":"","pricing_plan_id":"cebpf4jnsgd1na2vs0mg"},{"bike_id":"fbcffd98-9af3-437e-a238-670cf1dcb555","system_id":"levelo_inurba_marseille","lat":43.289463,"lon":5.366353,"is_reserved":false,"is_disabled":true,"rental_uris":{"android":"levelo://app?vid=fbcffd98-9af3-437e-a238-670cf1dcb555","ios":"levelo://app?vid=fbcffd98-9af3-437e-a238-670cf1dcb555"},"vehicle_type_id":"4","last_reported":1744560691,"current_range_meters":14000,"station_id":"ce4bhap2rcd13ifvqek0","pricing_plan_id":"cebpf4jnsgd1na2vs0mg"},{"bike_id":"21af2984-add3-4798-978d-b24701f00867","system_id":"levelo_inurba_marseille","lat":43.30954,"lon":5.39028,"is_reserved":false,"is_disabled":false,"rental_uris":{"android":"levelo://app?vid=21af2984-add3-4798-978d-b24701f00867","ios":"levelo://app?vid=21af2984-add3-4798-978d-b24701f00867"},"vehicle_type_id":"4","last_reported":1744560691,"current_range_meters":14000,"station_id":"ce4bgup2rcd13ifvqco0","pricing_plan_id":"cebpf4jnsgd1na2vs0mg"},{"bike_id":"c9c9b4c9-49f6-4c94-bc96-0b100ce8a015","system_id":"levelo_inurba_marseille","lat":43.2898,"lon":5.36654,"is_reserved":false,"is_disabled":false,"rental_uris":{"android":"levelo://app?vid=c9c9b4c9-49f6-4c94-bc96-0b100ce8a015","ios":"levelo://app?vid=c9c9b4c9-49f6-4c94-bc96-0b100ce8a015"},"vehicle_type_id":"4","last_reported":1744560691,"current_range_meters":14400,"station_id":"","pricing_plan_id":"cebpf4jnsgd1na2vs0mg"},{"bike_id":"dbeb6c83-a7cb-42f6-bd08-995af05eb715","system_id":"levelo_inurba_marseille","lat":43.29277,"lon":5.38459,"is_reserved":false,"is_disabled":false,"rental_uris":{"android":"levelo://app?vid=dbeb6c83-a7cb-42f6-bd08-995af05eb715","ios":"levelo://app?vid=dbeb6c83-a7cb-42f6-bd08-995af05eb715"},"vehicle_type_id":"4","last_reported":1744560691,"current_range_meters":14400,"station_id":"ce4bh692rcd13ifvqea0","pricing_plan_id":"cebpf4jnsgd1na2vs0mg"},{"bike_id":"c2a31b7c-37b8-460a-a9ba-47af7e49c6b9","system_id":"levelo_inurba_marseille","lat":43.27495,"lon":5.42449,"is_reserved":false,"is_disabled":false,"rental_uris":{"android":"levelo://app?vid=c2a31b7c-37b8-460a-a9ba-47af7e49c6b9","ios":"levelo://app?vid=c2a31b7c-37b8-460a-a9ba-47af7e49c6b9"},"vehicle_type_id":"4","last_reported":1744560691,"current_range_meters":14400,"station_id":"ce4bhn92rcd13ifvqgrg","pricing_plan_id":"cebpf4jnsgd1na2vs0mg"},{"bike_id":"d9214e74-30ad-45b9-bf16-f3f0709b1cbf","system_id":"levelo_inurba_marseille","lat":43.23236,"lon":5.35556,"is_reserved":false,"is_disabled":false,"rental_uris":{"android":"levelo://app?vid=d9214e74-30ad-45b9-bf16-f3f0709b1cbf","ios":"levelo://app?vid=d9214e74-30ad-45b9-bf16-f3f0709b1cbf"},"vehicle_type_id":"4","last_reported":1744560691,"current_range_meters":14800,"station_id":"ce4bhu92rcd13ifvqi70","pricing_plan_id":"cebpf4jnsgd1na2vs0mg"},{"bike_id":"751c8486-e822-493a-9d72-2dea04055e9d","system_id":"levelo_inurba_marseille","lat":43.28408,"lon":5.3498,"is_reserved":false,"is_disabled":false,"rental_uris":{"android":"levelo://app?vid=751c8486-e822-493a-9d72-2dea04055e9d","ios":"levelo://app?vid=751c8486-e822-493a-9d72-2dea04055e9d"},"vehicle_type_id":"4","last_reported":1744560691,"current_range_meters":14800,"station_id":"ce4bhbh2rcd13ifvqepg","pricing_plan_id":"cebpf4jnsgd1na2vs0mg"},{"bike_id":"ba0617bc-a737-4e7c-be8e-b25cef28a43b","system_id":"levelo_inurba_marseille","lat":43.30329,"lon":5.40436,"is_reserved":false,"is_disabled":false,"rental_uris":{"android":"levelo://app?vid=ba0617bc-a737-4e7c-be8e-b25cef28a43b","ios":"levelo://app?vid=ba0617bc-a737-4e7c-be8e-b25cef28a43b"},"vehicle_type_id":"4","last_reported":1744560691,"current_range_meters":14800,"station_id":"ce4bh012rcd13ifvqd10","pricing_plan_id":"cebpf4jnsgd1na2vs0mg"},{"bike_id":"628f017f-8760-4ae6-b9e3-b932a2e0539a","system_id":"levelo_inurba_marseille","lat":43.254653,"lon":5.37662,"is_reserved":false,"is_disabled":false,"rental_uris":{"android":"levelo://app?vid=628f017f-8760-4ae6-b9e3-b932a2e0539a","ios":"levelo://app?vid=628f017f-8760-4ae6-b9e3-b932a2e0539a"},"vehicle_type_id":"4","last_reported":1744560691,"current_range_meters":14800,"station_id":"ce4bhh12rcd13ifvqff0","pricing_plan_id":"cebpf4jnsgd1na2vs0mg"},{"bike_id":"e617923d-5e38-4ab5-9f0a-d006b9dcc88d","system_id":"levelo_inurba_marseille","lat":43.29546,"lon":5.38557,"is_reserved":false,"is_disabled":true,"rental_uris":{"android":"levelo://app?vid=e617923d-5e38-4ab5-9f0a-d006b9dcc88d","ios":"levelo://app?vid=e617923d-5e38-4ab5-9f0a-d006b9dcc88d"},"vehicle_type_id":"4","last_reported":1744560691,"current_range_meters":15200,"station_id":"ce4bgih2rcd13ifvqba0","pricing_plan_id":"cebpf4jnsgd1na2vs0mg"},{"bike_id":"72795014-e60d-4831-88a1-e24f7bb1743d","system_id":"levelo_inurba_marseille","lat":43.32374,"lon":5.38904,"is_reserved":false,"is_disabled":false,"rental_uris":{"android":"levelo://app?vid=72795014-e60d-4831-88a1-e24f7bb1743d","ios":"levelo://app?vid=72795014-e60d-4831-88a1-e24f7bb1743d"},"vehicle_type_id":"4","last_reported":1744560691,"current_range_meters":15200,"station_id":"ce4bhqp2rcd13ifvqhog","pricing_plan_id":"cebpf4jnsgd1na2vs0mg"},{"bike_id":"1f28247e-c8d7-4b05-b546-539104a82bb4","system_id":"levelo_inurba_marseille","lat":43.23159,"lon":5.43715,"is_reserved":false,"is_disabled":false,"rental_uris":{"android":"levelo://app?vid=1f28247e-c8d7-4b05-b546-539104a82bb4","ios":"levelo://app?vid=1f28247e-c8d7-4b05-b546-539104a82bb4"},"vehicle_type_id":"4","last_reported":1744560691,"current_range_meters":15200,"station_id":"ce4bhmp2rcd13ifvqgog","pricing_plan_id":"cebpf4jnsgd1na2vs0mg"},{"bike_id":"d9a6efe7-3849-4777-8867-3e33a6079bec","system_id":"levelo_inurba_marseille","lat":43.25497,"lon":5.37657,"is_reserved":false,"is_disabled":false,"rental_uris":{"android":"levelo://app?vid=d9a6efe7-3849-4777-8867-3e33a6079bec","ios":"levelo://app?vid=d9a6efe7-3849-4777-8867-3e33a6079bec"},"vehicle_type_id":"4","last_reported":1744560691,"current_range_meters":16000,"station_id":"ce4bhh12rcd13ifvqff0","pricing_plan_id":"cebpf4jnsgd1na2vs0mg"},{"bike_id":"67868cb0-fe57-4755-a0f4-83fc5971e42b","system_id":"levelo_inurba_marseille","lat":43.26813,"lon":5.40241,"is_reserved":false,"is_disabled":false,"rental_uris":{"android":"levelo://app?vid=67868cb0-fe57-4755-a0f4-83fc5971e42b","ios":"levelo://app?vid=67868cb0-fe57-4755-a0f4-83fc5971e42b"},"vehicle_type_id":"4","last_reported":1744560691,"current_range_meters":16000,"station_id":"ce501612rcd8frsf0b60","pricing_plan_id":"cebpf4jnsgd1na2vs0mg"},{"bike_id":"cd7e575c-8579-4b56-b89c-2292c2c7de43","system_id":"levelo_inurba_marseille","lat":43.29718,"lon":5.3769,"is_reserved":false,"is_disabled":false,"rental_uris":{"android":"levelo://app?vid=cd7e575c-8579-4b56-b89c-2292c2c7de43","ios":"levelo://app?vid=cd7e575c-8579-4b56-b89c-2292c2c7de43"},"vehicle_type_id":"4","last_reported":1744560691,"current_range_meters":16000,"station_id":"ce4bgkh2rcd13ifvqbl0","pricing_plan_id":"cebpf4jnsgd1na2vs0mg"},{"bike_id":"a7a066dd-0e3d-4752-b55d-0248ea942ca0","system_id":"levelo_inurba_marseille","lat":43.283531,"lon":5.381087,"is_reserved":false,"is_disabled":false,"rental_uris":{"android":"levelo://app?vid=a7a066dd-0e3d-4752-b55d-0248ea942ca0","ios":"levelo://app?vid=a7a066dd-0e3d-4752-b55d-0248ea942ca0"},"vehicle_type_id":"4","last_reported":1744560691,"current_range_meters":16000,"station_id":"","pricing_plan_id":"cebpf4jnsgd1na2vs0mg"},{"bike_id":"4e8024e4-c295-4704-8292-da493048c985","system_id":"levelo_inurba_marseille","lat":43.29937,"lon":5.36544,"is_reserved":false,"is_disabled":false,"rental_uris":{"android":"levelo://app?vid=4e8024e4-c295-4704-8292-da493048c985","ios":"levelo://app?vid=4e8024e4-c295-4704-8292-da493048c985"},"vehicle_type_id":"4","last_reported":1744560691,"current_range_meters":16400,"station_id":"ce4bgm92rcd13ifvqbr0","pricing_plan_id":"cebpf4jnsgd1na2vs0mg"},{"bike_id":"1cc8a542-3093-4922-ba3c-e7db5a395e3e","system_id":"levelo_inurba_marseille","lat":43.296111,"lon":5.371574,"is_reserved":false,"is_disabled":false,"rental_uris":{"android":"levelo://app?vid=1cc8a542-3093-4922-ba3c-e7db5a395e3e","ios":"levelo://app?vid=1cc8a542-3093-4922-ba3c-e7db5a395e3e"},"vehicle_type_id":"4","last_reported":1744560691,"current_range_meters":16400,"station_id":"ce4bgnh2rcd13ifvqc0g","pricing_plan_id":"cebpf4jnsgd1na2vs0mg"},{"bike_id":"84cc931f-53d5-479e-b0d8-aab96bd52b38","system_id":"levelo_inurba_marseille","lat":43.29993,"lon":5.37225,"is_reserved":false,"is_disabled":false,"rental_uris":{"android":"levelo://app?vid=84cc931f-53d5-479e-b0d8-aab96bd52b38","ios":"levelo://app?vid=84cc931f-53d5-479e-b0d8-aab96bd52b38"},"vehicle_type_id":"4","last_reported":1744560691,"current_range_meters":16400,"station_id":"ce4bgr92rcd13ifvqc7g","pricing_plan_id":"cebpf4jnsgd1na2vs0mg"},{"bike_id":"4913984b-9d54-4e9b-afde-a8bfa1e5926e","system_id":"levelo_inurba_marseille","lat":43.287,"lon":5.37383,"is_reserved":false,"is_disabled":false,"rental_uris":{"android":"levelo://app?vid=4913984b-9d54-4e9b-afde-a8bfa1e5926e","ios":"levelo://app?vid=4913984b-9d54-4e9b-afde-a8bfa1e5926e"},"vehicle_type_id":"4","last_reported":1744560691,"current_range_meters":16000,"station_id":"ce4bh3p2rcd13ifvqdq0","pricing_plan_id":"cebpf4jnsgd1na2vs0mg"},{"bike_id":"fba700d3-5c16-415f-9e80-2d0f9aa491d2","system_id":"levelo_inurba_marseille","lat":43.30377,"lon":5.42481,"is_reserved":false,"is_disabled":false,"rental_uris":{"android":"levelo://app?vid=fba700d3-5c16-415f-9e80-2d0f9aa491d2","ios":"levelo://app?vid=fba700d3-5c16-415f-9e80-2d0f9aa491d2"},"vehicle_type_id":"4","last_reported":1744560691,"current_range_meters":16400,"station_id":"ce4bhoh2rcd13ifvqh6g","pricing_plan_id":"cebpf4jnsgd1na2vs0mg"},{"bike_id":"2551df23-46eb-4dc9-b328-33c9a95ff7ca","system_id":"levelo_inurba_marseille","lat":43.29227,"lon":5.36132,"is_reserved":false,"is_disabled":true,"rental_uris":{"android":"levelo://app?vid=2551df23-46eb-4dc9-b328-33c9a95ff7ca","ios":"levelo://app?vid=2551df23-46eb-4dc9-b328-33c9a95ff7ca"},"vehicle_type_id":"4","last_reported":1744560691,"current_range_meters":16400,"station_id":"ce4bhbh2rcd13ifvqeqg","pricing_plan_id":"cebpf4jnsgd1na2vs0mg"},{"bike_id":"ca64aa6c-3b2c-4db7-a891-fd4c0149a934","system_id":"levelo_inurba_marseille","lat":43.3173,"lon":5.42411,"is_reserved":false,"is_disabled":false,"rental_uris":{"android":"levelo://app?vid=ca64aa6c-3b2c-4db7-a891-fd4c0149a934","ios":"levelo://app?vid=ca64aa6c-3b2c-4db7-a891-fd4c0149a934"},"vehicle_type_id":"4","last_reported":1744560691,"current_range_meters":16800,"station_id":"ce4bhp92rcd13ifvqhbg","pricing_plan_id":"cebpf4jnsgd1na2vs0mg"},{"bike_id":"8787fed7-ad28-4c7d-8179-653a7722aec8","system_id":"levelo_inurba_marseille","lat":43.30953,"lon":5.39042,"is_reserved":false,"is_disabled":false,"rental_uris":{"android":"levelo://app?vid=8787fed7-ad28-4c7d-8179-653a7722aec8","ios":"levelo://app?vid=8787fed7-ad28-4c7d-8179-653a7722aec8"},"vehicle_type_id":"4","last_reported":1744560691,"current_range_meters":16800,"station_id":"ce4bgup2rcd13ifvqco0","pricing_plan_id":"cebpf4jnsgd1na2vs0mg"},{"bike_id":"e23a2fbf-390c-4634-8902-fbe9c490d2fe","system_id":"levelo_inurba_marseille","lat":43.25919,"lon":5.40898,"is_reserved":false,"is_disabled":false,"rental_uris":{"android":"levelo://app?vid=e23a2fbf-390c-4634-8902-fbe9c490d2fe","ios":"levelo://app?vid=e23a2fbf-390c-4634-8902-fbe9c490d2fe"},"vehicle_type_id":"4","last_reported":1744560691,"current_range_meters":16800,"station_id":"ce4bhm92rcd13ifvqglg","pricing_plan_id":"cebpf4jnsgd1na2vs0mg"},{"bike_id":"f2318ad7-66c0-475b-9243-d611799ea2b7","system_id":"levelo_inurba_marseille","lat":43.29913,"lon":5.36519,"is_reserved":false,"is_disabled":false,"rental_uris":{"android":"levelo://app?vid=f2318ad7-66c0-475b-9243-d611799ea2b7","ios":"levelo://app?vid=f2318ad7-66c0-475b-9243-d611799ea2b7"},"vehicle_type_id":"4","last_reported":1744560691,"current_range_meters":16800,"station_id":"ce4bgm92rcd13ifvqbr0","pricing_plan_id":"cebpf4jnsgd1na2vs0mg"},{"bike_id":"574f60f4-fada-4359-b68c-e96a1dcf5995","system_id":"levelo_inurba_marseille","lat":43.30307,"lon":5.36896,"is_reserved":false,"is_disabled":false,"rental_uris":{"android":"levelo://app?vid=574f60f4-fada-4359-b68c-e96a1dcf5995","ios":"levelo://app?vid=574f60f4-fada-4359-b68c-e96a1dcf5995"},"vehicle_type_id":"4","last_reported":1744560691,"current_range_meters":16800,"station_id":"ce4bgqh2rcd13ifvqc5g","pricing_plan_id":"cebpf4jnsgd1na2vs0mg"},{"bike_id":"50f3a6ca-1b32-4e17-a21b-a50e16960e96","system_id":"levelo_inurba_marseille","lat":43.337766,"lon":5.374441,"is_reserved":false,"is_disabled":false,"rental_uris":{"android":"levelo://app?vid=50f3a6ca-1b32-4e17-a21b-a50e16960e96","ios":"levelo://app?vid=50f3a6ca-1b32-4e17-a21b-a50e16960e96"},"vehicle_type_id":"4","last_reported":1744560691,"current_range_meters":16800,"station_id":"","pricing_plan_id":"cebpf4jnsgd1na2vs0mg"},{"bike_id":"6f9cf811-1927-4a51-a336-b458bdfafc6f","system_id":"levelo_inurba_marseille","lat":43.30005,"lon":5.38541,"is_reserved":false,"is_disabled":false,"rental_uris":{"android":"levelo://app?vid=6f9cf811-1927-4a51-a336-b458bdfafc6f","ios":"levelo://app?vid=6f9cf811-1927-4a51-a336-b458bdfafc6f"},"vehicle_type_id":"4","last_reported":1744560691,"current_range_meters":16800,"station_id":"","pricing_plan_id":"cebpf4jnsgd1na2vs0mg"},{"bike_id":"b685ddfd-dae1-4f83-8180-4c8c75cc6933","system_id":"levelo_inurba_marseille","lat":43.27979,"lon":5.40044,"is_reserved":false,"is_disabled":true,"rental_uris":{"android":"levelo://app?vid=b685ddfd-dae1-4f83-8180-4c8c75cc6933","ios":"levelo://app?vid=b685ddfd-dae1-4f83-8180-4c8c75cc6933"},"vehicle_type_id":"4","last_reported":1744560691,"current_range_meters":16800,"station_id":"ce4bho92rcd13ifvqh4g","pricing_plan_id":"cebpf4jnsgd1na2vs0mg"},{"bike_id":"935a7e55-4cea-4394-8ed2-15f7e1ee706c","system_id":"levelo_inurba_marseille","lat":43.2727,"lon":5.43176,"is_reserved":false,"is_disabled":false,"rental_uris":{"android":"levelo://app?vid=935a7e55-4cea-4394-8ed2-15f7e1ee706c","ios":"levelo://app?vid=935a7e55-4cea-4394-8ed2-15f7e1ee706c"},"vehicle_type_id":"4","last_reported":1744560691,"current_range_meters":17200,"station_id":"","pricing_plan_id":"cebpf4jnsgd1na2vs0mg"},{"bike_id":"f31e628a-163e-43f4-9860-948d1fff3e67","system_id":"levelo_inurba_marseille","lat":43.26088,"lon":5.39406,"is_reserved":false,"is_disabled":false,"rental_uris":{"android":"levelo://app?vid=f31e628a-163e-43f4-9860-948d1fff3e67","ios":"levelo://app?vid=f31e628a-163e-43f4-9860-948d1fff3e67"},"vehicle_type_id":"4","last_reported":1744560691,"current_range_meters":16800,"station_id":"ce4bhh92rcd13ifvqfj0","pricing_plan_id":"cebpf4jnsgd1na2vs0mg"},{"bike_id":"ecc5dcdb-7a89-44c4-bcad-5a97b1b511b8","system_id":"levelo_inurba_marseille","lat":43.284138,"lon":5.375078,"is_reserved":false,"is_disabled":false,"rental_uris":{"android":"levelo://app?vid=ecc5dcdb-7a89-44c4-bcad-5a97b1b511b8","ios":"levelo://app?vid=ecc5dcdb-7a89-44c4-bcad-5a97b1b511b8"},"vehicle_type_id":"4","last_reported":1744560691,"current_range_meters":17200,"station_id":"ce4bh412rcd13ifvqds0","pricing_plan_id":"cebpf4jnsgd1na2vs0mg"},{"bike_id":"da48e56b-5b98-4592-a2ea-cf5907cac18b","system_id":"levelo_inurba_marseille","lat":43.337652,"lon":5.374374,"is_reserved":false,"is_disabled":false,"rental_uris":{"android":"levelo://app?vid=da48e56b-5b98-4592-a2ea-cf5907cac18b","ios":"levelo://app?vid=da48e56b-5b98-4592-a2ea-cf5907cac18b"},"vehicle_type_id":"4","last_reported":1744560691,"current_range_meters":17200,"station_id":"","pricing_plan_id":"cebpf4jnsgd1na2vs0mg"},{"bike_id":"08ba417f-e522-4fd1-b239-400e6e0a0166","system_id":"levelo_inurba_marseille","lat":43.29263,"lon":5.40911,"is_reserved":false,"is_disabled":false,"rental_uris":{"android":"levelo://app?vid=08ba417f-e522-4fd1-b239-400e6e0a0166","ios":"levelo://app?vid=08ba417f-e522-4fd1-b239-400e6e0a0166"},"vehicle_type_id":"4","last_reported":1744560691,"current_range_meters":17200,"station_id":"ce4bh192rcd13ifvqdc0","pricing_plan_id":"cebpf4jnsgd1na2vs0mg"},{"bike_id":"9f60099a-38b5-4a81-b3d8-cbf1ef28b824","system_id":"levelo_inurba_marseille","lat":43.3169,"lon":5.40476,"is_reserved":false,"is_disabled":false,"rental_uris":{"android":"levelo://app?vid=9f60099a-38b5-4a81-b3d8-cbf1ef28b824","ios":"levelo://app?vid=9f60099a-38b5-4a81-b3d8-cbf1ef28b824"},"vehicle_type_id":"4","last_reported":1744560691,"current_range_meters":17200,"station_id":"ce4bh012rcd13ifvqd00","pricing_plan_id":"cebpf4jnsgd1na2vs0mg"},{"bike_id":"1e8793d2-3137-42de-bfe1-c4e865cd7b7b","system_id":"levelo_inurba_marseille","lat":43.30464,"lon":5.37903,"is_reserved":false,"is_disabled":false,"rental_uris":{"android":"levelo://app?vid=1e8793d2-3137-42de-bfe1-c4e865cd7b7b","ios":"levelo://app?vid=1e8793d2-3137-42de-bfe1-c4e865cd7b7b"},"vehicle_type_id":"4","last_reported":1744560691,"current_range_meters":17600,"station_id":"ce4bgup2rcd13ifvqcn0","pricing_plan_id":"cebpf4jnsgd1na2vs0mg"},{"bike_id":"86ac3ad7-4349-4b45-82d1-b61ad882a2f6","system_id":"levelo_inurba_marseille","lat":43.21747,"lon":5.34624,"is_reserved":false,"is_disabled":true,"rental_uris":{"android":"levelo://app?vid=86ac3ad7-4349-4b45-82d1-b61ad882a2f6","ios":"levelo://app?vid=86ac3ad7-4349-4b45-82d1-b61ad882a2f6"},"vehicle_type_id":"4","last_reported":1744560691,"current_range_meters":17600,"station_id":"st_cvj6r9ubvosntc0bgbag","pricing_plan_id":"cebpf4jnsgd1na2vs0mg"},{"bike_id":"518e8220-89de-4d51-804e-5c8337c2e983","system_id":"levelo_inurba_marseille","lat":43.25584,"lon":5.38242,"is_reserved":false,"is_disabled":false,"rental_uris":{"android":"levelo://app?vid=518e8220-89de-4d51-804e-5c8337c2e983","ios":"levelo://app?vid=518e8220-89de-4d51-804e-5c8337c2e983"},"vehicle_type_id":"4","last_reported":1744560691,"current_range_meters":18000,"station_id":"ce4bhih2rcd13ifvqfs0","pricing_plan_id":"cebpf4jnsgd1na2vs0mg"},{"bike_id":"6073cd38-ae91-4380-bd76-fa8c01ff31b2","system_id":"levelo_inurba_marseille","lat":43.29421,"lon":5.38629,"is_reserved":false,"is_disabled":false,"rental_uris":{"android":"levelo://app?vid=6073cd38-ae91-4380-bd76-fa8c01ff31b2","ios":"levelo://app?vid=6073cd38-ae91-4380-bd76-fa8c01ff31b2"},"vehicle_type_id":"4","last_reported":1744560691,"current_range_meters":18000,"station_id":"ce4bh2h2rcd13ifvqdh0","pricing_plan_id":"cebpf4jnsgd1na2vs0mg"},{"bike_id":"da27b599-cdb3-4198-b616-72f0b42a3ad1","system_id":"levelo_inurba_marseille","lat":43.27819,"lon":5.40747,"is_reserved":false,"is_disabled":false,"rental_uris":{"android":"levelo://app?vid=da27b599-cdb3-4198-b616-72f0b42a3ad1","ios":"levelo://app?vid=da27b599-cdb3-4198-b616-72f0b42a3ad1"},"vehicle_type_id":"4","last_reported":1744560691,"current_range_meters":18000,"station_id":"ce4bhnh2rcd13ifvqgtg","pricing_plan_id":"cebpf4jnsgd1na2vs0mg"},{"bike_id":"df49f249-4aa5-4aa6-9193-27ea889ed0d0","system_id":"levelo_inurba_marseille","lat":43.3044,"lon":5.38923,"is_reserved":false,"is_disabled":true,"rental_uris":{"android":"levelo://app?vid=df49f249-4aa5-4aa6-9193-27ea889ed0d0","ios":"levelo://app?vid=df49f249-4aa5-4aa6-9193-27ea889ed0d0"},"vehicle_type_id":"4","last_reported":1744560691,"current_range_meters":18000,"station_id":"ce4bgk12rcd13ifvqbi0","pricing_plan_id":"cebpf4jnsgd1na2vs0mg"},{"bike_id":"05644ffc-3cb1-4584-80c4-844d8698ab10","system_id":"levelo_inurba_marseille","lat":43.33615,"lon":5.41035,"is_reserved":false,"is_disabled":false,"rental_uris":{"android":"levelo://app?vid=05644ffc-3cb1-4584-80c4-844d8698ab10","ios":"levelo://app?vid=05644ffc-3cb1-4584-80c4-844d8698ab10"},"vehicle_type_id":"4","last_reported":1744560691,"current_range_meters":18000,"station_id":"ce4bhqh2rcd13ifvqhmg","pricing_plan_id":"cebpf4jnsgd1na2vs0mg"},{"bike_id":"05887754-c1b2-491d-9955-62996aab69ac","system_id":"levelo_inurba_marseille","lat":43.28103,"lon":5.3783,"is_reserved":false,"is_disabled":false,"rental_uris":{"android":"levelo://app?vid=05887754-c1b2-491d-9955-62996aab69ac","ios":"levelo://app?vid=05887754-c1b2-491d-9955-62996aab69ac"},"vehicle_type_id":"4","last_reported":1744560691,"current_range_meters":18000,"station_id":"ce4bha12rcd13ifvqee0","pricing_plan_id":"cebpf4jnsgd1na2vs0mg"},{"bike_id":"5ee91984-cdf8-42a1-a24e-9936e43e696d","system_id":"levelo_inurba_marseille","lat":43.295189,"lon":5.390431,"is_reserved":false,"is_disabled":false,"rental_uris":{"android":"levelo://app?vid=5ee91984-cdf8-42a1-a24e-9936e43e696d","ios":"levelo://app?vid=5ee91984-cdf8-42a1-a24e-9936e43e696d"},"vehicle_type_id":"4","last_reported":1744560691,"current_range_meters":18000,"station_id":"ce4bhh12rcd13ifvqfg0","pricing_plan_id":"cebpf4jnsgd1na2vs0mg"},{"bike_id":"59c7d7f9-492d-4240-b3d4-e8d1015f1ebd","system_id":"levelo_inurba_marseille","lat":43.21751,"lon":5.34593,"is_reserved":false,"is_disabled":true,"rental_uris":{"android":"levelo://app?vid=59c7d7f9-492d-4240-b3d4-e8d1015f1ebd","ios":"levelo://app?vid=59c7d7f9-492d-4240-b3d4-e8d1015f1ebd"},"vehicle_type_id":"4","last_reported":1744560691,"current_range_meters":18800,"station_id":"st_cvj6r9ubvosntc0bgbag","pricing_plan_id":"cebpf4jnsgd1na2vs0mg"},{"bike_id":"3d7029d3-0142-4af8-807c-cc73d6da8ab1","system_id":"levelo_inurba_marseille","lat":43.26565,"lon":5.39058,"is_reserved":false,"is_disabled":false,"rental_uris":{"android":"levelo://app?vid=3d7029d3-0142-4af8-807c-cc73d6da8ab1","ios":"levelo://app?vid=3d7029d3-0142-4af8-807c-cc73d6da8ab1"},"vehicle_type_id":"4","last_reported":1744560691,"current_range_meters":18800,"station_id":"ce4bhe12rcd13ifvqf30","pricing_plan_id":"cebpf4jnsgd1na2vs0mg"},{"bike_id":"34793003-42dc-495f-a702-74fe13995c34","system_id":"levelo_inurba_marseille","lat":43.28489,"lon":5.38566,"is_reserved":false,"is_disabled":false,"rental_uris":{"android":"levelo://app?vid=34793003-42dc-495f-a702-74fe13995c34","ios":"levelo://app?vid=34793003-42dc-495f-a702-74fe13995c34"},"vehicle_type_id":"4","last_reported":1744560691,"current_range_meters":18800,"station_id":"ce4bh8p2rcd13ifvqeb0","pricing_plan_id":"cebpf4jnsgd1na2vs0mg"},{"bike_id":"cb4c54e5-ac0e-4865-8803-60f9deca8732","system_id":"levelo_inurba_marseille","lat":43.28932,"lon":5.36617,"is_reserved":false,"is_disabled":false,"rental_uris":{"android":"levelo://app?vid=cb4c54e5-ac0e-4865-8803-60f9deca8732","ios":"levelo://app?vid=cb4c54e5-ac0e-4865-8803-60f9deca8732"},"vehicle_type_id":"4","last_reported":1744560691,"current_range_meters":19200,"station_id":"ce4bhap2rcd13ifvqek0","pricing_plan_id":"cebpf4jnsgd1na2vs0mg"},{"bike_id":"23ae4ea4-1903-4fb6-bc61-fcb98de9eb31","system_id":"levelo_inurba_marseille","lat":43.28369,"lon":5.38638,"is_reserved":false,"is_disabled":false,"rental_uris":{"android":"levelo://app?vid=23ae4ea4-1903-4fb6-bc61-fcb98de9eb31","ios":"levelo://app?vid=23ae4ea4-1903-4fb6-bc61-fcb98de9eb31"},"vehicle_type_id":"4","last_reported":1744560691,"current_range_meters":18800,"station_id":"ce4bh492rcd13ifvqdvg","pricing_plan_id":"cebpf4jnsgd1na2vs0mg"},{"bike_id":"b24d10ac-ab8f-46cb-8ba7-788a53a5dcca","system_id":"levelo_inurba_marseille","lat":43.25496,"lon":5.37653,"is_reserved":false,"is_disabled":false,"rental_uris":{"android":"levelo://app?vid=b24d10ac-ab8f-46cb-8ba7-788a53a5dcca","ios":"levelo://app?vid=b24d10ac-ab8f-46cb-8ba7-788a53a5dcca"},"vehicle_type_id":"4","last_reported":1744560691,"current_range_meters":18800,"station_id":"ce4bhh12rcd13ifvqff0","pricing_plan_id":"cebpf4jnsgd1na2vs0mg"},{"bike_id":"27a55245-8dd2-4f1a-af63-95a9d7b71690","system_id":"levelo_inurba_marseille","lat":43.31083,"lon":5.37851,"is_reserved":false,"is_disabled":true,"rental_uris":{"android":"levelo://app?vid=27a55245-8dd2-4f1a-af63-95a9d7b71690","ios":"levelo://app?vid=27a55245-8dd2-4f1a-af63-95a9d7b71690"},"vehicle_type_id":"4","last_reported":1744560691,"current_range_meters":18800,"station_id":"","pricing_plan_id":"cebpf4jnsgd1na2vs0mg"},{"bike_id":"a6535ba8-9ced-4cad-b71b-a79f16af244f","system_id":"levelo_inurba_marseille","lat":43.24672,"lon":5.38153,"is_reserved":false,"is_disabled":false,"rental_uris":{"android":"levelo://app?vid=a6535ba8-9ced-4cad-b71b-a79f16af244f","ios":"levelo://app?vid=a6535ba8-9ced-4cad-b71b-a79f16af244f"},"vehicle_type_id":"4","last_reported":1744560691,"current_range_meters":19200,"station_id":"ce4bhih2rcd13ifvqfr0","pricing_plan_id":"cebpf4jnsgd1na2vs0mg"},{"bike_id":"8e84781a-82c3-4b14-a541-78f95f1999c0","system_id":"levelo_inurba_marseille","lat":43.27413,"lon":5.39463,"is_reserved":false,"is_disabled":true,"rental_uris":{"android":"levelo://app?vid=8e84781a-82c3-4b14-a541-78f95f1999c0","ios":"levelo://app?vid=8e84781a-82c3-4b14-a541-78f95f1999c0"},"vehicle_type_id":"4","last_reported":1744560691,"current_range_meters":19200,"station_id":"ce4bhdp2rcd13ifvqf20","pricing_plan_id":"cebpf4jnsgd1na2vs0mg"},{"bike_id":"5168aa94-848e-49f7-91fe-016757b2049e","system_id":"levelo_inurba_marseille","lat":43.23221,"lon":5.3555,"is_reserved":false,"is_disabled":false,"rental_uris":{"android":"levelo://app?vid=5168aa94-848e-49f7-91fe-016757b2049e","ios":"levelo://app?vid=5168aa94-848e-49f7-91fe-016757b2049e"},"vehicle_type_id":"4","last_reported":1744560691,"current_range_meters":19200,"station_id":"ce4bhu92rcd13ifvqi70","pricing_plan_id":"cebpf4jnsgd1na2vs0mg"},{"bike_id":"51bd1dc5-1425-4826-b354-eb5531a3ee3b","system_id":"levelo_inurba_marseille","lat":43.28664,"lon":5.38661,"is_reserved":false,"is_disabled":false,"rental_uris":{"android":"levelo://app?vid=51bd1dc5-1425-4826-b354-eb5531a3ee3b","ios":"levelo://app?vid=51bd1dc5-1425-4826-b354-eb5531a3ee3b"},"vehicle_type_id":"4","last_reported":1744560691,"current_range_meters":19200,"station_id":"ce4bh492rcd13ifvqdug","pricing_plan_id":"cebpf4jnsgd1na2vs0mg"},{"bike_id":"fb13c941-1858-46a4-86ad-2a5e302996c3","system_id":"levelo_inurba_marseille","lat":43.25854,"lon":5.39908,"is_reserved":false,"is_disabled":true,"rental_uris":{"android":"levelo://app?vid=fb13c941-1858-46a4-86ad-2a5e302996c3","ios":"levelo://app?vid=fb13c941-1858-46a4-86ad-2a5e302996c3"},"vehicle_type_id":"4","last_reported":1744560691,"current_range_meters":19200,"station_id":"ce4bhl92rcd13ifvqghg","pricing_plan_id":"cebpf4jnsgd1na2vs0mg"},{"bike_id":"607b9ab3-cb8b-4340-a8ef-422c4dc752bc","system_id":"levelo_inurba_marseille","lat":43.27993,"lon":5.40037,"is_reserved":false,"is_disabled":false,"rental_uris":{"android":"levelo://app?vid=607b9ab3-cb8b-4340-a8ef-422c4dc752bc","ios":"levelo://app?vid=607b9ab3-cb8b-4340-a8ef-422c4dc752bc"},"vehicle_type_id":"4","last_reported":1744560691,"current_range_meters":19200,"station_id":"ce4bho92rcd13ifvqh4g","pricing_plan_id":"cebpf4jnsgd1na2vs0mg"},{"bike_id":"b01cfc93-b544-4ec8-94c2-4dc0f4a8e379","system_id":"levelo_inurba_marseille","lat":43.30386,"lon":5.42487,"is_reserved":false,"is_disabled":false,"rental_uris":{"android":"levelo://app?vid=b01cfc93-b544-4ec8-94c2-4dc0f4a8e379","ios":"levelo://app?vid=b01cfc93-b544-4ec8-94c2-4dc0f4a8e379"},"vehicle_type_id":"4","last_reported":1744560691,"current_range_meters":19200,"station_id":"ce4bhoh2rcd13ifvqh6g","pricing_plan_id":"cebpf4jnsgd1na2vs0mg"},{"bike_id":"2a8d556e-6eb0-4a94-9523-009ab65d9e3a","system_id":"levelo_inurba_marseille","lat":43.28422,"lon":5.37527,"is_reserved":false,"is_disabled":false,"rental_uris":{"android":"levelo://app?vid=2a8d556e-6eb0-4a94-9523-009ab65d9e3a","ios":"levelo://app?vid=2a8d556e-6eb0-4a94-9523-009ab65d9e3a"},"vehicle_type_id":"4","last_reported":1744560691,"current_range_meters":19200,"station_id":"ce4bh412rcd13ifvqds0","pricing_plan_id":"cebpf4jnsgd1na2vs0mg"},{"bike_id":"b456b85c-8928-4a5a-9171-1132c2572ebe","system_id":"levelo_inurba_marseille","lat":43.26796,"lon":5.40243,"is_reserved":false,"is_disabled":false,"rental_uris":{"android":"levelo://app?vid=b456b85c-8928-4a5a-9171-1132c2572ebe","ios":"levelo://app?vid=b456b85c-8928-4a5a-9171-1132c2572ebe"},"vehicle_type_id":"4","last_reported":1744560691,"current_range_meters":19600,"station_id":"ce501612rcd8frsf0b60","pricing_plan_id":"cebpf4jnsgd1na2vs0mg"},{"bike_id":"29d9d32a-6327-4828-9f45-1e34813d9634","system_id":"levelo_inurba_marseille","lat":43.2439,"lon":5.37059,"is_reserved":false,"is_disabled":false,"rental_uris":{"android":"levelo://app?vid=29d9d32a-6327-4828-9f45-1e34813d9634","ios":"levelo://app?vid=29d9d32a-6327-4828-9f45-1e34813d9634"},"vehicle_type_id":"4","last_reported":1744560691,"current_range_meters":19600,"station_id":"ce4bhhh2rcd13ifvqfk0","pricing_plan_id":"cebpf4jnsgd1na2vs0mg"},{"bike_id":"15f5f50b-522c-4b80-ab8d-16051e85ad64","system_id":"levelo_inurba_marseille","lat":43.261871,"lon":5.379246,"is_reserved":false,"is_disabled":false,"rental_uris":{"android":"levelo://app?vid=15f5f50b-522c-4b80-ab8d-16051e85ad64","ios":"levelo://app?vid=15f5f50b-522c-4b80-ab8d-16051e85ad64"},"vehicle_type_id":"4","last_reported":1744560691,"current_range_meters":19200,"station_id":"ce4bhjp2rcd13ifvqg90","pricing_plan_id":"cebpf4jnsgd1na2vs0mg"},{"bike_id":"6773888f-2615-4c4a-8407-fe815c9db066","system_id":"levelo_inurba_marseille","lat":43.23179,"lon":5.39982,"is_reserved":false,"is_disabled":false,"rental_uris":{"android":"levelo://app?vid=6773888f-2615-4c4a-8407-fe815c9db066","ios":"levelo://app?vid=6773888f-2615-4c4a-8407-fe815c9db066"},"vehicle_type_id":"4","last_reported":1744560691,"current_range_meters":19600,"station_id":"ce4bhn12rcd13ifvqgqg","pricing_plan_id":"cebpf4jnsgd1na2vs0mg"},{"bike_id":"a680b100-7b8f-4f8d-b46c-99862b38bc27","system_id":"levelo_inurba_marseille","lat":43.30284,"lon":5.40446,"is_reserved":false,"is_disabled":false,"rental_uris":{"android":"levelo://app?vid=a680b100-7b8f-4f8d-b46c-99862b38bc27","ios":"levelo://app?vid=a680b100-7b8f-4f8d-b46c-99862b38bc27"},"vehicle_type_id":"4","last_reported":1744560691,"current_range_meters":19600,"station_id":"ce4bh012rcd13ifvqd10","pricing_plan_id":"cebpf4jnsgd1na2vs0mg"},{"bike_id":"b13a3dc4-72f0-4917-9f1f-d4af0619a7d4","system_id":"levelo_inurba_marseille","lat":43.30312,"lon":5.39198,"is_reserved":false,"is_disabled":false,"rental_uris":{"android":"levelo://app?vid=b13a3dc4-72f0-4917-9f1f-d4af0619a7d4","ios":"levelo://app?vid=b13a3dc4-72f0-4917-9f1f-d4af0619a7d4"},"vehicle_type_id":"4","last_reported":1744560691,"current_range_meters":19600,"station_id":"ce4bgkh2rcd13ifvqbk0","pricing_plan_id":"cebpf4jnsgd1na2vs0mg"},{"bike_id":"f95db0f4-6e33-435b-bc02-99d28130bc1b","system_id":"levelo_inurba_marseille","lat":43.30251,"lon":5.38139,"is_reserved":false,"is_disabled":false,"rental_uris":{"android":"levelo://app?vid=f95db0f4-6e33-435b-bc02-99d28130bc1b","ios":"levelo://app?vid=f95db0f4-6e33-435b-bc02-99d28130bc1b"},"vehicle_type_id":"4","last_reported":1744560691,"current_range_meters":19600,"station_id":"","pricing_plan_id":"cebpf4jnsgd1na2vs0mg"},{"bike_id":"42c9be30-96b6-455b-a4cf-6c7730925bcf","system_id":"levelo_inurba_marseille","lat":43.30368,"lon":5.42486,"is_reserved":false,"is_disabled":false,"rental_uris":{"android":"levelo://app?vid=42c9be30-96b6-455b-a4cf-6c7730925bcf","ios":"levelo://app?vid=42c9be30-96b6-455b-a4cf-6c7730925bcf"},"vehicle_type_id":"4","last_reported":1744560691,"current_range_meters":19600,"station_id":"ce4bhoh2rcd13ifvqh6g","pricing_plan_id":"cebpf4jnsgd1na2vs0mg"},{"bike_id":"407a54c4-ce42-4e1a-bc9b-9b8f2ef8a27a","system_id":"levelo_inurba_marseille","lat":43.32413,"lon":5.39122,"is_reserved":false,"is_disabled":false,"rental_uris":{"android":"levelo://app?vid=407a54c4-ce42-4e1a-bc9b-9b8f2ef8a27a","ios":"levelo://app?vid=407a54c4-ce42-4e1a-bc9b-9b8f2ef8a27a"},"vehicle_type_id":"4","last_reported":1744560691,"current_range_meters":20000,"station_id":"","pricing_plan_id":"cebpf4jnsgd1na2vs0mg"},{"bike_id":"626065a0-5dba-4dd3-94f8-76bb3800d58f","system_id":"levelo_inurba_marseille","lat":43.25723,"lon":5.4111,"is_reserved":false,"is_disabled":false,"rental_uris":{"android":"levelo://app?vid=626065a0-5dba-4dd3-94f8-76bb3800d58f","ios":"levelo://app?vid=626065a0-5dba-4dd3-94f8-76bb3800d58f"},"vehicle_type_id":"4","last_reported":1744560691,"current_range_meters":20000,"station_id":"ce4bhkp2rcd13ifvqgd0","pricing_plan_id":"cebpf4jnsgd1na2vs0mg"},{"bike_id":"9ec32510-85fd-4ca1-b0df-f103e7bd2451","system_id":"levelo_inurba_marseille","lat":43.2572,"lon":5.41104,"is_reserved":false,"is_disabled":false,"rental_uris":{"android":"levelo://app?vid=9ec32510-85fd-4ca1-b0df-f103e7bd2451","ios":"levelo://app?vid=9ec32510-85fd-4ca1-b0df-f103e7bd2451"},"vehicle_type_id":"4","last_reported":1744560691,"current_range_meters":20000,"station_id":"ce4bhkp2rcd13ifvqgd0","pricing_plan_id":"cebpf4jnsgd1na2vs0mg"},{"bike_id":"08e69920-6699-44a2-bf5e-065531bec167","system_id":"levelo_inurba_marseille","lat":43.29258,"lon":5.40144,"is_reserved":false,"is_disabled":true,"rental_uris":{"android":"levelo://app?vid=08e69920-6699-44a2-bf5e-065531bec167","ios":"levelo://app?vid=08e69920-6699-44a2-bf5e-065531bec167"},"vehicle_type_id":"4","last_reported":1744560691,"current_range_meters":20000,"station_id":"ce4bh312rcd13ifvqdk0","pricing_plan_id":"cebpf4jnsgd1na2vs0mg"},{"bike_id":"56135a82-d19f-45ea-a72c-58b1131d0fcb","system_id":"levelo_inurba_marseille","lat":43.280913,"lon":5.396612,"is_reserved":false,"is_disabled":true,"rental_uris":{"android":"levelo://app?vid=56135a82-d19f-45ea-a72c-58b1131d0fcb","ios":"levelo://app?vid=56135a82-d19f-45ea-a72c-58b1131d0fcb"},"vehicle_type_id":"4","last_reported":1744560691,"current_range_meters":20000,"station_id":"ce4bho12rcd13ifvqh2g","pricing_plan_id":"cebpf4jnsgd1na2vs0mg"},{"bike_id":"72e112b9-bd03-41fd-82f1-35b8d062919d","system_id":"levelo_inurba_marseille","lat":43.28406,"lon":5.37507,"is_reserved":false,"is_disabled":false,"rental_uris":{"android":"levelo://app?vid=72e112b9-bd03-41fd-82f1-35b8d062919d","ios":"levelo://app?vid=72e112b9-bd03-41fd-82f1-35b8d062919d"},"vehicle_type_id":"4","last_reported":1744560691,"current_range_meters":20000,"station_id":"ce4bh412rcd13ifvqds0","pricing_plan_id":"cebpf4jnsgd1na2vs0mg"},{"bike_id":"8c5851ba-e6eb-41c0-9785-23c4ca518913","system_id":"levelo_inurba_marseille","lat":43.28618,"lon":5.35102,"is_reserved":false,"is_disabled":false,"rental_uris":{"android":"levelo://app?vid=8c5851ba-e6eb-41c0-9785-23c4ca518913","ios":"levelo://app?vid=8c5851ba-e6eb-41c0-9785-23c4ca518913"},"vehicle_type_id":"4","last_reported":1744560691,"current_range_meters":20400,"station_id":"ce4bhch2rcd13ifvqeug","pricing_plan_id":"cebpf4jnsgd1na2vs0mg"},{"bike_id":"a818834f-725d-4dbb-9bab-d3518b1b13c4","system_id":"levelo_inurba_marseille","lat":43.3237,"lon":5.3675,"is_reserved":false,"is_disabled":false,"rental_uris":{"android":"levelo://app?vid=a818834f-725d-4dbb-9bab-d3518b1b13c4","ios":"levelo://app?vid=a818834f-725d-4dbb-9bab-d3518b1b13c4"},"vehicle_type_id":"4","last_reported":1744560691,"current_range_meters":20400,"station_id":"ce4bhsh2rcd13ifvqi2g","pricing_plan_id":"cebpf4jnsgd1na2vs0mg"},{"bike_id":"e457802a-9b9e-4fd1-a9a4-fe7d9111a616","system_id":"levelo_inurba_marseille","lat":43.28043,"lon":5.3696,"is_reserved":false,"is_disabled":false,"rental_uris":{"android":"levelo://app?vid=e457802a-9b9e-4fd1-a9a4-fe7d9111a616","ios":"levelo://app?vid=e457802a-9b9e-4fd1-a9a4-fe7d9111a616"},"vehicle_type_id":"4","last_reported":1744560691,"current_range_meters":20800,"station_id":"ce4bha12rcd13ifvqef0","pricing_plan_id":"cebpf4jnsgd1na2vs0mg"},{"bike_id":"9ccaf1e8-d14c-4218-be36-430bac425c11","system_id":"levelo_inurba_marseille","lat":43.306,"lon":5.39362,"is_reserved":false,"is_disabled":true,"rental_uris":{"android":"levelo://app?vid=9ccaf1e8-d14c-4218-be36-430bac425c11","ios":"levelo://app?vid=9ccaf1e8-d14c-4218-be36-430bac425c11"},"vehicle_type_id":"4","last_reported":1744560691,"current_range_meters":20800,"station_id":"ce4bh0p2rcd13ifvqd80","pricing_plan_id":"cebpf4jnsgd1na2vs0mg"},{"bike_id":"a2a15f6d-c106-49ce-9196-4d38e8219343","system_id":"levelo_inurba_marseille","lat":43.29372,"lon":5.37832,"is_reserved":false,"is_disabled":false,"rental_uris":{"android":"levelo://app?vid=a2a15f6d-c106-49ce-9196-4d38e8219343","ios":"levelo://app?vid=a2a15f6d-c106-49ce-9196-4d38e8219343"},"vehicle_type_id":"4","last_reported":1744560691,"current_range_meters":20400,"station_id":"ce4bgjh2rcd13ifvqbf0","pricing_plan_id":"cebpf4jnsgd1na2vs0mg"},{"bike_id":"60d9bc57-d20b-46c4-88eb-aef99fa904cc","system_id":"levelo_inurba_marseille","lat":43.2694,"lon":5.40259,"is_reserved":false,"is_disabled":false,"rental_uris":{"android":"levelo://app?vid=60d9bc57-d20b-46c4-88eb-aef99fa904cc","ios":"levelo://app?vid=60d9bc57-d20b-46c4-88eb-aef99fa904cc"},"vehicle_type_id":"4","last_reported":1744560691,"current_range_meters":20400,"station_id":"cjm6bp8fraef2m0cb0m0","pricing_plan_id":"cebpf4jnsgd1na2vs0mg"},{"bike_id":"86c06b03-5d3d-487a-bec3-c7d20381f28b","system_id":"levelo_inurba_marseille","lat":43.28936,"lon":5.35622,"is_reserved":false,"is_disabled":true,"rental_uris":{"android":"levelo://app?vid=86c06b03-5d3d-487a-bec3-c7d20381f28b","ios":"levelo://app?vid=86c06b03-5d3d-487a-bec3-c7d20381f28b"},"vehicle_type_id":"4","last_reported":1744560691,"current_range_meters":20800,"station_id":"","pricing_plan_id":"cebpf4jnsgd1na2vs0mg"},{"bike_id":"df8f9521-d77d-4eae-8db3-4a1afa43aef1","system_id":"levelo_inurba_marseille","lat":43.31491,"lon":5.37309,"is_reserved":false,"is_disabled":false,"rental_uris":{"android":"levelo://app?vid=df8f9521-d77d-4eae-8db3-4a1afa43aef1","ios":"levelo://app?vid=df8f9521-d77d-4eae-8db3-4a1afa43aef1"},"vehicle_type_id":"4","last_reported":1744560691,"current_range_meters":20800,"station_id":"ce4bgt12rcd13ifvqcd0","pricing_plan_id":"cebpf4jnsgd1na2vs0mg"},