{"last_updated":1752703881,"ttl":60,"version":"2.2","data":{"bikes":[{"bike_id":"53b742a7-31ae-4272-9bba-7740339e2a2f","system_id":"levelo_inurba_marseille","lat":43.33747,"lon":5.37463,"is_reserved":false,"is_disabled":false,"rental_uris":{"android":"levelo://app?vid=53b742a7-31ae-4272-9bba-7740339e2a2f","ios":"levelo://app?vid=53b742a7-31ae-4272-9bba-7740339e2a2f"},"vehicle_type_id":"1","last_reported":1752703882,"current_range_meters":27200,"station_id":"","pricing_plan_id":"cebpf4jnsgd1na2vs0mg"},{"bike_id":"1ee19f79-d7f7-44cf-9385-f9958580de39","system_id":"levelo_inurba_marseille","lat":43.33607,"lon":5.4104,"is_reserved":false,"is_disabled":false,"rental_uris":{"android":"levelo://app?vid=1ee19f79-d7f7-44cf-9385-f9958580de39","ios":"levelo://app?vid=1ee19f79-d7f7-44cf-9385-f9958580de39"},"vehicle_type_id":"4","last_reported":1752703882,"current_range_meters":2800,"station_id":"ce4bhqh2rcd13ifvqhmg","pricing_plan_id":"cebpf4jnsgd1na2vs0mg"},{"bike_id":"89684348-cf25-4ffe-b118-85c9bd961a3c","system_id":"levelo_inurba_marseille","lat":43.28459,"lon":5.38433,"is_reserved":false,"is_disabled":false,"rental_uris":{"android":"levelo://app?vid=89684348-cf25-4ffe-b118-85c9bd961a3c","ios":"levelo://app?vid=89684348-cf25-4ffe-b118-85c9bd961a3c"},"vehicle_type_id":"4","last_reported":1752703882,"current_range_meters":3200,"station_id":"ce4bh512rcd13ifvqe3g","pricing_plan_id":"cebpf4jnsgd1na2vs0mg"},{"bike_id":"5579b2a6-8c50-448a-accc-694b66a7eb0e","system_id":"levelo_inurba_marseille","lat":43.30605,"lon":5.37147,"is_reserved":false,"is_disabled":false,"rental_uris":{"android":"levelo://app?vid=5579b2a6-8c50-448a-accc-694b66a7eb0e","ios":"levelo://app?vid=5579b2a6-8c50-448a-accc-694b66a7eb0e"},"vehicle_type_id":"4","last_reported":1752703882,"current_range_meters":3200,"station_id":"","pricing_plan_id":"cebpf4jnsgd1na2vs0mg"},{"bike_id":"40a92490-4d9d-4430-8a34-7bb43a009701","system_id":"levelo_inurba_marseille","lat":43.26212,"lon":5.37443,"is_reserved":false,"is_disabled":false,"rental_uris":{"android":"levelo://app?vid=40a92490-4d9d-4430-8a34-7bb43a009701","ios":"levelo://app?vid=40a92490-4d9d-4430-8a34-7bb43a009701"},"vehicle_type_id":"4","last_reported":1752703882,"current_range_meters":3200,"station_id":"ce4bhgp2rcd13ifvqfc0","pricing_plan_id":"cebpf4jnsgd1na2vs0mg"},{"bike_id":"565bd53a-26b8-4719-acdf-d0ec4f1b8d9b","system_id":"levelo_inurba_marseille","lat":43.2846,"lon":5.35883,"is_reserved":false,"is_disabled":false,"rental_uris":{"android":"levelo://app?vid=565bd53a-26b8-4719-acdf-d0ec4f1b8d9b","ios":"levelo://app?vid=565bd53a-26b8-4719-acdf-d0ec4f1b8d9b"},"vehicle_type_id":"4","last_reported":1752703882,"current_range_meters":4000,"station_id":"ce4bhah2rcd13ifvqei0","pricing_plan_id":"cebpf4jnsgd1na2vs0mg"},{"bike_id":"8e976a61-6649-4d3f-9413-89bdc40bf74f","system_id":"levelo_inurba_marseille","lat":43.29034,"lon":5.40016,"is_reserved":false,"is_disabled":false,"rental_uris":{"android":"levelo://app?vid=8e976a61-6649-4d3f-9413-89bdc40bf74f","ios":"levelo://app?vid=8e976a61-6649-4d3f-9413-89bdc40bf74f"},"vehicle_type_id":"4","last_reported":1752703882,"current_range_meters":4000,"station_id":"ce4bh392rcd13ifvqdm0","pricing_plan_id":"cebpf4jnsgd1na2vs0mg"},{"bike_id":"54f83807-6038-45cd-97bc-ade0144c2b30","system_id":"levelo_inurba_marseille","lat":43.29882,"lon":5.37612,"is_reserved":false,"is_disabled":true,"rental_uris":{"android":"levelo://app?vid=54f83807-6038-45cd-97bc-ade0144c2b30","ios":"levelo://app?vid=54f83807-6038-45cd-97bc-ade0144c2b30"},"vehicle_type_id":"4","last_reported":1752703882,"current_range_meters":4000,"station_id":"","pricing_plan_id":"cebpf4jnsgd1na2vs0mg"},{"bike_id":"e6534738-eb8d-4e6d-8190-a7fd19d60cd4","system_id":"levelo_inurba_marseille","lat":43.24074,"lon":5.37759,"is_reserved":false,"is_disabled":false,"rental_uris":{"android":"levelo://app?vid=e6534738-eb8d-4e6d-8190-a7fd19d60cd4","ios":"levelo://app?vid=e6534738-eb8d-4e6d-8190-a7fd19d60cd4"},"vehicle_type_id":"4","last_reported":1752703882,"current_range_meters":4400,"station_id":"ce4bhnp2rcd13ifvqgvg","pricing_plan_id":"cebpf4jnsgd1na2vs0mg"},{"bike_id":"7df8af66-1dbf-453d-99b6-35b0fe82d7da","system_id":"levelo_inurba_marseille","lat":43.29571,"lon":5.3676,"is_reserved":false,"is_disabled":false,"rental_uris":{"android":"levelo://app?vid=7df8af66-1dbf-453d-99b6-35b0fe82d7da","ios":"levelo://app?vid=7df8af66-1dbf-453d-99b6-35b0fe82d7da"},"vehicle_type_id":"4","last_reported":1752703882,"current_range_meters":4400,"station_id":"ce4bgph2rcd13ifvqc2g","pricing_plan_id":"cebpf4jnsgd1na2vs0mg"},{"bike_id":"a0e236bb-9e17-4fdf-a862-0124c29d4894","system_id":"levelo_inurba_marseille","lat":43.30134,"lon":5.39863,"is_reserved":false,"is_disabled":false,"rental_uris":{"android":"levelo://app?vid=a0e236bb-9e17-4fdf-a862-0124c29d4894","ios":"levelo://app?vid=a0e236bb-9e17-4fdf-a862-0124c29d4894"},"vehicle_type_id":"4","last_reported":1752703882,"current_range_meters":3200,"station_id":"ce4bh0h2rcd13ifvqd40","pricing_plan_id":"cebpf4jnsgd1na2vs0mg"},{"bike_id":"892165f6-25a5-4f0a-a9a6-cf4efe50c3be","system_id":"levelo_inurba_marseille","lat":43.248461,"lon":5.425297,"is_reserved":false,"is_disabled":false,"rental_uris":{"android":"levelo://app?vid=892165f6-25a5-4f0a-a9a6-cf4efe50c3be","ios":"levelo://app?vid=892165f6-25a5-4f0a-a9a6-cf4efe50c3be"},"vehicle_type_id":"4","last_reported":1752703882,"current_range_meters":4800,"station_id":"","pricing_plan_id":"cebpf4jnsgd1na2vs0mg"},{"bike_id":"4e1c2498-b254-44c2-990c-637e3157b71e","system_id":"levelo_inurba_marseille","lat":43.262075,"lon":5.374375,"is_reserved":false,"is_disabled":true,"rental_uris":{"android":"levelo://app?vid=4e1c2498-b254-44c2-990c-637e3157b71e","ios":"levelo://app?vid=4e1c2498-b254-44c2-990c-637e3157b71e"},"vehicle_type_id":"4","last_reported":1752703882,"current_range_meters":4800,"station_id":"ce4bhgp2rcd13ifvqfc0","pricing_plan_id":"cebpf4jnsgd1na2vs0mg"},{"bike_id":"d5d3dfb0-1c99-4fa4-9c11-52e65aa72894","system_id":"levelo_inurba_marseille","lat":43.29435,"lon":5.39759,"is_reserved":false,"is_disabled":false,"rental_uris":{"android":"levelo://app?vid=d5d3dfb0-1c99-4fa4-9c11-52e65aa72894","ios":"levelo://app?vid=d5d3dfb0-1c99-4fa4-9c11-52e65aa72894"},"vehicle_type_id":"4","last_reported":1752703882,"current_range_meters":4800,"station_id":"ce4bh3h2rcd13ifvqdo0","pricing_plan_id":"cebpf4jnsgd1na2vs0mg"},{"bike_id":"cb98f2d1-9294-40aa-8451-6bcf39af84aa","system_id":"levelo_inurba_marseille","lat":43.2622,"lon":5.37432,"is_reserved":false,"is_disabled":true,"rental_uris":{"android":"levelo://app?vid=cb98f2d1-9294-40aa-8451-6bcf39af84aa","ios":"levelo://app?vid=cb98f2d1-9294-40aa-8451-6bcf39af84aa"},"vehicle_type_id":"4","last_reported":1752703882,"current_range_meters":4800,"station_id":"ce4bhgp2rcd13ifvqfc0","pricing_plan_id":"cebpf4jnsgd1na2vs0mg"},{"bike_id":"e2f2f893-16c7-42e5-8c51-893940a1136e","system_id":"levelo_inurba_marseille","lat":43.30107,"lon":5.36877,"is_reserved":false,"is_disabled":false,"rental_uris":{"android":"levelo://app?vid=e2f2f893-16c7-42e5-8c51-893940a1136e","ios":"levelo://app?vid=e2f2f893-16c7-42e5-8c51-893940a1136e"},"vehicle_type_id":"4","last_reported":1752703882,"current_range_meters":5600,"station_id":"","pricing_plan_id":"cebpf4jnsgd1na2vs0mg"},{"bike_id":"5ff06d2e-1fcb-4f7f-b26f-494ef01051e2","system_id":"levelo_inurba_marseille","lat":43.26587,"lon":5.39483,"is_reserved":false,"is_disabled":true,"rental_uris":{"android":"levelo://app?vid=5ff06d2e-1fcb-4f7f-b26f-494ef01051e2","ios":"levelo://app?vid=5ff06d2e-1fcb-4f7f-b26f-494ef01051e2"},"vehicle_type_id":"4","last_reported":1752703882,"current_range_meters":5600,"station_id":"","pricing_plan_id":"cebpf4jnsgd1na2vs0mg"},{"bike_id":"d57994d0-7251-41fb-a896-56b364219059","system_id":"levelo_inurba_marseille","lat":43.2991,"lon":5.38293,"is_reserved":false,"is_disabled":false,"rental_uris":{"android":"levelo://app?vid=d57994d0-7251-41fb-a896-56b364219059","ios":"levelo://app?vid=d57994d0-7251-41fb-a896-56b364219059"},"vehicle_type_id":"4","last_reported":1752703882,"current_range_meters":5600,"station_id":"","pricing_plan_id":"cebpf4jnsgd1na2vs0mg"},{"bike_id":"e5f5b676-b35a-4fbb-b78f-ac50c0b81db0","system_id":"levelo_inurba_marseille","lat":43.24168,"lon":5.36401,"is_reserved":false,"is_disabled":false,"rental_uris":{"android":"levelo://app?vid=e5f5b676-b35a-4fbb-b78f-ac50c0b81db0","ios":"levelo://app?vid=e5f5b676-b35a-4fbb-b78f-ac50c0b81db0"},"vehicle_type_id":"4","last_reported":1752703882,"current_range_meters":5600,"station_id":"cpo36qri1sfpv3e86is0","pricing_plan_id":"cebpf4jnsgd1na2vs0mg"},{"bike_id":"7c4fb36d-7720-43ad-8884-8b0f3251044e","system_id":"levelo_inurba_marseille","lat":43.28728,"lon":5.36086,"is_reserved":false,"is_disabled":false,"rental_uris":{"android":"levelo://app?vid=7c4fb36d-7720-43ad-8884-8b0f3251044e","ios":"levelo://app?vid=7c4fb36d-7720-43ad-8884-8b0f3251044e"},"vehicle_type_id":"4","last_reported":1752703882,"current_range_meters":5600,"station_id":"cki0cbj6b192h4jlfktg","pricing_plan_id":"cebpf4jnsgd1na2vs0mg"},{"bike_id":"a8ce6efe-50ae-4699-a953-570b09452efb","system_id":"levelo_inurba_marseille","lat":43.25011,"lon":5.38916,"is_reserved":false,"is_disabled":true,"rental_uris":{"android":"levelo://app?vid=a8ce6efe-50ae-4699-a953-570b09452efb","ios":"levelo://app?vid=a8ce6efe-50ae-4699-a953-570b09452efb"},"vehicle_type_id":"4","last_reported":1752703882,"current_range_meters":5600,"station_id":"ce4bhgp2rcd13ifvqfd0","pricing_plan_id":"cebpf4jnsgd1na2vs0mg"},{"bike_id":"34ed5d38-919d-48b8-a32a-7ab9838b4357","system_id":"levelo_inurba_marseille","lat":43.30256,"lon":5.40076,"is_reserved":false,"is_disabled":false,"rental_uris":{"android":"levelo://app?vid=34ed5d38-919d-48b8-a32a-7ab9838b4357","ios":"levelo://app?vid=34ed5d38-919d-48b8-a32a-7ab9838b4357"},"vehicle_type_id":"4","last_reported":1752703882,"current_range_meters":6000,"station_id":"ce4bgvh2rcd13ifvqcs0","pricing_plan_id":"cebpf4jnsgd1na2vs0mg"},{"bike_id":"3859f018-7b5f-469a-871e-d6832dcfaf8e","system_id":"levelo_inurba_marseille","lat":43.24797,"lon":5.37481,"is_reserved":false,"is_disabled":true,"rental_uris":{"android":"levelo://app?vid=3859f018-7b5f-469a-871e-d6832dcfaf8e","ios":"levelo://app?vid=3859f018-7b5f-469a-871e-d6832dcfaf8e"},"vehicle_type_id":"4","last_reported":1752703882,"current_range_meters":6400,"station_id":"ce4bhgh2rcd13ifvqfb0","pricing_plan_id":"cebpf4jnsgd1na2vs0mg"},{"bike_id":"d4fc0619-e005-4355-a8e5-f4bcbe0879ed","system_id":"levelo_inurba_marseille","lat":43.31087,"lon":5.42402,"is_reserved":false,"is_disabled":false,"rental_uris":{"android":"levelo://app?vid=d4fc0619-e005-4355-a8e5-f4bcbe0879ed","ios":"levelo://app?vid=d4fc0619-e005-4355-a8e5-f4bcbe0879ed"},"vehicle_type_id":"4","last_reported":1752703882,"current_range_meters":6400,"station_id":"ce4bhp92rcd13ifvqhag","pricing_plan_id":"cebpf4jnsgd1na2vs0mg"},{"bike_id":"6e1a3217-2adb-472d-8c9d-ff90013144cd","system_id":"levelo_inurba_marseille","lat":43.25108,"lon":5.40322,"is_reserved":false,"is_disabled":false,"rental_uris":{"android":"levelo://app?vid=6e1a3217-2adb-472d-8c9d-ff90013144cd","ios":"levelo://app?vid=6e1a3217-2adb-472d-8c9d-ff90013144cd"},"vehicle_type_id":"4","last_reported":1752703882,"current_range_meters":6400,"station_id":"ce4bhlh2rcd13ifvqgig","pricing_plan_id":"cebpf4jnsgd1na2vs0mg"},{"bike_id":"4c661f17-5fae-4977-94bd-3e27457eda8b","system_id":"levelo_inurba_marseille","lat":43.30138,"lon":5.38773,"is_reserved":false,"is_disabled":false,"rental_uris":{"android":"levelo://app?vid=4c661f17-5fae-4977-94bd-3e27457eda8b","ios":"levelo://app?vid=4c661f17-5fae-4977-94bd-3e27457eda8b"},"vehicle_type_id":"4","last_reported":1752703882,"current_range_meters":6800,"station_id":"ce4bghh2rcd13ifvqb60","pricing_plan_id":"cebpf4jnsgd1na2vs0mg"},{"bike_id":"6612bd79-85c3-4699-bc10-a8cfef622d99","system_id":"levelo_inurba_marseille","lat":43.33605,"lon":5.4097,"is_reserved":false,"is_disabled":false,"rental_uris":{"android":"levelo://app?vid=6612bd79-85c3-4699-bc10-a8cfef622d99","ios":"levelo://app?vid=6612bd79-85c3-4699-bc10-a8cfef622d99"},"vehicle_type_id":"4","last_reported":1752703882,"current_range_meters":6800,"station_id":"","pricing_plan_id":"cebpf4jnsgd1na2vs0mg"},{"bike_id":"e5ec4b25-dbcc-42eb-bf86-2cca309a0b15","system_id":"levelo_inurba_marseille","lat":43.264945,"lon":5.395365,"is_reserved":false,"is_disabled":true,"rental_uris":{"android":"levelo://app?vid=e5ec4b25-dbcc-42eb-bf86-2cca309a0b15","ios":"levelo://app?vid=e5ec4b25-dbcc-42eb-bf86-2cca309a0b15"},"vehicle_type_id":"4","last_reported":1752703882,"current_range_meters":6800,"station_id":"","pricing_plan_id":"cebpf4jnsgd1na2vs0mg"},{"bike_id":"ec786f9b-9202-46c5-8c72-c8ef87ecf4bc","system_id":"levelo_inurba_marseille","lat":43.27061,"lon":5.4228,"is_reserved":false,"is_disabled":false,"rental_uris":{"android":"levelo://app?vid=ec786f9b-9202-46c5-8c72-c8ef87ecf4bc","ios":"levelo://app?vid=ec786f9b-9202-46c5-8c72-c8ef87ecf4bc"},"vehicle_type_id":"4","last_reported":1752703882,"current_range_meters":6800,"station_id":"ce4bhk92rcd13ifvqgb0","pricing_plan_id":"cebpf4jnsgd1na2vs0mg"},{"bike_id":"b3db82e2-c2e3-47b4-b381-58667a1e9d5e","system_id":"levelo_inurba_marseille","lat":43.28729,"lon":5.36083,"is_reserved":false,"is_disabled":false,"rental_uris":{"android":"levelo://app?vid=b3db82e2-c2e3-47b4-b381-58667a1e9d5e","ios":"levelo://app?vid=b3db82e2-c2e3-47b4-b381-58667a1e9d5e"},"vehicle_type_id":"4","last_reported":1752703882,"current_range_meters":7200,"station_id":"cki0cbj6b192h4jlfktg","pricing_plan_id":"cebpf4jnsgd1na2vs0mg"},{"bike_id":"4e09eb3b-d44c-4d38-940a-eb7399e95329","system_id":"levelo_inurba_marseille","lat":43.25498,"lon":5.37652,"is_reserved":false,"is_disabled":false,"rental_uris":{"android":"levelo://app?vid=4e09eb3b-d44c-4d38-940a-eb7399e95329","ios":"levelo://app?vid=4e09eb3b-d44c-4d38-940a-eb7399e95329"},"vehicle_type_id":"4","last_reported":1752703882,"current_range_meters":0,"station_id":"ce4bhh12rcd13ifvqff0","pricing_plan_id":"cebpf4jnsgd1na2vs0mg"},{"bike_id":"ff3fe164-4cc4-44a4-80b5-1df33cf4bc7b","system_id":"levelo_inurba_marseille","lat":43.286926,"lon":5.359271,"is_reserved":false,"is_disabled":false,"rental_uris":{"android":"levelo://app?vid=ff3fe164-4cc4-44a4-80b5-1df33cf4bc7b","ios":"levelo://app?vid=ff3fe164-4cc4-44a4-80b5-1df33cf4bc7b"},"vehicle_type_id":"4","last_reported":1752703882,"current_range_meters":7200,"station_id":"cki0cbj6b192h4jlfktg","pricing_plan_id":"cebpf4jnsgd1na2vs0mg"},{"bike_id":"f2f1e358-671c-43dc-83ac-76eb27113194","system_id":"levelo_inurba_marseille","lat":43.30424,"lon":5.41277,"is_reserved":false,"is_disabled":false,"rental_uris":{"android":"levelo://app?vid=f2f1e358-671c-43dc-83ac-76eb27113194","ios":"levelo://app?vid=f2f1e358-671c-43dc-83ac-76eb27113194"},"vehicle_type_id":"4","last_reported":1752703882,"current_range_meters":7200,"station_id":"ce4bhop2rcd13ifvqh8g","pricing_plan_id":"cebpf4jnsgd1na2vs0mg"},{"bike_id":"8c55707b-5a22-4fc3-88ac-1e97f159ad85","system_id":"levelo_inurba_marseille","lat":43.30138,"lon":5.38776,"is_reserved":false,"is_disabled":false,"rental_uris":{"android":"levelo://app?vid=8c55707b-5a22-4fc3-88ac-1e97f159ad85","ios":"levelo://app?vid=8c55707b-5a22-4fc3-88ac-1e97f159ad85"},"vehicle_type_id":"4","last_reported":1752703882,"current_range_meters":7200,"station_id":"ce4bghh2rcd13ifvqb60","pricing_plan_id":"cebpf4jnsgd1na2vs0mg"},{"bike_id":"e3ceb71c-b7b9-44dd-aaea-abbef8b925c4","system_id":"levelo_inurba_marseille","lat":43.29031,"lon":5.38642,"is_reserved":false,"is_disabled":false,"rental_uris":{"android":"levelo://app?vid=e3ceb71c-b7b9-44dd-aaea-abbef8b925c4","ios":"levelo://app?vid=e3ceb71c-b7b9-44dd-aaea-abbef8b925c4"},"vehicle_type_id":"4","last_reported":1752703882,"current_range_meters":7200,"station_id":"ce4bh4p2rcd13ifvqe0g","pricing_plan_id":"cebpf4jnsgd1na2vs0mg"},{"bike_id":"bdadbfdd-02ec-43df-a8ac-0ce1d617c55c","system_id":"levelo_inurba_marseille","lat":43.287043,"lon":5.373918,"is_reserved":false,"is_disabled":false,"rental_uris":{"android":"levelo://app?vid=bdadbfdd-02ec-43df-a8ac-0ce1d617c55c","ios":"levelo://app?vid=bdadbfdd-02ec-43df-a8ac-0ce1d617c55c"},"vehicle_type_id":"4","last_reported":1752703882,"current_range_meters":7200,"station_id":"ce4bh3p2rcd13ifvqdq0","pricing_plan_id":"cebpf4jnsgd1na2vs0mg"},{"bike_id":"f43dfdbd-d639-4d8f-b96a-4eeae2fb47d3","system_id":"levelo_inurba_marseille","lat":43.312318,"lon":5.368621,"is_reserved":false,"is_disabled":false,"rental_uris":{"android":"levelo://app?vid=f43dfdbd-d639-4d8f-b96a-4eeae2fb47d3","ios":"levelo://app?vid=f43dfdbd-d639-4d8f-b96a-4eeae2fb47d3"},"vehicle_type_id":"4","last_reported":1752703882,"current_range_meters":7200,"station_id":"ce4bgl92rcd13ifvqbq0","pricing_plan_id":"cebpf4jnsgd1na2vs0mg"},{"bike_id":"9bef9fd3-a179-4977-b5c1-723a39183134","system_id":"levelo_inurba_marseille","lat":43.29553,"lon":5.42284,"is_reserved":false,"is_disabled":false,"rental_uris":{"android":"levelo://app?vid=9bef9fd3-a179-4977-b5c1-723a39183134","ios":"levelo://app?vid=9bef9fd3-a179-4977-b5c1-723a39183134"},"vehicle_type_id":"4","last_reported":1752703882,"current_range_meters":7200,"station_id":"ce4bhph2rcd13ifvqhdg","pricing_plan_id":"cebpf4jnsgd1na2vs0mg"},{"bike_id":"1b34f383-6b09-4fb5-9d9d-a5b977d6b4c3","system_id":"levelo_inurba_marseille","lat":43.24668,"lon":5.3814,"is_reserved":false,"is_disabled":false,"rental_uris":{"android":"levelo://app?vid=1b34f383-6b09-4fb5-9d9d-a5b977d6b4c3","ios":"levelo://app?vid=1b34f383-6b09-4fb5-9d9d-a5b977d6b4c3"},"vehicle_type_id":"4","last_reported":1752703882,"current_range_meters":8000,"station_id":"ce4bhih2rcd13ifvqfr0","pricing_plan_id":"cebpf4jnsgd1na2vs0mg"},{"bike_id":"3dac9d7d-1ff5-4f52-afe9-34afece65d9e","system_id":"levelo_inurba_marseille","lat":43.299,"lon":5.38161,"is_reserved":false,"is_disabled":false,"rental_uris":{"android":"levelo://app?vid=3dac9d7d-1ff5-4f52-afe9-34afece65d9e","ios":"levelo://app?vid=3dac9d7d-1ff5-4f52-afe9-34afece65d9e"},"vehicle_type_id":"4","last_reported":1752703882,"current_range_meters":8000,"station_id":"ce4bgj12rcd13ifvqbc0","pricing_plan_id":"cebpf4jnsgd1na2vs0mg"},{"bike_id":"1dc0f4c0-ae56-4127-9e91-7db3d392604b","system_id":"levelo_inurba_marseille","lat":43.30261,"lon":5.40092,"is_reserved":false,"is_disabled":false,"rental_uris":{"android":"levelo://app?vid=1dc0f4c0-ae56-4127-9e91-7db3d392604b","ios":"levelo://app?vid=1dc0f4c0-ae56-4127-9e91-7db3d392604b"},"vehicle_type_id":"4","last_reported":1752703882,"current_range_meters":8000,"station_id":"ce4bgvh2rcd13ifvqcs0","pricing_plan_id":"cebpf4jnsgd1na2vs0mg"},{"bike_id":"ffec1933-844b-4b1e-8a72-2ea49963d77e","system_id":"levelo_inurba_marseille","lat":43.29883,"lon":5.38897,"is_reserved":false,"is_disabled":false,"rental_uris":{"android":"levelo://app?vid=ffec1933-844b-4b1e-8a72-2ea49963d77e","ios":"levelo://app?vid=ffec1933-844b-4b1e-8a72-2ea49963d77e"},"vehicle_type_id":"4","last_reported":1752703882,"current_range_meters":8000,"station_id":"ce4bh392rcd13ifvqdl0","pricing_plan_id":"cebpf4jnsgd1na2vs0mg"},{"bike_id":"080b0f22-14dd-4044-a18f-ee7f74366cea","system_id":"levelo_inurba_marseille","lat":43.31996,"lon":5.38154,"is_reserved":false,"is_disabled":true,"rental_uris":{"android":"levelo://app?vid=080b0f22-14dd-4044-a18f-ee7f74366cea","ios":"levelo://app?vid=080b0f22-14dd-4044-a18f-ee7f74366cea"},"vehicle_type_id":"4","last_reported":1752703882,"current_range_meters":8000,"station_id":"ce4bhr12rcd13ifvqhpg","pricing_plan_id":"cebpf4jnsgd1na2vs0mg"},{"bike_id":"2c6e34ec-e4ad-4b55-908f-732bdcecdb2f","system_id":"levelo_inurba_marseille","lat":43.21191,"lon":5.3507,"is_reserved":false,"is_disabled":false,"rental_uris":{"android":"levelo://app?vid=2c6e34ec-e4ad-4b55-908f-732bdcecdb2f","ios":"levelo://app?vid=2c6e34ec-e4ad-4b55-908f-732bdcecdb2f"},"vehicle_type_id":"4","last_reported":1752703882,"current_range_meters":8400,"station_id":"st_cvj6sg6p6f1abm77japg","pricing_plan_id":"cebpf4jnsgd1na2vs0mg"},{"bike_id":"cd3a65c0-c276-47a1-a3a1-29b1fbcab9ab","system_id":"levelo_inurba_marseille","lat":43.29591,"lon":5.36743,"is_reserved":false,"is_disabled":false,"rental_uris":{"android":"levelo://app?vid=cd3a65c0-c276-47a1-a3a1-29b1fbcab9ab","ios":"levelo://app?vid=cd3a65c0-c276-47a1-a3a1-29b1fbcab9ab"},"vehicle_type_id":"4","last_reported":1752703882,"current_range_meters":8400,"station_id":"ce4bgph2rcd13ifvqc2g","pricing_plan_id":"cebpf4jnsgd1na2vs0mg"},{"bike_id":"60d82a58-aab6-48a0-8db9-2e807b213036","system_id":"levelo_inurba_marseille","lat":43.29252,"lon":5.37634,"is_reserved":false,"is_disabled":false,"rental_uris":{"android":"levelo://app?vid=60d82a58-aab6-48a0-8db9-2e807b213036","ios":"levelo://app?vid=60d82a58-aab6-48a0-8db9-2e807b213036"},"vehicle_type_id":"4","last_reported":1752703882,"current_range_meters":8400,"station_id":"ce4bgi12rcd13ifvqb80","pricing_plan_id":"cebpf4jnsgd1na2vs0mg"},{"bike_id":"b2691039-7ff6-41ed-9b25-53013cba226e","system_id":"levelo_inurba_marseille","lat":43.34137,"lon":5.40898,"is_reserved":false,"is_disabled":false,"rental_uris":{"android":"levelo://app?vid=b2691039-7ff6-41ed-9b25-53013cba226e","ios":"levelo://app?vid=b2691039-7ff6-41ed-9b25-53013cba226e"},"vehicle_type_id":"4","last_reported":1752703882,"current_range_meters":8400,"station_id":"ce4bhqh2rcd13ifvqhlg","pricing_plan_id":"cebpf4jnsgd1na2vs0mg"},{"bike_id":"d98ef30e-38a0-41ef-a00a-304afa979a1e","system_id":"levelo_inurba_marseille","lat":43.29898,"lon":5.436643,"is_reserved":false,"is_disabled":true,"rental_uris":{"android":"levelo://app?vid=d98ef30e-38a0-41ef-a00a-304afa979a1e","ios":"levelo://app?vid=d98ef30e-38a0-41ef-a00a-304afa979a1e"},"vehicle_type_id":"4","last_reported":1752703882,"current_range_meters":8800,"station_id":"ce4bhpp2rcd13ifvqhfg","pricing_plan_id":"cebpf4jnsgd1na2vs0mg"},{"bike_id":"0e233022-c508-4abd-9900-c903362820ba","system_id":"levelo_inurba_marseille","lat":43.29504,"lon":5.3942,"is_reserved":false,"is_disabled":false,"rental_uris":{"android":"levelo://app?vid=0e233022-c508-4abd-9900-c903362820ba","ios":"levelo://app?vid=0e233022-c508-4abd-9900-c903362820ba"},"vehicle_type_id":"4","last_reported":1752703882,"current_range_meters":8800,"station_id":"ce4bh292rcd13ifvqdf0","pricing_plan_id":"cebpf4jnsgd1na2vs0mg"},{"bike_id":"269af709-bf9d-4888-ae34-340ca8e30c71","system_id":"levelo_inurba_marseille","lat":43.24151,"lon":5.39716,"is_reserved":false,"is_disabled":false,"rental_uris":{"android":"levelo://app?vid=269af709-bf9d-4888-ae34-340ca8e30c71","ios":"levelo://app?vid=269af709-bf9d-4888-ae34-340ca8e30c71"},"vehicle_type_id":"4","last_reported":1752703882,"current_range_meters":8800,"station_id":"ce4bhn12rcd13ifvqgpg","pricing_plan_id":"cebpf4jnsgd1na2vs0mg"},{"bike_id":"29cf44b4-2b77-4381-ba65-a293698e4362","system_id":"levelo_inurba_marseille","lat":43.30799,"lon":5.38156,"is_reserved":false,"is_disabled":false,"rental_uris":{"android":"levelo://app?vid=29cf44b4-2b77-4381-ba65-a293698e4362","ios":"levelo://app?vid=29cf44b4-2b77-4381-ba65-a293698e4362"},"vehicle_type_id":"4","last_reported":1752703882,"current_range_meters":8800,"station_id":"ce4bgt12rcd13ifvqce0","pricing_plan_id":"cebpf4jnsgd1na2vs0mg"},{"bike_id":"9cf033a1-484e-48ee-b234-d0c877b8a9b0","system_id":"levelo_inurba_marseille","lat":43.298466,"lon":5.362821,"is_reserved":false,"is_disabled":false,"rental_uris":{"android":"levelo://app?vid=9cf033a1-484e-48ee-b234-d0c877b8a9b0","ios":"levelo://app?vid=9cf033a1-484e-48ee-b234-d0c877b8a9b0"},"vehicle_type_id":"4","last_reported":1752703882,"current_range_meters":8800,"station_id":"","pricing_plan_id":"cebpf4jnsgd1na2vs0mg"},{"bike_id":"21277f10-5153-4980-90c8-114919d3afab","system_id":"levelo_inurba_marseille","lat":43.310683,"lon":5.383523,"is_reserved":false,"is_disabled":true,"rental_uris":{"android":"levelo://app?vid=21277f10-5153-4980-90c8-114919d3afab","ios":"levelo://app?vid=21277f10-5153-4980-90c8-114919d3afab"},"vehicle_type_id":"4","last_reported":1752703882,"current_range_meters":9200,"station_id":"ce4bgv92rcd13ifvqcr0","pricing_plan_id":"cebpf4jnsgd1na2vs0mg"},{"bike_id":"8d876b1d-a449-4b4c-a78b-8b341aedb2d9","system_id":"levelo_inurba_marseille","lat":43.29008,"lon":5.38121,"is_reserved":false,"is_disabled":false,"rental_uris":{"android":"levelo://app?vid=8d876b1d-a449-4b4c-a78b-8b341aedb2d9","ios":"levelo://app?vid=8d876b1d-a449-4b4c-a78b-8b341aedb2d9"},"vehicle_type_id":"4","last_reported":1752703882,"current_range_meters":9200,"station_id":"ce4bh4p2rcd13ifvqe1g","pricing_plan_id":"cebpf4jnsgd1na2vs0mg"},{"bike_id":"dd5871ae-6538-4aeb-98aa-aee429d89359","system_id":"levelo_inurba_marseille","lat":43.29585,"lon":5.36739,"is_reserved":false,"is_disabled":false,"rental_uris":{"android":"levelo://app?vid=dd5871ae-6538-4aeb-98aa-aee429d89359","ios":"levelo://app?vid=dd5871ae-6538-4aeb-98aa-aee429d89359"},"vehicle_type_id":"4","last_reported":1752703882,"current_range_meters":9200,"station_id":"ce4bgph2rcd13ifvqc2g","pricing_plan_id":"cebpf4jnsgd1na2vs0mg"},{"bike_id":"08d30d8b-f899-475f-b0be-2a3bf345e30d","system_id":"levelo_inurba_marseille","lat":43.27045,"lon":5.40269,"is_reserved":false,"is_disabled":false,"rental_uris":{"android":"levelo://app?vid=08d30d8b-f899-475f-b0be-2a3bf345e30d","ios":"levelo://app?vid=08d30d8b-f899-475f-b0be-2a3bf345e30d"},"vehicle_type_id":"4","last_reported":1752703882,"current_range_meters":9200,"station_id":"ce4bhk92rcd13ifvqgc0","pricing_plan_id":"cebpf4jnsgd1na2vs0mg"},{"bike_id":"d97bb949-0737-4e74-84dd-59b6dc55c128","system_id":"levelo_inurba_marseille","lat":43.283023,"lon":5.433163,"is_reserved":false,"is_disabled":false,"rental_uris":{"android":"levelo://app?vid=d97bb949-0737-4e74-84dd-59b6dc55c128","ios":"levelo://app?vid=d97bb949-0737-4e74-84dd-59b6dc55c128"},"vehicle_type_id":"4","last_reported":1752703882,"current_range_meters":9600,"station_id":"","pricing_plan_id":"cebpf4jnsgd1na2vs0mg"},{"bike_id":"1cceb3f0-ef8b-46ea-ad1e-439deeb3abc1","system_id":"levelo_inurba_marseille","lat":43.30586,"lon":5.39358,"is_reserved":false,"is_disabled":false,"rental_uris":{"android":"levelo://app?vid=1cceb3f0-ef8b-46ea-ad1e-439deeb3abc1","ios":"levelo://app?vid=1cceb3f0-ef8b-46ea-ad1e-439deeb3abc1"},"vehicle_type_id":"4","last_reported":1752703882,"current_range_meters":9600,"station_id":"ce4bh0p2rcd13ifvqd80","pricing_plan_id":"cebpf4jnsgd1na2vs0mg"},{"bike_id":"1145602c-3b12-4604-b8ff-291284dfc532","system_id":"levelo_inurba_marseille","lat":43.22508,"lon":5.34775,"is_reserved":false,"is_disabled":false,"rental_uris":{"android":"levelo://app?vid=1145602c-3b12-4604-b8ff-291284dfc532","ios":"levelo://app?vid=1145602c-3b12-4604-b8ff-291284dfc532"},"vehicle_type_id":"4","last_reported":1752703882,"current_range_meters":9600,"station_id":"st_cvj5dfep6f1abm77gieg","pricing_plan_id":"cebpf4jnsgd1na2vs0mg"},{"bike_id":"9d6e4d5d-351d-4371-939f-cf43621fb56f","system_id":"levelo_inurba_marseille","lat":43.25112,"lon":5.40319,"is_reserved":false,"is_disabled":false,"rental_uris":{"android":"levelo://app?vid=9d6e4d5d-351d-4371-939f-cf43621fb56f","ios":"levelo://app?vid=9d6e4d5d-351d-4371-939f-cf43621fb56f"},"vehicle_type_id":"4","last_reported":1752703882,"current_range_meters":9600,"station_id":"ce4bhlh2rcd13ifvqgig","pricing_plan_id":"cebpf4jnsgd1na2vs0mg"},{"bike_id":"2bacaccd-1bb2-41bf-ab2e-30b8a5fb7d5d","system_id":"levelo_inurba_marseille","lat":43.27368,"lon":5.36237,"is_reserved":false,"is_disabled":true,"rental_uris":{"android":"levelo://app?vid=2bacaccd-1bb2-41bf-ab2e-30b8a5fb7d5d","ios":"levelo://app?vid=2bacaccd-1bb2-41bf-ab2e-30b8a5fb7d5d"},"vehicle_type_id":"4","last_reported":1752703882,"current_range_meters":9600,"station_id":"ce4bhbh2rcd13ifvqeo0","pricing_plan_id":"cebpf4jnsgd1na2vs0mg"},{"bike_id":"ebf3b191-bb86-457e-8c4f-2b54c1f7445b","system_id":"levelo_inurba_marseille","lat":43.2837,"lon":5.38626,"is_reserved":false,"is_disabled":false,"rental_uris":{"android":"levelo://app?vid=ebf3b191-bb86-457e-8c4f-2b54c1f7445b","ios":"levelo://app?vid=ebf3b191-bb86-457e-8c4f-2b54c1f7445b"},"vehicle_type_id":"4","last_reported":1752703882,"current_range_meters":9600,"station_id":"ce4bh492rcd13ifvqdvg","pricing_plan_id":"cebpf4jnsgd1na2vs0mg"},{"bike_id":"2d7dbe90-c978-45ee-a030-6cf39e68fd0c","system_id":"levelo_inurba_marseille","lat":43.31274,"lon":5.40172,"is_reserved":false,"is_disabled":false,"rental_uris":{"android":"levelo://app?vid=2d7dbe90-c978-45ee-a030-6cf39e68fd0c","ios":"levelo://app?vid=2d7dbe90-c978-45ee-a030-6cf39e68fd0c"},"vehicle_type_id":"4","last_reported":1752703882,"current_range_meters":9600,"station_id":"ce4bh092rcd13ifvqd30","pricing_plan_id":"cebpf4jnsgd1na2vs0mg"},{"bike_id":"b3315968-bc84-45dd-aaeb-21dd5ae09bd7","system_id":"levelo_inurba_marseille","lat":43.3108,"lon":5.42434,"is_reserved":false,"is_disabled":false,"rental_uris":{"android":"levelo://app?vid=b3315968-bc84-45dd-aaeb-21dd5ae09bd7","ios":"levelo://app?vid=b3315968-bc84-45dd-aaeb-21dd5ae09bd7"},"vehicle_type_id":"4","last_reported":1752703882,"current_range_meters":9600,"station_id":"ce4bhp92rcd13ifvqhag","pricing_plan_id":"cebpf4jnsgd1na2vs0mg"},{"bike_id":"04360171-353d-4743-b652-2f686b907641","system_id":"levelo_inurba_marseille","lat":43.30145,"lon":5.37419,"is_reserved":false,"is_disabled":false,"rental_uris":{"android":"levelo://app?vid=04360171-353d-4743-b652-2f686b907641","ios":"levelo://app?vid=04360171-353d-4743-b652-2f686b907641"},"vehicle_type_id":"4","last_reported":1752703882,"current_range_meters":10000,"station_id":"ce4bgs92rcd13ifvqcc0","pricing_plan_id":"cebpf4jnsgd1na2vs0mg"},{"bike_id":"becb21de-0d07-42ed-a63b-15185cdce48a","system_id":"levelo_inurba_marseille","lat":43.26563,"lon":5.39015,"is_reserved":false,"is_disabled":false,"rental_uris":{"android":"levelo://app?vid=becb21de-0d07-42ed-a63b-15185cdce48a","ios":"levelo://app?vid=becb21de-0d07-42ed-a63b-15185cdce48a"},"vehicle_type_id":"4","last_reported":1752703882,"current_range_meters":10000,"station_id":"ce4bhe12rcd13ifvqf30","pricing_plan_id":"cebpf4jnsgd1na2vs0mg"},{"bike_id":"bc020f21-0a4b-4aa4-a189-9a82f838c7a6","system_id":"levelo_inurba_marseille","lat":43.29602,"lon":5.38116,"is_reserved":false,"is_disabled":false,"rental_uris":{"android":"levelo://app?vid=bc020f21-0a4b-4aa4-a189-9a82f838c7a6","ios":"levelo://app?vid=bc020f21-0a4b-4aa4-a189-9a82f838c7a6"},"vehicle_type_id":"4","last_reported":1752703882,"current_range_meters":10000,"station_id":"ce4bgl12rcd13ifvqbo0","pricing_plan_id":"cebpf4jnsgd1na2vs0mg"},{"bike_id":"5ac51129-3997-4afc-ae6e-f09b95df995b","system_id":"levelo_inurba_marseille","lat":43.29869,"lon":5.39731,"is_reserved":false,"is_disabled":false,"rental_uris":{"android":"levelo://app?vid=5ac51129-3997-4afc-ae6e-f09b95df995b","ios":"levelo://app?vid=5ac51129-3997-4afc-ae6e-f09b95df995b"},"vehicle_type_id":"4","last_reported":1752703882,"current_range_meters":10000,"station_id":"ce4bh0h2rcd13ifvqd50","pricing_plan_id":"cebpf4jnsgd1na2vs0mg"},{"bike_id":"d73afb15-81f9-4367-88db-ec6b7d209561","system_id":"levelo_inurba_marseille","lat":43.29548,"lon":5.39967,"is_reserved":false,"is_disabled":false,"rental_uris":{"android":"levelo://app?vid=d73afb15-81f9-4367-88db-ec6b7d209561","ios":"levelo://app?vid=d73afb15-81f9-4367-88db-ec6b7d209561"},"vehicle_type_id":"4","last_reported":1752703882,"current_range_meters":10800,"station_id":"ce4bh312rcd13ifvqdj0","pricing_plan_id":"cebpf4jnsgd1na2vs0mg"},{"bike_id":"e5bec6b1-43e6-46f2-9810-affd93766dd8","system_id":"levelo_inurba_marseille","lat":43.33774,"lon":5.37475,"is_reserved":false,"is_disabled":true,"rental_uris":{"android":"levelo://app?vid=e5bec6b1-43e6-46f2-9810-affd93766dd8","ios":"levelo://app?vid=e5bec6b1-43e6-46f2-9810-affd93766dd8"},"vehicle_type_id":"4","last_reported":1752703882,"current_range_meters":10800,"station_id":"","pricing_plan_id":"cebpf4jnsgd1na2vs0mg"},{"bike_id":"2ed2bfbe-f294-4f5b-bf5f-8df8acee532c","system_id":"levelo_inurba_marseille","lat":43.24806,"lon":5.374637,"is_reserved":false,"is_disabled":false,"rental_uris":{"android":"levelo://app?vid=2ed2bfbe-f294-4f5b-bf5f-8df8acee532c","ios":"levelo://app?vid=2ed2bfbe-f294-4f5b-bf5f-8df8acee532c"},"vehicle_type_id":"4","last_reported":1752703882,"current_range_meters":10800,"station_id":"ce4bhgh2rcd13ifvqfb0","pricing_plan_id":"cebpf4jnsgd1na2vs0mg"},{"bike_id":"54b283c6-c314-444c-b492-3e78ed7f2d30","system_id":"levelo_inurba_marseille","lat":43.32917,"lon":5.3907,"is_reserved":false,"is_disabled":false,"rental_uris":{"android":"levelo://app?vid=54b283c6-c314-444c-b492-3e78ed7f2d30","ios":"levelo://app?vid=54b283c6-c314-444c-b492-3e78ed7f2d30"},"vehicle_type_id":"4","last_reported":1752703882,"current_range_meters":10800,"station_id":"","pricing_plan_id":"cebpf4jnsgd1na2vs0mg"},{"bike_id":"3497b8c1-eec3-4bcf-a2a8-074629d1c01b","system_id":"levelo_inurba_marseille","lat":43.305316,"lon":5.367038,"is_reserved":false,"is_disabled":false,"rental_uris":{"android":"levelo://app?vid=3497b8c1-eec3-4bcf-a2a8-074629d1c01b","ios":"levelo://app?vid=3497b8c1-eec3-4bcf-a2a8-074629d1c01b"},"vehicle_type_id":"4","last_reported":1752703882,"current_range_meters":10800,"station_id":"","pricing_plan_id":"cebpf4jnsgd1na2vs0mg"},{"bike_id":"29e22c40-6046-4379-8c03-0731bbb7772b","system_id":"levelo_inurba_marseille","lat":43.29968,"lon":5.38493,"is_reserved":false,"is_disabled":false,"rental_uris":{"android":"levelo://app?vid=29e22c40-6046-4379-8c03-0731bbb7772b","ios":"levelo://app?vid=29e22c40-6046-4379-8c03-0731bbb7772b"},"vehicle_type_id":"4","last_reported":1752703882,"current_range_meters":16000,"station_id":"ce4bgj92rcd13ifvqbd0","pricing_plan_id":"cebpf4jnsgd1na2vs0mg"},{"bike_id":"9b17552d-01e4-44a4-80ff-8c26a3e08876","system_id":"levelo_inurba_marseille","lat":43.29875,"lon":5.38909,"is_reserved":false,"is_disabled":false,"rental_uris":{"android":"levelo://app?vid=9b17552d-01e4-44a4-80ff-8c26a3e08876","ios":"levelo://app?vid=9b17552d-01e4-44a4-80ff-8c26a3e08876"},"vehicle_type_id":"4","last_reported":1752703882,"current_range_meters":10800,"station_id":"ce4bh392rcd13ifvqdl0","pricing_plan_id":"cebpf4jnsgd1na2vs0mg"},{"bike_id":"67ba1821-cb8b-4188-95b8-ecd5b2086ec0","system_id":"levelo_inurba_marseille","lat":43.293576,"lon":5.374251,"is_reserved":false,"is_disabled":false,"rental_uris":{"android":"levelo://app?vid=67ba1821-cb8b-4188-95b8-ecd5b2086ec0","ios":"levelo://app?vid=67ba1821-cb8b-4188-95b8-ecd5b2086ec0"},"vehicle_type_id":"4","last_reported":1752703882,"current_range_meters":11200,"station_id":"","pricing_plan_id":"cebpf4jnsgd1na2vs0mg"},{"bike_id":"e63f05de-effa-4c72-90d4-75f3968d4a40","system_id":"levelo_inurba_marseille","lat":43.28423,"lon":5.37527,"is_reserved":false,"is_disabled":false,"rental_uris":{"android":"levelo://app?vid=e63f05de-effa-4c72-90d4-75f3968d4a40","ios":"levelo://app?vid=e63f05de-effa-4c72-90d4-75f3968d4a40"},"vehicle_type_id":"4","last_reported":1752703882,"current_range_meters":10800,"station_id":"ce4bh412rcd13ifvqds0","pricing_plan_id":"cebpf4jnsgd1na2vs0mg"},{"bike_id":"def7fcc1-6054-4ff4-9c32-502385bd0b01","system_id":"levelo_inurba_marseille","lat":43.2511,"lon":5.4032,"is_reserved":false,"is_disabled":false,"rental_uris":{"android":"levelo://app?vid=def7fcc1-6054-4ff4-9c32-502385bd0b01","ios":"levelo://app?vid=def7fcc1-6054-4ff4-9c32-502385bd0b01"},"vehicle_type_id":"4","last_reported":1752703882,"current_range_meters":11200,"station_id":"ce4bhlh2rcd13ifvqgig","pricing_plan_id":"cebpf4jnsgd1na2vs0mg"},{"bike_id":"0895dc70-7c1a-43e5-b7c1-f859e1b4306e","system_id":"levelo_inurba_marseille","lat":43.28436,"lon":5.39188,"is_reserved":false,"is_disabled":false,"rental_uris":{"android":"levelo://app?vid=0895dc70-7c1a-43e5-b7c1-f859e1b4306e","ios":"levelo://app?vid=0895dc70-7c1a-43e5-b7c1-f859e1b4306e"},"vehicle_type_id":"4","last_reported":1752703882,"current_range_meters":11200,"station_id":"ce4bhoh2rcd13ifvqh5g","pricing_plan_id":"cebpf4jnsgd1na2vs0mg"},{"bike_id":"fd2fff76-fffe-429f-b576-2c09de1840f6","system_id":"levelo_inurba_marseille","lat":43.29237,"lon":5.38439,"is_reserved":false,"is_disabled":false,"rental_uris":{"android":"levelo://app?vid=fd2fff76-fffe-429f-b576-2c09de1840f6","ios":"levelo://app?vid=fd2fff76-fffe-429f-b576-2c09de1840f6"},"vehicle_type_id":"4","last_reported":1752703882,"current_range_meters":11200,"station_id":"ce4bh692rcd13ifvqea0","pricing_plan_id":"cebpf4jnsgd1na2vs0mg"},{"bike_id":"baea4922-60e4-4138-8858-b9b2d082c585","system_id":"levelo_inurba_marseille","lat":43.30765,"lon":5.37675,"is_reserved":false,"is_disabled":false,"rental_uris":{"android":"levelo://app?vid=baea4922-60e4-4138-8858-b9b2d082c585","ios":"levelo://app?vid=baea4922-60e4-4138-8858-b9b2d082c585"},"vehicle_type_id":"4","last_reported":1752703882,"current_range_meters":11600,"station_id":"ce4bgv92rcd13ifvqcq0","pricing_plan_id":"cebpf4jnsgd1na2vs0mg"},{"bike_id":"c60915bb-3f73-4823-bcd7-1c68f5ef67ed","system_id":"levelo_inurba_marseille","lat":43.21183,"lon":5.35109,"is_reserved":false,"is_disabled":false,"rental_uris":{"android":"levelo://app?vid=c60915bb-3f73-4823-bcd7-1c68f5ef67ed","ios":"levelo://app?vid=c60915bb-3f73-4823-bcd7-1c68f5ef67ed"},"vehicle_type_id":"4","last_reported":1752703882,"current_range_meters":11600,"station_id":"st_cvj6sg6p6f1abm77japg","pricing_plan_id":"cebpf4jnsgd1na2vs0mg"},{"bike_id":"acdc4eae-fa0d-4b1d-82e8-03d6b3d158ce","system_id":"levelo_inurba_marseille","lat":43.2707,"lon":5.42279,"is_reserved":false,"is_disabled":false,"rental_uris":{"android":"levelo://app?vid=acdc4eae-fa0d-4b1d-82e8-03d6b3d158ce","ios":"levelo://app?vid=acdc4eae-fa0d-4b1d-82e8-03d6b3d158ce"},"vehicle_type_id":"4","last_reported":1752703882,"current_range_meters":11600,"station_id":"ce4bhk92rcd13ifvqgb0","pricing_plan_id":"cebpf4jnsgd1na2vs0mg"},{"bike_id":"f4d50b9f-67c5-4a4e-82cd-5fb34bc9ddef","system_id":"levelo_inurba_marseille","lat":43.25405,"lon":5.38244,"is_reserved":false,"is_disabled":false,"rental_uris":{"android":"levelo://app?vid=f4d50b9f-67c5-4a4e-82cd-5fb34bc9ddef","ios":"levelo://app?vid=f4d50b9f-67c5-4a4e-82cd-5fb34bc9ddef"},"vehicle_type_id":"4","last_reported":1752703882,"current_range_meters":11600,"station_id":"","pricing_plan_id":"cebpf4jnsgd1na2vs0mg"},{"bike_id":"e5ca7f54-c6f2-4e02-b5a0-dca8136801eb","system_id":"levelo_inurba_marseille","lat":43.30581,"lon":5.393515,"is_reserved":false,"is_disabled":false,"rental_uris":{"android":"levelo://app?vid=e5ca7f54-c6f2-4e02-b5a0-dca8136801eb","ios":"levelo://app?vid=e5ca7f54-c6f2-4e02-b5a0-dca8136801eb"},"vehicle_type_id":"4","last_reported":1752703882,"current_range_meters":11600,"station_id":"ce4bh0p2rcd13ifvqd80","pricing_plan_id":"cebpf4jnsgd1na2vs0mg"},{"bike_id":"c156771e-34f5-424c-9e92-42fc088ddf85","system_id":"levelo_inurba_marseille","lat":43.28716,"lon":5.360913,"is_reserved":false,"is_disabled":false,"rental_uris":{"android":"levelo://app?vid=c156771e-34f5-424c-9e92-42fc088ddf85","ios":"levelo://app?vid=c156771e-34f5-424c-9e92-42fc088ddf85"},"vehicle_type_id":"4","last_reported":1752703882,"current_range_meters":11600,"station_id":"cki0cbj6b192h4jlfktg","pricing_plan_id":"cebpf4jnsgd1na2vs0mg"},{"bike_id":"3aef6da4-43ee-4eb6-bca4-82a9b0e31c20","system_id":"levelo_inurba_marseille","lat":43.303,"lon":5.39213,"is_reserved":false,"is_disabled":false,"rental_uris":{"android":"levelo://app?vid=3aef6da4-43ee-4eb6-bca4-82a9b0e31c20","ios":"levelo://app?vid=3aef6da4-43ee-4eb6-bca4-82a9b0e31c20"},"vehicle_type_id":"4","last_reported":1752703882,"current_range_meters":11600,"station_id":"ce4bgkh2rcd13ifvqbk0","pricing_plan_id":"cebpf4jnsgd1na2vs0mg"},{"bike_id":"b0f534da-8e66-4152-b967-e328e4be2d91","system_id":"levelo_inurba_marseille","lat":43.28948,"lon":5.38404,"is_reserved":false,"is_disabled":false,"rental_uris":{"android":"levelo://app?vid=b0f534da-8e66-4152-b967-e328e4be2d91","ios":"levelo://app?vid=b0f534da-8e66-4152-b967-e328e4be2d91"},"vehicle_type_id":"4","last_reported":1752703882,"current_range_meters":12000,"station_id":"ce4bh612rcd13ifvqe6g","pricing_plan_id":"cebpf4jnsgd1na2vs0mg"},{"bike_id":"1ca96a3a-e695-4598-9226-8ef43ee55fb4","system_id":"levelo_inurba_marseille","lat":43.31271,"lon":5.401808,"is_reserved":false,"is_disabled":false,"rental_uris":{"android":"levelo://app?vid=1ca96a3a-e695-4598-9226-8ef43ee55fb4","ios":"levelo://app?vid=1ca96a3a-e695-4598-9226-8ef43ee55fb4"},"vehicle_type_id":"4","last_reported":1752703882,"current_range_meters":12000,"station_id":"ce4bh092rcd13ifvqd30","pricing_plan_id":"cebpf4jnsgd1na2vs0mg"},{"bike_id":"61a9e916-b95f-4f2c-8dca-c5b11be80287","system_id":"levelo_inurba_marseille","lat":43.2921,"lon":5.36051,"is_reserved":false,"is_disabled":true,"rental_uris":{"android":"levelo://app?vid=61a9e916-b95f-4f2c-8dca-c5b11be80287","ios":"levelo://app?vid=61a9e916-b95f-4f2c-8dca-c5b11be80287"},"vehicle_type_id":"4","last_reported":1752703882,"current_range_meters":12000,"station_id":"ce4bhbh2rcd13ifvqeqg","pricing_plan_id":"cebpf4jnsgd1na2vs0mg"},{"bike_id":"028da51e-b561-4cd0-a2a4-17a062cbf37a","system_id":"levelo_inurba_marseille","lat":43.29711,"lon":5.36603,"is_reserved":false,"is_disabled":false,"rental_uris":{"android":"levelo://app?vid=028da51e-b561-4cd0-a2a4-17a062cbf37a","ios":"levelo://app?vid=028da51e-b561-4cd0-a2a4-17a062cbf37a"},"vehicle_type_id":"4","last_reported":1752703882,"current_range_meters":12000,"station_id":"ce4bgn12rcd13ifvqbt0","pricing_plan_id":"cebpf4jnsgd1na2vs0mg"},{"bike_id":"ac763d28-e3a1-48f3-b4e7-490068622aa2","system_id":"levelo_inurba_marseille","lat":43.31272,"lon":5.40176,"is_reserved":false,"is_disabled":false,"rental_uris":{"android":"levelo://app?vid=ac763d28-e3a1-48f3-b4e7-490068622aa2","ios":"levelo://app?vid=ac763d28-e3a1-48f3-b4e7-490068622aa2"},"vehicle_type_id":"4","last_reported":1752703882,"current_range_meters":12000,"station_id":"ce4bh092rcd13ifvqd30","pricing_plan_id":"cebpf4jnsgd1na2vs0mg"},{"bike_id":"2c09878f-795c-47f5-9d73-108846ae1aa1","system_id":"levelo_inurba_marseille","lat":43.25732,"lon":5.41104,"is_reserved":false,"is_disabled":false,"rental_uris":{"android":"levelo://app?vid=2c09878f-795c-47f5-9d73-108846ae1aa1","ios":"levelo://app?vid=2c09878f-795c-47f5-9d73-108846ae1aa1"},"vehicle_type_id":"4","last_reported":1752703882,"current_range_meters":12400,"station_id":"ce4bhkp2rcd13ifvqgd0","pricing_plan_id":"cebpf4jnsgd1na2vs0mg"},{"bike_id":"f12b0c0b-ba70-40b3-b4ec-2983c7dd2327","system_id":"levelo_inurba_marseille","lat":43.2958,"lon":5.36747,"is_reserved":false,"is_disabled":false,"rental_uris":{"android":"levelo://app?vid=f12b0c0b-ba70-40b3-b4ec-2983c7dd2327","ios":"levelo://app?vid=f12b0c0b-ba70-40b3-b4ec-2983c7dd2327"},"vehicle_type_id":"4","last_reported":1752703882,"current_range_meters":12400,"station_id":"ce4bgph2rcd13ifvqc2g","pricing_plan_id":"cebpf4jnsgd1na2vs0mg"},{"bike_id":"941f5e0c-adb3-4b4e-bcb7-3588acd87787","system_id":"levelo_inurba_marseille","lat":43.30111,"lon":5.38809,"is_reserved":false,"is_disabled":true,"rental_uris":{"android":"levelo://app?vid=941f5e0c-adb3-4b4e-bcb7-3588acd87787","ios":"levelo://app?vid=941f5e0c-adb3-4b4e-bcb7-3588acd87787"},"vehicle_type_id":"4","last_reported":1752703882,"current_range_meters":12400,"station_id":"ce4bghh2rcd13ifvqb60","pricing_plan_id":"cebpf4jnsgd1na2vs0mg"},{"bike_id":"1e9dc428-571a-417a-a6d5-20a9dcf1d8a2","system_id":"levelo_inurba_marseille","lat":43.2857,"lon":5.39504,"is_reserved":false,"is_disabled":false,"rental_uris":{"android":"levelo://app?vid=1e9dc428-571a-417a-a6d5-20a9dcf1d8a2","ios":"levelo://app?vid=1e9dc428-571a-417a-a6d5-20a9dcf1d8a2"},"vehicle_type_id":"4","last_reported":1752703882,"current_range_meters":12400,"station_id":"ce4bh292rcd13ifvqdg0","pricing_plan_id":"cebpf4jnsgd1na2vs0mg"},{"bike_id":"bb839917-1d72-4519-a2b0-72b28025e386","system_id":"levelo_inurba_marseille","lat":43.30135,"lon":5.39844,"is_reserved":false,"is_disabled":false,"rental_uris":{"android":"levelo://app?vid=bb839917-1d72-4519-a2b0-72b28025e386","ios":"levelo://app?vid=bb839917-1d72-4519-a2b0-72b28025e386"},"vehicle_type_id":"4","last_reported":1752703882,"current_range_meters":12400,"station_id":"ce4bh0h2rcd13ifvqd40","pricing_plan_id":"cebpf4jnsgd1na2vs0mg"},{"bike_id":"56bd0bc1-2c43-4328-bdee-89f0a6f41364","system_id":"levelo_inurba_marseille","lat":43.303013,"lon":5.368995,"is_reserved":false,"is_disabled":false,"rental_uris":{"android":"levelo://app?vid=56bd0bc1-2c43-4328-bdee-89f0a6f41364","ios":"levelo://app?vid=56bd0bc1-2c43-4328-bdee-89f0a6f41364"},"vehicle_type_id":"4","last_reported":1752703882,"current_range_meters":12800,"station_id":"ce4bgqh2rcd13ifvqc5g","pricing_plan_id":"cebpf4jnsgd1na2vs0mg"},{"bike_id":"c1f80bd2-d50e-449c-bd26-79e20ea78897","system_id":"levelo_inurba_marseille","lat":43.302793,"lon":5.400842,"is_reserved":false,"is_disabled":false,"rental_uris":{"android":"levelo://app?vid=c1f80bd2-d50e-449c-bd26-79e20ea78897","ios":"levelo://app?vid=c1f80bd2-d50e-449c-bd26-79e20ea78897"},"vehicle_type_id":"4","last_reported":1752703882,"current_range_meters":12800,"station_id":"ce4bgvh2rcd13ifvqcs0","pricing_plan_id":"cebpf4jnsgd1na2vs0mg"},{"bike_id":"2979d731-9333-4af5-a963-386268404255","system_id":"levelo_inurba_marseille","lat":43.22937,"lon":5.35377,"is_reserved":false,"is_disabled":false,"rental_uris":{"android":"levelo://app?vid=2979d731-9333-4af5-a963-386268404255","ios":"levelo://app?vid=2979d731-9333-4af5-a963-386268404255"},"vehicle_type_id":"4","last_reported":1752703882,"current_range_meters":12800,"station_id":"cpo3532slgdg3j2ikp40","pricing_plan_id":"cebpf4jnsgd1na2vs0mg"},{"bike_id":"80c45421-67b0-454e-b2c5-c13ad5f7d678","system_id":"levelo_inurba_marseille","lat":43.28693,"lon":5.37396,"is_reserved":false,"is_disabled":false,"rental_uris":{"android":"levelo://app?vid=80c45421-67b0-454e-b2c5-c13ad5f7d678","ios":"levelo://app?vid=80c45421-67b0-454e-b2c5-c13ad5f7d678"},"vehicle_type_id":"4","last_reported":1752703882,"current_range_meters":12800,"station_id":"ce4bh3p2rcd13ifvqdq0","pricing_plan_id":"cebpf4jnsgd1na2vs0mg"},{"bike_id":"63b68163-23ff-4509-a7ff-da745c70a782","system_id":"levelo_inurba_marseille","lat":43.295232,"lon":5.394075,"is_reserved":false,"is_disabled":false,"rental_uris":{"android":"levelo://app?vid=63b68163-23ff-4509-a7ff-da745c70a782","ios":"levelo://app?vid=63b68163-23ff-4509-a7ff-da745c70a782"},"vehicle_type_id":"4","last_reported":1752703882,"current_range_meters":12800,"station_id":"","pricing_plan_id":"cebpf4jnsgd1na2vs0mg"},{"bike_id":"bb91fdfd-e2e6-4861-a682-9985a5c5d97b","system_id":"levelo_inurba_marseille","lat":43.23197,"lon":5.39987,"is_reserved":false,"is_disabled":false,"rental_uris":{"android":"levelo://app?vid=bb91fdfd-e2e6-4861-a682-9985a5c5d97b","ios":"levelo://app?vid=bb91fdfd-e2e6-4861-a682-9985a5c5d97b"},"vehicle_type_id":"4","last_reported":1752703882,"current_range_meters":12800,"station_id":"ce4bhn12rcd13ifvqgqg","pricing_plan_id":"cebpf4jnsgd1na2vs0mg"},{"bike_id":"9eaf072e-fd31-4296-8388-8574f90d4c98","system_id":"levelo_inurba_marseille","lat":43.28608,"lon":5.37068,"is_reserved":false,"is_disabled":false,"rental_uris":{"android":"levelo://app?vid=9eaf072e-fd31-4296-8388-8574f90d4c98","ios":"levelo://app?vid=9eaf072e-fd31-4296-8388-8574f90d4c98"},"vehicle_type_id":"4","last_reported":1752703882,"current_range_meters":12800,"station_id":"ce4bht12rcd13ifvqi60","pricing_plan_id":"cebpf4jnsgd1na2vs0mg"},{"bike_id":"8eeeb77c-8234-4556-b507-da0594d01e95","system_id":"levelo_inurba_marseille","lat":43.22499,"lon":5.34788,"is_reserved":false,"is_disabled":false,"rental_uris":{"android":"levelo://app?vid=8eeeb77c-8234-4556-b507-da0594d01e95","ios":"levelo://app?vid=8eeeb77c-8234-4556-b507-da0594d01e95"},"vehicle_type_id":"4","last_reported":1752703882,"current_range_meters":12800,"station_id":"st_cvj5dfep6f1abm77gieg","pricing_plan_id":"cebpf4jnsgd1na2vs0mg"},{"bike_id":"7dee92bf-5b07-4927-aa41-9e9493644eeb","system_id":"levelo_inurba_marseille","lat":43.21222,"lon":5.35073,"is_reserved":false,"is_disabled":false,"rental_uris":{"android":"levelo://app?vid=7dee92bf-5b07-4927-aa41-9e9493644eeb","ios":"levelo://app?vid=7dee92bf-5b07-4927-aa41-9e9493644eeb"},"vehicle_type_id":"4","last_reported":1752703882,"current_range_meters":12800,"station_id":"st_cvj6sg6p6f1abm77japg","pricing_plan_id":"cebpf4jnsgd1na2vs0mg"},{"bike_id":"8053bec4-5cac-4b92-aa53-91664ade9529","system_id":"levelo_inurba_marseille","lat":43.28698,"lon":5.37425,"is_reserved":false,"is_disabled":false,"rental_uris":{"android":"levelo://app?vid=8053bec4-5cac-4b92-aa53-91664ade9529","ios":"levelo://app?vid=8053bec4-5cac-4b92-aa53-91664ade9529"},"vehicle_type_id":"4","last_reported":1752703882,"current_range_meters":13600,"station_id":"ce4bh3p2rcd13ifvqdq0","pricing_plan_id":"cebpf4jnsgd1na2vs0mg"},{"bike_id":"b7431c1f-d7ac-4e78-a119-41c97700dd12","system_id":"levelo_inurba_marseille","lat":43.30906,"lon":5.40169,"is_reserved":false,"is_disabled":false,"rental_uris":{"android":"levelo://app?vid=b7431c1f-d7ac-4e78-a119-41c97700dd12","ios":"levelo://app?vid=b7431c1f-d7ac-4e78-a119-41c97700dd12"},"vehicle_type_id":"4","last_reported":1752703882,"current_range_meters":13600,"station_id":"ce4bgvp2rcd13ifvqct0","pricing_plan_id":"cebpf4jnsgd1na2vs0mg"},{"bike_id":"8c91f622-ba9b-431a-9fe3-6819815d4505","system_id":"levelo_inurba_marseille","lat":43.26223,"lon":5.40453,"is_reserved":false,"is_disabled":false,"rental_uris":{"android":"levelo://app?vid=8c91f622-ba9b-431a-9fe3-6819815d4505","ios":"levelo://app?vid=8c91f622-ba9b-431a-9fe3-6819815d4505"},"vehicle_type_id":"4","last_reported":1752703882,"current_range_meters":13600,"station_id":"ce4bhmh2rcd13ifvqgmg","pricing_plan_id":"cebpf4jnsgd1na2vs0mg"},{"bike_id":"181fa2a0-7af9-42db-bc18-73b34669d057","system_id":"levelo_inurba_marseille","lat":43.28619,"lon":5.35104,"is_reserved":false,"is_disabled":false,"rental_uris":{"android":"levelo://app?vid=181fa2a0-7af9-42db-bc18-73b34669d057","ios":"levelo://app?vid=181fa2a0-7af9-42db-bc18-73b34669d057"},"vehicle_type_id":"4","last_reported":1752703882,"current_range_meters":13600,"station_id":"ce4bhch2rcd13ifvqeug","pricing_plan_id":"cebpf4jnsgd1na2vs0mg"},{"bike_id":"a456f802-ed93-4aa6-a343-02ecc400571e","system_id":"levelo_inurba_marseille","lat":43.28707,"lon":5.3999,"is_reserved":false,"is_disabled":false,"rental_uris":{"android":"levelo://app?vid=a456f802-ed93-4aa6-a343-02ecc400571e","ios":"levelo://app?vid=a456f802-ed93-4aa6-a343-02ecc400571e"},"vehicle_type_id":"4","last_reported":1752703882,"current_range_meters":14000,"station_id":"ce4bho92rcd13ifvqh3g","pricing_plan_id":"cebpf4jnsgd1na2vs0mg"},{"bike_id":"47e84c87-4631-48fa-8064-ac43c2313bba","system_id":"levelo_inurba_marseille","lat":43.29299,"lon":5.37204,"is_reserved":false,"is_disabled":true,"rental_uris":{"android":"levelo://app?vid=47e84c87-4631-48fa-8064-ac43c2313bba","ios":"levelo://app?vid=47e84c87-4631-48fa-8064-ac43c2313bba"},"vehicle_type_id":"4","last_reported":1752703882,"current_range_meters":14000,"station_id":"ce4bgh92rcd13ifvqb40","pricing_plan_id":"cebpf4jnsgd1na2vs0mg"},{"bike_id":"e7574c06-c628-4333-a40c-7b005585c3f8","system_id":"levelo_inurba_marseille","lat":43.29612,"lon":5.37719,"is_reserved":false,"is_disabled":true,"rental_uris":{"android":"levelo://app?vid=e7574c06-c628-4333-a40c-7b005585c3f8","ios":"levelo://app?vid=e7574c06-c628-4333-a40c-7b005585c3f8"},"vehicle_type_id":"4","last_reported":1752703882,"current_range_meters":14000,"station_id":"ce4bgi92rcd13ifvqb90","pricing_plan_id":"cebpf4jnsgd1na2vs0mg"},{"bike_id":"020b2baf-75c4-4949-8f8a-0ffb7a3dd799","system_id":"levelo_inurba_marseille","lat":43.29878,"lon":5.38898,"is_reserved":false,"is_disabled":false,"rental_uris":{"android":"levelo://app?vid=020b2baf-75c4-4949-8f8a-0ffb7a3dd799","ios":"levelo://app?vid=020b2baf-75c4-4949-8f8a-0ffb7a3dd799"},"vehicle_type_id":"4","last_reported":1752703882,"current_range_meters":14000,"station_id":"ce4bh392rcd13ifvqdl0","pricing_plan_id":"cebpf4jnsgd1na2vs0mg"},{"bike_id":"fec9ee64-026c-46c6-a4c8-c66ae693a529","system_id":"levelo_inurba_marseille","lat":43.29304,"lon":5.37179,"is_reserved":false,"is_disabled":true,"rental_uris":{"android":"levelo://app?vid=fec9ee64-026c-46c6-a4c8-c66ae693a529","ios":"levelo://app?vid=fec9ee64-026c-46c6-a4c8-c66ae693a529"},"vehicle_type_id":"4","last_reported":1752703882,"current_range_meters":14000,"station_id":"ce4bgh92rcd13ifvqb40","pricing_plan_id":"cebpf4jnsgd1na2vs0mg"},{"bike_id":"82744ac9-be40-48d9-8b95-77997f04c760","system_id":"levelo_inurba_marseille","lat":43.24671,"lon":5.3816,"is_reserved":false,"is_disabled":false,"rental_uris":{"android":"levelo://app?vid=82744ac9-be40-48d9-8b95-77997f04c760","ios":"levelo://app?vid=82744ac9-be40-48d9-8b95-77997f04c760"},"vehicle_type_id":"4","last_reported":1752703882,"current_range_meters":14000,"station_id":"ce4bhih2rcd13ifvqfr0","pricing_plan_id":"cebpf4jnsgd1na2vs0mg"},{"bike_id":"b54d706a-0aa5-4b88-947c-9a50a2857c27","system_id":"levelo_inurba_marseille","lat":43.30859,"lon":5.37233,"is_reserved":false,"is_disabled":false,"rental_uris":{"android":"levelo://app?vid=b54d706a-0aa5-4b88-947c-9a50a2857c27","ios":"levelo://app?vid=b54d706a-0aa5-4b88-947c-9a50a2857c27"},"vehicle_type_id":"4","last_reported":1752703882,"current_range_meters":14000,"station_id":"","pricing_plan_id":"cebpf4jnsgd1na2vs0mg"},{"bike_id":"6a69d0cc-faf8-4dc3-8ded-5ef811a5de8d","system_id":"levelo_inurba_marseille","lat":43.30731,"lon":5.42441,"is_reserved":false,"is_disabled":false,"rental_uris":{"android":"levelo://app?vid=6a69d0cc-faf8-4dc3-8ded-5ef811a5de8d","ios":"levelo://app?vid=6a69d0cc-faf8-4dc3-8ded-5ef811a5de8d"},"vehicle_type_id":"4","last_reported":1752703882,"current_range_meters":14000,"station_id":"st_cvj6ca6bvosntc0bfgr0","pricing_plan_id":"cebpf4jnsgd1na2vs0mg"},{"bike_id":"35b7af62-4975-4ce4-85d2-e805c24a29b9","system_id":"levelo_inurba_marseille","lat":43.2993,"lon":5.37469,"is_reserved":false,"is_disabled":false,"rental_uris":{"android":"levelo://app?vid=35b7af62-4975-4ce4-85d2-e805c24a29b9","ios":"levelo://app?vid=35b7af62-4975-4ce4-85d2-e805c24a29b9"},"vehicle_type_id":"4","last_reported":1752703882,"current_range_meters":14000,"station_id":"ce4bgjh2rcd13ifvqbg0","pricing_plan_id":"cebpf4jnsgd1na2vs0mg"},{"bike_id":"2f7735f9-7867-4ab9-9108-eb7e293bdfe9","system_id":"levelo_inurba_marseille","lat":43.284088,"lon":5.375022,"is_reserved":false,"is_disabled":false,"rental_uris":{"android":"levelo://app?vid=2f7735f9-7867-4ab9-9108-eb7e293bdfe9","ios":"levelo://app?vid=2f7735f9-7867-4ab9-9108-eb7e293bdfe9"},"vehicle_type_id":"4","last_reported":1752703882,"current_range_meters":14400,"station_id":"ce4bh412rcd13ifvqds0","pricing_plan_id":"cebpf4jnsgd1na2vs0mg"},{"bike_id":"1a44976a-d3a3-427f-b2b1-503ea0e67dfa","system_id":"levelo_inurba_marseille","lat":43.301392,"lon":5.387747,"is_reserved":false,"is_disabled":false,"rental_uris":{"android":"levelo://app?vid=1a44976a-d3a3-427f-b2b1-503ea0e67dfa","ios":"levelo://app?vid=1a44976a-d3a3-427f-b2b1-503ea0e67dfa"},"vehicle_type_id":"4","last_reported":1752703882,"current_range_meters":14400,"station_id":"ce4bghh2rcd13ifvqb60","pricing_plan_id":"cebpf4jnsgd1na2vs0mg"},{"bike_id":"31f220b6-f392-477c-9aaa-dd9f087bd889","system_id":"levelo_inurba_marseille","lat":43.28649,"lon":5.38691,"is_reserved":false,"is_disabled":false,"rental_uris":{"android":"levelo://app?vid=31f220b6-f392-477c-9aaa-dd9f087bd889","ios":"levelo://app?vid=31f220b6-f392-477c-9aaa-dd9f087bd889"},"vehicle_type_id":"4","last_reported":1752703882,"current_range_meters":14400,"station_id":"ce4bh492rcd13ifvqdug","pricing_plan_id":"cebpf4jnsgd1na2vs0mg"},{"bike_id":"7425af41-f939-4fb5-81a7-e1169ccaa6d8","system_id":"levelo_inurba_marseille","lat":43.24681,"lon":5.38158,"is_reserved":false,"is_disabled":true,"rental_uris":{"android":"levelo://app?vid=7425af41-f939-4fb5-81a7-e1169ccaa6d8","ios":"levelo://app?vid=7425af41-f939-4fb5-81a7-e1169ccaa6d8"},"vehicle_type_id":"4","last_reported":1752703882,"current_range_meters":14400,"station_id":"ce4bhih2rcd13ifvqfr0","pricing_plan_id":"cebpf4jnsgd1na2vs0mg"},{"bike_id":"b4217d81-edb7-4ab7-8703-2718579a2a94","system_id":"levelo_inurba_marseille","lat":43.29622,"lon":5.37711,"is_reserved":false,"is_disabled":false,"rental_uris":{"android":"levelo://app?vid=b4217d81-edb7-4ab7-8703-2718579a2a94","ios":"levelo://app?vid=b4217d81-edb7-4ab7-8703-2718579a2a94"},"vehicle_type_id":"4","last_reported":1752703882,"current_range_meters":14400,"station_id":"ce4bgi92rcd13ifvqb90","pricing_plan_id":"cebpf4jnsgd1na2vs0mg"},{"bike_id":"557a352a-658c-4b7e-afa9-2e6600a2d9f9","system_id":"levelo_inurba_marseille","lat":43.28696,"lon":5.37432,"is_reserved":false,"is_disabled":false,"rental_uris":{"android":"levelo://app?vid=557a352a-658c-4b7e-afa9-2e6600a2d9f9","ios":"levelo://app?vid=557a352a-658c-4b7e-afa9-2e6600a2d9f9"},"vehicle_type_id":"4","last_reported":1752703882,"current_range_meters":14400,"station_id":"ce4bh3p2rcd13ifvqdq0","pricing_plan_id":"cebpf4jnsgd1na2vs0mg"},{"bike_id":"91032716-49fe-4740-a89d-ed38905960c1","system_id":"levelo_inurba_marseille","lat":43.26199,"lon":5.37933,"is_reserved":false,"is_disabled":false,"rental_uris":{"android":"levelo://app?vid=91032716-49fe-4740-a89d-ed38905960c1","ios":"levelo://app?vid=91032716-49fe-4740-a89d-ed38905960c1"},"vehicle_type_id":"4","last_reported":1752703882,"current_range_meters":14400,"station_id":"ce4bhjp2rcd13ifvqg90","pricing_plan_id":"cebpf4jnsgd1na2vs0mg"},{"bike_id":"faee7903-0873-4cae-9460-c271b034a61c","system_id":"levelo_inurba_marseille","lat":43.24675,"lon":5.3815,"is_reserved":false,"is_disabled":false,"rental_uris":{"android":"levelo://app?vid=faee7903-0873-4cae-9460-c271b034a61c","ios":"levelo://app?vid=faee7903-0873-4cae-9460-c271b034a61c"},"vehicle_type_id":"4","last_reported":1752703882,"current_range_meters":14400,"station_id":"ce4bhih2rcd13ifvqfr0","pricing_plan_id":"cebpf4jnsgd1na2vs0mg"},{"bike_id":"4a7d156b-6c66-4698-bd9c-529e07996af0","system_id":"levelo_inurba_marseille","lat":43.29709,"lon":5.36593,"is_reserved":false,"is_disabled":false,"rental_uris":{"android":"levelo://app?vid=4a7d156b-6c66-4698-bd9c-529e07996af0","ios":"levelo://app?vid=4a7d156b-6c66-4698-bd9c-529e07996af0"},"vehicle_type_id":"4","last_reported":1752703882,"current_range_meters":14400,"station_id":"ce4bgn12rcd13ifvqbt0","pricing_plan_id":"cebpf4jnsgd1na2vs0mg"},{"bike_id":"04c0d757-6670-4627-a3be-6783c53fafb8","system_id":"levelo_inurba_marseille","lat":43.3373,"lon":5.39177,"is_reserved":false,"is_disabled":false,"rental_uris":{"android":"levelo://app?vid=04c0d757-6670-4627-a3be-6783c53fafb8","ios":"levelo://app?vid=04c0d757-6670-4627-a3be-6783c53fafb8"},"vehicle_type_id":"4","last_reported":1752703882,"current_range_meters":14400,"station_id":"ce4bhr92rcd13ifvqhsg","pricing_plan_id":"cebpf4jnsgd1na2vs0mg"},{"bike_id":"84c133eb-a2c7-4beb-83c4-2a7041dbf7bd","system_id":"levelo_inurba_marseille","lat":43.30797,"lon":5.3816,"is_reserved":false,"is_disabled":false,"rental_uris":{"android":"levelo://app?vid=84c133eb-a2c7-4beb-83c4-2a7041dbf7bd","ios":"levelo://app?vid=84c133eb-a2c7-4beb-83c4-2a7041dbf7bd"},"vehicle_type_id":"4","last_reported":1752703882,"current_range_meters":14800,"station_id":"","pricing_plan_id":"cebpf4jnsgd1na2vs0mg"},{"bike_id":"734032c8-fecd-4dec-8378-00c6c9efc560","system_id":"levelo_inurba_marseille","lat":43.29642,"lon":5.37102,"is_reserved":false,"is_disabled":true,"rental_uris":{"android":"levelo://app?vid=734032c8-fecd-4dec-8378-00c6c9efc560","ios":"levelo://app?vid=734032c8-fecd-4dec-8378-00c6c9efc560"},"vehicle_type_id":"4","last_reported":1752703882,"current_range_meters":14800,"station_id":"","pricing_plan_id":"cebpf4jnsgd1na2vs0mg"},{"bike_id":"f58252cf-1e04-42f5-aab4-89eede447d36","system_id":"levelo_inurba_marseille","lat":43.306641,"lon":5.400613,"is_reserved":false,"is_disabled":false,"rental_uris":{"android":"levelo://app?vid=f58252cf-1e04-42f5-aab4-89eede447d36","ios":"levelo://app?vid=f58252cf-1e04-42f5-aab4-89eede447d36"},"vehicle_type_id":"4","last_reported":1752703882,"current_range_meters":14800,"station_id":"ce4bgvh2rcd13ifvqcs0","pricing_plan_id":"cebpf4jnsgd1na2vs0mg"},{"bike_id":"a863c27f-43d1-4a80-aacc-a2ff99eb004c","system_id":"levelo_inurba_marseille","lat":43.29883,"lon":5.38901,"is_reserved":false,"is_disabled":false,"rental_uris":{"android":"levelo://app?vid=a863c27f-43d1-4a80-aacc-a2ff99eb004c","ios":"levelo://app?vid=a863c27f-43d1-4a80-aacc-a2ff99eb004c"},"vehicle_type_id":"4","last_reported":1752703882,"current_range_meters":14800,"station_id":"ce4bh392rcd13ifvqdl0","pricing_plan_id":"cebpf4jnsgd1na2vs0mg"},{"bike_id":"0f469724-d119-44bc-9285-a4ce7be567ee","system_id":"levelo_inurba_marseille","lat":43.295967,"lon":5.36737,"is_reserved":false,"is_disabled":false,"rental_uris":{"android":"levelo://app?vid=0f469724-d119-44bc-9285-a4ce7be567ee","ios":"levelo://app?vid=0f469724-d119-44bc-9285-a4ce7be567ee"},"vehicle_type_id":"4","last_reported":1752703882,"current_range_meters":14800,"station_id":"ce4bgph2rcd13ifvqc2g","pricing_plan_id":"cebpf4jnsgd1na2vs0mg"},{"bike_id":"0ac495ae-107c-4a4c-882d-a9f7995b38a8","system_id":"levelo_inurba_marseille","lat":43.290335,"lon":5.399595,"is_reserved":false,"is_disabled":false,"rental_uris":{"android":"levelo://app?vid=0ac495ae-107c-4a4c-882d-a9f7995b38a8","ios":"levelo://app?vid=0ac495ae-107c-4a4c-882d-a9f7995b38a8"},"vehicle_type_id":"4","last_reported":1752703882,"current_range_meters":14800,"station_id":"ce4bh392rcd13ifvqdm0","pricing_plan_id":"cebpf4jnsgd1na2vs0mg"},{"bike_id":"668b719f-eb0a-47ac-b1f6-9771bfc25c9f","system_id":"levelo_inurba_marseille","lat":43.24246,"lon":5.37589,"is_reserved":false,"is_disabled":false,"rental_uris":{"android":"levelo://app?vid=668b719f-eb0a-47ac-b1f6-9771bfc25c9f","ios":"levelo://app?vid=668b719f-eb0a-47ac-b1f6-9771bfc25c9f"},"vehicle_type_id":"4","last_reported":1752703882,"current_range_meters":14800,"station_id":"","pricing_plan_id":"cebpf4jnsgd1na2vs0mg"},{"bike_id":"011b79d6-fd4e-4a43-b39a-554909c6320d","system_id":"levelo_inurba_marseille","lat":43.29217,"lon":5.38457,"is_reserved":false,"is_disabled":false,"rental_uris":{"android":"levelo://app?vid=011b79d6-fd4e-4a43-b39a-554909c6320d","ios":"levelo://app?vid=011b79d6-fd4e-4a43-b39a-554909c6320d"},"vehicle_type_id":"4","last_reported":1752703882,"current_range_meters":14800,"station_id":"ce4bh692rcd13ifvqea0","pricing_plan_id":"cebpf4jnsgd1na2vs0mg"},{"bike_id":"0ae6f81b-de14-4224-9490-c12ecc963935","system_id":"levelo_inurba_marseille","lat":43.29433,"lon":5.39757,"is_reserved":false,"is_disabled":false,"rental_uris":{"android":"levelo://app?vid=0ae6f81b-de14-4224-9490-c12ecc963935","ios":"levelo://app?vid=0ae6f81b-de14-4224-9490-c12ecc963935"},"vehicle_type_id":"4","last_reported":1752703882,"current_range_meters":14800,"station_id":"ce4bh3h2rcd13ifvqdo0","pricing_plan_id":"cebpf4jnsgd1na2vs0mg"},{"bike_id":"2aad0216-72a2-45b0-a34e-6ea9c45b1dfa","system_id":"levelo_inurba_marseille","lat":43.29432,"lon":5.39758,"is_reserved":false,"is_disabled":false,"rental_uris":{"android":"levelo://app?vid=2aad0216-72a2-45b0-a34e-6ea9c45b1dfa","ios":"levelo://app?vid=2aad0216-72a2-45b0-a34e-6ea9c45b1dfa"},"vehicle_type_id":"4","last_reported":1752703882,"current_range_meters":14800,"station_id":"ce4bh3h2rcd13ifvqdo0","pricing_plan_id":"cebpf4jnsgd1na2vs0mg"},{"bike_id":"d4af6391-19a0-4505-a3ce-cfc41ecc6527","system_id":"levelo_inurba_marseille","lat":43.30786,"lon":5.37647,"is_reserved":false,"is_disabled":false,"rental_uris":{"android":"levelo://app?vid=d4af6391-19a0-4505-a3ce-cfc41ecc6527","ios":"levelo://app?vid=d4af6391-19a0-4505-a3ce-cfc41ecc6527"},"vehicle_type_id":"4","last_reported":1752703882,"current_range_meters":14800,"station_id":"ce4bgv92rcd13ifvqcq0","pricing_plan_id":"cebpf4jnsgd1na2vs0mg"},{"bike_id":"0251491b-c678-423b-bd29-5a5e2bd56df5","system_id":"levelo_inurba_marseille","lat":43.24546,"lon":5.39516,"is_reserved":false,"is_disabled":false,"rental_uris":{"android":"levelo://app?vid=0251491b-c678-423b-bd29-5a5e2bd56df5","ios":"levelo://app?vid=0251491b-c678-423b-bd29-5a5e2bd56df5"},"vehicle_type_id":"4","last_reported":1752703882,"current_range_meters":15200,"station_id":"ce4bhlp2rcd13ifvqgjg","pricing_plan_id":"cebpf4jnsgd1na2vs0mg"},{"bike_id":"229a51b8-d35a-46ef-90d9-099d3d4f556b","system_id":"levelo_inurba_marseille","lat":43.2942,"lon":5.38602,"is_reserved":false,"is_disabled":true,"rental_uris":{"android":"levelo://app?vid=229a51b8-d35a-46ef-90d9-099d3d4f556b","ios":"levelo://app?vid=229a51b8-d35a-46ef-90d9-099d3d4f556b"},"vehicle_type_id":"4","last_reported":1752703882,"current_range_meters":15200,"station_id":"ce4bh2h2rcd13ifvqdh0","pricing_plan_id":"cebpf4jnsgd1na2vs0mg"},{"bike_id":"2a7cde84-3285-47b9-a73e-2775eed8fcc8","system_id":"levelo_inurba_marseille","lat":43.28483,"lon":5.38537,"is_reserved":false,"is_disabled":false,"rental_uris":{"android":"levelo://app?vid=2a7cde84-3285-47b9-a73e-2775eed8fcc8","ios":"levelo://app?vid=2a7cde84-3285-47b9-a73e-2775eed8fcc8"},"vehicle_type_id":"4","last_reported":1752703882,"current_range_meters":15200,"station_id":"ce4bh8p2rcd13ifvqeb0","pricing_plan_id":"cebpf4jnsgd1na2vs0mg"},{"bike_id":"11fa19e4-586f-4e51-8063-ea4c63f80c87","system_id":"levelo_inurba_marseille","lat":43.31326,"lon":5.39691,"is_reserved":false,"is_disabled":false,"rental_uris":{"android":"levelo://app?vid=11fa19e4-586f-4e51-8063-ea4c63f80c87","ios":"levelo://app?vid=11fa19e4-586f-4e51-8063-ea4c63f80c87"},"vehicle_type_id":"4","last_reported":1752703882,"current_range_meters":15200,"station_id":"ce4bgvp2rcd13ifvqcu0","pricing_plan_id":"cebpf4jnsgd1na2vs0mg"},{"bike_id":"2b751b92-c0f8-4447-a98b-dce05636b436","system_id":"levelo_inurba_marseille","lat":43.29539,"lon":5.38537,"is_reserved":false,"is_disabled":false,"rental_uris":{"android":"levelo://app?vid=2b751b92-c0f8-4447-a98b-dce05636b436","ios":"levelo://app?vid=2b751b92-c0f8-4447-a98b-dce05636b436"},"vehicle_type_id":"4","last_reported":1752703882,"current_range_meters":15200,"station_id":"ce4bgih2rcd13ifvqba0","pricing_plan_id":"cebpf4jnsgd1na2vs0mg"},{"bike_id":"9090e647-a713-44ba-b392-5ac73cd154dd","system_id":"levelo_inurba_marseille","lat":43.23061,"lon":5.35497,"is_reserved":false,"is_disabled":false,"rental_uris":{"android":"levelo://app?vid=9090e647-a713-44ba-b392-5ac73cd154dd","ios":"levelo://app?vid=9090e647-a713-44ba-b392-5ac73cd154dd"},"vehicle_type_id":"4","last_reported":1752703882,"current_range_meters":15200,"station_id":"cpo3342slgdg3j2ifvpg","pricing_plan_id":"cebpf4jnsgd1na2vs0mg"},{"bike_id":"bd3b285b-53f7-4f4d-94f9-3faf82d12ab5","system_id":"levelo_inurba_marseille","lat":43.2319,"lon":5.39972,"is_reserved":false,"is_disabled":false,"rental_uris":{"android":"levelo://app?vid=bd3b285b-53f7-4f4d-94f9-3faf82d12ab5","ios":"levelo://app?vid=bd3b285b-53f7-4f4d-94f9-3faf82d12ab5"},"vehicle_type_id":"4","last_reported":1752703882,"current_range_meters":15200,"station_id":"ce4bhn12rcd13ifvqgqg","pricing_plan_id":"cebpf4jnsgd1na2vs0mg"},{"bike_id":"39c6203f-25ee-487c-9399-b36ef495fc6b","system_id":"levelo_inurba_marseille","lat":43.240912,"lon":5.377232,"is_reserved":false,"is_disabled":false,"rental_uris":{"android":"levelo://app?vid=39c6203f-25ee-487c-9399-b36ef495fc6b","ios":"levelo://app?vid=39c6203f-25ee-487c-9399-b36ef495fc6b"},"vehicle_type_id":"4","last_reported":1752703882,"current_range_meters":15200,"station_id":"ce4bhnp2rcd13ifvqgvg","pricing_plan_id":"cebpf4jnsgd1na2vs0mg"},{"bike_id":"0398468c-6c0f-49fd-b525-08c45b6a4cd9","system_id":"levelo_inurba_marseille","lat":43.22504,"lon":5.34767,"is_reserved":false,"is_disabled":false,"rental_uris":{"android":"levelo://app?vid=0398468c-6c0f-49fd-b525-08c45b6a4cd9","ios":"levelo://app?vid=0398468c-6c0f-49fd-b525-08c45b6a4cd9"},"vehicle_type_id":"4","last_reported":1752703882,"current_range_meters":16000,"station_id":"st_cvj5dfep6f1abm77gieg","pricing_plan_id":"cebpf4jnsgd1na2vs0mg"},{"bike_id":"a68612b3-8ed6-4d3b-af65-4d1c84c2c21c","system_id":"levelo_inurba_marseille","lat":43.25108,"lon":5.40335,"is_reserved":false,"is_disabled":false,"rental_uris":{"android":"levelo://app?vid=a68612b3-8ed6-4d3b-af65-4d1c84c2c21c","ios":"levelo://app?vid=a68612b3-8ed6-4d3b-af65-4d1c84c2c21c"},"vehicle_type_id":"4","last_reported":1752703882,"current_range_meters":16000,"station_id":"ce4bhlh2rcd13ifvqgig","pricing_plan_id":"cebpf4jnsgd1na2vs0mg"},{"bike_id":"401c7695-3adf-41e7-93ca-9198757d5b5f","system_id":"levelo_inurba_marseille","lat":43.28658,"lon":5.38658,"is_reserved":false,"is_disabled":true,"rental_uris":{"android":"levelo://app?vid=401c7695-3adf-41e7-93ca-9198757d5b5f","ios":"levelo://app?vid=401c7695-3adf-41e7-93ca-9198757d5b5f"},"vehicle_type_id":"4","last_reported":1752703882,"current_range_meters":16000,"station_id":"ce4bh492rcd13ifvqdug","pricing_plan_id":"cebpf4jnsgd1na2vs0mg"},{"bike_id":"3a3d2a48-ab51-48f9-a225-2a719b23784c","system_id":"levelo_inurba_marseille","lat":43.296223,"lon":5.377025,"is_reserved":false,"is_disabled":false,"rental_uris":{"android":"levelo://app?vid=3a3d2a48-ab51-48f9-a225-2a719b23784c","ios":"levelo://app?vid=3a3d2a48-ab51-48f9-a225-2a719b23784c"},"vehicle_type_id":"4","last_reported":1752703882,"current_range_meters":16000,"station_id":"","pricing_plan_id":"cebpf4jnsgd1na2vs0mg"},{"bike_id":"3444bdc6-514a-4ba6-9650-f9073305e33d","system_id":"levelo_inurba_marseille","lat":43.29682,"lon":5.3698,"is_reserved":false,"is_disabled":false,"rental_uris":{"android":"levelo://app?vid=3444bdc6-514a-4ba6-9650-f9073305e33d","ios":"levelo://app?vid=3444bdc6-514a-4ba6-9650-f9073305e33d"},"vehicle_type_id":"4","last_reported":1752703882,"current_range_meters":16000,"station_id":"","pricing_plan_id":"cebpf4jnsgd1na2vs0mg"},{"bike_id":"21b948e7-b696-4860-bf03-3e616f524c72","system_id":"levelo_inurba_marseille","lat":43.29583,"lon":5.36753,"is_reserved":false,"is_disabled":false,"rental_uris":{"android":"levelo://app?vid=21b948e7-b696-4860-bf03-3e616f524c72","ios":"levelo://app?vid=21b948e7-b696-4860-bf03-3e616f524c72"},"vehicle_type_id":"4","last_reported":1752703882,"current_range_meters":16000,"station_id":"ce4bgph2rcd13ifvqc2g","pricing_plan_id":"cebpf4jnsgd1na2vs0mg"},{"bike_id":"7aa4f608-4b77-4e32-88b0-fc5ccdecdfa7","system_id":"levelo_inurba_marseille","lat":43.295824,"lon":5.367446,"is_reserved":false,"is_disabled":false,"rental_uris":{"android":"levelo://app?vid=7aa4f608-4b77-4e32-88b0-fc5ccdecdfa7","ios":"levelo://app?vid=7aa4f608-4b77-4e32-88b0-fc5ccdecdfa7"},"vehicle_type_id":"4","last_reported":1752703882,"current_range_meters":16000,"station_id":"ce4bgph2rcd13ifvqc2g","pricing_plan_id":"cebpf4jnsgd1na2vs0mg"},{"bike_id":"ec8ad7ef-2e2a-423a-8431-cd3ef1cf15a8","system_id":"levelo_inurba_marseille","lat":43.28932,"lon":5.38385,"is_reserved":false,"is_disabled":false,"rental_uris":{"android":"levelo://app?vid=ec8ad7ef-2e2a-423a-8431-cd3ef1cf15a8","ios":"levelo://app?vid=ec8ad7ef-2e2a-423a-8431-cd3ef1cf15a8"},"vehicle_type_id":"4","last_reported":1752703882,"current_range_meters":16000,"station_id":"ce4bh612rcd13ifvqe6g","pricing_plan_id":"cebpf4jnsgd1na2vs0mg"},{"bike_id":"555bc53e-5286-4fb6-9154-af42b3fd9792","system_id":"levelo_inurba_marseille","lat":43.30063,"lon":5.37293,"is_reserved":false,"is_disabled":false,"rental_uris":{"android":"levelo://app?vid=555bc53e-5286-4fb6-9154-af42b3fd9792","ios":"levelo://app?vid=555bc53e-5286-4fb6-9154-af42b3fd9792"},"vehicle_type_id":"4","last_reported":1752703882,"current_range_meters":16000,"station_id":"","pricing_plan_id":"cebpf4jnsgd1na2vs0mg"},{"bike_id":"41e52042-9aec-491e-a8ad-48847e940eea","system_id":"levelo_inurba_marseille","lat":43.22937,"lon":5.35376,"is_reserved":false,"is_disabled":false,"rental_uris":{"android":"levelo://app?vid=41e52042-9aec-491e-a8ad-48847e940eea","ios":"levelo://app?vid=41e52042-9aec-491e-a8ad-48847e940eea"},"vehicle_type_id":"4","last_reported":1752703882,"current_range_meters":16000,"station_id":"cpo3532slgdg3j2ikp40","pricing_plan_id":"cebpf4jnsgd1na2vs0mg"},{"bike_id":"285aaa26-07be-4c4a-9be9-3c0873597bc5","system_id":"levelo_inurba_marseille","lat":43.29582,"lon":5.36753,"is_reserved":false,"is_disabled":false,"rental_uris":{"android":"levelo://app?vid=285aaa26-07be-4c4a-9be9-3c0873597bc5","ios":"levelo://app?vid=285aaa26-07be-4c4a-9be9-3c0873597bc5"},"vehicle_type_id":"4","last_reported":1752703882,"current_range_meters":16000,"station_id":"ce4bgph2rcd13ifvqc2g","pricing_plan_id":"cebpf4jnsgd1na2vs0mg"},{"bike_id":"8c1cb90f-796f-475c-b1be-ecf66057c39d","system_id":"levelo_inurba_marseille","lat":43.31327,"lon":5.397,"is_reserved":false,"is_disabled":false,"rental_uris":{"android":"levelo://app?vid=8c1cb90f-796f-475c-b1be-ecf66057c39d","ios":"levelo://app?vid=8c1cb90f-796f-475c-b1be-ecf66057c39d"},"vehicle_type_id":"4","last_reported":1752703882,"current_range_meters":16000,"station_id":"ce4bgvp2rcd13ifvqcu0","pricing_plan_id":"cebpf4jnsgd1na2vs0mg"},{"bike_id":"243ff24d-c224-4f6c-8766-a9a443123038","system_id":"levelo_inurba_marseille","lat":43.23953,"lon":5.36647,"is_reserved":false,"is_disabled":false,"rental_uris":{"android":"levelo://app?vid=243ff24d-c224-4f6c-8766-a9a443123038","ios":"levelo://app?vid=243ff24d-c224-4f6c-8766-a9a443123038"},"vehicle_type_id":"4","last_reported":1752703882,"current_range_meters":16000,"station_id":"ce4bhi12rcd13ifvqfp0","pricing_plan_id":"cebpf4jnsgd1na2vs0mg"},{"bike_id":"b0913f93-a684-4140-9689-82edfbc4235d","system_id":"levelo_inurba_marseille","lat":43.21184,"lon":5.3508,"is_reserved":false,"is_disabled":false,"rental_uris":{"android":"levelo://app?vid=b0913f93-a684-4140-9689-82edfbc4235d","ios":"levelo://app?vid=b0913f93-a684-4140-9689-82edfbc4235d"},"vehicle_type_id":"4","last_reported":1752703882,"current_range_meters":16400,"station_id":"st_cvj6sg6p6f1abm77japg","pricing_plan_id":"cebpf4jnsgd1na2vs0mg"},{"bike_id":"3730493c-a9f9-4e4f-8b89-3ae177fe5c00","system_id":"levelo_inurba_marseille","lat":43.295743,"lon":5.399714,"is_reserved":false,"is_disabled":false,"rental_uris":{"android":"levelo://app?vid=3730493c-a9f9-4e4f-8b89-3ae177fe5c00","ios":"levelo://app?vid=3730493c-a9f9-4e4f-8b89-3ae177fe5c00"},"vehicle_type_id":"4","last_reported":1752703882,"current_range_meters":16400,"station_id":"ce4bh312rcd13ifvqdj0","pricing_plan_id":"cebpf4jnsgd1na2vs0mg"},{"bike_id":"34e62ee5-3131-428c-842a-9ad03de94ba5","system_id":"levelo_inurba_marseille","lat":43.22469,"lon":5.34735,"is_reserved":false,"is_disabled":false,"rental_uris":{"android":"levelo://app?vid=34e62ee5-3131-428c-842a-9ad03de94ba5","ios":"levelo://app?vid=34e62ee5-3131-428c-842a-9ad03de94ba5"},"vehicle_type_id":"4","last_reported":1752703882,"current_range_meters":16400,"station_id":"","pricing_plan_id":"cebpf4jnsgd1na2vs0mg"},{"bike_id":"5ee72fdb-7a3a-4f38-9f44-3345045a40f2","system_id":"levelo_inurba_marseille","lat":43.30757,"lon":5.37663,"is_reserved":false,"is_disabled":false,"rental_uris":{"android":"levelo://app?vid=5ee72fdb-7a3a-4f38-9f44-3345045a40f2","ios":"levelo://app?vid=5ee72fdb-7a3a-4f38-9f44-3345045a40f2"},"vehicle_type_id":"4","last_reported":1752703882,"current_range_meters":16400,"station_id":"ce4bgv92rcd13ifvqcq0","pricing_plan_id":"cebpf4jnsgd1na2vs0mg"},{"bike_id":"30c08ad4-8571-4cdc-999a-fb8e446282f5","system_id":"levelo_inurba_marseille","lat":43.30142,"lon":5.3742,"is_reserved":false,"is_disabled":false,"rental_uris":{"android":"levelo://app?vid=30c08ad4-8571-4cdc-999a-fb8e446282f5","ios":"levelo://app?vid=30c08ad4-8571-4cdc-999a-fb8e446282f5"},"vehicle_type_id":"4","last_reported":1752703882,"current_range_meters":16400,"station_id":"ce4bgs92rcd13ifvqcc0","pricing_plan_id":"cebpf4jnsgd1na2vs0mg"},{"bike_id":"07f5ae19-0925-43ef-aab4-48ec58bc62b9","system_id":"levelo_inurba_marseille","lat":43.3144,"lon":5.37449,"is_reserved":false,"is_disabled":false,"rental_uris":{"android":"levelo://app?vid=07f5ae19-0925-43ef-aab4-48ec58bc62b9","ios":"levelo://app?vid=07f5ae19-0925-43ef-aab4-48ec58bc62b9"},"vehicle_type_id":"4","last_reported":1752703882,"current_range_meters":16400,"station_id":"","pricing_plan_id":"cebpf4jnsgd1na2vs0mg"},{"bike_id":"8417ad62-2136-4647-b89c-f46e0aabae59","system_id":"levelo_inurba_marseille","lat":43.22924,"lon":5.35372,"is_reserved":false,"is_disabled":false,"rental_uris":{"android":"levelo://app?vid=8417ad62-2136-4647-b89c-f46e0aabae59","ios":"levelo://app?vid=8417ad62-2136-4647-b89c-f46e0aabae59"},"vehicle_type_id":"4","last_reported":1752703882,"current_range_meters":16400,"station_id":"cpo3532slgdg3j2ikp40","pricing_plan_id":"cebpf4jnsgd1na2vs0mg"},{"bike_id":"23aea49e-3be5-46af-b900-481df4dbf21f","system_id":"levelo_inurba_marseille","lat":43.29194,"lon":5.39335,"is_reserved":false,"is_disabled":false,"rental_uris":{"android":"levelo://app?vid=23aea49e-3be5-46af-b900-481df4dbf21f","ios":"levelo://app?vid=23aea49e-3be5-46af-b900-481df4dbf21f"},"vehicle_type_id":"4","last_reported":1752703882,"current_range_meters":16400,"station_id":"ce4bh192rcd13ifvqdd0","pricing_plan_id":"cebpf4jnsgd1na2vs0mg"},{"bike_id":"f6e67167-3686-4cae-82da-4610049996dc","system_id":"levelo_inurba_marseille","lat":43.26924,"lon":5.38515,"is_reserved":false,"is_disabled":false,"rental_uris":{"android":"levelo://app?vid=f6e67167-3686-4cae-82da-4610049996dc","ios":"levelo://app?vid=f6e67167-3686-4cae-82da-4610049996dc"},"vehicle_type_id":"4","last_reported":1752703882,"current_range_meters":16800,"station_id":"","pricing_plan_id":"cebpf4jnsgd1na2vs0mg"},{"bike_id":"697b62b6-8043-4f88-8466-e07cc3b9d930","system_id":"levelo_inurba_marseille","lat":43.30307,"lon":5.3761,"is_reserved":false,"is_disabled":false,"rental_uris":{"android":"levelo://app?vid=697b62b6-8043-4f88-8466-e07cc3b9d930","ios":"levelo://app?vid=697b62b6-8043-4f88-8466-e07cc3b9d930"},"vehicle_type_id":"4","last_reported":1752703882,"current_range_meters":16800,"station_id":"","pricing_plan_id":"cebpf4jnsgd1na2vs0mg"},{"bike_id":"8acdf02c-787e-4a1e-956a-5c94a3dff06a","system_id":"levelo_inurba_marseille","lat":43.28512,"lon":5.40605,"is_reserved":false,"is_disabled":false,"rental_uris":{"android":"levelo://app?vid=8acdf02c-787e-4a1e-956a-5c94a3dff06a","ios":"levelo://app?vid=8acdf02c-787e-4a1e-956a-5c94a3dff06a"},"vehicle_type_id":"4","last_reported":1752703882,"current_range_meters":16800,"station_id":"","pricing_plan_id":"cebpf4jnsgd1na2vs0mg"},{"bike_id":"55a56657-0bfd-41c0-a74c-ae591728d61b","system_id":"levelo_inurba_marseille","lat":43.29974,"lon":5.37178,"is_reserved":false,"is_disabled":false,"rental_uris":{"android":"levelo://app?vid=55a56657-0bfd-41c0-a74c-ae591728d61b","ios":"levelo://app?vid=55a56657-0bfd-41c0-a74c-ae591728d61b"},"vehicle_type_id":"4","last_reported":1752703882,"current_range_meters":16800,"station_id":"ce4bgr92rcd13ifvqc7g","pricing_plan_id":"cebpf4jnsgd1na2vs0mg"},{"bike_id":"c5b90204-3ee7-4663-ba14-96a5ff04e472","system_id":"levelo_inurba_marseille","lat":43.30794,"lon":5.381668,"is_reserved":false,"is_disabled":false,"rental_uris":{"android":"levelo://app?vid=c5b90204-3ee7-4663-ba14-96a5ff04e472","ios":"levelo://app?vid=c5b90204-3ee7-4663-ba14-96a5ff04e472"},"vehicle_type_id":"4","last_reported":1752703882,"current_range_meters":16800,"station_id":"ce4bgt12rcd13ifvqce0","pricing_plan_id":"cebpf4jnsgd1na2vs0mg"},{"bike_id":"104cd1e4-1fb5-4e06-afca-c39f3fac5306","system_id":"levelo_inurba_marseille","lat":43.284483,"lon":5.384215,"is_reserved":false,"is_disabled":false,"rental_uris":{"android":"levelo://app?vid=104cd1e4-1fb5-4e06-afca-c39f3fac5306","ios":"levelo://app?vid=104cd1e4-1fb5-4e06-afca-c39f3fac5306"},"vehicle_type_id":"4","last_reported":1752703882,"current_range_meters":16800,"station_id":"ce4bh512rcd13ifvqe3g","pricing_plan_id":"cebpf4jnsgd1na2vs0mg"},{"bike_id":"bb0f8215-7000-4495-a738-6aa238d8ff6d","system_id":"levelo_inurba_marseille","lat":43.29316,"lon":5.371782,"is_reserved":false,"is_disabled":false,"rental_uris":{"android":"levelo://app?vid=bb0f8215-7000-4495-a738-6aa238d8ff6d","ios":"levelo://app?vid=bb0f8215-7000-4495-a738-6aa238d8ff6d"},"vehicle_type_id":"4","last_reported":1752703882,"current_range_meters":17200,"station_id":"ce4bgh92rcd13ifvqb40","pricing_plan_id":"cebpf4jnsgd1na2vs0mg"},{"bike_id":"15e281ac-ac0d-4b6f-b426-fa5c002bd7ee","system_id":"levelo_inurba_marseille","lat":43.27681,"lon":5.38913,"is_reserved":false,"is_disabled":true,"rental_uris":{"android":"levelo://app?vid=15e281ac-ac0d-4b6f-b426-fa5c002bd7ee","ios":"levelo://app?vid=15e281ac-ac0d-4b6f-b426-fa5c002bd7ee"},"vehicle_type_id":"4","last_reported":1752703882,"current_range_meters":17200,"station_id":"ce4bhi12rcd13ifvqfo0","pricing_plan_id":"cebpf4jnsgd1na2vs0mg"},{"bike_id":"045a641b-5c1f-49de-960c-1fbe47651d2b","system_id":"levelo_inurba_marseille","lat":43.29281,"lon":5.40179,"is_reserved":false,"is_disabled":false,"rental_uris":{"android":"levelo://app?vid=045a641b-5c1f-49de-960c-1fbe47651d2b","ios":"levelo://app?vid=045a641b-5c1f-49de-960c-1fbe47651d2b"},"vehicle_type_id":"4","last_reported":1752703882,"current_range_meters":17200,"station_id":"","pricing_plan_id":"cebpf4jnsgd1na2vs0mg"},{"bike_id":"2c530ba2-e2e5-4965-9a28-e0cbd9937b0c","system_id":"levelo_inurba_marseille","lat":43.292304,"lon":5.360492,"is_reserved":false,"is_disabled":true,"rental_uris":{"android":"levelo://app?vid=2c530ba2-e2e5-4965-9a28-e0cbd9937b0c","ios":"levelo://app?vid=2c530ba2-e2e5-4965-9a28-e0cbd9937b0c"},"vehicle_type_id":"4","last_reported":1752703882,"current_range_meters":17200,"station_id":"","pricing_plan_id":"cebpf4jnsgd1na2vs0mg"},{"bike_id":"6fe460e7-d585-4ded-9df4-8fb5354e13b2","system_id":"levelo_inurba_marseille","lat":43.27106,"lon":5.4024,"is_reserved":false,"is_disabled":false,"rental_uris":{"android":"levelo://app?vid=6fe460e7-d585-4ded-9df4-8fb5354e13b2","ios":"levelo://app?vid=6fe460e7-d585-4ded-9df4-8fb5354e13b2"},"vehicle_type_id":"4","last_reported":1752703882,"current_range_meters":17200,"station_id":"ce4bhk92rcd13ifvqgc0","pricing_plan_id":"cebpf4jnsgd1na2vs0mg"},{"bike_id":"ec1422a2-46c9-4a99-bcc0-7fcd4fec673d","system_id":"levelo_inurba_marseille","lat":43.30091,"lon":5.39071,"is_reserved":false,"is_disabled":false,"rental_uris":{"android":"levelo://app?vid=ec1422a2-46c9-4a99-bcc0-7fcd4fec673d","ios":"levelo://app?vid=ec1422a2-46c9-4a99-bcc0-7fcd4fec673d"},"vehicle_type_id":"4","last_reported":1752703882,"current_range_meters":17200,"station_id":"ce4bh192rcd13ifvqdb0","pricing_plan_id":"cebpf4jnsgd1na2vs0mg"},{"bike_id":"2390696d-7188-4b65-a2ec-c9ee75939806","system_id":"levelo_inurba_marseille","lat":43.28692,"lon":5.40011,"is_reserved":false,"is_disabled":false,"rental_uris":{"android":"levelo://app?vid=2390696d-7188-4b65-a2ec-c9ee75939806","ios":"levelo://app?vid=2390696d-7188-4b65-a2ec-c9ee75939806"},"vehicle_type_id":"4","last_reported":1752703882,"current_range_meters":17200,"station_id":"ce4bho92rcd13ifvqh3g","pricing_plan_id":"cebpf4jnsgd1na2vs0mg"},{"bike_id":"ed95837f-07e7-4a7f-a555-8c7f94bcecc6","system_id":"levelo_inurba_marseille","lat":43.28437,"lon":5.39197,"is_reserved":false,"is_disabled":false,"rental_uris":{"android":"levelo://app?vid=ed95837f-07e7-4a7f-a555-8c7f94bcecc6","ios":"levelo://app?vid=ed95837f-07e7-4a7f-a555-8c7f94bcecc6"},"vehicle_type_id":"4","last_reported":1752703882,"current_range_meters":17200,"station_id":"ce4bhoh2rcd13ifvqh5g","pricing_plan_id":"cebpf4jnsgd1na2vs0mg"},{"bike_id":"8716a6dc-edc9-4ce8-b2db-da4e68c247be","system_id":"levelo_inurba_marseille","lat":43.29539,"lon":5.38552,"is_reserved":false,"is_disabled":true,"rental_uris":{"android":"levelo://app?vid=8716a6dc-edc9-4ce8-b2db-da4e68c247be","ios":"levelo://app?vid=8716a6dc-edc9-4ce8-b2db-da4e68c247be"},"vehicle_type_id":"4","last_reported":1752703882,"current_range_meters":17600,"station_id":"ce4bgih2rcd13ifvqba0","pricing_plan_id":"cebpf4jnsgd1na2vs0mg"},{"bike_id":"1a1de22c-864f-4087-990e-227151d55abc","system_id":"levelo_inurba_marseille","lat":43.21213,"lon":5.35076,"is_reserved":false,"is_disabled":false,"rental_uris":{"android":"levelo://app?vid=1a1de22c-864f-4087-990e-227151d55abc","ios":"levelo://app?vid=1a1de22c-864f-4087-990e-227151d55abc"},"vehicle_type_id":"4","last_reported":1752703882,"current_range_meters":17600,"station_id":"st_cvj6sg6p6f1abm77japg","pricing_plan_id":"cebpf4jnsgd1na2vs0mg"},{"bike_id":"855ff8f9-641c-41af-8e00-5d71e1a04e0f","system_id":"levelo_inurba_marseille","lat":43.22493,"lon":5.34783,"is_reserved":false,"is_disabled":false,"rental_uris":{"android":"levelo://app?vid=855ff8f9-641c-41af-8e00-5d71e1a04e0f","ios":"levelo://app?vid=855ff8f9-641c-41af-8e00-5d71e1a04e0f"},"vehicle_type_id":"4","last_reported":1752703882,"current_range_meters":17600,"station_id":"st_cvj5dfep6f1abm77gieg","pricing_plan_id":"cebpf4jnsgd1na2vs0mg"},{"bike_id":"467f77af-cf0a-44b4-9fde-b81e9ad49558","system_id":"levelo_inurba_marseille","lat":43.28459,"lon":5.35887,"is_reserved":false,"is_disabled":false,"rental_uris":{"android":"levelo://app?vid=467f77af-cf0a-44b4-9fde-b81e9ad49558","ios":"levelo://app?vid=467f77af-cf0a-44b4-9fde-b81e9ad49558"},"vehicle_type_id":"4","last_reported":1752703882,"current_range_meters":17600,"station_id":"ce4bhah2rcd13ifvqei0","pricing_plan_id":"cebpf4jnsgd1na2vs0mg"},{"bike_id":"012332f9-a776-43c4-9db3-01b19351c5f0","system_id":"levelo_inurba_marseille","lat":43.27818,"lon":5.4071,"is_reserved":false,"is_disabled":false,"rental_uris":{"android":"levelo://app?vid=012332f9-a776-43c4-9db3-01b19351c5f0","ios":"levelo://app?vid=012332f9-a776-43c4-9db3-01b19351c5f0"},"vehicle_type_id":"4","last_reported":1752703882,"current_range_meters":17600,"station_id":"ce4bhnh2rcd13ifvqgtg","pricing_plan_id":"cebpf4jnsgd1na2vs0mg"},{"bike_id":"b61e612a-6479-4610-bef1-327fe832e790","system_id":"levelo_inurba_marseille","lat":43.29252,"lon":5.40903,"is_reserved":false,"is_disabled":false,"rental_uris":{"android":"levelo://app?vid=b61e612a-6479-4610-bef1-327fe832e790","ios":"levelo://app?vid=b61e612a-6479-4610-bef1-327fe832e790"},"vehicle_type_id":"4","last_reported":1752703882,"current_range_meters":18000,"station_id":"ce4bh192rcd13ifvqdc0","pricing_plan_id":"cebpf4jnsgd1na2vs0mg"},{"bike_id":"776a57f2-0b79-4f37-b367-4ddbc5cff113","system_id":"levelo_inurba_marseille","lat":43.30323,"lon":5.4043,"is_reserved":false,"is_disabled":false,"rental_uris":{"android":"levelo://app?vid=776a57f2-0b79-4f37-b367-4ddbc5cff113","ios":"levelo://app?vid=776a57f2-0b79-4f37-b367-4ddbc5cff113"},"vehicle_type_id":"4","last_reported":1752703882,"current_range_meters":18000,"station_id":"ce4bh012rcd13ifvqd10","pricing_plan_id":"cebpf4jnsgd1na2vs0mg"},{"bike_id":"2e52c340-5a15-427d-9501-98b544c14876","system_id":"levelo_inurba_marseille","lat":43.29567,"lon":5.39969,"is_reserved":false,"is_disabled":true,"rental_uris":{"android":"levelo://app?vid=2e52c340-5a15-427d-9501-98b544c14876","ios":"levelo://app?vid=2e52c340-5a15-427d-9501-98b544c14876"},"vehicle_type_id":"4","last_reported":1752703882,"current_range_meters":18000,"station_id":"ce4bh312rcd13ifvqdj0","pricing_plan_id":"cebpf4jnsgd1na2vs0mg"},{"bike_id":"294aa51e-9684-4df0-9322-7b5019e25696","system_id":"levelo_inurba_marseille","lat":43.31279,"lon":5.4016,"is_reserved":false,"is_disabled":false,"rental_uris":{"android":"levelo://app?vid=294aa51e-9684-4df0-9322-7b5019e25696","ios":"levelo://app?vid=294aa51e-9684-4df0-9322-7b5019e25696"},"vehicle_type_id":"4","last_reported":1752703882,"current_range_meters":18000,"station_id":"ce4bh092rcd13ifvqd30","pricing_plan_id":"cebpf4jnsgd1na2vs0mg"},{"bike_id":"e67cdc77-5d14-4d4e-b184-ae70838c8aa2","system_id":"levelo_inurba_marseille","lat":43.30892,"lon":5.37185,"is_reserved":false,"is_disabled":false,"rental_uris":{"android":"levelo://app?vid=e67cdc77-5d14-4d4e-b184-ae70838c8aa2","ios":"levelo://app?vid=e67cdc77-5d14-4d4e-b184-ae70838c8aa2"},"vehicle_type_id":"4","last_reported":1752703882,"current_range_meters":18000,"station_id":"ce4bguh2rcd13ifvqckg","pricing_plan_id":"cebpf4jnsgd1na2vs0mg"},{"bike_id":"1dee3045-62aa-4e3c-8e0e-cd35af9324b2","system_id":"levelo_inurba_marseille","lat":43.23074,"lon":5.35506,"is_reserved":false,"is_disabled":false,"rental_uris":{"android":"levelo://app?vid=1dee3045-62aa-4e3c-8e0e-cd35af9324b2","ios":"levelo://app?vid=1dee3045-62aa-4e3c-8e0e-cd35af9324b2"},"vehicle_type_id":"4","last_reported":1752703882,"current_range_meters":18000,"station_id":"cpo3342slgdg3j2ifvpg","pricing_plan_id":"cebpf4jnsgd1na2vs0mg"},{"bike_id":"a6c07508-97e3-4f3c-8dd3-42872318f0ce","system_id":"levelo_inurba_marseille","lat":43.2956,"lon":5.36754,"is_reserved":false,"is_disabled":false,"rental_uris":{"android":"levelo://app?vid=a6c07508-97e3-4f3c-8dd3-42872318f0ce","ios":"levelo://app?vid=a6c07508-97e3-4f3c-8dd3-42872318f0ce"},"vehicle_type_id":"4","last_reported":1752703882,"current_range_meters":18000,"station_id":"ce4bgph2rcd13ifvqc2g","pricing_plan_id":"cebpf4jnsgd1na2vs0mg"},{"bike_id":"2ac93549-5c94-4228-8eea-782a21384d10","system_id":"levelo_inurba_marseille","lat":43.29634,"lon":5.37793,"is_reserved":false,"is_disabled":false,"rental_uris":{"android":"levelo://app?vid=2ac93549-5c94-4228-8eea-782a21384d10","ios":"levelo://app?vid=2ac93549-5c94-4228-8eea-782a21384d10"},"vehicle_type_id":"4","last_reported":1752703882,"current_range_meters":18000,"station_id":"","pricing_plan_id":"cebpf4jnsgd1na2vs0mg"},{"bike_id":"1af876d9-6e0a-45cc-bed9-deae0b87ca9c","system_id":"levelo_inurba_marseille","lat":43.211935,"lon":5.350716,"is_reserved":false,"is_disabled":false,"rental_uris":{"android":"levelo://app?vid=1af876d9-6e0a-45cc-bed9-deae0b87ca9c","ios":"levelo://app?vid=1af876d9-6e0a-45cc-bed9-deae0b87ca9c"},"vehicle_type_id":"4","last_reported":1752703882,"current_range_meters":18000,"station_id":"st_cvj6sg6p6f1abm77japg","pricing_plan_id":"cebpf4jnsgd1na2vs0mg"},{"bike_id":"582d5e63-4946-44ff-8da5-cdf3e52be7b6","system_id":"levelo_inurba_marseille","lat":43.27048,"lon":5.40258,"is_reserved":false,"is_disabled":false,"rental_uris":{"android":"levelo://app?vid=582d5e63-4946-44ff-8da5-cdf3e52be7b6","ios":"levelo://app?vid=582d5e63-4946-44ff-8da5-cdf3e52be7b6"},"vehicle_type_id":"4","last_reported":1752703882,"current_range_meters":18000,"station_id":"ce4bhk92rcd13ifvqgc0","pricing_plan_id":"cebpf4jnsgd1na2vs0mg"},{"bike_id":"531dca68-8617-41b0-a6cd-abffc94e1d45","system_id":"levelo_inurba_marseille","lat":43.31189,"lon":5.37371,"is_reserved":false,"is_disabled":false,"rental_uris":{"android":"levelo://app?vid=531dca68-8617-41b0-a6cd-abffc94e1d45","ios":"levelo://app?vid=531dca68-8617-41b0-a6cd-abffc94e1d45"},"vehicle_type_id":"4","last_reported":1752703882,"current_range_meters":18000,"station_id":"","pricing_plan_id":"cebpf4jnsgd1na2vs0mg"},{"bike_id":"256374d2-a2ac-474f-9102-2ba00255989e","system_id":"levelo_inurba_marseille","lat":43.31014,"lon":5.38394,"is_reserved":false,"is_disabled":false,"rental_uris":{"android":"levelo://app?vid=256374d2-a2ac-474f-9102-2ba00255989e","ios":"levelo://app?vid=256374d2-a2ac-474f-9102-2ba00255989e"},"vehicle_type_id":"4","last_reported":1752703882,"current_range_meters":18000,"station_id":"","pricing_plan_id":"cebpf4jnsgd1na2vs0mg"},{"bike_id":"2bc234de-f51b-42c3-8f28-3a0b754832c2","system_id":"levelo_inurba_marseille","lat":43.281571,"lon":5.386043,"is_reserved":false,"is_disabled":false,"rental_uris":{"android":"levelo://app?vid=2bc234de-f51b-42c3-8f28-3a0b754832c2","ios":"levelo://app?vid=2bc234de-f51b-42c3-8f28-3a0b754832c2"},"vehicle_type_id":"4","last_reported":1752703882,"current_range_meters":18000,"station_id":"ce4bh492rcd13ifvqdvg","pricing_plan_id":"cebpf4jnsgd1na2vs0mg"},{"bike_id":"1a9b7758-faea-40ad-99f3-dc2930fb28cb","system_id":"levelo_inurba_marseille","lat":43.30311,"lon":5.36885,"is_reserved":false,"is_disabled":false,"rental_uris":{"android":"levelo://app?vid=1a9b7758-faea-40ad-99f3-dc2930fb28cb","ios":"levelo://app?vid=1a9b7758-faea-40ad-99f3-dc2930fb28cb"},"vehicle_type_id":"4","last_reported":1752703882,"current_range_meters":18800,"station_id":"ce4bgqh2rcd13ifvqc5g","pricing_plan_id":"cebpf4jnsgd1na2vs0mg"},{"bike_id":"370b5495-4112-49cd-80ba-c31203562c50","system_id":"levelo_inurba_marseille","lat":43.30239,"lon":5.38107,"is_reserved":false,"is_disabled":false,"rental_uris":{"android":"levelo://app?vid=370b5495-4112-49cd-80ba-c31203562c50","ios":"levelo://app?vid=370b5495-4112-49cd-80ba-c31203562c50"},"vehicle_type_id":"4","last_reported":1752703882,"current_range_meters":18800,"station_id":"","pricing_plan_id":"cebpf4jnsgd1na2vs0mg"},{"bike_id":"a092d05c-8017-44f5-ba8a-35792463d6a3","system_id":"levelo_inurba_marseille","lat":43.22512,"lon":5.34782,"is_reserved":false,"is_disabled":false,"rental_uris":{"android":"levelo://app?vid=a092d05c-8017-44f5-ba8a-35792463d6a3","ios":"levelo://app?vid=a092d05c-8017-44f5-ba8a-35792463d6a3"},"vehicle_type_id":"4","last_reported":1752703882,"current_range_meters":18800,"station_id":"st_cvj5dfep6f1abm77gieg","pricing_plan_id":"cebpf4jnsgd1na2vs0mg"},{"bike_id":"da891840-0cec-4ccc-961c-48903736c6fa","system_id":"levelo_inurba_marseille","lat":43.31139,"lon":5.37692,"is_reserved":false,"is_disabled":false,"rental_uris":{"android":"levelo://app?vid=da891840-0cec-4ccc-961c-48903736c6fa","ios":"levelo://app?vid=da891840-0cec-4ccc-961c-48903736c6fa"},"vehicle_type_id":"4","last_reported":1752703882,"current_range_meters":18800,"station_id":"","pricing_plan_id":"cebpf4jnsgd1na2vs0mg"},{"bike_id":"4f62a7de-3a5f-4388-a399-ec029c869c49","system_id":"levelo_inurba_marseille","lat":43.2796,"lon":5.4272,"is_reserved":false,"is_disabled":false,"rental_uris":{"android":"levelo://app?vid=4f62a7de-3a5f-4388-a399-ec029c869c49","ios":"levelo://app?vid=4f62a7de-3a5f-4388-a399-ec029c869c49"},"vehicle_type_id":"4","last_reported":1752703882,"current_range_meters":18800,"station_id":"","pricing_plan_id":"cebpf4jnsgd1na2vs0mg"},{"bike_id":"a061d2bc-de97-4db1-bee5-c64fa9c12bb7","system_id":"levelo_inurba_marseille","lat":43.29237,"lon":5.38443,"is_reserved":false,"is_disabled":false,"rental_uris":{"android":"levelo://app?vid=a061d2bc-de97-4db1-bee5-c64fa9c12bb7","ios":"levelo://app?vid=a061d2bc-de97-4db1-bee5-c64fa9c12bb7"},"vehicle_type_id":"4","last_reported":1752703882,"current_range_meters":18800,"station_id":"ce4bh692rcd13ifvqea0","pricing_plan_id":"cebpf4jnsgd1na2vs0mg"},{"bike_id":"82bbbe1a-45ed-4a7f-9034-2f5396e8d408","system_id":"levelo_inurba_marseille","lat":43.285767,"lon":5.394905,"is_reserved":false,"is_disabled":false,"rental_uris":{"android":"levelo://app?vid=82bbbe1a-45ed-4a7f-9034-2f5396e8d408","ios":"levelo://app?vid=82bbbe1a-45ed-4a7f-9034-2f5396e8d408"},"vehicle_type_id":"4","last_reported":1752703882,"current_range_meters":18800,"station_id":"ce4bh292rcd13ifvqdg0","pricing_plan_id":"cebpf4jnsgd1na2vs0mg"},{"bike_id":"e02bf6aa-747e-493c-b6d2-76965ea485ef","system_id":"levelo_inurba_marseille","lat":43.295723,"lon":5.375196,"is_reserved":false,"is_disabled":false,"rental_uris":{"android":"levelo://app?vid=e02bf6aa-747e-493c-b6d2-76965ea485ef","ios":"levelo://app?vid=e02bf6aa-747e-493c-b6d2-76965ea485ef"},"vehicle_type_id":"4","last_reported":1752703882,"current_range_meters":18800,"station_id":"","pricing_plan_id":"cebpf4jnsgd1na2vs0mg"},{"bike_id":"d6c0be6c-089c-42c8-b0aa-4145ebdfbe46","system_id":"levelo_inurba_marseille","lat":43.25721,"lon":5.41112,"is_reserved":false,"is_disabled":false,"rental_uris":{"android":"levelo://app?vid=d6c0be6c-089c-42c8-b0aa-4145ebdfbe46","ios":"levelo://app?vid=d6c0be6c-089c-42c8-b0aa-4145ebdfbe46"},"vehicle_type_id":"4","last_reported":1752703882,"current_range_meters":18800,"station_id":"ce4bhkp2rcd13ifvqgd0","pricing_plan_id":"cebpf4jnsgd1na2vs0mg"},{"bike_id":"409515f8-3415-426d-b0c7-61f840c7c187","system_id":"levelo_inurba_marseille","lat":43.22479,"lon":5.34805,"is_reserved":false,"is_disabled":false,"rental_uris":{"android":"levelo://app?vid=409515f8-3415-426d-b0c7-61f840c7c187","ios":"levelo://app?vid=409515f8-3415-426d-b0c7-61f840c7c187"},"vehicle_type_id":"4","last_reported":1752703882,"current_range_meters":18800,"station_id":"st_cvj5dfep6f1abm77gieg","pricing_plan_id":"cebpf4jnsgd1na2vs0mg"},{"bike_id":"81f88721-00d0-431c-83bf-446e11578408","system_id":"levelo_inurba_marseille","lat":43.22498,"lon":5.34777,"is_reserved":false,"is_disabled":false,"rental_uris":{"android":"levelo://app?vid=81f88721-00d0-431c-83bf-446e11578408","ios":"levelo://app?vid=81f88721-00d0-431c-83bf-446e11578408"},"vehicle_type_id":"4","last_reported":1752703882,"current_range_meters":18800,"station_id":"st_cvj5dfep6f1abm77gieg","pricing_plan_id":"cebpf4jnsgd1na2vs0mg"},{"bike_id":"4a852003-dbf6-4d57-9a12-dfb80c056765","system_id":"levelo_inurba_marseille","lat":43.27444,"lon":5.39402,"is_reserved":false,"is_disabled":false,"rental_uris":{"android":"levelo://app?vid=4a852003-dbf6-4d57-9a12-dfb80c056765","ios":"levelo://app?vid=4a852003-dbf6-4d57-9a12-dfb80c056765"},"vehicle_type_id":"4","last_reported":1752703882,"current_range_meters":19200,"station_id":"ce4bhdp2rcd13ifvqf20","pricing_plan_id":"cebpf4jnsgd1na2vs0mg"},{"bike_id":"2dabb056-9942-462f-ba8a-aa719d178b8f","system_id":"levelo_inurba_marseille","lat":43.29529,"lon":5.38541,"is_reserved":false,"is_disabled":false,"rental_uris":{"android":"levelo://app?vid=2dabb056-9942-462f-ba8a-aa719d178b8f","ios":"levelo://app?vid=2dabb056-9942-462f-ba8a-aa719d178b8f"},"vehicle_type_id":"4","last_reported":1752703882,"current_range_meters":19200,"station_id":"ce4bgih2rcd13ifvqba0","pricing_plan_id":"cebpf4jnsgd1na2vs0mg"},{"bike_id":"bc79729c-7853-446d-8c30-5a29593562a6","system_id":"levelo_inurba_marseille","lat":43.28153,"lon":5.42642,"is_reserved":false,"is_disabled":false,"rental_uris":{"android":"levelo://app?vid=bc79729c-7853-446d-8c30-5a29593562a6","ios":"levelo://app?vid=bc79729c-7853-446d-8c30-5a29593562a6"},"vehicle_type_id":"4","last_reported":1752703882,"current_range_meters":19200,"station_id":"ce4bhnh2rcd13ifvqgug","pricing_plan_id":"cebpf4jnsgd1na2vs0mg"},{"bike_id":"66af56f2-1df2-4ff8-9d74-213cd937e3b4","system_id":"levelo_inurba_marseille","lat":43.2871,"lon":5.373988,"is_reserved":false,"is_disabled":true,"rental_uris":{"android":"levelo://app?vid=66af56f2-1df2-4ff8-9d74-213cd937e3b4","ios":"levelo://app?vid=66af56f2-1df2-4ff8-9d74-213cd937e3b4"},"vehicle_type_id":"4","last_reported":1752703882,"current_range_meters":19200,"station_id":"ce4bh3p2rcd13ifvqdq0","pricing_plan_id":"cebpf4jnsgd1na2vs0mg"},{"bike_id":"3262e6fa-fc0e-4c84-8651-e2a249995dbd","system_id":"levelo_inurba_marseille","lat":43.32659,"lon":5.40992,"is_reserved":false,"is_disabled":false,"rental_uris":{"android":"levelo://app?vid=3262e6fa-fc0e-4c84-8651-e2a249995dbd","ios":"levelo://app?vid=3262e6fa-fc0e-4c84-8651-e2a249995dbd"},"vehicle_type_id":"4","last_reported":1752703882,"current_range_meters":19200,"station_id":"ce4bhpp2rcd13ifvqhgg","pricing_plan_id":"cebpf4jnsgd1na2vs0mg"},{"bike_id":"baee1408-09b1-4135-89e2-543444a8738d","system_id":"levelo_inurba_marseille","lat":43.29864,"lon":5.39726,"is_reserved":false,"is_disabled":false,"rental_uris":{"android":"levelo://app?vid=baee1408-09b1-4135-89e2-543444a8738d","ios":"levelo://app?vid=baee1408-09b1-4135-89e2-543444a8738d"},"vehicle_type_id":"4","last_reported":1752703882,"current_range_meters":19200,"station_id":"ce4bh0h2rcd13ifvqd50","pricing_plan_id":"cebpf4jnsgd1na2vs0mg"},{"bike_id":"e88bbc7e-3afc-4c27-b087-41da5f9022d5","system_id":"levelo_inurba_marseille","lat":43.281,"lon":5.37852,"is_reserved":false,"is_disabled":false,"rental_uris":{"android":"levelo://app?vid=e88bbc7e-3afc-4c27-b087-41da5f9022d5","ios":"levelo://app?vid=e88bbc7e-3afc-4c27-b087-41da5f9022d5"},"vehicle_type_id":"4","last_reported":1752703882,"current_range_meters":19200,"station_id":"ce4bha12rcd13ifvqee0","pricing_plan_id":"cebpf4jnsgd1na2vs0mg"},{"bike_id":"9739abcf-f23c-4eed-aa17-937c77dcfbff","system_id":"levelo_inurba_marseille","lat":43.30802,"lon":5.38173,"is_reserved":false,"is_disabled":false,"rental_uris":{"android":"levelo://app?vid=9739abcf-f23c-4eed-aa17-937c77dcfbff","ios":"levelo://app?vid=9739abcf-f23c-4eed-aa17-937c77dcfbff"},"vehicle_type_id":"4","last_reported":1752703882,"current_range_meters":19200,"station_id":"ce4bgt12rcd13ifvqce0","pricing_plan_id":"cebpf4jnsgd1na2vs0mg"},