{"last_updated":1746227367,"ttl":60,"version":"2.2","data":{"bikes":[{"bike_id":"587033e8-9114-4237-990e-deafe4f5ad79","system_id":"levelo_inurba_marseille","lat":43.242625,"lon":5.370513,"is_reserved":false,"is_disabled":true,"rental_uris":{"android":"levelo://app?vid=587033e8-9114-4237-990e-deafe4f5ad79","ios":"levelo://app?vid=587033e8-9114-4237-990e-deafe4f5ad79"},"vehicle_type_id":"4","last_reported":1746227367,"current_range_meters":0,"station_id":"","pricing_plan_id":"cebpf4jnsgd1na2vs0mg"},{"bike_id":"76c1809e-b03a-4489-8d04-2161a1946c9d","system_id":"levelo_inurba_marseille","lat":43.27957,"lon":5.37159,"is_reserved":false,"is_disabled":true,"rental_uris":{"android":"levelo://app?vid=76c1809e-b03a-4489-8d04-2161a1946c9d","ios":"levelo://app?vid=76c1809e-b03a-4489-8d04-2161a1946c9d"},"vehicle_type_id":"4","last_reported":1746227367,"current_range_meters":0,"station_id":"","pricing_plan_id":"cebpf4jnsgd1na2vs0mg"},{"bike_id":"98e592b3-5fa3-4a83-b8d7-4600d55d353f","system_id":"levelo_inurba_marseille","lat":43.24639,"lon":5.4363,"is_reserved":false,"is_disabled":true,"rental_uris":{"android":"levelo://app?vid=98e592b3-5fa3-4a83-b8d7-4600d55d353f","ios":"levelo://app?vid=98e592b3-5fa3-4a83-b8d7-4600d55d353f"},"vehicle_type_id":"4","last_reported":1746227367,"current_range_meters":0,"station_id":"","pricing_plan_id":"cebpf4jnsgd1na2vs0mg"},{"bike_id":"f35a4c3e-288c-46e6-a156-ce98b822e31c","system_id":"levelo_inurba_marseille","lat":43.26586,"lon":5.3939,"is_reserved":false,"is_disabled":true,"rental_uris":{"android":"levelo://app?vid=f35a4c3e-288c-46e6-a156-ce98b822e31c","ios":"levelo://app?vid=f35a4c3e-288c-46e6-a156-ce98b822e31c"},"vehicle_type_id":"4","last_reported":1746227367,"current_range_meters":0,"station_id":"","pricing_plan_id":"cebpf4jnsgd1na2vs0mg"},{"bike_id":"27c926f4-2e8c-4fe5-8d0a-ce234b43b164","system_id":"levelo_inurba_marseille","lat":43.27876,"lon":5.38808,"is_reserved":false,"is_disabled":true,"rental_uris":{"android":"levelo://app?vid=27c926f4-2e8c-4fe5-8d0a-ce234b43b164","ios":"levelo://app?vid=27c926f4-2e8c-4fe5-8d0a-ce234b43b164"},"vehicle_type_id":"4","last_reported":1746227367,"current_range_meters":0,"station_id":"","pricing_plan_id":"cebpf4jnsgd1na2vs0mg"},{"bike_id":"7f770ba9-2e48-47c9-8bb4-942855273bad","system_id":"levelo_inurba_marseille","lat":43.253335,"lon":5.424117,"is_reserved":false,"is_disabled":true,"rental_uris":{"android":"levelo://app?vid=7f770ba9-2e48-47c9-8bb4-942855273bad","ios":"levelo://app?vid=7f770ba9-2e48-47c9-8bb4-942855273bad"},"vehicle_type_id":"4","last_reported":1746227367,"current_range_meters":0,"station_id":"","pricing_plan_id":"cebpf4jnsgd1na2vs0mg"},{"bike_id":"dcf471e5-50d7-4c6d-8c76-01b9d58b8521","system_id":"levelo_inurba_marseille","lat":43.21746,"lon":5.34597,"is_reserved":false,"is_disabled":true,"rental_uris":{"android":"levelo://app?vid=dcf471e5-50d7-4c6d-8c76-01b9d58b8521","ios":"levelo://app?vid=dcf471e5-50d7-4c6d-8c76-01b9d58b8521"},"vehicle_type_id":"4","last_reported":1746227367,"current_range_meters":0,"station_id":"","pricing_plan_id":"cebpf4jnsgd1na2vs0mg"},{"bike_id":"eefa78c8-4f9d-4d38-a7d3-c880870c89cc","system_id":"levelo_inurba_marseille","lat":43.28103,"lon":5.398644,"is_reserved":false,"is_disabled":true,"rental_uris":{"android":"levelo://app?vid=eefa78c8-4f9d-4d38-a7d3-c880870c89cc","ios":"levelo://app?vid=eefa78c8-4f9d-4d38-a7d3-c880870c89cc"},"vehicle_type_id":"4","last_reported":1746227367,"current_range_meters":0,"station_id":"","pricing_plan_id":"cebpf4jnsgd1na2vs0mg"},{"bike_id":"f1838310-e644-4cc5-b131-598db146ee41","system_id":"levelo_inurba_marseille","lat":43.33813,"lon":5.37498,"is_reserved":false,"is_disabled":true,"rental_uris":{"android":"levelo://app?vid=f1838310-e644-4cc5-b131-598db146ee41","ios":"levelo://app?vid=f1838310-e644-4cc5-b131-598db146ee41"},"vehicle_type_id":"4","last_reported":1746227367,"current_range_meters":0,"station_id":"","pricing_plan_id":"cebpf4jnsgd1na2vs0mg"},{"bike_id":"e93b949e-1738-47f2-ad13-8f512df2ffaf","system_id":"levelo_inurba_marseille","lat":43.28146,"lon":5.443558,"is_reserved":false,"is_disabled":true,"rental_uris":{"android":"levelo://app?vid=e93b949e-1738-47f2-ad13-8f512df2ffaf","ios":"levelo://app?vid=e93b949e-1738-47f2-ad13-8f512df2ffaf"},"vehicle_type_id":"4","last_reported":1746227367,"current_range_meters":0,"station_id":"","pricing_plan_id":"cebpf4jnsgd1na2vs0mg"},{"bike_id":"b963e88a-26c0-4a95-ae5a-b06fcd035fe1","system_id":"levelo_inurba_marseille","lat":43.30556,"lon":5.36718,"is_reserved":false,"is_disabled":true,"rental_uris":{"android":"levelo://app?vid=b963e88a-26c0-4a95-ae5a-b06fcd035fe1","ios":"levelo://app?vid=b963e88a-26c0-4a95-ae5a-b06fcd035fe1"},"vehicle_type_id":"4","last_reported":1746227367,"current_range_meters":0,"station_id":"ce4bgrp2rcd13ifvqc9g","pricing_plan_id":"cebpf4jnsgd1na2vs0mg"},{"bike_id":"ba03b04f-0b9e-4d27-b7ad-c4f652525f21","system_id":"levelo_inurba_marseille","lat":43.31499,"lon":5.37311,"is_reserved":false,"is_disabled":true,"rental_uris":{"android":"levelo://app?vid=ba03b04f-0b9e-4d27-b7ad-c4f652525f21","ios":"levelo://app?vid=ba03b04f-0b9e-4d27-b7ad-c4f652525f21"},"vehicle_type_id":"4","last_reported":1746227367,"current_range_meters":0,"station_id":"ce4bgt12rcd13ifvqcd0","pricing_plan_id":"cebpf4jnsgd1na2vs0mg"},{"bike_id":"07a76492-46c4-4679-a372-eeeba23507c0","system_id":"levelo_inurba_marseille","lat":43.31271,"lon":5.40164,"is_reserved":false,"is_disabled":true,"rental_uris":{"android":"levelo://app?vid=07a76492-46c4-4679-a372-eeeba23507c0","ios":"levelo://app?vid=07a76492-46c4-4679-a372-eeeba23507c0"},"vehicle_type_id":"4","last_reported":1746227367,"current_range_meters":0,"station_id":"ce4bh092rcd13ifvqd30","pricing_plan_id":"cebpf4jnsgd1na2vs0mg"},{"bike_id":"95b129d8-231b-44e8-a724-dc3041b12460","system_id":"levelo_inurba_marseille","lat":43.24183,"lon":5.39722,"is_reserved":false,"is_disabled":true,"rental_uris":{"android":"levelo://app?vid=95b129d8-231b-44e8-a724-dc3041b12460","ios":"levelo://app?vid=95b129d8-231b-44e8-a724-dc3041b12460"},"vehicle_type_id":"4","last_reported":1746227367,"current_range_meters":0,"station_id":"ce4bhn12rcd13ifvqgpg","pricing_plan_id":"cebpf4jnsgd1na2vs0mg"},{"bike_id":"e682e778-ea1c-4d6f-b221-e69b96a4477e","system_id":"levelo_inurba_marseille","lat":43.27952,"lon":5.41036,"is_reserved":false,"is_disabled":true,"rental_uris":{"android":"levelo://app?vid=e682e778-ea1c-4d6f-b221-e69b96a4477e","ios":"levelo://app?vid=e682e778-ea1c-4d6f-b221-e69b96a4477e"},"vehicle_type_id":"4","last_reported":1746227367,"current_range_meters":0,"station_id":"ce4bhnp2rcd13ifvqh0g","pricing_plan_id":"cebpf4jnsgd1na2vs0mg"},{"bike_id":"0a93f3fd-7bb3-4867-b435-3fcdfa44a877","system_id":"levelo_inurba_marseille","lat":43.30417,"lon":5.41281,"is_reserved":false,"is_disabled":true,"rental_uris":{"android":"levelo://app?vid=0a93f3fd-7bb3-4867-b435-3fcdfa44a877","ios":"levelo://app?vid=0a93f3fd-7bb3-4867-b435-3fcdfa44a877"},"vehicle_type_id":"4","last_reported":1746227367,"current_range_meters":0,"station_id":"ce4bhop2rcd13ifvqh8g","pricing_plan_id":"cebpf4jnsgd1na2vs0mg"},{"bike_id":"e336b0c2-a2be-4eca-b6c2-a513a8ae7843","system_id":"levelo_inurba_marseille","lat":43.217625,"lon":5.346032,"is_reserved":false,"is_disabled":true,"rental_uris":{"android":"levelo://app?vid=e336b0c2-a2be-4eca-b6c2-a513a8ae7843","ios":"levelo://app?vid=e336b0c2-a2be-4eca-b6c2-a513a8ae7843"},"vehicle_type_id":"4","last_reported":1746227367,"current_range_meters":0,"station_id":"st_cvj6r9ubvosntc0bgbag","pricing_plan_id":"cebpf4jnsgd1na2vs0mg"},{"bike_id":"3ecf66e2-44b6-472c-af09-0855bf590a80","system_id":"levelo_inurba_marseille","lat":43.217482,"lon":5.346031,"is_reserved":false,"is_disabled":true,"rental_uris":{"android":"levelo://app?vid=3ecf66e2-44b6-472c-af09-0855bf590a80","ios":"levelo://app?vid=3ecf66e2-44b6-472c-af09-0855bf590a80"},"vehicle_type_id":"4","last_reported":1746227367,"current_range_meters":0,"station_id":"st_cvj6r9ubvosntc0bgbag","pricing_plan_id":"cebpf4jnsgd1na2vs0mg"},{"bike_id":"02ef3096-14c5-4060-a88c-c36fcdf56e5a","system_id":"levelo_inurba_marseille","lat":43.217609,"lon":5.345975,"is_reserved":false,"is_disabled":true,"rental_uris":{"android":"levelo://app?vid=02ef3096-14c5-4060-a88c-c36fcdf56e5a","ios":"levelo://app?vid=02ef3096-14c5-4060-a88c-c36fcdf56e5a"},"vehicle_type_id":"4","last_reported":1746227367,"current_range_meters":0,"station_id":"st_cvj6r9ubvosntc0bgbag","pricing_plan_id":"cebpf4jnsgd1na2vs0mg"},{"bike_id":"a9271c4c-cb08-419c-89df-c865809695a8","system_id":"levelo_inurba_marseille","lat":43.217634,"lon":5.346243,"is_reserved":false,"is_disabled":true,"rental_uris":{"android":"levelo://app?vid=a9271c4c-cb08-419c-89df-c865809695a8","ios":"levelo://app?vid=a9271c4c-cb08-419c-89df-c865809695a8"},"vehicle_type_id":"4","last_reported":1746227367,"current_range_meters":0,"station_id":"st_cvj6r9ubvosntc0bgbag","pricing_plan_id":"cebpf4jnsgd1na2vs0mg"},{"bike_id":"412ce004-28d4-40cc-9ab8-49f2e3bf45b1","system_id":"levelo_inurba_marseille","lat":43.26066,"lon":5.39398,"is_reserved":false,"is_disabled":true,"rental_uris":{"android":"levelo://app?vid=412ce004-28d4-40cc-9ab8-49f2e3bf45b1","ios":"levelo://app?vid=412ce004-28d4-40cc-9ab8-49f2e3bf45b1"},"vehicle_type_id":"4","last_reported":1746227367,"current_range_meters":400,"station_id":"ce4bhh92rcd13ifvqfj0","pricing_plan_id":"cebpf4jnsgd1na2vs0mg"},{"bike_id":"b7976ca9-abc2-4dfe-8dbe-f287f1766bd0","system_id":"levelo_inurba_marseille","lat":43.28666,"lon":5.36328,"is_reserved":false,"is_disabled":true,"rental_uris":{"android":"levelo://app?vid=b7976ca9-abc2-4dfe-8dbe-f287f1766bd0","ios":"levelo://app?vid=b7976ca9-abc2-4dfe-8dbe-f287f1766bd0"},"vehicle_type_id":"4","last_reported":1746227367,"current_range_meters":800,"station_id":"ce4bhah2rcd13ifvqej0","pricing_plan_id":"cebpf4jnsgd1na2vs0mg"},{"bike_id":"41649255-c38b-42cb-ae7f-67f2787c354c","system_id":"levelo_inurba_marseille","lat":43.237923,"lon":5.435909,"is_reserved":false,"is_disabled":true,"rental_uris":{"android":"levelo://app?vid=41649255-c38b-42cb-ae7f-67f2787c354c","ios":"levelo://app?vid=41649255-c38b-42cb-ae7f-67f2787c354c"},"vehicle_type_id":"4","last_reported":1746227367,"current_range_meters":1200,"station_id":"","pricing_plan_id":"cebpf4jnsgd1na2vs0mg"},{"bike_id":"bb65b838-6f77-4057-bf86-bceb8e478284","system_id":"levelo_inurba_marseille","lat":43.25116,"lon":5.40333,"is_reserved":false,"is_disabled":true,"rental_uris":{"android":"levelo://app?vid=bb65b838-6f77-4057-bf86-bceb8e478284","ios":"levelo://app?vid=bb65b838-6f77-4057-bf86-bceb8e478284"},"vehicle_type_id":"4","last_reported":1746227367,"current_range_meters":1200,"station_id":"ce4bhlh2rcd13ifvqgig","pricing_plan_id":"cebpf4jnsgd1na2vs0mg"},{"bike_id":"99c9598d-7ffd-41ca-ac03-f00002f01d11","system_id":"levelo_inurba_marseille","lat":43.309233,"lon":5.401467,"is_reserved":false,"is_disabled":true,"rental_uris":{"android":"levelo://app?vid=99c9598d-7ffd-41ca-ac03-f00002f01d11","ios":"levelo://app?vid=99c9598d-7ffd-41ca-ac03-f00002f01d11"},"vehicle_type_id":"4","last_reported":1746227367,"current_range_meters":2000,"station_id":"ce4bgvp2rcd13ifvqct0","pricing_plan_id":"cebpf4jnsgd1na2vs0mg"},{"bike_id":"d952d3d0-cb4f-4d11-a7cd-790050463efd","system_id":"levelo_inurba_marseille","lat":43.27841,"lon":5.39207,"is_reserved":false,"is_disabled":true,"rental_uris":{"android":"levelo://app?vid=d952d3d0-cb4f-4d11-a7cd-790050463efd","ios":"levelo://app?vid=d952d3d0-cb4f-4d11-a7cd-790050463efd"},"vehicle_type_id":"4","last_reported":1746227367,"current_range_meters":2000,"station_id":"ce4bhjp2rcd13ifvqga0","pricing_plan_id":"cebpf4jnsgd1na2vs0mg"},{"bike_id":"09db1845-c08d-4dc9-8812-c7e804be6364","system_id":"levelo_inurba_marseille","lat":43.2481,"lon":5.37458,"is_reserved":false,"is_disabled":false,"rental_uris":{"android":"levelo://app?vid=09db1845-c08d-4dc9-8812-c7e804be6364","ios":"levelo://app?vid=09db1845-c08d-4dc9-8812-c7e804be6364"},"vehicle_type_id":"4","last_reported":1746227367,"current_range_meters":3200,"station_id":"ce4bhgh2rcd13ifvqfb0","pricing_plan_id":"cebpf4jnsgd1na2vs0mg"},{"bike_id":"277b09f7-c239-408c-a98f-da7583ea5f2b","system_id":"levelo_inurba_marseille","lat":43.28507,"lon":5.39179,"is_reserved":false,"is_disabled":false,"rental_uris":{"android":"levelo://app?vid=277b09f7-c239-408c-a98f-da7583ea5f2b","ios":"levelo://app?vid=277b09f7-c239-408c-a98f-da7583ea5f2b"},"vehicle_type_id":"4","last_reported":1746227367,"current_range_meters":4400,"station_id":"","pricing_plan_id":"cebpf4jnsgd1na2vs0mg"},{"bike_id":"b7b819c6-ae62-4e8a-a410-3625e179a9e7","system_id":"levelo_inurba_marseille","lat":43.29041,"lon":5.39944,"is_reserved":false,"is_disabled":false,"rental_uris":{"android":"levelo://app?vid=b7b819c6-ae62-4e8a-a410-3625e179a9e7","ios":"levelo://app?vid=b7b819c6-ae62-4e8a-a410-3625e179a9e7"},"vehicle_type_id":"4","last_reported":1746227367,"current_range_meters":4400,"station_id":"ce4bh392rcd13ifvqdm0","pricing_plan_id":"cebpf4jnsgd1na2vs0mg"},{"bike_id":"2f1b97ba-9d95-4174-ab71-f99b98bb8d9e","system_id":"levelo_inurba_marseille","lat":43.28485,"lon":5.38427,"is_reserved":false,"is_disabled":false,"rental_uris":{"android":"levelo://app?vid=2f1b97ba-9d95-4174-ab71-f99b98bb8d9e","ios":"levelo://app?vid=2f1b97ba-9d95-4174-ab71-f99b98bb8d9e"},"vehicle_type_id":"4","last_reported":1746227367,"current_range_meters":4400,"station_id":"ce4bh512rcd13ifvqe3g","pricing_plan_id":"cebpf4jnsgd1na2vs0mg"},{"bike_id":"f0773e55-3c03-408c-b52d-9fefc787e6d2","system_id":"levelo_inurba_marseille","lat":43.29164,"lon":5.385973,"is_reserved":false,"is_disabled":false,"rental_uris":{"android":"levelo://app?vid=f0773e55-3c03-408c-b52d-9fefc787e6d2","ios":"levelo://app?vid=f0773e55-3c03-408c-b52d-9fefc787e6d2"},"vehicle_type_id":"4","last_reported":1746227367,"current_range_meters":4800,"station_id":"","pricing_plan_id":"cebpf4jnsgd1na2vs0mg"},{"bike_id":"885d5381-9902-418c-bec9-d084ccc99c30","system_id":"levelo_inurba_marseille","lat":43.24182,"lon":5.39738,"is_reserved":false,"is_disabled":false,"rental_uris":{"android":"levelo://app?vid=885d5381-9902-418c-bec9-d084ccc99c30","ios":"levelo://app?vid=885d5381-9902-418c-bec9-d084ccc99c30"},"vehicle_type_id":"4","last_reported":1746227367,"current_range_meters":4800,"station_id":"ce4bhn12rcd13ifvqgpg","pricing_plan_id":"cebpf4jnsgd1na2vs0mg"},{"bike_id":"fc109967-526e-464b-ab42-6068e7d67950","system_id":"levelo_inurba_marseille","lat":43.29298,"lon":5.40186,"is_reserved":false,"is_disabled":false,"rental_uris":{"android":"levelo://app?vid=fc109967-526e-464b-ab42-6068e7d67950","ios":"levelo://app?vid=fc109967-526e-464b-ab42-6068e7d67950"},"vehicle_type_id":"4","last_reported":1746227367,"current_range_meters":5600,"station_id":"","pricing_plan_id":"cebpf4jnsgd1na2vs0mg"},{"bike_id":"48411007-47cc-4eed-ad38-bf097948a656","system_id":"levelo_inurba_marseille","lat":43.28157,"lon":5.4264,"is_reserved":false,"is_disabled":false,"rental_uris":{"android":"levelo://app?vid=48411007-47cc-4eed-ad38-bf097948a656","ios":"levelo://app?vid=48411007-47cc-4eed-ad38-bf097948a656"},"vehicle_type_id":"4","last_reported":1746227367,"current_range_meters":5600,"station_id":"ce4bhnh2rcd13ifvqgug","pricing_plan_id":"cebpf4jnsgd1na2vs0mg"},{"bike_id":"134820da-30f5-4057-a679-77860dcaf84c","system_id":"levelo_inurba_marseille","lat":43.27944,"lon":5.41047,"is_reserved":false,"is_disabled":false,"rental_uris":{"android":"levelo://app?vid=134820da-30f5-4057-a679-77860dcaf84c","ios":"levelo://app?vid=134820da-30f5-4057-a679-77860dcaf84c"},"vehicle_type_id":"4","last_reported":1746227367,"current_range_meters":5600,"station_id":"ce4bhnp2rcd13ifvqh0g","pricing_plan_id":"cebpf4jnsgd1na2vs0mg"},{"bike_id":"720b4cb7-9a7d-48d9-b584-e3723cf6616d","system_id":"levelo_inurba_marseille","lat":43.29626,"lon":5.40594,"is_reserved":false,"is_disabled":false,"rental_uris":{"android":"levelo://app?vid=720b4cb7-9a7d-48d9-b584-e3723cf6616d","ios":"levelo://app?vid=720b4cb7-9a7d-48d9-b584-e3723cf6616d"},"vehicle_type_id":"4","last_reported":1746227367,"current_range_meters":6000,"station_id":"ce4bh0h2rcd13ifvqd60","pricing_plan_id":"cebpf4jnsgd1na2vs0mg"},{"bike_id":"7d5b0478-8afb-4bbe-9549-55d6044e7a97","system_id":"levelo_inurba_marseille","lat":43.28102,"lon":5.3783,"is_reserved":false,"is_disabled":false,"rental_uris":{"android":"levelo://app?vid=7d5b0478-8afb-4bbe-9549-55d6044e7a97","ios":"levelo://app?vid=7d5b0478-8afb-4bbe-9549-55d6044e7a97"},"vehicle_type_id":"4","last_reported":1746227367,"current_range_meters":6000,"station_id":"ce4bha12rcd13ifvqee0","pricing_plan_id":"cebpf4jnsgd1na2vs0mg"},{"bike_id":"34294dd3-b27d-4ffb-860f-a93d9867f32f","system_id":"levelo_inurba_marseille","lat":43.25091,"lon":5.395294,"is_reserved":false,"is_disabled":false,"rental_uris":{"android":"levelo://app?vid=34294dd3-b27d-4ffb-860f-a93d9867f32f","ios":"levelo://app?vid=34294dd3-b27d-4ffb-860f-a93d9867f32f"},"vehicle_type_id":"4","last_reported":1746227367,"current_range_meters":6400,"station_id":"","pricing_plan_id":"cebpf4jnsgd1na2vs0mg"},{"bike_id":"50451065-7fe6-404a-bfcc-46429cddaa7f","system_id":"levelo_inurba_marseille","lat":43.3127,"lon":5.40163,"is_reserved":false,"is_disabled":false,"rental_uris":{"android":"levelo://app?vid=50451065-7fe6-404a-bfcc-46429cddaa7f","ios":"levelo://app?vid=50451065-7fe6-404a-bfcc-46429cddaa7f"},"vehicle_type_id":"4","last_reported":1746227367,"current_range_meters":6400,"station_id":"ce4bh092rcd13ifvqd30","pricing_plan_id":"cebpf4jnsgd1na2vs0mg"},{"bike_id":"422771ec-2a38-42bb-a295-99d8a378e952","system_id":"levelo_inurba_marseille","lat":43.28617,"lon":5.35106,"is_reserved":false,"is_disabled":false,"rental_uris":{"android":"levelo://app?vid=422771ec-2a38-42bb-a295-99d8a378e952","ios":"levelo://app?vid=422771ec-2a38-42bb-a295-99d8a378e952"},"vehicle_type_id":"4","last_reported":1746227367,"current_range_meters":6400,"station_id":"ce4bhch2rcd13ifvqeug","pricing_plan_id":"cebpf4jnsgd1na2vs0mg"},{"bike_id":"5f70ab2f-7180-40fb-b9d5-18666eb94e78","system_id":"levelo_inurba_marseille","lat":43.30358,"lon":5.41878,"is_reserved":false,"is_disabled":false,"rental_uris":{"android":"levelo://app?vid=5f70ab2f-7180-40fb-b9d5-18666eb94e78","ios":"levelo://app?vid=5f70ab2f-7180-40fb-b9d5-18666eb94e78"},"vehicle_type_id":"4","last_reported":1746227367,"current_range_meters":6400,"station_id":"ce4bhop2rcd13ifvqh7g","pricing_plan_id":"cebpf4jnsgd1na2vs0mg"},{"bike_id":"f73daf93-45c7-48c0-a61a-2d28ac89db8d","system_id":"levelo_inurba_marseille","lat":43.33945,"lon":5.42017,"is_reserved":false,"is_disabled":false,"rental_uris":{"android":"levelo://app?vid=f73daf93-45c7-48c0-a61a-2d28ac89db8d","ios":"levelo://app?vid=f73daf93-45c7-48c0-a61a-2d28ac89db8d"},"vehicle_type_id":"4","last_reported":1746227367,"current_range_meters":6800,"station_id":"","pricing_plan_id":"cebpf4jnsgd1na2vs0mg"},{"bike_id":"f78fe4b1-00b3-4dd6-ad02-13ca910a510f","system_id":"levelo_inurba_marseille","lat":43.30147,"lon":5.37417,"is_reserved":false,"is_disabled":false,"rental_uris":{"android":"levelo://app?vid=f78fe4b1-00b3-4dd6-ad02-13ca910a510f","ios":"levelo://app?vid=f78fe4b1-00b3-4dd6-ad02-13ca910a510f"},"vehicle_type_id":"4","last_reported":1746227367,"current_range_meters":6800,"station_id":"ce4bgs92rcd13ifvqcc0","pricing_plan_id":"cebpf4jnsgd1na2vs0mg"},{"bike_id":"ac83d052-3135-4814-9d02-21aa3dce4793","system_id":"levelo_inurba_marseille","lat":43.27376,"lon":5.36257,"is_reserved":false,"is_disabled":false,"rental_uris":{"android":"levelo://app?vid=ac83d052-3135-4814-9d02-21aa3dce4793","ios":"levelo://app?vid=ac83d052-3135-4814-9d02-21aa3dce4793"},"vehicle_type_id":"4","last_reported":1746227367,"current_range_meters":6800,"station_id":"ce4bhbh2rcd13ifvqeo0","pricing_plan_id":"cebpf4jnsgd1na2vs0mg"},{"bike_id":"750a90cc-56d4-468a-a632-4845be0a807b","system_id":"levelo_inurba_marseille","lat":43.27572,"lon":5.3841,"is_reserved":false,"is_disabled":false,"rental_uris":{"android":"levelo://app?vid=750a90cc-56d4-468a-a632-4845be0a807b","ios":"levelo://app?vid=750a90cc-56d4-468a-a632-4845be0a807b"},"vehicle_type_id":"4","last_reported":1746227367,"current_range_meters":6800,"station_id":"ce4bhh92rcd13ifvqfi0","pricing_plan_id":"cebpf4jnsgd1na2vs0mg"},{"bike_id":"f80fb3d2-9ae2-4c69-a487-cb23c19fe3f0","system_id":"levelo_inurba_marseille","lat":43.2769,"lon":5.388827,"is_reserved":false,"is_disabled":false,"rental_uris":{"android":"levelo://app?vid=f80fb3d2-9ae2-4c69-a487-cb23c19fe3f0","ios":"levelo://app?vid=f80fb3d2-9ae2-4c69-a487-cb23c19fe3f0"},"vehicle_type_id":"4","last_reported":1746227367,"current_range_meters":6800,"station_id":"ce4bhi12rcd13ifvqfo0","pricing_plan_id":"cebpf4jnsgd1na2vs0mg"},{"bike_id":"7f2b25f6-014d-4712-b80f-ffce5f418b5b","system_id":"levelo_inurba_marseille","lat":43.27496,"lon":5.4245,"is_reserved":false,"is_disabled":false,"rental_uris":{"android":"levelo://app?vid=7f2b25f6-014d-4712-b80f-ffce5f418b5b","ios":"levelo://app?vid=7f2b25f6-014d-4712-b80f-ffce5f418b5b"},"vehicle_type_id":"4","last_reported":1746227367,"current_range_meters":6800,"station_id":"ce4bhn92rcd13ifvqgrg","pricing_plan_id":"cebpf4jnsgd1na2vs0mg"},{"bike_id":"0d6c5100-7db5-44d0-b9d6-cf2b96014798","system_id":"levelo_inurba_marseille","lat":43.310055,"lon":5.374893,"is_reserved":false,"is_disabled":false,"rental_uris":{"android":"levelo://app?vid=0d6c5100-7db5-44d0-b9d6-cf2b96014798","ios":"levelo://app?vid=0d6c5100-7db5-44d0-b9d6-cf2b96014798"},"vehicle_type_id":"4","last_reported":1746227367,"current_range_meters":7200,"station_id":"","pricing_plan_id":"cebpf4jnsgd1na2vs0mg"},{"bike_id":"2be6c5ac-db75-4c9d-95c6-9c66882f14b8","system_id":"levelo_inurba_marseille","lat":43.27896,"lon":5.36306,"is_reserved":false,"is_disabled":false,"rental_uris":{"android":"levelo://app?vid=2be6c5ac-db75-4c9d-95c6-9c66882f14b8","ios":"levelo://app?vid=2be6c5ac-db75-4c9d-95c6-9c66882f14b8"},"vehicle_type_id":"4","last_reported":1746227367,"current_range_meters":7200,"station_id":"","pricing_plan_id":"cebpf4jnsgd1na2vs0mg"},{"bike_id":"ba1291bf-568d-477b-8e17-c284858000b8","system_id":"levelo_inurba_marseille","lat":43.337855,"lon":5.374616,"is_reserved":false,"is_disabled":false,"rental_uris":{"android":"levelo://app?vid=ba1291bf-568d-477b-8e17-c284858000b8","ios":"levelo://app?vid=ba1291bf-568d-477b-8e17-c284858000b8"},"vehicle_type_id":"4","last_reported":1746227367,"current_range_meters":7200,"station_id":"","pricing_plan_id":"cebpf4jnsgd1na2vs0mg"},{"bike_id":"7971fe93-5f1d-4a59-8508-b415e64fcb18","system_id":"levelo_inurba_marseille","lat":43.30952,"lon":5.37393,"is_reserved":false,"is_disabled":false,"rental_uris":{"android":"levelo://app?vid=7971fe93-5f1d-4a59-8508-b415e64fcb18","ios":"levelo://app?vid=7971fe93-5f1d-4a59-8508-b415e64fcb18"},"vehicle_type_id":"4","last_reported":1746227367,"current_range_meters":7200,"station_id":"","pricing_plan_id":"cebpf4jnsgd1na2vs0mg"},{"bike_id":"076477c7-a47b-464b-acfd-428e19abe40d","system_id":"levelo_inurba_marseille","lat":43.27842,"lon":5.39204,"is_reserved":false,"is_disabled":false,"rental_uris":{"android":"levelo://app?vid=076477c7-a47b-464b-acfd-428e19abe40d","ios":"levelo://app?vid=076477c7-a47b-464b-acfd-428e19abe40d"},"vehicle_type_id":"4","last_reported":1746227367,"current_range_meters":7200,"station_id":"ce4bhjp2rcd13ifvqga0","pricing_plan_id":"cebpf4jnsgd1na2vs0mg"},{"bike_id":"73219f34-f88f-43ad-b335-3964e38f3ca8","system_id":"levelo_inurba_marseille","lat":43.31171,"lon":5.38727,"is_reserved":false,"is_disabled":false,"rental_uris":{"android":"levelo://app?vid=73219f34-f88f-43ad-b335-3964e38f3ca8","ios":"levelo://app?vid=73219f34-f88f-43ad-b335-3964e38f3ca8"},"vehicle_type_id":"4","last_reported":1746227367,"current_range_meters":8000,"station_id":"ce4bgv12rcd13ifvqcp0","pricing_plan_id":"cebpf4jnsgd1na2vs0mg"},{"bike_id":"2a28e21f-b366-4391-86bd-7dc03cecd813","system_id":"levelo_inurba_marseille","lat":43.30417,"lon":5.4128,"is_reserved":false,"is_disabled":false,"rental_uris":{"android":"levelo://app?vid=2a28e21f-b366-4391-86bd-7dc03cecd813","ios":"levelo://app?vid=2a28e21f-b366-4391-86bd-7dc03cecd813"},"vehicle_type_id":"4","last_reported":1746227367,"current_range_meters":8000,"station_id":"ce4bhop2rcd13ifvqh8g","pricing_plan_id":"cebpf4jnsgd1na2vs0mg"},{"bike_id":"0174a141-e111-49c0-b280-bdc0e65bf254","system_id":"levelo_inurba_marseille","lat":43.33018,"lon":5.39022,"is_reserved":false,"is_disabled":false,"rental_uris":{"android":"levelo://app?vid=0174a141-e111-49c0-b280-bdc0e65bf254","ios":"levelo://app?vid=0174a141-e111-49c0-b280-bdc0e65bf254"},"vehicle_type_id":"4","last_reported":1746227367,"current_range_meters":8000,"station_id":"ce4bhr92rcd13ifvqhrg","pricing_plan_id":"cebpf4jnsgd1na2vs0mg"},{"bike_id":"8ab96c8b-eb43-4dbc-803d-75eeb7ace558","system_id":"levelo_inurba_marseille","lat":43.30245,"lon":5.40028,"is_reserved":false,"is_disabled":false,"rental_uris":{"android":"levelo://app?vid=8ab96c8b-eb43-4dbc-803d-75eeb7ace558","ios":"levelo://app?vid=8ab96c8b-eb43-4dbc-803d-75eeb7ace558"},"vehicle_type_id":"4","last_reported":1746227367,"current_range_meters":8400,"station_id":"ce4bgvh2rcd13ifvqcs0","pricing_plan_id":"cebpf4jnsgd1na2vs0mg"},{"bike_id":"89f6178c-07ef-4379-8bad-a706c013fc42","system_id":"levelo_inurba_marseille","lat":43.29283,"lon":5.401282,"is_reserved":false,"is_disabled":false,"rental_uris":{"android":"levelo://app?vid=89f6178c-07ef-4379-8bad-a706c013fc42","ios":"levelo://app?vid=89f6178c-07ef-4379-8bad-a706c013fc42"},"vehicle_type_id":"4","last_reported":1746227367,"current_range_meters":8400,"station_id":"ce4bh312rcd13ifvqdk0","pricing_plan_id":"cebpf4jnsgd1na2vs0mg"},{"bike_id":"4b6a6e98-28a4-48e7-a935-a8770362783f","system_id":"levelo_inurba_marseille","lat":43.27848,"lon":5.39212,"is_reserved":false,"is_disabled":false,"rental_uris":{"android":"levelo://app?vid=4b6a6e98-28a4-48e7-a935-a8770362783f","ios":"levelo://app?vid=4b6a6e98-28a4-48e7-a935-a8770362783f"},"vehicle_type_id":"4","last_reported":1746227367,"current_range_meters":8400,"station_id":"ce4bhjp2rcd13ifvqga0","pricing_plan_id":"cebpf4jnsgd1na2vs0mg"},{"bike_id":"66adbd77-2de7-44b6-a76b-616e3783a171","system_id":"levelo_inurba_marseille","lat":43.27818,"lon":5.40725,"is_reserved":false,"is_disabled":false,"rental_uris":{"android":"levelo://app?vid=66adbd77-2de7-44b6-a76b-616e3783a171","ios":"levelo://app?vid=66adbd77-2de7-44b6-a76b-616e3783a171"},"vehicle_type_id":"4","last_reported":1746227367,"current_range_meters":8400,"station_id":"ce4bhnh2rcd13ifvqgtg","pricing_plan_id":"cebpf4jnsgd1na2vs0mg"},{"bike_id":"fca5acbf-9a58-4c19-907b-7bd8f60beb5f","system_id":"levelo_inurba_marseille","lat":43.32113,"lon":5.36771,"is_reserved":false,"is_disabled":false,"rental_uris":{"android":"levelo://app?vid=fca5acbf-9a58-4c19-907b-7bd8f60beb5f","ios":"levelo://app?vid=fca5acbf-9a58-4c19-907b-7bd8f60beb5f"},"vehicle_type_id":"4","last_reported":1746227367,"current_range_meters":8400,"station_id":"ce4bhrh2rcd13ifvqhug","pricing_plan_id":"cebpf4jnsgd1na2vs0mg"},{"bike_id":"29a83445-0753-40f4-8ed7-c02207f310e3","system_id":"levelo_inurba_marseille","lat":43.283181,"lon":5.385113,"is_reserved":false,"is_disabled":false,"rental_uris":{"android":"levelo://app?vid=29a83445-0753-40f4-8ed7-c02207f310e3","ios":"levelo://app?vid=29a83445-0753-40f4-8ed7-c02207f310e3"},"vehicle_type_id":"4","last_reported":1746227367,"current_range_meters":8800,"station_id":"","pricing_plan_id":"cebpf4jnsgd1na2vs0mg"},{"bike_id":"9c5908ad-93a4-4a10-ae60-dd90dd2af51b","system_id":"levelo_inurba_marseille","lat":43.28849,"lon":5.35866,"is_reserved":false,"is_disabled":false,"rental_uris":{"android":"levelo://app?vid=9c5908ad-93a4-4a10-ae60-dd90dd2af51b","ios":"levelo://app?vid=9c5908ad-93a4-4a10-ae60-dd90dd2af51b"},"vehicle_type_id":"4","last_reported":1746227367,"current_range_meters":8800,"station_id":"ce4bhb12rcd13ifvqem0","pricing_plan_id":"cebpf4jnsgd1na2vs0mg"},{"bike_id":"ad7b9ae4-9983-42fc-8cdc-30d005232021","system_id":"levelo_inurba_marseille","lat":43.24668,"lon":5.3818,"is_reserved":false,"is_disabled":false,"rental_uris":{"android":"levelo://app?vid=ad7b9ae4-9983-42fc-8cdc-30d005232021","ios":"levelo://app?vid=ad7b9ae4-9983-42fc-8cdc-30d005232021"},"vehicle_type_id":"4","last_reported":1746227367,"current_range_meters":8800,"station_id":"ce4bhih2rcd13ifvqfr0","pricing_plan_id":"cebpf4jnsgd1na2vs0mg"},{"bike_id":"58b8ef6d-53e7-4fd8-90fe-41d89fde2b82","system_id":"levelo_inurba_marseille","lat":43.27842,"lon":5.40687,"is_reserved":false,"is_disabled":false,"rental_uris":{"android":"levelo://app?vid=58b8ef6d-53e7-4fd8-90fe-41d89fde2b82","ios":"levelo://app?vid=58b8ef6d-53e7-4fd8-90fe-41d89fde2b82"},"vehicle_type_id":"4","last_reported":1746227367,"current_range_meters":8800,"station_id":"ce4bhnh2rcd13ifvqgtg","pricing_plan_id":"cebpf4jnsgd1na2vs0mg"},{"bike_id":"ce016100-6878-41de-af51-ca14dec72743","system_id":"levelo_inurba_marseille","lat":43.279439,"lon":5.410418,"is_reserved":false,"is_disabled":false,"rental_uris":{"android":"levelo://app?vid=ce016100-6878-41de-af51-ca14dec72743","ios":"levelo://app?vid=ce016100-6878-41de-af51-ca14dec72743"},"vehicle_type_id":"4","last_reported":1746227367,"current_range_meters":8800,"station_id":"ce4bhnp2rcd13ifvqh0g","pricing_plan_id":"cebpf4jnsgd1na2vs0mg"},{"bike_id":"cd5a22a5-8dd4-472a-8827-48ca218d61f8","system_id":"levelo_inurba_marseille","lat":43.28441,"lon":5.392,"is_reserved":false,"is_disabled":false,"rental_uris":{"android":"levelo://app?vid=cd5a22a5-8dd4-472a-8827-48ca218d61f8","ios":"levelo://app?vid=cd5a22a5-8dd4-472a-8827-48ca218d61f8"},"vehicle_type_id":"4","last_reported":1746227367,"current_range_meters":8800,"station_id":"ce4bhoh2rcd13ifvqh5g","pricing_plan_id":"cebpf4jnsgd1na2vs0mg"},{"bike_id":"271d1032-0e9c-4509-ac1f-b2a948175d86","system_id":"levelo_inurba_marseille","lat":43.28154,"lon":5.42634,"is_reserved":false,"is_disabled":false,"rental_uris":{"android":"levelo://app?vid=271d1032-0e9c-4509-ac1f-b2a948175d86","ios":"levelo://app?vid=271d1032-0e9c-4509-ac1f-b2a948175d86"},"vehicle_type_id":"4","last_reported":1746227367,"current_range_meters":9200,"station_id":"ce4bhnh2rcd13ifvqgug","pricing_plan_id":"cebpf4jnsgd1na2vs0mg"},{"bike_id":"9f5d1477-1a0b-4ab7-bf49-958ce5caccd6","system_id":"levelo_inurba_marseille","lat":43.295665,"lon":5.422865,"is_reserved":false,"is_disabled":false,"rental_uris":{"android":"levelo://app?vid=9f5d1477-1a0b-4ab7-bf49-958ce5caccd6","ios":"levelo://app?vid=9f5d1477-1a0b-4ab7-bf49-958ce5caccd6"},"vehicle_type_id":"4","last_reported":1746227367,"current_range_meters":9200,"station_id":"ce4bhph2rcd13ifvqhdg","pricing_plan_id":"cebpf4jnsgd1na2vs0mg"},{"bike_id":"52653438-d935-4f61-a0a5-dc59b768eafc","system_id":"levelo_inurba_marseille","lat":43.323635,"lon":5.367658,"is_reserved":false,"is_disabled":false,"rental_uris":{"android":"levelo://app?vid=52653438-d935-4f61-a0a5-dc59b768eafc","ios":"levelo://app?vid=52653438-d935-4f61-a0a5-dc59b768eafc"},"vehicle_type_id":"4","last_reported":1746227367,"current_range_meters":9200,"station_id":"ce4bhsh2rcd13ifvqi2g","pricing_plan_id":"cebpf4jnsgd1na2vs0mg"},{"bike_id":"5e95262a-906a-4015-8916-68e91b09e9b5","system_id":"levelo_inurba_marseille","lat":43.31169,"lon":5.38706,"is_reserved":false,"is_disabled":false,"rental_uris":{"android":"levelo://app?vid=5e95262a-906a-4015-8916-68e91b09e9b5","ios":"levelo://app?vid=5e95262a-906a-4015-8916-68e91b09e9b5"},"vehicle_type_id":"4","last_reported":1746227367,"current_range_meters":10000,"station_id":"ce4bgv12rcd13ifvqcp0","pricing_plan_id":"cebpf4jnsgd1na2vs0mg"},{"bike_id":"f93d853b-ca78-4f88-b96f-c9c1053489aa","system_id":"levelo_inurba_marseille","lat":43.24056,"lon":5.37756,"is_reserved":false,"is_disabled":false,"rental_uris":{"android":"levelo://app?vid=f93d853b-ca78-4f88-b96f-c9c1053489aa","ios":"levelo://app?vid=f93d853b-ca78-4f88-b96f-c9c1053489aa"},"vehicle_type_id":"4","last_reported":1746227367,"current_range_meters":10000,"station_id":"ce4bhnp2rcd13ifvqgvg","pricing_plan_id":"cebpf4jnsgd1na2vs0mg"},{"bike_id":"6d74a9f5-3f03-4e8e-aa3b-29a84082925f","system_id":"levelo_inurba_marseille","lat":43.22934,"lon":5.353775,"is_reserved":false,"is_disabled":false,"rental_uris":{"android":"levelo://app?vid=6d74a9f5-3f03-4e8e-aa3b-29a84082925f","ios":"levelo://app?vid=6d74a9f5-3f03-4e8e-aa3b-29a84082925f"},"vehicle_type_id":"4","last_reported":1746227367,"current_range_meters":10000,"station_id":"cpo3532slgdg3j2ikp40","pricing_plan_id":"cebpf4jnsgd1na2vs0mg"},{"bike_id":"f48f6a8a-46ce-4c79-8fb0-19652a738d42","system_id":"levelo_inurba_marseille","lat":43.36157,"lon":5.44178,"is_reserved":false,"is_disabled":false,"rental_uris":{"android":"levelo://app?vid=f48f6a8a-46ce-4c79-8fb0-19652a738d42","ios":"levelo://app?vid=f48f6a8a-46ce-4c79-8fb0-19652a738d42"},"vehicle_type_id":"4","last_reported":1746227367,"current_range_meters":10800,"station_id":"","pricing_plan_id":"cebpf4jnsgd1na2vs0mg"},{"bike_id":"b435dcda-f54b-4a95-801d-93000c53dc24","system_id":"levelo_inurba_marseille","lat":43.31358,"lon":5.38494,"is_reserved":false,"is_disabled":false,"rental_uris":{"android":"levelo://app?vid=b435dcda-f54b-4a95-801d-93000c53dc24","ios":"levelo://app?vid=b435dcda-f54b-4a95-801d-93000c53dc24"},"vehicle_type_id":"4","last_reported":1746227367,"current_range_meters":10800,"station_id":"ce4bgt92rcd13ifvqcf0","pricing_plan_id":"cebpf4jnsgd1na2vs0mg"},{"bike_id":"8f0b6d3d-a696-47f3-a3f1-b0104d31f690","system_id":"levelo_inurba_marseille","lat":43.3089,"lon":5.372,"is_reserved":false,"is_disabled":false,"rental_uris":{"android":"levelo://app?vid=8f0b6d3d-a696-47f3-a3f1-b0104d31f690","ios":"levelo://app?vid=8f0b6d3d-a696-47f3-a3f1-b0104d31f690"},"vehicle_type_id":"4","last_reported":1746227367,"current_range_meters":10800,"station_id":"ce4bguh2rcd13ifvqckg","pricing_plan_id":"cebpf4jnsgd1na2vs0mg"},{"bike_id":"f1a52838-36ac-41d1-9e82-ae8f7b513d17","system_id":"levelo_inurba_marseille","lat":43.28702,"lon":5.374,"is_reserved":false,"is_disabled":false,"rental_uris":{"android":"levelo://app?vid=f1a52838-36ac-41d1-9e82-ae8f7b513d17","ios":"levelo://app?vid=f1a52838-36ac-41d1-9e82-ae8f7b513d17"},"vehicle_type_id":"4","last_reported":1746227367,"current_range_meters":10800,"station_id":"ce4bh3p2rcd13ifvqdq0","pricing_plan_id":"cebpf4jnsgd1na2vs0mg"},{"bike_id":"79dc9683-b42d-4990-a9a3-c0bcacc25768","system_id":"levelo_inurba_marseille","lat":43.28665,"lon":5.36345,"is_reserved":false,"is_disabled":false,"rental_uris":{"android":"levelo://app?vid=79dc9683-b42d-4990-a9a3-c0bcacc25768","ios":"levelo://app?vid=79dc9683-b42d-4990-a9a3-c0bcacc25768"},"vehicle_type_id":"4","last_reported":1746227367,"current_range_meters":10800,"station_id":"ce4bhah2rcd13ifvqej0","pricing_plan_id":"cebpf4jnsgd1na2vs0mg"},{"bike_id":"5b094917-c175-4b9b-abeb-88fd43cf31ed","system_id":"levelo_inurba_marseille","lat":43.295723,"lon":5.422843,"is_reserved":false,"is_disabled":false,"rental_uris":{"android":"levelo://app?vid=5b094917-c175-4b9b-abeb-88fd43cf31ed","ios":"levelo://app?vid=5b094917-c175-4b9b-abeb-88fd43cf31ed"},"vehicle_type_id":"4","last_reported":1746227367,"current_range_meters":10800,"station_id":"ce4bhph2rcd13ifvqhdg","pricing_plan_id":"cebpf4jnsgd1na2vs0mg"},{"bike_id":"e0e163c0-b70c-478b-a240-966060226969","system_id":"levelo_inurba_marseille","lat":43.292406,"lon":5.361933,"is_reserved":false,"is_disabled":false,"rental_uris":{"android":"levelo://app?vid=e0e163c0-b70c-478b-a240-966060226969","ios":"levelo://app?vid=e0e163c0-b70c-478b-a240-966060226969"},"vehicle_type_id":"4","last_reported":1746227367,"current_range_meters":11200,"station_id":"","pricing_plan_id":"cebpf4jnsgd1na2vs0mg"},{"bike_id":"b84901a5-3ddc-4c9b-bfd3-3416195d688f","system_id":"levelo_inurba_marseille","lat":43.30253,"lon":5.40078,"is_reserved":false,"is_disabled":false,"rental_uris":{"android":"levelo://app?vid=b84901a5-3ddc-4c9b-bfd3-3416195d688f","ios":"levelo://app?vid=b84901a5-3ddc-4c9b-bfd3-3416195d688f"},"vehicle_type_id":"4","last_reported":1746227367,"current_range_meters":11200,"station_id":"ce4bgvh2rcd13ifvqcs0","pricing_plan_id":"cebpf4jnsgd1na2vs0mg"},{"bike_id":"608a0ddd-9577-4be6-b0ed-7c2bf754835b","system_id":"levelo_inurba_marseille","lat":43.28458,"lon":5.35892,"is_reserved":false,"is_disabled":false,"rental_uris":{"android":"levelo://app?vid=608a0ddd-9577-4be6-b0ed-7c2bf754835b","ios":"levelo://app?vid=608a0ddd-9577-4be6-b0ed-7c2bf754835b"},"vehicle_type_id":"4","last_reported":1746227367,"current_range_meters":11200,"station_id":"ce4bhah2rcd13ifvqei0","pricing_plan_id":"cebpf4jnsgd1na2vs0mg"},{"bike_id":"313f19ff-8c45-4a02-b367-c6a7c2d5e214","system_id":"levelo_inurba_marseille","lat":43.27497,"lon":5.424488,"is_reserved":false,"is_disabled":false,"rental_uris":{"android":"levelo://app?vid=313f19ff-8c45-4a02-b367-c6a7c2d5e214","ios":"levelo://app?vid=313f19ff-8c45-4a02-b367-c6a7c2d5e214"},"vehicle_type_id":"4","last_reported":1746227367,"current_range_meters":11200,"station_id":"ce4bhn92rcd13ifvqgrg","pricing_plan_id":"cebpf4jnsgd1na2vs0mg"},{"bike_id":"2cce8745-f47d-491d-9776-93cf9f036027","system_id":"levelo_inurba_marseille","lat":43.308096,"lon":5.435276,"is_reserved":false,"is_disabled":false,"rental_uris":{"android":"levelo://app?vid=2cce8745-f47d-491d-9776-93cf9f036027","ios":"levelo://app?vid=2cce8745-f47d-491d-9776-93cf9f036027"},"vehicle_type_id":"4","last_reported":1746227367,"current_range_meters":11200,"station_id":"ce4bhph2rcd13ifvqheg","pricing_plan_id":"cebpf4jnsgd1na2vs0mg"},{"bike_id":"ad7ca592-f236-4a6d-9431-e31ab8d26c7e","system_id":"levelo_inurba_marseille","lat":43.323589,"lon":5.367434,"is_reserved":false,"is_disabled":false,"rental_uris":{"android":"levelo://app?vid=ad7ca592-f236-4a6d-9431-e31ab8d26c7e","ios":"levelo://app?vid=ad7ca592-f236-4a6d-9431-e31ab8d26c7e"},"vehicle_type_id":"4","last_reported":1746227367,"current_range_meters":11200,"station_id":"ce4bhsh2rcd13ifvqi2g","pricing_plan_id":"cebpf4jnsgd1na2vs0mg"},{"bike_id":"7562fefc-c985-4ce7-a071-7daa2203eb23","system_id":"levelo_inurba_marseille","lat":43.2443,"lon":5.37345,"is_reserved":false,"is_disabled":false,"rental_uris":{"android":"levelo://app?vid=7562fefc-c985-4ce7-a071-7daa2203eb23","ios":"levelo://app?vid=7562fefc-c985-4ce7-a071-7daa2203eb23"},"vehicle_type_id":"4","last_reported":1746227367,"current_range_meters":11600,"station_id":"","pricing_plan_id":"cebpf4jnsgd1na2vs0mg"},{"bike_id":"7e2d41bc-0004-42f0-a983-74b20813c709","system_id":"levelo_inurba_marseille","lat":43.304304,"lon":5.397586,"is_reserved":false,"is_disabled":false,"rental_uris":{"android":"levelo://app?vid=7e2d41bc-0004-42f0-a983-74b20813c709","ios":"levelo://app?vid=7e2d41bc-0004-42f0-a983-74b20813c709"},"vehicle_type_id":"4","last_reported":1746227367,"current_range_meters":11600,"station_id":"ce4bh092rcd13ifvqd20","pricing_plan_id":"cebpf4jnsgd1na2vs0mg"},{"bike_id":"c2445f63-4afc-4100-80eb-dd34413608a9","system_id":"levelo_inurba_marseille","lat":43.28839,"lon":5.39339,"is_reserved":false,"is_disabled":false,"rental_uris":{"android":"levelo://app?vid=c2445f63-4afc-4100-80eb-dd34413608a9","ios":"levelo://app?vid=c2445f63-4afc-4100-80eb-dd34413608a9"},"vehicle_type_id":"4","last_reported":1746227367,"current_range_meters":11600,"station_id":"ce4bh2p2rcd13ifvqdi0","pricing_plan_id":"cebpf4jnsgd1na2vs0mg"},{"bike_id":"b012dda0-636e-4d9d-bb11-2107f4b207ea","system_id":"levelo_inurba_marseille","lat":43.26228,"lon":5.40451,"is_reserved":false,"is_disabled":false,"rental_uris":{"android":"levelo://app?vid=b012dda0-636e-4d9d-bb11-2107f4b207ea","ios":"levelo://app?vid=b012dda0-636e-4d9d-bb11-2107f4b207ea"},"vehicle_type_id":"4","last_reported":1746227367,"current_range_meters":11600,"station_id":"ce4bhmh2rcd13ifvqgmg","pricing_plan_id":"cebpf4jnsgd1na2vs0mg"},{"bike_id":"5a3e71be-16dc-472c-a836-0a1eb6c38cde","system_id":"levelo_inurba_marseille","lat":43.31722,"lon":5.42392,"is_reserved":false,"is_disabled":false,"rental_uris":{"android":"levelo://app?vid=5a3e71be-16dc-472c-a836-0a1eb6c38cde","ios":"levelo://app?vid=5a3e71be-16dc-472c-a836-0a1eb6c38cde"},"vehicle_type_id":"4","last_reported":1746227367,"current_range_meters":11600,"station_id":"ce4bhp92rcd13ifvqhbg","pricing_plan_id":"cebpf4jnsgd1na2vs0mg"},{"bike_id":"1d7b6ae0-2914-4718-9359-9dc1b5a0be52","system_id":"levelo_inurba_marseille","lat":43.295603,"lon":5.42289,"is_reserved":false,"is_disabled":false,"rental_uris":{"android":"levelo://app?vid=1d7b6ae0-2914-4718-9359-9dc1b5a0be52","ios":"levelo://app?vid=1d7b6ae0-2914-4718-9359-9dc1b5a0be52"},"vehicle_type_id":"4","last_reported":1746227367,"current_range_meters":11600,"station_id":"ce4bhph2rcd13ifvqhdg","pricing_plan_id":"cebpf4jnsgd1na2vs0mg"},{"bike_id":"570b486c-50df-4f1f-97df-caa86c0d419e","system_id":"levelo_inurba_marseille","lat":43.33726,"lon":5.35593,"is_reserved":false,"is_disabled":false,"rental_uris":{"android":"levelo://app?vid=570b486c-50df-4f1f-97df-caa86c0d419e","ios":"levelo://app?vid=570b486c-50df-4f1f-97df-caa86c0d419e"},"vehicle_type_id":"4","last_reported":1746227367,"current_range_meters":12000,"station_id":"","pricing_plan_id":"cebpf4jnsgd1na2vs0mg"},{"bike_id":"16858c41-7dec-4f69-b84d-6b310d85cdce","system_id":"levelo_inurba_marseille","lat":43.30181,"lon":5.36613,"is_reserved":false,"is_disabled":false,"rental_uris":{"android":"levelo://app?vid=16858c41-7dec-4f69-b84d-6b310d85cdce","ios":"levelo://app?vid=16858c41-7dec-4f69-b84d-6b310d85cdce"},"vehicle_type_id":"4","last_reported":1746227367,"current_range_meters":12000,"station_id":"ce4bgrh2rcd13ifvqc8g","pricing_plan_id":"cebpf4jnsgd1na2vs0mg"},{"bike_id":"2c9391fc-1f3c-4f21-902a-d06184a65186","system_id":"levelo_inurba_marseille","lat":43.30932,"lon":5.4014,"is_reserved":false,"is_disabled":false,"rental_uris":{"android":"levelo://app?vid=2c9391fc-1f3c-4f21-902a-d06184a65186","ios":"levelo://app?vid=2c9391fc-1f3c-4f21-902a-d06184a65186"},"vehicle_type_id":"4","last_reported":1746227367,"current_range_meters":12000,"station_id":"ce4bgvp2rcd13ifvqct0","pricing_plan_id":"cebpf4jnsgd1na2vs0mg"},{"bike_id":"7652691b-a50b-4fde-b329-9cb026aac22f","system_id":"levelo_inurba_marseille","lat":43.30599,"lon":5.39369,"is_reserved":false,"is_disabled":false,"rental_uris":{"android":"levelo://app?vid=7652691b-a50b-4fde-b329-9cb026aac22f","ios":"levelo://app?vid=7652691b-a50b-4fde-b329-9cb026aac22f"},"vehicle_type_id":"4","last_reported":1746227367,"current_range_meters":12000,"station_id":"ce4bh0p2rcd13ifvqd80","pricing_plan_id":"cebpf4jnsgd1na2vs0mg"},{"bike_id":"8de101bb-7e71-4a42-93bc-9fd9ca86e7e0","system_id":"levelo_inurba_marseille","lat":43.2481,"lon":5.37456,"is_reserved":false,"is_disabled":false,"rental_uris":{"android":"levelo://app?vid=8de101bb-7e71-4a42-93bc-9fd9ca86e7e0","ios":"levelo://app?vid=8de101bb-7e71-4a42-93bc-9fd9ca86e7e0"},"vehicle_type_id":"4","last_reported":1746227367,"current_range_meters":12000,"station_id":"ce4bhgh2rcd13ifvqfb0","pricing_plan_id":"cebpf4jnsgd1na2vs0mg"},{"bike_id":"d0c99e1b-7079-4907-8cdd-1de266bb51e1","system_id":"levelo_inurba_marseille","lat":43.248079,"lon":5.374603,"is_reserved":false,"is_disabled":false,"rental_uris":{"android":"levelo://app?vid=d0c99e1b-7079-4907-8cdd-1de266bb51e1","ios":"levelo://app?vid=d0c99e1b-7079-4907-8cdd-1de266bb51e1"},"vehicle_type_id":"4","last_reported":1746227367,"current_range_meters":12000,"station_id":"ce4bhgh2rcd13ifvqfb0","pricing_plan_id":"cebpf4jnsgd1na2vs0mg"},{"bike_id":"f643cbf7-27c7-4e27-ab8a-8c2f248809bb","system_id":"levelo_inurba_marseille","lat":43.25821,"lon":5.39426,"is_reserved":false,"is_disabled":false,"rental_uris":{"android":"levelo://app?vid=f643cbf7-27c7-4e27-ab8a-8c2f248809bb","ios":"levelo://app?vid=f643cbf7-27c7-4e27-ab8a-8c2f248809bb"},"vehicle_type_id":"4","last_reported":1746227367,"current_range_meters":12000,"station_id":"ce4bhip2rcd13ifvqft0","pricing_plan_id":"cebpf4jnsgd1na2vs0mg"},{"bike_id":"1bac20cf-d8ec-42b0-b306-748bd95fc366","system_id":"levelo_inurba_marseille","lat":43.27494,"lon":5.42448,"is_reserved":false,"is_disabled":false,"rental_uris":{"android":"levelo://app?vid=1bac20cf-d8ec-42b0-b306-748bd95fc366","ios":"levelo://app?vid=1bac20cf-d8ec-42b0-b306-748bd95fc366"},"vehicle_type_id":"4","last_reported":1746227367,"current_range_meters":12000,"station_id":"ce4bhn92rcd13ifvqgrg","pricing_plan_id":"cebpf4jnsgd1na2vs0mg"},{"bike_id":"6bcfafe9-e0dc-4830-a2ef-8fbcb15314a2","system_id":"levelo_inurba_marseille","lat":43.29546,"lon":5.42274,"is_reserved":false,"is_disabled":false,"rental_uris":{"android":"levelo://app?vid=6bcfafe9-e0dc-4830-a2ef-8fbcb15314a2","ios":"levelo://app?vid=6bcfafe9-e0dc-4830-a2ef-8fbcb15314a2"},"vehicle_type_id":"4","last_reported":1746227367,"current_range_meters":12000,"station_id":"ce4bhph2rcd13ifvqhdg","pricing_plan_id":"cebpf4jnsgd1na2vs0mg"},{"bike_id":"83190609-f466-4119-99b6-83a7cd7c0a78","system_id":"levelo_inurba_marseille","lat":43.317671,"lon":5.390107,"is_reserved":false,"is_disabled":false,"rental_uris":{"android":"levelo://app?vid=83190609-f466-4119-99b6-83a7cd7c0a78","ios":"levelo://app?vid=83190609-f466-4119-99b6-83a7cd7c0a78"},"vehicle_type_id":"4","last_reported":1746227367,"current_range_meters":12000,"station_id":"ce4bhqp2rcd13ifvqhng","pricing_plan_id":"cebpf4jnsgd1na2vs0mg"},{"bike_id":"f28a6a99-f960-44e5-8dd2-042ad6e229e6","system_id":"levelo_inurba_marseille","lat":43.278127,"lon":5.427917,"is_reserved":false,"is_disabled":false,"rental_uris":{"android":"levelo://app?vid=f28a6a99-f960-44e5-8dd2-042ad6e229e6","ios":"levelo://app?vid=f28a6a99-f960-44e5-8dd2-042ad6e229e6"},"vehicle_type_id":"4","last_reported":1746227367,"current_range_meters":12400,"station_id":"","pricing_plan_id":"cebpf4jnsgd1na2vs0mg"},{"bike_id":"90fe6b2c-98b3-4084-9346-072b9cd32382","system_id":"levelo_inurba_marseille","lat":43.29263,"lon":5.40916,"is_reserved":false,"is_disabled":false,"rental_uris":{"android":"levelo://app?vid=90fe6b2c-98b3-4084-9346-072b9cd32382","ios":"levelo://app?vid=90fe6b2c-98b3-4084-9346-072b9cd32382"},"vehicle_type_id":"4","last_reported":1746227367,"current_range_meters":12400,"station_id":"ce4bh192rcd13ifvqdc0","pricing_plan_id":"cebpf4jnsgd1na2vs0mg"},{"bike_id":"b860950e-8dd9-43ac-ab45-42b462c5ee31","system_id":"levelo_inurba_marseille","lat":43.24688,"lon":5.38154,"is_reserved":false,"is_disabled":false,"rental_uris":{"android":"levelo://app?vid=b860950e-8dd9-43ac-ab45-42b462c5ee31","ios":"levelo://app?vid=b860950e-8dd9-43ac-ab45-42b462c5ee31"},"vehicle_type_id":"4","last_reported":1746227367,"current_range_meters":12400,"station_id":"ce4bhih2rcd13ifvqfr0","pricing_plan_id":"cebpf4jnsgd1na2vs0mg"},{"bike_id":"dfb3396e-96f5-457c-af11-f6f27dad33e9","system_id":"levelo_inurba_marseille","lat":43.27209,"lon":5.36473,"is_reserved":false,"is_disabled":false,"rental_uris":{"android":"levelo://app?vid=dfb3396e-96f5-457c-af11-f6f27dad33e9","ios":"levelo://app?vid=dfb3396e-96f5-457c-af11-f6f27dad33e9"},"vehicle_type_id":"4","last_reported":1746227367,"current_range_meters":12800,"station_id":"","pricing_plan_id":"cebpf4jnsgd1na2vs0mg"},{"bike_id":"030d6d3e-eaab-4a80-9ed6-d6c30a3da1f2","system_id":"levelo_inurba_marseille","lat":43.31359,"lon":5.38487,"is_reserved":false,"is_disabled":false,"rental_uris":{"android":"levelo://app?vid=030d6d3e-eaab-4a80-9ed6-d6c30a3da1f2","ios":"levelo://app?vid=030d6d3e-eaab-4a80-9ed6-d6c30a3da1f2"},"vehicle_type_id":"4","last_reported":1746227367,"current_range_meters":12800,"station_id":"ce4bgt92rcd13ifvqcf0","pricing_plan_id":"cebpf4jnsgd1na2vs0mg"},{"bike_id":"cb96c3e8-6ba7-499e-9d69-3e243a4e3e37","system_id":"levelo_inurba_marseille","lat":43.28463,"lon":5.358927,"is_reserved":false,"is_disabled":false,"rental_uris":{"android":"levelo://app?vid=cb96c3e8-6ba7-499e-9d69-3e243a4e3e37","ios":"levelo://app?vid=cb96c3e8-6ba7-499e-9d69-3e243a4e3e37"},"vehicle_type_id":"4","last_reported":1746227367,"current_range_meters":12800,"station_id":"ce4bhah2rcd13ifvqei0","pricing_plan_id":"cebpf4jnsgd1na2vs0mg"},{"bike_id":"6151402f-7e4f-4e3f-ae9b-102ca515418f","system_id":"levelo_inurba_marseille","lat":43.25726,"lon":5.41107,"is_reserved":false,"is_disabled":false,"rental_uris":{"android":"levelo://app?vid=6151402f-7e4f-4e3f-ae9b-102ca515418f","ios":"levelo://app?vid=6151402f-7e4f-4e3f-ae9b-102ca515418f"},"vehicle_type_id":"4","last_reported":1746227367,"current_range_meters":12800,"station_id":"ce4bhkp2rcd13ifvqgd0","pricing_plan_id":"cebpf4jnsgd1na2vs0mg"},{"bike_id":"b06d9155-0e15-41b9-8f2a-e8f7c4b2bdbb","system_id":"levelo_inurba_marseille","lat":43.25121,"lon":5.40318,"is_reserved":false,"is_disabled":false,"rental_uris":{"android":"levelo://app?vid=b06d9155-0e15-41b9-8f2a-e8f7c4b2bdbb","ios":"levelo://app?vid=b06d9155-0e15-41b9-8f2a-e8f7c4b2bdbb"},"vehicle_type_id":"4","last_reported":1746227367,"current_range_meters":12800,"station_id":"ce4bhlh2rcd13ifvqgig","pricing_plan_id":"cebpf4jnsgd1na2vs0mg"},{"bike_id":"a30656a3-98be-4e04-8966-bf234d111e43","system_id":"levelo_inurba_marseille","lat":43.28067,"lon":5.39631,"is_reserved":false,"is_disabled":false,"rental_uris":{"android":"levelo://app?vid=a30656a3-98be-4e04-8966-bf234d111e43","ios":"levelo://app?vid=a30656a3-98be-4e04-8966-bf234d111e43"},"vehicle_type_id":"4","last_reported":1746227367,"current_range_meters":12800,"station_id":"ce4bho12rcd13ifvqh2g","pricing_plan_id":"cebpf4jnsgd1na2vs0mg"},{"bike_id":"2fc7066a-3168-4b00-a4fc-ece640118f70","system_id":"levelo_inurba_marseille","lat":43.2841,"lon":5.37509,"is_reserved":false,"is_disabled":false,"rental_uris":{"android":"levelo://app?vid=2fc7066a-3168-4b00-a4fc-ece640118f70","ios":"levelo://app?vid=2fc7066a-3168-4b00-a4fc-ece640118f70"},"vehicle_type_id":"4","last_reported":1746227367,"current_range_meters":13600,"station_id":"ce4bh412rcd13ifvqds0","pricing_plan_id":"cebpf4jnsgd1na2vs0mg"},{"bike_id":"8105ea61-1930-4b48-827f-ed01cb559bea","system_id":"levelo_inurba_marseille","lat":43.246635,"lon":5.38157,"is_reserved":false,"is_disabled":false,"rental_uris":{"android":"levelo://app?vid=8105ea61-1930-4b48-827f-ed01cb559bea","ios":"levelo://app?vid=8105ea61-1930-4b48-827f-ed01cb559bea"},"vehicle_type_id":"4","last_reported":1746227367,"current_range_meters":13600,"station_id":"ce4bhih2rcd13ifvqfr0","pricing_plan_id":"cebpf4jnsgd1na2vs0mg"},{"bike_id":"697aa42c-18e7-4090-b4d4-adeac1fe1677","system_id":"levelo_inurba_marseille","lat":43.24078,"lon":5.37757,"is_reserved":false,"is_disabled":false,"rental_uris":{"android":"levelo://app?vid=697aa42c-18e7-4090-b4d4-adeac1fe1677","ios":"levelo://app?vid=697aa42c-18e7-4090-b4d4-adeac1fe1677"},"vehicle_type_id":"4","last_reported":1746227367,"current_range_meters":13600,"station_id":"ce4bhnp2rcd13ifvqgvg","pricing_plan_id":"cebpf4jnsgd1na2vs0mg"},{"bike_id":"656e71e3-7377-47ee-9ace-b6627c80c891","system_id":"levelo_inurba_marseille","lat":43.24389,"lon":5.37055,"is_reserved":false,"is_disabled":false,"rental_uris":{"android":"levelo://app?vid=656e71e3-7377-47ee-9ace-b6627c80c891","ios":"levelo://app?vid=656e71e3-7377-47ee-9ace-b6627c80c891"},"vehicle_type_id":"4","last_reported":1746227367,"current_range_meters":14000,"station_id":"ce4bhhh2rcd13ifvqfk0","pricing_plan_id":"cebpf4jnsgd1na2vs0mg"},{"bike_id":"6c0e5220-ee62-4032-884d-af4df430249c","system_id":"levelo_inurba_marseille","lat":43.32106,"lon":5.36759,"is_reserved":false,"is_disabled":false,"rental_uris":{"android":"levelo://app?vid=6c0e5220-ee62-4032-884d-af4df430249c","ios":"levelo://app?vid=6c0e5220-ee62-4032-884d-af4df430249c"},"vehicle_type_id":"4","last_reported":1746227367,"current_range_meters":14000,"station_id":"ce4bhrh2rcd13ifvqhug","pricing_plan_id":"cebpf4jnsgd1na2vs0mg"},{"bike_id":"fd2c3c67-23a6-4380-b7ca-8f23c8f78921","system_id":"levelo_inurba_marseille","lat":43.323631,"lon":5.367628,"is_reserved":false,"is_disabled":false,"rental_uris":{"android":"levelo://app?vid=fd2c3c67-23a6-4380-b7ca-8f23c8f78921","ios":"levelo://app?vid=fd2c3c67-23a6-4380-b7ca-8f23c8f78921"},"vehicle_type_id":"4","last_reported":1746227367,"current_range_meters":14000,"station_id":"ce4bhsh2rcd13ifvqi2g","pricing_plan_id":"cebpf4jnsgd1na2vs0mg"},{"bike_id":"7f61934c-9cb9-4176-a54d-8a502361a16e","system_id":"levelo_inurba_marseille","lat":43.303248,"lon":5.404391,"is_reserved":false,"is_disabled":false,"rental_uris":{"android":"levelo://app?vid=7f61934c-9cb9-4176-a54d-8a502361a16e","ios":"levelo://app?vid=7f61934c-9cb9-4176-a54d-8a502361a16e"},"vehicle_type_id":"4","last_reported":1746227367,"current_range_meters":14400,"station_id":"ce4bh012rcd13ifvqd10","pricing_plan_id":"cebpf4jnsgd1na2vs0mg"},{"bike_id":"bfdb6247-f47d-4f2c-8e70-264fe5da42e6","system_id":"levelo_inurba_marseille","lat":43.28699,"lon":5.37386,"is_reserved":false,"is_disabled":false,"rental_uris":{"android":"levelo://app?vid=bfdb6247-f47d-4f2c-8e70-264fe5da42e6","ios":"levelo://app?vid=bfdb6247-f47d-4f2c-8e70-264fe5da42e6"},"vehicle_type_id":"4","last_reported":1746227367,"current_range_meters":14400,"station_id":"ce4bh3p2rcd13ifvqdq0","pricing_plan_id":"cebpf4jnsgd1na2vs0mg"},{"bike_id":"a05453e7-be86-4485-99cf-1029b3411bcc","system_id":"levelo_inurba_marseille","lat":43.29924,"lon":5.37472,"is_reserved":false,"is_disabled":false,"rental_uris":{"android":"levelo://app?vid=a05453e7-be86-4485-99cf-1029b3411bcc","ios":"levelo://app?vid=a05453e7-be86-4485-99cf-1029b3411bcc"},"vehicle_type_id":"4","last_reported":1746227367,"current_range_meters":14800,"station_id":"ce4bgjh2rcd13ifvqbg0","pricing_plan_id":"cebpf4jnsgd1na2vs0mg"},{"bike_id":"fcdbc0dd-fd8d-477a-890a-5812c40d0d22","system_id":"levelo_inurba_marseille","lat":43.246665,"lon":5.381406,"is_reserved":false,"is_disabled":false,"rental_uris":{"android":"levelo://app?vid=fcdbc0dd-fd8d-477a-890a-5812c40d0d22","ios":"levelo://app?vid=fcdbc0dd-fd8d-477a-890a-5812c40d0d22"},"vehicle_type_id":"4","last_reported":1746227367,"current_range_meters":15200,"station_id":"ce4bhih2rcd13ifvqfr0","pricing_plan_id":"cebpf4jnsgd1na2vs0mg"},{"bike_id":"25ae0302-cb1e-4b05-a1c2-1c887b1025fe","system_id":"levelo_inurba_marseille","lat":43.241674,"lon":5.363997,"is_reserved":false,"is_disabled":false,"rental_uris":{"android":"levelo://app?vid=25ae0302-cb1e-4b05-a1c2-1c887b1025fe","ios":"levelo://app?vid=25ae0302-cb1e-4b05-a1c2-1c887b1025fe"},"vehicle_type_id":"4","last_reported":1746227367,"current_range_meters":15200,"station_id":"cpo36qri1sfpv3e86is0","pricing_plan_id":"cebpf4jnsgd1na2vs0mg"},{"bike_id":"fb80c1da-d845-467b-9c3b-2f591f4d56ae","system_id":"levelo_inurba_marseille","lat":43.323406,"lon":5.37422,"is_reserved":false,"is_disabled":false,"rental_uris":{"android":"levelo://app?vid=fb80c1da-d845-467b-9c3b-2f591f4d56ae","ios":"levelo://app?vid=fb80c1da-d845-467b-9c3b-2f591f4d56ae"},"vehicle_type_id":"4","last_reported":1746227367,"current_range_meters":16000,"station_id":"","pricing_plan_id":"cebpf4jnsgd1na2vs0mg"},{"bike_id":"715d4ccd-4d07-4967-8be3-b199930f65b6","system_id":"levelo_inurba_marseille","lat":43.310697,"lon":5.400988,"is_reserved":false,"is_disabled":false,"rental_uris":{"android":"levelo://app?vid=715d4ccd-4d07-4967-8be3-b199930f65b6","ios":"levelo://app?vid=715d4ccd-4d07-4967-8be3-b199930f65b6"},"vehicle_type_id":"4","last_reported":1746227367,"current_range_meters":16000,"station_id":"","pricing_plan_id":"cebpf4jnsgd1na2vs0mg"},{"bike_id":"57d8bd1c-c0ef-4bc9-9141-4a198c997c47","system_id":"levelo_inurba_marseille","lat":43.31495,"lon":5.37308,"is_reserved":false,"is_disabled":false,"rental_uris":{"android":"levelo://app?vid=57d8bd1c-c0ef-4bc9-9141-4a198c997c47","ios":"levelo://app?vid=57d8bd1c-c0ef-4bc9-9141-4a198c997c47"},"vehicle_type_id":"4","last_reported":1746227367,"current_range_meters":16000,"station_id":"ce4bgt12rcd13ifvqcd0","pricing_plan_id":"cebpf4jnsgd1na2vs0mg"},{"bike_id":"c3856106-206a-4f39-adcf-8916ef5dd857","system_id":"levelo_inurba_marseille","lat":43.31065,"lon":5.38347,"is_reserved":false,"is_disabled":false,"rental_uris":{"android":"levelo://app?vid=c3856106-206a-4f39-adcf-8916ef5dd857","ios":"levelo://app?vid=c3856106-206a-4f39-adcf-8916ef5dd857"},"vehicle_type_id":"4","last_reported":1746227367,"current_range_meters":16000,"station_id":"ce4bgv92rcd13ifvqcr0","pricing_plan_id":"cebpf4jnsgd1na2vs0mg"},{"bike_id":"944f71e1-5595-4798-833c-c7ebd783dc75","system_id":"levelo_inurba_marseille","lat":43.308812,"lon":5.396492,"is_reserved":false,"is_disabled":false,"rental_uris":{"android":"levelo://app?vid=944f71e1-5595-4798-833c-c7ebd783dc75","ios":"levelo://app?vid=944f71e1-5595-4798-833c-c7ebd783dc75"},"vehicle_type_id":"4","last_reported":1746227367,"current_range_meters":16400,"station_id":"ce4bh012rcd13ifvqcv0","pricing_plan_id":"cebpf4jnsgd1na2vs0mg"},{"bike_id":"4570aeae-1bcc-49f7-accb-37cc53ae6fc1","system_id":"levelo_inurba_marseille","lat":43.28569,"lon":5.39507,"is_reserved":false,"is_disabled":false,"rental_uris":{"android":"levelo://app?vid=4570aeae-1bcc-49f7-accb-37cc53ae6fc1","ios":"levelo://app?vid=4570aeae-1bcc-49f7-accb-37cc53ae6fc1"},"vehicle_type_id":"4","last_reported":1746227367,"current_range_meters":16400,"station_id":"ce4bh292rcd13ifvqdg0","pricing_plan_id":"cebpf4jnsgd1na2vs0mg"},{"bike_id":"aedf206f-89f3-4f30-9da6-56fb7ff8915b","system_id":"levelo_inurba_marseille","lat":43.2812,"lon":5.403945,"is_reserved":false,"is_disabled":false,"rental_uris":{"android":"levelo://app?vid=aedf206f-89f3-4f30-9da6-56fb7ff8915b","ios":"levelo://app?vid=aedf206f-89f3-4f30-9da6-56fb7ff8915b"},"vehicle_type_id":"4","last_reported":1746227367,"current_range_meters":16800,"station_id":"","pricing_plan_id":"cebpf4jnsgd1na2vs0mg"},{"bike_id":"1676adb7-ed29-4030-b50c-7c8d16b49117","system_id":"levelo_inurba_marseille","lat":43.288644,"lon":5.358486,"is_reserved":false,"is_disabled":false,"rental_uris":{"android":"levelo://app?vid=1676adb7-ed29-4030-b50c-7c8d16b49117","ios":"levelo://app?vid=1676adb7-ed29-4030-b50c-7c8d16b49117"},"vehicle_type_id":"4","last_reported":1746227367,"current_range_meters":16800,"station_id":"ce4bhb12rcd13ifvqem0","pricing_plan_id":"cebpf4jnsgd1na2vs0mg"},{"bike_id":"701e5227-22ae-4915-aea9-f5edaf97a446","system_id":"levelo_inurba_marseille","lat":43.317601,"lon":5.390178,"is_reserved":false,"is_disabled":false,"rental_uris":{"android":"levelo://app?vid=701e5227-22ae-4915-aea9-f5edaf97a446","ios":"levelo://app?vid=701e5227-22ae-4915-aea9-f5edaf97a446"},"vehicle_type_id":"4","last_reported":1746227367,"current_range_meters":16800,"station_id":"ce4bhqp2rcd13ifvqhng","pricing_plan_id":"cebpf4jnsgd1na2vs0mg"},{"bike_id":"3fa05eab-bd38-4e51-9d14-fab3387355a7","system_id":"levelo_inurba_marseille","lat":43.322901,"lon":5.382851,"is_reserved":false,"is_disabled":false,"rental_uris":{"android":"levelo://app?vid=3fa05eab-bd38-4e51-9d14-fab3387355a7","ios":"levelo://app?vid=3fa05eab-bd38-4e51-9d14-fab3387355a7"},"vehicle_type_id":"4","last_reported":1746227367,"current_range_meters":16800,"station_id":"ce4bhr12rcd13ifvqhqg","pricing_plan_id":"cebpf4jnsgd1na2vs0mg"},{"bike_id":"16788dea-e770-4495-8963-3a810c86fa82","system_id":"levelo_inurba_marseille","lat":43.30791,"lon":5.381555,"is_reserved":false,"is_disabled":false,"rental_uris":{"android":"levelo://app?vid=16788dea-e770-4495-8963-3a810c86fa82","ios":"levelo://app?vid=16788dea-e770-4495-8963-3a810c86fa82"},"vehicle_type_id":"4","last_reported":1746227367,"current_range_meters":17200,"station_id":"ce4bgt12rcd13ifvqce0","pricing_plan_id":"cebpf4jnsgd1na2vs0mg"},{"bike_id":"383a9fec-74e2-4a49-b93b-c40bae44d5fc","system_id":"levelo_inurba_marseille","lat":43.30261,"lon":5.40069,"is_reserved":false,"is_disabled":false,"rental_uris":{"android":"levelo://app?vid=383a9fec-74e2-4a49-b93b-c40bae44d5fc","ios":"levelo://app?vid=383a9fec-74e2-4a49-b93b-c40bae44d5fc"},"vehicle_type_id":"4","last_reported":1746227367,"current_range_meters":17200,"station_id":"ce4bgvh2rcd13ifvqcs0","pricing_plan_id":"cebpf4jnsgd1na2vs0mg"},{"bike_id":"26578da7-3edb-493d-8c60-840ccd0aee5d","system_id":"levelo_inurba_marseille","lat":43.30926,"lon":5.40148,"is_reserved":false,"is_disabled":false,"rental_uris":{"android":"levelo://app?vid=26578da7-3edb-493d-8c60-840ccd0aee5d","ios":"levelo://app?vid=26578da7-3edb-493d-8c60-840ccd0aee5d"},"vehicle_type_id":"4","last_reported":1746227367,"current_range_meters":17200,"station_id":"ce4bgvp2rcd13ifvqct0","pricing_plan_id":"cebpf4jnsgd1na2vs0mg"},{"bike_id":"f3c8b19c-5a23-4954-a584-87dd50f6f65a","system_id":"levelo_inurba_marseille","lat":43.28849,"lon":5.3933,"is_reserved":false,"is_disabled":false,"rental_uris":{"android":"levelo://app?vid=f3c8b19c-5a23-4954-a584-87dd50f6f65a","ios":"levelo://app?vid=f3c8b19c-5a23-4954-a584-87dd50f6f65a"},"vehicle_type_id":"4","last_reported":1746227367,"current_range_meters":17200,"station_id":"ce4bh2p2rcd13ifvqdi0","pricing_plan_id":"cebpf4jnsgd1na2vs0mg"},{"bike_id":"b8d6bd6b-e69d-4869-8d67-2bbec570ca30","system_id":"levelo_inurba_marseille","lat":43.284,"lon":5.37525,"is_reserved":false,"is_disabled":false,"rental_uris":{"android":"levelo://app?vid=b8d6bd6b-e69d-4869-8d67-2bbec570ca30","ios":"levelo://app?vid=b8d6bd6b-e69d-4869-8d67-2bbec570ca30"},"vehicle_type_id":"4","last_reported":1746227367,"current_range_meters":17200,"station_id":"ce4bh412rcd13ifvqds0","pricing_plan_id":"cebpf4jnsgd1na2vs0mg"},{"bike_id":"67442ec6-5bca-4082-b351-d5d90427d154","system_id":"levelo_inurba_marseille","lat":43.30779,"lon":5.37652,"is_reserved":false,"is_disabled":false,"rental_uris":{"android":"levelo://app?vid=67442ec6-5bca-4082-b351-d5d90427d154","ios":"levelo://app?vid=67442ec6-5bca-4082-b351-d5d90427d154"},"vehicle_type_id":"4","last_reported":1746227367,"current_range_meters":17600,"station_id":"ce4bgv92rcd13ifvqcq0","pricing_plan_id":"cebpf4jnsgd1na2vs0mg"},{"bike_id":"b4fac8bf-7bd6-49a5-b30e-acb7f887dcd2","system_id":"levelo_inurba_marseille","lat":43.27906,"lon":5.38017,"is_reserved":false,"is_disabled":false,"rental_uris":{"android":"levelo://app?vid=b4fac8bf-7bd6-49a5-b30e-acb7f887dcd2","ios":"levelo://app?vid=b4fac8bf-7bd6-49a5-b30e-acb7f887dcd2"},"vehicle_type_id":"4","last_reported":1746227367,"current_range_meters":17600,"station_id":"ce4bhf92rcd13ifvqf50","pricing_plan_id":"cebpf4jnsgd1na2vs0mg"},{"bike_id":"4e54e120-86c9-4be3-92e9-707b8e5adbcb","system_id":"levelo_inurba_marseille","lat":43.26056,"lon":5.39396,"is_reserved":false,"is_disabled":false,"rental_uris":{"android":"levelo://app?vid=4e54e120-86c9-4be3-92e9-707b8e5adbcb","ios":"levelo://app?vid=4e54e120-86c9-4be3-92e9-707b8e5adbcb"},"vehicle_type_id":"4","last_reported":1746227367,"current_range_meters":17600,"station_id":"ce4bhh92rcd13ifvqfj0","pricing_plan_id":"cebpf4jnsgd1na2vs0mg"},{"bike_id":"b960b3d9-efec-4356-b547-dd31cfa5d929","system_id":"levelo_inurba_marseille","lat":43.31758,"lon":5.390174,"is_reserved":false,"is_disabled":false,"rental_uris":{"android":"levelo://app?vid=b960b3d9-efec-4356-b547-dd31cfa5d929","ios":"levelo://app?vid=b960b3d9-efec-4356-b547-dd31cfa5d929"},"vehicle_type_id":"4","last_reported":1746227367,"current_range_meters":17600,"station_id":"ce4bhqp2rcd13ifvqhng","pricing_plan_id":"cebpf4jnsgd1na2vs0mg"},{"bike_id":"133835ca-5016-45b8-b651-31e2cfe662f1","system_id":"levelo_inurba_marseille","lat":43.321121,"lon":5.367662,"is_reserved":false,"is_disabled":false,"rental_uris":{"android":"levelo://app?vid=133835ca-5016-45b8-b651-31e2cfe662f1","ios":"levelo://app?vid=133835ca-5016-45b8-b651-31e2cfe662f1"},"vehicle_type_id":"4","last_reported":1746227367,"current_range_meters":17600,"station_id":"ce4bhrh2rcd13ifvqhug","pricing_plan_id":"cebpf4jnsgd1na2vs0mg"},{"bike_id":"e0ceefc0-61c9-406f-91eb-ef69db9dbe42","system_id":"levelo_inurba_marseille","lat":43.26122,"lon":5.41477,"is_reserved":false,"is_disabled":false,"rental_uris":{"android":"levelo://app?vid=e0ceefc0-61c9-406f-91eb-ef69db9dbe42","ios":"levelo://app?vid=e0ceefc0-61c9-406f-91eb-ef69db9dbe42"},"vehicle_type_id":"4","last_reported":1746227367,"current_range_meters":18000,"station_id":"","pricing_plan_id":"cebpf4jnsgd1na2vs0mg"},{"bike_id":"d5af81df-b990-40cc-8b38-b691309269a7","system_id":"levelo_inurba_marseille","lat":43.27622,"lon":5.36106,"is_reserved":false,"is_disabled":false,"rental_uris":{"android":"levelo://app?vid=d5af81df-b990-40cc-8b38-b691309269a7","ios":"levelo://app?vid=d5af81df-b990-40cc-8b38-b691309269a7"},"vehicle_type_id":"4","last_reported":1746227367,"current_range_meters":18000,"station_id":"ce4bgj92rcd13ifvqbe0","pricing_plan_id":"cebpf4jnsgd1na2vs0mg"},{"bike_id":"87ba1c8b-cf61-4846-9892-1b2c6cf2f5ba","system_id":"levelo_inurba_marseille","lat":43.28693,"lon":5.37392,"is_reserved":false,"is_disabled":false,"rental_uris":{"android":"levelo://app?vid=87ba1c8b-cf61-4846-9892-1b2c6cf2f5ba","ios":"levelo://app?vid=87ba1c8b-cf61-4846-9892-1b2c6cf2f5ba"},"vehicle_type_id":"4","last_reported":1746227367,"current_range_meters":18000,"station_id":"ce4bh3p2rcd13ifvqdq0","pricing_plan_id":"cebpf4jnsgd1na2vs0mg"},{"bike_id":"48fece27-19b4-40c0-a5a5-128630e207da","system_id":"levelo_inurba_marseille","lat":43.321101,"lon":5.367708,"is_reserved":false,"is_disabled":false,"rental_uris":{"android":"levelo://app?vid=48fece27-19b4-40c0-a5a5-128630e207da","ios":"levelo://app?vid=48fece27-19b4-40c0-a5a5-128630e207da"},"vehicle_type_id":"4","last_reported":1746227367,"current_range_meters":18000,"station_id":"ce4bhrh2rcd13ifvqhug","pricing_plan_id":"cebpf4jnsgd1na2vs0mg"},{"bike_id":"2bb6a742-8392-44ba-a660-cb62073d888e","system_id":"levelo_inurba_marseille","lat":43.321122,"lon":5.36776,"is_reserved":false,"is_disabled":false,"rental_uris":{"android":"levelo://app?vid=2bb6a742-8392-44ba-a660-cb62073d888e","ios":"levelo://app?vid=2bb6a742-8392-44ba-a660-cb62073d888e"},"vehicle_type_id":"4","last_reported":1746227367,"current_range_meters":18000,"station_id":"ce4bhrh2rcd13ifvqhug","pricing_plan_id":"cebpf4jnsgd1na2vs0mg"},{"bike_id":"018c685f-ce21-4c8f-af7d-34b82a75228c","system_id":"levelo_inurba_marseille","lat":43.30249,"lon":5.40058,"is_reserved":false,"is_disabled":false,"rental_uris":{"android":"levelo://app?vid=018c685f-ce21-4c8f-af7d-34b82a75228c","ios":"levelo://app?vid=018c685f-ce21-4c8f-af7d-34b82a75228c"},"vehicle_type_id":"4","last_reported":1746227367,"current_range_meters":18800,"station_id":"ce4bgvh2rcd13ifvqcs0","pricing_plan_id":"cebpf4jnsgd1na2vs0mg"},{"bike_id":"e1cea893-0d94-4d62-8014-6ff865d68b93","system_id":"levelo_inurba_marseille","lat":43.30895,"lon":5.39633,"is_reserved":false,"is_disabled":false,"rental_uris":{"android":"levelo://app?vid=e1cea893-0d94-4d62-8014-6ff865d68b93","ios":"levelo://app?vid=e1cea893-0d94-4d62-8014-6ff865d68b93"},"vehicle_type_id":"4","last_reported":1746227367,"current_range_meters":18800,"station_id":"ce4bh012rcd13ifvqcv0","pricing_plan_id":"cebpf4jnsgd1na2vs0mg"},{"bike_id":"e3b00f1b-404b-4d95-a959-52ed5da9c50f","system_id":"levelo_inurba_marseille","lat":43.30313,"lon":5.40436,"is_reserved":false,"is_disabled":false,"rental_uris":{"android":"levelo://app?vid=e3b00f1b-404b-4d95-a959-52ed5da9c50f","ios":"levelo://app?vid=e3b00f1b-404b-4d95-a959-52ed5da9c50f"},"vehicle_type_id":"4","last_reported":1746227367,"current_range_meters":18800,"station_id":"ce4bh012rcd13ifvqd10","pricing_plan_id":"cebpf4jnsgd1na2vs0mg"},{"bike_id":"cdfd7ebf-d40f-442e-8508-ccaa5f6b29f7","system_id":"levelo_inurba_marseille","lat":43.25941,"lon":5.408983,"is_reserved":false,"is_disabled":false,"rental_uris":{"android":"levelo://app?vid=cdfd7ebf-d40f-442e-8508-ccaa5f6b29f7","ios":"levelo://app?vid=cdfd7ebf-d40f-442e-8508-ccaa5f6b29f7"},"vehicle_type_id":"4","last_reported":1746227367,"current_range_meters":18800,"station_id":"ce4bhm92rcd13ifvqglg","pricing_plan_id":"cebpf4jnsgd1na2vs0mg"},{"bike_id":"764745f4-22f3-4d3f-9ccf-0bef40653811","system_id":"levelo_inurba_marseille","lat":43.308051,"lon":5.372495,"is_reserved":false,"is_disabled":false,"rental_uris":{"android":"levelo://app?vid=764745f4-22f3-4d3f-9ccf-0bef40653811","ios":"levelo://app?vid=764745f4-22f3-4d3f-9ccf-0bef40653811"},"vehicle_type_id":"4","last_reported":1746227367,"current_range_meters":19200,"station_id":"","pricing_plan_id":"cebpf4jnsgd1na2vs0mg"},{"bike_id":"4fd57909-8260-462c-adea-94e67f7a5406","system_id":"levelo_inurba_marseille","lat":43.310733,"lon":5.38328,"is_reserved":false,"is_disabled":false,"rental_uris":{"android":"levelo://app?vid=4fd57909-8260-462c-adea-94e67f7a5406","ios":"levelo://app?vid=4fd57909-8260-462c-adea-94e67f7a5406"},"vehicle_type_id":"4","last_reported":1746227367,"current_range_meters":19200,"station_id":"ce4bgv92rcd13ifvqcr0","pricing_plan_id":"cebpf4jnsgd1na2vs0mg"},{"bike_id":"c9e49f3b-3e05-4e25-bd92-5cc6a2ee5dda","system_id":"levelo_inurba_marseille","lat":43.28934,"lon":5.3962,"is_reserved":false,"is_disabled":false,"rental_uris":{"android":"levelo://app?vid=c9e49f3b-3e05-4e25-bd92-5cc6a2ee5dda","ios":"levelo://app?vid=c9e49f3b-3e05-4e25-bd92-5cc6a2ee5dda"},"vehicle_type_id":"4","last_reported":1746227367,"current_range_meters":19200,"station_id":"ce4bh3h2rcd13ifvqdn0","pricing_plan_id":"cebpf4jnsgd1na2vs0mg"},{"bike_id":"49e7d7fe-932a-42a6-a559-c17875658688","system_id":"levelo_inurba_marseille","lat":43.25119,"lon":5.40316,"is_reserved":false,"is_disabled":false,"rental_uris":{"android":"levelo://app?vid=49e7d7fe-932a-42a6-a559-c17875658688","ios":"levelo://app?vid=49e7d7fe-932a-42a6-a559-c17875658688"},"vehicle_type_id":"4","last_reported":1746227367,"current_range_meters":19200,"station_id":"ce4bhlh2rcd13ifvqgig","pricing_plan_id":"cebpf4jnsgd1na2vs0mg"},{"bike_id":"d76bfe54-9f31-429e-b3fd-66658987c5a6","system_id":"levelo_inurba_marseille","lat":43.32241,"lon":5.36732,"is_reserved":false,"is_disabled":false,"rental_uris":{"android":"levelo://app?vid=d76bfe54-9f31-429e-b3fd-66658987c5a6","ios":"levelo://app?vid=d76bfe54-9f31-429e-b3fd-66658987c5a6"},"vehicle_type_id":"4","last_reported":1746227367,"current_range_meters":19600,"station_id":"","pricing_plan_id":"cebpf4jnsgd1na2vs0mg"},{"bike_id":"16fa6642-b5ee-45d2-a1d5-09bd7f480c2c","system_id":"levelo_inurba_marseille","lat":43.24808,"lon":5.37452,"is_reserved":false,"is_disabled":false,"rental_uris":{"android":"levelo://app?vid=16fa6642-b5ee-45d2-a1d5-09bd7f480c2c","ios":"levelo://app?vid=16fa6642-b5ee-45d2-a1d5-09bd7f480c2c"},"vehicle_type_id":"4","last_reported":1746227367,"current_range_meters":19600,"station_id":"ce4bhgh2rcd13ifvqfb0","pricing_plan_id":"cebpf4jnsgd1na2vs0mg"},{"bike_id":"73792d1f-5126-4fa6-ae02-d3f1f02502ac","system_id":"levelo_inurba_marseille","lat":43.25092,"lon":5.39525,"is_reserved":false,"is_disabled":false,"rental_uris":{"android":"levelo://app?vid=73792d1f-5126-4fa6-ae02-d3f1f02502ac","ios":"levelo://app?vid=73792d1f-5126-4fa6-ae02-d3f1f02502ac"},"vehicle_type_id":"4","last_reported":1746227367,"current_range_meters":19600,"station_id":"ce4bhm12rcd13ifvqgkg","pricing_plan_id":"cebpf4jnsgd1na2vs0mg"},{"bike_id":"0f6e732c-f72f-4a32-a5ff-5c9380ca5485","system_id":"levelo_inurba_marseille","lat":43.240799,"lon":5.377497,"is_reserved":false,"is_disabled":false,"rental_uris":{"android":"levelo://app?vid=0f6e732c-f72f-4a32-a5ff-5c9380ca5485","ios":"levelo://app?vid=0f6e732c-f72f-4a32-a5ff-5c9380ca5485"},"vehicle_type_id":"4","last_reported":1746227367,"current_range_meters":19600,"station_id":"ce4bhnp2rcd13ifvqgvg","pricing_plan_id":"cebpf4jnsgd1na2vs0mg"},{"bike_id":"44130c6b-2416-4702-9f0a-b13dfe47637c","system_id":"levelo_inurba_marseille","lat":43.321154,"lon":5.36781,"is_reserved":false,"is_disabled":false,"rental_uris":{"android":"levelo://app?vid=44130c6b-2416-4702-9f0a-b13dfe47637c","ios":"levelo://app?vid=44130c6b-2416-4702-9f0a-b13dfe47637c"},"vehicle_type_id":"4","last_reported":1746227367,"current_range_meters":19600,"station_id":"ce4bhrh2rcd13ifvqhug","pricing_plan_id":"cebpf4jnsgd1na2vs0mg"},{"bike_id":"299192ef-aa8c-4cba-84be-9fad6ecdea89","system_id":"levelo_inurba_marseille","lat":43.311735,"lon":5.387185,"is_reserved":false,"is_disabled":false,"rental_uris":{"android":"levelo://app?vid=299192ef-aa8c-4cba-84be-9fad6ecdea89","ios":"levelo://app?vid=299192ef-aa8c-4cba-84be-9fad6ecdea89"},"vehicle_type_id":"4","last_reported":1746227367,"current_range_meters":20000,"station_id":"ce4bgv12rcd13ifvqcp0","pricing_plan_id":"cebpf4jnsgd1na2vs0mg"},{"bike_id":"ec846254-a6e9-4fc4-89e9-5bd9e7782a0d","system_id":"levelo_inurba_marseille","lat":43.31181,"lon":5.38705,"is_reserved":false,"is_disabled":false,"rental_uris":{"android":"levelo://app?vid=ec846254-a6e9-4fc4-89e9-5bd9e7782a0d","ios":"levelo://app?vid=ec846254-a6e9-4fc4-89e9-5bd9e7782a0d"},"vehicle_type_id":"4","last_reported":1746227367,"current_range_meters":20000,"station_id":"ce4bgv12rcd13ifvqcp0","pricing_plan_id":"cebpf4jnsgd1na2vs0mg"},{"bike_id":"3c17a01e-cff4-4a70-bc0a-247ef03d5738","system_id":"levelo_inurba_marseille","lat":43.3021,"lon":5.39468,"is_reserved":false,"is_disabled":false,"rental_uris":{"android":"levelo://app?vid=3c17a01e-cff4-4a70-bc0a-247ef03d5738","ios":"levelo://app?vid=3c17a01e-cff4-4a70-bc0a-247ef03d5738"},"vehicle_type_id":"4","last_reported":1746227367,"current_range_meters":20000,"station_id":"ce4bh0p2rcd13ifvqd70","pricing_plan_id":"cebpf4jnsgd1na2vs0mg"},{"bike_id":"502425f3-e2be-486c-8ef9-56f5696a6610","system_id":"levelo_inurba_marseille","lat":43.257193,"lon":5.41109,"is_reserved":false,"is_disabled":false,"rental_uris":{"android":"levelo://app?vid=502425f3-e2be-486c-8ef9-56f5696a6610","ios":"levelo://app?vid=502425f3-e2be-486c-8ef9-56f5696a6610"},"vehicle_type_id":"4","last_reported":1746227367,"current_range_meters":20000,"station_id":"ce4bhkp2rcd13ifvqgd0","pricing_plan_id":"cebpf4jnsgd1na2vs0mg"},{"bike_id":"04002ebb-082f-4da3-b7fd-f22007f903cc","system_id":"levelo_inurba_marseille","lat":43.23162,"lon":5.43714,"is_reserved":false,"is_disabled":false,"rental_uris":{"android":"levelo://app?vid=04002ebb-082f-4da3-b7fd-f22007f903cc","ios":"levelo://app?vid=04002ebb-082f-4da3-b7fd-f22007f903cc"},"vehicle_type_id":"4","last_reported":1746227367,"current_range_meters":20000,"station_id":"ce4bhmp2rcd13ifvqgog","pricing_plan_id":"cebpf4jnsgd1na2vs0mg"},{"bike_id":"ec6da0aa-0845-4bad-8a7b-8655154f5109","system_id":"levelo_inurba_marseille","lat":43.30809,"lon":5.43523,"is_reserved":false,"is_disabled":false,"rental_uris":{"android":"levelo://app?vid=ec6da0aa-0845-4bad-8a7b-8655154f5109","ios":"levelo://app?vid=ec6da0aa-0845-4bad-8a7b-8655154f5109"},"vehicle_type_id":"4","last_reported":1746227367,"current_range_meters":20000,"station_id":"ce4bhph2rcd13ifvqheg","pricing_plan_id":"cebpf4jnsgd1na2vs0mg"},{"bike_id":"50b6a543-1b2d-437d-aead-7a719c485734","system_id":"levelo_inurba_marseille","lat":43.2417,"lon":5.36389,"is_reserved":false,"is_disabled":false,"rental_uris":{"android":"levelo://app?vid=50b6a543-1b2d-437d-aead-7a719c485734","ios":"levelo://app?vid=50b6a543-1b2d-437d-aead-7a719c485734"},"vehicle_type_id":"4","last_reported":1746227367,"current_range_meters":20000,"station_id":"cpo36qri1sfpv3e86is0","pricing_plan_id":"cebpf4jnsgd1na2vs0mg"},{"bike_id":"8244df73-cd7a-4cb6-b1db-aa762db48780","system_id":"levelo_inurba_marseille","lat":43.3021,"lon":5.39471,"is_reserved":false,"is_disabled":false,"rental_uris":{"android":"levelo://app?vid=8244df73-cd7a-4cb6-b1db-aa762db48780","ios":"levelo://app?vid=8244df73-cd7a-4cb6-b1db-aa762db48780"},"vehicle_type_id":"4","last_reported":1746227367,"current_range_meters":20400,"station_id":"ce4bh0p2rcd13ifvqd70","pricing_plan_id":"cebpf4jnsgd1na2vs0mg"},{"bike_id":"93bff410-b448-4e28-975b-d8631f652a97","system_id":"levelo_inurba_marseille","lat":43.285723,"lon":5.394913,"is_reserved":false,"is_disabled":false,"rental_uris":{"android":"levelo://app?vid=93bff410-b448-4e28-975b-d8631f652a97","ios":"levelo://app?vid=93bff410-b448-4e28-975b-d8631f652a97"},"vehicle_type_id":"4","last_reported":1746227367,"current_range_meters":20400,"station_id":"ce4bh292rcd13ifvqdg0","pricing_plan_id":"cebpf4jnsgd1na2vs0mg"},{"bike_id":"d0f3d2fd-fa27-429a-ac6e-2ce941ccf208","system_id":"levelo_inurba_marseille","lat":43.248093,"lon":5.374543,"is_reserved":false,"is_disabled":false,"rental_uris":{"android":"levelo://app?vid=d0f3d2fd-fa27-429a-ac6e-2ce941ccf208","ios":"levelo://app?vid=d0f3d2fd-fa27-429a-ac6e-2ce941ccf208"},"vehicle_type_id":"4","last_reported":1746227367,"current_range_meters":20400,"station_id":"ce4bhgh2rcd13ifvqfb0","pricing_plan_id":"cebpf4jnsgd1na2vs0mg"},{"bike_id":"49bf4dc2-881c-49c5-b0e9-17ec0aec5ac2","system_id":"levelo_inurba_marseille","lat":43.26932,"lon":5.38923,"is_reserved":false,"is_disabled":false,"rental_uris":{"android":"levelo://app?vid=49bf4dc2-881c-49c5-b0e9-17ec0aec5ac2","ios":"levelo://app?vid=49bf4dc2-881c-49c5-b0e9-17ec0aec5ac2"},"vehicle_type_id":"4","last_reported":1746227367,"current_range_meters":20400,"station_id":"ce4bhhh2rcd13ifvqfl0","pricing_plan_id":"cebpf4jnsgd1na2vs0mg"},{"bike_id":"7546ac65-75b5-4763-8500-80cc785d36d1","system_id":"levelo_inurba_marseille","lat":43.246915,"lon":5.381446,"is_reserved":false,"is_disabled":false,"rental_uris":{"android":"levelo://app?vid=7546ac65-75b5-4763-8500-80cc785d36d1","ios":"levelo://app?vid=7546ac65-75b5-4763-8500-80cc785d36d1"},"vehicle_type_id":"4","last_reported":1746227367,"current_range_meters":20400,"station_id":"ce4bhih2rcd13ifvqfr0","pricing_plan_id":"cebpf4jnsgd1na2vs0mg"},{"bike_id":"d6a6f75b-73c3-463c-a1a6-35bbb4932dc9","system_id":"levelo_inurba_marseille","lat":43.27499,"lon":5.42451,"is_reserved":false,"is_disabled":false,"rental_uris":{"android":"levelo://app?vid=d6a6f75b-73c3-463c-a1a6-35bbb4932dc9","ios":"levelo://app?vid=d6a6f75b-73c3-463c-a1a6-35bbb4932dc9"},"vehicle_type_id":"4","last_reported":1746227367,"current_range_meters":20400,"station_id":"ce4bhn92rcd13ifvqgrg","pricing_plan_id":"cebpf4jnsgd1na2vs0mg"},{"bike_id":"0d5a08fe-ff8c-4636-839e-12f23a86fa08","system_id":"levelo_inurba_marseille","lat":43.280903,"lon":5.396653,"is_reserved":false,"is_disabled":false,"rental_uris":{"android":"levelo://app?vid=0d5a08fe-ff8c-4636-839e-12f23a86fa08","ios":"levelo://app?vid=0d5a08fe-ff8c-4636-839e-12f23a86fa08"},"vehicle_type_id":"4","last_reported":1746227367,"current_range_meters":20400,"station_id":"ce4bho12rcd13ifvqh2g","pricing_plan_id":"cebpf4jnsgd1na2vs0mg"},{"bike_id":"c8e16fcb-5510-4723-b6e7-2aa49c1b3b8d","system_id":"levelo_inurba_marseille","lat":43.31963,"lon":5.37042,"is_reserved":false,"is_disabled":false,"rental_uris":{"android":"levelo://app?vid=c8e16fcb-5510-4723-b6e7-2aa49c1b3b8d","ios":"levelo://app?vid=c8e16fcb-5510-4723-b6e7-2aa49c1b3b8d"},"vehicle_type_id":"4","last_reported":1746227367,"current_range_meters":20800,"station_id":"","pricing_plan_id":"cebpf4jnsgd1na2vs0mg"},{"bike_id":"1a877ed8-aa67-486c-a34b-30e006e67ea0","system_id":"levelo_inurba_marseille","lat":43.28505,"lon":5.38031,"is_reserved":false,"is_disabled":false,"rental_uris":{"android":"levelo://app?vid=1a877ed8-aa67-486c-a34b-30e006e67ea0","ios":"levelo://app?vid=1a877ed8-aa67-486c-a34b-30e006e67ea0"},"vehicle_type_id":"4","last_reported":1746227367,"current_range_meters":20800,"station_id":"","pricing_plan_id":"cebpf4jnsgd1na2vs0mg"},{"bike_id":"063a529b-14c5-42bf-96ef-4c4cc8ee1e32","system_id":"levelo_inurba_marseille","lat":43.30929,"lon":5.4014,"is_reserved":false,"is_disabled":false,"rental_uris":{"android":"levelo://app?vid=063a529b-14c5-42bf-96ef-4c4cc8ee1e32","ios":"levelo://app?vid=063a529b-14c5-42bf-96ef-4c4cc8ee1e32"},"vehicle_type_id":"4","last_reported":1746227367,"current_range_meters":20800,"station_id":"ce4bgvp2rcd13ifvqct0","pricing_plan_id":"cebpf4jnsgd1na2vs0mg"},{"bike_id":"9bf691e4-a137-4091-9c20-0e2f92612f91","system_id":"levelo_inurba_marseille","lat":43.31336,"lon":5.3969,"is_reserved":false,"is_disabled":false,"rental_uris":{"android":"levelo://app?vid=9bf691e4-a137-4091-9c20-0e2f92612f91","ios":"levelo://app?vid=9bf691e4-a137-4091-9c20-0e2f92612f91"},"vehicle_type_id":"4","last_reported":1746227367,"current_range_meters":20800,"station_id":"ce4bgvp2rcd13ifvqcu0","pricing_plan_id":"cebpf4jnsgd1na2vs0mg"},{"bike_id":"fd32850c-bad5-46ac-ba78-4bc41780b794","system_id":"levelo_inurba_marseille","lat":43.30884,"lon":5.39636,"is_reserved":false,"is_disabled":false,"rental_uris":{"android":"levelo://app?vid=fd32850c-bad5-46ac-ba78-4bc41780b794","ios":"levelo://app?vid=fd32850c-bad5-46ac-ba78-4bc41780b794"},"vehicle_type_id":"4","last_reported":1746227367,"current_range_meters":20800,"station_id":"ce4bh012rcd13ifvqcv0","pricing_plan_id":"cebpf4jnsgd1na2vs0mg"},{"bike_id":"45a14679-9b03-4644-9eed-eff33b669cce","system_id":"levelo_inurba_marseille","lat":43.28568,"lon":5.39488,"is_reserved":false,"is_disabled":false,"rental_uris":{"android":"levelo://app?vid=45a14679-9b03-4644-9eed-eff33b669cce","ios":"levelo://app?vid=45a14679-9b03-4644-9eed-eff33b669cce"},"vehicle_type_id":"4","last_reported":1746227367,"current_range_meters":20800,"station_id":"ce4bh292rcd13ifvqdg0","pricing_plan_id":"cebpf4jnsgd1na2vs0mg"},{"bike_id":"2cfeaa67-33b3-4c6d-87e5-608932636e4f","system_id":"levelo_inurba_marseille","lat":43.28706,"lon":5.37939,"is_reserved":false,"is_disabled":false,"rental_uris":{"android":"levelo://app?vid=2cfeaa67-33b3-4c6d-87e5-608932636e4f","ios":"levelo://app?vid=2cfeaa67-33b3-4c6d-87e5-608932636e4f"},"vehicle_type_id":"4","last_reported":1746227367,"current_range_meters":20800,"station_id":"ce4bh9p2rcd13ifvqec0","pricing_plan_id":"cebpf4jnsgd1na2vs0mg"},{"bike_id":"82186c5c-fae4-4b1b-b820-112e486955f6","system_id":"levelo_inurba_marseille","lat":43.30957,"lon":5.390243,"is_reserved":false,"is_disabled":false,"rental_uris":{"android":"levelo://app?vid=82186c5c-fae4-4b1b-b820-112e486955f6","ios":"levelo://app?vid=82186c5c-fae4-4b1b-b820-112e486955f6"},"vehicle_type_id":"4","last_reported":1746227367,"current_range_meters":21600,"station_id":"ce4bgup2rcd13ifvqco0","pricing_plan_id":"cebpf4jnsgd1na2vs0mg"},{"bike_id":"2f22b632-f2d5-4019-9d16-77b87f740079","system_id":"levelo_inurba_marseille","lat":43.3088,"lon":5.39635,"is_reserved":false,"is_disabled":false,"rental_uris":{"android":"levelo://app?vid=2f22b632-f2d5-4019-9d16-77b87f740079","ios":"levelo://app?vid=2f22b632-f2d5-4019-9d16-77b87f740079"},"vehicle_type_id":"4","last_reported":1746227367,"current_range_meters":21600,"station_id":"ce4bh012rcd13ifvqcv0","pricing_plan_id":"cebpf4jnsgd1na2vs0mg"},{"bike_id":"e5358d37-6d5f-44c8-b8a1-b594ce5d6bc8","system_id":"levelo_inurba_marseille","lat":43.2315,"lon":5.437167,"is_reserved":false,"is_disabled":false,"rental_uris":{"android":"levelo://app?vid=e5358d37-6d5f-44c8-b8a1-b594ce5d6bc8","ios":"levelo://app?vid=e5358d37-6d5f-44c8-b8a1-b594ce5d6bc8"},"vehicle_type_id":"4","last_reported":1746227367,"current_range_meters":21600,"station_id":"ce4bhmp2rcd13ifvqgog","pricing_plan_id":"cebpf4jnsgd1na2vs0mg"},{"bike_id":"49a496ee-a1e3-403b-9bd7-114091c56d3f","system_id":"levelo_inurba_marseille","lat":43.30934,"lon":5.40152,"is_reserved":false,"is_disabled":false,"rental_uris":{"android":"levelo://app?vid=49a496ee-a1e3-403b-9bd7-114091c56d3f","ios":"levelo://app?vid=49a496ee-a1e3-403b-9bd7-114091c56d3f"},"vehicle_type_id":"4","last_reported":1746227367,"current_range_meters":22000,"station_id":"ce4bgvp2rcd13ifvqct0","pricing_plan_id":"cebpf4jnsgd1na2vs0mg"},{"bike_id":"541e646e-53fe-424b-adcc-80d2ba34e340","system_id":"levelo_inurba_marseille","lat":43.2318,"lon":5.3998,"is_reserved":false,"is_disabled":false,"rental_uris":{"android":"levelo://app?vid=541e646e-53fe-424b-adcc-80d2ba34e340","ios":"levelo://app?vid=541e646e-53fe-424b-adcc-80d2ba34e340"},"vehicle_type_id":"4","last_reported":1746227367,"current_range_meters":22000,"station_id":"ce4bhn12rcd13ifvqgqg","pricing_plan_id":"cebpf4jnsgd1na2vs0mg"},{"bike_id":"7f61457f-a8bd-43bb-93a3-252837b6e6b4","system_id":"levelo_inurba_marseille","lat":43.274964,"lon":5.424485,"is_reserved":false,"is_disabled":false,"rental_uris":{"android":"levelo://app?vid=7f61457f-a8bd-43bb-93a3-252837b6e6b4","ios":"levelo://app?vid=7f61457f-a8bd-43bb-93a3-252837b6e6b4"},"vehicle_type_id":"4","last_reported":1746227367,"current_range_meters":22000,"station_id":"ce4bhn92rcd13ifvqgrg","pricing_plan_id":"cebpf4jnsgd1na2vs0mg"},{"bike_id":"2bb3d624-4877-4465-b442-1f3c93227d59","system_id":"levelo_inurba_marseille","lat":43.2808,"lon":5.39632,"is_reserved":false,"is_disabled":false,"rental_uris":{"android":"levelo://app?vid=2bb3d624-4877-4465-b442-1f3c93227d59","ios":"levelo://app?vid=2bb3d624-4877-4465-b442-1f3c93227d59"},"vehicle_type_id":"4","last_reported":1746227367,"current_range_meters":22000,"station_id":"ce4bho12rcd13ifvqh2g","pricing_plan_id":"cebpf4jnsgd1na2vs0mg"},{"bike_id":"9781efdd-84b7-4c1f-a807-21b9134f0c7d","system_id":"levelo_inurba_marseille","lat":43.31369,"lon":5.38488,"is_reserved":false,"is_disabled":false,"rental_uris":{"android":"levelo://app?vid=9781efdd-84b7-4c1f-a807-21b9134f0c7d","ios":"levelo://app?vid=9781efdd-84b7-4c1f-a807-21b9134f0c7d"},"vehicle_type_id":"4","last_reported":1746227367,"current_range_meters":22400,"station_id":"ce4bgt92rcd13ifvqcf0","pricing_plan_id":"cebpf4jnsgd1na2vs0mg"},{"bike_id":"2fb401f6-c870-4915-9110-efb7f8c7b807","system_id":"levelo_inurba_marseille","lat":43.31273,"lon":5.40157,"is_reserved":false,"is_disabled":false,"rental_uris":{"android":"levelo://app?vid=2fb401f6-c870-4915-9110-efb7f8c7b807","ios":"levelo://app?vid=2fb401f6-c870-4915-9110-efb7f8c7b807"},"vehicle_type_id":"4","last_reported":1746227367,"current_range_meters":22400,"station_id":"ce4bh092rcd13ifvqd30","pricing_plan_id":"cebpf4jnsgd1na2vs0mg"},{"bike_id":"945430c8-5f62-4d67-93e4-f93a8e5052d9","system_id":"levelo_inurba_marseille","lat":43.30806,"lon":5.4351,"is_reserved":false,"is_disabled":false,"rental_uris":{"android":"levelo://app?vid=945430c8-5f62-4d67-93e4-f93a8e5052d9","ios":"levelo://app?vid=945430c8-5f62-4d67-93e4-f93a8e5052d9"},"vehicle_type_id":"4","last_reported":1746227367,"current_range_meters":22400,"station_id":"ce4bhph2rcd13ifvqheg","pricing_plan_id":"cebpf4jnsgd1na2vs0mg"},{"bike_id":"85a730b5-c28f-4c6c-8e3f-734b4281147b","system_id":"levelo_inurba_marseille","lat":43.31529,"lon":5.38961,"is_reserved":false,"is_disabled":false,"rental_uris":{"android":"levelo://app?vid=85a730b5-c28f-4c6c-8e3f-734b4281147b","ios":"levelo://app?vid=85a730b5-c28f-4c6c-8e3f-734b4281147b"},"vehicle_type_id":"4","last_reported":1746227367,"current_range_meters":22800,"station_id":"","pricing_plan_id":"cebpf4jnsgd1na2vs0mg"},{"bike_id":"5e9ab5d2-c3c6-47bb-aa08-2a3a1a9c82f9","system_id":"levelo_inurba_marseille","lat":43.30791,"lon":5.38167,"is_reserved":false,"is_disabled":false,"rental_uris":{"android":"levelo://app?vid=5e9ab5d2-c3c6-47bb-aa08-2a3a1a9c82f9","ios":"levelo://app?vid=5e9ab5d2-c3c6-47bb-aa08-2a3a1a9c82f9"},"vehicle_type_id":"4","last_reported":1746227367,"current_range_meters":22800,"station_id":"ce4bgt12rcd13ifvqce0","pricing_plan_id":"cebpf4jnsgd1na2vs0mg"},{"bike_id":"5fb524f4-92fb-4585-b2e7-5d1799125681","system_id":"levelo_inurba_marseille","lat":43.317054,"lon":5.377507,"is_reserved":false,"is_disabled":false,"rental_uris":{"android":"levelo://app?vid=5fb524f4-92fb-4585-b2e7-5d1799125681","ios":"levelo://app?vid=5fb524f4-92fb-4585-b2e7-5d1799125681"},"vehicle_type_id":"4","last_reported":1746227367,"current_range_meters":22800,"station_id":"ce4bgth2rcd13ifvqch0","pricing_plan_id":"cebpf4jnsgd1na2vs0mg"},{"bike_id":"f5698fc5-de90-4a49-b1b2-3922eb9990f3","system_id":"levelo_inurba_marseille","lat":43.28716,"lon":5.37939,"is_reserved":false,"is_disabled":false,"rental_uris":{"android":"levelo://app?vid=f5698fc5-de90-4a49-b1b2-3922eb9990f3","ios":"levelo://app?vid=f5698fc5-de90-4a49-b1b2-3922eb9990f3"},"vehicle_type_id":"4","last_reported":1746227367,"current_range_meters":22800,"station_id":"ce4bh9p2rcd13ifvqec0","pricing_plan_id":"cebpf4jnsgd1na2vs0mg"},{"bike_id":"42de37fd-0e2f-41da-9b51-72b276834da1","system_id":"levelo_inurba_marseille","lat":43.27922,"lon":5.39568,"is_reserved":false,"is_disabled":false,"rental_uris":{"android":"levelo://app?vid=42de37fd-0e2f-41da-9b51-72b276834da1","ios":"levelo://app?vid=42de37fd-0e2f-41da-9b51-72b276834da1"},"vehicle_type_id":"4","last_reported":1746227367,"current_range_meters":22800,"station_id":"ce4bhf92rcd13ifvqf40","pricing_plan_id":"cebpf4jnsgd1na2vs0mg"},{"bike_id":"11c4ddd5-27ab-4bdd-bc60-6b8f410abe18","system_id":"levelo_inurba_marseille","lat":43.27896,"lon":5.38,"is_reserved":false,"is_disabled":false,"rental_uris":{"android":"levelo://app?vid=11c4ddd5-27ab-4bdd-bc60-6b8f410abe18","ios":"levelo://app?vid=11c4ddd5-27ab-4bdd-bc60-6b8f410abe18"},"vehicle_type_id":"4","last_reported":1746227367,"current_range_meters":22800,"station_id":"ce4bhf92rcd13ifvqf50","pricing_plan_id":"cebpf4jnsgd1na2vs0mg"},{"bike_id":"f1ae9983-2f58-4025-ba16-0239cde0ac55","system_id":"levelo_inurba_marseille","lat":43.3054,"lon":5.38423,"is_reserved":false,"is_disabled":false,"rental_uris":{"android":"levelo://app?vid=f1ae9983-2f58-4025-ba16-0239cde0ac55","ios":"levelo://app?vid=f1ae9983-2f58-4025-ba16-0239cde0ac55"},"vehicle_type_id":"4","last_reported":1746227367,"current_range_meters":23200,"station_id":"ce4bgg92rcd13ifvqb30","pricing_plan_id":"cebpf4jnsgd1na2vs0mg"},{"bike_id":"f1c3f8a0-09ea-4707-b136-a0a567b93a54","system_id":"levelo_inurba_marseille","lat":43.313552,"lon":5.367045,"is_reserved":false,"is_disabled":false,"rental_uris":{"android":"levelo://app?vid=f1c3f8a0-09ea-4707-b136-a0a567b93a54","ios":"levelo://app?vid=f1c3f8a0-09ea-4707-b136-a0a567b93a54"},"vehicle_type_id":"4","last_reported":1746227367,"current_range_meters":23200,"station_id":"ce4bgr92rcd13ifvqc6g","pricing_plan_id":"cebpf4jnsgd1na2vs0mg"},{"bike_id":"225bfeb7-740c-455d-979c-c5b312fc18d2","system_id":"levelo_inurba_marseille","lat":43.30248,"lon":5.40049,"is_reserved":false,"is_disabled":false,"rental_uris":{"android":"levelo://app?vid=225bfeb7-740c-455d-979c-c5b312fc18d2","ios":"levelo://app?vid=225bfeb7-740c-455d-979c-c5b312fc18d2"},"vehicle_type_id":"4","last_reported":1746227367,"current_range_meters":23200,"station_id":"ce4bgvh2rcd13ifvqcs0","pricing_plan_id":"cebpf4jnsgd1na2vs0mg"},{"bike_id":"3820445c-aa4e-4425-8fee-556f61cd961f","system_id":"levelo_inurba_marseille","lat":43.301292,"lon":5.398597,"is_reserved":false,"is_disabled":false,"rental_uris":{"android":"levelo://app?vid=3820445c-aa4e-4425-8fee-556f61cd961f","ios":"levelo://app?vid=3820445c-aa4e-4425-8fee-556f61cd961f"},"vehicle_type_id":"4","last_reported":1746227367,"current_range_meters":23200,"station_id":"ce4bh0h2rcd13ifvqd40","pricing_plan_id":"cebpf4jnsgd1na2vs0mg"},{"bike_id":"c4f26c77-fe84-47bc-a7c9-565b5fd3fee5","system_id":"levelo_inurba_marseille","lat":43.284075,"lon":5.37516,"is_reserved":false,"is_disabled":false,"rental_uris":{"android":"levelo://app?vid=c4f26c77-fe84-47bc-a7c9-565b5fd3fee5","ios":"levelo://app?vid=c4f26c77-fe84-47bc-a7c9-565b5fd3fee5"},"vehicle_type_id":"4","last_reported":1746227367,"current_range_meters":23200,"station_id":"ce4bh412rcd13ifvqds0","pricing_plan_id":"cebpf4jnsgd1na2vs0mg"},{"bike_id":"d2450fa2-eb02-4667-8398-67924a1ec99e","system_id":"levelo_inurba_marseille","lat":43.31716,"lon":5.43691,"is_reserved":false,"is_disabled":false,"rental_uris":{"android":"levelo://app?vid=d2450fa2-eb02-4667-8398-67924a1ec99e","ios":"levelo://app?vid=d2450fa2-eb02-4667-8398-67924a1ec99e"},"vehicle_type_id":"4","last_reported":1746227367,"current_range_meters":23200,"station_id":"ce4bhp92rcd13ifvqhcg","pricing_plan_id":"cebpf4jnsgd1na2vs0mg"},{"bike_id":"194260aa-f607-4047-b80a-7878e85c0481","system_id":"levelo_inurba_marseille","lat":43.31994,"lon":5.38139,"is_reserved":false,"is_disabled":false,"rental_uris":{"android":"levelo://app?vid=194260aa-f607-4047-b80a-7878e85c0481","ios":"levelo://app?vid=194260aa-f607-4047-b80a-7878e85c0481"},"vehicle_type_id":"4","last_reported":1746227367,"current_range_meters":23200,"station_id":"ce4bhr12rcd13ifvqhpg","pricing_plan_id":"cebpf4jnsgd1na2vs0mg"},{"bike_id":"72688617-9135-42da-8793-e5a91040f395","system_id":"levelo_inurba_marseille","lat":43.21752,"lon":5.34612,"is_reserved":false,"is_disabled":false,"rental_uris":{"android":"levelo://app?vid=72688617-9135-42da-8793-e5a91040f395","ios":"levelo://app?vid=72688617-9135-42da-8793-e5a91040f395"},"vehicle_type_id":"4","last_reported":1746227367,"current_range_meters":23200,"station_id":"st_cvj6r9ubvosntc0bgbag","pricing_plan_id":"cebpf4jnsgd1na2vs0mg"},{"bike_id":"39ec5df4-567a-4eb7-9a22-e2e203a36dff","system_id":"levelo_inurba_marseille","lat":43.292173,"lon":5.369143,"is_reserved":false,"is_disabled":false,"rental_uris":{"android":"levelo://app?vid=39ec5df4-567a-4eb7-9a22-e2e203a36dff","ios":"levelo://app?vid=39ec5df4-567a-4eb7-9a22-e2e203a36dff"},"vehicle_type_id":"4","last_reported":1746227367,"current_range_meters":24000,"station_id":"","pricing_plan_id":"cebpf4jnsgd1na2vs0mg"},{"bike_id":"0b04e028-a77b-4008-a5af-3ca77eb4945a","system_id":"levelo_inurba_marseille","lat":43.30892,"lon":5.39645,"is_reserved":false,"is_disabled":false,"rental_uris":{"android":"levelo://app?vid=0b04e028-a77b-4008-a5af-3ca77eb4945a","ios":"levelo://app?vid=0b04e028-a77b-4008-a5af-3ca77eb4945a"},"vehicle_type_id":"4","last_reported":1746227367,"current_range_meters":24000,"station_id":"ce4bh012rcd13ifvqcv0","pricing_plan_id":"cebpf4jnsgd1na2vs0mg"},{"bike_id":"e8e6c2ca-7a91-4e91-a664-b81f1d42197b","system_id":"levelo_inurba_marseille","lat":43.30604,"lon":5.39371,"is_reserved":false,"is_disabled":false,"rental_uris":{"android":"levelo://app?vid=e8e6c2ca-7a91-4e91-a664-b81f1d42197b","ios":"levelo://app?vid=e8e6c2ca-7a91-4e91-a664-b81f1d42197b"},"vehicle_type_id":"4","last_reported":1746227367,"current_range_meters":24000,"station_id":"ce4bh0p2rcd13ifvqd80","pricing_plan_id":"cebpf4jnsgd1na2vs0mg"},{"bike_id":"730e3c9f-f6e8-4137-b97a-a7ed4689459f","system_id":"levelo_inurba_marseille","lat":43.29313,"lon":5.40151,"is_reserved":false,"is_disabled":false,"rental_uris":{"android":"levelo://app?vid=730e3c9f-f6e8-4137-b97a-a7ed4689459f","ios":"levelo://app?vid=730e3c9f-f6e8-4137-b97a-a7ed4689459f"},"vehicle_type_id":"4","last_reported":1746227367,"current_range_meters":24000,"station_id":"ce4bh312rcd13ifvqdk0","pricing_plan_id":"cebpf4jnsgd1na2vs0mg"},{"bike_id":"40870fc2-5254-446b-bf84-6c348a6e1e54","system_id":"levelo_inurba_marseille","lat":43.286978,"lon":5.374242,"is_reserved":false,"is_disabled":false,"rental_uris":{"android":"levelo://app?vid=40870fc2-5254-446b-bf84-6c348a6e1e54","ios":"levelo://app?vid=40870fc2-5254-446b-bf84-6c348a6e1e54"},"vehicle_type_id":"4","last_reported":1746227367,"current_range_meters":24000,"station_id":"ce4bh3p2rcd13ifvqdq0","pricing_plan_id":"cebpf4jnsgd1na2vs0mg"},{"bike_id":"3f468965-3635-47f7-bdaf-8282d59f1d1c","system_id":"levelo_inurba_marseille","lat":43.28101,"lon":5.378467,"is_reserved":false,"is_disabled":false,"rental_uris":{"android":"levelo://app?vid=3f468965-3635-47f7-bdaf-8282d59f1d1c","ios":"levelo://app?vid=3f468965-3635-47f7-bdaf-8282d59f1d1c"},"vehicle_type_id":"4","last_reported":1746227367,"current_range_meters":24000,"station_id":"ce4bha12rcd13ifvqee0","pricing_plan_id":"cebpf4jnsgd1na2vs0mg"},{"bike_id":"d31551b9-8dc0-4f73-85a5-9531abaef271","system_id":"levelo_inurba_marseille","lat":43.27843,"lon":5.39217,"is_reserved":false,"is_disabled":false,"rental_uris":{"android":"levelo://app?vid=d31551b9-8dc0-4f73-85a5-9531abaef271","ios":"levelo://app?vid=d31551b9-8dc0-4f73-85a5-9531abaef271"},"vehicle_type_id":"4","last_reported":1746227367,"current_range_meters":24000,"station_id":"ce4bhjp2rcd13ifvqga0","pricing_plan_id":"cebpf4jnsgd1na2vs0mg"},{"bike_id":"38b61f27-5056-412a-83a3-98aec2095ab0","system_id":"levelo_inurba_marseille","lat":43.25119,"lon":5.403177,"is_reserved":false,"is_disabled":false,"rental_uris":{"android":"levelo://app?vid=38b61f27-5056-412a-83a3-98aec2095ab0","ios":"levelo://app?vid=38b61f27-5056-412a-83a3-98aec2095ab0"},"vehicle_type_id":"4","last_reported":1746227367,"current_range_meters":24000,"station_id":"ce4bhlh2rcd13ifvqgig","pricing_plan_id":"cebpf4jnsgd1na2vs0mg"},{"bike_id":"f3856500-c738-4fde-9ae8-266e0f29862e","system_id":"levelo_inurba_marseille","lat":43.278092,"lon":5.407171,"is_reserved":false,"is_disabled":false,"rental_uris":{"android":"levelo://app?vid=f3856500-c738-4fde-9ae8-266e0f29862e","ios":"levelo://app?vid=f3856500-c738-4fde-9ae8-266e0f29862e"},"vehicle_type_id":"4","last_reported":1746227367,"current_range_meters":24000,"station_id":"ce4bhnh2rcd13ifvqgtg","pricing_plan_id":"cebpf4jnsgd1na2vs0mg"},{"bike_id":"248018f2-0e4b-4d5e-be08-345c8db03462","system_id":"levelo_inurba_marseille","lat":43.31762,"lon":5.39006,"is_reserved":false,"is_disabled":false,"rental_uris":{"android":"levelo://app?vid=248018f2-0e4b-4d5e-be08-345c8db03462","ios":"levelo://app?vid=248018f2-0e4b-4d5e-be08-345c8db03462"},"vehicle_type_id":"4","last_reported":1746227367,"current_range_meters":24000,"station_id":"ce4bhqp2rcd13ifvqhng","pricing_plan_id":"cebpf4jnsgd1na2vs0mg"},{"bike_id":"28ccb807-7762-4922-bf94-0bc4459d2c87","system_id":"levelo_inurba_marseille","lat":43.323641,"lon":5.367613,"is_reserved":false,"is_disabled":false,"rental_uris":{"android":"levelo://app?vid=28ccb807-7762-4922-bf94-0bc4459d2c87","ios":"levelo://app?vid=28ccb807-7762-4922-bf94-0bc4459d2c87"},"vehicle_type_id":"4","last_reported":1746227367,"current_range_meters":24000,"station_id":"ce4bhsh2rcd13ifvqi2g","pricing_plan_id":"cebpf4jnsgd1na2vs0mg"},{"bike_id":"fc67d40d-78e3-42a0-bdaa-eb1e02dacfd0","system_id":"levelo_inurba_marseille","lat":43.28729,"lon":5.36084,"is_reserved":false,"is_disabled":false,"rental_uris":{"android":"levelo://app?vid=fc67d40d-78e3-42a0-bdaa-eb1e02dacfd0","ios":"levelo://app?vid=fc67d40d-78e3-42a0-bdaa-eb1e02dacfd0"},"vehicle_type_id":"4","last_reported":1746227367,"current_range_meters":24000,"station_id":"cki0cbj6b192h4jlfktg","pricing_plan_id":"cebpf4jnsgd1na2vs0mg"},{"bike_id":"a3f87c15-8001-4dd3-8767-39432dfaf4c4","system_id":"levelo_inurba_marseille","lat":43.31438,"lon":5.36554,"is_reserved":false,"is_disabled":false,"rental_uris":{"android":"levelo://app?vid=a3f87c15-8001-4dd3-8767-39432dfaf4c4","ios":"levelo://app?vid=a3f87c15-8001-4dd3-8767-39432dfaf4c4"},"vehicle_type_id":"4","last_reported":1746227367,"current_range_meters":24400,"station_id":"","pricing_plan_id":"cebpf4jnsgd1na2vs0mg"},{"bike_id":"341ae13d-c3ee-4e72-b142-de283eadc8ce","system_id":"levelo_inurba_marseille","lat":43.3019,"lon":5.3661,"is_reserved":false,"is_disabled":false,"rental_uris":{"android":"levelo://app?vid=341ae13d-c3ee-4e72-b142-de283eadc8ce","ios":"levelo://app?vid=341ae13d-c3ee-4e72-b142-de283eadc8ce"},"vehicle_type_id":"4","last_reported":1746227367,"current_range_meters":24400,"station_id":"ce4bgrh2rcd13ifvqc8g","pricing_plan_id":"cebpf4jnsgd1na2vs0mg"},{"bike_id":"0db88102-af8b-44ef-a3e5-a17f53a559ac","system_id":"levelo_inurba_marseille","lat":43.31357,"lon":5.38495,"is_reserved":false,"is_disabled":false,"rental_uris":{"android":"levelo://app?vid=0db88102-af8b-44ef-a3e5-a17f53a559ac","ios":"levelo://app?vid=0db88102-af8b-44ef-a3e5-a17f53a559ac"},"vehicle_type_id":"4","last_reported":1746227367,"current_range_meters":24400,"station_id":"ce4bgt92rcd13ifvqcf0","pricing_plan_id":"cebpf4jnsgd1na2vs0mg"},{"bike_id":"9ff266e5-7e5a-42df-82f7-0313b819155b","system_id":"levelo_inurba_marseille","lat":43.3095,"lon":5.39052,"is_reserved":false,"is_disabled":false,"rental_uris":{"android":"levelo://app?vid=9ff266e5-7e5a-42df-82f7-0313b819155b","ios":"levelo://app?vid=9ff266e5-7e5a-42df-82f7-0313b819155b"},"vehicle_type_id":"4","last_reported":1746227367,"current_range_meters":24400,"station_id":"ce4bgup2rcd13ifvqco0","pricing_plan_id":"cebpf4jnsgd1na2vs0mg"},{"bike_id":"249dbb21-dfe4-4dd5-9e8c-27a5d98cb11a","system_id":"levelo_inurba_marseille","lat":43.31071,"lon":5.38345,"is_reserved":false,"is_disabled":false,"rental_uris":{"android":"levelo://app?vid=249dbb21-dfe4-4dd5-9e8c-27a5d98cb11a","ios":"levelo://app?vid=249dbb21-dfe4-4dd5-9e8c-27a5d98cb11a"},"vehicle_type_id":"4","last_reported":1746227367,"current_range_meters":24400,"station_id":"ce4bgv92rcd13ifvqcr0","pricing_plan_id":"cebpf4jnsgd1na2vs0mg"},