{"last_updated":1738008594,"ttl":60,"version":"2.2","data":{"bikes":[{"bike_id":"5d3e4d6c-080a-45cf-96bd-4c8edc020d7b","system_id":"levelo_inurba_marseille","lat":43.30885,"lon":5.39657,"is_reserved":false,"is_disabled":true,"rental_uris":{"android":"levelo://app?vid=5d3e4d6c-080a-45cf-96bd-4c8edc020d7b","ios":"levelo://app?vid=5d3e4d6c-080a-45cf-96bd-4c8edc020d7b"},"vehicle_type_id":"4","last_reported":1738008595,"current_range_meters":2000,"station_id":"ce4bh012rcd13ifvqcv0","pricing_plan_id":"cebpf4jnsgd1na2vs0mg"},{"bike_id":"a72af8a2-47bc-4c7a-9e9c-e4668ea19e38","system_id":"levelo_inurba_marseille","lat":43.28559,"lon":5.3949,"is_reserved":false,"is_disabled":false,"rental_uris":{"android":"levelo://app?vid=a72af8a2-47bc-4c7a-9e9c-e4668ea19e38","ios":"levelo://app?vid=a72af8a2-47bc-4c7a-9e9c-e4668ea19e38"},"vehicle_type_id":"4","last_reported":1738008595,"current_range_meters":39200,"station_id":"ce4bh292rcd13ifvqdg0","pricing_plan_id":"cebpf4jnsgd1na2vs0mg"},{"bike_id":"30c54327-1a80-4f74-8e4a-0d1419a810db","system_id":"levelo_inurba_marseille","lat":43.30286,"lon":5.39207,"is_reserved":false,"is_disabled":false,"rental_uris":{"android":"levelo://app?vid=30c54327-1a80-4f74-8e4a-0d1419a810db","ios":"levelo://app?vid=30c54327-1a80-4f74-8e4a-0d1419a810db"},"vehicle_type_id":"4","last_reported":1738008595,"current_range_meters":22400,"station_id":"ce4bgkh2rcd13ifvqbk0","pricing_plan_id":"cebpf4jnsgd1na2vs0mg"},{"bike_id":"eeed8285-8b30-4486-bbec-d113d4165b1e","system_id":"levelo_inurba_marseille","lat":43.28856,"lon":5.35848,"is_reserved":false,"is_disabled":false,"rental_uris":{"android":"levelo://app?vid=eeed8285-8b30-4486-bbec-d113d4165b1e","ios":"levelo://app?vid=eeed8285-8b30-4486-bbec-d113d4165b1e"},"vehicle_type_id":"4","last_reported":1738008595,"current_range_meters":30000,"station_id":"ce4bhb12rcd13ifvqem0","pricing_plan_id":"cebpf4jnsgd1na2vs0mg"},{"bike_id":"ce9c6111-0118-42d1-bfda-6fdbc9033126","system_id":"levelo_inurba_marseille","lat":43.2799,"lon":5.40051,"is_reserved":false,"is_disabled":false,"rental_uris":{"android":"levelo://app?vid=ce9c6111-0118-42d1-bfda-6fdbc9033126","ios":"levelo://app?vid=ce9c6111-0118-42d1-bfda-6fdbc9033126"},"vehicle_type_id":"4","last_reported":1738008595,"current_range_meters":31200,"station_id":"ce4bho92rcd13ifvqh4g","pricing_plan_id":"cebpf4jnsgd1na2vs0mg"},{"bike_id":"b00f7f94-a942-45f5-b27d-fbe848f0f75c","system_id":"levelo_inurba_marseille","lat":43.3176,"lon":5.39021,"is_reserved":false,"is_disabled":false,"rental_uris":{"android":"levelo://app?vid=b00f7f94-a942-45f5-b27d-fbe848f0f75c","ios":"levelo://app?vid=b00f7f94-a942-45f5-b27d-fbe848f0f75c"},"vehicle_type_id":"4","last_reported":1738008595,"current_range_meters":38800,"station_id":"ce4bhqp2rcd13ifvqhng","pricing_plan_id":"cebpf4jnsgd1na2vs0mg"},{"bike_id":"e7e3754b-c5fb-46f8-8bb2-cd8ba9de49bc","system_id":"levelo_inurba_marseille","lat":43.29167,"lon":5.37153,"is_reserved":false,"is_disabled":false,"rental_uris":{"android":"levelo://app?vid=e7e3754b-c5fb-46f8-8bb2-cd8ba9de49bc","ios":"levelo://app?vid=e7e3754b-c5fb-46f8-8bb2-cd8ba9de49bc"},"vehicle_type_id":"4","last_reported":1738008595,"current_range_meters":30800,"station_id":"ce4bha92rcd13ifvqeh0","pricing_plan_id":"cebpf4jnsgd1na2vs0mg"},{"bike_id":"8b1098b1-640e-4fd5-a15c-8d21ce3dcecf","system_id":"levelo_inurba_marseille","lat":43.28003,"lon":5.40027,"is_reserved":false,"is_disabled":false,"rental_uris":{"android":"levelo://app?vid=8b1098b1-640e-4fd5-a15c-8d21ce3dcecf","ios":"levelo://app?vid=8b1098b1-640e-4fd5-a15c-8d21ce3dcecf"},"vehicle_type_id":"4","last_reported":1738008595,"current_range_meters":38800,"station_id":"ce4bho92rcd13ifvqh4g","pricing_plan_id":"cebpf4jnsgd1na2vs0mg"},{"bike_id":"258b0e8b-4679-4c9c-846b-bc4ab340cf20","system_id":"levelo_inurba_marseille","lat":43.24648,"lon":5.38897,"is_reserved":false,"is_disabled":false,"rental_uris":{"android":"levelo://app?vid=258b0e8b-4679-4c9c-846b-bc4ab340cf20","ios":"levelo://app?vid=258b0e8b-4679-4c9c-846b-bc4ab340cf20"},"vehicle_type_id":"4","last_reported":1738008595,"current_range_meters":30000,"station_id":"ce4bhg12rcd13ifvqf60","pricing_plan_id":"cebpf4jnsgd1na2vs0mg"},{"bike_id":"016df488-a883-41f8-ac53-5f03791bc4fe","system_id":"levelo_inurba_marseille","lat":43.30889,"lon":5.39639,"is_reserved":false,"is_disabled":true,"rental_uris":{"android":"levelo://app?vid=016df488-a883-41f8-ac53-5f03791bc4fe","ios":"levelo://app?vid=016df488-a883-41f8-ac53-5f03791bc4fe"},"vehicle_type_id":"4","last_reported":1738008595,"current_range_meters":400,"station_id":"ce4bh012rcd13ifvqcv0","pricing_plan_id":"cebpf4jnsgd1na2vs0mg"},{"bike_id":"c15ab3c5-d9bb-43e6-b108-148f33eed0eb","system_id":"levelo_inurba_marseille","lat":43.29581,"lon":5.39982,"is_reserved":false,"is_disabled":false,"rental_uris":{"android":"levelo://app?vid=c15ab3c5-d9bb-43e6-b108-148f33eed0eb","ios":"levelo://app?vid=c15ab3c5-d9bb-43e6-b108-148f33eed0eb"},"vehicle_type_id":"4","last_reported":1738008595,"current_range_meters":31200,"station_id":"ce4bh312rcd13ifvqdj0","pricing_plan_id":"cebpf4jnsgd1na2vs0mg"},{"bike_id":"68a5ec14-11b5-48a8-93ac-2dd6dd43d3b2","system_id":"levelo_inurba_marseille","lat":43.29385,"lon":5.38586,"is_reserved":false,"is_disabled":false,"rental_uris":{"android":"levelo://app?vid=68a5ec14-11b5-48a8-93ac-2dd6dd43d3b2","ios":"levelo://app?vid=68a5ec14-11b5-48a8-93ac-2dd6dd43d3b2"},"vehicle_type_id":"4","last_reported":1738008595,"current_range_meters":35200,"station_id":"ce4bh2h2rcd13ifvqdh0","pricing_plan_id":"cebpf4jnsgd1na2vs0mg"},{"bike_id":"e3c59c26-9125-4a51-8f29-53dafec98527","system_id":"levelo_inurba_marseille","lat":43.29882,"lon":5.39735,"is_reserved":false,"is_disabled":false,"rental_uris":{"android":"levelo://app?vid=e3c59c26-9125-4a51-8f29-53dafec98527","ios":"levelo://app?vid=e3c59c26-9125-4a51-8f29-53dafec98527"},"vehicle_type_id":"4","last_reported":1738008595,"current_range_meters":16000,"station_id":"ce4bh0h2rcd13ifvqd50","pricing_plan_id":"cebpf4jnsgd1na2vs0mg"},{"bike_id":"0530cb7c-053b-49d0-b7a6-1800095bf1aa","system_id":"levelo_inurba_marseille","lat":43.2951,"lon":5.39009,"is_reserved":false,"is_disabled":false,"rental_uris":{"android":"levelo://app?vid=0530cb7c-053b-49d0-b7a6-1800095bf1aa","ios":"levelo://app?vid=0530cb7c-053b-49d0-b7a6-1800095bf1aa"},"vehicle_type_id":"4","last_reported":1738008595,"current_range_meters":37600,"station_id":"ce4bh3p2rcd13ifvqdp0","pricing_plan_id":"cebpf4jnsgd1na2vs0mg"},{"bike_id":"d6755dc8-d9a9-49dc-8a8f-22ec6b86e111","system_id":"levelo_inurba_marseille","lat":43.28154,"lon":5.42636,"is_reserved":false,"is_disabled":false,"rental_uris":{"android":"levelo://app?vid=d6755dc8-d9a9-49dc-8a8f-22ec6b86e111","ios":"levelo://app?vid=d6755dc8-d9a9-49dc-8a8f-22ec6b86e111"},"vehicle_type_id":"4","last_reported":1738008595,"current_range_meters":28400,"station_id":"ce4bhnh2rcd13ifvqgug","pricing_plan_id":"cebpf4jnsgd1na2vs0mg"},{"bike_id":"db913c79-4ab1-4c85-b882-18e791694c41","system_id":"levelo_inurba_marseille","lat":43.26556,"lon":5.39015,"is_reserved":false,"is_disabled":false,"rental_uris":{"android":"levelo://app?vid=db913c79-4ab1-4c85-b882-18e791694c41","ios":"levelo://app?vid=db913c79-4ab1-4c85-b882-18e791694c41"},"vehicle_type_id":"4","last_reported":1738008595,"current_range_meters":24400,"station_id":"ce4bhe12rcd13ifvqf30","pricing_plan_id":"cebpf4jnsgd1na2vs0mg"},{"bike_id":"f7df50db-bd6c-4322-8381-2e55957c1047","system_id":"levelo_inurba_marseille","lat":43.29542,"lon":5.39384,"is_reserved":false,"is_disabled":false,"rental_uris":{"android":"levelo://app?vid=f7df50db-bd6c-4322-8381-2e55957c1047","ios":"levelo://app?vid=f7df50db-bd6c-4322-8381-2e55957c1047"},"vehicle_type_id":"4","last_reported":1738008595,"current_range_meters":39200,"station_id":"ce4bh292rcd13ifvqdf0","pricing_plan_id":"cebpf4jnsgd1na2vs0mg"},{"bike_id":"1766969c-93bb-4f2e-85b4-137d694d2edc","system_id":"levelo_inurba_marseille","lat":43.32348,"lon":5.40614,"is_reserved":false,"is_disabled":false,"rental_uris":{"android":"levelo://app?vid=1766969c-93bb-4f2e-85b4-137d694d2edc","ios":"levelo://app?vid=1766969c-93bb-4f2e-85b4-137d694d2edc"},"vehicle_type_id":"4","last_reported":1738008595,"current_range_meters":16000,"station_id":"ce4bhq92rcd13ifvqhjg","pricing_plan_id":"cebpf4jnsgd1na2vs0mg"},{"bike_id":"c96545e6-b3fa-4a6b-836e-d89ea478e5d1","system_id":"levelo_inurba_marseille","lat":43.24992,"lon":5.38929,"is_reserved":false,"is_disabled":false,"rental_uris":{"android":"levelo://app?vid=c96545e6-b3fa-4a6b-836e-d89ea478e5d1","ios":"levelo://app?vid=c96545e6-b3fa-4a6b-836e-d89ea478e5d1"},"vehicle_type_id":"4","last_reported":1738008595,"current_range_meters":39200,"station_id":"ce4bhgp2rcd13ifvqfd0","pricing_plan_id":"cebpf4jnsgd1na2vs0mg"},{"bike_id":"50481764-4b9f-4ae2-9d4d-3410a5a0415c","system_id":"levelo_inurba_marseille","lat":43.28113,"lon":5.37874,"is_reserved":false,"is_disabled":false,"rental_uris":{"android":"levelo://app?vid=50481764-4b9f-4ae2-9d4d-3410a5a0415c","ios":"levelo://app?vid=50481764-4b9f-4ae2-9d4d-3410a5a0415c"},"vehicle_type_id":"4","last_reported":1738008595,"current_range_meters":20000,"station_id":"ce4bha12rcd13ifvqee0","pricing_plan_id":"cebpf4jnsgd1na2vs0mg"},{"bike_id":"cfff1edf-189f-4cb0-80dd-22014a7dc63a","system_id":"levelo_inurba_marseille","lat":43.24844,"lon":5.37379,"is_reserved":false,"is_disabled":false,"rental_uris":{"android":"levelo://app?vid=cfff1edf-189f-4cb0-80dd-22014a7dc63a","ios":"levelo://app?vid=cfff1edf-189f-4cb0-80dd-22014a7dc63a"},"vehicle_type_id":"4","last_reported":1738008595,"current_range_meters":20800,"station_id":"ce4bhgh2rcd13ifvqfb0","pricing_plan_id":"cebpf4jnsgd1na2vs0mg"},{"bike_id":"db8dd69b-a04d-48ca-b575-caa6145464e2","system_id":"levelo_inurba_marseille","lat":43.30857,"lon":5.39635,"is_reserved":false,"is_disabled":false,"rental_uris":{"android":"levelo://app?vid=db8dd69b-a04d-48ca-b575-caa6145464e2","ios":"levelo://app?vid=db8dd69b-a04d-48ca-b575-caa6145464e2"},"vehicle_type_id":"4","last_reported":1738008595,"current_range_meters":28800,"station_id":"ce4bh012rcd13ifvqcv0","pricing_plan_id":"cebpf4jnsgd1na2vs0mg"},{"bike_id":"f1007a8a-52ee-4d93-9af2-3a8c1fb1d1ed","system_id":"levelo_inurba_marseille","lat":43.29446,"lon":5.38639,"is_reserved":false,"is_disabled":false,"rental_uris":{"android":"levelo://app?vid=f1007a8a-52ee-4d93-9af2-3a8c1fb1d1ed","ios":"levelo://app?vid=f1007a8a-52ee-4d93-9af2-3a8c1fb1d1ed"},"vehicle_type_id":"4","last_reported":1738008595,"current_range_meters":13600,"station_id":"ce4bh2h2rcd13ifvqdh0","pricing_plan_id":"cebpf4jnsgd1na2vs0mg"},{"bike_id":"5a6503ca-c2c6-4dbe-a6f7-68e5f1916ac2","system_id":"levelo_inurba_marseille","lat":43.29904,"lon":5.4366,"is_reserved":false,"is_disabled":false,"rental_uris":{"android":"levelo://app?vid=5a6503ca-c2c6-4dbe-a6f7-68e5f1916ac2","ios":"levelo://app?vid=5a6503ca-c2c6-4dbe-a6f7-68e5f1916ac2"},"vehicle_type_id":"4","last_reported":1738008595,"current_range_meters":38400,"station_id":"ce4bhpp2rcd13ifvqhfg","pricing_plan_id":"cebpf4jnsgd1na2vs0mg"},{"bike_id":"5c388708-e3f2-4bbd-88d9-c199a31e81f9","system_id":"levelo_inurba_marseille","lat":43.28697,"lon":5.40008,"is_reserved":false,"is_disabled":true,"rental_uris":{"android":"levelo://app?vid=5c388708-e3f2-4bbd-88d9-c199a31e81f9","ios":"levelo://app?vid=5c388708-e3f2-4bbd-88d9-c199a31e81f9"},"vehicle_type_id":"4","last_reported":1738008595,"current_range_meters":38400,"station_id":"ce4bho92rcd13ifvqh3g","pricing_plan_id":"cebpf4jnsgd1na2vs0mg"},{"bike_id":"c6b2aeea-8be6-4ed0-8019-7e88f71bd8d8","system_id":"levelo_inurba_marseille","lat":43.29863,"lon":5.36279,"is_reserved":false,"is_disabled":true,"rental_uris":{"android":"levelo://app?vid=c6b2aeea-8be6-4ed0-8019-7e88f71bd8d8","ios":"levelo://app?vid=c6b2aeea-8be6-4ed0-8019-7e88f71bd8d8"},"vehicle_type_id":"4","last_reported":1738008595,"current_range_meters":29600,"station_id":"ce4bgpp2rcd13ifvqc3g","pricing_plan_id":"cebpf4jnsgd1na2vs0mg"},{"bike_id":"78d0469b-a6d8-42b5-94c6-9df02b87dea9","system_id":"levelo_inurba_marseille","lat":43.2952,"lon":5.39027,"is_reserved":false,"is_disabled":false,"rental_uris":{"android":"levelo://app?vid=78d0469b-a6d8-42b5-94c6-9df02b87dea9","ios":"levelo://app?vid=78d0469b-a6d8-42b5-94c6-9df02b87dea9"},"vehicle_type_id":"4","last_reported":1738008595,"current_range_meters":39200,"station_id":"ce4bh3p2rcd13ifvqdp0","pricing_plan_id":"cebpf4jnsgd1na2vs0mg"},{"bike_id":"49ac70a6-f431-448f-8b78-0c0b9150bb51","system_id":"levelo_inurba_marseille","lat":43.31268,"lon":5.40153,"is_reserved":false,"is_disabled":false,"rental_uris":{"android":"levelo://app?vid=49ac70a6-f431-448f-8b78-0c0b9150bb51","ios":"levelo://app?vid=49ac70a6-f431-448f-8b78-0c0b9150bb51"},"vehicle_type_id":"4","last_reported":1738008595,"current_range_meters":38800,"station_id":"ce4bh092rcd13ifvqd30","pricing_plan_id":"cebpf4jnsgd1na2vs0mg"},{"bike_id":"508fc828-f6ba-44cf-b339-942ca738842f","system_id":"levelo_inurba_marseille","lat":43.29255,"lon":5.38419,"is_reserved":false,"is_disabled":false,"rental_uris":{"android":"levelo://app?vid=508fc828-f6ba-44cf-b339-942ca738842f","ios":"levelo://app?vid=508fc828-f6ba-44cf-b339-942ca738842f"},"vehicle_type_id":"4","last_reported":1738008595,"current_range_meters":30800,"station_id":"ce4bh692rcd13ifvqea0","pricing_plan_id":"cebpf4jnsgd1na2vs0mg"},{"bike_id":"92a40599-4729-41b6-9504-b7197348389a","system_id":"levelo_inurba_marseille","lat":43.26494,"lon":5.39546,"is_reserved":false,"is_disabled":false,"rental_uris":{"android":"levelo://app?vid=92a40599-4729-41b6-9504-b7197348389a","ios":"levelo://app?vid=92a40599-4729-41b6-9504-b7197348389a"},"vehicle_type_id":"4","last_reported":1738008595,"current_range_meters":38800,"station_id":"ce4bhi12rcd13ifvqfq0","pricing_plan_id":"cebpf4jnsgd1na2vs0mg"},{"bike_id":"b043089f-ff1e-4b3c-ba8e-82ed4f796f9b","system_id":"levelo_inurba_marseille","lat":43.31367,"lon":5.38488,"is_reserved":false,"is_disabled":false,"rental_uris":{"android":"levelo://app?vid=b043089f-ff1e-4b3c-ba8e-82ed4f796f9b","ios":"levelo://app?vid=b043089f-ff1e-4b3c-ba8e-82ed4f796f9b"},"vehicle_type_id":"4","last_reported":1738008595,"current_range_meters":7200,"station_id":"ce4bgt92rcd13ifvqcf0","pricing_plan_id":"cebpf4jnsgd1na2vs0mg"},{"bike_id":"d999bd9f-6214-4f0c-9578-310af25f727d","system_id":"levelo_inurba_marseille","lat":43.28624,"lon":5.35097,"is_reserved":false,"is_disabled":false,"rental_uris":{"android":"levelo://app?vid=d999bd9f-6214-4f0c-9578-310af25f727d","ios":"levelo://app?vid=d999bd9f-6214-4f0c-9578-310af25f727d"},"vehicle_type_id":"4","last_reported":1738008595,"current_range_meters":30400,"station_id":"ce4bhch2rcd13ifvqeug","pricing_plan_id":"cebpf4jnsgd1na2vs0mg"},{"bike_id":"8453a0c4-33e9-480c-a7ee-1e14bdee2642","system_id":"levelo_inurba_marseille","lat":43.27915,"lon":5.39588,"is_reserved":false,"is_disabled":false,"rental_uris":{"android":"levelo://app?vid=8453a0c4-33e9-480c-a7ee-1e14bdee2642","ios":"levelo://app?vid=8453a0c4-33e9-480c-a7ee-1e14bdee2642"},"vehicle_type_id":"4","last_reported":1738008595,"current_range_meters":38800,"station_id":"ce4bhf92rcd13ifvqf40","pricing_plan_id":"cebpf4jnsgd1na2vs0mg"},{"bike_id":"b92110b7-a00c-4b0a-b2e8-36af254e050e","system_id":"levelo_inurba_marseille","lat":43.308043,"lon":5.435157,"is_reserved":false,"is_disabled":false,"rental_uris":{"android":"levelo://app?vid=b92110b7-a00c-4b0a-b2e8-36af254e050e","ios":"levelo://app?vid=b92110b7-a00c-4b0a-b2e8-36af254e050e"},"vehicle_type_id":"4","last_reported":1738008595,"current_range_meters":22000,"station_id":"ce4bhph2rcd13ifvqheg","pricing_plan_id":"cebpf4jnsgd1na2vs0mg"},{"bike_id":"85f78df3-c4ff-4091-b2e6-715f8f7a3c9c","system_id":"levelo_inurba_marseille","lat":43.29803,"lon":5.37111,"is_reserved":false,"is_disabled":false,"rental_uris":{"android":"levelo://app?vid=85f78df3-c4ff-4091-b2e6-715f8f7a3c9c","ios":"levelo://app?vid=85f78df3-c4ff-4091-b2e6-715f8f7a3c9c"},"vehicle_type_id":"4","last_reported":1738008595,"current_range_meters":37600,"station_id":"ce4bgop2rcd13ifvqc1g","pricing_plan_id":"cebpf4jnsgd1na2vs0mg"},{"bike_id":"2235f8c9-3af8-4b5e-a6fb-d45e18c90436","system_id":"levelo_inurba_marseille","lat":43.28668,"lon":5.36355,"is_reserved":false,"is_disabled":false,"rental_uris":{"android":"levelo://app?vid=2235f8c9-3af8-4b5e-a6fb-d45e18c90436","ios":"levelo://app?vid=2235f8c9-3af8-4b5e-a6fb-d45e18c90436"},"vehicle_type_id":"4","last_reported":1738008595,"current_range_meters":37600,"station_id":"ce4bhah2rcd13ifvqej0","pricing_plan_id":"cebpf4jnsgd1na2vs0mg"},{"bike_id":"89d6a8c8-0b70-4ce6-8b1e-a1381215b15d","system_id":"levelo_inurba_marseille","lat":43.285006,"lon":5.380507,"is_reserved":false,"is_disabled":false,"rental_uris":{"android":"levelo://app?vid=89d6a8c8-0b70-4ce6-8b1e-a1381215b15d","ios":"levelo://app?vid=89d6a8c8-0b70-4ce6-8b1e-a1381215b15d"},"vehicle_type_id":"4","last_reported":1738008595,"current_range_meters":24800,"station_id":"ce4bh412rcd13ifvqdr0","pricing_plan_id":"cebpf4jnsgd1na2vs0mg"},{"bike_id":"75f78423-7bb1-46bc-9291-8f61438106b2","system_id":"levelo_inurba_marseille","lat":43.33018,"lon":5.39042,"is_reserved":false,"is_disabled":false,"rental_uris":{"android":"levelo://app?vid=75f78423-7bb1-46bc-9291-8f61438106b2","ios":"levelo://app?vid=75f78423-7bb1-46bc-9291-8f61438106b2"},"vehicle_type_id":"4","last_reported":1738008595,"current_range_meters":32400,"station_id":"ce4bhr92rcd13ifvqhrg","pricing_plan_id":"cebpf4jnsgd1na2vs0mg"},{"bike_id":"5af75d82-e55a-4c95-b312-c3aabde31a44","system_id":"levelo_inurba_marseille","lat":43.24389,"lon":5.3706,"is_reserved":false,"is_disabled":false,"rental_uris":{"android":"levelo://app?vid=5af75d82-e55a-4c95-b312-c3aabde31a44","ios":"levelo://app?vid=5af75d82-e55a-4c95-b312-c3aabde31a44"},"vehicle_type_id":"4","last_reported":1738008595,"current_range_meters":24000,"station_id":"ce4bhhh2rcd13ifvqfk0","pricing_plan_id":"cebpf4jnsgd1na2vs0mg"},{"bike_id":"e9669337-2f96-45ad-8307-98124ef4f3af","system_id":"levelo_inurba_marseille","lat":43.28848,"lon":5.39303,"is_reserved":false,"is_disabled":false,"rental_uris":{"android":"levelo://app?vid=e9669337-2f96-45ad-8307-98124ef4f3af","ios":"levelo://app?vid=e9669337-2f96-45ad-8307-98124ef4f3af"},"vehicle_type_id":"4","last_reported":1738008595,"current_range_meters":30000,"station_id":"ce4bh2p2rcd13ifvqdi0","pricing_plan_id":"cebpf4jnsgd1na2vs0mg"},{"bike_id":"6c565b62-b5d3-4320-9acd-b1433f62b7bb","system_id":"levelo_inurba_marseille","lat":43.28462,"lon":5.35882,"is_reserved":false,"is_disabled":false,"rental_uris":{"android":"levelo://app?vid=6c565b62-b5d3-4320-9acd-b1433f62b7bb","ios":"levelo://app?vid=6c565b62-b5d3-4320-9acd-b1433f62b7bb"},"vehicle_type_id":"4","last_reported":1738008595,"current_range_meters":34000,"station_id":"ce4bhah2rcd13ifvqei0","pricing_plan_id":"cebpf4jnsgd1na2vs0mg"},{"bike_id":"aebdfd3b-e667-4f60-92ad-e93561b39fe8","system_id":"levelo_inurba_marseille","lat":43.29414,"lon":5.38615,"is_reserved":false,"is_disabled":false,"rental_uris":{"android":"levelo://app?vid=aebdfd3b-e667-4f60-92ad-e93561b39fe8","ios":"levelo://app?vid=aebdfd3b-e667-4f60-92ad-e93561b39fe8"},"vehicle_type_id":"4","last_reported":1738008595,"current_range_meters":23200,"station_id":"ce4bh2h2rcd13ifvqdh0","pricing_plan_id":"cebpf4jnsgd1na2vs0mg"},{"bike_id":"d474a662-3a78-44f0-af88-33fb73350cac","system_id":"levelo_inurba_marseille","lat":43.29255,"lon":5.40912,"is_reserved":false,"is_disabled":false,"rental_uris":{"android":"levelo://app?vid=d474a662-3a78-44f0-af88-33fb73350cac","ios":"levelo://app?vid=d474a662-3a78-44f0-af88-33fb73350cac"},"vehicle_type_id":"4","last_reported":1738008595,"current_range_meters":33200,"station_id":"ce4bh192rcd13ifvqdc0","pricing_plan_id":"cebpf4jnsgd1na2vs0mg"},{"bike_id":"7a184209-be60-4d65-b9fd-0a6ab88019c6","system_id":"levelo_inurba_marseille","lat":43.24084,"lon":5.37737,"is_reserved":false,"is_disabled":false,"rental_uris":{"android":"levelo://app?vid=7a184209-be60-4d65-b9fd-0a6ab88019c6","ios":"levelo://app?vid=7a184209-be60-4d65-b9fd-0a6ab88019c6"},"vehicle_type_id":"4","last_reported":1738008595,"current_range_meters":22000,"station_id":"ce4bhnp2rcd13ifvqgvg","pricing_plan_id":"cebpf4jnsgd1na2vs0mg"},{"bike_id":"885cb607-a227-460a-9e27-c666ce0b0da1","system_id":"levelo_inurba_marseille","lat":43.28267,"lon":5.35074,"is_reserved":false,"is_disabled":false,"rental_uris":{"android":"levelo://app?vid=885cb607-a227-460a-9e27-c666ce0b0da1","ios":"levelo://app?vid=885cb607-a227-460a-9e27-c666ce0b0da1"},"vehicle_type_id":"4","last_reported":1738008595,"current_range_meters":32400,"station_id":"ce4bhbp2rcd13ifvqerg","pricing_plan_id":"cebpf4jnsgd1na2vs0mg"},{"bike_id":"a0b9cd6c-c875-49b5-9730-db3796dd717c","system_id":"levelo_inurba_marseille","lat":43.27063,"lon":5.40249,"is_reserved":false,"is_disabled":false,"rental_uris":{"android":"levelo://app?vid=a0b9cd6c-c875-49b5-9730-db3796dd717c","ios":"levelo://app?vid=a0b9cd6c-c875-49b5-9730-db3796dd717c"},"vehicle_type_id":"4","last_reported":1738008595,"current_range_meters":38000,"station_id":"ce4bhk92rcd13ifvqgc0","pricing_plan_id":"cebpf4jnsgd1na2vs0mg"},{"bike_id":"c7830262-ea23-45f4-9a23-990ed17ebf09","system_id":"levelo_inurba_marseille","lat":43.2989,"lon":5.39744,"is_reserved":false,"is_disabled":true,"rental_uris":{"android":"levelo://app?vid=c7830262-ea23-45f4-9a23-990ed17ebf09","ios":"levelo://app?vid=c7830262-ea23-45f4-9a23-990ed17ebf09"},"vehicle_type_id":"4","last_reported":1738008595,"current_range_meters":0,"station_id":"ce4bh0h2rcd13ifvqd50","pricing_plan_id":"cebpf4jnsgd1na2vs0mg"},{"bike_id":"57ae508b-8b5e-4582-92ef-8f8000ce59c7","system_id":"levelo_inurba_marseille","lat":43.27991,"lon":5.40015,"is_reserved":false,"is_disabled":false,"rental_uris":{"android":"levelo://app?vid=57ae508b-8b5e-4582-92ef-8f8000ce59c7","ios":"levelo://app?vid=57ae508b-8b5e-4582-92ef-8f8000ce59c7"},"vehicle_type_id":"4","last_reported":1738008595,"current_range_meters":38800,"station_id":"ce4bho92rcd13ifvqh4g","pricing_plan_id":"cebpf4jnsgd1na2vs0mg"},{"bike_id":"6e81003b-1ed6-4bcc-bd22-c21300ab9348","system_id":"levelo_inurba_marseille","lat":43.28104,"lon":5.37842,"is_reserved":false,"is_disabled":false,"rental_uris":{"android":"levelo://app?vid=6e81003b-1ed6-4bcc-bd22-c21300ab9348","ios":"levelo://app?vid=6e81003b-1ed6-4bcc-bd22-c21300ab9348"},"vehicle_type_id":"4","last_reported":1738008595,"current_range_meters":4000,"station_id":"ce4bha12rcd13ifvqee0","pricing_plan_id":"cebpf4jnsgd1na2vs0mg"},{"bike_id":"74a8ba08-10bd-4bfd-830f-e130dab90166","system_id":"levelo_inurba_marseille","lat":43.27827,"lon":5.40715,"is_reserved":false,"is_disabled":false,"rental_uris":{"android":"levelo://app?vid=74a8ba08-10bd-4bfd-830f-e130dab90166","ios":"levelo://app?vid=74a8ba08-10bd-4bfd-830f-e130dab90166"},"vehicle_type_id":"4","last_reported":1738008595,"current_range_meters":30000,"station_id":"ce4bhnh2rcd13ifvqgtg","pricing_plan_id":"cebpf4jnsgd1na2vs0mg"},{"bike_id":"47ce9f76-20d2-4e32-9ac4-627b684ea49c","system_id":"levelo_inurba_marseille","lat":43.281,"lon":5.3782,"is_reserved":false,"is_disabled":false,"rental_uris":{"android":"levelo://app?vid=47ce9f76-20d2-4e32-9ac4-627b684ea49c","ios":"levelo://app?vid=47ce9f76-20d2-4e32-9ac4-627b684ea49c"},"vehicle_type_id":"4","last_reported":1738008595,"current_range_meters":37600,"station_id":"ce4bha12rcd13ifvqee0","pricing_plan_id":"cebpf4jnsgd1na2vs0mg"},{"bike_id":"7fc942fc-b8cf-424a-806f-ec87840357cf","system_id":"levelo_inurba_marseille","lat":43.27207,"lon":5.40983,"is_reserved":false,"is_disabled":false,"rental_uris":{"android":"levelo://app?vid=7fc942fc-b8cf-424a-806f-ec87840357cf","ios":"levelo://app?vid=7fc942fc-b8cf-424a-806f-ec87840357cf"},"vehicle_type_id":"4","last_reported":1738008595,"current_range_meters":35600,"station_id":"ce4bhl12rcd13ifvqgf0","pricing_plan_id":"cebpf4jnsgd1na2vs0mg"},{"bike_id":"9a564cc9-7a8d-42d7-a99f-2e5e84a23054","system_id":"levelo_inurba_marseille","lat":43.27056,"lon":5.40255,"is_reserved":false,"is_disabled":false,"rental_uris":{"android":"levelo://app?vid=9a564cc9-7a8d-42d7-a99f-2e5e84a23054","ios":"levelo://app?vid=9a564cc9-7a8d-42d7-a99f-2e5e84a23054"},"vehicle_type_id":"4","last_reported":1738008595,"current_range_meters":16400,"station_id":"ce4bhk92rcd13ifvqgc0","pricing_plan_id":"cebpf4jnsgd1na2vs0mg"},{"bike_id":"0a3c2fc6-3a3b-4b11-853c-a8532910522d","system_id":"levelo_inurba_marseille","lat":43.31743,"lon":5.38997,"is_reserved":false,"is_disabled":false,"rental_uris":{"android":"levelo://app?vid=0a3c2fc6-3a3b-4b11-853c-a8532910522d","ios":"levelo://app?vid=0a3c2fc6-3a3b-4b11-853c-a8532910522d"},"vehicle_type_id":"4","last_reported":1738008595,"current_range_meters":28000,"station_id":"ce4bhqp2rcd13ifvqhng","pricing_plan_id":"cebpf4jnsgd1na2vs0mg"},{"bike_id":"d1812923-3ef4-4beb-a9b3-7c691bbae536","system_id":"levelo_inurba_marseille","lat":43.288534,"lon":5.393177,"is_reserved":false,"is_disabled":false,"rental_uris":{"android":"levelo://app?vid=d1812923-3ef4-4beb-a9b3-7c691bbae536","ios":"levelo://app?vid=d1812923-3ef4-4beb-a9b3-7c691bbae536"},"vehicle_type_id":"4","last_reported":1738008595,"current_range_meters":38000,"station_id":"ce4bh2p2rcd13ifvqdi0","pricing_plan_id":"cebpf4jnsgd1na2vs0mg"},{"bike_id":"aa292130-3d8d-40d9-91ba-8ad7485a7c71","system_id":"levelo_inurba_marseille","lat":43.29228,"lon":5.360431,"is_reserved":false,"is_disabled":false,"rental_uris":{"android":"levelo://app?vid=aa292130-3d8d-40d9-91ba-8ad7485a7c71","ios":"levelo://app?vid=aa292130-3d8d-40d9-91ba-8ad7485a7c71"},"vehicle_type_id":"4","last_reported":1738008595,"current_range_meters":20400,"station_id":"ce4bhbh2rcd13ifvqeqg","pricing_plan_id":"cebpf4jnsgd1na2vs0mg"},{"bike_id":"7125fabb-d4fe-450e-b9a8-9b858c3dc86d","system_id":"levelo_inurba_marseille","lat":43.32482,"lon":5.36567,"is_reserved":false,"is_disabled":false,"rental_uris":{"android":"levelo://app?vid=7125fabb-d4fe-450e-b9a8-9b858c3dc86d","ios":"levelo://app?vid=7125fabb-d4fe-450e-b9a8-9b858c3dc86d"},"vehicle_type_id":"4","last_reported":1738008595,"current_range_meters":32000,"station_id":"ce4bhs12rcd13ifvqhvg","pricing_plan_id":"cebpf4jnsgd1na2vs0mg"},{"bike_id":"04eef5f1-9910-4247-adcc-3c9ac71da897","system_id":"levelo_inurba_marseille","lat":43.28667,"lon":5.36351,"is_reserved":false,"is_disabled":false,"rental_uris":{"android":"levelo://app?vid=04eef5f1-9910-4247-adcc-3c9ac71da897","ios":"levelo://app?vid=04eef5f1-9910-4247-adcc-3c9ac71da897"},"vehicle_type_id":"4","last_reported":1738008595,"current_range_meters":39200,"station_id":"ce4bhah2rcd13ifvqej0","pricing_plan_id":"cebpf4jnsgd1na2vs0mg"},{"bike_id":"3ec52b4d-cf80-449d-bd30-9db7519a9ed7","system_id":"levelo_inurba_marseille","lat":43.27066,"lon":5.40247,"is_reserved":false,"is_disabled":false,"rental_uris":{"android":"levelo://app?vid=3ec52b4d-cf80-449d-bd30-9db7519a9ed7","ios":"levelo://app?vid=3ec52b4d-cf80-449d-bd30-9db7519a9ed7"},"vehicle_type_id":"4","last_reported":1738008595,"current_range_meters":10000,"station_id":"ce4bhk92rcd13ifvqgc0","pricing_plan_id":"cebpf4jnsgd1na2vs0mg"},{"bike_id":"dcdd58f1-c264-4524-a17f-80a20d13576c","system_id":"levelo_inurba_marseille","lat":43.27904,"lon":5.38011,"is_reserved":false,"is_disabled":false,"rental_uris":{"android":"levelo://app?vid=dcdd58f1-c264-4524-a17f-80a20d13576c","ios":"levelo://app?vid=dcdd58f1-c264-4524-a17f-80a20d13576c"},"vehicle_type_id":"4","last_reported":1738008595,"current_range_meters":27200,"station_id":"ce4bhf92rcd13ifvqf50","pricing_plan_id":"cebpf4jnsgd1na2vs0mg"},{"bike_id":"a1aa1119-c115-4bd2-b453-11981a3bd34e","system_id":"levelo_inurba_marseille","lat":43.28028,"lon":5.36937,"is_reserved":false,"is_disabled":false,"rental_uris":{"android":"levelo://app?vid=a1aa1119-c115-4bd2-b453-11981a3bd34e","ios":"levelo://app?vid=a1aa1119-c115-4bd2-b453-11981a3bd34e"},"vehicle_type_id":"4","last_reported":1738008595,"current_range_meters":35200,"station_id":"ce4bha12rcd13ifvqef0","pricing_plan_id":"cebpf4jnsgd1na2vs0mg"},{"bike_id":"4ce9eda4-7d12-49f2-aec0-eb18d235e7b8","system_id":"levelo_inurba_marseille","lat":43.2782,"lon":5.40711,"is_reserved":false,"is_disabled":false,"rental_uris":{"android":"levelo://app?vid=4ce9eda4-7d12-49f2-aec0-eb18d235e7b8","ios":"levelo://app?vid=4ce9eda4-7d12-49f2-aec0-eb18d235e7b8"},"vehicle_type_id":"4","last_reported":1738008595,"current_range_meters":38800,"station_id":"ce4bhnh2rcd13ifvqgtg","pricing_plan_id":"cebpf4jnsgd1na2vs0mg"},{"bike_id":"9838cc78-2b53-49d3-ae13-82df62c4fd64","system_id":"levelo_inurba_marseille","lat":43.28412,"lon":5.40934,"is_reserved":false,"is_disabled":true,"rental_uris":{"android":"levelo://app?vid=9838cc78-2b53-49d3-ae13-82df62c4fd64","ios":"levelo://app?vid=9838cc78-2b53-49d3-ae13-82df62c4fd64"},"vehicle_type_id":"4","last_reported":1738008595,"current_range_meters":0,"station_id":"","pricing_plan_id":"cebpf4jnsgd1na2vs0mg"},{"bike_id":"503c89af-8d2b-4332-93be-e43ba25a9cfb","system_id":"levelo_inurba_marseille","lat":43.29415,"lon":5.38627,"is_reserved":false,"is_disabled":false,"rental_uris":{"android":"levelo://app?vid=503c89af-8d2b-4332-93be-e43ba25a9cfb","ios":"levelo://app?vid=503c89af-8d2b-4332-93be-e43ba25a9cfb"},"vehicle_type_id":"4","last_reported":1738008595,"current_range_meters":10000,"station_id":"ce4bh2h2rcd13ifvqdh0","pricing_plan_id":"cebpf4jnsgd1na2vs0mg"},{"bike_id":"f3a886a3-500d-4d32-a120-4a7101c0f911","system_id":"levelo_inurba_marseille","lat":43.26937,"lon":5.40253,"is_reserved":false,"is_disabled":false,"rental_uris":{"android":"levelo://app?vid=f3a886a3-500d-4d32-a120-4a7101c0f911","ios":"levelo://app?vid=f3a886a3-500d-4d32-a120-4a7101c0f911"},"vehicle_type_id":"4","last_reported":1738008595,"current_range_meters":39200,"station_id":"cjm6bp8fraef2m0cb0m0","pricing_plan_id":"cebpf4jnsgd1na2vs0mg"},{"bike_id":"dd364a76-e3be-4d4b-ad71-ea78cc2f6455","system_id":"levelo_inurba_marseille","lat":43.30888,"lon":5.37183,"is_reserved":false,"is_disabled":false,"rental_uris":{"android":"levelo://app?vid=dd364a76-e3be-4d4b-ad71-ea78cc2f6455","ios":"levelo://app?vid=dd364a76-e3be-4d4b-ad71-ea78cc2f6455"},"vehicle_type_id":"4","last_reported":1738008595,"current_range_meters":18800,"station_id":"ce4bguh2rcd13ifvqckg","pricing_plan_id":"cebpf4jnsgd1na2vs0mg"},{"bike_id":"c84c943b-b110-44b2-91f8-c6182498c720","system_id":"levelo_inurba_marseille","lat":43.2808,"lon":5.39655,"is_reserved":false,"is_disabled":false,"rental_uris":{"android":"levelo://app?vid=c84c943b-b110-44b2-91f8-c6182498c720","ios":"levelo://app?vid=c84c943b-b110-44b2-91f8-c6182498c720"},"vehicle_type_id":"4","last_reported":1738008595,"current_range_meters":22800,"station_id":"ce4bho12rcd13ifvqh2g","pricing_plan_id":"cebpf4jnsgd1na2vs0mg"},{"bike_id":"43999a85-2c03-405e-a87e-fc2aeca1fb12","system_id":"levelo_inurba_marseille","lat":43.31074,"lon":5.38347,"is_reserved":false,"is_disabled":false,"rental_uris":{"android":"levelo://app?vid=43999a85-2c03-405e-a87e-fc2aeca1fb12","ios":"levelo://app?vid=43999a85-2c03-405e-a87e-fc2aeca1fb12"},"vehicle_type_id":"4","last_reported":1738008595,"current_range_meters":8800,"station_id":"ce4bgv92rcd13ifvqcr0","pricing_plan_id":"cebpf4jnsgd1na2vs0mg"},{"bike_id":"5fa241af-ff37-49ce-bf70-bbf2d0e80cee","system_id":"levelo_inurba_marseille","lat":43.29195,"lon":5.39327,"is_reserved":false,"is_disabled":false,"rental_uris":{"android":"levelo://app?vid=5fa241af-ff37-49ce-bf70-bbf2d0e80cee","ios":"levelo://app?vid=5fa241af-ff37-49ce-bf70-bbf2d0e80cee"},"vehicle_type_id":"4","last_reported":1738008595,"current_range_meters":22400,"station_id":"ce4bh192rcd13ifvqdd0","pricing_plan_id":"cebpf4jnsgd1na2vs0mg"},{"bike_id":"4044df78-be9c-49b2-9e9b-8b004ba0cec9","system_id":"levelo_inurba_marseille","lat":43.34143,"lon":5.40901,"is_reserved":false,"is_disabled":false,"rental_uris":{"android":"levelo://app?vid=4044df78-be9c-49b2-9e9b-8b004ba0cec9","ios":"levelo://app?vid=4044df78-be9c-49b2-9e9b-8b004ba0cec9"},"vehicle_type_id":"4","last_reported":1738008595,"current_range_meters":38000,"station_id":"ce4bhqh2rcd13ifvqhlg","pricing_plan_id":"cebpf4jnsgd1na2vs0mg"},{"bike_id":"dfacefb1-3dc6-451c-9df8-e96d17150234","system_id":"levelo_inurba_marseille","lat":43.29794,"lon":5.37115,"is_reserved":false,"is_disabled":false,"rental_uris":{"android":"levelo://app?vid=dfacefb1-3dc6-451c-9df8-e96d17150234","ios":"levelo://app?vid=dfacefb1-3dc6-451c-9df8-e96d17150234"},"vehicle_type_id":"4","last_reported":1738008595,"current_range_meters":35600,"station_id":"ce4bgop2rcd13ifvqc1g","pricing_plan_id":"cebpf4jnsgd1na2vs0mg"},{"bike_id":"aad69bc3-bc1b-4156-a313-be595f833cb2","system_id":"levelo_inurba_marseille","lat":43.27073,"lon":5.42276,"is_reserved":false,"is_disabled":false,"rental_uris":{"android":"levelo://app?vid=aad69bc3-bc1b-4156-a313-be595f833cb2","ios":"levelo://app?vid=aad69bc3-bc1b-4156-a313-be595f833cb2"},"vehicle_type_id":"4","last_reported":1738008595,"current_range_meters":39200,"station_id":"ce4bhk92rcd13ifvqgb0","pricing_plan_id":"cebpf4jnsgd1na2vs0mg"},{"bike_id":"e4f81e6e-bff5-48ee-9cf0-1a2de2d7d1eb","system_id":"levelo_inurba_marseille","lat":43.31278,"lon":5.4016,"is_reserved":false,"is_disabled":false,"rental_uris":{"android":"levelo://app?vid=e4f81e6e-bff5-48ee-9cf0-1a2de2d7d1eb","ios":"levelo://app?vid=e4f81e6e-bff5-48ee-9cf0-1a2de2d7d1eb"},"vehicle_type_id":"4","last_reported":1738008595,"current_range_meters":19200,"station_id":"ce4bh092rcd13ifvqd30","pricing_plan_id":"cebpf4jnsgd1na2vs0mg"},{"bike_id":"2e0a8b86-b457-48a0-8577-213b01080398","system_id":"levelo_inurba_marseille","lat":43.23198,"lon":5.3555,"is_reserved":false,"is_disabled":false,"rental_uris":{"android":"levelo://app?vid=2e0a8b86-b457-48a0-8577-213b01080398","ios":"levelo://app?vid=2e0a8b86-b457-48a0-8577-213b01080398"},"vehicle_type_id":"4","last_reported":1738008595,"current_range_meters":38800,"station_id":"ce4bhu92rcd13ifvqi70","pricing_plan_id":"cebpf4jnsgd1na2vs0mg"},{"bike_id":"de1fc9e1-ac80-4d48-bbfb-bd031efff56d","system_id":"levelo_inurba_marseille","lat":43.29872,"lon":5.39746,"is_reserved":false,"is_disabled":false,"rental_uris":{"android":"levelo://app?vid=de1fc9e1-ac80-4d48-bbfb-bd031efff56d","ios":"levelo://app?vid=de1fc9e1-ac80-4d48-bbfb-bd031efff56d"},"vehicle_type_id":"4","last_reported":1738008595,"current_range_meters":4400,"station_id":"ce4bh0h2rcd13ifvqd50","pricing_plan_id":"cebpf4jnsgd1na2vs0mg"},{"bike_id":"eefc26b4-ceeb-447b-96e9-86927bc262df","system_id":"levelo_inurba_marseille","lat":43.27912,"lon":5.38007,"is_reserved":false,"is_disabled":false,"rental_uris":{"android":"levelo://app?vid=eefc26b4-ceeb-447b-96e9-86927bc262df","ios":"levelo://app?vid=eefc26b4-ceeb-447b-96e9-86927bc262df"},"vehicle_type_id":"4","last_reported":1738008595,"current_range_meters":39200,"station_id":"ce4bhf92rcd13ifvqf50","pricing_plan_id":"cebpf4jnsgd1na2vs0mg"},{"bike_id":"d979d8d2-ec65-47af-9229-e4270aab279a","system_id":"levelo_inurba_marseille","lat":43.23061,"lon":5.35497,"is_reserved":false,"is_disabled":false,"rental_uris":{"android":"levelo://app?vid=d979d8d2-ec65-47af-9229-e4270aab279a","ios":"levelo://app?vid=d979d8d2-ec65-47af-9229-e4270aab279a"},"vehicle_type_id":"4","last_reported":1738008595,"current_range_meters":27200,"station_id":"cpo3342slgdg3j2ifvpg","pricing_plan_id":"cebpf4jnsgd1na2vs0mg"},{"bike_id":"1f957485-1041-486f-a10a-f53c11a11cde","system_id":"levelo_inurba_marseille","lat":43.28939,"lon":5.36633,"is_reserved":false,"is_disabled":false,"rental_uris":{"android":"levelo://app?vid=1f957485-1041-486f-a10a-f53c11a11cde","ios":"levelo://app?vid=1f957485-1041-486f-a10a-f53c11a11cde"},"vehicle_type_id":"4","last_reported":1738008595,"current_range_meters":16000,"station_id":"ce4bhap2rcd13ifvqek0","pricing_plan_id":"cebpf4jnsgd1na2vs0mg"},{"bike_id":"fcd87167-ca69-4acc-9014-02c3d57a54f0","system_id":"levelo_inurba_marseille","lat":43.32537,"lon":5.41434,"is_reserved":false,"is_disabled":false,"rental_uris":{"android":"levelo://app?vid=fcd87167-ca69-4acc-9014-02c3d57a54f0","ios":"levelo://app?vid=fcd87167-ca69-4acc-9014-02c3d57a54f0"},"vehicle_type_id":"4","last_reported":1738008595,"current_range_meters":36000,"station_id":"ce4bhq12rcd13ifvqhhg","pricing_plan_id":"cebpf4jnsgd1na2vs0mg"},{"bike_id":"cc405da5-2efa-43f4-9ab4-8edf8dade4c3","system_id":"levelo_inurba_marseille","lat":43.29839,"lon":5.40394,"is_reserved":false,"is_disabled":false,"rental_uris":{"android":"levelo://app?vid=cc405da5-2efa-43f4-9ab4-8edf8dade4c3","ios":"levelo://app?vid=cc405da5-2efa-43f4-9ab4-8edf8dade4c3"},"vehicle_type_id":"4","last_reported":1738008595,"current_range_meters":38000,"station_id":"ce4bh112rcd13ifvqd90","pricing_plan_id":"cebpf4jnsgd1na2vs0mg"},{"bike_id":"386318f4-3af7-405e-a1e4-4b7d40f54b1e","system_id":"levelo_inurba_marseille","lat":43.2846,"lon":5.35893,"is_reserved":false,"is_disabled":false,"rental_uris":{"android":"levelo://app?vid=386318f4-3af7-405e-a1e4-4b7d40f54b1e","ios":"levelo://app?vid=386318f4-3af7-405e-a1e4-4b7d40f54b1e"},"vehicle_type_id":"4","last_reported":1738008595,"current_range_meters":20400,"station_id":"ce4bhah2rcd13ifvqei0","pricing_plan_id":"cebpf4jnsgd1na2vs0mg"},{"bike_id":"eecca6bf-8b74-40da-aaa1-519ada23f008","system_id":"levelo_inurba_marseille","lat":43.26807,"lon":5.40252,"is_reserved":false,"is_disabled":false,"rental_uris":{"android":"levelo://app?vid=eecca6bf-8b74-40da-aaa1-519ada23f008","ios":"levelo://app?vid=eecca6bf-8b74-40da-aaa1-519ada23f008"},"vehicle_type_id":"4","last_reported":1738008595,"current_range_meters":24400,"station_id":"ce501612rcd8frsf0b60","pricing_plan_id":"cebpf4jnsgd1na2vs0mg"},{"bike_id":"ae00de2f-f31f-40c5-afd5-77a43823ef3d","system_id":"levelo_inurba_marseille","lat":43.33016,"lon":5.3897,"is_reserved":false,"is_disabled":false,"rental_uris":{"android":"levelo://app?vid=ae00de2f-f31f-40c5-afd5-77a43823ef3d","ios":"levelo://app?vid=ae00de2f-f31f-40c5-afd5-77a43823ef3d"},"vehicle_type_id":"4","last_reported":1738008595,"current_range_meters":38800,"station_id":"ce4bhr92rcd13ifvqhrg","pricing_plan_id":"cebpf4jnsgd1na2vs0mg"},{"bike_id":"50909ffe-7ee9-43be-9b01-d1f13b072ecf","system_id":"levelo_inurba_marseille","lat":43.29517,"lon":5.39036,"is_reserved":false,"is_disabled":false,"rental_uris":{"android":"levelo://app?vid=50909ffe-7ee9-43be-9b01-d1f13b072ecf","ios":"levelo://app?vid=50909ffe-7ee9-43be-9b01-d1f13b072ecf"},"vehicle_type_id":"4","last_reported":1738008595,"current_range_meters":38400,"station_id":"ce4bh3p2rcd13ifvqdp0","pricing_plan_id":"cebpf4jnsgd1na2vs0mg"},{"bike_id":"cf5b10d7-e478-4dd4-b96a-391c172da7bd","system_id":"levelo_inurba_marseille","lat":43.29623,"lon":5.37711,"is_reserved":false,"is_disabled":false,"rental_uris":{"android":"levelo://app?vid=cf5b10d7-e478-4dd4-b96a-391c172da7bd","ios":"levelo://app?vid=cf5b10d7-e478-4dd4-b96a-391c172da7bd"},"vehicle_type_id":"4","last_reported":1738008595,"current_range_meters":18800,"station_id":"ce4bgi92rcd13ifvqb90","pricing_plan_id":"cebpf4jnsgd1na2vs0mg"},{"bike_id":"7f3db98a-d670-4ad0-9409-ade545da9876","system_id":"levelo_inurba_marseille","lat":43.2884,"lon":5.35862,"is_reserved":false,"is_disabled":false,"rental_uris":{"android":"levelo://app?vid=7f3db98a-d670-4ad0-9409-ade545da9876","ios":"levelo://app?vid=7f3db98a-d670-4ad0-9409-ade545da9876"},"vehicle_type_id":"4","last_reported":1738008595,"current_range_meters":38400,"station_id":"ce4bhb12rcd13ifvqem0","pricing_plan_id":"cebpf4jnsgd1na2vs0mg"},{"bike_id":"75214a19-3086-4aab-8ba6-a177978da634","system_id":"levelo_inurba_marseille","lat":43.29907,"lon":5.43647,"is_reserved":false,"is_disabled":false,"rental_uris":{"android":"levelo://app?vid=75214a19-3086-4aab-8ba6-a177978da634","ios":"levelo://app?vid=75214a19-3086-4aab-8ba6-a177978da634"},"vehicle_type_id":"4","last_reported":1738008595,"current_range_meters":38400,"station_id":"ce4bhpp2rcd13ifvqhfg","pricing_plan_id":"cebpf4jnsgd1na2vs0mg"},{"bike_id":"30bbb00e-1612-4a25-b2e9-c8ad656fb58a","system_id":"levelo_inurba_marseille","lat":43.33728,"lon":5.39182,"is_reserved":false,"is_disabled":false,"rental_uris":{"android":"levelo://app?vid=30bbb00e-1612-4a25-b2e9-c8ad656fb58a","ios":"levelo://app?vid=30bbb00e-1612-4a25-b2e9-c8ad656fb58a"},"vehicle_type_id":"4","last_reported":1738008595,"current_range_meters":38800,"station_id":"ce4bhr92rcd13ifvqhsg","pricing_plan_id":"cebpf4jnsgd1na2vs0mg"},{"bike_id":"cdba9093-1e92-471c-a6ea-8ba6d1c21ef6","system_id":"levelo_inurba_marseille","lat":43.30431,"lon":5.38889,"is_reserved":false,"is_disabled":true,"rental_uris":{"android":"levelo://app?vid=cdba9093-1e92-471c-a6ea-8ba6d1c21ef6","ios":"levelo://app?vid=cdba9093-1e92-471c-a6ea-8ba6d1c21ef6"},"vehicle_type_id":"4","last_reported":1738008595,"current_range_meters":36000,"station_id":"ce4bgk12rcd13ifvqbi0","pricing_plan_id":"cebpf4jnsgd1na2vs0mg"},{"bike_id":"6eb6899d-e11a-4acb-8661-25de9e49d2b4","system_id":"levelo_inurba_marseille","lat":43.31488,"lon":5.37309,"is_reserved":false,"is_disabled":false,"rental_uris":{"android":"levelo://app?vid=6eb6899d-e11a-4acb-8661-25de9e49d2b4","ios":"levelo://app?vid=6eb6899d-e11a-4acb-8661-25de9e49d2b4"},"vehicle_type_id":"4","last_reported":1738008595,"current_range_meters":14400,"station_id":"ce4bgt12rcd13ifvqcd0","pricing_plan_id":"cebpf4jnsgd1na2vs0mg"},{"bike_id":"489f6534-c1d5-483f-a648-2a087319e607","system_id":"levelo_inurba_marseille","lat":43.33019,"lon":5.39042,"is_reserved":false,"is_disabled":false,"rental_uris":{"android":"levelo://app?vid=489f6534-c1d5-483f-a648-2a087319e607","ios":"levelo://app?vid=489f6534-c1d5-483f-a648-2a087319e607"},"vehicle_type_id":"4","last_reported":1738008595,"current_range_meters":38400,"station_id":"ce4bhr92rcd13ifvqhrg","pricing_plan_id":"cebpf4jnsgd1na2vs0mg"},{"bike_id":"2de173e4-ac56-4249-a306-7f63542ebafb","system_id":"levelo_inurba_marseille","lat":43.29677,"lon":5.37282,"is_reserved":false,"is_disabled":false,"rental_uris":{"android":"levelo://app?vid=2de173e4-ac56-4249-a306-7f63542ebafb","ios":"levelo://app?vid=2de173e4-ac56-4249-a306-7f63542ebafb"},"vehicle_type_id":"4","last_reported":1738008595,"current_range_meters":38800,"station_id":"ce4bgk12rcd13ifvqbj0","pricing_plan_id":"cebpf4jnsgd1na2vs0mg"},{"bike_id":"580828f0-3b12-422d-95d2-0d346530f1dd","system_id":"levelo_inurba_marseille","lat":43.25081,"lon":5.39505,"is_reserved":false,"is_disabled":false,"rental_uris":{"android":"levelo://app?vid=580828f0-3b12-422d-95d2-0d346530f1dd","ios":"levelo://app?vid=580828f0-3b12-422d-95d2-0d346530f1dd"},"vehicle_type_id":"4","last_reported":1738008595,"current_range_meters":23200,"station_id":"ce4bhm12rcd13ifvqgkg","pricing_plan_id":"cebpf4jnsgd1na2vs0mg"},{"bike_id":"3816cd89-5ed5-4f57-af75-c6496f460332","system_id":"levelo_inurba_marseille","lat":43.29842,"lon":5.36269,"is_reserved":false,"is_disabled":false,"rental_uris":{"android":"levelo://app?vid=3816cd89-5ed5-4f57-af75-c6496f460332","ios":"levelo://app?vid=3816cd89-5ed5-4f57-af75-c6496f460332"},"vehicle_type_id":"4","last_reported":1738008595,"current_range_meters":38000,"station_id":"ce4bgpp2rcd13ifvqc3g","pricing_plan_id":"cebpf4jnsgd1na2vs0mg"},{"bike_id":"44e2c606-e863-4525-992e-9f501f9c6fa1","system_id":"levelo_inurba_marseille","lat":43.30907,"lon":5.36856,"is_reserved":false,"is_disabled":false,"rental_uris":{"android":"levelo://app?vid=44e2c606-e863-4525-992e-9f501f9c6fa1","ios":"levelo://app?vid=44e2c606-e863-4525-992e-9f501f9c6fa1"},"vehicle_type_id":"4","last_reported":1738008595,"current_range_meters":17200,"station_id":"ce4bgn92rcd13ifvqbvg","pricing_plan_id":"cebpf4jnsgd1na2vs0mg"},{"bike_id":"816b0862-4aea-432a-881f-e434ae607b56","system_id":"levelo_inurba_marseille","lat":43.29839,"lon":5.36262,"is_reserved":false,"is_disabled":true,"rental_uris":{"android":"levelo://app?vid=816b0862-4aea-432a-881f-e434ae607b56","ios":"levelo://app?vid=816b0862-4aea-432a-881f-e434ae607b56"},"vehicle_type_id":"4","last_reported":1738008595,"current_range_meters":2000,"station_id":"ce4bgpp2rcd13ifvqc3g","pricing_plan_id":"cebpf4jnsgd1na2vs0mg"},{"bike_id":"3c9c9088-9c27-4609-bc62-8218c0dc2be8","system_id":"levelo_inurba_marseille","lat":43.2319,"lon":5.35554,"is_reserved":false,"is_disabled":false,"rental_uris":{"android":"levelo://app?vid=3c9c9088-9c27-4609-bc62-8218c0dc2be8","ios":"levelo://app?vid=3c9c9088-9c27-4609-bc62-8218c0dc2be8"},"vehicle_type_id":"4","last_reported":1738008595,"current_range_meters":36400,"station_id":"ce4bhu92rcd13ifvqi70","pricing_plan_id":"cebpf4jnsgd1na2vs0mg"},{"bike_id":"8a4fd9c1-126f-44bd-8919-7cf37f162b5e","system_id":"levelo_inurba_marseille","lat":43.28193,"lon":5.42634,"is_reserved":false,"is_disabled":false,"rental_uris":{"android":"levelo://app?vid=8a4fd9c1-126f-44bd-8919-7cf37f162b5e","ios":"levelo://app?vid=8a4fd9c1-126f-44bd-8919-7cf37f162b5e"},"vehicle_type_id":"4","last_reported":1738008595,"current_range_meters":30000,"station_id":"ce4bhnh2rcd13ifvqgug","pricing_plan_id":"cebpf4jnsgd1na2vs0mg"},{"bike_id":"2070dd69-bac9-4b28-938a-3282a1b78ff4","system_id":"levelo_inurba_marseille","lat":43.3128,"lon":5.40168,"is_reserved":false,"is_disabled":false,"rental_uris":{"android":"levelo://app?vid=2070dd69-bac9-4b28-938a-3282a1b78ff4","ios":"levelo://app?vid=2070dd69-bac9-4b28-938a-3282a1b78ff4"},"vehicle_type_id":"4","last_reported":1738008595,"current_range_meters":27600,"station_id":"ce4bh092rcd13ifvqd30","pricing_plan_id":"cebpf4jnsgd1na2vs0mg"},{"bike_id":"a4ebca99-a7a3-497b-b464-c384db188e87","system_id":"levelo_inurba_marseille","lat":43.27987,"lon":5.40033,"is_reserved":false,"is_disabled":false,"rental_uris":{"android":"levelo://app?vid=a4ebca99-a7a3-497b-b464-c384db188e87","ios":"levelo://app?vid=a4ebca99-a7a3-497b-b464-c384db188e87"},"vehicle_type_id":"4","last_reported":1738008595,"current_range_meters":19200,"station_id":"ce4bho92rcd13ifvqh4g","pricing_plan_id":"cebpf4jnsgd1na2vs0mg"},{"bike_id":"5d8c7a0e-2c0b-4c83-b6c3-213ff905e102","system_id":"levelo_inurba_marseille","lat":43.29189,"lon":5.39305,"is_reserved":false,"is_disabled":false,"rental_uris":{"android":"levelo://app?vid=5d8c7a0e-2c0b-4c83-b6c3-213ff905e102","ios":"levelo://app?vid=5d8c7a0e-2c0b-4c83-b6c3-213ff905e102"},"vehicle_type_id":"4","last_reported":1738008595,"current_range_meters":19200,"station_id":"ce4bh192rcd13ifvqdd0","pricing_plan_id":"cebpf4jnsgd1na2vs0mg"},{"bike_id":"bc650f12-f396-4d0c-9dd5-ff6b9983471c","system_id":"levelo_inurba_marseille","lat":43.29563,"lon":5.42292,"is_reserved":false,"is_disabled":false,"rental_uris":{"android":"levelo://app?vid=bc650f12-f396-4d0c-9dd5-ff6b9983471c","ios":"levelo://app?vid=bc650f12-f396-4d0c-9dd5-ff6b9983471c"},"vehicle_type_id":"4","last_reported":1738008595,"current_range_meters":32800,"station_id":"ce4bhph2rcd13ifvqhdg","pricing_plan_id":"cebpf4jnsgd1na2vs0mg"},{"bike_id":"02817feb-22c1-470b-914b-d59d73ca3762","system_id":"levelo_inurba_marseille","lat":43.27961,"lon":5.38735,"is_reserved":false,"is_disabled":false,"rental_uris":{"android":"levelo://app?vid=02817feb-22c1-470b-914b-d59d73ca3762","ios":"levelo://app?vid=02817feb-22c1-470b-914b-d59d73ca3762"},"vehicle_type_id":"4","last_reported":1738008595,"current_range_meters":30800,"station_id":"ce4bhg12rcd13ifvqf80","pricing_plan_id":"cebpf4jnsgd1na2vs0mg"},{"bike_id":"a0994a02-8889-4967-9cc2-4e2174b8d66a","system_id":"levelo_inurba_marseille","lat":43.29195,"lon":5.35793,"is_reserved":false,"is_disabled":false,"rental_uris":{"android":"levelo://app?vid=a0994a02-8889-4967-9cc2-4e2174b8d66a","ios":"levelo://app?vid=a0994a02-8889-4967-9cc2-4e2174b8d66a"},"vehicle_type_id":"4","last_reported":1738008595,"current_range_meters":38400,"station_id":"ce4bhb12rcd13ifvqel0","pricing_plan_id":"cebpf4jnsgd1na2vs0mg"},{"bike_id":"df1440ab-6c98-4811-96ed-60cc1ae214b5","system_id":"levelo_inurba_marseille","lat":43.24064,"lon":5.3774,"is_reserved":false,"is_disabled":false,"rental_uris":{"android":"levelo://app?vid=df1440ab-6c98-4811-96ed-60cc1ae214b5","ios":"levelo://app?vid=df1440ab-6c98-4811-96ed-60cc1ae214b5"},"vehicle_type_id":"4","last_reported":1738008595,"current_range_meters":39200,"station_id":"ce4bhnp2rcd13ifvqgvg","pricing_plan_id":"cebpf4jnsgd1na2vs0mg"},{"bike_id":"47c13c22-8671-4a7b-a0f0-1846e8355cdb","system_id":"levelo_inurba_marseille","lat":43.32294,"lon":5.38273,"is_reserved":false,"is_disabled":false,"rental_uris":{"android":"levelo://app?vid=47c13c22-8671-4a7b-a0f0-1846e8355cdb","ios":"levelo://app?vid=47c13c22-8671-4a7b-a0f0-1846e8355cdb"},"vehicle_type_id":"4","last_reported":1738008595,"current_range_meters":38800,"station_id":"ce4bhr12rcd13ifvqhqg","pricing_plan_id":"cebpf4jnsgd1na2vs0mg"},{"bike_id":"1c581695-a09f-4d6a-8281-14f18a045579","system_id":"levelo_inurba_marseille","lat":43.28858,"lon":5.35849,"is_reserved":false,"is_disabled":false,"rental_uris":{"android":"levelo://app?vid=1c581695-a09f-4d6a-8281-14f18a045579","ios":"levelo://app?vid=1c581695-a09f-4d6a-8281-14f18a045579"},"vehicle_type_id":"4","last_reported":1738008595,"current_range_meters":13600,"station_id":"ce4bhb12rcd13ifvqem0","pricing_plan_id":"cebpf4jnsgd1na2vs0mg"},{"bike_id":"b58e9c2c-f4fa-4e4d-a3e6-d964f639b0fc","system_id":"levelo_inurba_marseille","lat":43.313429,"lon":5.36742,"is_reserved":false,"is_disabled":false,"rental_uris":{"android":"levelo://app?vid=b58e9c2c-f4fa-4e4d-a3e6-d964f639b0fc","ios":"levelo://app?vid=b58e9c2c-f4fa-4e4d-a3e6-d964f639b0fc"},"vehicle_type_id":"4","last_reported":1738008595,"current_range_meters":36000,"station_id":"ce4bgr92rcd13ifvqc6g","pricing_plan_id":"cebpf4jnsgd1na2vs0mg"},{"bike_id":"8707dca8-5fb6-4e35-a1ec-1f30a01fea05","system_id":"levelo_inurba_marseille","lat":43.29552,"lon":5.42285,"is_reserved":false,"is_disabled":false,"rental_uris":{"android":"levelo://app?vid=8707dca8-5fb6-4e35-a1ec-1f30a01fea05","ios":"levelo://app?vid=8707dca8-5fb6-4e35-a1ec-1f30a01fea05"},"vehicle_type_id":"4","last_reported":1738008595,"current_range_meters":38800,"station_id":"ce4bhph2rcd13ifvqhdg","pricing_plan_id":"cebpf4jnsgd1na2vs0mg"},{"bike_id":"2aa89283-d1f6-4350-9c22-68a093ab3573","system_id":"levelo_inurba_marseille","lat":43.29185,"lon":5.35809,"is_reserved":false,"is_disabled":false,"rental_uris":{"android":"levelo://app?vid=2aa89283-d1f6-4350-9c22-68a093ab3573","ios":"levelo://app?vid=2aa89283-d1f6-4350-9c22-68a093ab3573"},"vehicle_type_id":"4","last_reported":1738008595,"current_range_meters":38000,"station_id":"ce4bhb12rcd13ifvqel0","pricing_plan_id":"cebpf4jnsgd1na2vs0mg"},{"bike_id":"bd0a4b3a-0002-476a-9750-d6e2675c7bd4","system_id":"levelo_inurba_marseille","lat":43.29198,"lon":5.35795,"is_reserved":false,"is_disabled":false,"rental_uris":{"android":"levelo://app?vid=bd0a4b3a-0002-476a-9750-d6e2675c7bd4","ios":"levelo://app?vid=bd0a4b3a-0002-476a-9750-d6e2675c7bd4"},"vehicle_type_id":"4","last_reported":1738008595,"current_range_meters":38800,"station_id":"ce4bhb12rcd13ifvqel0","pricing_plan_id":"cebpf4jnsgd1na2vs0mg"},{"bike_id":"275e3fa2-bc66-4e31-b4a2-e04bef57c0e0","system_id":"levelo_inurba_marseille","lat":43.28724,"lon":5.37938,"is_reserved":false,"is_disabled":false,"rental_uris":{"android":"levelo://app?vid=275e3fa2-bc66-4e31-b4a2-e04bef57c0e0","ios":"levelo://app?vid=275e3fa2-bc66-4e31-b4a2-e04bef57c0e0"},"vehicle_type_id":"4","last_reported":1738008595,"current_range_meters":8800,"station_id":"ce4bh9p2rcd13ifvqec0","pricing_plan_id":"cebpf4jnsgd1na2vs0mg"},{"bike_id":"4ab1c826-01de-4db1-bc4a-2fac2dfbb3c6","system_id":"levelo_inurba_marseille","lat":43.28005,"lon":5.40008,"is_reserved":false,"is_disabled":false,"rental_uris":{"android":"levelo://app?vid=4ab1c826-01de-4db1-bc4a-2fac2dfbb3c6","ios":"levelo://app?vid=4ab1c826-01de-4db1-bc4a-2fac2dfbb3c6"},"vehicle_type_id":"4","last_reported":1738008595,"current_range_meters":38400,"station_id":"ce4bho92rcd13ifvqh4g","pricing_plan_id":"cebpf4jnsgd1na2vs0mg"},{"bike_id":"d44f9aac-075d-42fe-ae0d-e74d09070282","system_id":"levelo_inurba_marseille","lat":43.29537,"lon":5.38542,"is_reserved":false,"is_disabled":false,"rental_uris":{"android":"levelo://app?vid=d44f9aac-075d-42fe-ae0d-e74d09070282","ios":"levelo://app?vid=d44f9aac-075d-42fe-ae0d-e74d09070282"},"vehicle_type_id":"4","last_reported":1738008595,"current_range_meters":38800,"station_id":"ce4bgih2rcd13ifvqba0","pricing_plan_id":"cebpf4jnsgd1na2vs0mg"},{"bike_id":"2256710f-428a-4b6c-afaf-f485da875c48","system_id":"levelo_inurba_marseille","lat":43.28604,"lon":5.35103,"is_reserved":false,"is_disabled":false,"rental_uris":{"android":"levelo://app?vid=2256710f-428a-4b6c-afaf-f485da875c48","ios":"levelo://app?vid=2256710f-428a-4b6c-afaf-f485da875c48"},"vehicle_type_id":"4","last_reported":1738008595,"current_range_meters":18800,"station_id":"ce4bhch2rcd13ifvqeug","pricing_plan_id":"cebpf4jnsgd1na2vs0mg"},{"bike_id":"ab2c796a-c23b-4a3a-9534-777b873d6a05","system_id":"levelo_inurba_marseille","lat":43.24176,"lon":5.36389,"is_reserved":false,"is_disabled":false,"rental_uris":{"android":"levelo://app?vid=ab2c796a-c23b-4a3a-9534-777b873d6a05","ios":"levelo://app?vid=ab2c796a-c23b-4a3a-9534-777b873d6a05"},"vehicle_type_id":"4","last_reported":1738008595,"current_range_meters":24400,"station_id":"cpo36qri1sfpv3e86is0","pricing_plan_id":"cebpf4jnsgd1na2vs0mg"},{"bike_id":"b97e5ebe-a5da-4b6a-bcab-1feef830a30a","system_id":"levelo_inurba_marseille","lat":43.28703,"lon":5.36065,"is_reserved":false,"is_disabled":false,"rental_uris":{"android":"levelo://app?vid=b97e5ebe-a5da-4b6a-bcab-1feef830a30a","ios":"levelo://app?vid=b97e5ebe-a5da-4b6a-bcab-1feef830a30a"},"vehicle_type_id":"4","last_reported":1738008595,"current_range_meters":38800,"station_id":"cki0cbj6b192h4jlfktg","pricing_plan_id":"cebpf4jnsgd1na2vs0mg"},{"bike_id":"3273eac1-b699-4bfb-9e70-0b7fdf928cad","system_id":"levelo_inurba_marseille","lat":43.25728,"lon":5.41106,"is_reserved":false,"is_disabled":false,"rental_uris":{"android":"levelo://app?vid=3273eac1-b699-4bfb-9e70-0b7fdf928cad","ios":"levelo://app?vid=3273eac1-b699-4bfb-9e70-0b7fdf928cad"},"vehicle_type_id":"4","last_reported":1738008595,"current_range_meters":28000,"station_id":"ce4bhkp2rcd13ifvqgd0","pricing_plan_id":"cebpf4jnsgd1na2vs0mg"},{"bike_id":"18d424a3-8022-49e9-b753-8d780410bb73","system_id":"levelo_inurba_marseille","lat":43.28432,"lon":5.39187,"is_reserved":false,"is_disabled":false,"rental_uris":{"android":"levelo://app?vid=18d424a3-8022-49e9-b753-8d780410bb73","ios":"levelo://app?vid=18d424a3-8022-49e9-b753-8d780410bb73"},"vehicle_type_id":"4","last_reported":1738008595,"current_range_meters":36400,"station_id":"ce4bhoh2rcd13ifvqh5g","pricing_plan_id":"cebpf4jnsgd1na2vs0mg"},{"bike_id":"529f1ab7-390e-41c3-9180-30692697770e","system_id":"levelo_inurba_marseille","lat":43.28612,"lon":5.35102,"is_reserved":false,"is_disabled":false,"rental_uris":{"android":"levelo://app?vid=529f1ab7-390e-41c3-9180-30692697770e","ios":"levelo://app?vid=529f1ab7-390e-41c3-9180-30692697770e"},"vehicle_type_id":"4","last_reported":1738008595,"current_range_meters":17600,"station_id":"ce4bhch2rcd13ifvqeug","pricing_plan_id":"cebpf4jnsgd1na2vs0mg"},{"bike_id":"a058fe99-43b0-4c87-b0cd-0a1cfaa78e6d","system_id":"levelo_inurba_marseille","lat":43.29563,"lon":5.39968,"is_reserved":false,"is_disabled":false,"rental_uris":{"android":"levelo://app?vid=a058fe99-43b0-4c87-b0cd-0a1cfaa78e6d","ios":"levelo://app?vid=a058fe99-43b0-4c87-b0cd-0a1cfaa78e6d"},"vehicle_type_id":"4","last_reported":1738008595,"current_range_meters":19200,"station_id":"ce4bh312rcd13ifvqdj0","pricing_plan_id":"cebpf4jnsgd1na2vs0mg"},{"bike_id":"56acfd0b-a2a5-4dab-8930-f37f7449a649","system_id":"levelo_inurba_marseille","lat":43.28686,"lon":5.38665,"is_reserved":false,"is_disabled":false,"rental_uris":{"android":"levelo://app?vid=56acfd0b-a2a5-4dab-8930-f37f7449a649","ios":"levelo://app?vid=56acfd0b-a2a5-4dab-8930-f37f7449a649"},"vehicle_type_id":"4","last_reported":1738008595,"current_range_meters":28400,"station_id":"ce4bh492rcd13ifvqdug","pricing_plan_id":"cebpf4jnsgd1na2vs0mg"},{"bike_id":"eb05220e-7afd-4fd1-9571-c90323b15e94","system_id":"levelo_inurba_marseille","lat":43.29419,"lon":5.38618,"is_reserved":false,"is_disabled":false,"rental_uris":{"android":"levelo://app?vid=eb05220e-7afd-4fd1-9571-c90323b15e94","ios":"levelo://app?vid=eb05220e-7afd-4fd1-9571-c90323b15e94"},"vehicle_type_id":"4","last_reported":1738008595,"current_range_meters":38800,"station_id":"ce4bh2h2rcd13ifvqdh0","pricing_plan_id":"cebpf4jnsgd1na2vs0mg"},{"bike_id":"d4e2da73-10f4-46c0-a0e8-b84f3919d1cc","system_id":"levelo_inurba_marseille","lat":43.29813,"lon":5.40401,"is_reserved":false,"is_disabled":false,"rental_uris":{"android":"levelo://app?vid=d4e2da73-10f4-46c0-a0e8-b84f3919d1cc","ios":"levelo://app?vid=d4e2da73-10f4-46c0-a0e8-b84f3919d1cc"},"vehicle_type_id":"4","last_reported":1738008595,"current_range_meters":20000,"station_id":"ce4bh112rcd13ifvqd90","pricing_plan_id":"cebpf4jnsgd1na2vs0mg"},{"bike_id":"a60cd7c8-c640-401a-a609-5b6e16bf4426","system_id":"levelo_inurba_marseille","lat":43.28935,"lon":5.3663,"is_reserved":false,"is_disabled":false,"rental_uris":{"android":"levelo://app?vid=a60cd7c8-c640-401a-a609-5b6e16bf4426","ios":"levelo://app?vid=a60cd7c8-c640-401a-a609-5b6e16bf4426"},"vehicle_type_id":"4","last_reported":1738008595,"current_range_meters":19600,"station_id":"ce4bhap2rcd13ifvqek0","pricing_plan_id":"cebpf4jnsgd1na2vs0mg"},{"bike_id":"1bfd3f93-f93f-44ab-9456-242bc679e8ee","system_id":"levelo_inurba_marseille","lat":43.322874,"lon":5.382776,"is_reserved":false,"is_disabled":false,"rental_uris":{"android":"levelo://app?vid=1bfd3f93-f93f-44ab-9456-242bc679e8ee","ios":"levelo://app?vid=1bfd3f93-f93f-44ab-9456-242bc679e8ee"},"vehicle_type_id":"4","last_reported":1738008595,"current_range_meters":24800,"station_id":"ce4bhr12rcd13ifvqhqg","pricing_plan_id":"cebpf4jnsgd1na2vs0mg"},{"bike_id":"caf4fd72-81be-4864-b40d-16ffdca5a851","system_id":"levelo_inurba_marseille","lat":43.31126,"lon":5.37759,"is_reserved":false,"is_disabled":false,"rental_uris":{"android":"levelo://app?vid=caf4fd72-81be-4864-b40d-16ffdca5a851","ios":"levelo://app?vid=caf4fd72-81be-4864-b40d-16ffdca5a851"},"vehicle_type_id":"4","last_reported":1738008595,"current_range_meters":38800,"station_id":"ce4bgt92rcd13ifvqcg0","pricing_plan_id":"cebpf4jnsgd1na2vs0mg"},{"bike_id":"f4acc7eb-fc62-4c52-801d-fa3e960d4b06","system_id":"levelo_inurba_marseille","lat":43.29418,"lon":5.38619,"is_reserved":false,"is_disabled":false,"rental_uris":{"android":"levelo://app?vid=f4acc7eb-fc62-4c52-801d-fa3e960d4b06","ios":"levelo://app?vid=f4acc7eb-fc62-4c52-801d-fa3e960d4b06"},"vehicle_type_id":"4","last_reported":1738008595,"current_range_meters":14000,"station_id":"ce4bh2h2rcd13ifvqdh0","pricing_plan_id":"cebpf4jnsgd1na2vs0mg"},{"bike_id":"13bee3a1-48fe-4c10-aa08-4d5da8623a74","system_id":"levelo_inurba_marseille","lat":43.27821,"lon":5.39216,"is_reserved":false,"is_disabled":false,"rental_uris":{"android":"levelo://app?vid=13bee3a1-48fe-4c10-aa08-4d5da8623a74","ios":"levelo://app?vid=13bee3a1-48fe-4c10-aa08-4d5da8623a74"},"vehicle_type_id":"4","last_reported":1738008595,"current_range_meters":38800,"station_id":"ce4bhjp2rcd13ifvqga0","pricing_plan_id":"cebpf4jnsgd1na2vs0mg"},{"bike_id":"796c624c-21a1-499a-900a-2075934c86de","system_id":"levelo_inurba_marseille","lat":43.30423,"lon":5.39743,"is_reserved":false,"is_disabled":false,"rental_uris":{"android":"levelo://app?vid=796c624c-21a1-499a-900a-2075934c86de","ios":"levelo://app?vid=796c624c-21a1-499a-900a-2075934c86de"},"vehicle_type_id":"4","last_reported":1738008595,"current_range_meters":24400,"station_id":"ce4bh092rcd13ifvqd20","pricing_plan_id":"cebpf4jnsgd1na2vs0mg"},{"bike_id":"bc9c4ef8-392c-4492-9c75-cddc4cab13e4","system_id":"levelo_inurba_marseille","lat":43.2953,"lon":5.3854,"is_reserved":false,"is_disabled":false,"rental_uris":{"android":"levelo://app?vid=bc9c4ef8-392c-4492-9c75-cddc4cab13e4","ios":"levelo://app?vid=bc9c4ef8-392c-4492-9c75-cddc4cab13e4"},"vehicle_type_id":"4","last_reported":1738008595,"current_range_meters":14400,"station_id":"ce4bgih2rcd13ifvqba0","pricing_plan_id":"cebpf4jnsgd1na2vs0mg"},{"bike_id":"18702c17-8da2-475f-8d28-5906173a0de6","system_id":"levelo_inurba_marseille","lat":43.29871,"lon":5.39734,"is_reserved":false,"is_disabled":false,"rental_uris":{"android":"levelo://app?vid=18702c17-8da2-475f-8d28-5906173a0de6","ios":"levelo://app?vid=18702c17-8da2-475f-8d28-5906173a0de6"},"vehicle_type_id":"4","last_reported":1738008595,"current_range_meters":30000,"station_id":"ce4bh0h2rcd13ifvqd50","pricing_plan_id":"cebpf4jnsgd1na2vs0mg"},{"bike_id":"27008ab4-fd65-436d-a4a9-bba5732c5712","system_id":"levelo_inurba_marseille","lat":43.28079,"lon":5.39632,"is_reserved":false,"is_disabled":false,"rental_uris":{"android":"levelo://app?vid=27008ab4-fd65-436d-a4a9-bba5732c5712","ios":"levelo://app?vid=27008ab4-fd65-436d-a4a9-bba5732c5712"},"vehicle_type_id":"4","last_reported":1738008595,"current_range_meters":11200,"station_id":"ce4bho12rcd13ifvqh2g","pricing_plan_id":"cebpf4jnsgd1na2vs0mg"},{"bike_id":"a02db55e-ba47-47e1-9cb6-3610b1989231","system_id":"levelo_inurba_marseille","lat":43.2953,"lon":5.39025,"is_reserved":false,"is_disabled":false,"rental_uris":{"android":"levelo://app?vid=a02db55e-ba47-47e1-9cb6-3610b1989231","ios":"levelo://app?vid=a02db55e-ba47-47e1-9cb6-3610b1989231"},"vehicle_type_id":"4","last_reported":1738008595,"current_range_meters":38800,"station_id":"ce4bh3p2rcd13ifvqdp0","pricing_plan_id":"cebpf4jnsgd1na2vs0mg"},{"bike_id":"fb718f77-42be-4664-9cdd-65305dc1c1ba","system_id":"levelo_inurba_marseille","lat":43.23185,"lon":5.39992,"is_reserved":false,"is_disabled":false,"rental_uris":{"android":"levelo://app?vid=fb718f77-42be-4664-9cdd-65305dc1c1ba","ios":"levelo://app?vid=fb718f77-42be-4664-9cdd-65305dc1c1ba"},"vehicle_type_id":"4","last_reported":1738008595,"current_range_meters":39200,"station_id":"ce4bhn12rcd13ifvqgqg","pricing_plan_id":"cebpf4jnsgd1na2vs0mg"},{"bike_id":"43cb41c5-439f-4eb6-9ca9-ddeec93fcf1d","system_id":"levelo_inurba_marseille","lat":43.23969,"lon":5.36648,"is_reserved":false,"is_disabled":false,"rental_uris":{"android":"levelo://app?vid=43cb41c5-439f-4eb6-9ca9-ddeec93fcf1d","ios":"levelo://app?vid=43cb41c5-439f-4eb6-9ca9-ddeec93fcf1d"},"vehicle_type_id":"4","last_reported":1738008595,"current_range_meters":9600,"station_id":"ce4bhi12rcd13ifvqfp0","pricing_plan_id":"cebpf4jnsgd1na2vs0mg"},{"bike_id":"8ccef378-70c1-431e-9220-cb8b91a6d43b","system_id":"levelo_inurba_marseille","lat":43.30774,"lon":5.37651,"is_reserved":false,"is_disabled":true,"rental_uris":{"android":"levelo://app?vid=8ccef378-70c1-431e-9220-cb8b91a6d43b","ios":"levelo://app?vid=8ccef378-70c1-431e-9220-cb8b91a6d43b"},"vehicle_type_id":"4","last_reported":1738008595,"current_range_meters":28800,"station_id":"","pricing_plan_id":"cebpf4jnsgd1na2vs0mg"},{"bike_id":"4b4961b5-5e83-4377-a634-c1cb155aefdf","system_id":"levelo_inurba_marseille","lat":43.29232,"lon":5.36066,"is_reserved":false,"is_disabled":false,"rental_uris":{"android":"levelo://app?vid=4b4961b5-5e83-4377-a634-c1cb155aefdf","ios":"levelo://app?vid=4b4961b5-5e83-4377-a634-c1cb155aefdf"},"vehicle_type_id":"4","last_reported":1738008595,"current_range_meters":38800,"station_id":"ce4bhbh2rcd13ifvqeqg","pricing_plan_id":"cebpf4jnsgd1na2vs0mg"},{"bike_id":"d1a501da-40e2-4761-a85b-d4afd32ca69d","system_id":"levelo_inurba_marseille","lat":43.29968,"lon":5.385,"is_reserved":false,"is_disabled":false,"rental_uris":{"android":"levelo://app?vid=d1a501da-40e2-4761-a85b-d4afd32ca69d","ios":"levelo://app?vid=d1a501da-40e2-4761-a85b-d4afd32ca69d"},"vehicle_type_id":"4","last_reported":1738008595,"current_range_meters":24000,"station_id":"ce4bgj92rcd13ifvqbd0","pricing_plan_id":"cebpf4jnsgd1na2vs0mg"},{"bike_id":"d24f579f-449d-4f84-bf88-d3b03d265d8b","system_id":"levelo_inurba_marseille","lat":43.29548,"lon":5.3854,"is_reserved":false,"is_disabled":false,"rental_uris":{"android":"levelo://app?vid=d24f579f-449d-4f84-bf88-d3b03d265d8b","ios":"levelo://app?vid=d24f579f-449d-4f84-bf88-d3b03d265d8b"},"vehicle_type_id":"4","last_reported":1738008595,"current_range_meters":17600,"station_id":"ce4bgih2rcd13ifvqba0","pricing_plan_id":"cebpf4jnsgd1na2vs0mg"},{"bike_id":"9b744b95-e734-4df1-a02c-3cfb137358e6","system_id":"levelo_inurba_marseille","lat":43.31449,"lon":5.37382,"is_reserved":false,"is_disabled":true,"rental_uris":{"android":"levelo://app?vid=9b744b95-e734-4df1-a02c-3cfb137358e6","ios":"levelo://app?vid=9b744b95-e734-4df1-a02c-3cfb137358e6"},"vehicle_type_id":"4","last_reported":1738008595,"current_range_meters":1600,"station_id":"","pricing_plan_id":"cebpf4jnsgd1na2vs0mg"},{"bike_id":"76a03fe2-6853-42db-8972-77b89a64555b","system_id":"levelo_inurba_marseille","lat":43.32098,"lon":5.36763,"is_reserved":false,"is_disabled":true,"rental_uris":{"android":"levelo://app?vid=76a03fe2-6853-42db-8972-77b89a64555b","ios":"levelo://app?vid=76a03fe2-6853-42db-8972-77b89a64555b"},"vehicle_type_id":"4","last_reported":1738008595,"current_range_meters":24800,"station_id":"ce4bhrh2rcd13ifvqhug","pricing_plan_id":"cebpf4jnsgd1na2vs0mg"},{"bike_id":"cfc7ac7b-cae1-404b-af3a-22511688b3d2","system_id":"levelo_inurba_marseille","lat":43.29151,"lon":5.37146,"is_reserved":false,"is_disabled":false,"rental_uris":{"android":"levelo://app?vid=cfc7ac7b-cae1-404b-af3a-22511688b3d2","ios":"levelo://app?vid=cfc7ac7b-cae1-404b-af3a-22511688b3d2"},"vehicle_type_id":"4","last_reported":1738008595,"current_range_meters":14400,"station_id":"ce4bha92rcd13ifvqeh0","pricing_plan_id":"cebpf4jnsgd1na2vs0mg"},{"bike_id":"88677356-551f-4c78-976d-d610cc147377","system_id":"levelo_inurba_marseille","lat":43.292265,"lon":5.360697,"is_reserved":false,"is_disabled":false,"rental_uris":{"android":"levelo://app?vid=88677356-551f-4c78-976d-d610cc147377","ios":"levelo://app?vid=88677356-551f-4c78-976d-d610cc147377"},"vehicle_type_id":"4","last_reported":1738008595,"current_range_meters":37600,"station_id":"ce4bhbh2rcd13ifvqeqg","pricing_plan_id":"cebpf4jnsgd1na2vs0mg"},{"bike_id":"b01b0706-3a3a-4ff1-ac0d-6b17e48eff7a","system_id":"levelo_inurba_marseille","lat":43.23193,"lon":5.35557,"is_reserved":false,"is_disabled":false,"rental_uris":{"android":"levelo://app?vid=b01b0706-3a3a-4ff1-ac0d-6b17e48eff7a","ios":"levelo://app?vid=b01b0706-3a3a-4ff1-ac0d-6b17e48eff7a"},"vehicle_type_id":"4","last_reported":1738008595,"current_range_meters":36000,"station_id":"ce4bhu92rcd13ifvqi70","pricing_plan_id":"cebpf4jnsgd1na2vs0mg"},{"bike_id":"9373c702-ff9c-4801-a15e-b467f4b84488","system_id":"levelo_inurba_marseille","lat":43.28664,"lon":5.38653,"is_reserved":false,"is_disabled":false,"rental_uris":{"android":"levelo://app?vid=9373c702-ff9c-4801-a15e-b467f4b84488","ios":"levelo://app?vid=9373c702-ff9c-4801-a15e-b467f4b84488"},"vehicle_type_id":"4","last_reported":1738008595,"current_range_meters":39200,"station_id":"ce4bh492rcd13ifvqdug","pricing_plan_id":"cebpf4jnsgd1na2vs0mg"},{"bike_id":"139de643-07a6-43e2-8aa1-4ee8c2fe87fb","system_id":"levelo_inurba_marseille","lat":43.30884,"lon":5.37192,"is_reserved":false,"is_disabled":false,"rental_uris":{"android":"levelo://app?vid=139de643-07a6-43e2-8aa1-4ee8c2fe87fb","ios":"levelo://app?vid=139de643-07a6-43e2-8aa1-4ee8c2fe87fb"},"vehicle_type_id":"4","last_reported":1738008595,"current_range_meters":14000,"station_id":"ce4bguh2rcd13ifvqckg","pricing_plan_id":"cebpf4jnsgd1na2vs0mg"},{"bike_id":"0c6fa2a7-0031-47aa-866d-31dbc6d98fec","system_id":"levelo_inurba_marseille","lat":43.24071,"lon":5.3776,"is_reserved":false,"is_disabled":false,"rental_uris":{"android":"levelo://app?vid=0c6fa2a7-0031-47aa-866d-31dbc6d98fec","ios":"levelo://app?vid=0c6fa2a7-0031-47aa-866d-31dbc6d98fec"},"vehicle_type_id":"4","last_reported":1738008595,"current_range_meters":39200,"station_id":"ce4bhnp2rcd13ifvqgvg","pricing_plan_id":"cebpf4jnsgd1na2vs0mg"},{"bike_id":"b392fed4-0fa4-45ae-9eaa-d91de503ec25","system_id":"levelo_inurba_marseille","lat":43.26556,"lon":5.37293,"is_reserved":false,"is_disabled":false,"rental_uris":{"android":"levelo://app?vid=b392fed4-0fa4-45ae-9eaa-d91de503ec25","ios":"levelo://app?vid=b392fed4-0fa4-45ae-9eaa-d91de503ec25"},"vehicle_type_id":"4","last_reported":1738008595,"current_range_meters":18000,"station_id":"ce4bhg12rcd13ifvqf70","pricing_plan_id":"cebpf4jnsgd1na2vs0mg"},{"bike_id":"3533f092-c3d5-4535-ab9a-9de3940a3972","system_id":"levelo_inurba_marseille","lat":43.28444,"lon":5.39197,"is_reserved":false,"is_disabled":false,"rental_uris":{"android":"levelo://app?vid=3533f092-c3d5-4535-ab9a-9de3940a3972","ios":"levelo://app?vid=3533f092-c3d5-4535-ab9a-9de3940a3972"},"vehicle_type_id":"4","last_reported":1738008595,"current_range_meters":32000,"station_id":"ce4bhoh2rcd13ifvqh5g","pricing_plan_id":"cebpf4jnsgd1na2vs0mg"},{"bike_id":"915df6a6-30bf-4e90-9efc-34ebcb795923","system_id":"levelo_inurba_marseille","lat":43.28461,"lon":5.35896,"is_reserved":false,"is_disabled":false,"rental_uris":{"android":"levelo://app?vid=915df6a6-30bf-4e90-9efc-34ebcb795923","ios":"levelo://app?vid=915df6a6-30bf-4e90-9efc-34ebcb795923"},"vehicle_type_id":"4","last_reported":1738008595,"current_range_meters":39200,"station_id":"ce4bhah2rcd13ifvqei0","pricing_plan_id":"cebpf4jnsgd1na2vs0mg"},{"bike_id":"8f0be848-d541-47fe-8086-1d80d5cc52a7","system_id":"levelo_inurba_marseille","lat":43.29812,"lon":5.40401,"is_reserved":false,"is_disabled":false,"rental_uris":{"android":"levelo://app?vid=8f0be848-d541-47fe-8086-1d80d5cc52a7","ios":"levelo://app?vid=8f0be848-d541-47fe-8086-1d80d5cc52a7"},"vehicle_type_id":"4","last_reported":1738008595,"current_range_meters":18800,"station_id":"ce4bh112rcd13ifvqd90","pricing_plan_id":"cebpf4jnsgd1na2vs0mg"},{"bike_id":"d16d3d7d-ff2a-4d32-ac5d-02e5cd197e03","system_id":"levelo_inurba_marseille","lat":43.30596,"lon":5.39358,"is_reserved":false,"is_disabled":false,"rental_uris":{"android":"levelo://app?vid=d16d3d7d-ff2a-4d32-ac5d-02e5cd197e03","ios":"levelo://app?vid=d16d3d7d-ff2a-4d32-ac5d-02e5cd197e03"},"vehicle_type_id":"4","last_reported":1738008595,"current_range_meters":5600,"station_id":"ce4bh0p2rcd13ifvqd80","pricing_plan_id":"cebpf4jnsgd1na2vs0mg"},{"bike_id":"ecf18d5e-fe06-4d6d-aa21-6d4ba394f980","system_id":"levelo_inurba_marseille","lat":43.285682,"lon":5.394999,"is_reserved":false,"is_disabled":false,"rental_uris":{"android":"levelo://app?vid=ecf18d5e-fe06-4d6d-aa21-6d4ba394f980","ios":"levelo://app?vid=ecf18d5e-fe06-4d6d-aa21-6d4ba394f980"},"vehicle_type_id":"4","last_reported":1738008595,"current_range_meters":32400,"station_id":"ce4bh292rcd13ifvqdg0","pricing_plan_id":"cebpf4jnsgd1na2vs0mg"},{"bike_id":"48eaf086-a58e-442a-ac63-1b1e74c4ac84","system_id":"levelo_inurba_marseille","lat":43.31696,"lon":5.43705,"is_reserved":false,"is_disabled":false,"rental_uris":{"android":"levelo://app?vid=48eaf086-a58e-442a-ac63-1b1e74c4ac84","ios":"levelo://app?vid=48eaf086-a58e-442a-ac63-1b1e74c4ac84"},"vehicle_type_id":"4","last_reported":1738008595,"current_range_meters":39200,"station_id":"ce4bhp92rcd13ifvqhcg","pricing_plan_id":"cebpf4jnsgd1na2vs0mg"},{"bike_id":"cb656ad4-22f9-422c-860c-33534ea66625","system_id":"levelo_inurba_marseille","lat":43.31199,"lon":5.38709,"is_reserved":false,"is_disabled":true,"rental_uris":{"android":"levelo://app?vid=cb656ad4-22f9-422c-860c-33534ea66625","ios":"levelo://app?vid=cb656ad4-22f9-422c-860c-33534ea66625"},"vehicle_type_id":"4","last_reported":1738008595,"current_range_meters":27200,"station_id":"ce4bgv12rcd13ifvqcp0","pricing_plan_id":"cebpf4jnsgd1na2vs0mg"},{"bike_id":"438ef96e-576a-42aa-bc1f-ac59ea62970f","system_id":"levelo_inurba_marseille","lat":43.29582,"lon":5.36747,"is_reserved":false,"is_disabled":true,"rental_uris":{"android":"levelo://app?vid=438ef96e-576a-42aa-bc1f-ac59ea62970f","ios":"levelo://app?vid=438ef96e-576a-42aa-bc1f-ac59ea62970f"},"vehicle_type_id":"4","last_reported":1738008595,"current_range_meters":32800,"station_id":"ce4bgph2rcd13ifvqc2g","pricing_plan_id":"cebpf4jnsgd1na2vs0mg"},{"bike_id":"8c5e94e2-a561-47ca-b8e7-b5bb9e37e4e3","system_id":"levelo_inurba_marseille","lat":43.2791,"lon":5.38011,"is_reserved":false,"is_disabled":false,"rental_uris":{"android":"levelo://app?vid=8c5e94e2-a561-47ca-b8e7-b5bb9e37e4e3","ios":"levelo://app?vid=8c5e94e2-a561-47ca-b8e7-b5bb9e37e4e3"},"vehicle_type_id":"4","last_reported":1738008595,"current_range_meters":37600,"station_id":"ce4bhf92rcd13ifvqf50","pricing_plan_id":"cebpf4jnsgd1na2vs0mg"},{"bike_id":"d95db417-172b-4b76-8142-fce5e46017e7","system_id":"levelo_inurba_marseille","lat":43.31361,"lon":5.38494,"is_reserved":false,"is_disabled":false,"rental_uris":{"android":"levelo://app?vid=d95db417-172b-4b76-8142-fce5e46017e7","ios":"levelo://app?vid=d95db417-172b-4b76-8142-fce5e46017e7"},"vehicle_type_id":"4","last_reported":1738008595,"current_range_meters":37600,"station_id":"ce4bgt92rcd13ifvqcf0","pricing_plan_id":"cebpf4jnsgd1na2vs0mg"},{"bike_id":"ff68af14-5554-4f8d-a3de-4549d987f602","system_id":"levelo_inurba_marseille","lat":43.29904,"lon":5.43661,"is_reserved":false,"is_disabled":false,"rental_uris":{"android":"levelo://app?vid=ff68af14-5554-4f8d-a3de-4549d987f602","ios":"levelo://app?vid=ff68af14-5554-4f8d-a3de-4549d987f602"},"vehicle_type_id":"4","last_reported":1738008595,"current_range_meters":38000,"station_id":"ce4bhpp2rcd13ifvqhfg","pricing_plan_id":"cebpf4jnsgd1na2vs0mg"},{"bike_id":"6490584c-177f-41d8-bcd8-59e3b3b16530","system_id":"levelo_inurba_marseille","lat":43.29542,"lon":5.38539,"is_reserved":false,"is_disabled":false,"rental_uris":{"android":"levelo://app?vid=6490584c-177f-41d8-bcd8-59e3b3b16530","ios":"levelo://app?vid=6490584c-177f-41d8-bcd8-59e3b3b16530"},"vehicle_type_id":"4","last_reported":1738008595,"current_range_meters":38800,"station_id":"ce4bgih2rcd13ifvqba0","pricing_plan_id":"cebpf4jnsgd1na2vs0mg"},{"bike_id":"fa75464c-6e89-4439-be65-ecd3b0b40ecf","system_id":"levelo_inurba_marseille","lat":43.28665,"lon":5.36353,"is_reserved":false,"is_disabled":false,"rental_uris":{"android":"levelo://app?vid=fa75464c-6e89-4439-be65-ecd3b0b40ecf","ios":"levelo://app?vid=fa75464c-6e89-4439-be65-ecd3b0b40ecf"},"vehicle_type_id":"4","last_reported":1738008595,"current_range_meters":16000,"station_id":"ce4bhah2rcd13ifvqej0","pricing_plan_id":"cebpf4jnsgd1na2vs0mg"},{"bike_id":"13853ca6-a329-4253-ad6b-4fbd2e535cb1","system_id":"levelo_inurba_marseille","lat":43.30535,"lon":5.36552,"is_reserved":false,"is_disabled":false,"rental_uris":{"android":"levelo://app?vid=13853ca6-a329-4253-ad6b-4fbd2e535cb1","ios":"levelo://app?vid=13853ca6-a329-4253-ad6b-4fbd2e535cb1"},"vehicle_type_id":"4","last_reported":1738008595,"current_range_meters":15200,"station_id":"ce4bgs12rcd13ifvqcag","pricing_plan_id":"cebpf4jnsgd1na2vs0mg"},{"bike_id":"db8f1385-8e57-47f1-a5f9-ae76e7fb1281","system_id":"levelo_inurba_marseille","lat":43.28942,"lon":5.36634,"is_reserved":false,"is_disabled":false,"rental_uris":{"android":"levelo://app?vid=db8f1385-8e57-47f1-a5f9-ae76e7fb1281","ios":"levelo://app?vid=db8f1385-8e57-47f1-a5f9-ae76e7fb1281"},"vehicle_type_id":"4","last_reported":1738008595,"current_range_meters":12000,"station_id":"ce4bhap2rcd13ifvqek0","pricing_plan_id":"cebpf4jnsgd1na2vs0mg"},{"bike_id":"8f0340c6-ab00-4e62-ba1e-99558c0a3757","system_id":"levelo_inurba_marseille","lat":43.29256,"lon":5.40912,"is_reserved":false,"is_disabled":false,"rental_uris":{"android":"levelo://app?vid=8f0340c6-ab00-4e62-ba1e-99558c0a3757","ios":"levelo://app?vid=8f0340c6-ab00-4e62-ba1e-99558c0a3757"},"vehicle_type_id":"4","last_reported":1738008595,"current_range_meters":17600,"station_id":"ce4bh192rcd13ifvqdc0","pricing_plan_id":"cebpf4jnsgd1na2vs0mg"},{"bike_id":"712329f9-e8f5-4533-b06e-8359f5ad199d","system_id":"levelo_inurba_marseille","lat":43.23968,"lon":5.36648,"is_reserved":false,"is_disabled":false,"rental_uris":{"android":"levelo://app?vid=712329f9-e8f5-4533-b06e-8359f5ad199d","ios":"levelo://app?vid=712329f9-e8f5-4533-b06e-8359f5ad199d"},"vehicle_type_id":"4","last_reported":1738008595,"current_range_meters":20000,"station_id":"ce4bhi12rcd13ifvqfp0","pricing_plan_id":"cebpf4jnsgd1na2vs0mg"},{"bike_id":"5ff01d07-3d14-4556-a9cb-73fb20f5e6ca","system_id":"levelo_inurba_marseille","lat":43.31355,"lon":5.3849,"is_reserved":false,"is_disabled":false,"rental_uris":{"android":"levelo://app?vid=5ff01d07-3d14-4556-a9cb-73fb20f5e6ca","ios":"levelo://app?vid=5ff01d07-3d14-4556-a9cb-73fb20f5e6ca"},"vehicle_type_id":"4","last_reported":1738008595,"current_range_meters":25600,"station_id":"ce4bgt92rcd13ifvqcf0","pricing_plan_id":"cebpf4jnsgd1na2vs0mg"},{"bike_id":"04add264-7ffa-44ea-8a2f-32324a7ecc6f","system_id":"levelo_inurba_marseille","lat":43.25696,"lon":5.41128,"is_reserved":false,"is_disabled":false,"rental_uris":{"android":"levelo://app?vid=04add264-7ffa-44ea-8a2f-32324a7ecc6f","ios":"levelo://app?vid=04add264-7ffa-44ea-8a2f-32324a7ecc6f"},"vehicle_type_id":"4","last_reported":1738008595,"current_range_meters":14800,"station_id":"ce4bhkp2rcd13ifvqgd0","pricing_plan_id":"cebpf4jnsgd1na2vs0mg"},{"bike_id":"e3c5a10e-948d-477c-91ce-8c835a7fe362","system_id":"levelo_inurba_marseille","lat":43.28102,"lon":5.39627,"is_reserved":false,"is_disabled":true,"rental_uris":{"android":"levelo://app?vid=e3c5a10e-948d-477c-91ce-8c835a7fe362","ios":"levelo://app?vid=e3c5a10e-948d-477c-91ce-8c835a7fe362"},"vehicle_type_id":"4","last_reported":1738008595,"current_range_meters":0,"station_id":"ce4bho12rcd13ifvqh2g","pricing_plan_id":"cebpf4jnsgd1na2vs0mg"},{"bike_id":"da13888c-ccdc-42a6-b940-dc947370c186","system_id":"levelo_inurba_marseille","lat":43.2955,"lon":5.39397,"is_reserved":false,"is_disabled":false,"rental_uris":{"android":"levelo://app?vid=da13888c-ccdc-42a6-b940-dc947370c186","ios":"levelo://app?vid=da13888c-ccdc-42a6-b940-dc947370c186"},"vehicle_type_id":"4","last_reported":1738008595,"current_range_meters":36400,"station_id":"ce4bh292rcd13ifvqdf0","pricing_plan_id":"cebpf4jnsgd1na2vs0mg"},{"bike_id":"3af33c6a-efb8-4c32-b92f-c273b3ba3228","system_id":"levelo_inurba_marseille","lat":43.25094,"lon":5.39526,"is_reserved":false,"is_disabled":false,"rental_uris":{"android":"levelo://app?vid=3af33c6a-efb8-4c32-b92f-c273b3ba3228","ios":"levelo://app?vid=3af33c6a-efb8-4c32-b92f-c273b3ba3228"},"vehicle_type_id":"4","last_reported":1738008595,"current_range_meters":38800,"station_id":"ce4bhm12rcd13ifvqgkg","pricing_plan_id":"cebpf4jnsgd1na2vs0mg"},{"bike_id":"c69dd111-4a16-47d3-919c-b81c76daeb57","system_id":"levelo_inurba_marseille","lat":43.24802,"lon":5.37445,"is_reserved":false,"is_disabled":false,"rental_uris":{"android":"levelo://app?vid=c69dd111-4a16-47d3-919c-b81c76daeb57","ios":"levelo://app?vid=c69dd111-4a16-47d3-919c-b81c76daeb57"},"vehicle_type_id":"4","last_reported":1738008595,"current_range_meters":36000,"station_id":"ce4bhgh2rcd13ifvqfb0","pricing_plan_id":"cebpf4jnsgd1na2vs0mg"},{"bike_id":"f846d495-effa-4e8f-ae39-f2d7b1fc0ba3","system_id":"levelo_inurba_marseille","lat":43.26815,"lon":5.40267,"is_reserved":false,"is_disabled":false,"rental_uris":{"android":"levelo://app?vid=f846d495-effa-4e8f-ae39-f2d7b1fc0ba3","ios":"levelo://app?vid=f846d495-effa-4e8f-ae39-f2d7b1fc0ba3"},"vehicle_type_id":"4","last_reported":1738008595,"current_range_meters":38800,"station_id":"ce501612rcd8frsf0b60","pricing_plan_id":"cebpf4jnsgd1na2vs0mg"},{"bike_id":"bb99704f-e033-4ae8-a7fb-29e6cc77930e","system_id":"levelo_inurba_marseille","lat":43.280837,"lon":5.396476,"is_reserved":false,"is_disabled":false,"rental_uris":{"android":"levelo://app?vid=bb99704f-e033-4ae8-a7fb-29e6cc77930e","ios":"levelo://app?vid=bb99704f-e033-4ae8-a7fb-29e6cc77930e"},"vehicle_type_id":"4","last_reported":1738008595,"current_range_meters":38000,"station_id":"ce4bho12rcd13ifvqh2g","pricing_plan_id":"cebpf4jnsgd1na2vs0mg"},{"bike_id":"a4be99d0-9f57-4d65-9197-81844e4eb908","system_id":"levelo_inurba_marseille","lat":43.32464,"lon":5.36565,"is_reserved":false,"is_disabled":false,"rental_uris":{"android":"levelo://app?vid=a4be99d0-9f57-4d65-9197-81844e4eb908","ios":"levelo://app?vid=a4be99d0-9f57-4d65-9197-81844e4eb908"},"vehicle_type_id":"4","last_reported":1738008595,"current_range_meters":28400,"station_id":"ce4bhs12rcd13ifvqhvg","pricing_plan_id":"cebpf4jnsgd1na2vs0mg"},{"bike_id":"158d1271-641c-494c-8043-ddf4f99b0f22","system_id":"levelo_inurba_marseille","lat":43.26556,"lon":5.37281,"is_reserved":false,"is_disabled":false,"rental_uris":{"android":"levelo://app?vid=158d1271-641c-494c-8043-ddf4f99b0f22","ios":"levelo://app?vid=158d1271-641c-494c-8043-ddf4f99b0f22"},"vehicle_type_id":"4","last_reported":1738008595,"current_range_meters":38800,"station_id":"ce4bhg12rcd13ifvqf70","pricing_plan_id":"cebpf4jnsgd1na2vs0mg"},{"bike_id":"97b18a4a-bd77-4ae7-9fb5-63f3232dcc4f","system_id":"levelo_inurba_marseille","lat":43.28085,"lon":5.35805,"is_reserved":false,"is_disabled":false,"rental_uris":{"android":"levelo://app?vid=97b18a4a-bd77-4ae7-9fb5-63f3232dcc4f","ios":"levelo://app?vid=97b18a4a-bd77-4ae7-9fb5-63f3232dcc4f"},"vehicle_type_id":"4","last_reported":1738008595,"current_range_meters":35600,"station_id":"","pricing_plan_id":"cebpf4jnsgd1na2vs0mg"},{"bike_id":"f9173de2-2fa5-436f-a76b-3c96bd571284","system_id":"levelo_inurba_marseille","lat":43.2978,"lon":5.40416,"is_reserved":false,"is_disabled":false,"rental_uris":{"android":"levelo://app?vid=f9173de2-2fa5-436f-a76b-3c96bd571284","ios":"levelo://app?vid=f9173de2-2fa5-436f-a76b-3c96bd571284"},"vehicle_type_id":"4","last_reported":1738008595,"current_range_meters":38800,"station_id":"ce4bh112rcd13ifvqd90","pricing_plan_id":"cebpf4jnsgd1na2vs0mg"},{"bike_id":"4324a0dd-735e-442a-817b-b2e1bc0d7ff2","system_id":"levelo_inurba_marseille","lat":43.30355,"lon":5.41867,"is_reserved":false,"is_disabled":false,"rental_uris":{"android":"levelo://app?vid=4324a0dd-735e-442a-817b-b2e1bc0d7ff2","ios":"levelo://app?vid=4324a0dd-735e-442a-817b-b2e1bc0d7ff2"},"vehicle_type_id":"4","last_reported":1738008595,"current_range_meters":32400,"station_id":"ce4bhop2rcd13ifvqh7g","pricing_plan_id":"cebpf4jnsgd1na2vs0mg"},{"bike_id":"bec386fe-33ad-48a4-826a-c9f849f1daa6","system_id":"levelo_inurba_marseille","lat":43.29803,"lon":5.40407,"is_reserved":false,"is_disabled":false,"rental_uris":{"android":"levelo://app?vid=bec386fe-33ad-48a4-826a-c9f849f1daa6","ios":"levelo://app?vid=bec386fe-33ad-48a4-826a-c9f849f1daa6"},"vehicle_type_id":"4","last_reported":1738008595,"current_range_meters":30000,"station_id":"ce4bh112rcd13ifvqd90","pricing_plan_id":"cebpf4jnsgd1na2vs0mg"},{"bike_id":"db3aaaa1-2c83-4416-9be0-650e00b3a100","system_id":"levelo_inurba_marseille","lat":43.31765,"lon":5.39014,"is_reserved":false,"is_disabled":false,"rental_uris":{"android":"levelo://app?vid=db3aaaa1-2c83-4416-9be0-650e00b3a100","ios":"levelo://app?vid=db3aaaa1-2c83-4416-9be0-650e00b3a100"},"vehicle_type_id":"4","last_reported":1738008595,"current_range_meters":38000,"station_id":"ce4bhqp2rcd13ifvqhng","pricing_plan_id":"cebpf4jnsgd1na2vs0mg"},{"bike_id":"ee00a9dd-941e-4f0f-ad3b-62fd438be21c","system_id":"levelo_inurba_marseille","lat":43.28,"lon":5.40017,"is_reserved":false,"is_disabled":false,"rental_uris":{"android":"levelo://app?vid=ee00a9dd-941e-4f0f-ad3b-62fd438be21c","ios":"levelo://app?vid=ee00a9dd-941e-4f0f-ad3b-62fd438be21c"},"vehicle_type_id":"4","last_reported":1738008595,"current_range_meters":22800,"station_id":"ce4bho92rcd13ifvqh4g","pricing_plan_id":"cebpf4jnsgd1na2vs0mg"},{"bike_id":"3348ed86-e652-46a1-ac46-e0ae5b8fc32d","system_id":"levelo_inurba_marseille","lat":43.29252,"lon":5.40918,"is_reserved":false,"is_disabled":false,"rental_uris":{"android":"levelo://app?vid=3348ed86-e652-46a1-ac46-e0ae5b8fc32d","ios":"levelo://app?vid=3348ed86-e652-46a1-ac46-e0ae5b8fc32d"},"vehicle_type_id":"4","last_reported":1738008595,"current_range_meters":25200,"station_id":"ce4bh192rcd13ifvqdc0","pricing_plan_id":"cebpf4jnsgd1na2vs0mg"},{"bike_id":"dca1b3f1-bf12-4d48-b32e-51e78b8700aa","system_id":"levelo_inurba_marseille","lat":43.33023,"lon":5.39033,"is_reserved":false,"is_disabled":false,"rental_uris":{"android":"levelo://app?vid=dca1b3f1-bf12-4d48-b32e-51e78b8700aa","ios":"levelo://app?vid=dca1b3f1-bf12-4d48-b32e-51e78b8700aa"},"vehicle_type_id":"4","last_reported":1738008595,"current_range_meters":36400,"station_id":"ce4bhr92rcd13ifvqhrg","pricing_plan_id":"cebpf4jnsgd1na2vs0mg"},{"bike_id":"50d5ce03-f69d-4a2a-8840-ccd96ea6e624","system_id":"levelo_inurba_marseille","lat":43.298076,"lon":5.380966,"is_reserved":false,"is_disabled":false,"rental_uris":{"android":"levelo://app?vid=50d5ce03-f69d-4a2a-8840-ccd96ea6e624","ios":"levelo://app?vid=50d5ce03-f69d-4a2a-8840-ccd96ea6e624"},"vehicle_type_id":"4","last_reported":1738008595,"current_range_meters":33200,"station_id":"ce4bgip2rcd13ifvqbb0","pricing_plan_id":"cebpf4jnsgd1na2vs0mg"},{"bike_id":"e09de9e7-4909-4413-b590-2dea2722814c","system_id":"levelo_inurba_marseille","lat":43.23193,"lon":5.39962,"is_reserved":false,"is_disabled":false,"rental_uris":{"android":"levelo://app?vid=e09de9e7-4909-4413-b590-2dea2722814c","ios":"levelo://app?vid=e09de9e7-4909-4413-b590-2dea2722814c"},"vehicle_type_id":"4","last_reported":1738008595,"current_range_meters":39200,"station_id":"ce4bhn12rcd13ifvqgqg","pricing_plan_id":"cebpf4jnsgd1na2vs0mg"},{"bike_id":"4e819cfc-66d0-44bc-b400-a92f780cb5a7","system_id":"levelo_inurba_marseille","lat":43.33044,"lon":5.39051,"is_reserved":false,"is_disabled":false,"rental_uris":{"android":"levelo://app?vid=4e819cfc-66d0-44bc-b400-a92f780cb5a7","ios":"levelo://app?vid=4e819cfc-66d0-44bc-b400-a92f780cb5a7"},"vehicle_type_id":"4","last_reported":1738008595,"current_range_meters":34000,"station_id":"ce4bhr92rcd13ifvqhrg","pricing_plan_id":"cebpf4jnsgd1na2vs0mg"},{"bike_id":"4ee7a4b2-dea3-4f4a-a76b-2d1e4fcbcafe","system_id":"levelo_inurba_marseille","lat":43.28478,"lon":5.38548,"is_reserved":false,"is_disabled":true,"rental_uris":{"android":"levelo://app?vid=4ee7a4b2-dea3-4f4a-a76b-2d1e4fcbcafe","ios":"levelo://app?vid=4ee7a4b2-dea3-4f4a-a76b-2d1e4fcbcafe"},"vehicle_type_id":"4","last_reported":1738008595,"current_range_meters":400,"station_id":"ce4bh8p2rcd13ifvqeb0","pricing_plan_id":"cebpf4jnsgd1na2vs0mg"},{"bike_id":"f6cff910-bc08-4989-a1d4-fe0be238409e","system_id":"levelo_inurba_marseille","lat":43.31276,"lon":5.40162,"is_reserved":false,"is_disabled":false,"rental_uris":{"android":"levelo://app?vid=f6cff910-bc08-4989-a1d4-fe0be238409e","ios":"levelo://app?vid=f6cff910-bc08-4989-a1d4-fe0be238409e"},"vehicle_type_id":"4","last_reported":1738008595,"current_range_meters":9200,"station_id":"ce4bh092rcd13ifvqd30","pricing_plan_id":"cebpf4jnsgd1na2vs0mg"},{"bike_id":"283c25d8-9fc5-495b-9825-5a72a68442bd","system_id":"levelo_inurba_marseille","lat":43.29273,"lon":5.40913,"is_reserved":false,"is_disabled":true,"rental_uris":{"android":"levelo://app?vid=283c25d8-9fc5-495b-9825-5a72a68442bd","ios":"levelo://app?vid=283c25d8-9fc5-495b-9825-5a72a68442bd"},"vehicle_type_id":"4","last_reported":1738008595,"current_range_meters":1200,"station_id":"ce4bh192rcd13ifvqdc0","pricing_plan_id":"cebpf4jnsgd1na2vs0mg"},{"bike_id":"245a3977-9722-42d3-af5f-09da846dbd2e","system_id":"levelo_inurba_marseille","lat":43.32295,"lon":5.38276,"is_reserved":false,"is_disabled":false,"rental_uris":{"android":"levelo://app?vid=245a3977-9722-42d3-af5f-09da846dbd2e","ios":"levelo://app?vid=245a3977-9722-42d3-af5f-09da846dbd2e"},"vehicle_type_id":"4","last_reported":1738008595,"current_range_meters":9200,"station_id":"ce4bhr12rcd13ifvqhqg","pricing_plan_id":"cebpf4jnsgd1na2vs0mg"},{"bike_id":"e3e26aee-15e1-425c-a48f-db58aa520742","system_id":"levelo_inurba_marseille","lat":43.23076,"lon":5.35491,"is_reserved":false,"is_disabled":false,"rental_uris":{"android":"levelo://app?vid=e3e26aee-15e1-425c-a48f-db58aa520742","ios":"levelo://app?vid=e3e26aee-15e1-425c-a48f-db58aa520742"},"vehicle_type_id":"4","last_reported":1738008595,"current_range_meters":38800,"station_id":"cpo3342slgdg3j2ifvpg","pricing_plan_id":"cebpf4jnsgd1na2vs0mg"},{"bike_id":"9fb813cb-e992-4585-8f3d-d25d13081f3b","system_id":"levelo_inurba_marseille","lat":43.23198,"lon":5.35547,"is_reserved":false,"is_disabled":false,"rental_uris":{"android":"levelo://app?vid=9fb813cb-e992-4585-8f3d-d25d13081f3b","ios":"levelo://app?vid=9fb813cb-e992-4585-8f3d-d25d13081f3b"},"vehicle_type_id":"4","last_reported":1738008595,"current_range_meters":6800,"station_id":"ce4bhu92rcd13ifvqi70","pricing_plan_id":"cebpf4jnsgd1na2vs0mg"},{"bike_id":"e864cbbc-cba7-44b2-84d7-57ee33d77ab6","system_id":"levelo_inurba_marseille","lat":43.24079,"lon":5.37746,"is_reserved":false,"is_disabled":false,"rental_uris":{"android":"levelo://app?vid=e864cbbc-cba7-44b2-84d7-57ee33d77ab6","ios":"levelo://app?vid=e864cbbc-cba7-44b2-84d7-57ee33d77ab6"},"vehicle_type_id":"4","last_reported":1738008595,"current_range_meters":39200,"station_id":"ce4bhnp2rcd13ifvqgvg","pricing_plan_id":"cebpf4jnsgd1na2vs0mg"},{"bike_id":"7c78a755-c7f5-4f07-a96b-621451d47948","system_id":"levelo_inurba_marseille","lat":43.29904,"lon":5.43653,"is_reserved":false,"is_disabled":false,"rental_uris":{"android":"levelo://app?vid=7c78a755-c7f5-4f07-a96b-621451d47948","ios":"levelo://app?vid=7c78a755-c7f5-4f07-a96b-621451d47948"},"vehicle_type_id":"4","last_reported":1738008595,"current_range_meters":26800,"station_id":"ce4bhpp2rcd13ifvqhfg","pricing_plan_id":"cebpf4jnsgd1na2vs0mg"},{"bike_id":"fa29864d-7300-4955-9fb1-25742b31d758","system_id":"levelo_inurba_marseille","lat":43.24977,"lon":5.38938,"is_reserved":false,"is_disabled":false,"rental_uris":{"android":"levelo://app?vid=fa29864d-7300-4955-9fb1-25742b31d758","ios":"levelo://app?vid=fa29864d-7300-4955-9fb1-25742b31d758"},"vehicle_type_id":"4","last_reported":1738008595,"current_range_meters":36800,"station_id":"ce4bhgp2rcd13ifvqfd0","pricing_plan_id":"cebpf4jnsgd1na2vs0mg"},{"bike_id":"0b0d6ec3-6f46-4620-98f9-5cf30ee487a3","system_id":"levelo_inurba_marseille","lat":43.29248,"lon":5.40905,"is_reserved":false,"is_disabled":false,"rental_uris":{"android":"levelo://app?vid=0b0d6ec3-6f46-4620-98f9-5cf30ee487a3","ios":"levelo://app?vid=0b0d6ec3-6f46-4620-98f9-5cf30ee487a3"},"vehicle_type_id":"4","last_reported":1738008595,"current_range_meters":20400,"station_id":"ce4bh192rcd13ifvqdc0","pricing_plan_id":"cebpf4jnsgd1na2vs0mg"},{"bike_id":"3fffe134-da5e-428c-b263-dc4df491080a","system_id":"levelo_inurba_marseille","lat":43.29389,"lon":5.37858,"is_reserved":false,"is_disabled":true,"rental_uris":{"android":"levelo://app?vid=3fffe134-da5e-428c-b263-dc4df491080a","ios":"levelo://app?vid=3fffe134-da5e-428c-b263-dc4df491080a"},"vehicle_type_id":"4","last_reported":1738008595,"current_range_meters":38800,"station_id":"ce4bgjh2rcd13ifvqbf0","pricing_plan_id":"cebpf4jnsgd1na2vs0mg"},{"bike_id":"4eebfb7a-3d32-47ca-a63f-6da9d5367627","system_id":"levelo_inurba_marseille","lat":43.23192,"lon":5.39991,"is_reserved":false,"is_disabled":false,"rental_uris":{"android":"levelo://app?vid=4eebfb7a-3d32-47ca-a63f-6da9d5367627","ios":"levelo://app?vid=4eebfb7a-3d32-47ca-a63f-6da9d5367627"},"vehicle_type_id":"4","last_reported":1738008595,"current_range_meters":38800,"station_id":"ce4bhn12rcd13ifvqgqg","pricing_plan_id":"cebpf4jnsgd1na2vs0mg"},{"bike_id":"14ea39ad-07ec-4b29-a9a7-e347f7b9eeda","system_id":"levelo_inurba_marseille","lat":43.29026,"lon":5.38638,"is_reserved":false,"is_disabled":false,"rental_uris":{"android":"levelo://app?vid=14ea39ad-07ec-4b29-a9a7-e347f7b9eeda","ios":"levelo://app?vid=14ea39ad-07ec-4b29-a9a7-e347f7b9eeda"},"vehicle_type_id":"4","last_reported":1738008595,"current_range_meters":25200,"station_id":"ce4bh4p2rcd13ifvqe0g","pricing_plan_id":"cebpf4jnsgd1na2vs0mg"},{"bike_id":"a48a4fa8-387b-4ecc-bc7a-c3f07822bf47","system_id":"levelo_inurba_marseille","lat":43.27072,"lon":5.39239,"is_reserved":false,"is_disabled":true,"rental_uris":{"android":"levelo://app?vid=a48a4fa8-387b-4ecc-bc7a-c3f07822bf47","ios":"levelo://app?vid=a48a4fa8-387b-4ecc-bc7a-c3f07822bf47"},"vehicle_type_id":"4","last_reported":1738008595,"current_range_meters":0,"station_id":"","pricing_plan_id":"cebpf4jnsgd1na2vs0mg"},{"bike_id":"9c2ae89f-02a9-42fa-92c9-ad67bba43257","system_id":"levelo_inurba_marseille","lat":43.298429,"lon":5.362716,"is_reserved":false,"is_disabled":false,"rental_uris":{"android":"levelo://app?vid=9c2ae89f-02a9-42fa-92c9-ad67bba43257","ios":"levelo://app?vid=9c2ae89f-02a9-42fa-92c9-ad67bba43257"},"vehicle_type_id":"4","last_reported":1738008595,"current_range_meters":22400,"station_id":"ce4bgpp2rcd13ifvqc3g","pricing_plan_id":"cebpf4jnsgd1na2vs0mg"},{"bike_id":"41fadb08-6384-431a-8fb7-83982b88c53e","system_id":"levelo_inurba_marseille","lat":43.30466,"lon":5.37881,"is_reserved":false,"is_disabled":true,"rental_uris":{"android":"levelo://app?vid=41fadb08-6384-431a-8fb7-83982b88c53e","ios":"levelo://app?vid=41fadb08-6384-431a-8fb7-83982b88c53e"},"vehicle_type_id":"4","last_reported":1738008595,"current_range_meters":38400,"station_id":"ce4bgup2rcd13ifvqcn0","pricing_plan_id":"cebpf4jnsgd1na2vs0mg"},{"bike_id":"a8d0380b-0a88-41c3-845f-e00ffb2cbc88","system_id":"levelo_inurba_marseille","lat":43.27993,"lon":5.40037,"is_reserved":false,"is_disabled":true,"rental_uris":{"android":"levelo://app?vid=a8d0380b-0a88-41c3-845f-e00ffb2cbc88","ios":"levelo://app?vid=a8d0380b-0a88-41c3-845f-e00ffb2cbc88"},"vehicle_type_id":"4","last_reported":1738008595,"current_range_meters":28800,"station_id":"ce4bho92rcd13ifvqh4g","pricing_plan_id":"cebpf4jnsgd1na2vs0mg"},{"bike_id":"960c2b1e-93ba-4e0e-baf5-fd8a6baa3c6b","system_id":"levelo_inurba_marseille","lat":43.25855,"lon":5.39919,"is_reserved":false,"is_disabled":true,"rental_uris":{"android":"levelo://app?vid=960c2b1e-93ba-4e0e-baf5-fd8a6baa3c6b","ios":"levelo://app?vid=960c2b1e-93ba-4e0e-baf5-fd8a6baa3c6b"},"vehicle_type_id":"4","last_reported":1738008595,"current_range_meters":35600,"station_id":"ce4bhl92rcd13ifvqghg","pricing_plan_id":"cebpf4jnsgd1na2vs0mg"},{"bike_id":"688eea87-7c36-4baa-b6b9-0ba0449d07a2","system_id":"levelo_inurba_marseille","lat":43.28074,"lon":5.39649,"is_reserved":false,"is_disabled":true,"rental_uris":{"android":"levelo://app?vid=688eea87-7c36-4baa-b6b9-0ba0449d07a2","ios":"levelo://app?vid=688eea87-7c36-4baa-b6b9-0ba0449d07a2"},"vehicle_type_id":"4","last_reported":1738008595,"current_range_meters":7200,"station_id":"ce4bho12rcd13ifvqh2g","pricing_plan_id":"cebpf4jnsgd1na2vs0mg"},{"bike_id":"a42afd69-e254-48ac-83cc-7ccfd15e978e","system_id":"levelo_inurba_marseille","lat":43.30542,"lon":5.38411,"is_reserved":false,"is_disabled":false,"rental_uris":{"android":"levelo://app?vid=a42afd69-e254-48ac-83cc-7ccfd15e978e","ios":"levelo://app?vid=a42afd69-e254-48ac-83cc-7ccfd15e978e"},"vehicle_type_id":"4","last_reported":1738008595,"current_range_meters":26800,"station_id":"ce4bgg92rcd13ifvqb30","pricing_plan_id":"cebpf4jnsgd1na2vs0mg"},{"bike_id":"c85e1f5f-56da-4c47-9ebc-2e999d5ce588","system_id":"levelo_inurba_marseille","lat":43.286579,"lon":5.386686,"is_reserved":false,"is_disabled":false,"rental_uris":{"android":"levelo://app?vid=c85e1f5f-56da-4c47-9ebc-2e999d5ce588","ios":"levelo://app?vid=c85e1f5f-56da-4c47-9ebc-2e999d5ce588"},"vehicle_type_id":"4","last_reported":1738008595,"current_range_meters":20000,"station_id":"ce4bh492rcd13ifvqdug","pricing_plan_id":"cebpf4jnsgd1na2vs0mg"},{"bike_id":"a0647e71-4b64-4904-b96b-b4b0aa493cec","system_id":"levelo_inurba_marseille","lat":43.30328,"lon":5.40436,"is_reserved":false,"is_disabled":false,"rental_uris":{"android":"levelo://app?vid=a0647e71-4b64-4904-b96b-b4b0aa493cec","ios":"levelo://app?vid=a0647e71-4b64-4904-b96b-b4b0aa493cec"},"vehicle_type_id":"4","last_reported":1738008595,"current_range_meters":39200,"station_id":"ce4bh012rcd13ifvqd10","pricing_plan_id":"cebpf4jnsgd1na2vs0mg"},{"bike_id":"3d1825ce-47b7-41ce-9ddb-28061b488c48","system_id":"levelo_inurba_marseille","lat":43.28366,"lon":5.38631,"is_reserved":false,"is_disabled":false,"rental_uris":{"android":"levelo://app?vid=3d1825ce-47b7-41ce-9ddb-28061b488c48","ios":"levelo://app?vid=3d1825ce-47b7-41ce-9ddb-28061b488c48"},"vehicle_type_id":"4","last_reported":1738008595,"current_range_meters":36000,"station_id":"ce4bh492rcd13ifvqdvg","pricing_plan_id":"cebpf4jnsgd1na2vs0mg"},{"bike_id":"8f123f58-2803-4f70-aa06-7d428b4ad0fc","system_id":"levelo_inurba_marseille","lat":43.28613,"lon":5.35102,"is_reserved":false,"is_disabled":false,"rental_uris":{"android":"levelo://app?vid=8f123f58-2803-4f70-aa06-7d428b4ad0fc","ios":"levelo://app?vid=8f123f58-2803-4f70-aa06-7d428b4ad0fc"},"vehicle_type_id":"4","last_reported":1738008595,"current_range_meters":12400,"station_id":"ce4bhch2rcd13ifvqeug","pricing_plan_id":"cebpf4jnsgd1na2vs0mg"},{"bike_id":"c3238790-d7ad-47a5-a35e-3370473de763","system_id":"levelo_inurba_marseille","lat":43.24676,"lon":5.38143,"is_reserved":false,"is_disabled":false,"rental_uris":{"android":"levelo://app?vid=c3238790-d7ad-47a5-a35e-3370473de763","ios":"levelo://app?vid=c3238790-d7ad-47a5-a35e-3370473de763"},"vehicle_type_id":"4","last_reported":1738008595,"current_range_meters":38000,"station_id":"ce4bhih2rcd13ifvqfr0","pricing_plan_id":"cebpf4jnsgd1na2vs0mg"},{"bike_id":"a1b3de43-27e7-4f5d-b1bd-ddd4cb20dc76","system_id":"levelo_inurba_marseille","lat":43.29202,"lon":5.39313,"is_reserved":false,"is_disabled":false,"rental_uris":{"android":"levelo://app?vid=a1b3de43-27e7-4f5d-b1bd-ddd4cb20dc76","ios":"levelo://app?vid=a1b3de43-27e7-4f5d-b1bd-ddd4cb20dc76"},"vehicle_type_id":"4","last_reported":1738008595,"current_range_meters":4400,"station_id":"ce4bh192rcd13ifvqdd0","pricing_plan_id":"cebpf4jnsgd1na2vs0mg"},{"bike_id":"c438c788-2c8f-4eda-8233-a8485c23c4af","system_id":"levelo_inurba_marseille","lat":43.30401,"lon":5.41325,"is_reserved":false,"is_disabled":true,"rental_uris":{"android":"levelo://app?vid=c438c788-2c8f-4eda-8233-a8485c23c4af","ios":"levelo://app?vid=c438c788-2c8f-4eda-8233-a8485c23c4af"},"vehicle_type_id":"4","last_reported":1738008595,"current_range_meters":0,"station_id":"ce4bhop2rcd13ifvqh8g","pricing_plan_id":"cebpf4jnsgd1na2vs0mg"},{"bike_id":"0a5fde81-0685-4894-b805-5edb46505778","system_id":"levelo_inurba_marseille","lat":43.24692,"lon":5.38152,"is_reserved":false,"is_disabled":true,"rental_uris":{"android":"levelo://app?vid=0a5fde81-0685-4894-b805-5edb46505778","ios":"levelo://app?vid=0a5fde81-0685-4894-b805-5edb46505778"},"vehicle_type_id":"4","last_reported":1738008595,"current_range_meters":38800,"station_id":"ce4bhih2rcd13ifvqfr0","pricing_plan_id":"cebpf4jnsgd1na2vs0mg"},{"bike_id":"9c8682a0-e665-42ca-9e8b-8233d9f42b52","system_id":"levelo_inurba_marseille","lat":43.26943,"lon":5.40262,"is_reserved":false,"is_disabled":false,"rental_uris":{"android":"levelo://app?vid=9c8682a0-e665-42ca-9e8b-8233d9f42b52","ios":"levelo://app?vid=9c8682a0-e665-42ca-9e8b-8233d9f42b52"},"vehicle_type_id":"4","last_reported":1738008595,"current_range_meters":9200,"station_id":"cjm6bp8fraef2m0cb0m0","pricing_plan_id":"cebpf4jnsgd1na2vs0mg"},{"bike_id":"9ea3236b-2c35-4d26-9ca2-2574f0d720b5","system_id":"levelo_inurba_marseille","lat":43.28442,"lon":5.39203,"is_reserved":false,"is_disabled":false,"rental_uris":{"android":"levelo://app?vid=9ea3236b-2c35-4d26-9ca2-2574f0d720b5","ios":"levelo://app?vid=9ea3236b-2c35-4d26-9ca2-2574f0d720b5"},"vehicle_type_id":"4","last_reported":1738008595,"current_range_meters":33600,"station_id":"ce4bhoh2rcd13ifvqh5g","pricing_plan_id":"cebpf4jnsgd1na2vs0mg"},{"bike_id":"7dd225c7-0dd6-4324-9d71-381959d8650e","system_id":"levelo_inurba_marseille","lat":43.28574,"lon":5.39497,"is_reserved":false,"is_disabled":false,"rental_uris":{"android":"levelo://app?vid=7dd225c7-0dd6-4324-9d71-381959d8650e","ios":"levelo://app?vid=7dd225c7-0dd6-4324-9d71-381959d8650e"},"vehicle_type_id":"4","last_reported":1738008595,"current_range_meters":39200,"station_id":"ce4bh292rcd13ifvqdg0","pricing_plan_id":"cebpf4jnsgd1na2vs0mg"},{"bike_id":"f381ef19-2051-4752-83c8-9337838d371f","system_id":"levelo_inurba_marseille","lat":43.24392,"lon":5.3705,"is_reserved":false,"is_disabled":false,"rental_uris":{"android":"levelo://app?vid=f381ef19-2051-4752-83c8-9337838d371f","ios":"levelo://app?vid=f381ef19-2051-4752-83c8-9337838d371f"},"vehicle_type_id":"4","last_reported":1738008595,"current_range_meters":36400,"station_id":"ce4bhhh2rcd13ifvqfk0","pricing_plan_id":"cebpf4jnsgd1na2vs0mg"},