{"last_updated":1701274178,"ttl":30,"version":"2.2","data":{"bikes":[{"bike_id":"6578e65e-ddbc-498a-86df-f8d77dd61f9a","system_id":"levelo_inurba_marseille","lat":43.313377,"lon":5.367172,"is_reserved":false,"is_disabled":false,"rental_uris":{"android":"levelo://app?vid=6578e65e-ddbc-498a-86df-f8d77dd61f9a","ios":"levelo://app?vid=6578e65e-ddbc-498a-86df-f8d77dd61f9a"},"vehicle_type_id":"4","last_reported":1701274178,"current_range_meters":30400,"station_id":"ce4bgr92rcd13ifvqc6g","pricing_plan_id":"free"},{"bike_id":"7a4c6dd7-82f2-4422-a33f-1e2e2a38f618","system_id":"levelo_inurba_marseille","lat":43.313391,"lon":5.36706,"is_reserved":false,"is_disabled":false,"rental_uris":{"android":"levelo://app?vid=7a4c6dd7-82f2-4422-a33f-1e2e2a38f618","ios":"levelo://app?vid=7a4c6dd7-82f2-4422-a33f-1e2e2a38f618"},"vehicle_type_id":"4","last_reported":1701274178,"current_range_meters":26400,"station_id":"ce4bgr92rcd13ifvqc6g","pricing_plan_id":"free"},{"bike_id":"bc18602e-a849-4c0a-80d3-561be28b60fa","system_id":"levelo_inurba_marseille","lat":43.31485,"lon":5.37311,"is_reserved":false,"is_disabled":false,"rental_uris":{"android":"levelo://app?vid=bc18602e-a849-4c0a-80d3-561be28b60fa","ios":"levelo://app?vid=bc18602e-a849-4c0a-80d3-561be28b60fa"},"vehicle_type_id":"4","last_reported":1701274178,"current_range_meters":0,"station_id":"ce4bgt12rcd13ifvqcd0","pricing_plan_id":"free"},{"bike_id":"471cd8f2-8aef-49e5-ac93-c9df81ce7da1","system_id":"levelo_inurba_marseille","lat":43.314811,"lon":5.373103,"is_reserved":false,"is_disabled":false,"rental_uris":{"android":"levelo://app?vid=471cd8f2-8aef-49e5-ac93-c9df81ce7da1","ios":"levelo://app?vid=471cd8f2-8aef-49e5-ac93-c9df81ce7da1"},"vehicle_type_id":"4","last_reported":1701274178,"current_range_meters":14800,"station_id":"ce4bgt12rcd13ifvqcd0","pricing_plan_id":"free"},{"bike_id":"a702992a-7969-482a-abb2-e920fc5be561","system_id":"levelo_inurba_marseille","lat":43.314811,"lon":5.373103,"is_reserved":false,"is_disabled":false,"rental_uris":{"android":"levelo://app?vid=a702992a-7969-482a-abb2-e920fc5be561","ios":"levelo://app?vid=a702992a-7969-482a-abb2-e920fc5be561"},"vehicle_type_id":"4","last_reported":1701274178,"current_range_meters":24000,"station_id":"ce4bgt12rcd13ifvqcd0","pricing_plan_id":"free"},{"bike_id":"2b14a951-f13c-417a-ae36-52616927cc80","system_id":"levelo_inurba_marseille","lat":43.314811,"lon":5.373104,"is_reserved":false,"is_disabled":false,"rental_uris":{"android":"levelo://app?vid=2b14a951-f13c-417a-ae36-52616927cc80","ios":"levelo://app?vid=2b14a951-f13c-417a-ae36-52616927cc80"},"vehicle_type_id":"4","last_reported":1701274178,"current_range_meters":21600,"station_id":"ce4bgt12rcd13ifvqcd0","pricing_plan_id":"free"},{"bike_id":"7ab4503b-057d-4f9a-925a-f3da4615316e","system_id":"levelo_inurba_marseille","lat":43.314811,"lon":5.373103,"is_reserved":false,"is_disabled":false,"rental_uris":{"android":"levelo://app?vid=7ab4503b-057d-4f9a-925a-f3da4615316e","ios":"levelo://app?vid=7ab4503b-057d-4f9a-925a-f3da4615316e"},"vehicle_type_id":"4","last_reported":1701274178,"current_range_meters":21200,"station_id":"ce4bgt12rcd13ifvqcd0","pricing_plan_id":"free"},{"bike_id":"6d2d6c58-24c9-4429-a984-f08ecf6dbaad","system_id":"levelo_inurba_marseille","lat":43.309039,"lon":5.371797,"is_reserved":false,"is_disabled":false,"rental_uris":{"android":"levelo://app?vid=6d2d6c58-24c9-4429-a984-f08ecf6dbaad","ios":"levelo://app?vid=6d2d6c58-24c9-4429-a984-f08ecf6dbaad"},"vehicle_type_id":"4","last_reported":1701274178,"current_range_meters":10800,"station_id":"ce4bguh2rcd13ifvqckg","pricing_plan_id":"free"},{"bike_id":"882ce85f-e87b-4f8e-91d8-e07a57d317ae","system_id":"levelo_inurba_marseille","lat":43.309039,"lon":5.371797,"is_reserved":false,"is_disabled":false,"rental_uris":{"android":"levelo://app?vid=882ce85f-e87b-4f8e-91d8-e07a57d317ae","ios":"levelo://app?vid=882ce85f-e87b-4f8e-91d8-e07a57d317ae"},"vehicle_type_id":"4","last_reported":1701274178,"current_range_meters":16800,"station_id":"ce4bguh2rcd13ifvqckg","pricing_plan_id":"free"},{"bike_id":"93a8bea3-f12e-4699-bb3b-a6b798586c31","system_id":"levelo_inurba_marseille","lat":43.31195,"lon":5.37616,"is_reserved":false,"is_disabled":false,"rental_uris":{"android":"levelo://app?vid=93a8bea3-f12e-4699-bb3b-a6b798586c31","ios":"levelo://app?vid=93a8bea3-f12e-4699-bb3b-a6b798586c31"},"vehicle_type_id":"4","last_reported":1701274178,"current_range_meters":25200,"station_id":"","pricing_plan_id":"free"},{"bike_id":"b030dca0-eefd-4a7c-8d0d-039558ad44dd","system_id":"levelo_inurba_marseille","lat":43.305349,"lon":5.367293,"is_reserved":false,"is_disabled":false,"rental_uris":{"android":"levelo://app?vid=b030dca0-eefd-4a7c-8d0d-039558ad44dd","ios":"levelo://app?vid=b030dca0-eefd-4a7c-8d0d-039558ad44dd"},"vehicle_type_id":"4","last_reported":1701274178,"current_range_meters":12800,"station_id":"ce4bgrp2rcd13ifvqc9g","pricing_plan_id":"free"},{"bike_id":"2cb1a903-9c83-4be1-90a7-c69e47269b58","system_id":"levelo_inurba_marseille","lat":43.305989,"lon":5.37225,"is_reserved":false,"is_disabled":false,"rental_uris":{"android":"levelo://app?vid=2cb1a903-9c83-4be1-90a7-c69e47269b58","ios":"levelo://app?vid=2cb1a903-9c83-4be1-90a7-c69e47269b58"},"vehicle_type_id":"4","last_reported":1701274178,"current_range_meters":22400,"station_id":"ce4bgqh2rcd13ifvqc4g","pricing_plan_id":"free"},{"bike_id":"663f4afb-fccd-433c-a911-1877ce94de6b","system_id":"levelo_inurba_marseille","lat":43.31115,"lon":5.3777,"is_reserved":false,"is_disabled":false,"rental_uris":{"android":"levelo://app?vid=663f4afb-fccd-433c-a911-1877ce94de6b","ios":"levelo://app?vid=663f4afb-fccd-433c-a911-1877ce94de6b"},"vehicle_type_id":"4","last_reported":1701274178,"current_range_meters":0,"station_id":"ce4bgt92rcd13ifvqcg0","pricing_plan_id":"free"},{"bike_id":"b5129530-3639-47e5-92b6-d358b01a2cff","system_id":"levelo_inurba_marseille","lat":43.308192,"lon":5.376602,"is_reserved":false,"is_disabled":false,"rental_uris":{"android":"levelo://app?vid=b5129530-3639-47e5-92b6-d358b01a2cff","ios":"levelo://app?vid=b5129530-3639-47e5-92b6-d358b01a2cff"},"vehicle_type_id":"4","last_reported":1701274178,"current_range_meters":24800,"station_id":"ce4bgv92rcd13ifvqcq0","pricing_plan_id":"free"},{"bike_id":"f427a2c3-6e4a-446b-ae2f-9be8aa7f4122","system_id":"levelo_inurba_marseille","lat":43.31719,"lon":5.376813,"is_reserved":false,"is_disabled":false,"rental_uris":{"android":"levelo://app?vid=f427a2c3-6e4a-446b-ae2f-9be8aa7f4122","ios":"levelo://app?vid=f427a2c3-6e4a-446b-ae2f-9be8aa7f4122"},"vehicle_type_id":"4","last_reported":1701274178,"current_range_meters":8800,"station_id":"ce4bgth2rcd13ifvqch0","pricing_plan_id":"free"},{"bike_id":"e913f328-1e31-4c22-bd87-f809ea246de4","system_id":"levelo_inurba_marseille","lat":43.317168,"lon":5.376883,"is_reserved":false,"is_disabled":false,"rental_uris":{"android":"levelo://app?vid=e913f328-1e31-4c22-bd87-f809ea246de4","ios":"levelo://app?vid=e913f328-1e31-4c22-bd87-f809ea246de4"},"vehicle_type_id":"4","last_reported":1701274178,"current_range_meters":11200,"station_id":"ce4bgth2rcd13ifvqch0","pricing_plan_id":"free"},{"bike_id":"b2918adf-b82a-4e94-b917-962d3393c60f","system_id":"levelo_inurba_marseille","lat":43.317075,"lon":5.377367,"is_reserved":false,"is_disabled":false,"rental_uris":{"android":"levelo://app?vid=b2918adf-b82a-4e94-b917-962d3393c60f","ios":"levelo://app?vid=b2918adf-b82a-4e94-b917-962d3393c60f"},"vehicle_type_id":"4","last_reported":1701274178,"current_range_meters":20800,"station_id":"ce4bgth2rcd13ifvqch0","pricing_plan_id":"free"},{"bike_id":"77621d6b-8990-4544-be4b-ead551752d29","system_id":"levelo_inurba_marseille","lat":43.31698,"lon":5.37835,"is_reserved":false,"is_disabled":false,"rental_uris":{"android":"levelo://app?vid=77621d6b-8990-4544-be4b-ead551752d29","ios":"levelo://app?vid=77621d6b-8990-4544-be4b-ead551752d29"},"vehicle_type_id":"4","last_reported":1701274178,"current_range_meters":21600,"station_id":"","pricing_plan_id":"free"},{"bike_id":"cce0ce8a-b333-45f9-996e-dacbd6374522","system_id":"levelo_inurba_marseille","lat":43.30304,"lon":5.368987,"is_reserved":false,"is_disabled":false,"rental_uris":{"android":"levelo://app?vid=cce0ce8a-b333-45f9-996e-dacbd6374522","ios":"levelo://app?vid=cce0ce8a-b333-45f9-996e-dacbd6374522"},"vehicle_type_id":"4","last_reported":1701274178,"current_range_meters":11600,"station_id":"ce4bgqh2rcd13ifvqc5g","pricing_plan_id":"free"},{"bike_id":"3e09080e-9db5-4c48-951f-c5f672a60264","system_id":"levelo_inurba_marseille","lat":43.321472,"lon":5.374832,"is_reserved":false,"is_disabled":false,"rental_uris":{"android":"levelo://app?vid=3e09080e-9db5-4c48-951f-c5f672a60264","ios":"levelo://app?vid=3e09080e-9db5-4c48-951f-c5f672a60264"},"vehicle_type_id":"4","last_reported":1701274178,"current_range_meters":7600,"station_id":"","pricing_plan_id":"free"},{"bike_id":"a73ce958-8a13-465c-a986-f48ea343227d","system_id":"levelo_inurba_marseille","lat":43.301939,"lon":5.366286,"is_reserved":false,"is_disabled":false,"rental_uris":{"android":"levelo://app?vid=a73ce958-8a13-465c-a986-f48ea343227d","ios":"levelo://app?vid=a73ce958-8a13-465c-a986-f48ea343227d"},"vehicle_type_id":"4","last_reported":1701274178,"current_range_meters":31200,"station_id":"ce4bgrh2rcd13ifvqc8g","pricing_plan_id":"free"},{"bike_id":"9274419b-96db-4056-9c11-8ff89c5d69aa","system_id":"levelo_inurba_marseille","lat":43.301757,"lon":5.370353,"is_reserved":false,"is_disabled":false,"rental_uris":{"android":"levelo://app?vid=9274419b-96db-4056-9c11-8ff89c5d69aa","ios":"levelo://app?vid=9274419b-96db-4056-9c11-8ff89c5d69aa"},"vehicle_type_id":"4","last_reported":1701274178,"current_range_meters":0,"station_id":"","pricing_plan_id":"free"},{"bike_id":"4cce4c9a-32ac-42c0-a041-482cbdf7a9f6","system_id":"levelo_inurba_marseille","lat":43.304606,"lon":5.379026,"is_reserved":false,"is_disabled":false,"rental_uris":{"android":"levelo://app?vid=4cce4c9a-32ac-42c0-a041-482cbdf7a9f6","ios":"levelo://app?vid=4cce4c9a-32ac-42c0-a041-482cbdf7a9f6"},"vehicle_type_id":"4","last_reported":1701274178,"current_range_meters":17600,"station_id":"ce4bgup2rcd13ifvqcn0","pricing_plan_id":"free"},{"bike_id":"ddd9d225-e612-4957-a1b8-7b0a1362db98","system_id":"levelo_inurba_marseille","lat":43.319935,"lon":5.381699,"is_reserved":false,"is_disabled":false,"rental_uris":{"android":"levelo://app?vid=ddd9d225-e612-4957-a1b8-7b0a1362db98","ios":"levelo://app?vid=ddd9d225-e612-4957-a1b8-7b0a1362db98"},"vehicle_type_id":"4","last_reported":1701274178,"current_range_meters":21200,"station_id":"ce4bhr12rcd13ifvqhpg","pricing_plan_id":"free"},{"bike_id":"2275aca5-3158-4c2c-8022-ca5d2714bc86","system_id":"levelo_inurba_marseille","lat":43.319997,"lon":5.381594,"is_reserved":false,"is_disabled":false,"rental_uris":{"android":"levelo://app?vid=2275aca5-3158-4c2c-8022-ca5d2714bc86","ios":"levelo://app?vid=2275aca5-3158-4c2c-8022-ca5d2714bc86"},"vehicle_type_id":"4","last_reported":1701274178,"current_range_meters":26400,"station_id":"ce4bhr12rcd13ifvqhpg","pricing_plan_id":"free"},{"bike_id":"c1eed2e6-09a8-4d08-a5f0-548b8dc0bf9f","system_id":"levelo_inurba_marseille","lat":43.313571,"lon":5.384829,"is_reserved":false,"is_disabled":false,"rental_uris":{"android":"levelo://app?vid=c1eed2e6-09a8-4d08-a5f0-548b8dc0bf9f","ios":"levelo://app?vid=c1eed2e6-09a8-4d08-a5f0-548b8dc0bf9f"},"vehicle_type_id":"4","last_reported":1701274178,"current_range_meters":21600,"station_id":"ce4bgt92rcd13ifvqcf0","pricing_plan_id":"free"},{"bike_id":"9389f636-c148-484e-a000-ba5b89b8a162","system_id":"levelo_inurba_marseille","lat":43.313571,"lon":5.384829,"is_reserved":false,"is_disabled":false,"rental_uris":{"android":"levelo://app?vid=9389f636-c148-484e-a000-ba5b89b8a162","ios":"levelo://app?vid=9389f636-c148-484e-a000-ba5b89b8a162"},"vehicle_type_id":"4","last_reported":1701274178,"current_range_meters":28000,"station_id":"ce4bgt92rcd13ifvqcf0","pricing_plan_id":"free"},{"bike_id":"117df478-4e79-4c3b-b759-89bacdd8718d","system_id":"levelo_inurba_marseille","lat":43.313571,"lon":5.384829,"is_reserved":false,"is_disabled":false,"rental_uris":{"android":"levelo://app?vid=117df478-4e79-4c3b-b759-89bacdd8718d","ios":"levelo://app?vid=117df478-4e79-4c3b-b759-89bacdd8718d"},"vehicle_type_id":"4","last_reported":1701274178,"current_range_meters":6800,"station_id":"ce4bgt92rcd13ifvqcf0","pricing_plan_id":"free"},{"bike_id":"999ab1da-f041-4157-8150-2907b4e28a4e","system_id":"levelo_inurba_marseille","lat":43.299222,"lon":5.365554,"is_reserved":false,"is_disabled":false,"rental_uris":{"android":"levelo://app?vid=999ab1da-f041-4157-8150-2907b4e28a4e","ios":"levelo://app?vid=999ab1da-f041-4157-8150-2907b4e28a4e"},"vehicle_type_id":"4","last_reported":1701274178,"current_range_meters":11200,"station_id":"ce4bgm92rcd13ifvqbr0","pricing_plan_id":"free"},{"bike_id":"20da2c50-d789-4bd4-901a-64ad0bfc5af2","system_id":"levelo_inurba_marseille","lat":43.299222,"lon":5.365554,"is_reserved":false,"is_disabled":false,"rental_uris":{"android":"levelo://app?vid=20da2c50-d789-4bd4-901a-64ad0bfc5af2","ios":"levelo://app?vid=20da2c50-d789-4bd4-901a-64ad0bfc5af2"},"vehicle_type_id":"4","last_reported":1701274178,"current_range_meters":5200,"station_id":"ce4bgm92rcd13ifvqbr0","pricing_plan_id":"free"},{"bike_id":"0343446c-7112-434c-8467-c20d62f246bf","system_id":"levelo_inurba_marseille","lat":43.29932,"lon":5.36555,"is_reserved":false,"is_disabled":false,"rental_uris":{"android":"levelo://app?vid=0343446c-7112-434c-8467-c20d62f246bf","ios":"levelo://app?vid=0343446c-7112-434c-8467-c20d62f246bf"},"vehicle_type_id":"4","last_reported":1701274178,"current_range_meters":20000,"station_id":"ce4bgm92rcd13ifvqbr0","pricing_plan_id":"free"},{"bike_id":"261f5cab-340d-42b6-96fb-38b883086dff","system_id":"levelo_inurba_marseille","lat":43.298433,"lon":5.362774,"is_reserved":false,"is_disabled":false,"rental_uris":{"android":"levelo://app?vid=261f5cab-340d-42b6-96fb-38b883086dff","ios":"levelo://app?vid=261f5cab-340d-42b6-96fb-38b883086dff"},"vehicle_type_id":"4","last_reported":1701274178,"current_range_meters":29200,"station_id":"ce4bgpp2rcd13ifvqc3g","pricing_plan_id":"free"},{"bike_id":"0b29e40f-f073-4e20-b087-861599903337","system_id":"levelo_inurba_marseille","lat":43.298433,"lon":5.362774,"is_reserved":false,"is_disabled":false,"rental_uris":{"android":"levelo://app?vid=0b29e40f-f073-4e20-b087-861599903337","ios":"levelo://app?vid=0b29e40f-f073-4e20-b087-861599903337"},"vehicle_type_id":"4","last_reported":1701274178,"current_range_meters":26000,"station_id":"ce4bgpp2rcd13ifvqc3g","pricing_plan_id":"free"},{"bike_id":"358558d7-7d60-44b1-858c-03d7c2203b4b","system_id":"levelo_inurba_marseille","lat":43.298433,"lon":5.362774,"is_reserved":false,"is_disabled":false,"rental_uris":{"android":"levelo://app?vid=358558d7-7d60-44b1-858c-03d7c2203b4b","ios":"levelo://app?vid=358558d7-7d60-44b1-858c-03d7c2203b4b"},"vehicle_type_id":"4","last_reported":1701274178,"current_range_meters":31200,"station_id":"ce4bgpp2rcd13ifvqc3g","pricing_plan_id":"free"},{"bike_id":"23509bd6-5224-4f08-99a9-4e53510eec07","system_id":"levelo_inurba_marseille","lat":43.298352,"lon":5.36267,"is_reserved":false,"is_disabled":false,"rental_uris":{"android":"levelo://app?vid=23509bd6-5224-4f08-99a9-4e53510eec07","ios":"levelo://app?vid=23509bd6-5224-4f08-99a9-4e53510eec07"},"vehicle_type_id":"4","last_reported":1701274178,"current_range_meters":30000,"station_id":"ce4bgpp2rcd13ifvqc3g","pricing_plan_id":"free"},{"bike_id":"0c1567a9-bc33-4aa9-9f15-2f7c0c4c5f35","system_id":"levelo_inurba_marseille","lat":43.311722,"lon":5.387247,"is_reserved":false,"is_disabled":false,"rental_uris":{"android":"levelo://app?vid=0c1567a9-bc33-4aa9-9f15-2f7c0c4c5f35","ios":"levelo://app?vid=0c1567a9-bc33-4aa9-9f15-2f7c0c4c5f35"},"vehicle_type_id":"4","last_reported":1701274178,"current_range_meters":800,"station_id":"ce4bgv12rcd13ifvqcp0","pricing_plan_id":"free"},{"bike_id":"008764f0-b367-4417-b932-4c0a3c6a68e5","system_id":"levelo_inurba_marseille","lat":43.311722,"lon":5.387247,"is_reserved":false,"is_disabled":false,"rental_uris":{"android":"levelo://app?vid=008764f0-b367-4417-b932-4c0a3c6a68e5","ios":"levelo://app?vid=008764f0-b367-4417-b932-4c0a3c6a68e5"},"vehicle_type_id":"4","last_reported":1701274178,"current_range_meters":16000,"station_id":"ce4bgv12rcd13ifvqcp0","pricing_plan_id":"free"},{"bike_id":"4aed6d1b-0db7-4571-bc91-cd0cc149779b","system_id":"levelo_inurba_marseille","lat":43.311722,"lon":5.387247,"is_reserved":false,"is_disabled":false,"rental_uris":{"android":"levelo://app?vid=4aed6d1b-0db7-4571-bc91-cd0cc149779b","ios":"levelo://app?vid=4aed6d1b-0db7-4571-bc91-cd0cc149779b"},"vehicle_type_id":"4","last_reported":1701274178,"current_range_meters":12400,"station_id":"ce4bgv12rcd13ifvqcp0","pricing_plan_id":"free"},{"bike_id":"aebb5f1f-3a1e-4323-a4f0-ae83e0b78d14","system_id":"levelo_inurba_marseille","lat":43.327603,"lon":5.36705,"is_reserved":false,"is_disabled":false,"rental_uris":{"android":"levelo://app?vid=aebb5f1f-3a1e-4323-a4f0-ae83e0b78d14","ios":"levelo://app?vid=aebb5f1f-3a1e-4323-a4f0-ae83e0b78d14"},"vehicle_type_id":"4","last_reported":1701274178,"current_range_meters":28000,"station_id":"","pricing_plan_id":"free"},{"bike_id":"faa5e958-8b34-4623-8ce7-3f836d459f8e","system_id":"levelo_inurba_marseille","lat":43.297163,"lon":5.365866,"is_reserved":false,"is_disabled":false,"rental_uris":{"android":"levelo://app?vid=faa5e958-8b34-4623-8ce7-3f836d459f8e","ios":"levelo://app?vid=faa5e958-8b34-4623-8ce7-3f836d459f8e"},"vehicle_type_id":"4","last_reported":1701274178,"current_range_meters":13200,"station_id":"ce4bgn12rcd13ifvqbt0","pricing_plan_id":"free"},{"bike_id":"aca894a8-5a39-4f39-a7c3-155b39fe3fbe","system_id":"levelo_inurba_marseille","lat":43.328371,"lon":5.366909,"is_reserved":false,"is_disabled":false,"rental_uris":{"android":"levelo://app?vid=aca894a8-5a39-4f39-a7c3-155b39fe3fbe","ios":"levelo://app?vid=aca894a8-5a39-4f39-a7c3-155b39fe3fbe"},"vehicle_type_id":"4","last_reported":1701274178,"current_range_meters":9600,"station_id":"ce4bhs92rcd13ifvqi0g","pricing_plan_id":"free"},{"bike_id":"422ecd82-981c-48f7-acfe-44a96d10ea13","system_id":"levelo_inurba_marseille","lat":43.297163,"lon":5.365866,"is_reserved":false,"is_disabled":false,"rental_uris":{"android":"levelo://app?vid=422ecd82-981c-48f7-acfe-44a96d10ea13","ios":"levelo://app?vid=422ecd82-981c-48f7-acfe-44a96d10ea13"},"vehicle_type_id":"4","last_reported":1701274178,"current_range_meters":28400,"station_id":"ce4bgn12rcd13ifvqbt0","pricing_plan_id":"free"},{"bike_id":"a58c35d5-a52e-4ea6-a8d8-4de6150062dc","system_id":"levelo_inurba_marseille","lat":43.2985,"lon":5.37658,"is_reserved":false,"is_disabled":false,"rental_uris":{"android":"levelo://app?vid=a58c35d5-a52e-4ea6-a8d8-4de6150062dc","ios":"levelo://app?vid=a58c35d5-a52e-4ea6-a8d8-4de6150062dc"},"vehicle_type_id":"4","last_reported":1701274178,"current_range_meters":26400,"station_id":"","pricing_plan_id":"free"},{"bike_id":"4f376fd7-d142-465b-aa51-bec1e18f9c10","system_id":"levelo_inurba_marseille","lat":43.296131,"lon":5.370791,"is_reserved":false,"is_disabled":false,"rental_uris":{"android":"levelo://app?vid=4f376fd7-d142-465b-aa51-bec1e18f9c10","ios":"levelo://app?vid=4f376fd7-d142-465b-aa51-bec1e18f9c10"},"vehicle_type_id":"4","last_reported":1701274178,"current_range_meters":9600,"station_id":"ce4bgnh2rcd13ifvqc0g","pricing_plan_id":"free"},{"bike_id":"838561bc-c981-4f76-b663-a9e7c65f48fa","system_id":"levelo_inurba_marseille","lat":43.296131,"lon":5.370773,"is_reserved":false,"is_disabled":false,"rental_uris":{"android":"levelo://app?vid=838561bc-c981-4f76-b663-a9e7c65f48fa","ios":"levelo://app?vid=838561bc-c981-4f76-b663-a9e7c65f48fa"},"vehicle_type_id":"4","last_reported":1701274178,"current_range_meters":20400,"station_id":"ce4bgnh2rcd13ifvqc0g","pricing_plan_id":"free"},{"bike_id":"6f4a9f2b-025e-4ce9-a9bf-f1e45e2362df","system_id":"levelo_inurba_marseille","lat":43.29574,"lon":5.37515,"is_reserved":false,"is_disabled":false,"rental_uris":{"android":"levelo://app?vid=6f4a9f2b-025e-4ce9-a9bf-f1e45e2362df","ios":"levelo://app?vid=6f4a9f2b-025e-4ce9-a9bf-f1e45e2362df"},"vehicle_type_id":"4","last_reported":1701274178,"current_range_meters":0,"station_id":"ce4bgh92rcd13ifvqb50","pricing_plan_id":"free"},{"bike_id":"ff1f8d46-256a-4d9f-96f8-4af612a85665","system_id":"levelo_inurba_marseille","lat":43.296263,"lon":5.377094,"is_reserved":false,"is_disabled":false,"rental_uris":{"android":"levelo://app?vid=ff1f8d46-256a-4d9f-96f8-4af612a85665","ios":"levelo://app?vid=ff1f8d46-256a-4d9f-96f8-4af612a85665"},"vehicle_type_id":"4","last_reported":1701274178,"current_range_meters":4400,"station_id":"ce4bgi92rcd13ifvqb90","pricing_plan_id":"free"},{"bike_id":"1ca4c9a2-c1e1-4267-b764-ff17e2a28f92","system_id":"levelo_inurba_marseille","lat":43.304274,"lon":5.388873,"is_reserved":false,"is_disabled":false,"rental_uris":{"android":"levelo://app?vid=1ca4c9a2-c1e1-4267-b764-ff17e2a28f92","ios":"levelo://app?vid=1ca4c9a2-c1e1-4267-b764-ff17e2a28f92"},"vehicle_type_id":"4","last_reported":1701274178,"current_range_meters":1200,"station_id":"ce4bgk12rcd13ifvqbi0","pricing_plan_id":"free"},{"bike_id":"a59deb90-3800-4447-8bae-57cbf1ffd7d7","system_id":"levelo_inurba_marseille","lat":43.296263,"lon":5.377094,"is_reserved":false,"is_disabled":false,"rental_uris":{"android":"levelo://app?vid=a59deb90-3800-4447-8bae-57cbf1ffd7d7","ios":"levelo://app?vid=a59deb90-3800-4447-8bae-57cbf1ffd7d7"},"vehicle_type_id":"4","last_reported":1701274178,"current_range_meters":25600,"station_id":"ce4bgi92rcd13ifvqb90","pricing_plan_id":"free"},{"bike_id":"7e67ed7a-92c2-4396-ba61-0a7fb65932fe","system_id":"levelo_inurba_marseille","lat":43.32359,"lon":5.38867,"is_reserved":false,"is_disabled":false,"rental_uris":{"android":"levelo://app?vid=7e67ed7a-92c2-4396-ba61-0a7fb65932fe","ios":"levelo://app?vid=7e67ed7a-92c2-4396-ba61-0a7fb65932fe"},"vehicle_type_id":"4","last_reported":1701274178,"current_range_meters":20800,"station_id":"ce4bhqp2rcd13ifvqhog","pricing_plan_id":"free"},{"bike_id":"bb23399e-524e-43ac-9bfa-d55c1864d6d3","system_id":"levelo_inurba_marseille","lat":43.32364,"lon":5.3889,"is_reserved":false,"is_disabled":false,"rental_uris":{"android":"levelo://app?vid=bb23399e-524e-43ac-9bfa-d55c1864d6d3","ios":"levelo://app?vid=bb23399e-524e-43ac-9bfa-d55c1864d6d3"},"vehicle_type_id":"4","last_reported":1701274178,"current_range_meters":24000,"station_id":"ce4bhqp2rcd13ifvqhog","pricing_plan_id":"free"},{"bike_id":"5ee05c64-27da-442f-adfa-267bf4577d41","system_id":"levelo_inurba_marseille","lat":43.32367,"lon":5.388836,"is_reserved":false,"is_disabled":false,"rental_uris":{"android":"levelo://app?vid=5ee05c64-27da-442f-adfa-267bf4577d41","ios":"levelo://app?vid=5ee05c64-27da-442f-adfa-267bf4577d41"},"vehicle_type_id":"4","last_reported":1701274178,"current_range_meters":12800,"station_id":"ce4bhqp2rcd13ifvqhog","pricing_plan_id":"free"},{"bike_id":"0777a99f-c820-4d0a-be6d-63843a16821a","system_id":"levelo_inurba_marseille","lat":43.32367,"lon":5.388836,"is_reserved":false,"is_disabled":false,"rental_uris":{"android":"levelo://app?vid=0777a99f-c820-4d0a-be6d-63843a16821a","ios":"levelo://app?vid=0777a99f-c820-4d0a-be6d-63843a16821a"},"vehicle_type_id":"4","last_reported":1701274178,"current_range_meters":4400,"station_id":"ce4bhqp2rcd13ifvqhog","pricing_plan_id":"free"},{"bike_id":"c0676093-d52a-412e-a885-722b9a833d8d","system_id":"levelo_inurba_marseille","lat":43.29356,"lon":5.37856,"is_reserved":false,"is_disabled":false,"rental_uris":{"android":"levelo://app?vid=c0676093-d52a-412e-a885-722b9a833d8d","ios":"levelo://app?vid=c0676093-d52a-412e-a885-722b9a833d8d"},"vehicle_type_id":"4","last_reported":1701274178,"current_range_meters":11200,"station_id":"ce4bgjh2rcd13ifvqbf0","pricing_plan_id":"free"},{"bike_id":"907de5b8-971c-4a28-83c6-abf1d0d46798","system_id":"levelo_inurba_marseille","lat":43.29405,"lon":5.38132,"is_reserved":false,"is_disabled":false,"rental_uris":{"android":"levelo://app?vid=907de5b8-971c-4a28-83c6-abf1d0d46798","ios":"levelo://app?vid=907de5b8-971c-4a28-83c6-abf1d0d46798"},"vehicle_type_id":"4","last_reported":1701274178,"current_range_meters":18800,"station_id":"","pricing_plan_id":"free"},{"bike_id":"1f784705-3d19-4e07-9f6f-a52d0be4cab8","system_id":"levelo_inurba_marseille","lat":43.313291,"lon":5.396838,"is_reserved":false,"is_disabled":false,"rental_uris":{"android":"levelo://app?vid=1f784705-3d19-4e07-9f6f-a52d0be4cab8","ios":"levelo://app?vid=1f784705-3d19-4e07-9f6f-a52d0be4cab8"},"vehicle_type_id":"4","last_reported":1701274178,"current_range_meters":12800,"station_id":"ce4bgvp2rcd13ifvqcu0","pricing_plan_id":"free"},{"bike_id":"f0474994-a2e7-4b5c-9f96-18ab4df62c89","system_id":"levelo_inurba_marseille","lat":43.313291,"lon":5.396838,"is_reserved":false,"is_disabled":false,"rental_uris":{"android":"levelo://app?vid=f0474994-a2e7-4b5c-9f96-18ab4df62c89","ios":"levelo://app?vid=f0474994-a2e7-4b5c-9f96-18ab4df62c89"},"vehicle_type_id":"4","last_reported":1701274178,"current_range_meters":10000,"station_id":"ce4bgvp2rcd13ifvqcu0","pricing_plan_id":"free"},{"bike_id":"1b08de9e-e718-40ed-8bf0-7aeb73f06d43","system_id":"levelo_inurba_marseille","lat":43.31327,"lon":5.39703,"is_reserved":false,"is_disabled":false,"rental_uris":{"android":"levelo://app?vid=1b08de9e-e718-40ed-8bf0-7aeb73f06d43","ios":"levelo://app?vid=1b08de9e-e718-40ed-8bf0-7aeb73f06d43"},"vehicle_type_id":"4","last_reported":1701274178,"current_range_meters":800,"station_id":"ce4bgvp2rcd13ifvqcu0","pricing_plan_id":"free"},{"bike_id":"780a9842-2c0e-4858-b6ba-51299e504a2f","system_id":"levelo_inurba_marseille","lat":43.29529,"lon":5.385581,"is_reserved":false,"is_disabled":false,"rental_uris":{"android":"levelo://app?vid=780a9842-2c0e-4858-b6ba-51299e504a2f","ios":"levelo://app?vid=780a9842-2c0e-4858-b6ba-51299e504a2f"},"vehicle_type_id":"4","last_reported":1701274178,"current_range_meters":2000,"station_id":"ce4bgih2rcd13ifvqba0","pricing_plan_id":"free"},{"bike_id":"b93f1089-5d21-4a32-81f7-c78455b2235a","system_id":"levelo_inurba_marseille","lat":43.29529,"lon":5.385581,"is_reserved":false,"is_disabled":false,"rental_uris":{"android":"levelo://app?vid=b93f1089-5d21-4a32-81f7-c78455b2235a","ios":"levelo://app?vid=b93f1089-5d21-4a32-81f7-c78455b2235a"},"vehicle_type_id":"4","last_reported":1701274178,"current_range_meters":4800,"station_id":"ce4bgih2rcd13ifvqba0","pricing_plan_id":"free"},{"bike_id":"8f4ad8d6-32cb-4388-a118-361364c20777","system_id":"levelo_inurba_marseille","lat":43.295283,"lon":5.385483,"is_reserved":false,"is_disabled":false,"rental_uris":{"android":"levelo://app?vid=8f4ad8d6-32cb-4388-a118-361364c20777","ios":"levelo://app?vid=8f4ad8d6-32cb-4388-a118-361364c20777"},"vehicle_type_id":"4","last_reported":1701274178,"current_range_meters":16800,"station_id":"ce4bgih2rcd13ifvqba0","pricing_plan_id":"free"},{"bike_id":"0b8f762d-6b61-45e9-a303-77fdf6e1fb05","system_id":"levelo_inurba_marseille","lat":43.290779,"lon":5.371482,"is_reserved":false,"is_disabled":false,"rental_uris":{"android":"levelo://app?vid=0b8f762d-6b61-45e9-a303-77fdf6e1fb05","ios":"levelo://app?vid=0b8f762d-6b61-45e9-a303-77fdf6e1fb05"},"vehicle_type_id":"4","last_reported":1701274178,"current_range_meters":20400,"station_id":"ce4bh5p2rcd13ifvqe4g","pricing_plan_id":"free"},{"bike_id":"0b8cfa16-89b1-4818-a161-541dd1ff49da","system_id":"levelo_inurba_marseille","lat":43.290624,"lon":5.359245,"is_reserved":false,"is_disabled":false,"rental_uris":{"android":"levelo://app?vid=0b8cfa16-89b1-4818-a161-541dd1ff49da","ios":"levelo://app?vid=0b8cfa16-89b1-4818-a161-541dd1ff49da"},"vehicle_type_id":"4","last_reported":1701274178,"current_range_meters":18800,"station_id":"ce4bha92rcd13ifvqeg0","pricing_plan_id":"free"},{"bike_id":"5295cd64-aa1d-4ae7-a50d-299cb0311e2e","system_id":"levelo_inurba_marseille","lat":43.294153,"lon":5.386305,"is_reserved":false,"is_disabled":false,"rental_uris":{"android":"levelo://app?vid=5295cd64-aa1d-4ae7-a50d-299cb0311e2e","ios":"levelo://app?vid=5295cd64-aa1d-4ae7-a50d-299cb0311e2e"},"vehicle_type_id":"4","last_reported":1701274178,"current_range_meters":800,"station_id":"ce4bh2h2rcd13ifvqdh0","pricing_plan_id":"free"},{"bike_id":"5db4a59e-0a13-4640-b4ca-587b3556c4c1","system_id":"levelo_inurba_marseille","lat":43.304274,"lon":5.397513,"is_reserved":false,"is_disabled":false,"rental_uris":{"android":"levelo://app?vid=5db4a59e-0a13-4640-b4ca-587b3556c4c1","ios":"levelo://app?vid=5db4a59e-0a13-4640-b4ca-587b3556c4c1"},"vehicle_type_id":"4","last_reported":1701274178,"current_range_meters":5600,"station_id":"ce4bh092rcd13ifvqd20","pricing_plan_id":"free"},{"bike_id":"8122d299-89e5-438e-bbda-6ea2fdc75185","system_id":"levelo_inurba_marseille","lat":43.304274,"lon":5.397513,"is_reserved":false,"is_disabled":false,"rental_uris":{"android":"levelo://app?vid=8122d299-89e5-438e-bbda-6ea2fdc75185","ios":"levelo://app?vid=8122d299-89e5-438e-bbda-6ea2fdc75185"},"vehicle_type_id":"4","last_reported":1701274178,"current_range_meters":12000,"station_id":"ce4bh092rcd13ifvqd20","pricing_plan_id":"free"},{"bike_id":"2219e3eb-e229-4075-8b48-d006cf139347","system_id":"levelo_inurba_marseille","lat":43.290018,"lon":5.356374,"is_reserved":false,"is_disabled":false,"rental_uris":{"android":"levelo://app?vid=2219e3eb-e229-4075-8b48-d006cf139347","ios":"levelo://app?vid=2219e3eb-e229-4075-8b48-d006cf139347"},"vehicle_type_id":"4","last_reported":1701274178,"current_range_meters":19200,"station_id":"ce4bhb92rcd13ifvqen0","pricing_plan_id":"free"},{"bike_id":"c5f67df3-7b56-4314-9cbb-49f062a12ba5","system_id":"levelo_inurba_marseille","lat":43.309343,"lon":5.401527,"is_reserved":false,"is_disabled":false,"rental_uris":{"android":"levelo://app?vid=c5f67df3-7b56-4314-9cbb-49f062a12ba5","ios":"levelo://app?vid=c5f67df3-7b56-4314-9cbb-49f062a12ba5"},"vehicle_type_id":"4","last_reported":1701274178,"current_range_meters":8000,"station_id":"ce4bgvp2rcd13ifvqct0","pricing_plan_id":"free"},{"bike_id":"cd303de2-539d-4aad-b45e-65166ea341e2","system_id":"levelo_inurba_marseille","lat":43.309114,"lon":5.401499,"is_reserved":false,"is_disabled":false,"rental_uris":{"android":"levelo://app?vid=cd303de2-539d-4aad-b45e-65166ea341e2","ios":"levelo://app?vid=cd303de2-539d-4aad-b45e-65166ea341e2"},"vehicle_type_id":"4","last_reported":1701274178,"current_range_meters":1600,"station_id":"ce4bgvp2rcd13ifvqct0","pricing_plan_id":"free"},{"bike_id":"fb5f170d-2490-4436-87a6-bba2582b13d8","system_id":"levelo_inurba_marseille","lat":43.33755,"lon":5.37464,"is_reserved":false,"is_disabled":false,"rental_uris":{"android":"levelo://app?vid=fb5f170d-2490-4436-87a6-bba2582b13d8","ios":"levelo://app?vid=fb5f170d-2490-4436-87a6-bba2582b13d8"},"vehicle_type_id":"4","last_reported":1701274178,"current_range_meters":21200,"station_id":"","pricing_plan_id":"free"},{"bike_id":"2c7eee40-ea1d-4607-b6df-eaa2bd524322","system_id":"levelo_inurba_marseille","lat":43.30121,"lon":5.39879,"is_reserved":false,"is_disabled":false,"rental_uris":{"android":"levelo://app?vid=2c7eee40-ea1d-4607-b6df-eaa2bd524322","ios":"levelo://app?vid=2c7eee40-ea1d-4607-b6df-eaa2bd524322"},"vehicle_type_id":"4","last_reported":1701274178,"current_range_meters":6000,"station_id":"ce4bh0h2rcd13ifvqd40","pricing_plan_id":"free"},{"bike_id":"8d7398c7-6d67-4fb4-bad1-6dd31eca7878","system_id":"levelo_inurba_marseille","lat":43.298681,"lon":5.397225,"is_reserved":false,"is_disabled":false,"rental_uris":{"android":"levelo://app?vid=8d7398c7-6d67-4fb4-bad1-6dd31eca7878","ios":"levelo://app?vid=8d7398c7-6d67-4fb4-bad1-6dd31eca7878"},"vehicle_type_id":"4","last_reported":1701274178,"current_range_meters":5600,"station_id":"ce4bh0h2rcd13ifvqd50","pricing_plan_id":"free"},{"bike_id":"27e27392-39ce-4d82-858e-ca5fee5e178e","system_id":"levelo_inurba_marseille","lat":43.286961,"lon":5.373785,"is_reserved":false,"is_disabled":false,"rental_uris":{"android":"levelo://app?vid=27e27392-39ce-4d82-858e-ca5fee5e178e","ios":"levelo://app?vid=27e27392-39ce-4d82-858e-ca5fee5e178e"},"vehicle_type_id":"4","last_reported":1701274178,"current_range_meters":30000,"station_id":"ce4bh3p2rcd13ifvqdq0","pricing_plan_id":"free"},{"bike_id":"b10c944d-9344-42c8-a3dc-7fc66c00c351","system_id":"levelo_inurba_marseille","lat":43.286591,"lon":5.363346,"is_reserved":false,"is_disabled":false,"rental_uris":{"android":"levelo://app?vid=b10c944d-9344-42c8-a3dc-7fc66c00c351","ios":"levelo://app?vid=b10c944d-9344-42c8-a3dc-7fc66c00c351"},"vehicle_type_id":"4","last_reported":1701274178,"current_range_meters":14000,"station_id":"ce4bhah2rcd13ifvqej0","pricing_plan_id":"free"},{"bike_id":"0afd1323-c9ec-45ae-a489-204969753d3d","system_id":"levelo_inurba_marseille","lat":43.298681,"lon":5.397225,"is_reserved":false,"is_disabled":false,"rental_uris":{"android":"levelo://app?vid=0afd1323-c9ec-45ae-a489-204969753d3d","ios":"levelo://app?vid=0afd1323-c9ec-45ae-a489-204969753d3d"},"vehicle_type_id":"4","last_reported":1701274178,"current_range_meters":12000,"station_id":"ce4bh0h2rcd13ifvqd50","pricing_plan_id":"free"},{"bike_id":"0b436217-e714-4faa-8b65-745c0cc19ad6","system_id":"levelo_inurba_marseille","lat":43.295196,"lon":5.39397,"is_reserved":false,"is_disabled":false,"rental_uris":{"android":"levelo://app?vid=0b436217-e714-4faa-8b65-745c0cc19ad6","ios":"levelo://app?vid=0b436217-e714-4faa-8b65-745c0cc19ad6"},"vehicle_type_id":"4","last_reported":1701274178,"current_range_meters":7600,"station_id":"ce4bh292rcd13ifvqdf0","pricing_plan_id":"free"},{"bike_id":"f7e8467e-ec60-46b1-9c4b-41461d13e3c6","system_id":"levelo_inurba_marseille","lat":43.298681,"lon":5.397225,"is_reserved":false,"is_disabled":false,"rental_uris":{"android":"levelo://app?vid=f7e8467e-ec60-46b1-9c4b-41461d13e3c6","ios":"levelo://app?vid=f7e8467e-ec60-46b1-9c4b-41461d13e3c6"},"vehicle_type_id":"4","last_reported":1701274178,"current_range_meters":10000,"station_id":"ce4bh0h2rcd13ifvqd50","pricing_plan_id":"free"},{"bike_id":"92e851d8-1d9b-4675-ab3a-89ca2b8f5983","system_id":"levelo_inurba_marseille","lat":43.29051,"lon":5.3865,"is_reserved":false,"is_disabled":false,"rental_uris":{"android":"levelo://app?vid=92e851d8-1d9b-4675-ab3a-89ca2b8f5983","ios":"levelo://app?vid=92e851d8-1d9b-4675-ab3a-89ca2b8f5983"},"vehicle_type_id":"4","last_reported":1701274178,"current_range_meters":22800,"station_id":"ce4bh4p2rcd13ifvqe0g","pricing_plan_id":"free"},{"bike_id":"d6bee68e-4184-47cc-a9db-1cdd22caa02b","system_id":"levelo_inurba_marseille","lat":43.290344,"lon":5.386452,"is_reserved":false,"is_disabled":false,"rental_uris":{"android":"levelo://app?vid=d6bee68e-4184-47cc-a9db-1cdd22caa02b","ios":"levelo://app?vid=d6bee68e-4184-47cc-a9db-1cdd22caa02b"},"vehicle_type_id":"4","last_reported":1701274178,"current_range_meters":21200,"station_id":"ce4bh4p2rcd13ifvqe0g","pricing_plan_id":"free"},{"bike_id":"0bdf09de-f1cf-4408-a6b8-cef3724693a7","system_id":"levelo_inurba_marseille","lat":43.29034,"lon":5.38654,"is_reserved":false,"is_disabled":false,"rental_uris":{"android":"levelo://app?vid=0bdf09de-f1cf-4408-a6b8-cef3724693a7","ios":"levelo://app?vid=0bdf09de-f1cf-4408-a6b8-cef3724693a7"},"vehicle_type_id":"4","last_reported":1701274178,"current_range_meters":4400,"station_id":"ce4bh4p2rcd13ifvqe0g","pricing_plan_id":"free"},{"bike_id":"9b4c07bb-e7c7-4555-b636-8f7f7e03eb36","system_id":"levelo_inurba_marseille","lat":43.290218,"lon":5.38649,"is_reserved":false,"is_disabled":false,"rental_uris":{"android":"levelo://app?vid=9b4c07bb-e7c7-4555-b636-8f7f7e03eb36","ios":"levelo://app?vid=9b4c07bb-e7c7-4555-b636-8f7f7e03eb36"},"vehicle_type_id":"4","last_reported":1701274178,"current_range_meters":0,"station_id":"","pricing_plan_id":"free"},{"bike_id":"def12208-bd8f-4dbf-8df8-7372f3d0c669","system_id":"levelo_inurba_marseille","lat":43.286039,"lon":5.370681,"is_reserved":false,"is_disabled":false,"rental_uris":{"android":"levelo://app?vid=def12208-bd8f-4dbf-8df8-7372f3d0c669","ios":"levelo://app?vid=def12208-bd8f-4dbf-8df8-7372f3d0c669"},"vehicle_type_id":"4","last_reported":1701274178,"current_range_meters":1600,"station_id":"ce4bht12rcd13ifvqi60","pricing_plan_id":"free"},{"bike_id":"df081536-75d3-4605-b138-fc66a8e5ce11","system_id":"levelo_inurba_marseille","lat":43.286039,"lon":5.370679,"is_reserved":false,"is_disabled":false,"rental_uris":{"android":"levelo://app?vid=df081536-75d3-4605-b138-fc66a8e5ce11","ios":"levelo://app?vid=df081536-75d3-4605-b138-fc66a8e5ce11"},"vehicle_type_id":"4","last_reported":1701274178,"current_range_meters":25600,"station_id":"ce4bht12rcd13ifvqi60","pricing_plan_id":"free"},{"bike_id":"16d4d894-acb4-4fd8-8a6d-2669ebe5feb8","system_id":"levelo_inurba_marseille","lat":43.29602,"lon":5.381084,"is_reserved":false,"is_disabled":false,"rental_uris":{"android":"levelo://app?vid=16d4d894-acb4-4fd8-8a6d-2669ebe5feb8","ios":"levelo://app?vid=16d4d894-acb4-4fd8-8a6d-2669ebe5feb8"},"vehicle_type_id":"4","last_reported":1701274178,"current_range_meters":22400,"station_id":"ce4bgl12rcd13ifvqbo0","pricing_plan_id":"free"},{"bike_id":"a6362d52-6052-4900-8cf3-c43110ab7b40","system_id":"levelo_inurba_marseille","lat":43.2919,"lon":5.39328,"is_reserved":false,"is_disabled":false,"rental_uris":{"android":"levelo://app?vid=a6362d52-6052-4900-8cf3-c43110ab7b40","ios":"levelo://app?vid=a6362d52-6052-4900-8cf3-c43110ab7b40"},"vehicle_type_id":"4","last_reported":1701274178,"current_range_meters":0,"station_id":"ce4bh192rcd13ifvqdd0","pricing_plan_id":"free"},{"bike_id":"a45948f7-aeb1-4ec7-83dc-6ad1e74c6771","system_id":"levelo_inurba_marseille","lat":43.28464,"lon":5.3589,"is_reserved":false,"is_disabled":false,"rental_uris":{"android":"levelo://app?vid=a45948f7-aeb1-4ec7-83dc-6ad1e74c6771","ios":"levelo://app?vid=a45948f7-aeb1-4ec7-83dc-6ad1e74c6771"},"vehicle_type_id":"4","last_reported":1701274178,"current_range_meters":7200,"station_id":"ce4bhah2rcd13ifvqei0","pricing_plan_id":"free"},{"bike_id":"529cdf5f-db2c-46f4-a1fe-2ba6fbcba15a","system_id":"levelo_inurba_marseille","lat":43.285856,"lon":5.350771,"is_reserved":false,"is_disabled":false,"rental_uris":{"android":"levelo://app?vid=529cdf5f-db2c-46f4-a1fe-2ba6fbcba15a","ios":"levelo://app?vid=529cdf5f-db2c-46f4-a1fe-2ba6fbcba15a"},"vehicle_type_id":"4","last_reported":1701274178,"current_range_meters":20800,"station_id":"ce4bhch2rcd13ifvqeug","pricing_plan_id":"free"},{"bike_id":"f636f272-f871-4dd8-9230-a1e435d50b05","system_id":"levelo_inurba_marseille","lat":43.285848,"lon":5.350787,"is_reserved":false,"is_disabled":false,"rental_uris":{"android":"levelo://app?vid=f636f272-f871-4dd8-9230-a1e435d50b05","ios":"levelo://app?vid=f636f272-f871-4dd8-9230-a1e435d50b05"},"vehicle_type_id":"4","last_reported":1701274178,"current_range_meters":18000,"station_id":"ce4bhch2rcd13ifvqeug","pricing_plan_id":"free"},{"bike_id":"03dcc9f4-f733-4e5d-867b-58f0bdd7ab3f","system_id":"levelo_inurba_marseille","lat":43.283998,"lon":5.375062,"is_reserved":false,"is_disabled":false,"rental_uris":{"android":"levelo://app?vid=03dcc9f4-f733-4e5d-867b-58f0bdd7ab3f","ios":"levelo://app?vid=03dcc9f4-f733-4e5d-867b-58f0bdd7ab3f"},"vehicle_type_id":"4","last_reported":1701274178,"current_range_meters":28000,"station_id":"ce4bh412rcd13ifvqds0","pricing_plan_id":"free"},{"bike_id":"76809281-f103-4c80-a1f2-61169df734f3","system_id":"levelo_inurba_marseille","lat":43.283998,"lon":5.375062,"is_reserved":false,"is_disabled":false,"rental_uris":{"android":"levelo://app?vid=76809281-f103-4c80-a1f2-61169df734f3","ios":"levelo://app?vid=76809281-f103-4c80-a1f2-61169df734f3"},"vehicle_type_id":"4","last_reported":1701274178,"current_range_meters":28800,"station_id":"ce4bh412rcd13ifvqds0","pricing_plan_id":"free"},{"bike_id":"d2120d76-0fad-47eb-b244-dc59d199f1f4","system_id":"levelo_inurba_marseille","lat":43.33241,"lon":5.39854,"is_reserved":false,"is_disabled":false,"rental_uris":{"android":"levelo://app?vid=d2120d76-0fad-47eb-b244-dc59d199f1f4","ios":"levelo://app?vid=d2120d76-0fad-47eb-b244-dc59d199f1f4"},"vehicle_type_id":"4","last_reported":1701274178,"current_range_meters":2400,"station_id":"","pricing_plan_id":"free"},{"bike_id":"d883acb9-01aa-4085-b7e0-806946353519","system_id":"levelo_inurba_marseille","lat":43.283494,"lon":5.380945,"is_reserved":false,"is_disabled":false,"rental_uris":{"android":"levelo://app?vid=d883acb9-01aa-4085-b7e0-806946353519","ios":"levelo://app?vid=d883acb9-01aa-4085-b7e0-806946353519"},"vehicle_type_id":"4","last_reported":1701274178,"current_range_meters":24400,"station_id":"ce4bh412rcd13ifvqdr0","pricing_plan_id":"free"},{"bike_id":"86c5e437-815e-444a-abe1-04d20b960936","system_id":"levelo_inurba_marseille","lat":43.284219,"lon":5.3497,"is_reserved":false,"is_disabled":false,"rental_uris":{"android":"levelo://app?vid=86c5e437-815e-444a-abe1-04d20b960936","ios":"levelo://app?vid=86c5e437-815e-444a-abe1-04d20b960936"},"vehicle_type_id":"4","last_reported":1701274178,"current_range_meters":10400,"station_id":"ce4bhbh2rcd13ifvqepg","pricing_plan_id":"free"},{"bike_id":"b296995e-dc93-433f-b9e1-caffa5caf0b1","system_id":"levelo_inurba_marseille","lat":43.289099,"lon":5.395658,"is_reserved":false,"is_disabled":false,"rental_uris":{"android":"levelo://app?vid=b296995e-dc93-433f-b9e1-caffa5caf0b1","ios":"levelo://app?vid=b296995e-dc93-433f-b9e1-caffa5caf0b1"},"vehicle_type_id":"4","last_reported":1701274178,"current_range_meters":24000,"station_id":"","pricing_plan_id":"free"},{"bike_id":"2faa17fb-48b6-4f74-a19f-0358386e3c6a","system_id":"levelo_inurba_marseille","lat":43.292724,"lon":5.401131,"is_reserved":false,"is_disabled":false,"rental_uris":{"android":"levelo://app?vid=2faa17fb-48b6-4f74-a19f-0358386e3c6a","ios":"levelo://app?vid=2faa17fb-48b6-4f74-a19f-0358386e3c6a"},"vehicle_type_id":"4","last_reported":1701274178,"current_range_meters":20800,"station_id":"ce4bh312rcd13ifvqdk0","pricing_plan_id":"free"},{"bike_id":"cd41f8d7-d426-49ee-af30-b588d1872ab9","system_id":"levelo_inurba_marseille","lat":43.282754,"lon":5.350519,"is_reserved":false,"is_disabled":false,"rental_uris":{"android":"levelo://app?vid=cd41f8d7-d426-49ee-af30-b588d1872ab9","ios":"levelo://app?vid=cd41f8d7-d426-49ee-af30-b588d1872ab9"},"vehicle_type_id":"4","last_reported":1701274178,"current_range_meters":17200,"station_id":"ce4bhbp2rcd13ifvqerg","pricing_plan_id":"free"},{"bike_id":"a0ff55ba-c88f-429a-8cfe-e98eda3b3560","system_id":"levelo_inurba_marseille","lat":43.282754,"lon":5.350519,"is_reserved":false,"is_disabled":false,"rental_uris":{"android":"levelo://app?vid=a0ff55ba-c88f-429a-8cfe-e98eda3b3560","ios":"levelo://app?vid=a0ff55ba-c88f-429a-8cfe-e98eda3b3560"},"vehicle_type_id":"4","last_reported":1701274178,"current_range_meters":23600,"station_id":"ce4bhbp2rcd13ifvqerg","pricing_plan_id":"free"},{"bike_id":"ac845943-b6e2-46af-adb3-8eab8eb13154","system_id":"levelo_inurba_marseille","lat":43.283502,"lon":5.386471,"is_reserved":false,"is_disabled":false,"rental_uris":{"android":"levelo://app?vid=ac845943-b6e2-46af-adb3-8eab8eb13154","ios":"levelo://app?vid=ac845943-b6e2-46af-adb3-8eab8eb13154"},"vehicle_type_id":"4","last_reported":1701274178,"current_range_meters":20000,"station_id":"ce4bh492rcd13ifvqdvg","pricing_plan_id":"free"},{"bike_id":"90745877-0a2c-4c68-bc89-152bc1545f15","system_id":"levelo_inurba_marseille","lat":43.28039,"lon":5.369297,"is_reserved":false,"is_disabled":false,"rental_uris":{"android":"levelo://app?vid=90745877-0a2c-4c68-bc89-152bc1545f15","ios":"levelo://app?vid=90745877-0a2c-4c68-bc89-152bc1545f15"},"vehicle_type_id":"4","last_reported":1701274178,"current_range_meters":20000,"station_id":"ce4bha12rcd13ifvqef0","pricing_plan_id":"free"},{"bike_id":"0c0b19d5-1a90-42fa-86ca-2d5cebe401fc","system_id":"levelo_inurba_marseille","lat":43.281044,"lon":5.378308,"is_reserved":false,"is_disabled":false,"rental_uris":{"android":"levelo://app?vid=0c0b19d5-1a90-42fa-86ca-2d5cebe401fc","ios":"levelo://app?vid=0c0b19d5-1a90-42fa-86ca-2d5cebe401fc"},"vehicle_type_id":"4","last_reported":1701274178,"current_range_meters":8800,"station_id":"ce4bha12rcd13ifvqee0","pricing_plan_id":"free"},{"bike_id":"98d78070-eec9-4a1b-ab75-52e6b8aeb6f1","system_id":"levelo_inurba_marseille","lat":43.281044,"lon":5.378308,"is_reserved":false,"is_disabled":false,"rental_uris":{"android":"levelo://app?vid=98d78070-eec9-4a1b-ab75-52e6b8aeb6f1","ios":"levelo://app?vid=98d78070-eec9-4a1b-ab75-52e6b8aeb6f1"},"vehicle_type_id":"4","last_reported":1701274178,"current_range_meters":31200,"station_id":"ce4bha12rcd13ifvqee0","pricing_plan_id":"free"},{"bike_id":"dedcf8df-01fc-4a40-b033-d63098305b93","system_id":"levelo_inurba_marseille","lat":43.281044,"lon":5.378308,"is_reserved":false,"is_disabled":false,"rental_uris":{"android":"levelo://app?vid=dedcf8df-01fc-4a40-b033-d63098305b93","ios":"levelo://app?vid=dedcf8df-01fc-4a40-b033-d63098305b93"},"vehicle_type_id":"4","last_reported":1701274178,"current_range_meters":26800,"station_id":"ce4bha12rcd13ifvqee0","pricing_plan_id":"free"},{"bike_id":"d961d3ec-8875-4bd8-8d51-4024e9d78ed2","system_id":"levelo_inurba_marseille","lat":43.281044,"lon":5.378308,"is_reserved":false,"is_disabled":false,"rental_uris":{"android":"levelo://app?vid=d961d3ec-8875-4bd8-8d51-4024e9d78ed2","ios":"levelo://app?vid=d961d3ec-8875-4bd8-8d51-4024e9d78ed2"},"vehicle_type_id":"4","last_reported":1701274178,"current_range_meters":6000,"station_id":"ce4bha12rcd13ifvqee0","pricing_plan_id":"free"},{"bike_id":"0f925b75-f359-4c04-a380-ffec7766dd89","system_id":"levelo_inurba_marseille","lat":43.304188,"lon":5.412904,"is_reserved":false,"is_disabled":false,"rental_uris":{"android":"levelo://app?vid=0f925b75-f359-4c04-a380-ffec7766dd89","ios":"levelo://app?vid=0f925b75-f359-4c04-a380-ffec7766dd89"},"vehicle_type_id":"4","last_reported":1701274178,"current_range_meters":14400,"station_id":"ce4bhop2rcd13ifvqh8g","pricing_plan_id":"free"},{"bike_id":"451e8531-d940-47f5-adb2-4a3e2d57638f","system_id":"levelo_inurba_marseille","lat":43.30411,"lon":5.4129,"is_reserved":false,"is_disabled":false,"rental_uris":{"android":"levelo://app?vid=451e8531-d940-47f5-adb2-4a3e2d57638f","ios":"levelo://app?vid=451e8531-d940-47f5-adb2-4a3e2d57638f"},"vehicle_type_id":"4","last_reported":1701274178,"current_range_meters":14000,"station_id":"ce4bhop2rcd13ifvqh8g","pricing_plan_id":"free"},{"bike_id":"70c4704e-0253-4830-911f-92e6d531e9ad","system_id":"levelo_inurba_marseille","lat":43.286961,"lon":5.373785,"is_reserved":false,"is_disabled":false,"rental_uris":{"android":"levelo://app?vid=70c4704e-0253-4830-911f-92e6d531e9ad","ios":"levelo://app?vid=70c4704e-0253-4830-911f-92e6d531e9ad"},"vehicle_type_id":"4","last_reported":1701274178,"current_range_meters":18000,"station_id":"ce4bh3p2rcd13ifvqdq0","pricing_plan_id":"free"},{"bike_id":"77f66fa0-7e92-4869-aa28-f22cdfef8923","system_id":"levelo_inurba_marseille","lat":43.279742,"lon":5.38744,"is_reserved":false,"is_disabled":false,"rental_uris":{"android":"levelo://app?vid=77f66fa0-7e92-4869-aa28-f22cdfef8923","ios":"levelo://app?vid=77f66fa0-7e92-4869-aa28-f22cdfef8923"},"vehicle_type_id":"4","last_reported":1701274178,"current_range_meters":20000,"station_id":"ce4bhg12rcd13ifvqf80","pricing_plan_id":"free"},{"bike_id":"3e2096f8-76f3-4014-a3e5-f45c9deb7965","system_id":"levelo_inurba_marseille","lat":43.292571,"lon":5.409107,"is_reserved":false,"is_disabled":false,"rental_uris":{"android":"levelo://app?vid=3e2096f8-76f3-4014-a3e5-f45c9deb7965","ios":"levelo://app?vid=3e2096f8-76f3-4014-a3e5-f45c9deb7965"},"vehicle_type_id":"4","last_reported":1701274178,"current_range_meters":1200,"station_id":"ce4bh192rcd13ifvqdc0","pricing_plan_id":"free"},{"bike_id":"beebb394-2e9c-4057-baef-3b0211b92c5c","system_id":"levelo_inurba_marseille","lat":43.29258,"lon":5.40906,"is_reserved":false,"is_disabled":false,"rental_uris":{"android":"levelo://app?vid=beebb394-2e9c-4057-baef-3b0211b92c5c","ios":"levelo://app?vid=beebb394-2e9c-4057-baef-3b0211b92c5c"},"vehicle_type_id":"4","last_reported":1701274178,"current_range_meters":22400,"station_id":"ce4bh192rcd13ifvqdc0","pricing_plan_id":"free"},{"bike_id":"b8dc1e5a-7a22-449e-9d78-e883a72b1f9a","system_id":"levelo_inurba_marseille","lat":43.32539,"lon":5.41431,"is_reserved":false,"is_disabled":false,"rental_uris":{"android":"levelo://app?vid=b8dc1e5a-7a22-449e-9d78-e883a72b1f9a","ios":"levelo://app?vid=b8dc1e5a-7a22-449e-9d78-e883a72b1f9a"},"vehicle_type_id":"4","last_reported":1701274178,"current_range_meters":26800,"station_id":"ce4bhq12rcd13ifvqhhg","pricing_plan_id":"free"},{"bike_id":"4388576c-39c9-4880-a4d9-4a4bc52dd8e2","system_id":"levelo_inurba_marseille","lat":43.292571,"lon":5.409107,"is_reserved":false,"is_disabled":false,"rental_uris":{"android":"levelo://app?vid=4388576c-39c9-4880-a4d9-4a4bc52dd8e2","ios":"levelo://app?vid=4388576c-39c9-4880-a4d9-4a4bc52dd8e2"},"vehicle_type_id":"4","last_reported":1701274178,"current_range_meters":6400,"station_id":"ce4bh192rcd13ifvqdc0","pricing_plan_id":"free"},{"bike_id":"3c54b0a6-d1af-4d8f-ad06-77d6058dbea2","system_id":"levelo_inurba_marseille","lat":43.292571,"lon":5.409107,"is_reserved":false,"is_disabled":false,"rental_uris":{"android":"levelo://app?vid=3c54b0a6-d1af-4d8f-ad06-77d6058dbea2","ios":"levelo://app?vid=3c54b0a6-d1af-4d8f-ad06-77d6058dbea2"},"vehicle_type_id":"4","last_reported":1701274178,"current_range_meters":20400,"station_id":"ce4bh192rcd13ifvqdc0","pricing_plan_id":"free"},{"bike_id":"e0dd5acf-fe12-4c50-a09d-551ae867bd46","system_id":"levelo_inurba_marseille","lat":43.292605,"lon":5.409272,"is_reserved":false,"is_disabled":false,"rental_uris":{"android":"levelo://app?vid=e0dd5acf-fe12-4c50-a09d-551ae867bd46","ios":"levelo://app?vid=e0dd5acf-fe12-4c50-a09d-551ae867bd46"},"vehicle_type_id":"4","last_reported":1701274178,"current_range_meters":400,"station_id":"","pricing_plan_id":"free"},{"bike_id":"325b3635-bdc6-4eab-a8d5-a213c80a892b","system_id":"levelo_inurba_marseille","lat":43.27605,"lon":5.361045,"is_reserved":false,"is_disabled":false,"rental_uris":{"android":"levelo://app?vid=325b3635-bdc6-4eab-a8d5-a213c80a892b","ios":"levelo://app?vid=325b3635-bdc6-4eab-a8d5-a213c80a892b"},"vehicle_type_id":"4","last_reported":1701274178,"current_range_meters":17200,"station_id":"ce4bgj92rcd13ifvqbe0","pricing_plan_id":"free"},{"bike_id":"f8c6b80e-d142-4de1-a5b8-3812fb2e97a4","system_id":"levelo_inurba_marseille","lat":43.278401,"lon":5.392152,"is_reserved":false,"is_disabled":false,"rental_uris":{"android":"levelo://app?vid=f8c6b80e-d142-4de1-a5b8-3812fb2e97a4","ios":"levelo://app?vid=f8c6b80e-d142-4de1-a5b8-3812fb2e97a4"},"vehicle_type_id":"4","last_reported":1701274178,"current_range_meters":3600,"station_id":"ce4bhjp2rcd13ifvqga0","pricing_plan_id":"free"},{"bike_id":"fc889240-8464-4342-915b-09eb37bbaa3e","system_id":"levelo_inurba_marseille","lat":43.303837,"lon":5.418724,"is_reserved":false,"is_disabled":false,"rental_uris":{"android":"levelo://app?vid=fc889240-8464-4342-915b-09eb37bbaa3e","ios":"levelo://app?vid=fc889240-8464-4342-915b-09eb37bbaa3e"},"vehicle_type_id":"4","last_reported":1701274178,"current_range_meters":27600,"station_id":"ce4bhop2rcd13ifvqh7g","pricing_plan_id":"free"},{"bike_id":"cb956553-82cd-4b14-8c86-6a41ff7b1143","system_id":"levelo_inurba_marseille","lat":43.275625,"lon":5.384392,"is_reserved":false,"is_disabled":false,"rental_uris":{"android":"levelo://app?vid=cb956553-82cd-4b14-8c86-6a41ff7b1143","ios":"levelo://app?vid=cb956553-82cd-4b14-8c86-6a41ff7b1143"},"vehicle_type_id":"4","last_reported":1701274178,"current_range_meters":27600,"station_id":"ce4bhh92rcd13ifvqfi0","pricing_plan_id":"free"},{"bike_id":"c0b28f05-0ad9-43e5-a9a1-8839855826d1","system_id":"levelo_inurba_marseille","lat":43.273609,"lon":5.362708,"is_reserved":false,"is_disabled":false,"rental_uris":{"android":"levelo://app?vid=c0b28f05-0ad9-43e5-a9a1-8839855826d1","ios":"levelo://app?vid=c0b28f05-0ad9-43e5-a9a1-8839855826d1"},"vehicle_type_id":"4","last_reported":1701274178,"current_range_meters":12800,"station_id":"ce4bhbh2rcd13ifvqeo0","pricing_plan_id":"free"},{"bike_id":"6ecd0055-a513-4dea-a0fd-cf4b6716dca9","system_id":"levelo_inurba_marseille","lat":43.273609,"lon":5.362708,"is_reserved":false,"is_disabled":false,"rental_uris":{"android":"levelo://app?vid=6ecd0055-a513-4dea-a0fd-cf4b6716dca9","ios":"levelo://app?vid=6ecd0055-a513-4dea-a0fd-cf4b6716dca9"},"vehicle_type_id":"4","last_reported":1701274178,"current_range_meters":13600,"station_id":"ce4bhbh2rcd13ifvqeo0","pricing_plan_id":"free"},{"bike_id":"e919b20f-5d14-4db1-a6be-bcb90622b930","system_id":"levelo_inurba_marseille","lat":43.273609,"lon":5.362708,"is_reserved":false,"is_disabled":false,"rental_uris":{"android":"levelo://app?vid=e919b20f-5d14-4db1-a6be-bcb90622b930","ios":"levelo://app?vid=e919b20f-5d14-4db1-a6be-bcb90622b930"},"vehicle_type_id":"4","last_reported":1701274178,"current_range_meters":19200,"station_id":"ce4bhbh2rcd13ifvqeo0","pricing_plan_id":"free"},{"bike_id":"6dd72609-0ecf-4f26-a2f6-449f29890cc0","system_id":"levelo_inurba_marseille","lat":43.27773,"lon":5.392824,"is_reserved":false,"is_disabled":false,"rental_uris":{"android":"levelo://app?vid=6dd72609-0ecf-4f26-a2f6-449f29890cc0","ios":"levelo://app?vid=6dd72609-0ecf-4f26-a2f6-449f29890cc0"},"vehicle_type_id":"4","last_reported":1701274178,"current_range_meters":24000,"station_id":"","pricing_plan_id":"free"},{"bike_id":"3ea0c0c3-78e4-459a-8421-1810ecf4369c","system_id":"levelo_inurba_marseille","lat":43.279952,"lon":5.400085,"is_reserved":false,"is_disabled":false,"rental_uris":{"android":"levelo://app?vid=3ea0c0c3-78e4-459a-8421-1810ecf4369c","ios":"levelo://app?vid=3ea0c0c3-78e4-459a-8421-1810ecf4369c"},"vehicle_type_id":"4","last_reported":1701274178,"current_range_meters":7200,"station_id":"ce4bho92rcd13ifvqh4g","pricing_plan_id":"free"},{"bike_id":"f56f0157-d2b8-4860-9d96-d2662b8425af","system_id":"levelo_inurba_marseille","lat":43.279952,"lon":5.400085,"is_reserved":false,"is_disabled":false,"rental_uris":{"android":"levelo://app?vid=f56f0157-d2b8-4860-9d96-d2662b8425af","ios":"levelo://app?vid=f56f0157-d2b8-4860-9d96-d2662b8425af"},"vehicle_type_id":"4","last_reported":1701274178,"current_range_meters":20800,"station_id":"ce4bho92rcd13ifvqh4g","pricing_plan_id":"free"},{"bike_id":"f3d8b928-76ed-4254-92d8-6ae044be212c","system_id":"levelo_inurba_marseille","lat":43.279952,"lon":5.400085,"is_reserved":false,"is_disabled":false,"rental_uris":{"android":"levelo://app?vid=f3d8b928-76ed-4254-92d8-6ae044be212c","ios":"levelo://app?vid=f3d8b928-76ed-4254-92d8-6ae044be212c"},"vehicle_type_id":"4","last_reported":1701274178,"current_range_meters":28800,"station_id":"ce4bho92rcd13ifvqh4g","pricing_plan_id":"free"},{"bike_id":"ef7ba327-e43f-42e0-a02d-cb83e9268f27","system_id":"levelo_inurba_marseille","lat":43.31082,"lon":5.42431,"is_reserved":false,"is_disabled":false,"rental_uris":{"android":"levelo://app?vid=ef7ba327-e43f-42e0-a02d-cb83e9268f27","ios":"levelo://app?vid=ef7ba327-e43f-42e0-a02d-cb83e9268f27"},"vehicle_type_id":"4","last_reported":1701274178,"current_range_meters":20000,"station_id":"ce4bhp92rcd13ifvqhag","pricing_plan_id":"free"},{"bike_id":"d591db37-21bc-416b-8c1c-864e106e6113","system_id":"levelo_inurba_marseille","lat":43.273125,"lon":5.390731,"is_reserved":false,"is_disabled":false,"rental_uris":{"android":"levelo://app?vid=d591db37-21bc-416b-8c1c-864e106e6113","ios":"levelo://app?vid=d591db37-21bc-416b-8c1c-864e106e6113"},"vehicle_type_id":"4","last_reported":1701274178,"current_range_meters":400,"station_id":"ce4bhgp2rcd13ifvqfe0","pricing_plan_id":"free"},{"bike_id":"1bc53cce-f082-4bd1-b23f-b233e42d31fa","system_id":"levelo_inurba_marseille","lat":43.274103,"lon":5.394016,"is_reserved":false,"is_disabled":false,"rental_uris":{"android":"levelo://app?vid=1bc53cce-f082-4bd1-b23f-b233e42d31fa","ios":"levelo://app?vid=1bc53cce-f082-4bd1-b23f-b233e42d31fa"},"vehicle_type_id":"4","last_reported":1701274178,"current_range_meters":27600,"station_id":"ce4bhdp2rcd13ifvqf20","pricing_plan_id":"free"},{"bike_id":"6792ffde-2803-401f-9638-b906a7d04c28","system_id":"levelo_inurba_marseille","lat":43.274099,"lon":5.394019,"is_reserved":false,"is_disabled":false,"rental_uris":{"android":"levelo://app?vid=6792ffde-2803-401f-9638-b906a7d04c28","ios":"levelo://app?vid=6792ffde-2803-401f-9638-b906a7d04c28"},"vehicle_type_id":"4","last_reported":1701274178,"current_range_meters":13200,"station_id":"ce4bhdp2rcd13ifvqf20","pricing_plan_id":"free"},{"bike_id":"4629788e-4f7a-4103-b95e-583d0b30f54b","system_id":"levelo_inurba_marseille","lat":43.27287,"lon":5.39094,"is_reserved":false,"is_disabled":false,"rental_uris":{"android":"levelo://app?vid=4629788e-4f7a-4103-b95e-583d0b30f54b","ios":"levelo://app?vid=4629788e-4f7a-4103-b95e-583d0b30f54b"},"vehicle_type_id":"4","last_reported":1701274178,"current_range_meters":0,"station_id":"ce4bhgp2rcd13ifvqfe0","pricing_plan_id":"free"},{"bike_id":"0120dbbf-4353-4df3-96d2-747d00c5e0f6","system_id":"levelo_inurba_marseille","lat":43.2952,"lon":5.42276,"is_reserved":false,"is_disabled":false,"rental_uris":{"android":"levelo://app?vid=0120dbbf-4353-4df3-96d2-747d00c5e0f6","ios":"levelo://app?vid=0120dbbf-4353-4df3-96d2-747d00c5e0f6"},"vehicle_type_id":"4","last_reported":1701274178,"current_range_meters":24400,"station_id":"ce4bhph2rcd13ifvqhdg","pricing_plan_id":"free"},{"bike_id":"1d1727f4-230d-4945-b92f-0c95f84949dc","system_id":"levelo_inurba_marseille","lat":43.29518,"lon":5.42281,"is_reserved":false,"is_disabled":false,"rental_uris":{"android":"levelo://app?vid=1d1727f4-230d-4945-b92f-0c95f84949dc","ios":"levelo://app?vid=1d1727f4-230d-4945-b92f-0c95f84949dc"},"vehicle_type_id":"4","last_reported":1701274178,"current_range_meters":29200,"station_id":"ce4bhph2rcd13ifvqhdg","pricing_plan_id":"free"},{"bike_id":"ad98c541-a7e2-4782-898d-16120e4889d6","system_id":"levelo_inurba_marseille","lat":43.246467,"lon":5.388984,"is_reserved":false,"is_disabled":false,"rental_uris":{"android":"levelo://app?vid=ad98c541-a7e2-4782-898d-16120e4889d6","ios":"levelo://app?vid=ad98c541-a7e2-4782-898d-16120e4889d6"},"vehicle_type_id":"4","last_reported":1701274178,"current_range_meters":23600,"station_id":"ce4bhg12rcd13ifvqf60","pricing_plan_id":"free"},{"bike_id":"34d74ea4-baa9-4372-bc6e-2965073ca51a","system_id":"levelo_inurba_marseille","lat":43.278128,"lon":5.407195,"is_reserved":false,"is_disabled":false,"rental_uris":{"android":"levelo://app?vid=34d74ea4-baa9-4372-bc6e-2965073ca51a","ios":"levelo://app?vid=34d74ea4-baa9-4372-bc6e-2965073ca51a"},"vehicle_type_id":"4","last_reported":1701274178,"current_range_meters":22400,"station_id":"ce4bhnh2rcd13ifvqgtg","pricing_plan_id":"free"},{"bike_id":"27d360e1-85df-44b0-88ff-255b897cba20","system_id":"levelo_inurba_marseille","lat":43.278128,"lon":5.407195,"is_reserved":false,"is_disabled":false,"rental_uris":{"android":"levelo://app?vid=27d360e1-85df-44b0-88ff-255b897cba20","ios":"levelo://app?vid=27d360e1-85df-44b0-88ff-255b897cba20"},"vehicle_type_id":"4","last_reported":1701274178,"current_range_meters":19600,"station_id":"ce4bhnh2rcd13ifvqgtg","pricing_plan_id":"free"},{"bike_id":"87e38f74-16da-4002-9606-0b26c2bd6d5e","system_id":"levelo_inurba_marseille","lat":43.279454,"lon":5.410404,"is_reserved":false,"is_disabled":false,"rental_uris":{"android":"levelo://app?vid=87e38f74-16da-4002-9606-0b26c2bd6d5e","ios":"levelo://app?vid=87e38f74-16da-4002-9606-0b26c2bd6d5e"},"vehicle_type_id":"4","last_reported":1701274178,"current_range_meters":7200,"station_id":"ce4bhnp2rcd13ifvqh0g","pricing_plan_id":"free"},{"bike_id":"ff98f048-89db-4ccb-923f-feeeac81aa7d","system_id":"levelo_inurba_marseille","lat":43.279405,"lon":5.41051,"is_reserved":false,"is_disabled":false,"rental_uris":{"android":"levelo://app?vid=ff98f048-89db-4ccb-923f-feeeac81aa7d","ios":"levelo://app?vid=ff98f048-89db-4ccb-923f-feeeac81aa7d"},"vehicle_type_id":"4","last_reported":1701274178,"current_range_meters":27200,"station_id":"ce4bhnp2rcd13ifvqh0g","pricing_plan_id":"free"},{"bike_id":"5cc2136e-b3cd-4e2e-813f-4ed4cd3c003a","system_id":"levelo_inurba_marseille","lat":43.269319,"lon":5.389397,"is_reserved":false,"is_disabled":false,"rental_uris":{"android":"levelo://app?vid=5cc2136e-b3cd-4e2e-813f-4ed4cd3c003a","ios":"levelo://app?vid=5cc2136e-b3cd-4e2e-813f-4ed4cd3c003a"},"vehicle_type_id":"4","last_reported":1701274178,"current_range_meters":0,"station_id":"ce4bhhh2rcd13ifvqfl0","pricing_plan_id":"free"},{"bike_id":"992672d3-f5bb-4cbd-bfda-a4e88fd5e59e","system_id":"levelo_inurba_marseille","lat":43.26554,"lon":5.3729,"is_reserved":false,"is_disabled":false,"rental_uris":{"android":"levelo://app?vid=992672d3-f5bb-4cbd-bfda-a4e88fd5e59e","ios":"levelo://app?vid=992672d3-f5bb-4cbd-bfda-a4e88fd5e59e"},"vehicle_type_id":"4","last_reported":1701274178,"current_range_meters":0,"station_id":"ce4bhg12rcd13ifvqf70","pricing_plan_id":"free"},{"bike_id":"7d7112c9-f055-433a-a0f2-f80eaaa4601f","system_id":"levelo_inurba_marseille","lat":43.27997,"lon":5.41665,"is_reserved":false,"is_disabled":false,"rental_uris":{"android":"levelo://app?vid=7d7112c9-f055-433a-a0f2-f80eaaa4601f","ios":"levelo://app?vid=7d7112c9-f055-433a-a0f2-f80eaaa4601f"},"vehicle_type_id":"4","last_reported":1701274178,"current_range_meters":2000,"station_id":"ce4bho12rcd13ifvqh1g","pricing_plan_id":"free"},{"bike_id":"77c9a3c7-ec31-4d0b-b06e-b4c7dd1ae7db","system_id":"levelo_inurba_marseille","lat":43.27991,"lon":5.41671,"is_reserved":false,"is_disabled":false,"rental_uris":{"android":"levelo://app?vid=77c9a3c7-ec31-4d0b-b06e-b4c7dd1ae7db","ios":"levelo://app?vid=77c9a3c7-ec31-4d0b-b06e-b4c7dd1ae7db"},"vehicle_type_id":"4","last_reported":1701274178,"current_range_meters":18400,"station_id":"ce4bho12rcd13ifvqh1g","pricing_plan_id":"free"},{"bike_id":"678707f0-f18b-4526-938d-cbb54df77004","system_id":"levelo_inurba_marseille","lat":43.26823,"lon":5.396383,"is_reserved":false,"is_disabled":false,"rental_uris":{"android":"levelo://app?vid=678707f0-f18b-4526-938d-cbb54df77004","ios":"levelo://app?vid=678707f0-f18b-4526-938d-cbb54df77004"},"vehicle_type_id":"4","last_reported":1701274178,"current_range_meters":30800,"station_id":"","pricing_plan_id":"free"},{"bike_id":"d56898f6-7492-4f44-8b1a-3892db24d018","system_id":"levelo_inurba_marseille","lat":43.26577,"lon":5.39017,"is_reserved":false,"is_disabled":false,"rental_uris":{"android":"levelo://app?vid=d56898f6-7492-4f44-8b1a-3892db24d018","ios":"levelo://app?vid=d56898f6-7492-4f44-8b1a-3892db24d018"},"vehicle_type_id":"4","last_reported":1701274178,"current_range_meters":14000,"station_id":"ce4bhe12rcd13ifvqf30","pricing_plan_id":"free"},{"bike_id":"f8861fa3-c0b2-458c-a6dd-4e296c7b0930","system_id":"levelo_inurba_marseille","lat":43.308051,"lon":5.43527,"is_reserved":false,"is_disabled":false,"rental_uris":{"android":"levelo://app?vid=f8861fa3-c0b2-458c-a6dd-4e296c7b0930","ios":"levelo://app?vid=f8861fa3-c0b2-458c-a6dd-4e296c7b0930"},"vehicle_type_id":"4","last_reported":1701274178,"current_range_meters":27600,"station_id":"ce4bhph2rcd13ifvqheg","pricing_plan_id":"free"},{"bike_id":"c6379d7f-c0c5-44e8-ad09-9ea54b728abb","system_id":"levelo_inurba_marseille","lat":43.308051,"lon":5.43527,"is_reserved":false,"is_disabled":false,"rental_uris":{"android":"levelo://app?vid=c6379d7f-c0c5-44e8-ad09-9ea54b728abb","ios":"levelo://app?vid=c6379d7f-c0c5-44e8-ad09-9ea54b728abb"},"vehicle_type_id":"4","last_reported":1701274178,"current_range_meters":24800,"station_id":"ce4bhph2rcd13ifvqheg","pricing_plan_id":"free"},{"bike_id":"13130a50-089a-4851-86fe-7a71be0b2228","system_id":"levelo_inurba_marseille","lat":43.265569,"lon":5.390047,"is_reserved":false,"is_disabled":false,"rental_uris":{"android":"levelo://app?vid=13130a50-089a-4851-86fe-7a71be0b2228","ios":"levelo://app?vid=13130a50-089a-4851-86fe-7a71be0b2228"},"vehicle_type_id":"4","last_reported":1701274178,"current_range_meters":24400,"station_id":"ce4bhe12rcd13ifvqf30","pricing_plan_id":"free"},{"bike_id":"f554caff-ea27-4c9a-835c-3ef548d12f07","system_id":"levelo_inurba_marseille","lat":43.317104,"lon":5.436818,"is_reserved":false,"is_disabled":false,"rental_uris":{"android":"levelo://app?vid=f554caff-ea27-4c9a-835c-3ef548d12f07","ios":"levelo://app?vid=f554caff-ea27-4c9a-835c-3ef548d12f07"},"vehicle_type_id":"4","last_reported":1701274178,"current_range_meters":5200,"station_id":"ce4bhp92rcd13ifvqhcg","pricing_plan_id":"free"},{"bike_id":"1c859d8c-6823-4772-9abb-da577a635321","system_id":"levelo_inurba_marseille","lat":43.317104,"lon":5.436818,"is_reserved":false,"is_disabled":false,"rental_uris":{"android":"levelo://app?vid=1c859d8c-6823-4772-9abb-da577a635321","ios":"levelo://app?vid=1c859d8c-6823-4772-9abb-da577a635321"},"vehicle_type_id":"4","last_reported":1701274178,"current_range_meters":21200,"station_id":"ce4bhp92rcd13ifvqhcg","pricing_plan_id":"free"},{"bike_id":"99d63533-62af-4498-b6d6-41c459d84925","system_id":"levelo_inurba_marseille","lat":43.317104,"lon":5.436818,"is_reserved":false,"is_disabled":false,"rental_uris":{"android":"levelo://app?vid=99d63533-62af-4498-b6d6-41c459d84925","ios":"levelo://app?vid=99d63533-62af-4498-b6d6-41c459d84925"},"vehicle_type_id":"4","last_reported":1701274178,"current_range_meters":22800,"station_id":"ce4bhp92rcd13ifvqhcg","pricing_plan_id":"free"},{"bike_id":"2a644b39-bb3f-477e-b76f-ccf6debc1e78","system_id":"levelo_inurba_marseille","lat":43.317104,"lon":5.436818,"is_reserved":false,"is_disabled":false,"rental_uris":{"android":"levelo://app?vid=2a644b39-bb3f-477e-b76f-ccf6debc1e78","ios":"levelo://app?vid=2a644b39-bb3f-477e-b76f-ccf6debc1e78"},"vehicle_type_id":"4","last_reported":1701274178,"current_range_meters":400,"station_id":"ce4bhp92rcd13ifvqhcg","pricing_plan_id":"free"},{"bike_id":"5dd00fc2-584d-4cba-a238-bae6fef3392a","system_id":"levelo_inurba_marseille","lat":43.262012,"lon":5.379307,"is_reserved":false,"is_disabled":false,"rental_uris":{"android":"levelo://app?vid=5dd00fc2-584d-4cba-a238-bae6fef3392a","ios":"levelo://app?vid=5dd00fc2-584d-4cba-a238-bae6fef3392a"},"vehicle_type_id":"4","last_reported":1701274178,"current_range_meters":25200,"station_id":"ce4bhjp2rcd13ifvqg90","pricing_plan_id":"free"},{"bike_id":"49d5a904-8bec-4b3a-b8c0-605a46eb7f42","system_id":"levelo_inurba_marseille","lat":43.271368,"lon":5.40928,"is_reserved":false,"is_disabled":false,"rental_uris":{"android":"levelo://app?vid=49d5a904-8bec-4b3a-b8c0-605a46eb7f42","ios":"levelo://app?vid=49d5a904-8bec-4b3a-b8c0-605a46eb7f42"},"vehicle_type_id":"4","last_reported":1701274178,"current_range_meters":24000,"station_id":"ce4bhl12rcd13ifvqgf0","pricing_plan_id":"free"},{"bike_id":"56ccab7b-0522-4845-b2f3-40742b7f1789","system_id":"levelo_inurba_marseille","lat":43.271368,"lon":5.40928,"is_reserved":false,"is_disabled":false,"rental_uris":{"android":"levelo://app?vid=56ccab7b-0522-4845-b2f3-40742b7f1789","ios":"levelo://app?vid=56ccab7b-0522-4845-b2f3-40742b7f1789"},"vehicle_type_id":"4","last_reported":1701274178,"current_range_meters":27200,"station_id":"ce4bhl12rcd13ifvqgf0","pricing_plan_id":"free"},{"bike_id":"5c7df5d7-f128-443d-a8c8-c4ffb5551f3d","system_id":"levelo_inurba_marseille","lat":43.267959,"lon":5.402685,"is_reserved":false,"is_disabled":false,"rental_uris":{"android":"levelo://app?vid=5c7df5d7-f128-443d-a8c8-c4ffb5551f3d","ios":"levelo://app?vid=5c7df5d7-f128-443d-a8c8-c4ffb5551f3d"},"vehicle_type_id":"4","last_reported":1701274178,"current_range_meters":13200,"station_id":"ce501612rcd8frsf0b60","pricing_plan_id":"free"},{"bike_id":"ed36eee4-b4f3-495f-8b1b-39fc91711a8c","system_id":"levelo_inurba_marseille","lat":43.267959,"lon":5.402685,"is_reserved":false,"is_disabled":false,"rental_uris":{"android":"levelo://app?vid=ed36eee4-b4f3-495f-8b1b-39fc91711a8c","ios":"levelo://app?vid=ed36eee4-b4f3-495f-8b1b-39fc91711a8c"},"vehicle_type_id":"4","last_reported":1701274178,"current_range_meters":29600,"station_id":"ce501612rcd8frsf0b60","pricing_plan_id":"free"},{"bike_id":"ba1fb6cd-6389-483a-b18c-bd1f3a647c17","system_id":"levelo_inurba_marseille","lat":43.260225,"lon":5.375455,"is_reserved":false,"is_disabled":false,"rental_uris":{"android":"levelo://app?vid=ba1fb6cd-6389-483a-b18c-bd1f3a647c17","ios":"levelo://app?vid=ba1fb6cd-6389-483a-b18c-bd1f3a647c17"},"vehicle_type_id":"4","last_reported":1701274178,"current_range_meters":14000,"station_id":"ce4bhgh2rcd13ifvqfa0","pricing_plan_id":"free"},{"bike_id":"cf79ef16-5b21-49cb-a587-4111e2745d6f","system_id":"levelo_inurba_marseille","lat":43.260219,"lon":5.37546,"is_reserved":false,"is_disabled":false,"rental_uris":{"android":"levelo://app?vid=cf79ef16-5b21-49cb-a587-4111e2745d6f","ios":"levelo://app?vid=cf79ef16-5b21-49cb-a587-4111e2745d6f"},"vehicle_type_id":"4","last_reported":1701274178,"current_range_meters":10400,"station_id":"ce4bhgh2rcd13ifvqfa0","pricing_plan_id":"free"},{"bike_id":"30ab7c89-2b87-46b3-815c-76a26464bab9","system_id":"levelo_inurba_marseille","lat":43.260219,"lon":5.37546,"is_reserved":false,"is_disabled":false,"rental_uris":{"android":"levelo://app?vid=30ab7c89-2b87-46b3-815c-76a26464bab9","ios":"levelo://app?vid=30ab7c89-2b87-46b3-815c-76a26464bab9"},"vehicle_type_id":"4","last_reported":1701274178,"current_range_meters":15200,"station_id":"ce4bhgh2rcd13ifvqfa0","pricing_plan_id":"free"},{"bike_id":"b6a903d2-9b3c-4d55-a211-7ea5cf92c98a","system_id":"levelo_inurba_marseille","lat":43.281548,"lon":5.42643,"is_reserved":false,"is_disabled":false,"rental_uris":{"android":"levelo://app?vid=b6a903d2-9b3c-4d55-a211-7ea5cf92c98a","ios":"levelo://app?vid=b6a903d2-9b3c-4d55-a211-7ea5cf92c98a"},"vehicle_type_id":"4","last_reported":1701274178,"current_range_meters":23200,"station_id":"ce4bhnh2rcd13ifvqgug","pricing_plan_id":"free"},{"bike_id":"a2e7b489-ba23-46fe-9fa0-3c54bf630066","system_id":"levelo_inurba_marseille","lat":43.281548,"lon":5.42643,"is_reserved":false,"is_disabled":false,"rental_uris":{"android":"levelo://app?vid=a2e7b489-ba23-46fe-9fa0-3c54bf630066","ios":"levelo://app?vid=a2e7b489-ba23-46fe-9fa0-3c54bf630066"},"vehicle_type_id":"4","last_reported":1701274178,"current_range_meters":10800,"station_id":"ce4bhnh2rcd13ifvqgug","pricing_plan_id":"free"},{"bike_id":"00d1bf49-5f2f-40eb-ba1c-6d61ac984990","system_id":"levelo_inurba_marseille","lat":43.281548,"lon":5.42643,"is_reserved":false,"is_disabled":false,"rental_uris":{"android":"levelo://app?vid=00d1bf49-5f2f-40eb-ba1c-6d61ac984990","ios":"levelo://app?vid=00d1bf49-5f2f-40eb-ba1c-6d61ac984990"},"vehicle_type_id":"4","last_reported":1701274178,"current_range_meters":24400,"station_id":"ce4bhnh2rcd13ifvqgug","pricing_plan_id":"free"},{"bike_id":"c2d68b61-1d6f-49f6-acd8-a18ca79903f6","system_id":"levelo_inurba_marseille","lat":43.275028,"lon":5.424534,"is_reserved":false,"is_disabled":false,"rental_uris":{"android":"levelo://app?vid=c2d68b61-1d6f-49f6-acd8-a18ca79903f6","ios":"levelo://app?vid=c2d68b61-1d6f-49f6-acd8-a18ca79903f6"},"vehicle_type_id":"4","last_reported":1701274178,"current_range_meters":6400,"station_id":"ce4bhn92rcd13ifvqgrg","pricing_plan_id":"free"},{"bike_id":"1517a517-70e9-4577-9680-e4bf18649e74","system_id":"levelo_inurba_marseille","lat":43.275028,"lon":5.424534,"is_reserved":false,"is_disabled":false,"rental_uris":{"android":"levelo://app?vid=1517a517-70e9-4577-9680-e4bf18649e74","ios":"levelo://app?vid=1517a517-70e9-4577-9680-e4bf18649e74"},"vehicle_type_id":"4","last_reported":1701274178,"current_range_meters":17600,"station_id":"ce4bhn92rcd13ifvqgrg","pricing_plan_id":"free"},{"bike_id":"6bc55e2d-44a1-4800-8c9c-8dd124efcb03","system_id":"levelo_inurba_marseille","lat":43.25825,"lon":5.3943,"is_reserved":false,"is_disabled":false,"rental_uris":{"android":"levelo://app?vid=6bc55e2d-44a1-4800-8c9c-8dd124efcb03","ios":"levelo://app?vid=6bc55e2d-44a1-4800-8c9c-8dd124efcb03"},"vehicle_type_id":"4","last_reported":1701274178,"current_range_meters":9200,"station_id":"ce4bhip2rcd13ifvqft0","pricing_plan_id":"free"},{"bike_id":"7cdda053-6c47-46e5-af8c-5944bf0d382f","system_id":"levelo_inurba_marseille","lat":43.25576,"lon":5.38232,"is_reserved":false,"is_disabled":false,"rental_uris":{"android":"levelo://app?vid=7cdda053-6c47-46e5-af8c-5944bf0d382f","ios":"levelo://app?vid=7cdda053-6c47-46e5-af8c-5944bf0d382f"},"vehicle_type_id":"4","last_reported":1701274178,"current_range_meters":22400,"station_id":"ce4bhih2rcd13ifvqfs0","pricing_plan_id":"free"},{"bike_id":"e6a0fa7e-13c6-447e-a10e-7d42e6542f53","system_id":"levelo_inurba_marseille","lat":43.258224,"lon":5.394369,"is_reserved":false,"is_disabled":false,"rental_uris":{"android":"levelo://app?vid=e6a0fa7e-13c6-447e-a10e-7d42e6542f53","ios":"levelo://app?vid=e6a0fa7e-13c6-447e-a10e-7d42e6542f53"},"vehicle_type_id":"4","last_reported":1701274178,"current_range_meters":11200,"station_id":"ce4bhip2rcd13ifvqft0","pricing_plan_id":"free"},{"bike_id":"20202c79-ec2f-4f8d-b34b-27225c9a1d52","system_id":"levelo_inurba_marseille","lat":43.254947,"lon":5.376454,"is_reserved":false,"is_disabled":false,"rental_uris":{"android":"levelo://app?vid=20202c79-ec2f-4f8d-b34b-27225c9a1d52","ios":"levelo://app?vid=20202c79-ec2f-4f8d-b34b-27225c9a1d52"},"vehicle_type_id":"4","last_reported":1701274178,"current_range_meters":16800,"station_id":"ce4bhh12rcd13ifvqff0","pricing_plan_id":"free"},{"bike_id":"19029ed7-bf97-4f4d-a8c2-7d27e70ef7f7","system_id":"levelo_inurba_marseille","lat":43.270721,"lon":5.422764,"is_reserved":false,"is_disabled":false,"rental_uris":{"android":"levelo://app?vid=19029ed7-bf97-4f4d-a8c2-7d27e70ef7f7","ios":"levelo://app?vid=19029ed7-bf97-4f4d-a8c2-7d27e70ef7f7"},"vehicle_type_id":"4","last_reported":1701274178,"current_range_meters":27200,"station_id":"ce4bhk92rcd13ifvqgb0","pricing_plan_id":"free"},{"bike_id":"c7d78e9d-629e-4d09-8612-a76051bd8ebb","system_id":"levelo_inurba_marseille","lat":43.258583,"lon":5.399116,"is_reserved":false,"is_disabled":false,"rental_uris":{"android":"levelo://app?vid=c7d78e9d-629e-4d09-8612-a76051bd8ebb","ios":"levelo://app?vid=c7d78e9d-629e-4d09-8612-a76051bd8ebb"},"vehicle_type_id":"4","last_reported":1701274178,"current_range_meters":5600,"station_id":"ce4bhl92rcd13ifvqghg","pricing_plan_id":"free"},{"bike_id":"4c0c3118-7eaa-4ebd-8d87-d449bea3e021","system_id":"levelo_inurba_marseille","lat":43.250897,"lon":5.395161,"is_reserved":false,"is_disabled":false,"rental_uris":{"android":"levelo://app?vid=4c0c3118-7eaa-4ebd-8d87-d449bea3e021","ios":"levelo://app?vid=4c0c3118-7eaa-4ebd-8d87-d449bea3e021"},"vehicle_type_id":"4","last_reported":1701274178,"current_range_meters":12000,"station_id":"ce4bhm12rcd13ifvqgkg","pricing_plan_id":"free"},{"bike_id":"505eb678-293a-4cfa-ad14-fe2b8c41c653","system_id":"levelo_inurba_marseille","lat":43.24693,"lon":5.382096,"is_reserved":false,"is_disabled":false,"rental_uris":{"android":"levelo://app?vid=505eb678-293a-4cfa-ad14-fe2b8c41c653","ios":"levelo://app?vid=505eb678-293a-4cfa-ad14-fe2b8c41c653"},"vehicle_type_id":"4","last_reported":1701274178,"current_range_meters":8400,"station_id":"ce4bhih2rcd13ifvqfr0","pricing_plan_id":"free"},{"bike_id":"0bff7f16-20d9-46cd-99c4-1d7a1e2cea74","system_id":"levelo_inurba_marseille","lat":43.239588,"lon":5.366238,"is_reserved":false,"is_disabled":false,"rental_uris":{"android":"levelo://app?vid=0bff7f16-20d9-46cd-99c4-1d7a1e2cea74","ios":"levelo://app?vid=0bff7f16-20d9-46cd-99c4-1d7a1e2cea74"},"vehicle_type_id":"4","last_reported":1701274178,"current_range_meters":10000,"station_id":"ce4bhi12rcd13ifvqfp0","pricing_plan_id":"free"},{"bike_id":"63bd4a19-cd99-4ff7-9e8c-393fa1c148a0","system_id":"levelo_inurba_marseille","lat":43.239588,"lon":5.366238,"is_reserved":false,"is_disabled":false,"rental_uris":{"android":"levelo://app?vid=63bd4a19-cd99-4ff7-9e8c-393fa1c148a0","ios":"levelo://app?vid=63bd4a19-cd99-4ff7-9e8c-393fa1c148a0"},"vehicle_type_id":"4","last_reported":1701274178,"current_range_meters":26000,"station_id":"ce4bhi12rcd13ifvqfp0","pricing_plan_id":"free"},{"bike_id":"24f5f3ba-b636-4a56-8e7c-32b430badbb8","system_id":"levelo_inurba_marseille","lat":43.24183,"lon":5.3972,"is_reserved":false,"is_disabled":false,"rental_uris":{"android":"levelo://app?vid=24f5f3ba-b636-4a56-8e7c-32b430badbb8","ios":"levelo://app?vid=24f5f3ba-b636-4a56-8e7c-32b430badbb8"},"vehicle_type_id":"4","last_reported":1701274178,"current_range_meters":9600,"station_id":"ce4bhn12rcd13ifvqgpg","pricing_plan_id":"free"},{"bike_id":"bea567f7-6fcb-41d7-a96f-2bc90daff196","system_id":"levelo_inurba_marseille","lat":43.241782,"lon":5.397261,"is_reserved":false,"is_disabled":false,"rental_uris":{"android":"levelo://app?vid=bea567f7-6fcb-41d7-a96f-2bc90daff196","ios":"levelo://app?vid=bea567f7-6fcb-41d7-a96f-2bc90daff196"},"vehicle_type_id":"4","last_reported":1701274178,"current_range_meters":0,"station_id":"ce4bhn12rcd13ifvqgpg","pricing_plan_id":"free"},{"bike_id":"50b999f0-a7e1-409d-a700-7fcdf83af651","system_id":"levelo_inurba_marseille","lat":43.231923,"lon":5.355545,"is_reserved":false,"is_disabled":false,"rental_uris":{"android":"levelo://app?vid=50b999f0-a7e1-409d-a700-7fcdf83af651","ios":"levelo://app?vid=50b999f0-a7e1-409d-a700-7fcdf83af651"},"vehicle_type_id":"4","last_reported":1701274178,"current_range_meters":11200,"station_id":"ce4bhu92rcd13ifvqi70","pricing_plan_id":"free"},{"bike_id":"6a15bd61-65f5-44c0-9706-42eeb78c349c","system_id":"levelo_inurba_marseille","lat":43.231919,"lon":5.355532,"is_reserved":false,"is_disabled":false,"rental_uris":{"android":"levelo://app?vid=6a15bd61-65f5-44c0-9706-42eeb78c349c","ios":"levelo://app?vid=6a15bd61-65f5-44c0-9706-42eeb78c349c"},"vehicle_type_id":"4","last_reported":1701274178,"current_range_meters":30400,"station_id":"ce4bhu92rcd13ifvqi70","pricing_plan_id":"free"},{"bike_id":"be42eec5-4aaf-4f1c-8445-219a8901db92","system_id":"levelo_inurba_marseille","lat":43.231923,"lon":5.355545,"is_reserved":false,"is_disabled":false,"rental_uris":{"android":"levelo://app?vid=be42eec5-4aaf-4f1c-8445-219a8901db92","ios":"levelo://app?vid=be42eec5-4aaf-4f1c-8445-219a8901db92"},"vehicle_type_id":"4","last_reported":1701274178,"current_range_meters":4000,"station_id":"ce4bhu92rcd13ifvqi70","pricing_plan_id":"free"},{"bike_id":"26cd3036-9e31-4635-8449-e01c086f6041","system_id":"levelo_inurba_marseille","lat":43.231923,"lon":5.355545,"is_reserved":false,"is_disabled":false,"rental_uris":{"android":"levelo://app?vid=26cd3036-9e31-4635-8449-e01c086f6041","ios":"levelo://app?vid=26cd3036-9e31-4635-8449-e01c086f6041"},"vehicle_type_id":"4","last_reported":1701274178,"current_range_meters":22000,"station_id":"ce4bhu92rcd13ifvqi70","pricing_plan_id":"free"},{"bike_id":"b37cf8bc-ef87-4960-b38c-3279b894369f","system_id":"levelo_inurba_marseille","lat":43.231923,"lon":5.355545,"is_reserved":false,"is_disabled":false,"rental_uris":{"android":"levelo://app?vid=b37cf8bc-ef87-4960-b38c-3279b894369f","ios":"levelo://app?vid=b37cf8bc-ef87-4960-b38c-3279b894369f"},"vehicle_type_id":"4","last_reported":1701274178,"current_range_meters":31200,"station_id":"ce4bhu92rcd13ifvqi70","pricing_plan_id":"free"},{"bike_id":"3bbe1fd5-b7d2-484c-969b-f57a381950c3","system_id":"levelo_inurba_marseille","lat":43.231923,"lon":5.355545,"is_reserved":false,"is_disabled":false,"rental_uris":{"android":"levelo://app?vid=3bbe1fd5-b7d2-484c-969b-f57a381950c3","ios":"levelo://app?vid=3bbe1fd5-b7d2-484c-969b-f57a381950c3"},"vehicle_type_id":"4","last_reported":1701274178,"current_range_meters":14800,"station_id":"ce4bhu92rcd13ifvqi70","pricing_plan_id":"free"},{"bike_id":"d1703505-b125-4a98-a807-11024241bc04","system_id":"levelo_inurba_marseille","lat":43.231923,"lon":5.355545,"is_reserved":false,"is_disabled":false,"rental_uris":{"android":"levelo://app?vid=d1703505-b125-4a98-a807-11024241bc04","ios":"levelo://app?vid=d1703505-b125-4a98-a807-11024241bc04"},"vehicle_type_id":"4","last_reported":1701274178,"current_range_meters":31200,"station_id":"ce4bhu92rcd13ifvqi70","pricing_plan_id":"free"},{"bike_id":"a123f917-d4fa-4f0d-b55f-93bf63847c0d","system_id":"levelo_inurba_marseille","lat":43.231793,"lon":5.400044,"is_reserved":false,"is_disabled":false,"rental_uris":{"android":"levelo://app?vid=a123f917-d4fa-4f0d-b55f-93bf63847c0d","ios":"levelo://app?vid=a123f917-d4fa-4f0d-b55f-93bf63847c0d"},"vehicle_type_id":"4","last_reported":1701274178,"current_range_meters":22800,"station_id":"ce4bhn12rcd13ifvqgqg","pricing_plan_id":"free"},{"bike_id":"c0c7fee1-5737-446f-a765-fa607e9e3e85","system_id":"levelo_inurba_marseille","lat":43.231793,"lon":5.400044,"is_reserved":false,"is_disabled":false,"rental_uris":{"android":"levelo://app?vid=c0c7fee1-5737-446f-a765-fa607e9e3e85","ios":"levelo://app?vid=c0c7fee1-5737-446f-a765-fa607e9e3e85"},"vehicle_type_id":"4","last_reported":1701274178,"current_range_meters":20800,"station_id":"ce4bhn12rcd13ifvqgqg","pricing_plan_id":"free"},{"bike_id":"017c7298-0a0b-4b52-accd-1cfa244cac68","system_id":"levelo_inurba_marseille","lat":43.231793,"lon":5.400044,"is_reserved":false,"is_disabled":false,"rental_uris":{"android":"levelo://app?vid=017c7298-0a0b-4b52-accd-1cfa244cac68","ios":"levelo://app?vid=017c7298-0a0b-4b52-accd-1cfa244cac68"},"vehicle_type_id":"4","last_reported":1701274178,"current_range_meters":31200,"station_id":"ce4bhn12rcd13ifvqgqg","pricing_plan_id":"free"},{"bike_id":"4c237336-21e8-4e0a-9616-9e2641a26769","system_id":"levelo_inurba_marseille","lat":43.231793,"lon":5.400044,"is_reserved":false,"is_disabled":false,"rental_uris":{"android":"levelo://app?vid=4c237336-21e8-4e0a-9616-9e2641a26769","ios":"levelo://app?vid=4c237336-21e8-4e0a-9616-9e2641a26769"},"vehicle_type_id":"4","last_reported":1701274178,"current_range_meters":30800,"station_id":"ce4bhn12rcd13ifvqgqg","pricing_plan_id":"free"},{"bike_id":"aa92b96d-64d8-4c3b-a126-5fd9d905cd28","system_id":"levelo_inurba_marseille","lat":43.231793,"lon":5.400044,"is_reserved":false,"is_disabled":false,"rental_uris":{"android":"levelo://app?vid=aa92b96d-64d8-4c3b-a126-5fd9d905cd28","ios":"levelo://app?vid=aa92b96d-64d8-4c3b-a126-5fd9d905cd28"},"vehicle_type_id":"4","last_reported":1701274178,"current_range_meters":31200,"station_id":"ce4bhn12rcd13ifvqgqg","pricing_plan_id":"free"},{"bike_id":"bf302e61-4f67-454e-a18b-ae01c9d54d0c","system_id":"levelo_inurba_marseille","lat":43.231793,"lon":5.400044,"is_reserved":false,"is_disabled":false,"rental_uris":{"android":"levelo://app?vid=bf302e61-4f67-454e-a18b-ae01c9d54d0c","ios":"levelo://app?vid=bf302e61-4f67-454e-a18b-ae01c9d54d0c"},"vehicle_type_id":"4","last_reported":1701274178,"current_range_meters":20400,"station_id":"ce4bhn12rcd13ifvqgqg","pricing_plan_id":"free"},{"bike_id":"10d1ae25-34b7-4b8a-8b80-b7dc1b15235b","system_id":"levelo_inurba_marseille","lat":43.231793,"lon":5.400044,"is_reserved":false,"is_disabled":false,"rental_uris":{"android":"levelo://app?vid=10d1ae25-34b7-4b8a-8b80-b7dc1b15235b","ios":"levelo://app?vid=10d1ae25-34b7-4b8a-8b80-b7dc1b15235b"},"vehicle_type_id":"4","last_reported":1701274178,"current_range_meters":27600,"station_id":"ce4bhn12rcd13ifvqgqg","pricing_plan_id":"free"},{"bike_id":"06853db6-aa55-4d29-9d8f-a856bd2de594","system_id":"levelo_inurba_marseille","lat":43.231793,"lon":5.400044,"is_reserved":false,"is_disabled":false,"rental_uris":{"android":"levelo://app?vid=06853db6-aa55-4d29-9d8f-a856bd2de594","ios":"levelo://app?vid=06853db6-aa55-4d29-9d8f-a856bd2de594"},"vehicle_type_id":"4","last_reported":1701274178,"current_range_meters":25600,"station_id":"ce4bhn12rcd13ifvqgqg","pricing_plan_id":"free"},{"bike_id":"bf960234-cffc-43d1-ad60-fe105776c7f7","system_id":"levelo_inurba_marseille","lat":43.23184,"lon":5.39996,"is_reserved":false,"is_disabled":false,"rental_uris":{"android":"levelo://app?vid=bf960234-cffc-43d1-ad60-fe105776c7f7","ios":"levelo://app?vid=bf960234-cffc-43d1-ad60-fe105776c7f7"},"vehicle_type_id":"4","last_reported":1701274178,"current_range_meters":0,"station_id":"ce4bhn12rcd13ifvqgqg","pricing_plan_id":"free"},{"bike_id":"5aaac2be-844c-4cf3-8da3-46c7e8da8247","system_id":"levelo_inurba_marseille","lat":43.231793,"lon":5.400044,"is_reserved":false,"is_disabled":false,"rental_uris":{"android":"levelo://app?vid=5aaac2be-844c-4cf3-8da3-46c7e8da8247","ios":"levelo://app?vid=5aaac2be-844c-4cf3-8da3-46c7e8da8247"},"vehicle_type_id":"4","last_reported":1701274178,"current_range_meters":10800,"station_id":"ce4bhn12rcd13ifvqgqg","pricing_plan_id":"free"},{"bike_id":"57846190-b643-4846-bc08-c6930e85c5f6","system_id":"levelo_inurba_marseille","lat":43.231794,"lon":5.400052,"is_reserved":false,"is_disabled":false,"rental_uris":{"android":"levelo://app?vid=57846190-b643-4846-bc08-c6930e85c5f6","ios":"levelo://app?vid=57846190-b643-4846-bc08-c6930e85c5f6"},"vehicle_type_id":"4","last_reported":1701274178,"current_range_meters":19600,"station_id":"ce4bhn12rcd13ifvqgqg","pricing_plan_id":"free"},{"bike_id":"5c24af45-4ee2-4093-93e4-b4426fd403c2","system_id":"levelo_inurba_marseille","lat":43.231794,"lon":5.400052,"is_reserved":false,"is_disabled":false,"rental_uris":{"android":"levelo://app?vid=5c24af45-4ee2-4093-93e4-b4426fd403c2","ios":"levelo://app?vid=5c24af45-4ee2-4093-93e4-b4426fd403c2"},"vehicle_type_id":"4","last_reported":1701274178,"current_range_meters":28800,"station_id":"ce4bhn12rcd13ifvqgqg","pricing_plan_id":"free"},{"bike_id":"5ff68776-d431-4895-866c-f190f6faec3c","system_id":"levelo_inurba_marseille","lat":43.231793,"lon":5.400044,"is_reserved":false,"is_disabled":false,"rental_uris":{"android":"levelo://app?vid=5ff68776-d431-4895-866c-f190f6faec3c","ios":"levelo://app?vid=5ff68776-d431-4895-866c-f190f6faec3c"},"vehicle_type_id":"4","last_reported":1701274178,"current_range_meters":31200,"station_id":"ce4bhn12rcd13ifvqgqg","pricing_plan_id":"free"},{"bike_id":"096e9a0a-2a1e-4ed8-9541-9f1603c40ac2","system_id":"levelo_inurba_marseille","lat":43.231585,"lon":5.43706,"is_reserved":false,"is_disabled":false,"rental_uris":{"android":"levelo://app?vid=096e9a0a-2a1e-4ed8-9541-9f1603c40ac2","ios":"levelo://app?vid=096e9a0a-2a1e-4ed8-9541-9f1603c40ac2"},"vehicle_type_id":"4","last_reported":1701274178,"current_range_meters":25600,"station_id":"ce4bhmp2rcd13ifvqgog","pricing_plan_id":"free"}]}}