{"last_updated":1781262841,"ttl":60,"version":"2.2","data":{"bikes":[{"bike_id":"ec12d144-24c8-4071-abf6-197e520eae96","system_id":"levelo_inurba_marseille","lat":43.337444,"lon":5.374475,"is_reserved":false,"is_disabled":false,"rental_uris":{"android":"levelo://app?vid=ec12d144-24c8-4071-abf6-197e520eae96","ios":"levelo://app?vid=ec12d144-24c8-4071-abf6-197e520eae96"},"vehicle_type_id":"4","last_reported":1781262842,"current_range_meters":0,"station_id":"","pricing_plan_id":"cebpf4jnsgd1na2vs0mg"},{"bike_id":"31d391cf-deb0-4bdc-8122-c7bce88320de","system_id":"levelo_inurba_marseille","lat":43.28528,"lon":5.38358,"is_reserved":false,"is_disabled":false,"rental_uris":{"android":"levelo://app?vid=31d391cf-deb0-4bdc-8122-c7bce88320de","ios":"levelo://app?vid=31d391cf-deb0-4bdc-8122-c7bce88320de"},"vehicle_type_id":"4","last_reported":1781262842,"current_range_meters":2800,"station_id":"","pricing_plan_id":"cebpf4jnsgd1na2vs0mg"},{"bike_id":"06b0e4c9-7d0e-4204-99ac-ea2c0040b0a5","system_id":"levelo_inurba_marseille","lat":43.27915,"lon":5.41058,"is_reserved":false,"is_disabled":true,"rental_uris":{"android":"levelo://app?vid=06b0e4c9-7d0e-4204-99ac-ea2c0040b0a5","ios":"levelo://app?vid=06b0e4c9-7d0e-4204-99ac-ea2c0040b0a5"},"vehicle_type_id":"4","last_reported":1781262842,"current_range_meters":2800,"station_id":"ce4bhnp2rcd13ifvqh0g","pricing_plan_id":"cebpf4jnsgd1na2vs0mg"},{"bike_id":"a49e079e-56e5-45de-9def-f5d53e5437d9","system_id":"levelo_inurba_marseille","lat":43.28042,"lon":5.35315,"is_reserved":false,"is_disabled":false,"rental_uris":{"android":"levelo://app?vid=a49e079e-56e5-45de-9def-f5d53e5437d9","ios":"levelo://app?vid=a49e079e-56e5-45de-9def-f5d53e5437d9"},"vehicle_type_id":"4","last_reported":1781262842,"current_range_meters":2800,"station_id":"","pricing_plan_id":"cebpf4jnsgd1na2vs0mg"},{"bike_id":"8e1bc8ab-341d-4e90-9a05-52978b7143b9","system_id":"levelo_inurba_marseille","lat":43.23151,"lon":5.43713,"is_reserved":false,"is_disabled":false,"rental_uris":{"android":"levelo://app?vid=8e1bc8ab-341d-4e90-9a05-52978b7143b9","ios":"levelo://app?vid=8e1bc8ab-341d-4e90-9a05-52978b7143b9"},"vehicle_type_id":"4","last_reported":1781262842,"current_range_meters":2800,"station_id":"ce4bhmp2rcd13ifvqgog","pricing_plan_id":"cebpf4jnsgd1na2vs0mg"},{"bike_id":"7a2582a1-9f4e-4b77-a662-c666529e13ef","system_id":"levelo_inurba_marseille","lat":43.28057,"lon":5.35007,"is_reserved":false,"is_disabled":false,"rental_uris":{"android":"levelo://app?vid=7a2582a1-9f4e-4b77-a662-c666529e13ef","ios":"levelo://app?vid=7a2582a1-9f4e-4b77-a662-c666529e13ef"},"vehicle_type_id":"4","last_reported":1781262842,"current_range_meters":2800,"station_id":"","pricing_plan_id":"cebpf4jnsgd1na2vs0mg"},{"bike_id":"8cbea2bf-781e-4c3a-919f-503df9f0a6af","system_id":"levelo_inurba_marseille","lat":43.25588,"lon":5.38257,"is_reserved":false,"is_disabled":false,"rental_uris":{"android":"levelo://app?vid=8cbea2bf-781e-4c3a-919f-503df9f0a6af","ios":"levelo://app?vid=8cbea2bf-781e-4c3a-919f-503df9f0a6af"},"vehicle_type_id":"4","last_reported":1781262842,"current_range_meters":2800,"station_id":"ce4bhih2rcd13ifvqfs0","pricing_plan_id":"cebpf4jnsgd1na2vs0mg"},{"bike_id":"f7e5654c-8a58-4f2c-be0c-f4bf998dd19f","system_id":"levelo_inurba_marseille","lat":43.27216,"lon":5.39177,"is_reserved":false,"is_disabled":false,"rental_uris":{"android":"levelo://app?vid=f7e5654c-8a58-4f2c-be0c-f4bf998dd19f","ios":"levelo://app?vid=f7e5654c-8a58-4f2c-be0c-f4bf998dd19f"},"vehicle_type_id":"4","last_reported":1781262842,"current_range_meters":2800,"station_id":"ce4bhhp2rcd13ifvqfm0","pricing_plan_id":"cebpf4jnsgd1na2vs0mg"},{"bike_id":"29683b90-759a-4a70-93ff-7931bacd7747","system_id":"levelo_inurba_marseille","lat":43.27821,"lon":5.40711,"is_reserved":false,"is_disabled":false,"rental_uris":{"android":"levelo://app?vid=29683b90-759a-4a70-93ff-7931bacd7747","ios":"levelo://app?vid=29683b90-759a-4a70-93ff-7931bacd7747"},"vehicle_type_id":"4","last_reported":1781262842,"current_range_meters":2800,"station_id":"ce4bhnh2rcd13ifvqgtg","pricing_plan_id":"cebpf4jnsgd1na2vs0mg"},{"bike_id":"2a3b545f-3616-4389-83b3-f70139b2a73b","system_id":"levelo_inurba_marseille","lat":43.29269,"lon":5.38436,"is_reserved":false,"is_disabled":false,"rental_uris":{"android":"levelo://app?vid=2a3b545f-3616-4389-83b3-f70139b2a73b","ios":"levelo://app?vid=2a3b545f-3616-4389-83b3-f70139b2a73b"},"vehicle_type_id":"4","last_reported":1781262842,"current_range_meters":2800,"station_id":"ce4bh692rcd13ifvqea0","pricing_plan_id":"cebpf4jnsgd1na2vs0mg"},{"bike_id":"7c131e63-4882-494d-814c-185065bffc7c","system_id":"levelo_inurba_marseille","lat":43.28479,"lon":5.48396,"is_reserved":false,"is_disabled":false,"rental_uris":{"android":"levelo://app?vid=7c131e63-4882-494d-814c-185065bffc7c","ios":"levelo://app?vid=7c131e63-4882-494d-814c-185065bffc7c"},"vehicle_type_id":"4","last_reported":1781262842,"current_range_meters":2800,"station_id":"st_d3svhcjqgbts73a3dn0g","pricing_plan_id":"cebpf4jnsgd1na2vs0mg"},{"bike_id":"4343f291-38b8-47e7-a883-039a0fd0f77e","system_id":"levelo_inurba_marseille","lat":43.32088,"lon":5.36801,"is_reserved":false,"is_disabled":false,"rental_uris":{"android":"levelo://app?vid=4343f291-38b8-47e7-a883-039a0fd0f77e","ios":"levelo://app?vid=4343f291-38b8-47e7-a883-039a0fd0f77e"},"vehicle_type_id":"4","last_reported":1781262842,"current_range_meters":2800,"station_id":"ce4bhrh2rcd13ifvqhug","pricing_plan_id":"cebpf4jnsgd1na2vs0mg"},{"bike_id":"4732a0d1-3fa5-452c-9e2e-c1c514ab034b","system_id":"levelo_inurba_marseille","lat":43.2479,"lon":5.37342,"is_reserved":false,"is_disabled":false,"rental_uris":{"android":"levelo://app?vid=4732a0d1-3fa5-452c-9e2e-c1c514ab034b","ios":"levelo://app?vid=4732a0d1-3fa5-452c-9e2e-c1c514ab034b"},"vehicle_type_id":"4","last_reported":1781262842,"current_range_meters":2800,"station_id":"","pricing_plan_id":"cebpf4jnsgd1na2vs0mg"},{"bike_id":"1d9aba81-dc29-4e2f-a7f3-244302318ea7","system_id":"levelo_inurba_marseille","lat":43.299416,"lon":5.36561,"is_reserved":false,"is_disabled":false,"rental_uris":{"android":"levelo://app?vid=1d9aba81-dc29-4e2f-a7f3-244302318ea7","ios":"levelo://app?vid=1d9aba81-dc29-4e2f-a7f3-244302318ea7"},"vehicle_type_id":"4","last_reported":1781262842,"current_range_meters":2800,"station_id":"ce4bgm92rcd13ifvqbr0","pricing_plan_id":"cebpf4jnsgd1na2vs0mg"},{"bike_id":"a8f48de2-dc9e-481c-8d1d-19409f6dbac1","system_id":"levelo_inurba_marseille","lat":43.28233,"lon":5.390674,"is_reserved":false,"is_disabled":false,"rental_uris":{"android":"levelo://app?vid=a8f48de2-dc9e-481c-8d1d-19409f6dbac1","ios":"levelo://app?vid=a8f48de2-dc9e-481c-8d1d-19409f6dbac1"},"vehicle_type_id":"4","last_reported":1781262842,"current_range_meters":2800,"station_id":"ce4bhn92rcd13ifvqgsg","pricing_plan_id":"cebpf4jnsgd1na2vs0mg"},{"bike_id":"3815202b-f051-4785-a52d-048a09751a00","system_id":"levelo_inurba_marseille","lat":43.31052,"lon":5.37174,"is_reserved":false,"is_disabled":false,"rental_uris":{"android":"levelo://app?vid=3815202b-f051-4785-a52d-048a09751a00","ios":"levelo://app?vid=3815202b-f051-4785-a52d-048a09751a00"},"vehicle_type_id":"4","last_reported":1781262842,"current_range_meters":2800,"station_id":"st_d4kl2rp97mjs73e7tdfg","pricing_plan_id":"cebpf4jnsgd1na2vs0mg"},{"bike_id":"88949e97-ea99-476c-ba28-c1866e7aaf2b","system_id":"levelo_inurba_marseille","lat":43.29018,"lon":5.38135,"is_reserved":false,"is_disabled":false,"rental_uris":{"android":"levelo://app?vid=88949e97-ea99-476c-ba28-c1866e7aaf2b","ios":"levelo://app?vid=88949e97-ea99-476c-ba28-c1866e7aaf2b"},"vehicle_type_id":"4","last_reported":1781262842,"current_range_meters":2800,"station_id":"ce4bh4p2rcd13ifvqe1g","pricing_plan_id":"cebpf4jnsgd1na2vs0mg"},{"bike_id":"fafdb545-4263-4738-90a4-2c4a24e0b45a","system_id":"levelo_inurba_marseille","lat":43.3336,"lon":5.41104,"is_reserved":false,"is_disabled":false,"rental_uris":{"android":"levelo://app?vid=fafdb545-4263-4738-90a4-2c4a24e0b45a","ios":"levelo://app?vid=fafdb545-4263-4738-90a4-2c4a24e0b45a"},"vehicle_type_id":"4","last_reported":1781262842,"current_range_meters":2800,"station_id":"","pricing_plan_id":"cebpf4jnsgd1na2vs0mg"},{"bike_id":"af070e63-d33c-4ef7-a779-494ca2ab7f68","system_id":"levelo_inurba_marseille","lat":43.28263,"lon":5.35072,"is_reserved":false,"is_disabled":false,"rental_uris":{"android":"levelo://app?vid=af070e63-d33c-4ef7-a779-494ca2ab7f68","ios":"levelo://app?vid=af070e63-d33c-4ef7-a779-494ca2ab7f68"},"vehicle_type_id":"4","last_reported":1781262842,"current_range_meters":3200,"station_id":"ce4bhbp2rcd13ifvqerg","pricing_plan_id":"cebpf4jnsgd1na2vs0mg"},{"bike_id":"0027b49c-8d97-4bbf-bb79-10e10ee4b7f6","system_id":"levelo_inurba_marseille","lat":43.26581,"lon":5.39039,"is_reserved":false,"is_disabled":false,"rental_uris":{"android":"levelo://app?vid=0027b49c-8d97-4bbf-bb79-10e10ee4b7f6","ios":"levelo://app?vid=0027b49c-8d97-4bbf-bb79-10e10ee4b7f6"},"vehicle_type_id":"4","last_reported":1781262842,"current_range_meters":3200,"station_id":"ce4bhe12rcd13ifvqf30","pricing_plan_id":"cebpf4jnsgd1na2vs0mg"},{"bike_id":"b1946b07-3573-4510-9ec6-c87918a09505","system_id":"levelo_inurba_marseille","lat":43.26199,"lon":5.40446,"is_reserved":false,"is_disabled":false,"rental_uris":{"android":"levelo://app?vid=b1946b07-3573-4510-9ec6-c87918a09505","ios":"levelo://app?vid=b1946b07-3573-4510-9ec6-c87918a09505"},"vehicle_type_id":"4","last_reported":1781262842,"current_range_meters":3200,"station_id":"ce4bhmh2rcd13ifvqgmg","pricing_plan_id":"cebpf4jnsgd1na2vs0mg"},{"bike_id":"ead06185-83ad-46af-bbf8-3154a394a502","system_id":"levelo_inurba_marseille","lat":43.28856,"lon":5.38231,"is_reserved":false,"is_disabled":false,"rental_uris":{"android":"levelo://app?vid=ead06185-83ad-46af-bbf8-3154a394a502","ios":"levelo://app?vid=ead06185-83ad-46af-bbf8-3154a394a502"},"vehicle_type_id":"4","last_reported":1781262842,"current_range_meters":3200,"station_id":"","pricing_plan_id":"cebpf4jnsgd1na2vs0mg"},{"bike_id":"581eb976-4601-4f87-b521-f567cf030906","system_id":"levelo_inurba_marseille","lat":43.23953,"lon":5.4381,"is_reserved":false,"is_disabled":false,"rental_uris":{"android":"levelo://app?vid=581eb976-4601-4f87-b521-f567cf030906","ios":"levelo://app?vid=581eb976-4601-4f87-b521-f567cf030906"},"vehicle_type_id":"4","last_reported":1781262842,"current_range_meters":3200,"station_id":"","pricing_plan_id":"cebpf4jnsgd1na2vs0mg"},{"bike_id":"6bcc356f-7f69-45b4-a42f-c8af24594173","system_id":"levelo_inurba_marseille","lat":43.29631,"lon":5.3804,"is_reserved":false,"is_disabled":false,"rental_uris":{"android":"levelo://app?vid=6bcc356f-7f69-45b4-a42f-c8af24594173","ios":"levelo://app?vid=6bcc356f-7f69-45b4-a42f-c8af24594173"},"vehicle_type_id":"4","last_reported":1781262842,"current_range_meters":3200,"station_id":"","pricing_plan_id":"cebpf4jnsgd1na2vs0mg"},{"bike_id":"554a8513-7782-45c4-b646-2d1e5c4fb6e0","system_id":"levelo_inurba_marseille","lat":43.31223,"lon":5.36855,"is_reserved":false,"is_disabled":false,"rental_uris":{"android":"levelo://app?vid=554a8513-7782-45c4-b646-2d1e5c4fb6e0","ios":"levelo://app?vid=554a8513-7782-45c4-b646-2d1e5c4fb6e0"},"vehicle_type_id":"4","last_reported":1781262842,"current_range_meters":3200,"station_id":"","pricing_plan_id":"cebpf4jnsgd1na2vs0mg"},{"bike_id":"7d697069-780e-4659-8b0f-5679ab0c3df7","system_id":"levelo_inurba_marseille","lat":43.22572,"lon":5.41635,"is_reserved":false,"is_disabled":false,"rental_uris":{"android":"levelo://app?vid=7d697069-780e-4659-8b0f-5679ab0c3df7","ios":"levelo://app?vid=7d697069-780e-4659-8b0f-5679ab0c3df7"},"vehicle_type_id":"4","last_reported":1781262842,"current_range_meters":3200,"station_id":"st_d2o4gvlbi1j2169b742g","pricing_plan_id":"cebpf4jnsgd1na2vs0mg"},{"bike_id":"e47dfd39-5c0c-45eb-a41f-cf3fd7d5df32","system_id":"levelo_inurba_marseille","lat":43.28966,"lon":5.4611,"is_reserved":false,"is_disabled":true,"rental_uris":{"android":"levelo://app?vid=e47dfd39-5c0c-45eb-a41f-cf3fd7d5df32","ios":"levelo://app?vid=e47dfd39-5c0c-45eb-a41f-cf3fd7d5df32"},"vehicle_type_id":"4","last_reported":1781262842,"current_range_meters":3200,"station_id":"","pricing_plan_id":"cebpf4jnsgd1na2vs0mg"},{"bike_id":"c7e4dd65-c36b-4bdd-a7ed-7a1a867cae26","system_id":"levelo_inurba_marseille","lat":43.29056,"lon":5.35938,"is_reserved":false,"is_disabled":true,"rental_uris":{"android":"levelo://app?vid=c7e4dd65-c36b-4bdd-a7ed-7a1a867cae26","ios":"levelo://app?vid=c7e4dd65-c36b-4bdd-a7ed-7a1a867cae26"},"vehicle_type_id":"4","last_reported":1781262842,"current_range_meters":3200,"station_id":"ce4bha92rcd13ifvqeg0","pricing_plan_id":"cebpf4jnsgd1na2vs0mg"},{"bike_id":"8877cbfe-c174-4864-a2ef-3bd76abdd4a6","system_id":"levelo_inurba_marseille","lat":43.30455,"lon":5.3986,"is_reserved":false,"is_disabled":false,"rental_uris":{"android":"levelo://app?vid=8877cbfe-c174-4864-a2ef-3bd76abdd4a6","ios":"levelo://app?vid=8877cbfe-c174-4864-a2ef-3bd76abdd4a6"},"vehicle_type_id":"4","last_reported":1781262842,"current_range_meters":3200,"station_id":"","pricing_plan_id":"cebpf4jnsgd1na2vs0mg"},{"bike_id":"d5eafbe3-3c74-45a5-9481-9f0cd19f24a1","system_id":"levelo_inurba_marseille","lat":43.273695,"lon":5.41969,"is_reserved":false,"is_disabled":false,"rental_uris":{"android":"levelo://app?vid=d5eafbe3-3c74-45a5-9481-9f0cd19f24a1","ios":"levelo://app?vid=d5eafbe3-3c74-45a5-9481-9f0cd19f24a1"},"vehicle_type_id":"4","last_reported":1781262842,"current_range_meters":3200,"station_id":"ce4bhk92rcd13ifvqgb0","pricing_plan_id":"cebpf4jnsgd1na2vs0mg"},{"bike_id":"ee630227-b472-4a9b-99e9-bdd036978952","system_id":"levelo_inurba_marseille","lat":43.28593,"lon":5.39406,"is_reserved":false,"is_disabled":false,"rental_uris":{"android":"levelo://app?vid=ee630227-b472-4a9b-99e9-bdd036978952","ios":"levelo://app?vid=ee630227-b472-4a9b-99e9-bdd036978952"},"vehicle_type_id":"4","last_reported":1781262842,"current_range_meters":3200,"station_id":"","pricing_plan_id":"cebpf4jnsgd1na2vs0mg"},{"bike_id":"33f536de-b09d-4ea8-ae30-d76440f80ea2","system_id":"levelo_inurba_marseille","lat":43.24763,"lon":5.37364,"is_reserved":false,"is_disabled":false,"rental_uris":{"android":"levelo://app?vid=33f536de-b09d-4ea8-ae30-d76440f80ea2","ios":"levelo://app?vid=33f536de-b09d-4ea8-ae30-d76440f80ea2"},"vehicle_type_id":"4","last_reported":1781262842,"current_range_meters":3200,"station_id":"","pricing_plan_id":"cebpf4jnsgd1na2vs0mg"},{"bike_id":"a5738529-d6fe-4d63-b356-4ef3c5027584","system_id":"levelo_inurba_marseille","lat":43.24936,"lon":5.39009,"is_reserved":false,"is_disabled":false,"rental_uris":{"android":"levelo://app?vid=a5738529-d6fe-4d63-b356-4ef3c5027584","ios":"levelo://app?vid=a5738529-d6fe-4d63-b356-4ef3c5027584"},"vehicle_type_id":"4","last_reported":1781262842,"current_range_meters":3200,"station_id":"","pricing_plan_id":"cebpf4jnsgd1na2vs0mg"},{"bike_id":"3baa0b0a-3f15-4a6e-8e8a-c926251735e9","system_id":"levelo_inurba_marseille","lat":43.30545,"lon":5.36514,"is_reserved":false,"is_disabled":true,"rental_uris":{"android":"levelo://app?vid=3baa0b0a-3f15-4a6e-8e8a-c926251735e9","ios":"levelo://app?vid=3baa0b0a-3f15-4a6e-8e8a-c926251735e9"},"vehicle_type_id":"4","last_reported":1781262842,"current_range_meters":3600,"station_id":"ce4bgs12rcd13ifvqcag","pricing_plan_id":"cebpf4jnsgd1na2vs0mg"},{"bike_id":"4d0a5cb1-92e4-47f9-a384-583848565727","system_id":"levelo_inurba_marseille","lat":43.27426,"lon":5.39424,"is_reserved":false,"is_disabled":false,"rental_uris":{"android":"levelo://app?vid=4d0a5cb1-92e4-47f9-a384-583848565727","ios":"levelo://app?vid=4d0a5cb1-92e4-47f9-a384-583848565727"},"vehicle_type_id":"4","last_reported":1781262842,"current_range_meters":3600,"station_id":"ce4bhdp2rcd13ifvqf20","pricing_plan_id":"cebpf4jnsgd1na2vs0mg"},{"bike_id":"758b8575-bd39-4c4b-83ba-b708bb22f91d","system_id":"levelo_inurba_marseille","lat":43.2755,"lon":5.35963,"is_reserved":false,"is_disabled":false,"rental_uris":{"android":"levelo://app?vid=758b8575-bd39-4c4b-83ba-b708bb22f91d","ios":"levelo://app?vid=758b8575-bd39-4c4b-83ba-b708bb22f91d"},"vehicle_type_id":"4","last_reported":1781262842,"current_range_meters":3600,"station_id":"","pricing_plan_id":"cebpf4jnsgd1na2vs0mg"},{"bike_id":"136f22dd-7519-4f19-a44c-ea3115340aea","system_id":"levelo_inurba_marseille","lat":43.3046,"lon":5.37892,"is_reserved":false,"is_disabled":false,"rental_uris":{"android":"levelo://app?vid=136f22dd-7519-4f19-a44c-ea3115340aea","ios":"levelo://app?vid=136f22dd-7519-4f19-a44c-ea3115340aea"},"vehicle_type_id":"4","last_reported":1781262842,"current_range_meters":3600,"station_id":"ce4bgup2rcd13ifvqcn0","pricing_plan_id":"cebpf4jnsgd1na2vs0mg"},{"bike_id":"548ca3f8-bc2d-46ba-bbc0-fa615c1c43dc","system_id":"levelo_inurba_marseille","lat":43.27666,"lon":5.38876,"is_reserved":false,"is_disabled":true,"rental_uris":{"android":"levelo://app?vid=548ca3f8-bc2d-46ba-bbc0-fa615c1c43dc","ios":"levelo://app?vid=548ca3f8-bc2d-46ba-bbc0-fa615c1c43dc"},"vehicle_type_id":"4","last_reported":1781262842,"current_range_meters":3600,"station_id":"ce4bhi12rcd13ifvqfo0","pricing_plan_id":"cebpf4jnsgd1na2vs0mg"},{"bike_id":"8184427b-bea5-4494-bb32-41fffc6d9711","system_id":"levelo_inurba_marseille","lat":43.25593,"lon":5.38253,"is_reserved":false,"is_disabled":false,"rental_uris":{"android":"levelo://app?vid=8184427b-bea5-4494-bb32-41fffc6d9711","ios":"levelo://app?vid=8184427b-bea5-4494-bb32-41fffc6d9711"},"vehicle_type_id":"4","last_reported":1781262842,"current_range_meters":3600,"station_id":"ce4bhih2rcd13ifvqfs0","pricing_plan_id":"cebpf4jnsgd1na2vs0mg"},{"bike_id":"4fc6337d-6b19-4255-8a37-59c3fd614895","system_id":"levelo_inurba_marseille","lat":43.26581,"lon":5.39002,"is_reserved":false,"is_disabled":false,"rental_uris":{"android":"levelo://app?vid=4fc6337d-6b19-4255-8a37-59c3fd614895","ios":"levelo://app?vid=4fc6337d-6b19-4255-8a37-59c3fd614895"},"vehicle_type_id":"4","last_reported":1781262842,"current_range_meters":3600,"station_id":"ce4bhe12rcd13ifvqf30","pricing_plan_id":"cebpf4jnsgd1na2vs0mg"},{"bike_id":"464ab973-7dfe-40f2-ae4e-9602b854a492","system_id":"levelo_inurba_marseille","lat":43.23968,"lon":5.36629,"is_reserved":false,"is_disabled":false,"rental_uris":{"android":"levelo://app?vid=464ab973-7dfe-40f2-ae4e-9602b854a492","ios":"levelo://app?vid=464ab973-7dfe-40f2-ae4e-9602b854a492"},"vehicle_type_id":"4","last_reported":1781262842,"current_range_meters":3600,"station_id":"ce4bhi12rcd13ifvqfp0","pricing_plan_id":"cebpf4jnsgd1na2vs0mg"},{"bike_id":"ff34d26a-8d8e-4764-820f-fd38508933f5","system_id":"levelo_inurba_marseille","lat":43.241727,"lon":5.363969,"is_reserved":false,"is_disabled":false,"rental_uris":{"android":"levelo://app?vid=ff34d26a-8d8e-4764-820f-fd38508933f5","ios":"levelo://app?vid=ff34d26a-8d8e-4764-820f-fd38508933f5"},"vehicle_type_id":"4","last_reported":1781262842,"current_range_meters":3600,"station_id":"cpo36qri1sfpv3e86is0","pricing_plan_id":"cebpf4jnsgd1na2vs0mg"},{"bike_id":"3b22958e-28ca-40be-9d63-b3cd972b54af","system_id":"levelo_inurba_marseille","lat":43.28932,"lon":5.38395,"is_reserved":false,"is_disabled":false,"rental_uris":{"android":"levelo://app?vid=3b22958e-28ca-40be-9d63-b3cd972b54af","ios":"levelo://app?vid=3b22958e-28ca-40be-9d63-b3cd972b54af"},"vehicle_type_id":"4","last_reported":1781262842,"current_range_meters":3600,"station_id":"ce4bh612rcd13ifvqe6g","pricing_plan_id":"cebpf4jnsgd1na2vs0mg"},{"bike_id":"643a5108-6712-460c-84ac-96a9e310c2a1","system_id":"levelo_inurba_marseille","lat":43.32338,"lon":5.36771,"is_reserved":false,"is_disabled":false,"rental_uris":{"android":"levelo://app?vid=643a5108-6712-460c-84ac-96a9e310c2a1","ios":"levelo://app?vid=643a5108-6712-460c-84ac-96a9e310c2a1"},"vehicle_type_id":"4","last_reported":1781262842,"current_range_meters":4000,"station_id":"ce4bhsh2rcd13ifvqi2g","pricing_plan_id":"cebpf4jnsgd1na2vs0mg"},{"bike_id":"b2ad6388-0d4f-4e9c-8ff3-f1ad38b97382","system_id":"levelo_inurba_marseille","lat":43.27676,"lon":5.42441,"is_reserved":false,"is_disabled":false,"rental_uris":{"android":"levelo://app?vid=b2ad6388-0d4f-4e9c-8ff3-f1ad38b97382","ios":"levelo://app?vid=b2ad6388-0d4f-4e9c-8ff3-f1ad38b97382"},"vehicle_type_id":"4","last_reported":1781262842,"current_range_meters":4000,"station_id":"","pricing_plan_id":"cebpf4jnsgd1na2vs0mg"},{"bike_id":"5ac28b06-af05-4d8b-a509-2f5043908588","system_id":"levelo_inurba_marseille","lat":43.23443,"lon":5.36829,"is_reserved":false,"is_disabled":false,"rental_uris":{"android":"levelo://app?vid=5ac28b06-af05-4d8b-a509-2f5043908588","ios":"levelo://app?vid=5ac28b06-af05-4d8b-a509-2f5043908588"},"vehicle_type_id":"4","last_reported":1781262842,"current_range_meters":4000,"station_id":"","pricing_plan_id":"cebpf4jnsgd1na2vs0mg"},{"bike_id":"d2d513e3-5394-4d20-971c-10d66c683e90","system_id":"levelo_inurba_marseille","lat":43.28267,"lon":5.35063,"is_reserved":false,"is_disabled":false,"rental_uris":{"android":"levelo://app?vid=d2d513e3-5394-4d20-971c-10d66c683e90","ios":"levelo://app?vid=d2d513e3-5394-4d20-971c-10d66c683e90"},"vehicle_type_id":"4","last_reported":1781262842,"current_range_meters":4000,"station_id":"ce4bhbp2rcd13ifvqerg","pricing_plan_id":"cebpf4jnsgd1na2vs0mg"},{"bike_id":"8c86fad5-988e-4f1b-8620-376984b2d75d","system_id":"levelo_inurba_marseille","lat":43.27199,"lon":5.39183,"is_reserved":false,"is_disabled":false,"rental_uris":{"android":"levelo://app?vid=8c86fad5-988e-4f1b-8620-376984b2d75d","ios":"levelo://app?vid=8c86fad5-988e-4f1b-8620-376984b2d75d"},"vehicle_type_id":"4","last_reported":1781262842,"current_range_meters":4000,"station_id":"ce4bhhp2rcd13ifvqfm0","pricing_plan_id":"cebpf4jnsgd1na2vs0mg"},{"bike_id":"17d726a1-0e4a-4cc7-a58d-f384e144f21a","system_id":"levelo_inurba_marseille","lat":43.25335,"lon":5.42145,"is_reserved":false,"is_disabled":false,"rental_uris":{"android":"levelo://app?vid=17d726a1-0e4a-4cc7-a58d-f384e144f21a","ios":"levelo://app?vid=17d726a1-0e4a-4cc7-a58d-f384e144f21a"},"vehicle_type_id":"4","last_reported":1781262842,"current_range_meters":4000,"station_id":"st_d2m65c5bi1j21697t3ng","pricing_plan_id":"cebpf4jnsgd1na2vs0mg"},{"bike_id":"a9f2811c-1d98-4da2-855e-340997fea4a5","system_id":"levelo_inurba_marseille","lat":43.29008,"lon":5.35612,"is_reserved":false,"is_disabled":true,"rental_uris":{"android":"levelo://app?vid=a9f2811c-1d98-4da2-855e-340997fea4a5","ios":"levelo://app?vid=a9f2811c-1d98-4da2-855e-340997fea4a5"},"vehicle_type_id":"4","last_reported":1781262842,"current_range_meters":4000,"station_id":"ce4bhb92rcd13ifvqen0","pricing_plan_id":"cebpf4jnsgd1na2vs0mg"},{"bike_id":"9d58e294-15b8-4918-8ac2-ffd78fcaa2d0","system_id":"levelo_inurba_marseille","lat":43.28412,"lon":5.34982,"is_reserved":false,"is_disabled":false,"rental_uris":{"android":"levelo://app?vid=9d58e294-15b8-4918-8ac2-ffd78fcaa2d0","ios":"levelo://app?vid=9d58e294-15b8-4918-8ac2-ffd78fcaa2d0"},"vehicle_type_id":"4","last_reported":1781262842,"current_range_meters":4000,"station_id":"ce4bhbh2rcd13ifvqepg","pricing_plan_id":"cebpf4jnsgd1na2vs0mg"},{"bike_id":"02e5a654-92e1-4ac8-a8bd-2d57b1856f9d","system_id":"levelo_inurba_marseille","lat":43.25521,"lon":5.37658,"is_reserved":false,"is_disabled":false,"rental_uris":{"android":"levelo://app?vid=02e5a654-92e1-4ac8-a8bd-2d57b1856f9d","ios":"levelo://app?vid=02e5a654-92e1-4ac8-a8bd-2d57b1856f9d"},"vehicle_type_id":"4","last_reported":1781262842,"current_range_meters":4000,"station_id":"ce4bhh12rcd13ifvqff0","pricing_plan_id":"cebpf4jnsgd1na2vs0mg"},{"bike_id":"cdb51552-946c-4f57-8807-f1cfa55d450c","system_id":"levelo_inurba_marseille","lat":43.31494,"lon":5.37286,"is_reserved":false,"is_disabled":true,"rental_uris":{"android":"levelo://app?vid=cdb51552-946c-4f57-8807-f1cfa55d450c","ios":"levelo://app?vid=cdb51552-946c-4f57-8807-f1cfa55d450c"},"vehicle_type_id":"4","last_reported":1781262842,"current_range_meters":4000,"station_id":"ce4bgt12rcd13ifvqcd0","pricing_plan_id":"cebpf4jnsgd1na2vs0mg"},{"bike_id":"8682f4e8-0798-4b4f-8fef-c4dc002ea1c8","system_id":"levelo_inurba_marseille","lat":43.29141,"lon":5.46094,"is_reserved":false,"is_disabled":false,"rental_uris":{"android":"levelo://app?vid=8682f4e8-0798-4b4f-8fef-c4dc002ea1c8","ios":"levelo://app?vid=8682f4e8-0798-4b4f-8fef-c4dc002ea1c8"},"vehicle_type_id":"4","last_reported":1781262842,"current_range_meters":4000,"station_id":"","pricing_plan_id":"cebpf4jnsgd1na2vs0mg"},{"bike_id":"30046d34-eca3-4fba-bf41-b633dac1b4c8","system_id":"levelo_inurba_marseille","lat":43.31878,"lon":5.39989,"is_reserved":false,"is_disabled":false,"rental_uris":{"android":"levelo://app?vid=30046d34-eca3-4fba-bf41-b633dac1b4c8","ios":"levelo://app?vid=30046d34-eca3-4fba-bf41-b633dac1b4c8"},"vehicle_type_id":"4","last_reported":1781262842,"current_range_meters":4000,"station_id":"","pricing_plan_id":"cebpf4jnsgd1na2vs0mg"},{"bike_id":"75248494-6e46-4c4b-92d2-9db9ddbe9016","system_id":"levelo_inurba_marseille","lat":43.28479,"lon":5.48402,"is_reserved":false,"is_disabled":false,"rental_uris":{"android":"levelo://app?vid=75248494-6e46-4c4b-92d2-9db9ddbe9016","ios":"levelo://app?vid=75248494-6e46-4c4b-92d2-9db9ddbe9016"},"vehicle_type_id":"4","last_reported":1781262842,"current_range_meters":4000,"station_id":"st_d3svhcjqgbts73a3dn0g","pricing_plan_id":"cebpf4jnsgd1na2vs0mg"},{"bike_id":"779fdad7-e7f4-436c-9fce-9a7825f91cf8","system_id":"levelo_inurba_marseille","lat":43.28038,"lon":5.36942,"is_reserved":false,"is_disabled":false,"rental_uris":{"android":"levelo://app?vid=779fdad7-e7f4-436c-9fce-9a7825f91cf8","ios":"levelo://app?vid=779fdad7-e7f4-436c-9fce-9a7825f91cf8"},"vehicle_type_id":"4","last_reported":1781262842,"current_range_meters":4400,"station_id":"ce4bha12rcd13ifvqef0","pricing_plan_id":"cebpf4jnsgd1na2vs0mg"},{"bike_id":"b69da2de-bbdc-4fd7-82a0-458a8b12a3e4","system_id":"levelo_inurba_marseille","lat":43.25513,"lon":5.37653,"is_reserved":false,"is_disabled":true,"rental_uris":{"android":"levelo://app?vid=b69da2de-bbdc-4fd7-82a0-458a8b12a3e4","ios":"levelo://app?vid=b69da2de-bbdc-4fd7-82a0-458a8b12a3e4"},"vehicle_type_id":"4","last_reported":1781262842,"current_range_meters":4400,"station_id":"ce4bhh12rcd13ifvqff0","pricing_plan_id":"cebpf4jnsgd1na2vs0mg"},{"bike_id":"3279c3c6-7a1b-4db0-bda8-489e9add2323","system_id":"levelo_inurba_marseille","lat":43.25567,"lon":5.38241,"is_reserved":false,"is_disabled":false,"rental_uris":{"android":"levelo://app?vid=3279c3c6-7a1b-4db0-bda8-489e9add2323","ios":"levelo://app?vid=3279c3c6-7a1b-4db0-bda8-489e9add2323"},"vehicle_type_id":"4","last_reported":1781262842,"current_range_meters":4400,"station_id":"ce4bhih2rcd13ifvqfs0","pricing_plan_id":"cebpf4jnsgd1na2vs0mg"},{"bike_id":"2e41d0d3-9e86-4c08-89a6-e0a70cc8ae89","system_id":"levelo_inurba_marseille","lat":43.29248,"lon":5.38251,"is_reserved":false,"is_disabled":true,"rental_uris":{"android":"levelo://app?vid=2e41d0d3-9e86-4c08-89a6-e0a70cc8ae89","ios":"levelo://app?vid=2e41d0d3-9e86-4c08-89a6-e0a70cc8ae89"},"vehicle_type_id":"4","last_reported":1781262842,"current_range_meters":4400,"station_id":"","pricing_plan_id":"cebpf4jnsgd1na2vs0mg"},{"bike_id":"f4604c3b-a56a-425f-8d90-3b8e1f77f859","system_id":"levelo_inurba_marseille","lat":43.31376,"lon":5.38519,"is_reserved":false,"is_disabled":false,"rental_uris":{"android":"levelo://app?vid=f4604c3b-a56a-425f-8d90-3b8e1f77f859","ios":"levelo://app?vid=f4604c3b-a56a-425f-8d90-3b8e1f77f859"},"vehicle_type_id":"4","last_reported":1781262842,"current_range_meters":4400,"station_id":"ce4bgt92rcd13ifvqcf0","pricing_plan_id":"cebpf4jnsgd1na2vs0mg"},{"bike_id":"f255972c-f041-4ede-8cb9-24b03dd00981","system_id":"levelo_inurba_marseille","lat":43.2828,"lon":5.35062,"is_reserved":false,"is_disabled":false,"rental_uris":{"android":"levelo://app?vid=f255972c-f041-4ede-8cb9-24b03dd00981","ios":"levelo://app?vid=f255972c-f041-4ede-8cb9-24b03dd00981"},"vehicle_type_id":"4","last_reported":1781262842,"current_range_meters":4400,"station_id":"ce4bhbp2rcd13ifvqerg","pricing_plan_id":"cebpf4jnsgd1na2vs0mg"},{"bike_id":"58a7950a-f54c-4de2-858c-e199abbe140c","system_id":"levelo_inurba_marseille","lat":43.24185,"lon":5.39737,"is_reserved":false,"is_disabled":false,"rental_uris":{"android":"levelo://app?vid=58a7950a-f54c-4de2-858c-e199abbe140c","ios":"levelo://app?vid=58a7950a-f54c-4de2-858c-e199abbe140c"},"vehicle_type_id":"4","last_reported":1781262842,"current_range_meters":4400,"station_id":"ce4bhn12rcd13ifvqgpg","pricing_plan_id":"cebpf4jnsgd1na2vs0mg"},{"bike_id":"39008bdd-ec06-4509-aef5-6005174c0c03","system_id":"levelo_inurba_marseille","lat":43.27956,"lon":5.38532,"is_reserved":false,"is_disabled":false,"rental_uris":{"android":"levelo://app?vid=39008bdd-ec06-4509-aef5-6005174c0c03","ios":"levelo://app?vid=39008bdd-ec06-4509-aef5-6005174c0c03"},"vehicle_type_id":"4","last_reported":1781262842,"current_range_meters":4400,"station_id":"","pricing_plan_id":"cebpf4jnsgd1na2vs0mg"},{"bike_id":"6c297273-4a28-40d0-800c-fcf1097fc4fb","system_id":"levelo_inurba_marseille","lat":43.30216,"lon":5.39472,"is_reserved":false,"is_disabled":false,"rental_uris":{"android":"levelo://app?vid=6c297273-4a28-40d0-800c-fcf1097fc4fb","ios":"levelo://app?vid=6c297273-4a28-40d0-800c-fcf1097fc4fb"},"vehicle_type_id":"4","last_reported":1781262842,"current_range_meters":4400,"station_id":"ce4bh0p2rcd13ifvqd70","pricing_plan_id":"cebpf4jnsgd1na2vs0mg"},{"bike_id":"8859d173-9f5d-4e39-86ed-34ec86a90175","system_id":"levelo_inurba_marseille","lat":43.2993,"lon":5.4278,"is_reserved":false,"is_disabled":false,"rental_uris":{"android":"levelo://app?vid=8859d173-9f5d-4e39-86ed-34ec86a90175","ios":"levelo://app?vid=8859d173-9f5d-4e39-86ed-34ec86a90175"},"vehicle_type_id":"4","last_reported":1781262842,"current_range_meters":4400,"station_id":"","pricing_plan_id":"cebpf4jnsgd1na2vs0mg"},{"bike_id":"06f6f709-d48a-4e8c-8309-97b0e932c239","system_id":"levelo_inurba_marseille","lat":43.3095,"lon":5.39032,"is_reserved":false,"is_disabled":false,"rental_uris":{"android":"levelo://app?vid=06f6f709-d48a-4e8c-8309-97b0e932c239","ios":"levelo://app?vid=06f6f709-d48a-4e8c-8309-97b0e932c239"},"vehicle_type_id":"4","last_reported":1781262842,"current_range_meters":4400,"station_id":"ce4bgup2rcd13ifvqco0","pricing_plan_id":"cebpf4jnsgd1na2vs0mg"},{"bike_id":"5f721a5f-ca5a-4420-932f-15b3fc7dcc90","system_id":"levelo_inurba_marseille","lat":43.31033,"lon":5.37162,"is_reserved":false,"is_disabled":false,"rental_uris":{"android":"levelo://app?vid=5f721a5f-ca5a-4420-932f-15b3fc7dcc90","ios":"levelo://app?vid=5f721a5f-ca5a-4420-932f-15b3fc7dcc90"},"vehicle_type_id":"4","last_reported":1781262842,"current_range_meters":4400,"station_id":"st_d4kl2rp97mjs73e7tdfg","pricing_plan_id":"cebpf4jnsgd1na2vs0mg"},{"bike_id":"f165abb2-7744-4ffb-b278-55e94862d529","system_id":"levelo_inurba_marseille","lat":43.25565,"lon":5.39173,"is_reserved":false,"is_disabled":false,"rental_uris":{"android":"levelo://app?vid=f165abb2-7744-4ffb-b278-55e94862d529","ios":"levelo://app?vid=f165abb2-7744-4ffb-b278-55e94862d529"},"vehicle_type_id":"4","last_reported":1781262842,"current_range_meters":4400,"station_id":"","pricing_plan_id":"cebpf4jnsgd1na2vs0mg"},{"bike_id":"0f0675a5-080f-4270-9e10-010650300d39","system_id":"levelo_inurba_marseille","lat":43.28733,"lon":5.36089,"is_reserved":false,"is_disabled":false,"rental_uris":{"android":"levelo://app?vid=0f0675a5-080f-4270-9e10-010650300d39","ios":"levelo://app?vid=0f0675a5-080f-4270-9e10-010650300d39"},"vehicle_type_id":"4","last_reported":1781262842,"current_range_meters":4400,"station_id":"cki0cbj6b192h4jlfktg","pricing_plan_id":"cebpf4jnsgd1na2vs0mg"},{"bike_id":"191609c5-76f2-4aa7-8070-84a029bf692a","system_id":"levelo_inurba_marseille","lat":43.30553,"lon":5.36722,"is_reserved":false,"is_disabled":false,"rental_uris":{"android":"levelo://app?vid=191609c5-76f2-4aa7-8070-84a029bf692a","ios":"levelo://app?vid=191609c5-76f2-4aa7-8070-84a029bf692a"},"vehicle_type_id":"4","last_reported":1781262842,"current_range_meters":4400,"station_id":"ce4bgrp2rcd13ifvqc9g","pricing_plan_id":"cebpf4jnsgd1na2vs0mg"},{"bike_id":"e9ce25b8-b480-4907-8ce1-b8aecfbb3105","system_id":"levelo_inurba_marseille","lat":43.32336,"lon":5.36766,"is_reserved":false,"is_disabled":false,"rental_uris":{"android":"levelo://app?vid=e9ce25b8-b480-4907-8ce1-b8aecfbb3105","ios":"levelo://app?vid=e9ce25b8-b480-4907-8ce1-b8aecfbb3105"},"vehicle_type_id":"4","last_reported":1781262842,"current_range_meters":4400,"station_id":"ce4bhsh2rcd13ifvqi2g","pricing_plan_id":"cebpf4jnsgd1na2vs0mg"},{"bike_id":"32e65dbb-64c4-4911-9176-a4e011b0a593","system_id":"levelo_inurba_marseille","lat":43.28655,"lon":5.4266,"is_reserved":false,"is_disabled":false,"rental_uris":{"android":"levelo://app?vid=32e65dbb-64c4-4911-9176-a4e011b0a593","ios":"levelo://app?vid=32e65dbb-64c4-4911-9176-a4e011b0a593"},"vehicle_type_id":"4","last_reported":1781262842,"current_range_meters":4400,"station_id":"","pricing_plan_id":"cebpf4jnsgd1na2vs0mg"},{"bike_id":"4a880f20-442e-4e0b-9683-a3a832597c68","system_id":"levelo_inurba_marseille","lat":43.25006,"lon":5.38927,"is_reserved":false,"is_disabled":false,"rental_uris":{"android":"levelo://app?vid=4a880f20-442e-4e0b-9683-a3a832597c68","ios":"levelo://app?vid=4a880f20-442e-4e0b-9683-a3a832597c68"},"vehicle_type_id":"4","last_reported":1781262842,"current_range_meters":4400,"station_id":"ce4bhgp2rcd13ifvqfd0","pricing_plan_id":"cebpf4jnsgd1na2vs0mg"},{"bike_id":"cee6644e-3f7f-438f-874a-02654dd35298","system_id":"levelo_inurba_marseille","lat":43.24555,"lon":5.39523,"is_reserved":false,"is_disabled":false,"rental_uris":{"android":"levelo://app?vid=cee6644e-3f7f-438f-874a-02654dd35298","ios":"levelo://app?vid=cee6644e-3f7f-438f-874a-02654dd35298"},"vehicle_type_id":"4","last_reported":1781262842,"current_range_meters":4400,"station_id":"ce4bhlp2rcd13ifvqgjg","pricing_plan_id":"cebpf4jnsgd1na2vs0mg"},{"bike_id":"216e856e-229a-4998-9698-f2699480ab86","system_id":"levelo_inurba_marseille","lat":43.31065,"lon":5.37168,"is_reserved":false,"is_disabled":false,"rental_uris":{"android":"levelo://app?vid=216e856e-229a-4998-9698-f2699480ab86","ios":"levelo://app?vid=216e856e-229a-4998-9698-f2699480ab86"},"vehicle_type_id":"4","last_reported":1781262842,"current_range_meters":4400,"station_id":"st_d4kl2rp97mjs73e7tdfg","pricing_plan_id":"cebpf4jnsgd1na2vs0mg"},{"bike_id":"2ca5084b-7a65-4159-9431-446328183624","system_id":"levelo_inurba_marseille","lat":43.3265,"lon":5.41016,"is_reserved":false,"is_disabled":false,"rental_uris":{"android":"levelo://app?vid=2ca5084b-7a65-4159-9431-446328183624","ios":"levelo://app?vid=2ca5084b-7a65-4159-9431-446328183624"},"vehicle_type_id":"4","last_reported":1781262842,"current_range_meters":4800,"station_id":"ce4bhpp2rcd13ifvqhgg","pricing_plan_id":"cebpf4jnsgd1na2vs0mg"},{"bike_id":"3c1b096f-b9b8-4c97-926d-de81e44cecbb","system_id":"levelo_inurba_marseille","lat":43.2721,"lon":5.39185,"is_reserved":false,"is_disabled":false,"rental_uris":{"android":"levelo://app?vid=3c1b096f-b9b8-4c97-926d-de81e44cecbb","ios":"levelo://app?vid=3c1b096f-b9b8-4c97-926d-de81e44cecbb"},"vehicle_type_id":"4","last_reported":1781262842,"current_range_meters":4800,"station_id":"ce4bhhp2rcd13ifvqfm0","pricing_plan_id":"cebpf4jnsgd1na2vs0mg"},{"bike_id":"3c1659d8-5e56-4dbb-908b-68c028d3c70c","system_id":"levelo_inurba_marseille","lat":43.24872,"lon":5.37491,"is_reserved":false,"is_disabled":false,"rental_uris":{"android":"levelo://app?vid=3c1659d8-5e56-4dbb-908b-68c028d3c70c","ios":"levelo://app?vid=3c1659d8-5e56-4dbb-908b-68c028d3c70c"},"vehicle_type_id":"4","last_reported":1781262842,"current_range_meters":4800,"station_id":"","pricing_plan_id":"cebpf4jnsgd1na2vs0mg"},{"bike_id":"0e86ce8f-0e91-432f-80bf-d4513463cb14","system_id":"levelo_inurba_marseille","lat":43.28611,"lon":5.37053,"is_reserved":false,"is_disabled":false,"rental_uris":{"android":"levelo://app?vid=0e86ce8f-0e91-432f-80bf-d4513463cb14","ios":"levelo://app?vid=0e86ce8f-0e91-432f-80bf-d4513463cb14"},"vehicle_type_id":"4","last_reported":1781262842,"current_range_meters":4800,"station_id":"ce4bht12rcd13ifvqi60","pricing_plan_id":"cebpf4jnsgd1na2vs0mg"},{"bike_id":"977075a4-40dc-4723-a526-d5ddfecea214","system_id":"levelo_inurba_marseille","lat":43.24955,"lon":5.40499,"is_reserved":false,"is_disabled":false,"rental_uris":{"android":"levelo://app?vid=977075a4-40dc-4723-a526-d5ddfecea214","ios":"levelo://app?vid=977075a4-40dc-4723-a526-d5ddfecea214"},"vehicle_type_id":"4","last_reported":1781262842,"current_range_meters":4800,"station_id":"st_d2ngiaodas8pm72gd1h0","pricing_plan_id":"cebpf4jnsgd1na2vs0mg"},{"bike_id":"3643eb2e-b0e4-40f6-9aa2-b567c4963540","system_id":"levelo_inurba_marseille","lat":43.32096,"lon":5.36792,"is_reserved":false,"is_disabled":false,"rental_uris":{"android":"levelo://app?vid=3643eb2e-b0e4-40f6-9aa2-b567c4963540","ios":"levelo://app?vid=3643eb2e-b0e4-40f6-9aa2-b567c4963540"},"vehicle_type_id":"4","last_reported":1781262842,"current_range_meters":4800,"station_id":"ce4bhrh2rcd13ifvqhug","pricing_plan_id":"cebpf4jnsgd1na2vs0mg"},{"bike_id":"2e26d0e9-aca9-4cbe-acea-6ca83db1a561","system_id":"levelo_inurba_marseille","lat":43.297053,"lon":5.376977,"is_reserved":false,"is_disabled":false,"rental_uris":{"android":"levelo://app?vid=2e26d0e9-aca9-4cbe-acea-6ca83db1a561","ios":"levelo://app?vid=2e26d0e9-aca9-4cbe-acea-6ca83db1a561"},"vehicle_type_id":"4","last_reported":1781262842,"current_range_meters":4800,"station_id":"ce4bh392rcd13ifvqdm0","pricing_plan_id":"cebpf4jnsgd1na2vs0mg"},{"bike_id":"7ecb18a7-aeeb-4d01-b94a-f8d88b94673b","system_id":"levelo_inurba_marseille","lat":43.28224,"lon":5.39072,"is_reserved":false,"is_disabled":false,"rental_uris":{"android":"levelo://app?vid=7ecb18a7-aeeb-4d01-b94a-f8d88b94673b","ios":"levelo://app?vid=7ecb18a7-aeeb-4d01-b94a-f8d88b94673b"},"vehicle_type_id":"4","last_reported":1781262842,"current_range_meters":4800,"station_id":"ce4bhn92rcd13ifvqgsg","pricing_plan_id":"cebpf4jnsgd1na2vs0mg"},{"bike_id":"f0818b5d-42d0-4804-9926-1b5efffc7a77","system_id":"levelo_inurba_marseille","lat":43.26228,"lon":5.37465,"is_reserved":false,"is_disabled":false,"rental_uris":{"android":"levelo://app?vid=f0818b5d-42d0-4804-9926-1b5efffc7a77","ios":"levelo://app?vid=f0818b5d-42d0-4804-9926-1b5efffc7a77"},"vehicle_type_id":"4","last_reported":1781262842,"current_range_meters":4800,"station_id":"","pricing_plan_id":"cebpf4jnsgd1na2vs0mg"},{"bike_id":"b6d507f5-c915-4915-8d1e-3c84726370da","system_id":"levelo_inurba_marseille","lat":43.32085,"lon":5.36778,"is_reserved":false,"is_disabled":false,"rental_uris":{"android":"levelo://app?vid=b6d507f5-c915-4915-8d1e-3c84726370da","ios":"levelo://app?vid=b6d507f5-c915-4915-8d1e-3c84726370da"},"vehicle_type_id":"4","last_reported":1781262842,"current_range_meters":4800,"station_id":"ce4bhrh2rcd13ifvqhug","pricing_plan_id":"cebpf4jnsgd1na2vs0mg"},{"bike_id":"7bce1ea7-3f87-4d5d-bc6a-823171141685","system_id":"levelo_inurba_marseille","lat":43.28275,"lon":5.35061,"is_reserved":false,"is_disabled":false,"rental_uris":{"android":"levelo://app?vid=7bce1ea7-3f87-4d5d-bc6a-823171141685","ios":"levelo://app?vid=7bce1ea7-3f87-4d5d-bc6a-823171141685"},"vehicle_type_id":"4","last_reported":1781262842,"current_range_meters":4800,"station_id":"ce4bhbp2rcd13ifvqerg","pricing_plan_id":"cebpf4jnsgd1na2vs0mg"},{"bike_id":"f63e0e69-6a54-4e19-8d8e-f67680de3ed1","system_id":"levelo_inurba_marseille","lat":43.24631,"lon":5.43155,"is_reserved":false,"is_disabled":false,"rental_uris":{"android":"levelo://app?vid=f63e0e69-6a54-4e19-8d8e-f67680de3ed1","ios":"levelo://app?vid=f63e0e69-6a54-4e19-8d8e-f67680de3ed1"},"vehicle_type_id":"4","last_reported":1781262842,"current_range_meters":4800,"station_id":"st_d2m6c4gdas8pm72e190g","pricing_plan_id":"cebpf4jnsgd1na2vs0mg"},{"bike_id":"40de0209-043c-4ed6-84c3-7ac1da5cf58d","system_id":"levelo_inurba_marseille","lat":43.32112,"lon":5.36777,"is_reserved":false,"is_disabled":false,"rental_uris":{"android":"levelo://app?vid=40de0209-043c-4ed6-84c3-7ac1da5cf58d","ios":"levelo://app?vid=40de0209-043c-4ed6-84c3-7ac1da5cf58d"},"vehicle_type_id":"4","last_reported":1781262842,"current_range_meters":4800,"station_id":"ce4bhrh2rcd13ifvqhug","pricing_plan_id":"cebpf4jnsgd1na2vs0mg"},{"bike_id":"516c203b-6e8d-4a1d-8775-56932fe21b3e","system_id":"levelo_inurba_marseille","lat":43.30214,"lon":5.39468,"is_reserved":false,"is_disabled":false,"rental_uris":{"android":"levelo://app?vid=516c203b-6e8d-4a1d-8775-56932fe21b3e","ios":"levelo://app?vid=516c203b-6e8d-4a1d-8775-56932fe21b3e"},"vehicle_type_id":"4","last_reported":1781262842,"current_range_meters":4800,"station_id":"ce4bh0p2rcd13ifvqd70","pricing_plan_id":"cebpf4jnsgd1na2vs0mg"},{"bike_id":"95936fb9-6643-4bdd-8b1f-c4ea9a60a36a","system_id":"levelo_inurba_marseille","lat":43.26226,"lon":5.3877,"is_reserved":false,"is_disabled":false,"rental_uris":{"android":"levelo://app?vid=95936fb9-6643-4bdd-8b1f-c4ea9a60a36a","ios":"levelo://app?vid=95936fb9-6643-4bdd-8b1f-c4ea9a60a36a"},"vehicle_type_id":"4","last_reported":1781262842,"current_range_meters":4800,"station_id":"st_d8gjfg747rts73coq3b0","pricing_plan_id":"cebpf4jnsgd1na2vs0mg"},{"bike_id":"32221393-9f24-423d-aa28-b600aa97a7a8","system_id":"levelo_inurba_marseille","lat":43.296256,"lon":5.377053,"is_reserved":false,"is_disabled":false,"rental_uris":{"android":"levelo://app?vid=32221393-9f24-423d-aa28-b600aa97a7a8","ios":"levelo://app?vid=32221393-9f24-423d-aa28-b600aa97a7a8"},"vehicle_type_id":"4","last_reported":1781262842,"current_range_meters":4800,"station_id":"ce4bgi92rcd13ifvqb90","pricing_plan_id":"cebpf4jnsgd1na2vs0mg"},{"bike_id":"4fafcd02-6f3d-4d71-b55b-077e047dcdf3","system_id":"levelo_inurba_marseille","lat":43.29232,"lon":5.36011,"is_reserved":false,"is_disabled":false,"rental_uris":{"android":"levelo://app?vid=4fafcd02-6f3d-4d71-b55b-077e047dcdf3","ios":"levelo://app?vid=4fafcd02-6f3d-4d71-b55b-077e047dcdf3"},"vehicle_type_id":"4","last_reported":1781262842,"current_range_meters":4800,"station_id":"","pricing_plan_id":"cebpf4jnsgd1na2vs0mg"},{"bike_id":"2507d607-3822-4c87-a669-ab9b0690fc01","system_id":"levelo_inurba_marseille","lat":43.28597,"lon":5.35118,"is_reserved":false,"is_disabled":false,"rental_uris":{"android":"levelo://app?vid=2507d607-3822-4c87-a669-ab9b0690fc01","ios":"levelo://app?vid=2507d607-3822-4c87-a669-ab9b0690fc01"},"vehicle_type_id":"4","last_reported":1781262842,"current_range_meters":4800,"station_id":"ce4bhch2rcd13ifvqeug","pricing_plan_id":"cebpf4jnsgd1na2vs0mg"},{"bike_id":"c0d320b2-c6c8-4a32-af90-5a880f6f9c10","system_id":"levelo_inurba_marseille","lat":43.284088,"lon":5.349749,"is_reserved":false,"is_disabled":false,"rental_uris":{"android":"levelo://app?vid=c0d320b2-c6c8-4a32-af90-5a880f6f9c10","ios":"levelo://app?vid=c0d320b2-c6c8-4a32-af90-5a880f6f9c10"},"vehicle_type_id":"4","last_reported":1781262842,"current_range_meters":4800,"station_id":"ce4bhbh2rcd13ifvqepg","pricing_plan_id":"cebpf4jnsgd1na2vs0mg"},{"bike_id":"63dbdc45-35d4-4618-aba5-207467753bb9","system_id":"levelo_inurba_marseille","lat":43.30153,"lon":5.38093,"is_reserved":false,"is_disabled":false,"rental_uris":{"android":"levelo://app?vid=63dbdc45-35d4-4618-aba5-207467753bb9","ios":"levelo://app?vid=63dbdc45-35d4-4618-aba5-207467753bb9"},"vehicle_type_id":"4","last_reported":1781262842,"current_range_meters":4800,"station_id":"ce4bgjp2rcd13ifvqbh0","pricing_plan_id":"cebpf4jnsgd1na2vs0mg"},{"bike_id":"cc098afe-4675-4d11-ac24-3faca7717028","system_id":"levelo_inurba_marseille","lat":43.29799,"lon":5.37108,"is_reserved":false,"is_disabled":false,"rental_uris":{"android":"levelo://app?vid=cc098afe-4675-4d11-ac24-3faca7717028","ios":"levelo://app?vid=cc098afe-4675-4d11-ac24-3faca7717028"},"vehicle_type_id":"4","last_reported":1781262842,"current_range_meters":4800,"station_id":"ce4bgop2rcd13ifvqc1g","pricing_plan_id":"cebpf4jnsgd1na2vs0mg"},{"bike_id":"14e3ef24-a961-4d00-9086-77d7b011aac7","system_id":"levelo_inurba_marseille","lat":43.32346,"lon":5.36733,"is_reserved":false,"is_disabled":false,"rental_uris":{"android":"levelo://app?vid=14e3ef24-a961-4d00-9086-77d7b011aac7","ios":"levelo://app?vid=14e3ef24-a961-4d00-9086-77d7b011aac7"},"vehicle_type_id":"4","last_reported":1781262842,"current_range_meters":4800,"station_id":"ce4bhsh2rcd13ifvqi2g","pricing_plan_id":"cebpf4jnsgd1na2vs0mg"},{"bike_id":"3a44773b-a64a-45f6-9197-56969bf49878","system_id":"levelo_inurba_marseille","lat":43.29711,"lon":5.3704,"is_reserved":false,"is_disabled":false,"rental_uris":{"android":"levelo://app?vid=3a44773b-a64a-45f6-9197-56969bf49878","ios":"levelo://app?vid=3a44773b-a64a-45f6-9197-56969bf49878"},"vehicle_type_id":"4","last_reported":1781262842,"current_range_meters":4800,"station_id":"","pricing_plan_id":"cebpf4jnsgd1na2vs0mg"},{"bike_id":"33363c26-6888-4735-8e78-98f8a1e30924","system_id":"levelo_inurba_marseille","lat":43.240758,"lon":5.377545,"is_reserved":false,"is_disabled":false,"rental_uris":{"android":"levelo://app?vid=33363c26-6888-4735-8e78-98f8a1e30924","ios":"levelo://app?vid=33363c26-6888-4735-8e78-98f8a1e30924"},"vehicle_type_id":"4","last_reported":1781262842,"current_range_meters":4800,"station_id":"ce4bhnp2rcd13ifvqgvg","pricing_plan_id":"cebpf4jnsgd1na2vs0mg"},{"bike_id":"2a192182-021b-439d-a0e2-993561972500","system_id":"levelo_inurba_marseille","lat":43.225345,"lon":5.348271,"is_reserved":false,"is_disabled":false,"rental_uris":{"android":"levelo://app?vid=2a192182-021b-439d-a0e2-993561972500","ios":"levelo://app?vid=2a192182-021b-439d-a0e2-993561972500"},"vehicle_type_id":"4","last_reported":1781262842,"current_range_meters":5600,"station_id":"st_cvj5dfep6f1abm77gieg","pricing_plan_id":"cebpf4jnsgd1na2vs0mg"},{"bike_id":"40877921-cf64-4231-b6a7-7f65220da3fe","system_id":"levelo_inurba_marseille","lat":43.29597,"lon":5.38107,"is_reserved":false,"is_disabled":true,"rental_uris":{"android":"levelo://app?vid=40877921-cf64-4231-b6a7-7f65220da3fe","ios":"levelo://app?vid=40877921-cf64-4231-b6a7-7f65220da3fe"},"vehicle_type_id":"4","last_reported":1781262842,"current_range_meters":5600,"station_id":"ce4bgl12rcd13ifvqbo0","pricing_plan_id":"cebpf4jnsgd1na2vs0mg"},{"bike_id":"2a9074db-1b00-4a15-aa53-b6ac9c6c2cea","system_id":"levelo_inurba_marseille","lat":43.30553,"lon":5.36548,"is_reserved":false,"is_disabled":false,"rental_uris":{"android":"levelo://app?vid=2a9074db-1b00-4a15-aa53-b6ac9c6c2cea","ios":"levelo://app?vid=2a9074db-1b00-4a15-aa53-b6ac9c6c2cea"},"vehicle_type_id":"4","last_reported":1781262842,"current_range_meters":5600,"station_id":"ce4bgs12rcd13ifvqcag","pricing_plan_id":"cebpf4jnsgd1na2vs0mg"},{"bike_id":"86980992-c341-4d42-9003-5f417602c220","system_id":"levelo_inurba_marseille","lat":43.2959,"lon":5.37974,"is_reserved":false,"is_disabled":false,"rental_uris":{"android":"levelo://app?vid=86980992-c341-4d42-9003-5f417602c220","ios":"levelo://app?vid=86980992-c341-4d42-9003-5f417602c220"},"vehicle_type_id":"4","last_reported":1781262842,"current_range_meters":5600,"station_id":"","pricing_plan_id":"cebpf4jnsgd1na2vs0mg"},{"bike_id":"a2ae9b53-bcbd-46ca-8638-729d70f3071b","system_id":"levelo_inurba_marseille","lat":43.25017,"lon":5.3892,"is_reserved":false,"is_disabled":true,"rental_uris":{"android":"levelo://app?vid=a2ae9b53-bcbd-46ca-8638-729d70f3071b","ios":"levelo://app?vid=a2ae9b53-bcbd-46ca-8638-729d70f3071b"},"vehicle_type_id":"4","last_reported":1781262842,"current_range_meters":5600,"station_id":"ce4bhgp2rcd13ifvqfd0","pricing_plan_id":"cebpf4jnsgd1na2vs0mg"},{"bike_id":"eb6b2aa4-7fa5-4ca7-aee7-cc57fbf14ea9","system_id":"levelo_inurba_marseille","lat":43.31709,"lon":5.37729,"is_reserved":false,"is_disabled":false,"rental_uris":{"android":"levelo://app?vid=eb6b2aa4-7fa5-4ca7-aee7-cc57fbf14ea9","ios":"levelo://app?vid=eb6b2aa4-7fa5-4ca7-aee7-cc57fbf14ea9"},"vehicle_type_id":"4","last_reported":1781262842,"current_range_meters":5600,"station_id":"ce4bgth2rcd13ifvqch0","pricing_plan_id":"cebpf4jnsgd1na2vs0mg"},{"bike_id":"189594c6-9f9f-40fb-989b-d5c8f60301dd","system_id":"levelo_inurba_marseille","lat":43.29001,"lon":5.37311,"is_reserved":false,"is_disabled":false,"rental_uris":{"android":"levelo://app?vid=189594c6-9f9f-40fb-989b-d5c8f60301dd","ios":"levelo://app?vid=189594c6-9f9f-40fb-989b-d5c8f60301dd"},"vehicle_type_id":"4","last_reported":1781262842,"current_range_meters":5600,"station_id":"","pricing_plan_id":"cebpf4jnsgd1na2vs0mg"},{"bike_id":"51bfefab-de18-441c-92fc-b0ae3054f8bb","system_id":"levelo_inurba_marseille","lat":43.30945,"lon":5.39043,"is_reserved":false,"is_disabled":false,"rental_uris":{"android":"levelo://app?vid=51bfefab-de18-441c-92fc-b0ae3054f8bb","ios":"levelo://app?vid=51bfefab-de18-441c-92fc-b0ae3054f8bb"},"vehicle_type_id":"4","last_reported":1781262842,"current_range_meters":5600,"station_id":"ce4bgup2rcd13ifvqco0","pricing_plan_id":"cebpf4jnsgd1na2vs0mg"},{"bike_id":"c59256da-821e-42bd-9bae-e23e92cfd004","system_id":"levelo_inurba_marseille","lat":43.28949,"lon":5.38854,"is_reserved":false,"is_disabled":false,"rental_uris":{"android":"levelo://app?vid=c59256da-821e-42bd-9bae-e23e92cfd004","ios":"levelo://app?vid=c59256da-821e-42bd-9bae-e23e92cfd004"},"vehicle_type_id":"4","last_reported":1781262842,"current_range_meters":5600,"station_id":"","pricing_plan_id":"cebpf4jnsgd1na2vs0mg"},{"bike_id":"f2c7eb3b-73f1-4cf6-9b6b-e3f2311f0f57","system_id":"levelo_inurba_marseille","lat":43.232,"lon":5.35554,"is_reserved":false,"is_disabled":false,"rental_uris":{"android":"levelo://app?vid=f2c7eb3b-73f1-4cf6-9b6b-e3f2311f0f57","ios":"levelo://app?vid=f2c7eb3b-73f1-4cf6-9b6b-e3f2311f0f57"},"vehicle_type_id":"4","last_reported":1781262842,"current_range_meters":5600,"station_id":"ce4bhu92rcd13ifvqi70","pricing_plan_id":"cebpf4jnsgd1na2vs0mg"},{"bike_id":"3371e92b-963a-4ab0-918d-9217e8fd09be","system_id":"levelo_inurba_marseille","lat":43.28374,"lon":5.36768,"is_reserved":false,"is_disabled":false,"rental_uris":{"android":"levelo://app?vid=3371e92b-963a-4ab0-918d-9217e8fd09be","ios":"levelo://app?vid=3371e92b-963a-4ab0-918d-9217e8fd09be"},"vehicle_type_id":"4","last_reported":1781262842,"current_range_meters":5600,"station_id":"","pricing_plan_id":"cebpf4jnsgd1na2vs0mg"},{"bike_id":"df0910d2-98e4-41b7-80c0-bc63c01fde5e","system_id":"levelo_inurba_marseille","lat":43.31327,"lon":5.43261,"is_reserved":false,"is_disabled":false,"rental_uris":{"android":"levelo://app?vid=df0910d2-98e4-41b7-80c0-bc63c01fde5e","ios":"levelo://app?vid=df0910d2-98e4-41b7-80c0-bc63c01fde5e"},"vehicle_type_id":"4","last_reported":1781262842,"current_range_meters":5600,"station_id":"","pricing_plan_id":"cebpf4jnsgd1na2vs0mg"},{"bike_id":"f8fac305-9dff-4c0f-bc4c-ddcbbe69ef8b","system_id":"levelo_inurba_marseille","lat":43.28,"lon":5.40015,"is_reserved":false,"is_disabled":false,"rental_uris":{"android":"levelo://app?vid=f8fac305-9dff-4c0f-bc4c-ddcbbe69ef8b","ios":"levelo://app?vid=f8fac305-9dff-4c0f-bc4c-ddcbbe69ef8b"},"vehicle_type_id":"4","last_reported":1781262842,"current_range_meters":5600,"station_id":"ce4bho92rcd13ifvqh4g","pricing_plan_id":"cebpf4jnsgd1na2vs0mg"},{"bike_id":"088a5444-f5d5-4beb-9db7-274b2519a022","system_id":"levelo_inurba_marseille","lat":43.3188,"lon":5.39998,"is_reserved":false,"is_disabled":false,"rental_uris":{"android":"levelo://app?vid=088a5444-f5d5-4beb-9db7-274b2519a022","ios":"levelo://app?vid=088a5444-f5d5-4beb-9db7-274b2519a022"},"vehicle_type_id":"4","last_reported":1781262842,"current_range_meters":5600,"station_id":"","pricing_plan_id":"cebpf4jnsgd1na2vs0mg"},{"bike_id":"cb4a87f1-ecd2-4522-a840-5c2028883f08","system_id":"levelo_inurba_marseille","lat":43.28613,"lon":5.35118,"is_reserved":false,"is_disabled":false,"rental_uris":{"android":"levelo://app?vid=cb4a87f1-ecd2-4522-a840-5c2028883f08","ios":"levelo://app?vid=cb4a87f1-ecd2-4522-a840-5c2028883f08"},"vehicle_type_id":"4","last_reported":1781262842,"current_range_meters":6000,"station_id":"ce4bhch2rcd13ifvqeug","pricing_plan_id":"cebpf4jnsgd1na2vs0mg"},{"bike_id":"75c05d49-8a94-417a-8869-c0d0e40ea54f","system_id":"levelo_inurba_marseille","lat":43.28732,"lon":5.37943,"is_reserved":false,"is_disabled":false,"rental_uris":{"android":"levelo://app?vid=75c05d49-8a94-417a-8869-c0d0e40ea54f","ios":"levelo://app?vid=75c05d49-8a94-417a-8869-c0d0e40ea54f"},"vehicle_type_id":"4","last_reported":1781262842,"current_range_meters":6000,"station_id":"ce4bh9p2rcd13ifvqec0","pricing_plan_id":"cebpf4jnsgd1na2vs0mg"},{"bike_id":"afb76008-f34f-40c5-be4f-cb67e1f31358","system_id":"levelo_inurba_marseille","lat":43.30527,"lon":5.36533,"is_reserved":false,"is_disabled":false,"rental_uris":{"android":"levelo://app?vid=afb76008-f34f-40c5-be4f-cb67e1f31358","ios":"levelo://app?vid=afb76008-f34f-40c5-be4f-cb67e1f31358"},"vehicle_type_id":"4","last_reported":1781262842,"current_range_meters":6000,"station_id":"ce4bgs12rcd13ifvqcag","pricing_plan_id":"cebpf4jnsgd1na2vs0mg"},{"bike_id":"c8b4cd61-c65e-4f22-8ff7-164cb39c423a","system_id":"levelo_inurba_marseille","lat":43.30426,"lon":5.413,"is_reserved":false,"is_disabled":false,"rental_uris":{"android":"levelo://app?vid=c8b4cd61-c65e-4f22-8ff7-164cb39c423a","ios":"levelo://app?vid=c8b4cd61-c65e-4f22-8ff7-164cb39c423a"},"vehicle_type_id":"4","last_reported":1781262842,"current_range_meters":6000,"station_id":"ce4bhop2rcd13ifvqh8g","pricing_plan_id":"cebpf4jnsgd1na2vs0mg"},{"bike_id":"27550cee-25c6-4a5a-a1ba-b61f919ffb98","system_id":"levelo_inurba_marseille","lat":43.23899,"lon":5.37468,"is_reserved":false,"is_disabled":false,"rental_uris":{"android":"levelo://app?vid=27550cee-25c6-4a5a-a1ba-b61f919ffb98","ios":"levelo://app?vid=27550cee-25c6-4a5a-a1ba-b61f919ffb98"},"vehicle_type_id":"4","last_reported":1781262842,"current_range_meters":6000,"station_id":"st_d6sm7csbq4hs73f8fpjg","pricing_plan_id":"cebpf4jnsgd1na2vs0mg"},{"bike_id":"8b6b68f1-e508-4aca-8408-2e25b4d6ced5","system_id":"levelo_inurba_marseille","lat":43.21197,"lon":5.35071,"is_reserved":false,"is_disabled":false,"rental_uris":{"android":"levelo://app?vid=8b6b68f1-e508-4aca-8408-2e25b4d6ced5","ios":"levelo://app?vid=8b6b68f1-e508-4aca-8408-2e25b4d6ced5"},"vehicle_type_id":"4","last_reported":1781262842,"current_range_meters":6000,"station_id":"st_cvj6sg6p6f1abm77japg","pricing_plan_id":"cebpf4jnsgd1na2vs0mg"},{"bike_id":"f333f164-61ec-4160-845d-706e469795ef","system_id":"levelo_inurba_marseille","lat":43.30956,"lon":5.39036,"is_reserved":false,"is_disabled":false,"rental_uris":{"android":"levelo://app?vid=f333f164-61ec-4160-845d-706e469795ef","ios":"levelo://app?vid=f333f164-61ec-4160-845d-706e469795ef"},"vehicle_type_id":"4","last_reported":1781262842,"current_range_meters":6000,"station_id":"ce4bgup2rcd13ifvqco0","pricing_plan_id":"cebpf4jnsgd1na2vs0mg"},{"bike_id":"1401b0d0-6997-4715-a987-bc6a2c511f25","system_id":"levelo_inurba_marseille","lat":43.23783,"lon":5.36602,"is_reserved":false,"is_disabled":false,"rental_uris":{"android":"levelo://app?vid=1401b0d0-6997-4715-a987-bc6a2c511f25","ios":"levelo://app?vid=1401b0d0-6997-4715-a987-bc6a2c511f25"},"vehicle_type_id":"4","last_reported":1781262842,"current_range_meters":6000,"station_id":"st_d3nk18o9ro0c73en2l3g","pricing_plan_id":"cebpf4jnsgd1na2vs0mg"},{"bike_id":"90f8f679-21ba-45f4-87f3-79468aeeabc5","system_id":"levelo_inurba_marseille","lat":43.31906,"lon":5.36792,"is_reserved":false,"is_disabled":false,"rental_uris":{"android":"levelo://app?vid=90f8f679-21ba-45f4-87f3-79468aeeabc5","ios":"levelo://app?vid=90f8f679-21ba-45f4-87f3-79468aeeabc5"},"vehicle_type_id":"4","last_reported":1781262842,"current_range_meters":6000,"station_id":"st_d6o2h0d0559c73evc1b0","pricing_plan_id":"cebpf4jnsgd1na2vs0mg"},{"bike_id":"8afeb7a8-b686-4611-8220-2ade2d33c717","system_id":"levelo_inurba_marseille","lat":43.29604,"lon":5.37677,"is_reserved":false,"is_disabled":true,"rental_uris":{"android":"levelo://app?vid=8afeb7a8-b686-4611-8220-2ade2d33c717","ios":"levelo://app?vid=8afeb7a8-b686-4611-8220-2ade2d33c717"},"vehicle_type_id":"4","last_reported":1781262842,"current_range_meters":6000,"station_id":"ce4bgi92rcd13ifvqb90","pricing_plan_id":"cebpf4jnsgd1na2vs0mg"},{"bike_id":"eeb997ff-27fb-46fb-ba0c-7e113fbd1608","system_id":"levelo_inurba_marseille","lat":43.279063,"lon":5.380138,"is_reserved":false,"is_disabled":false,"rental_uris":{"android":"levelo://app?vid=eeb997ff-27fb-46fb-ba0c-7e113fbd1608","ios":"levelo://app?vid=eeb997ff-27fb-46fb-ba0c-7e113fbd1608"},"vehicle_type_id":"4","last_reported":1781262842,"current_range_meters":6000,"station_id":"ce4bhf92rcd13ifvqf50","pricing_plan_id":"cebpf4jnsgd1na2vs0mg"},{"bike_id":"d650cd1d-87cb-4fbc-937d-9efa049b8777","system_id":"levelo_inurba_marseille","lat":43.314871,"lon":5.373088,"is_reserved":false,"is_disabled":false,"rental_uris":{"android":"levelo://app?vid=d650cd1d-87cb-4fbc-937d-9efa049b8777","ios":"levelo://app?vid=d650cd1d-87cb-4fbc-937d-9efa049b8777"},"vehicle_type_id":"4","last_reported":1781262842,"current_range_meters":6000,"station_id":"ce4bgt12rcd13ifvqcd0","pricing_plan_id":"cebpf4jnsgd1na2vs0mg"},{"bike_id":"edd7f6cf-c00d-4334-ba4f-ddda86c6a12e","system_id":"levelo_inurba_marseille","lat":43.30291,"lon":5.37683,"is_reserved":false,"is_disabled":false,"rental_uris":{"android":"levelo://app?vid=edd7f6cf-c00d-4334-ba4f-ddda86c6a12e","ios":"levelo://app?vid=edd7f6cf-c00d-4334-ba4f-ddda86c6a12e"},"vehicle_type_id":"4","last_reported":1781262842,"current_range_meters":6000,"station_id":"ce4bguh2rcd13ifvqcj0","pricing_plan_id":"cebpf4jnsgd1na2vs0mg"},{"bike_id":"ee3dbdb1-06d0-48d5-be9e-bcf348336b15","system_id":"levelo_inurba_marseille","lat":43.21741,"lon":5.34594,"is_reserved":false,"is_disabled":false,"rental_uris":{"android":"levelo://app?vid=ee3dbdb1-06d0-48d5-be9e-bcf348336b15","ios":"levelo://app?vid=ee3dbdb1-06d0-48d5-be9e-bcf348336b15"},"vehicle_type_id":"4","last_reported":1781262842,"current_range_meters":6000,"station_id":"st_cvj6r9ubvosntc0bgbag","pricing_plan_id":"cebpf4jnsgd1na2vs0mg"},{"bike_id":"517dcddc-3f9e-444c-ba01-38b592fb788c","system_id":"levelo_inurba_marseille","lat":43.28264,"lon":5.35065,"is_reserved":false,"is_disabled":false,"rental_uris":{"android":"levelo://app?vid=517dcddc-3f9e-444c-ba01-38b592fb788c","ios":"levelo://app?vid=517dcddc-3f9e-444c-ba01-38b592fb788c"},"vehicle_type_id":"4","last_reported":1781262842,"current_range_meters":6000,"station_id":"ce4bhbp2rcd13ifvqerg","pricing_plan_id":"cebpf4jnsgd1na2vs0mg"},{"bike_id":"dff444f9-ff69-47d7-a482-1bf35e6b0a4c","system_id":"levelo_inurba_marseille","lat":43.28419,"lon":5.37513,"is_reserved":false,"is_disabled":false,"rental_uris":{"android":"levelo://app?vid=dff444f9-ff69-47d7-a482-1bf35e6b0a4c","ios":"levelo://app?vid=dff444f9-ff69-47d7-a482-1bf35e6b0a4c"},"vehicle_type_id":"4","last_reported":1781262842,"current_range_meters":6000,"station_id":"ce4bh412rcd13ifvqds0","pricing_plan_id":"cebpf4jnsgd1na2vs0mg"},{"bike_id":"31e2ad24-3edc-483e-9c48-bdf3d89974f0","system_id":"levelo_inurba_marseille","lat":43.28133,"lon":5.38289,"is_reserved":false,"is_disabled":false,"rental_uris":{"android":"levelo://app?vid=31e2ad24-3edc-483e-9c48-bdf3d89974f0","ios":"levelo://app?vid=31e2ad24-3edc-483e-9c48-bdf3d89974f0"},"vehicle_type_id":"4","last_reported":1781262842,"current_range_meters":6000,"station_id":"","pricing_plan_id":"cebpf4jnsgd1na2vs0mg"},{"bike_id":"c48d0cd6-9afd-4f24-97bc-cfac1a2467e0","system_id":"levelo_inurba_marseille","lat":43.31257,"lon":5.42796,"is_reserved":false,"is_disabled":false,"rental_uris":{"android":"levelo://app?vid=c48d0cd6-9afd-4f24-97bc-cfac1a2467e0","ios":"levelo://app?vid=c48d0cd6-9afd-4f24-97bc-cfac1a2467e0"},"vehicle_type_id":"4","last_reported":1781262842,"current_range_meters":6400,"station_id":"","pricing_plan_id":"cebpf4jnsgd1na2vs0mg"},{"bike_id":"1370b5da-1367-4bd9-93b9-441df665645e","system_id":"levelo_inurba_marseille","lat":43.29932,"lon":5.37468,"is_reserved":false,"is_disabled":false,"rental_uris":{"android":"levelo://app?vid=1370b5da-1367-4bd9-93b9-441df665645e","ios":"levelo://app?vid=1370b5da-1367-4bd9-93b9-441df665645e"},"vehicle_type_id":"4","last_reported":1781262842,"current_range_meters":6400,"station_id":"ce4bgjh2rcd13ifvqbg0","pricing_plan_id":"cebpf4jnsgd1na2vs0mg"},{"bike_id":"ffe64971-2235-4928-8273-139de2def9e3","system_id":"levelo_inurba_marseille","lat":43.29412,"lon":5.37241,"is_reserved":false,"is_disabled":false,"rental_uris":{"android":"levelo://app?vid=ffe64971-2235-4928-8273-139de2def9e3","ios":"levelo://app?vid=ffe64971-2235-4928-8273-139de2def9e3"},"vehicle_type_id":"4","last_reported":1781262842,"current_range_meters":6400,"station_id":"","pricing_plan_id":"cebpf4jnsgd1na2vs0mg"},{"bike_id":"2569d490-0385-4986-85ff-b9b3c90c4a98","system_id":"levelo_inurba_marseille","lat":43.25325,"lon":5.42168,"is_reserved":false,"is_disabled":false,"rental_uris":{"android":"levelo://app?vid=2569d490-0385-4986-85ff-b9b3c90c4a98","ios":"levelo://app?vid=2569d490-0385-4986-85ff-b9b3c90c4a98"},"vehicle_type_id":"4","last_reported":1781262842,"current_range_meters":6400,"station_id":"st_d2m65c5bi1j21697t3ng","pricing_plan_id":"cebpf4jnsgd1na2vs0mg"},{"bike_id":"293102fa-29e2-4296-b754-fda39e6ba9a5","system_id":"levelo_inurba_marseille","lat":43.25728,"lon":5.41107,"is_reserved":false,"is_disabled":false,"rental_uris":{"android":"levelo://app?vid=293102fa-29e2-4296-b754-fda39e6ba9a5","ios":"levelo://app?vid=293102fa-29e2-4296-b754-fda39e6ba9a5"},"vehicle_type_id":"4","last_reported":1781262842,"current_range_meters":6400,"station_id":"ce4bhkp2rcd13ifvqgd0","pricing_plan_id":"cebpf4jnsgd1na2vs0mg"},{"bike_id":"5c4c7c29-d67c-425c-b25c-05cae9e3f92c","system_id":"levelo_inurba_marseille","lat":43.28459,"lon":5.38469,"is_reserved":false,"is_disabled":true,"rental_uris":{"android":"levelo://app?vid=5c4c7c29-d67c-425c-b25c-05cae9e3f92c","ios":"levelo://app?vid=5c4c7c29-d67c-425c-b25c-05cae9e3f92c"},"vehicle_type_id":"4","last_reported":1781262842,"current_range_meters":6400,"station_id":"ce4bh512rcd13ifvqe3g","pricing_plan_id":"cebpf4jnsgd1na2vs0mg"},{"bike_id":"4443ac08-5611-4193-a907-350aae3b0387","system_id":"levelo_inurba_marseille","lat":43.29039,"lon":5.35606,"is_reserved":false,"is_disabled":false,"rental_uris":{"android":"levelo://app?vid=4443ac08-5611-4193-a907-350aae3b0387","ios":"levelo://app?vid=4443ac08-5611-4193-a907-350aae3b0387"},"vehicle_type_id":"4","last_reported":1781262842,"current_range_meters":6400,"station_id":"ce4bhb92rcd13ifvqen0","pricing_plan_id":"cebpf4jnsgd1na2vs0mg"},{"bike_id":"f7698676-1932-4dbf-ab9d-6c907c9bbe14","system_id":"levelo_inurba_marseille","lat":43.31886,"lon":5.37143,"is_reserved":false,"is_disabled":false,"rental_uris":{"android":"levelo://app?vid=f7698676-1932-4dbf-ab9d-6c907c9bbe14","ios":"levelo://app?vid=f7698676-1932-4dbf-ab9d-6c907c9bbe14"},"vehicle_type_id":"4","last_reported":1781262842,"current_range_meters":6400,"station_id":"","pricing_plan_id":"cebpf4jnsgd1na2vs0mg"},{"bike_id":"e4306c09-3e85-4841-8218-1696a5033b15","system_id":"levelo_inurba_marseille","lat":43.27995,"lon":5.40022,"is_reserved":false,"is_disabled":false,"rental_uris":{"android":"levelo://app?vid=e4306c09-3e85-4841-8218-1696a5033b15","ios":"levelo://app?vid=e4306c09-3e85-4841-8218-1696a5033b15"},"vehicle_type_id":"4","last_reported":1781262842,"current_range_meters":6400,"station_id":"ce4bho92rcd13ifvqh4g","pricing_plan_id":"cebpf4jnsgd1na2vs0mg"},{"bike_id":"1f4db870-cf31-4d2c-805e-104dfb5bc01f","system_id":"levelo_inurba_marseille","lat":43.28075,"lon":5.35348,"is_reserved":false,"is_disabled":false,"rental_uris":{"android":"levelo://app?vid=1f4db870-cf31-4d2c-805e-104dfb5bc01f","ios":"levelo://app?vid=1f4db870-cf31-4d2c-805e-104dfb5bc01f"},"vehicle_type_id":"4","last_reported":1781262842,"current_range_meters":6400,"station_id":"","pricing_plan_id":"cebpf4jnsgd1na2vs0mg"},{"bike_id":"24f02d56-4cb2-4734-b396-c4353be9b86c","system_id":"levelo_inurba_marseille","lat":43.32099,"lon":5.36774,"is_reserved":false,"is_disabled":false,"rental_uris":{"android":"levelo://app?vid=24f02d56-4cb2-4734-b396-c4353be9b86c","ios":"levelo://app?vid=24f02d56-4cb2-4734-b396-c4353be9b86c"},"vehicle_type_id":"4","last_reported":1781262842,"current_range_meters":6400,"station_id":"ce4bhrh2rcd13ifvqhug","pricing_plan_id":"cebpf4jnsgd1na2vs0mg"},{"bike_id":"51993b2a-bc6c-4054-93ad-3a6c5609f6c5","system_id":"levelo_inurba_marseille","lat":43.290704,"lon":5.371299,"is_reserved":false,"is_disabled":false,"rental_uris":{"android":"levelo://app?vid=51993b2a-bc6c-4054-93ad-3a6c5609f6c5","ios":"levelo://app?vid=51993b2a-bc6c-4054-93ad-3a6c5609f6c5"},"vehicle_type_id":"4","last_reported":1781262842,"current_range_meters":6400,"station_id":"ce4bh5p2rcd13ifvqe4g","pricing_plan_id":"cebpf4jnsgd1na2vs0mg"},{"bike_id":"bd86ed6d-2aab-447c-8d64-ff086f383c06","system_id":"levelo_inurba_marseille","lat":43.28307,"lon":5.43637,"is_reserved":false,"is_disabled":false,"rental_uris":{"android":"levelo://app?vid=bd86ed6d-2aab-447c-8d64-ff086f383c06","ios":"levelo://app?vid=bd86ed6d-2aab-447c-8d64-ff086f383c06"},"vehicle_type_id":"4","last_reported":1781262842,"current_range_meters":6400,"station_id":"","pricing_plan_id":"cebpf4jnsgd1na2vs0mg"},{"bike_id":"9add5ea5-d360-44a6-9dfc-f6a1d8934e60","system_id":"levelo_inurba_marseille","lat":43.30128,"lon":5.40234,"is_reserved":false,"is_disabled":false,"rental_uris":{"android":"levelo://app?vid=9add5ea5-d360-44a6-9dfc-f6a1d8934e60","ios":"levelo://app?vid=9add5ea5-d360-44a6-9dfc-f6a1d8934e60"},"vehicle_type_id":"4","last_reported":1781262842,"current_range_meters":6400,"station_id":"","pricing_plan_id":"cebpf4jnsgd1na2vs0mg"},{"bike_id":"df692cee-63ce-42b3-a779-abecb4bfe5c0","system_id":"levelo_inurba_marseille","lat":43.26209,"lon":5.37443,"is_reserved":false,"is_disabled":false,"rental_uris":{"android":"levelo://app?vid=df692cee-63ce-42b3-a779-abecb4bfe5c0","ios":"levelo://app?vid=df692cee-63ce-42b3-a779-abecb4bfe5c0"},"vehicle_type_id":"4","last_reported":1781262842,"current_range_meters":6400,"station_id":"ce4bhgp2rcd13ifvqfc0","pricing_plan_id":"cebpf4jnsgd1na2vs0mg"},{"bike_id":"ad2a9b74-1d12-4e4a-b4e2-765d18e1ca71","system_id":"levelo_inurba_marseille","lat":43.28406,"lon":5.37514,"is_reserved":false,"is_disabled":false,"rental_uris":{"android":"levelo://app?vid=ad2a9b74-1d12-4e4a-b4e2-765d18e1ca71","ios":"levelo://app?vid=ad2a9b74-1d12-4e4a-b4e2-765d18e1ca71"},"vehicle_type_id":"4","last_reported":1781262842,"current_range_meters":6400,"station_id":"ce4bh412rcd13ifvqds0","pricing_plan_id":"cebpf4jnsgd1na2vs0mg"},{"bike_id":"95a6a820-080c-4047-9edc-2eab85cc3ea0","system_id":"levelo_inurba_marseille","lat":43.31236,"lon":5.37285,"is_reserved":false,"is_disabled":false,"rental_uris":{"android":"levelo://app?vid=95a6a820-080c-4047-9edc-2eab85cc3ea0","ios":"levelo://app?vid=95a6a820-080c-4047-9edc-2eab85cc3ea0"},"vehicle_type_id":"4","last_reported":1781262842,"current_range_meters":6400,"station_id":"","pricing_plan_id":"cebpf4jnsgd1na2vs0mg"},{"bike_id":"aaa66412-2aa3-4106-bf51-3d316dbc10b4","system_id":"levelo_inurba_marseille","lat":43.22567,"lon":5.4163,"is_reserved":false,"is_disabled":false,"rental_uris":{"android":"levelo://app?vid=aaa66412-2aa3-4106-bf51-3d316dbc10b4","ios":"levelo://app?vid=aaa66412-2aa3-4106-bf51-3d316dbc10b4"},"vehicle_type_id":"4","last_reported":1781262842,"current_range_meters":6800,"station_id":"st_d2o4gvlbi1j2169b742g","pricing_plan_id":"cebpf4jnsgd1na2vs0mg"},{"bike_id":"f7e83432-a5ef-43a0-8cb3-b004fa743e65","system_id":"levelo_inurba_marseille","lat":43.2658,"lon":5.39035,"is_reserved":false,"is_disabled":false,"rental_uris":{"android":"levelo://app?vid=f7e83432-a5ef-43a0-8cb3-b004fa743e65","ios":"levelo://app?vid=f7e83432-a5ef-43a0-8cb3-b004fa743e65"},"vehicle_type_id":"4","last_reported":1781262842,"current_range_meters":6800,"station_id":"ce4bhe12rcd13ifvqf30","pricing_plan_id":"cebpf4jnsgd1na2vs0mg"},{"bike_id":"4d2bebf7-8386-415b-a6ab-191c1fd6ecb0","system_id":"levelo_inurba_marseille","lat":43.26067,"lon":5.39406,"is_reserved":false,"is_disabled":false,"rental_uris":{"android":"levelo://app?vid=4d2bebf7-8386-415b-a6ab-191c1fd6ecb0","ios":"levelo://app?vid=4d2bebf7-8386-415b-a6ab-191c1fd6ecb0"},"vehicle_type_id":"4","last_reported":1781262842,"current_range_meters":6800,"station_id":"ce4bhh92rcd13ifvqfj0","pricing_plan_id":"cebpf4jnsgd1na2vs0mg"},{"bike_id":"9d08f453-997e-4a86-bb77-48f13810d5e6","system_id":"levelo_inurba_marseille","lat":43.26745,"lon":5.38957,"is_reserved":false,"is_disabled":false,"rental_uris":{"android":"levelo://app?vid=9d08f453-997e-4a86-bb77-48f13810d5e6","ios":"levelo://app?vid=9d08f453-997e-4a86-bb77-48f13810d5e6"},"vehicle_type_id":"4","last_reported":1781262842,"current_range_meters":6800,"station_id":"","pricing_plan_id":"cebpf4jnsgd1na2vs0mg"},{"bike_id":"116e7e79-df73-459e-bb6d-922ab4ccb8bd","system_id":"levelo_inurba_marseille","lat":43.21195,"lon":5.35068,"is_reserved":false,"is_disabled":false,"rental_uris":{"android":"levelo://app?vid=116e7e79-df73-459e-bb6d-922ab4ccb8bd","ios":"levelo://app?vid=116e7e79-df73-459e-bb6d-922ab4ccb8bd"},"vehicle_type_id":"4","last_reported":1781262842,"current_range_meters":6800,"station_id":"st_cvj6sg6p6f1abm77japg","pricing_plan_id":"cebpf4jnsgd1na2vs0mg"},{"bike_id":"3df71518-9221-4ece-90aa-5900531e736d","system_id":"levelo_inurba_marseille","lat":43.26068,"lon":5.39394,"is_reserved":false,"is_disabled":false,"rental_uris":{"android":"levelo://app?vid=3df71518-9221-4ece-90aa-5900531e736d","ios":"levelo://app?vid=3df71518-9221-4ece-90aa-5900531e736d"},"vehicle_type_id":"4","last_reported":1781262842,"current_range_meters":6800,"station_id":"ce4bhh92rcd13ifvqfj0","pricing_plan_id":"cebpf4jnsgd1na2vs0mg"},{"bike_id":"a4fb5a2a-5e65-4ce4-81d2-ea0f90918e5a","system_id":"levelo_inurba_marseille","lat":43.28424,"lon":5.34972,"is_reserved":false,"is_disabled":false,"rental_uris":{"android":"levelo://app?vid=a4fb5a2a-5e65-4ce4-81d2-ea0f90918e5a","ios":"levelo://app?vid=a4fb5a2a-5e65-4ce4-81d2-ea0f90918e5a"},"vehicle_type_id":"4","last_reported":1781262842,"current_range_meters":6800,"station_id":"ce4bhbh2rcd13ifvqepg","pricing_plan_id":"cebpf4jnsgd1na2vs0mg"},{"bike_id":"b83be4d3-06f4-4b3e-9ba2-a6d47abaf96e","system_id":"levelo_inurba_marseille","lat":43.2922,"lon":5.37513,"is_reserved":false,"is_disabled":true,"rental_uris":{"android":"levelo://app?vid=b83be4d3-06f4-4b3e-9ba2-a6d47abaf96e","ios":"levelo://app?vid=b83be4d3-06f4-4b3e-9ba2-a6d47abaf96e"},"vehicle_type_id":"4","last_reported":1781262842,"current_range_meters":6800,"station_id":"","pricing_plan_id":"cebpf4jnsgd1na2vs0mg"},{"bike_id":"318c2327-cd61-4b3a-8efa-5ff92eb9038b","system_id":"levelo_inurba_marseille","lat":43.32814,"lon":5.36736,"is_reserved":false,"is_disabled":false,"rental_uris":{"android":"levelo://app?vid=318c2327-cd61-4b3a-8efa-5ff92eb9038b","ios":"levelo://app?vid=318c2327-cd61-4b3a-8efa-5ff92eb9038b"},"vehicle_type_id":"4","last_reported":1781262842,"current_range_meters":6800,"station_id":"","pricing_plan_id":"cebpf4jnsgd1na2vs0mg"},{"bike_id":"21c7c68e-9f6b-44e1-82ea-374ab6ba73e8","system_id":"levelo_inurba_marseille","lat":43.23128,"lon":5.43743,"is_reserved":false,"is_disabled":false,"rental_uris":{"android":"levelo://app?vid=21c7c68e-9f6b-44e1-82ea-374ab6ba73e8","ios":"levelo://app?vid=21c7c68e-9f6b-44e1-82ea-374ab6ba73e8"},"vehicle_type_id":"4","last_reported":1781262842,"current_range_meters":6800,"station_id":"","pricing_plan_id":"cebpf4jnsgd1na2vs0mg"},{"bike_id":"12551213-0e8d-4306-b0db-b0c5b3b47efd","system_id":"levelo_inurba_marseille","lat":43.23898,"lon":5.3746,"is_reserved":false,"is_disabled":false,"rental_uris":{"android":"levelo://app?vid=12551213-0e8d-4306-b0db-b0c5b3b47efd","ios":"levelo://app?vid=12551213-0e8d-4306-b0db-b0c5b3b47efd"},"vehicle_type_id":"4","last_reported":1781262842,"current_range_meters":6800,"station_id":"st_d6sm7csbq4hs73f8fpjg","pricing_plan_id":"cebpf4jnsgd1na2vs0mg"},{"bike_id":"101b7f5f-8175-4d04-b48e-7db73483ae8d","system_id":"levelo_inurba_marseille","lat":43.25003,"lon":5.3894,"is_reserved":false,"is_disabled":false,"rental_uris":{"android":"levelo://app?vid=101b7f5f-8175-4d04-b48e-7db73483ae8d","ios":"levelo://app?vid=101b7f5f-8175-4d04-b48e-7db73483ae8d"},"vehicle_type_id":"4","last_reported":1781262842,"current_range_meters":6800,"station_id":"ce4bhgp2rcd13ifvqfd0","pricing_plan_id":"cebpf4jnsgd1na2vs0mg"},{"bike_id":"6edb1571-ff0e-41be-86f6-ab57a8172f99","system_id":"levelo_inurba_marseille","lat":43.32108,"lon":5.36778,"is_reserved":false,"is_disabled":false,"rental_uris":{"android":"levelo://app?vid=6edb1571-ff0e-41be-86f6-ab57a8172f99","ios":"levelo://app?vid=6edb1571-ff0e-41be-86f6-ab57a8172f99"},"vehicle_type_id":"4","last_reported":1781262842,"current_range_meters":6800,"station_id":"ce4bhrh2rcd13ifvqhug","pricing_plan_id":"cebpf4jnsgd1na2vs0mg"},{"bike_id":"e2afbfe1-ed0a-41a7-aab3-2924c7e1763d","system_id":"levelo_inurba_marseille","lat":43.29375,"lon":5.37846,"is_reserved":false,"is_disabled":false,"rental_uris":{"android":"levelo://app?vid=e2afbfe1-ed0a-41a7-aab3-2924c7e1763d","ios":"levelo://app?vid=e2afbfe1-ed0a-41a7-aab3-2924c7e1763d"},"vehicle_type_id":"4","last_reported":1781262842,"current_range_meters":6800,"station_id":"ce4bgjh2rcd13ifvqbf0","pricing_plan_id":"cebpf4jnsgd1na2vs0mg"},{"bike_id":"c4c8f592-2f0a-488a-9059-30a67bfcfd66","system_id":"levelo_inurba_marseille","lat":43.24812,"lon":5.37476,"is_reserved":false,"is_disabled":false,"rental_uris":{"android":"levelo://app?vid=c4c8f592-2f0a-488a-9059-30a67bfcfd66","ios":"levelo://app?vid=c4c8f592-2f0a-488a-9059-30a67bfcfd66"},"vehicle_type_id":"4","last_reported":1781262842,"current_range_meters":6800,"station_id":"ce4bhgh2rcd13ifvqfb0","pricing_plan_id":"cebpf4jnsgd1na2vs0mg"},{"bike_id":"8148c0e0-aa12-45e8-903a-433ca8b036d1","system_id":"levelo_inurba_marseille","lat":43.28689,"lon":5.38347,"is_reserved":false,"is_disabled":false,"rental_uris":{"android":"levelo://app?vid=8148c0e0-aa12-45e8-903a-433ca8b036d1","ios":"levelo://app?vid=8148c0e0-aa12-45e8-903a-433ca8b036d1"},"vehicle_type_id":"4","last_reported":1781262842,"current_range_meters":6800,"station_id":"","pricing_plan_id":"cebpf4jnsgd1na2vs0mg"},{"bike_id":"3124ce88-1f05-4fdb-a8ce-ab2d7e6b47b0","system_id":"levelo_inurba_marseille","lat":43.26223,"lon":5.38783,"is_reserved":false,"is_disabled":false,"rental_uris":{"android":"levelo://app?vid=3124ce88-1f05-4fdb-a8ce-ab2d7e6b47b0","ios":"levelo://app?vid=3124ce88-1f05-4fdb-a8ce-ab2d7e6b47b0"},"vehicle_type_id":"4","last_reported":1781262842,"current_range_meters":6800,"station_id":"st_d8gjfg747rts73coq3b0","pricing_plan_id":"cebpf4jnsgd1na2vs0mg"},{"bike_id":"179f6131-262d-4975-aec7-0fca2eed6ca4","system_id":"levelo_inurba_marseille","lat":43.24391,"lon":5.37055,"is_reserved":false,"is_disabled":false,"rental_uris":{"android":"levelo://app?vid=179f6131-262d-4975-aec7-0fca2eed6ca4","ios":"levelo://app?vid=179f6131-262d-4975-aec7-0fca2eed6ca4"},"vehicle_type_id":"4","last_reported":1781262842,"current_range_meters":6800,"station_id":"ce4bhhh2rcd13ifvqfk0","pricing_plan_id":"cebpf4jnsgd1na2vs0mg"},{"bike_id":"a848a5d1-feb4-4560-89e7-b2ad298b123f","system_id":"levelo_inurba_marseille","lat":43.2464,"lon":5.43152,"is_reserved":false,"is_disabled":false,"rental_uris":{"android":"levelo://app?vid=a848a5d1-feb4-4560-89e7-b2ad298b123f","ios":"levelo://app?vid=a848a5d1-feb4-4560-89e7-b2ad298b123f"},"vehicle_type_id":"4","last_reported":1781262842,"current_range_meters":6800,"station_id":"st_d2m6c4gdas8pm72e190g","pricing_plan_id":"cebpf4jnsgd1na2vs0mg"},{"bike_id":"b4c0f195-58a3-456c-9ed4-e0663f1468e6","system_id":"levelo_inurba_marseille","lat":43.28243,"lon":5.374,"is_reserved":false,"is_disabled":false,"rental_uris":{"android":"levelo://app?vid=b4c0f195-58a3-456c-9ed4-e0663f1468e6","ios":"levelo://app?vid=b4c0f195-58a3-456c-9ed4-e0663f1468e6"},"vehicle_type_id":"4","last_reported":1781262842,"current_range_meters":6800,"station_id":"","pricing_plan_id":"cebpf4jnsgd1na2vs0mg"},{"bike_id":"4cb04bb5-fc45-4271-8f3a-27a83d637754","system_id":"levelo_inurba_marseille","lat":43.2962,"lon":5.3773,"is_reserved":false,"is_disabled":false,"rental_uris":{"android":"levelo://app?vid=4cb04bb5-fc45-4271-8f3a-27a83d637754","ios":"levelo://app?vid=4cb04bb5-fc45-4271-8f3a-27a83d637754"},"vehicle_type_id":"4","last_reported":1781262842,"current_range_meters":6800,"station_id":"ce4bgi92rcd13ifvqb90","pricing_plan_id":"cebpf4jnsgd1na2vs0mg"},{"bike_id":"d4c44839-7037-47eb-af80-3ad0d1f13d34","system_id":"levelo_inurba_marseille","lat":43.23172,"lon":5.39974,"is_reserved":false,"is_disabled":false,"rental_uris":{"android":"levelo://app?vid=d4c44839-7037-47eb-af80-3ad0d1f13d34","ios":"levelo://app?vid=d4c44839-7037-47eb-af80-3ad0d1f13d34"},"vehicle_type_id":"4","last_reported":1781262842,"current_range_meters":6800,"station_id":"ce4bhn12rcd13ifvqgqg","pricing_plan_id":"cebpf4jnsgd1na2vs0mg"},{"bike_id":"c7003374-df0a-4adf-a763-b7ffcb27c463","system_id":"levelo_inurba_marseille","lat":43.28482,"lon":5.48389,"is_reserved":false,"is_disabled":false,"rental_uris":{"android":"levelo://app?vid=c7003374-df0a-4adf-a763-b7ffcb27c463","ios":"levelo://app?vid=c7003374-df0a-4adf-a763-b7ffcb27c463"},"vehicle_type_id":"4","last_reported":1781262842,"current_range_meters":6800,"station_id":"st_d3svhcjqgbts73a3dn0g","pricing_plan_id":"cebpf4jnsgd1na2vs0mg"},{"bike_id":"ee494397-ad1c-4b5e-80ed-9cc6e888762d","system_id":"levelo_inurba_marseille","lat":43.31888,"lon":5.42494,"is_reserved":false,"is_disabled":false,"rental_uris":{"android":"levelo://app?vid=ee494397-ad1c-4b5e-80ed-9cc6e888762d","ios":"levelo://app?vid=ee494397-ad1c-4b5e-80ed-9cc6e888762d"},"vehicle_type_id":"4","last_reported":1781262842,"current_range_meters":6800,"station_id":"","pricing_plan_id":"cebpf4jnsgd1na2vs0mg"},{"bike_id":"32afd346-c3bc-40c0-8feb-703806f9dc79","system_id":"levelo_inurba_marseille","lat":43.29584,"lon":5.36727,"is_reserved":false,"is_disabled":false,"rental_uris":{"android":"levelo://app?vid=32afd346-c3bc-40c0-8feb-703806f9dc79","ios":"levelo://app?vid=32afd346-c3bc-40c0-8feb-703806f9dc79"},"vehicle_type_id":"4","last_reported":1781262842,"current_range_meters":7200,"station_id":"ce4bgph2rcd13ifvqc2g","pricing_plan_id":"cebpf4jnsgd1na2vs0mg"},{"bike_id":"3e4303bd-4e13-42f8-ae0c-25a66192c901","system_id":"levelo_inurba_marseille","lat":43.31527,"lon":5.38803,"is_reserved":false,"is_disabled":false,"rental_uris":{"android":"levelo://app?vid=3e4303bd-4e13-42f8-ae0c-25a66192c901","ios":"levelo://app?vid=3e4303bd-4e13-42f8-ae0c-25a66192c901"},"vehicle_type_id":"4","last_reported":1781262842,"current_range_meters":7200,"station_id":"","pricing_plan_id":"cebpf4jnsgd1na2vs0mg"},{"bike_id":"18457be2-b611-4aab-b482-f77da53306f7","system_id":"levelo_inurba_marseille","lat":43.28042,"lon":5.36955,"is_reserved":false,"is_disabled":false,"rental_uris":{"android":"levelo://app?vid=18457be2-b611-4aab-b482-f77da53306f7","ios":"levelo://app?vid=18457be2-b611-4aab-b482-f77da53306f7"},"vehicle_type_id":"4","last_reported":1781262842,"current_range_meters":7200,"station_id":"ce4bha12rcd13ifvqef0","pricing_plan_id":"cebpf4jnsgd1na2vs0mg"},{"bike_id":"4865a1c5-afe2-4dda-8194-f69b08d22f31","system_id":"levelo_inurba_marseille","lat":43.25577,"lon":5.38242,"is_reserved":false,"is_disabled":false,"rental_uris":{"android":"levelo://app?vid=4865a1c5-afe2-4dda-8194-f69b08d22f31","ios":"levelo://app?vid=4865a1c5-afe2-4dda-8194-f69b08d22f31"},"vehicle_type_id":"4","last_reported":1781262842,"current_range_meters":7200,"station_id":"ce4bhih2rcd13ifvqfs0","pricing_plan_id":"cebpf4jnsgd1na2vs0mg"},{"bike_id":"315d3cd3-9556-47d2-bf87-42573b9faa84","system_id":"levelo_inurba_marseille","lat":43.29902,"lon":5.38383,"is_reserved":false,"is_disabled":false,"rental_uris":{"android":"levelo://app?vid=315d3cd3-9556-47d2-bf87-42573b9faa84","ios":"levelo://app?vid=315d3cd3-9556-47d2-bf87-42573b9faa84"},"vehicle_type_id":"4","last_reported":1781262842,"current_range_meters":7200,"station_id":"","pricing_plan_id":"cebpf4jnsgd1na2vs0mg"},{"bike_id":"87c9c0a8-931d-4b01-a103-ba5850e0884c","system_id":"levelo_inurba_marseille","lat":43.2904,"lon":5.39961,"is_reserved":false,"is_disabled":false,"rental_uris":{"android":"levelo://app?vid=87c9c0a8-931d-4b01-a103-ba5850e0884c","ios":"levelo://app?vid=87c9c0a8-931d-4b01-a103-ba5850e0884c"},"vehicle_type_id":"4","last_reported":1781262842,"current_range_meters":7200,"station_id":"ce4bh392rcd13ifvqdm0","pricing_plan_id":"cebpf4jnsgd1na2vs0mg"},{"bike_id":"7517847f-78c5-4a44-81bc-006011a377bc","system_id":"levelo_inurba_marseille","lat":43.31363,"lon":5.38501,"is_reserved":false,"is_disabled":false,"rental_uris":{"android":"levelo://app?vid=7517847f-78c5-4a44-81bc-006011a377bc","ios":"levelo://app?vid=7517847f-78c5-4a44-81bc-006011a377bc"},"vehicle_type_id":"4","last_reported":1781262842,"current_range_meters":7200,"station_id":"ce4bgt92rcd13ifvqcf0","pricing_plan_id":"cebpf4jnsgd1na2vs0mg"},{"bike_id":"0a4e2da6-fb2a-4bbf-9fed-a2160495fed1","system_id":"levelo_inurba_marseille","lat":43.30336,"lon":5.36905,"is_reserved":false,"is_disabled":true,"rental_uris":{"android":"levelo://app?vid=0a4e2da6-fb2a-4bbf-9fed-a2160495fed1","ios":"levelo://app?vid=0a4e2da6-fb2a-4bbf-9fed-a2160495fed1"},"vehicle_type_id":"4","last_reported":1781262842,"current_range_meters":7200,"station_id":"ce4bgqh2rcd13ifvqc5g","pricing_plan_id":"cebpf4jnsgd1na2vs0mg"},{"bike_id":"7a07e961-80cc-472d-a5a2-4f9cd04d7b37","system_id":"levelo_inurba_marseille","lat":43.28431,"lon":5.35007,"is_reserved":false,"is_disabled":false,"rental_uris":{"android":"levelo://app?vid=7a07e961-80cc-472d-a5a2-4f9cd04d7b37","ios":"levelo://app?vid=7a07e961-80cc-472d-a5a2-4f9cd04d7b37"},"vehicle_type_id":"4","last_reported":1781262842,"current_range_meters":7200,"station_id":"ce4bhbh2rcd13ifvqepg","pricing_plan_id":"cebpf4jnsgd1na2vs0mg"},{"bike_id":"8e6e02df-329b-42ff-b934-ad50ca0d719f","system_id":"levelo_inurba_marseille","lat":43.313619,"lon":5.384877,"is_reserved":false,"is_disabled":false,"rental_uris":{"android":"levelo://app?vid=8e6e02df-329b-42ff-b934-ad50ca0d719f","ios":"levelo://app?vid=8e6e02df-329b-42ff-b934-ad50ca0d719f"},"vehicle_type_id":"4","last_reported":1781262842,"current_range_meters":7200,"station_id":"ce4bgt92rcd13ifvqcf0","pricing_plan_id":"cebpf4jnsgd1na2vs0mg"},{"bike_id":"b105e559-ad92-41ad-9bdf-4bd2f454dd68","system_id":"levelo_inurba_marseille","lat":43.30158,"lon":5.4495,"is_reserved":false,"is_disabled":false,"rental_uris":{"android":"levelo://app?vid=b105e559-ad92-41ad-9bdf-4bd2f454dd68","ios":"levelo://app?vid=b105e559-ad92-41ad-9bdf-4bd2f454dd68"},"vehicle_type_id":"4","last_reported":1781262842,"current_range_meters":7200,"station_id":"","pricing_plan_id":"cebpf4jnsgd1na2vs0mg"},{"bike_id":"053da4ad-0e65-446d-a318-557af5f87dd1","system_id":"levelo_inurba_marseille","lat":43.22569,"lon":5.4164,"is_reserved":false,"is_disabled":false,"rental_uris":{"android":"levelo://app?vid=053da4ad-0e65-446d-a318-557af5f87dd1","ios":"levelo://app?vid=053da4ad-0e65-446d-a318-557af5f87dd1"},"vehicle_type_id":"4","last_reported":1781262842,"current_range_meters":7200,"station_id":"st_d2o4gvlbi1j2169b742g","pricing_plan_id":"cebpf4jnsgd1na2vs0mg"},{"bike_id":"5959399d-2a5a-4619-a6df-91439cbfbae4","system_id":"levelo_inurba_marseille","lat":43.27068,"lon":5.38301,"is_reserved":false,"is_disabled":false,"rental_uris":{"android":"levelo://app?vid=5959399d-2a5a-4619-a6df-91439cbfbae4","ios":"levelo://app?vid=5959399d-2a5a-4619-a6df-91439cbfbae4"},"vehicle_type_id":"4","last_reported":1781262842,"current_range_meters":7200,"station_id":"st_d3n2fo6cfp8s73cte1j0","pricing_plan_id":"cebpf4jnsgd1na2vs0mg"},{"bike_id":"efd05b89-7ac0-46b5-82a9-2e2550299418","system_id":"levelo_inurba_marseille","lat":43.28476,"lon":5.38425,"is_reserved":false,"is_disabled":false,"rental_uris":{"android":"levelo://app?vid=efd05b89-7ac0-46b5-82a9-2e2550299418","ios":"levelo://app?vid=efd05b89-7ac0-46b5-82a9-2e2550299418"},"vehicle_type_id":"4","last_reported":1781262842,"current_range_meters":7200,"station_id":"ce4bh512rcd13ifvqe3g","pricing_plan_id":"cebpf4jnsgd1na2vs0mg"},{"bike_id":"ab74a032-1b11-434e-90d8-6f4ff787aed5","system_id":"levelo_inurba_marseille","lat":43.28267,"lon":5.35065,"is_reserved":false,"is_disabled":false,"rental_uris":{"android":"levelo://app?vid=ab74a032-1b11-434e-90d8-6f4ff787aed5","ios":"levelo://app?vid=ab74a032-1b11-434e-90d8-6f4ff787aed5"},"vehicle_type_id":"4","last_reported":1781262842,"current_range_meters":7200,"station_id":"ce4bhbp2rcd13ifvqerg","pricing_plan_id":"cebpf4jnsgd1na2vs0mg"},{"bike_id":"28d84a61-6fbf-492e-9f77-9e250f4d4fea","system_id":"levelo_inurba_marseille","lat":43.23791,"lon":5.36657,"is_reserved":false,"is_disabled":false,"rental_uris":{"android":"levelo://app?vid=28d84a61-6fbf-492e-9f77-9e250f4d4fea","ios":"levelo://app?vid=28d84a61-6fbf-492e-9f77-9e250f4d4fea"},"vehicle_type_id":"4","last_reported":1781262842,"current_range_meters":7200,"station_id":"st_d3nk18o9ro0c73en2l3g","pricing_plan_id":"cebpf4jnsgd1na2vs0mg"},{"bike_id":"8cdd5134-21fa-471c-bbb5-c51537a7415f","system_id":"levelo_inurba_marseille","lat":43.30572,"lon":5.40461,"is_reserved":false,"is_disabled":false,"rental_uris":{"android":"levelo://app?vid=8cdd5134-21fa-471c-bbb5-c51537a7415f","ios":"levelo://app?vid=8cdd5134-21fa-471c-bbb5-c51537a7415f"},"vehicle_type_id":"4","last_reported":1781262842,"current_range_meters":7200,"station_id":"","pricing_plan_id":"cebpf4jnsgd1na2vs0mg"},{"bike_id":"6a9de285-23fb-43e7-8001-83e00612013f","system_id":"levelo_inurba_marseille","lat":43.27828,"lon":5.40703,"is_reserved":false,"is_disabled":false,"rental_uris":{"android":"levelo://app?vid=6a9de285-23fb-43e7-8001-83e00612013f","ios":"levelo://app?vid=6a9de285-23fb-43e7-8001-83e00612013f"},"vehicle_type_id":"4","last_reported":1781262842,"current_range_meters":7200,"station_id":"ce4bhnh2rcd13ifvqgtg","pricing_plan_id":"cebpf4jnsgd1na2vs0mg"},{"bike_id":"fb46c6ef-fee1-4a2b-bf04-e9c56c0b53bb","system_id":"levelo_inurba_marseille","lat":43.24171,"lon":5.36391,"is_reserved":false,"is_disabled":false,"rental_uris":{"android":"levelo://app?vid=fb46c6ef-fee1-4a2b-bf04-e9c56c0b53bb","ios":"levelo://app?vid=fb46c6ef-fee1-4a2b-bf04-e9c56c0b53bb"},"vehicle_type_id":"4","last_reported":1781262842,"current_range_meters":7200,"station_id":"cpo36qri1sfpv3e86is0","pricing_plan_id":"cebpf4jnsgd1na2vs0mg"},{"bike_id":"58b2889d-c638-479d-9468-dd0cb99a602e","system_id":"levelo_inurba_marseille","lat":43.29926,"lon":5.36543,"is_reserved":false,"is_disabled":false,"rental_uris":{"android":"levelo://app?vid=58b2889d-c638-479d-9468-dd0cb99a602e","ios":"levelo://app?vid=58b2889d-c638-479d-9468-dd0cb99a602e"},"vehicle_type_id":"4","last_reported":1781262842,"current_range_meters":8000,"station_id":"ce4bgm92rcd13ifvqbr0","pricing_plan_id":"cebpf4jnsgd1na2vs0mg"},{"bike_id":"7a5d3611-88fa-4aa8-8162-ee13b664b17e","system_id":"levelo_inurba_marseille","lat":43.29216,"lon":5.36078,"is_reserved":false,"is_disabled":false,"rental_uris":{"android":"levelo://app?vid=7a5d3611-88fa-4aa8-8162-ee13b664b17e","ios":"levelo://app?vid=7a5d3611-88fa-4aa8-8162-ee13b664b17e"},"vehicle_type_id":"4","last_reported":1781262842,"current_range_meters":8000,"station_id":"ce4bhbh2rcd13ifvqeqg","pricing_plan_id":"cebpf4jnsgd1na2vs0mg"},{"bike_id":"d39db183-6bf7-420a-96f5-b25822544857","system_id":"levelo_inurba_marseille","lat":43.32354,"lon":5.36742,"is_reserved":false,"is_disabled":false,"rental_uris":{"android":"levelo://app?vid=d39db183-6bf7-420a-96f5-b25822544857","ios":"levelo://app?vid=d39db183-6bf7-420a-96f5-b25822544857"},"vehicle_type_id":"4","last_reported":1781262842,"current_range_meters":8000,"station_id":"ce4bhsh2rcd13ifvqi2g","pricing_plan_id":"cebpf4jnsgd1na2vs0mg"},{"bike_id":"c4658105-c5fe-4c82-a8d0-e136de946081","system_id":"levelo_inurba_marseille","lat":43.27431,"lon":5.39453,"is_reserved":false,"is_disabled":false,"rental_uris":{"android":"levelo://app?vid=c4658105-c5fe-4c82-a8d0-e136de946081","ios":"levelo://app?vid=c4658105-c5fe-4c82-a8d0-e136de946081"},"vehicle_type_id":"4","last_reported":1781262842,"current_range_meters":8000,"station_id":"ce4bhdp2rcd13ifvqf20","pricing_plan_id":"cebpf4jnsgd1na2vs0mg"},{"bike_id":"e709d536-92d3-4ca3-8221-f3eccb7a50dc","system_id":"levelo_inurba_marseille","lat":43.33538,"lon":5.3748,"is_reserved":false,"is_disabled":false,"rental_uris":{"android":"levelo://app?vid=e709d536-92d3-4ca3-8221-f3eccb7a50dc","ios":"levelo://app?vid=e709d536-92d3-4ca3-8221-f3eccb7a50dc"},"vehicle_type_id":"4","last_reported":1781262842,"current_range_meters":8000,"station_id":"st_d46tts09ee8s73dlu43g","pricing_plan_id":"cebpf4jnsgd1na2vs0mg"},{"bike_id":"5e91578c-c3d4-48c0-b561-da17b5977358","system_id":"levelo_inurba_marseille","lat":43.27381,"lon":5.36259,"is_reserved":false,"is_disabled":false,"rental_uris":{"android":"levelo://app?vid=5e91578c-c3d4-48c0-b561-da17b5977358","ios":"levelo://app?vid=5e91578c-c3d4-48c0-b561-da17b5977358"},"vehicle_type_id":"4","last_reported":1781262842,"current_range_meters":8000,"station_id":"ce4bhbh2rcd13ifvqeo0","pricing_plan_id":"cebpf4jnsgd1na2vs0mg"},{"bike_id":"88d88840-9fc2-4a2e-b363-e13f413fcb82","system_id":"levelo_inurba_marseille","lat":43.31046,"lon":5.37177,"is_reserved":false,"is_disabled":false,"rental_uris":{"android":"levelo://app?vid=88d88840-9fc2-4a2e-b363-e13f413fcb82","ios":"levelo://app?vid=88d88840-9fc2-4a2e-b363-e13f413fcb82"},"vehicle_type_id":"4","last_reported":1781262842,"current_range_meters":8000,"station_id":"st_d4kl2rp97mjs73e7tdfg","pricing_plan_id":"cebpf4jnsgd1na2vs0mg"},{"bike_id":"0bfa30f2-9064-420d-a48a-a650a411e291","system_id":"levelo_inurba_marseille","lat":43.25569,"lon":5.3825,"is_reserved":false,"is_disabled":false,"rental_uris":{"android":"levelo://app?vid=0bfa30f2-9064-420d-a48a-a650a411e291","ios":"levelo://app?vid=0bfa30f2-9064-420d-a48a-a650a411e291"},"vehicle_type_id":"4","last_reported":1781262842,"current_range_meters":8000,"station_id":"ce4bhih2rcd13ifvqfs0","pricing_plan_id":"cebpf4jnsgd1na2vs0mg"},{"bike_id":"428b58eb-4234-46bc-b76e-656f73941f79","system_id":"levelo_inurba_marseille","lat":43.29576,"lon":5.38319,"is_reserved":false,"is_disabled":false,"rental_uris":{"android":"levelo://app?vid=428b58eb-4234-46bc-b76e-656f73941f79","ios":"levelo://app?vid=428b58eb-4234-46bc-b76e-656f73941f79"},"vehicle_type_id":"4","last_reported":1781262842,"current_range_meters":8000,"station_id":"","pricing_plan_id":"cebpf4jnsgd1na2vs0mg"},{"bike_id":"1092cd7f-d680-45ee-8ff2-7815bf031c7e","system_id":"levelo_inurba_marseille","lat":43.31679,"lon":5.3774,"is_reserved":false,"is_disabled":false,"rental_uris":{"android":"levelo://app?vid=1092cd7f-d680-45ee-8ff2-7815bf031c7e","ios":"levelo://app?vid=1092cd7f-d680-45ee-8ff2-7815bf031c7e"},"vehicle_type_id":"4","last_reported":1781262842,"current_range_meters":8000,"station_id":"ce4bgth2rcd13ifvqch0","pricing_plan_id":"cebpf4jnsgd1na2vs0mg"},{"bike_id":"3171beed-ba41-4290-affc-9ea88eff5208","system_id":"levelo_inurba_marseille","lat":43.24955,"lon":5.40487,"is_reserved":false,"is_disabled":false,"rental_uris":{"android":"levelo://app?vid=3171beed-ba41-4290-affc-9ea88eff5208","ios":"levelo://app?vid=3171beed-ba41-4290-affc-9ea88eff5208"},"vehicle_type_id":"4","last_reported":1781262842,"current_range_meters":8000,"station_id":"st_d2ngiaodas8pm72gd1h0","pricing_plan_id":"cebpf4jnsgd1na2vs0mg"},{"bike_id":"76b5dbf6-4dec-4e15-b75c-64bfd5286ab8","system_id":"levelo_inurba_marseille","lat":43.33547,"lon":5.37475,"is_reserved":false,"is_disabled":false,"rental_uris":{"android":"levelo://app?vid=76b5dbf6-4dec-4e15-b75c-64bfd5286ab8","ios":"levelo://app?vid=76b5dbf6-4dec-4e15-b75c-64bfd5286ab8"},"vehicle_type_id":"4","last_reported":1781262842,"current_range_meters":8000,"station_id":"st_d46tts09ee8s73dlu43g","pricing_plan_id":"cebpf4jnsgd1na2vs0mg"},{"bike_id":"7af5dc62-7a31-4d7c-a26c-927a2cb82321","system_id":"levelo_inurba_marseille","lat":43.32101,"lon":5.36764,"is_reserved":false,"is_disabled":false,"rental_uris":{"android":"levelo://app?vid=7af5dc62-7a31-4d7c-a26c-927a2cb82321","ios":"levelo://app?vid=7af5dc62-7a31-4d7c-a26c-927a2cb82321"},"vehicle_type_id":"4","last_reported":1781262842,"current_range_meters":8000,"station_id":"ce4bhrh2rcd13ifvqhug","pricing_plan_id":"cebpf4jnsgd1na2vs0mg"},{"bike_id":"474936c9-a214-4b5a-9241-5f7ab07670f7","system_id":"levelo_inurba_marseille","lat":43.29606,"lon":5.37749,"is_reserved":false,"is_disabled":true,"rental_uris":{"android":"levelo://app?vid=474936c9-a214-4b5a-9241-5f7ab07670f7","ios":"levelo://app?vid=474936c9-a214-4b5a-9241-5f7ab07670f7"},"vehicle_type_id":"4","last_reported":1781262842,"current_range_meters":8000,"station_id":"ce4bgi92rcd13ifvqb90","pricing_plan_id":"cebpf4jnsgd1na2vs0mg"},{"bike_id":"ec8a7302-a9d8-45f8-8c2d-1f742452baac","system_id":"levelo_inurba_marseille","lat":43.28266,"lon":5.35061,"is_reserved":false,"is_disabled":false,"rental_uris":{"android":"levelo://app?vid=ec8a7302-a9d8-45f8-8c2d-1f742452baac","ios":"levelo://app?vid=ec8a7302-a9d8-45f8-8c2d-1f742452baac"},"vehicle_type_id":"4","last_reported":1781262842,"current_range_meters":8000,"station_id":"ce4bhbp2rcd13ifvqerg","pricing_plan_id":"cebpf4jnsgd1na2vs0mg"},{"bike_id":"079d0efa-5ede-4dd6-92aa-ce2d45850c4c","system_id":"levelo_inurba_marseille","lat":43.30541,"lon":5.36718,"is_reserved":false,"is_disabled":false,"rental_uris":{"android":"levelo://app?vid=079d0efa-5ede-4dd6-92aa-ce2d45850c4c","ios":"levelo://app?vid=079d0efa-5ede-4dd6-92aa-ce2d45850c4c"},"vehicle_type_id":"4","last_reported":1781262842,"current_range_meters":8000,"station_id":"ce4bgrp2rcd13ifvqc9g","pricing_plan_id":"cebpf4jnsgd1na2vs0mg"},{"bike_id":"ff507c5d-4920-4210-943c-8c58a21105a3","system_id":"levelo_inurba_marseille","lat":43.29796,"lon":5.3809,"is_reserved":false,"is_disabled":false,"rental_uris":{"android":"levelo://app?vid=ff507c5d-4920-4210-943c-8c58a21105a3","ios":"levelo://app?vid=ff507c5d-4920-4210-943c-8c58a21105a3"},"vehicle_type_id":"4","last_reported":1781262842,"current_range_meters":8000,"station_id":"ce4bgip2rcd13ifvqbb0","pricing_plan_id":"cebpf4jnsgd1na2vs0mg"},{"bike_id":"a50af965-b87b-4f91-9b9a-3e26dc71f7c1","system_id":"levelo_inurba_marseille","lat":43.29043,"lon":5.4393,"is_reserved":false,"is_disabled":false,"rental_uris":{"android":"levelo://app?vid=a50af965-b87b-4f91-9b9a-3e26dc71f7c1","ios":"levelo://app?vid=a50af965-b87b-4f91-9b9a-3e26dc71f7c1"},"vehicle_type_id":"4","last_reported":1781262842,"current_range_meters":8000,"station_id":"","pricing_plan_id":"cebpf4jnsgd1na2vs0mg"},{"bike_id":"c454b3c8-6a55-48aa-a02b-2a7a1abcf359","system_id":"levelo_inurba_marseille","lat":43.292,"lon":5.35796,"is_reserved":false,"is_disabled":false,"rental_uris":{"android":"levelo://app?vid=c454b3c8-6a55-48aa-a02b-2a7a1abcf359","ios":"levelo://app?vid=c454b3c8-6a55-48aa-a02b-2a7a1abcf359"},"vehicle_type_id":"4","last_reported":1781262842,"current_range_meters":8000,"station_id":"ce4bhb12rcd13ifvqel0","pricing_plan_id":"cebpf4jnsgd1na2vs0mg"},{"bike_id":"4dd38259-3a45-424d-b932-4a703ba3b41b","system_id":"levelo_inurba_marseille","lat":43.31361,"lon":5.3848,"is_reserved":false,"is_disabled":false,"rental_uris":{"android":"levelo://app?vid=4dd38259-3a45-424d-b932-4a703ba3b41b","ios":"levelo://app?vid=4dd38259-3a45-424d-b932-4a703ba3b41b"},"vehicle_type_id":"4","last_reported":1781262842,"current_range_meters":8000,"station_id":"ce4bgt92rcd13ifvqcf0","pricing_plan_id":"cebpf4jnsgd1na2vs0mg"},{"bike_id":"5907c65d-4bc9-4960-85ff-2d3e0125443c","system_id":"levelo_inurba_marseille","lat":43.29585,"lon":5.36747,"is_reserved":false,"is_disabled":false,"rental_uris":{"android":"levelo://app?vid=5907c65d-4bc9-4960-85ff-2d3e0125443c","ios":"levelo://app?vid=5907c65d-4bc9-4960-85ff-2d3e0125443c"},"vehicle_type_id":"4","last_reported":1781262842,"current_range_meters":8000,"station_id":"ce4bgph2rcd13ifvqc2g","pricing_plan_id":"cebpf4jnsgd1na2vs0mg"},{"bike_id":"b154e503-5e6b-4b2c-aea8-7afe1c19122c","system_id":"levelo_inurba_marseille","lat":43.28117,"lon":5.42654,"is_reserved":false,"is_disabled":false,"rental_uris":{"android":"levelo://app?vid=b154e503-5e6b-4b2c-aea8-7afe1c19122c","ios":"levelo://app?vid=b154e503-5e6b-4b2c-aea8-7afe1c19122c"},"vehicle_type_id":"4","last_reported":1781262842,"current_range_meters":8000,"station_id":"ce4bhnh2rcd13ifvqgug","pricing_plan_id":"cebpf4jnsgd1na2vs0mg"},{"bike_id":"24e499fa-49eb-41ca-981b-8611b4f817d5","system_id":"levelo_inurba_marseille","lat":43.29936,"lon":5.36536,"is_reserved":false,"is_disabled":false,"rental_uris":{"android":"levelo://app?vid=24e499fa-49eb-41ca-981b-8611b4f817d5","ios":"levelo://app?vid=24e499fa-49eb-41ca-981b-8611b4f817d5"},"vehicle_type_id":"4","last_reported":1781262842,"current_range_meters":8000,"station_id":"ce4bgm92rcd13ifvqbr0","pricing_plan_id":"cebpf4jnsgd1na2vs0mg"},{"bike_id":"a0ce5c91-f6f6-45d4-8507-cbc7fe930086","system_id":"levelo_inurba_marseille","lat":43.25344,"lon":5.42168,"is_reserved":false,"is_disabled":false,"rental_uris":{"android":"levelo://app?vid=a0ce5c91-f6f6-45d4-8507-cbc7fe930086","ios":"levelo://app?vid=a0ce5c91-f6f6-45d4-8507-cbc7fe930086"},"vehicle_type_id":"4","last_reported":1781262842,"current_range_meters":8000,"station_id":"st_d2m65c5bi1j21697t3ng","pricing_plan_id":"cebpf4jnsgd1na2vs0mg"},{"bike_id":"38101551-9977-4987-b859-a76b1ddbbced","system_id":"levelo_inurba_marseille","lat":43.258597,"lon":5.418183,"is_reserved":false,"is_disabled":false,"rental_uris":{"android":"levelo://app?vid=38101551-9977-4987-b859-a76b1ddbbced","ios":"levelo://app?vid=38101551-9977-4987-b859-a76b1ddbbced"},"vehicle_type_id":"4","last_reported":1781262842,"current_range_meters":8000,"station_id":"","pricing_plan_id":"cebpf4jnsgd1na2vs0mg"},{"bike_id":"6997581f-aa2a-4f5d-bff5-2a9cb0ed9e7e","system_id":"levelo_inurba_marseille","lat":43.24403,"lon":5.37068,"is_reserved":false,"is_disabled":false,"rental_uris":{"android":"levelo://app?vid=6997581f-aa2a-4f5d-bff5-2a9cb0ed9e7e","ios":"levelo://app?vid=6997581f-aa2a-4f5d-bff5-2a9cb0ed9e7e"},"vehicle_type_id":"4","last_reported":1781262842,"current_range_meters":8400,"station_id":"ce4bhhh2rcd13ifvqfk0","pricing_plan_id":"cebpf4jnsgd1na2vs0mg"},{"bike_id":"1c088a56-c389-4146-b2df-78ef2395fc5b","system_id":"levelo_inurba_marseille","lat":43.26254,"lon":5.38955,"is_reserved":false,"is_disabled":false,"rental_uris":{"android":"levelo://app?vid=1c088a56-c389-4146-b2df-78ef2395fc5b","ios":"levelo://app?vid=1c088a56-c389-4146-b2df-78ef2395fc5b"},"vehicle_type_id":"4","last_reported":1781262842,"current_range_meters":8400,"station_id":"","pricing_plan_id":"cebpf4jnsgd1na2vs0mg"},{"bike_id":"7ec5ac6c-1ad1-484e-b1ac-0dd6240aeac8","system_id":"levelo_inurba_marseille","lat":43.32104,"lon":5.36801,"is_reserved":false,"is_disabled":false,"rental_uris":{"android":"levelo://app?vid=7ec5ac6c-1ad1-484e-b1ac-0dd6240aeac8","ios":"levelo://app?vid=7ec5ac6c-1ad1-484e-b1ac-0dd6240aeac8"},"vehicle_type_id":"4","last_reported":1781262842,"current_range_meters":8400,"station_id":"ce4bhrh2rcd13ifvqhug","pricing_plan_id":"cebpf4jnsgd1na2vs0mg"},{"bike_id":"7c56fbf2-b06b-4ad4-bd6e-fb0ad9ba401c","system_id":"levelo_inurba_marseille","lat":43.287128,"lon":5.379192,"is_reserved":false,"is_disabled":true,"rental_uris":{"android":"levelo://app?vid=7c56fbf2-b06b-4ad4-bd6e-fb0ad9ba401c","ios":"levelo://app?vid=7c56fbf2-b06b-4ad4-bd6e-fb0ad9ba401c"},"vehicle_type_id":"4","last_reported":1781262842,"current_range_meters":8400,"station_id":"ce4bh9p2rcd13ifvqec0","pricing_plan_id":"cebpf4jnsgd1na2vs0mg"},{"bike_id":"19de2487-6641-44c9-b82e-696cd3047e50","system_id":"levelo_inurba_marseille","lat":43.29306,"lon":5.37466,"is_reserved":false,"is_disabled":false,"rental_uris":{"android":"levelo://app?vid=19de2487-6641-44c9-b82e-696cd3047e50","ios":"levelo://app?vid=19de2487-6641-44c9-b82e-696cd3047e50"},"vehicle_type_id":"4","last_reported":1781262842,"current_range_meters":8400,"station_id":"ce4bgi12rcd13ifvqb70","pricing_plan_id":"cebpf4jnsgd1na2vs0mg"},