{"last_updated":1781610207,"ttl":60,"version":"2.2","data":{"bikes":[{"bike_id":"aa997b49-7107-451c-9394-34a2015508bd","system_id":"levelo_inurba_marseille","lat":43.337444,"lon":5.374475,"is_reserved":false,"is_disabled":false,"rental_uris":{"android":"levelo://app?vid=aa997b49-7107-451c-9394-34a2015508bd","ios":"levelo://app?vid=aa997b49-7107-451c-9394-34a2015508bd"},"vehicle_type_id":"4","last_reported":1781610208,"current_range_meters":0,"station_id":"","pricing_plan_id":"cebpf4jnsgd1na2vs0mg"},{"bike_id":"2b0774fd-df4e-4faa-94e4-5ca52189b44e","system_id":"levelo_inurba_marseille","lat":43.2922,"lon":5.36045,"is_reserved":false,"is_disabled":true,"rental_uris":{"android":"levelo://app?vid=2b0774fd-df4e-4faa-94e4-5ca52189b44e","ios":"levelo://app?vid=2b0774fd-df4e-4faa-94e4-5ca52189b44e"},"vehicle_type_id":"4","last_reported":1781610208,"current_range_meters":2800,"station_id":"ce4bhbh2rcd13ifvqeqg","pricing_plan_id":"cebpf4jnsgd1na2vs0mg"},{"bike_id":"5bc84a42-041f-41bc-97a6-acdafa8686cf","system_id":"levelo_inurba_marseille","lat":43.31216,"lon":5.36852,"is_reserved":false,"is_disabled":false,"rental_uris":{"android":"levelo://app?vid=5bc84a42-041f-41bc-97a6-acdafa8686cf","ios":"levelo://app?vid=5bc84a42-041f-41bc-97a6-acdafa8686cf"},"vehicle_type_id":"4","last_reported":1781610208,"current_range_meters":2800,"station_id":"ce4bgl92rcd13ifvqbq0","pricing_plan_id":"cebpf4jnsgd1na2vs0mg"},{"bike_id":"c44d6def-2121-4032-baa3-7d3e6d3ad670","system_id":"levelo_inurba_marseille","lat":43.29212,"lon":5.38378,"is_reserved":false,"is_disabled":false,"rental_uris":{"android":"levelo://app?vid=c44d6def-2121-4032-baa3-7d3e6d3ad670","ios":"levelo://app?vid=c44d6def-2121-4032-baa3-7d3e6d3ad670"},"vehicle_type_id":"4","last_reported":1781610208,"current_range_meters":2800,"station_id":"","pricing_plan_id":"cebpf4jnsgd1na2vs0mg"},{"bike_id":"40a3d11e-67be-46cd-aa06-6937c96c59ea","system_id":"levelo_inurba_marseille","lat":43.29015,"lon":5.35611,"is_reserved":false,"is_disabled":false,"rental_uris":{"android":"levelo://app?vid=40a3d11e-67be-46cd-aa06-6937c96c59ea","ios":"levelo://app?vid=40a3d11e-67be-46cd-aa06-6937c96c59ea"},"vehicle_type_id":"4","last_reported":1781610208,"current_range_meters":2800,"station_id":"ce4bhb92rcd13ifvqen0","pricing_plan_id":"cebpf4jnsgd1na2vs0mg"},{"bike_id":"ede501e1-ac6b-419f-91d8-52a9e484b3db","system_id":"levelo_inurba_marseille","lat":43.27084,"lon":5.42294,"is_reserved":false,"is_disabled":true,"rental_uris":{"android":"levelo://app?vid=ede501e1-ac6b-419f-91d8-52a9e484b3db","ios":"levelo://app?vid=ede501e1-ac6b-419f-91d8-52a9e484b3db"},"vehicle_type_id":"4","last_reported":1781610208,"current_range_meters":2800,"station_id":"ce4bhk92rcd13ifvqgb0","pricing_plan_id":"cebpf4jnsgd1na2vs0mg"},{"bike_id":"1c1e003d-d96e-41d2-8037-f2baed700164","system_id":"levelo_inurba_marseille","lat":43.30926,"lon":5.36901,"is_reserved":false,"is_disabled":false,"rental_uris":{"android":"levelo://app?vid=1c1e003d-d96e-41d2-8037-f2baed700164","ios":"levelo://app?vid=1c1e003d-d96e-41d2-8037-f2baed700164"},"vehicle_type_id":"4","last_reported":1781610208,"current_range_meters":2800,"station_id":"ce4bgn92rcd13ifvqbvg","pricing_plan_id":"cebpf4jnsgd1na2vs0mg"},{"bike_id":"7d52ecc5-6050-4293-9a52-e51342dbfe2a","system_id":"levelo_inurba_marseille","lat":43.31241,"lon":5.3685,"is_reserved":false,"is_disabled":false,"rental_uris":{"android":"levelo://app?vid=7d52ecc5-6050-4293-9a52-e51342dbfe2a","ios":"levelo://app?vid=7d52ecc5-6050-4293-9a52-e51342dbfe2a"},"vehicle_type_id":"4","last_reported":1781610208,"current_range_meters":2800,"station_id":"ce4bgl92rcd13ifvqbq0","pricing_plan_id":"cebpf4jnsgd1na2vs0mg"},{"bike_id":"0c4a3555-b59f-42b7-9b54-56a3fea5817f","system_id":"levelo_inurba_marseille","lat":43.30549,"lon":5.36727,"is_reserved":false,"is_disabled":false,"rental_uris":{"android":"levelo://app?vid=0c4a3555-b59f-42b7-9b54-56a3fea5817f","ios":"levelo://app?vid=0c4a3555-b59f-42b7-9b54-56a3fea5817f"},"vehicle_type_id":"4","last_reported":1781610208,"current_range_meters":2800,"station_id":"ce4bgrp2rcd13ifvqc9g","pricing_plan_id":"cebpf4jnsgd1na2vs0mg"},{"bike_id":"1f3f27c8-d8d1-4f39-8ef1-9165723bd20e","system_id":"levelo_inurba_marseille","lat":43.30337,"lon":5.4072,"is_reserved":false,"is_disabled":false,"rental_uris":{"android":"levelo://app?vid=1f3f27c8-d8d1-4f39-8ef1-9165723bd20e","ios":"levelo://app?vid=1f3f27c8-d8d1-4f39-8ef1-9165723bd20e"},"vehicle_type_id":"4","last_reported":1781610208,"current_range_meters":2800,"station_id":"","pricing_plan_id":"cebpf4jnsgd1na2vs0mg"},{"bike_id":"79a7b41c-18df-465d-8d21-9e7e48144fd7","system_id":"levelo_inurba_marseille","lat":43.28422,"lon":5.34987,"is_reserved":false,"is_disabled":false,"rental_uris":{"android":"levelo://app?vid=79a7b41c-18df-465d-8d21-9e7e48144fd7","ios":"levelo://app?vid=79a7b41c-18df-465d-8d21-9e7e48144fd7"},"vehicle_type_id":"4","last_reported":1781610208,"current_range_meters":2800,"station_id":"ce4bhbh2rcd13ifvqepg","pricing_plan_id":"cebpf4jnsgd1na2vs0mg"},{"bike_id":"a335365e-e9b4-4bb1-8835-3baddf7321be","system_id":"levelo_inurba_marseille","lat":43.24179,"lon":5.36393,"is_reserved":false,"is_disabled":false,"rental_uris":{"android":"levelo://app?vid=a335365e-e9b4-4bb1-8835-3baddf7321be","ios":"levelo://app?vid=a335365e-e9b4-4bb1-8835-3baddf7321be"},"vehicle_type_id":"4","last_reported":1781610208,"current_range_meters":2800,"station_id":"cpo36qri1sfpv3e86is0","pricing_plan_id":"cebpf4jnsgd1na2vs0mg"},{"bike_id":"ad9fc3d6-18db-47eb-82f7-49728d600a2c","system_id":"levelo_inurba_marseille","lat":43.29129,"lon":5.3806,"is_reserved":false,"is_disabled":false,"rental_uris":{"android":"levelo://app?vid=ad9fc3d6-18db-47eb-82f7-49728d600a2c","ios":"levelo://app?vid=ad9fc3d6-18db-47eb-82f7-49728d600a2c"},"vehicle_type_id":"4","last_reported":1781610208,"current_range_meters":3200,"station_id":"","pricing_plan_id":"cebpf4jnsgd1na2vs0mg"},{"bike_id":"065b6009-2e7a-45cb-bd50-ea574925cd7f","system_id":"levelo_inurba_marseille","lat":43.25396,"lon":5.42826,"is_reserved":false,"is_disabled":false,"rental_uris":{"android":"levelo://app?vid=065b6009-2e7a-45cb-bd50-ea574925cd7f","ios":"levelo://app?vid=065b6009-2e7a-45cb-bd50-ea574925cd7f"},"vehicle_type_id":"4","last_reported":1781610208,"current_range_meters":3200,"station_id":"","pricing_plan_id":"cebpf4jnsgd1na2vs0mg"},{"bike_id":"a7423333-6c27-4dfa-8b68-5eb468877668","system_id":"levelo_inurba_marseille","lat":43.32484,"lon":5.38275,"is_reserved":false,"is_disabled":false,"rental_uris":{"android":"levelo://app?vid=a7423333-6c27-4dfa-8b68-5eb468877668","ios":"levelo://app?vid=a7423333-6c27-4dfa-8b68-5eb468877668"},"vehicle_type_id":"4","last_reported":1781610208,"current_range_meters":3200,"station_id":"st_d4asgbiv49dc73anf9m0","pricing_plan_id":"cebpf4jnsgd1na2vs0mg"},{"bike_id":"9aabb9cd-8524-48e4-bf52-6dd774a8bb60","system_id":"levelo_inurba_marseille","lat":43.3236,"lon":5.36751,"is_reserved":false,"is_disabled":false,"rental_uris":{"android":"levelo://app?vid=9aabb9cd-8524-48e4-bf52-6dd774a8bb60","ios":"levelo://app?vid=9aabb9cd-8524-48e4-bf52-6dd774a8bb60"},"vehicle_type_id":"4","last_reported":1781610208,"current_range_meters":3200,"station_id":"ce4bhsh2rcd13ifvqi2g","pricing_plan_id":"cebpf4jnsgd1na2vs0mg"},{"bike_id":"e0feb090-02e8-435b-988a-cbd276485185","system_id":"levelo_inurba_marseille","lat":43.28483,"lon":5.38462,"is_reserved":false,"is_disabled":true,"rental_uris":{"android":"levelo://app?vid=e0feb090-02e8-435b-988a-cbd276485185","ios":"levelo://app?vid=e0feb090-02e8-435b-988a-cbd276485185"},"vehicle_type_id":"4","last_reported":1781610208,"current_range_meters":3200,"station_id":"ce4bh512rcd13ifvqe3g","pricing_plan_id":"cebpf4jnsgd1na2vs0mg"},{"bike_id":"ea054e80-203a-4c87-8e0b-49c396a790fb","system_id":"levelo_inurba_marseille","lat":43.28395,"lon":5.37507,"is_reserved":false,"is_disabled":false,"rental_uris":{"android":"levelo://app?vid=ea054e80-203a-4c87-8e0b-49c396a790fb","ios":"levelo://app?vid=ea054e80-203a-4c87-8e0b-49c396a790fb"},"vehicle_type_id":"4","last_reported":1781610208,"current_range_meters":3200,"station_id":"ce4bh412rcd13ifvqds0","pricing_plan_id":"cebpf4jnsgd1na2vs0mg"},{"bike_id":"74e25983-389a-4d67-8343-13fcb0b8af26","system_id":"levelo_inurba_marseille","lat":43.261869,"lon":5.379402,"is_reserved":false,"is_disabled":false,"rental_uris":{"android":"levelo://app?vid=74e25983-389a-4d67-8343-13fcb0b8af26","ios":"levelo://app?vid=74e25983-389a-4d67-8343-13fcb0b8af26"},"vehicle_type_id":"4","last_reported":1781610208,"current_range_meters":3200,"station_id":"ce4bhjp2rcd13ifvqg90","pricing_plan_id":"cebpf4jnsgd1na2vs0mg"},{"bike_id":"d95b2308-3f3b-454f-84d2-b4a7af03c41a","system_id":"levelo_inurba_marseille","lat":43.27947,"lon":5.41043,"is_reserved":false,"is_disabled":false,"rental_uris":{"android":"levelo://app?vid=d95b2308-3f3b-454f-84d2-b4a7af03c41a","ios":"levelo://app?vid=d95b2308-3f3b-454f-84d2-b4a7af03c41a"},"vehicle_type_id":"4","last_reported":1781610208,"current_range_meters":3200,"station_id":"ce4bhnp2rcd13ifvqh0g","pricing_plan_id":"cebpf4jnsgd1na2vs0mg"},{"bike_id":"4dda2717-19b7-4c1b-8217-0b2a9fae8a2e","system_id":"levelo_inurba_marseille","lat":43.317,"lon":5.37787,"is_reserved":false,"is_disabled":false,"rental_uris":{"android":"levelo://app?vid=4dda2717-19b7-4c1b-8217-0b2a9fae8a2e","ios":"levelo://app?vid=4dda2717-19b7-4c1b-8217-0b2a9fae8a2e"},"vehicle_type_id":"4","last_reported":1781610208,"current_range_meters":3200,"station_id":"ce4bgth2rcd13ifvqch0","pricing_plan_id":"cebpf4jnsgd1na2vs0mg"},{"bike_id":"8e03a099-3603-4e3e-ae5e-b9e0742fdeae","system_id":"levelo_inurba_marseille","lat":43.28637,"lon":5.39951,"is_reserved":false,"is_disabled":true,"rental_uris":{"android":"levelo://app?vid=8e03a099-3603-4e3e-ae5e-b9e0742fdeae","ios":"levelo://app?vid=8e03a099-3603-4e3e-ae5e-b9e0742fdeae"},"vehicle_type_id":"4","last_reported":1781610208,"current_range_meters":3200,"station_id":"ce4bho92rcd13ifvqh3g","pricing_plan_id":"cebpf4jnsgd1na2vs0mg"},{"bike_id":"9e52e5fc-e1d9-4df7-8d60-5ee633d3bd6b","system_id":"levelo_inurba_marseille","lat":43.31245,"lon":5.38501,"is_reserved":false,"is_disabled":false,"rental_uris":{"android":"levelo://app?vid=9e52e5fc-e1d9-4df7-8d60-5ee633d3bd6b","ios":"levelo://app?vid=9e52e5fc-e1d9-4df7-8d60-5ee633d3bd6b"},"vehicle_type_id":"4","last_reported":1781610208,"current_range_meters":3200,"station_id":"","pricing_plan_id":"cebpf4jnsgd1na2vs0mg"},{"bike_id":"4abbd38b-a90d-4a66-9195-882e1426f7a6","system_id":"levelo_inurba_marseille","lat":43.33547,"lon":5.37486,"is_reserved":false,"is_disabled":false,"rental_uris":{"android":"levelo://app?vid=4abbd38b-a90d-4a66-9195-882e1426f7a6","ios":"levelo://app?vid=4abbd38b-a90d-4a66-9195-882e1426f7a6"},"vehicle_type_id":"4","last_reported":1781610208,"current_range_meters":3200,"station_id":"st_d46tts09ee8s73dlu43g","pricing_plan_id":"cebpf4jnsgd1na2vs0mg"},{"bike_id":"563d5823-a229-48ec-b605-e2f648ec32a5","system_id":"levelo_inurba_marseille","lat":43.29679,"lon":5.36576,"is_reserved":false,"is_disabled":false,"rental_uris":{"android":"levelo://app?vid=563d5823-a229-48ec-b605-e2f648ec32a5","ios":"levelo://app?vid=563d5823-a229-48ec-b605-e2f648ec32a5"},"vehicle_type_id":"4","last_reported":1781610208,"current_range_meters":3200,"station_id":"ce4bgn12rcd13ifvqbt0","pricing_plan_id":"cebpf4jnsgd1na2vs0mg"},{"bike_id":"baee9b2b-45a2-4e1b-8927-dc12a2c520e5","system_id":"levelo_inurba_marseille","lat":43.27207,"lon":5.39184,"is_reserved":false,"is_disabled":false,"rental_uris":{"android":"levelo://app?vid=baee9b2b-45a2-4e1b-8927-dc12a2c520e5","ios":"levelo://app?vid=baee9b2b-45a2-4e1b-8927-dc12a2c520e5"},"vehicle_type_id":"4","last_reported":1781610208,"current_range_meters":3200,"station_id":"ce4bhhp2rcd13ifvqfm0","pricing_plan_id":"cebpf4jnsgd1na2vs0mg"},{"bike_id":"c23fb373-7ad9-4348-a0f0-23ba5090a9b3","system_id":"levelo_inurba_marseille","lat":43.29268,"lon":5.38026,"is_reserved":false,"is_disabled":false,"rental_uris":{"android":"levelo://app?vid=c23fb373-7ad9-4348-a0f0-23ba5090a9b3","ios":"levelo://app?vid=c23fb373-7ad9-4348-a0f0-23ba5090a9b3"},"vehicle_type_id":"4","last_reported":1781610208,"current_range_meters":3200,"station_id":"","pricing_plan_id":"cebpf4jnsgd1na2vs0mg"},{"bike_id":"4791c8d6-87e1-4fe0-92f7-c8cd0ce9a38e","system_id":"levelo_inurba_marseille","lat":43.23161,"lon":5.43697,"is_reserved":false,"is_disabled":false,"rental_uris":{"android":"levelo://app?vid=4791c8d6-87e1-4fe0-92f7-c8cd0ce9a38e","ios":"levelo://app?vid=4791c8d6-87e1-4fe0-92f7-c8cd0ce9a38e"},"vehicle_type_id":"4","last_reported":1781610208,"current_range_meters":3200,"station_id":"ce4bhmp2rcd13ifvqgog","pricing_plan_id":"cebpf4jnsgd1na2vs0mg"},{"bike_id":"f07e1397-f952-436f-afd2-7d16ee4dfb2f","system_id":"levelo_inurba_marseille","lat":43.279968,"lon":5.400133,"is_reserved":false,"is_disabled":false,"rental_uris":{"android":"levelo://app?vid=f07e1397-f952-436f-afd2-7d16ee4dfb2f","ios":"levelo://app?vid=f07e1397-f952-436f-afd2-7d16ee4dfb2f"},"vehicle_type_id":"4","last_reported":1781610208,"current_range_meters":3600,"station_id":"ce4bho92rcd13ifvqh4g","pricing_plan_id":"cebpf4jnsgd1na2vs0mg"},{"bike_id":"34624d46-65a4-4a75-9d5f-549007b8851f","system_id":"levelo_inurba_marseille","lat":43.337533,"lon":5.374474,"is_reserved":false,"is_disabled":false,"rental_uris":{"android":"levelo://app?vid=34624d46-65a4-4a75-9d5f-549007b8851f","ios":"levelo://app?vid=34624d46-65a4-4a75-9d5f-549007b8851f"},"vehicle_type_id":"4","last_reported":1781610208,"current_range_meters":3600,"station_id":"","pricing_plan_id":"cebpf4jnsgd1na2vs0mg"},{"bike_id":"17180ebe-55c3-43c4-baf2-f968c9e4fb21","system_id":"levelo_inurba_marseille","lat":43.24604,"lon":5.41622,"is_reserved":false,"is_disabled":false,"rental_uris":{"android":"levelo://app?vid=17180ebe-55c3-43c4-baf2-f968c9e4fb21","ios":"levelo://app?vid=17180ebe-55c3-43c4-baf2-f968c9e4fb21"},"vehicle_type_id":"4","last_reported":1781610208,"current_range_meters":3600,"station_id":"","pricing_plan_id":"cebpf4jnsgd1na2vs0mg"},{"bike_id":"1a63b3f7-8645-42d5-a32e-add2c1c0c462","system_id":"levelo_inurba_marseille","lat":43.29281,"lon":5.40114,"is_reserved":false,"is_disabled":false,"rental_uris":{"android":"levelo://app?vid=1a63b3f7-8645-42d5-a32e-add2c1c0c462","ios":"levelo://app?vid=1a63b3f7-8645-42d5-a32e-add2c1c0c462"},"vehicle_type_id":"4","last_reported":1781610208,"current_range_meters":3600,"station_id":"ce4bh312rcd13ifvqdk0","pricing_plan_id":"cebpf4jnsgd1na2vs0mg"},{"bike_id":"cf738518-8c8a-4295-9678-1a955c521a10","system_id":"levelo_inurba_marseille","lat":43.24468,"lon":5.42539,"is_reserved":false,"is_disabled":true,"rental_uris":{"android":"levelo://app?vid=cf738518-8c8a-4295-9678-1a955c521a10","ios":"levelo://app?vid=cf738518-8c8a-4295-9678-1a955c521a10"},"vehicle_type_id":"4","last_reported":1781610208,"current_range_meters":3600,"station_id":"st_d4a3vfp97mjs738cd8kg","pricing_plan_id":"cebpf4jnsgd1na2vs0mg"},{"bike_id":"0ed74b88-02bb-4e6a-bac8-0265efdf81e4","system_id":"levelo_inurba_marseille","lat":43.21759,"lon":5.34603,"is_reserved":false,"is_disabled":true,"rental_uris":{"android":"levelo://app?vid=0ed74b88-02bb-4e6a-bac8-0265efdf81e4","ios":"levelo://app?vid=0ed74b88-02bb-4e6a-bac8-0265efdf81e4"},"vehicle_type_id":"4","last_reported":1781610208,"current_range_meters":3600,"station_id":"st_cvj6r9ubvosntc0bgbag","pricing_plan_id":"cebpf4jnsgd1na2vs0mg"},{"bike_id":"a7708f38-6df8-4080-a672-e818b878acab","system_id":"levelo_inurba_marseille","lat":43.32498,"lon":5.38307,"is_reserved":false,"is_disabled":false,"rental_uris":{"android":"levelo://app?vid=a7708f38-6df8-4080-a672-e818b878acab","ios":"levelo://app?vid=a7708f38-6df8-4080-a672-e818b878acab"},"vehicle_type_id":"4","last_reported":1781610208,"current_range_meters":3600,"station_id":"st_d4asgbiv49dc73anf9m0","pricing_plan_id":"cebpf4jnsgd1na2vs0mg"},{"bike_id":"184053a6-ae2f-433a-bc6e-8339ec3efce8","system_id":"levelo_inurba_marseille","lat":43.30788,"lon":5.37649,"is_reserved":false,"is_disabled":false,"rental_uris":{"android":"levelo://app?vid=184053a6-ae2f-433a-bc6e-8339ec3efce8","ios":"levelo://app?vid=184053a6-ae2f-433a-bc6e-8339ec3efce8"},"vehicle_type_id":"4","last_reported":1781610208,"current_range_meters":3600,"station_id":"ce4bgv92rcd13ifvqcq0","pricing_plan_id":"cebpf4jnsgd1na2vs0mg"},{"bike_id":"27c9adf0-5a2d-4b40-a0d2-7e33166d8640","system_id":"levelo_inurba_marseille","lat":43.27981,"lon":5.38754,"is_reserved":false,"is_disabled":true,"rental_uris":{"android":"levelo://app?vid=27c9adf0-5a2d-4b40-a0d2-7e33166d8640","ios":"levelo://app?vid=27c9adf0-5a2d-4b40-a0d2-7e33166d8640"},"vehicle_type_id":"4","last_reported":1781610208,"current_range_meters":3600,"station_id":"ce4bhg12rcd13ifvqf80","pricing_plan_id":"cebpf4jnsgd1na2vs0mg"},{"bike_id":"9743948b-c46e-4e8f-a6f3-84b573fce9b8","system_id":"levelo_inurba_marseille","lat":43.2805,"lon":5.35351,"is_reserved":false,"is_disabled":true,"rental_uris":{"android":"levelo://app?vid=9743948b-c46e-4e8f-a6f3-84b573fce9b8","ios":"levelo://app?vid=9743948b-c46e-4e8f-a6f3-84b573fce9b8"},"vehicle_type_id":"4","last_reported":1781610208,"current_range_meters":3600,"station_id":"","pricing_plan_id":"cebpf4jnsgd1na2vs0mg"},{"bike_id":"6edd77a1-681d-4a38-8b0b-415104a5228b","system_id":"levelo_inurba_marseille","lat":43.26551,"lon":5.40345,"is_reserved":false,"is_disabled":false,"rental_uris":{"android":"levelo://app?vid=6edd77a1-681d-4a38-8b0b-415104a5228b","ios":"levelo://app?vid=6edd77a1-681d-4a38-8b0b-415104a5228b"},"vehicle_type_id":"4","last_reported":1781610208,"current_range_meters":3600,"station_id":"ce4bhmp2rcd13ifvqgng","pricing_plan_id":"cebpf4jnsgd1na2vs0mg"},{"bike_id":"85966d85-f405-4b8d-8627-a33ebd9b258f","system_id":"levelo_inurba_marseille","lat":43.28687,"lon":5.46915,"is_reserved":false,"is_disabled":false,"rental_uris":{"android":"levelo://app?vid=85966d85-f405-4b8d-8627-a33ebd9b258f","ios":"levelo://app?vid=85966d85-f405-4b8d-8627-a33ebd9b258f"},"vehicle_type_id":"4","last_reported":1781610208,"current_range_meters":3600,"station_id":"","pricing_plan_id":"cebpf4jnsgd1na2vs0mg"},{"bike_id":"7ce944ef-d209-4270-9787-a75d4a5d0a8e","system_id":"levelo_inurba_marseille","lat":43.28907,"lon":5.3778,"is_reserved":false,"is_disabled":false,"rental_uris":{"android":"levelo://app?vid=7ce944ef-d209-4270-9787-a75d4a5d0a8e","ios":"levelo://app?vid=7ce944ef-d209-4270-9787-a75d4a5d0a8e"},"vehicle_type_id":"4","last_reported":1781610208,"current_range_meters":3600,"station_id":"","pricing_plan_id":"cebpf4jnsgd1na2vs0mg"},{"bike_id":"198213cd-6c32-46ac-9299-65cb1e70e364","system_id":"levelo_inurba_marseille","lat":43.29559,"lon":5.42296,"is_reserved":false,"is_disabled":false,"rental_uris":{"android":"levelo://app?vid=198213cd-6c32-46ac-9299-65cb1e70e364","ios":"levelo://app?vid=198213cd-6c32-46ac-9299-65cb1e70e364"},"vehicle_type_id":"4","last_reported":1781610208,"current_range_meters":3600,"station_id":"ce4bhph2rcd13ifvqhdg","pricing_plan_id":"cebpf4jnsgd1na2vs0mg"},{"bike_id":"d932a5be-13d7-4c2c-8061-c002db7b6b3a","system_id":"levelo_inurba_marseille","lat":43.28384,"lon":5.45979,"is_reserved":false,"is_disabled":false,"rental_uris":{"android":"levelo://app?vid=d932a5be-13d7-4c2c-8061-c002db7b6b3a","ios":"levelo://app?vid=d932a5be-13d7-4c2c-8061-c002db7b6b3a"},"vehicle_type_id":"4","last_reported":1781610208,"current_range_meters":3600,"station_id":"","pricing_plan_id":"cebpf4jnsgd1na2vs0mg"},{"bike_id":"20952575-a0c4-40fd-a8bb-cd1e81fd3451","system_id":"levelo_inurba_marseille","lat":43.30233,"lon":5.39449,"is_reserved":false,"is_disabled":false,"rental_uris":{"android":"levelo://app?vid=20952575-a0c4-40fd-a8bb-cd1e81fd3451","ios":"levelo://app?vid=20952575-a0c4-40fd-a8bb-cd1e81fd3451"},"vehicle_type_id":"4","last_reported":1781610208,"current_range_meters":3600,"station_id":"ce4bh0p2rcd13ifvqd70","pricing_plan_id":"cebpf4jnsgd1na2vs0mg"},{"bike_id":"9089d549-b93c-4a2f-b6f7-f3efe0946125","system_id":"levelo_inurba_marseille","lat":43.31496,"lon":5.37327,"is_reserved":false,"is_disabled":false,"rental_uris":{"android":"levelo://app?vid=9089d549-b93c-4a2f-b6f7-f3efe0946125","ios":"levelo://app?vid=9089d549-b93c-4a2f-b6f7-f3efe0946125"},"vehicle_type_id":"4","last_reported":1781610208,"current_range_meters":3600,"station_id":"ce4bgt12rcd13ifvqcd0","pricing_plan_id":"cebpf4jnsgd1na2vs0mg"},{"bike_id":"faab199b-f195-4600-9ace-1813703a26b2","system_id":"levelo_inurba_marseille","lat":43.22416,"lon":5.34753,"is_reserved":false,"is_disabled":false,"rental_uris":{"android":"levelo://app?vid=faab199b-f195-4600-9ace-1813703a26b2","ios":"levelo://app?vid=faab199b-f195-4600-9ace-1813703a26b2"},"vehicle_type_id":"4","last_reported":1781610208,"current_range_meters":3600,"station_id":"","pricing_plan_id":"cebpf4jnsgd1na2vs0mg"},{"bike_id":"d2cf5ecf-fe3e-4209-98b4-d27907b06589","system_id":"levelo_inurba_marseille","lat":43.31325,"lon":5.39697,"is_reserved":false,"is_disabled":false,"rental_uris":{"android":"levelo://app?vid=d2cf5ecf-fe3e-4209-98b4-d27907b06589","ios":"levelo://app?vid=d2cf5ecf-fe3e-4209-98b4-d27907b06589"},"vehicle_type_id":"4","last_reported":1781610208,"current_range_meters":3600,"station_id":"ce4bgvp2rcd13ifvqcu0","pricing_plan_id":"cebpf4jnsgd1na2vs0mg"},{"bike_id":"7ad6749c-d621-468a-b3c9-10abd95885e0","system_id":"levelo_inurba_marseille","lat":43.22563,"lon":5.41637,"is_reserved":false,"is_disabled":false,"rental_uris":{"android":"levelo://app?vid=7ad6749c-d621-468a-b3c9-10abd95885e0","ios":"levelo://app?vid=7ad6749c-d621-468a-b3c9-10abd95885e0"},"vehicle_type_id":"4","last_reported":1781610208,"current_range_meters":4000,"station_id":"st_d2o4gvlbi1j2169b742g","pricing_plan_id":"cebpf4jnsgd1na2vs0mg"},{"bike_id":"f9f0444d-e71b-44cf-beb3-4e9ec180d7a0","system_id":"levelo_inurba_marseille","lat":43.26823,"lon":5.39466,"is_reserved":false,"is_disabled":true,"rental_uris":{"android":"levelo://app?vid=f9f0444d-e71b-44cf-beb3-4e9ec180d7a0","ios":"levelo://app?vid=f9f0444d-e71b-44cf-beb3-4e9ec180d7a0"},"vehicle_type_id":"4","last_reported":1781610208,"current_range_meters":4000,"station_id":"","pricing_plan_id":"cebpf4jnsgd1na2vs0mg"},{"bike_id":"ccff0d65-a8f7-44be-b82a-69dbb09dcdb7","system_id":"levelo_inurba_marseille","lat":43.29517,"lon":5.39414,"is_reserved":false,"is_disabled":true,"rental_uris":{"android":"levelo://app?vid=ccff0d65-a8f7-44be-b82a-69dbb09dcdb7","ios":"levelo://app?vid=ccff0d65-a8f7-44be-b82a-69dbb09dcdb7"},"vehicle_type_id":"4","last_reported":1781610208,"current_range_meters":4000,"station_id":"ce4bh292rcd13ifvqdf0","pricing_plan_id":"cebpf4jnsgd1na2vs0mg"},{"bike_id":"3b6818b8-9c82-4bd3-b2a4-d38a38b4db1b","system_id":"levelo_inurba_marseille","lat":43.28146,"lon":5.42638,"is_reserved":false,"is_disabled":false,"rental_uris":{"android":"levelo://app?vid=3b6818b8-9c82-4bd3-b2a4-d38a38b4db1b","ios":"levelo://app?vid=3b6818b8-9c82-4bd3-b2a4-d38a38b4db1b"},"vehicle_type_id":"4","last_reported":1781610208,"current_range_meters":4000,"station_id":"ce4bhnh2rcd13ifvqgug","pricing_plan_id":"cebpf4jnsgd1na2vs0mg"},{"bike_id":"62d365b5-6e80-4a3a-8a2d-91c900fad43a","system_id":"levelo_inurba_marseille","lat":43.25581,"lon":5.38262,"is_reserved":false,"is_disabled":false,"rental_uris":{"android":"levelo://app?vid=62d365b5-6e80-4a3a-8a2d-91c900fad43a","ios":"levelo://app?vid=62d365b5-6e80-4a3a-8a2d-91c900fad43a"},"vehicle_type_id":"4","last_reported":1781610208,"current_range_meters":4000,"station_id":"ce4bhih2rcd13ifvqfs0","pricing_plan_id":"cebpf4jnsgd1na2vs0mg"},{"bike_id":"ee81f0ea-62c6-4abd-a4dc-6a166847fc5c","system_id":"levelo_inurba_marseille","lat":43.28615,"lon":5.39889,"is_reserved":false,"is_disabled":false,"rental_uris":{"android":"levelo://app?vid=ee81f0ea-62c6-4abd-a4dc-6a166847fc5c","ios":"levelo://app?vid=ee81f0ea-62c6-4abd-a4dc-6a166847fc5c"},"vehicle_type_id":"4","last_reported":1781610208,"current_range_meters":4000,"station_id":"ce4bho92rcd13ifvqh3g","pricing_plan_id":"cebpf4jnsgd1na2vs0mg"},{"bike_id":"6a196ced-67e3-4dab-8bd0-3a8d7db0d897","system_id":"levelo_inurba_marseille","lat":43.33594,"lon":5.40977,"is_reserved":false,"is_disabled":false,"rental_uris":{"android":"levelo://app?vid=6a196ced-67e3-4dab-8bd0-3a8d7db0d897","ios":"levelo://app?vid=6a196ced-67e3-4dab-8bd0-3a8d7db0d897"},"vehicle_type_id":"4","last_reported":1781610208,"current_range_meters":4000,"station_id":"ce4bhqh2rcd13ifvqhmg","pricing_plan_id":"cebpf4jnsgd1na2vs0mg"},{"bike_id":"dd75378f-bb7c-47cd-89f2-6eeb092130cb","system_id":"levelo_inurba_marseille","lat":43.31906,"lon":5.36837,"is_reserved":false,"is_disabled":false,"rental_uris":{"android":"levelo://app?vid=dd75378f-bb7c-47cd-89f2-6eeb092130cb","ios":"levelo://app?vid=dd75378f-bb7c-47cd-89f2-6eeb092130cb"},"vehicle_type_id":"4","last_reported":1781610208,"current_range_meters":4000,"station_id":"st_d6o2h0d0559c73evc1b0","pricing_plan_id":"cebpf4jnsgd1na2vs0mg"},{"bike_id":"e6e7c8fc-7a32-4d23-b263-ec3eec9fdffb","system_id":"levelo_inurba_marseille","lat":43.28484,"lon":5.48401,"is_reserved":false,"is_disabled":false,"rental_uris":{"android":"levelo://app?vid=e6e7c8fc-7a32-4d23-b263-ec3eec9fdffb","ios":"levelo://app?vid=e6e7c8fc-7a32-4d23-b263-ec3eec9fdffb"},"vehicle_type_id":"4","last_reported":1781610208,"current_range_meters":4000,"station_id":"st_d3svhcjqgbts73a3dn0g","pricing_plan_id":"cebpf4jnsgd1na2vs0mg"},{"bike_id":"beb1c15e-62a3-4c24-a49d-fbaedaa7896d","system_id":"levelo_inurba_marseille","lat":43.27327,"lon":5.39073,"is_reserved":false,"is_disabled":false,"rental_uris":{"android":"levelo://app?vid=beb1c15e-62a3-4c24-a49d-fbaedaa7896d","ios":"levelo://app?vid=beb1c15e-62a3-4c24-a49d-fbaedaa7896d"},"vehicle_type_id":"4","last_reported":1781610208,"current_range_meters":4000,"station_id":"ce4bhgp2rcd13ifvqfe0","pricing_plan_id":"cebpf4jnsgd1na2vs0mg"},{"bike_id":"bebe8c03-9684-4d05-b9e8-5857f587d6f6","system_id":"levelo_inurba_marseille","lat":43.29151,"lon":5.3846,"is_reserved":false,"is_disabled":false,"rental_uris":{"android":"levelo://app?vid=bebe8c03-9684-4d05-b9e8-5857f587d6f6","ios":"levelo://app?vid=bebe8c03-9684-4d05-b9e8-5857f587d6f6"},"vehicle_type_id":"4","last_reported":1781610208,"current_range_meters":4000,"station_id":"","pricing_plan_id":"cebpf4jnsgd1na2vs0mg"},{"bike_id":"3ee94fc0-8fea-4372-9289-fdd37c039599","system_id":"levelo_inurba_marseille","lat":43.32103,"lon":5.36809,"is_reserved":false,"is_disabled":false,"rental_uris":{"android":"levelo://app?vid=3ee94fc0-8fea-4372-9289-fdd37c039599","ios":"levelo://app?vid=3ee94fc0-8fea-4372-9289-fdd37c039599"},"vehicle_type_id":"4","last_reported":1781610208,"current_range_meters":4000,"station_id":"ce4bhrh2rcd13ifvqhug","pricing_plan_id":"cebpf4jnsgd1na2vs0mg"},{"bike_id":"f4fb8e21-80cb-42c6-890e-8a4a153e4e01","system_id":"levelo_inurba_marseille","lat":43.2954,"lon":5.39397,"is_reserved":false,"is_disabled":false,"rental_uris":{"android":"levelo://app?vid=f4fb8e21-80cb-42c6-890e-8a4a153e4e01","ios":"levelo://app?vid=f4fb8e21-80cb-42c6-890e-8a4a153e4e01"},"vehicle_type_id":"4","last_reported":1781610208,"current_range_meters":4000,"station_id":"ce4bh292rcd13ifvqdf0","pricing_plan_id":"cebpf4jnsgd1na2vs0mg"},{"bike_id":"cd06302c-11e6-4b40-8f44-7b482b32d4dc","system_id":"levelo_inurba_marseille","lat":43.31195,"lon":5.3689,"is_reserved":false,"is_disabled":true,"rental_uris":{"android":"levelo://app?vid=cd06302c-11e6-4b40-8f44-7b482b32d4dc","ios":"levelo://app?vid=cd06302c-11e6-4b40-8f44-7b482b32d4dc"},"vehicle_type_id":"4","last_reported":1781610208,"current_range_meters":4000,"station_id":"ce4bgl92rcd13ifvqbq0","pricing_plan_id":"cebpf4jnsgd1na2vs0mg"},{"bike_id":"4599021c-30ad-4517-b8f7-7f87fe21393f","system_id":"levelo_inurba_marseille","lat":43.31545,"lon":5.40073,"is_reserved":false,"is_disabled":false,"rental_uris":{"android":"levelo://app?vid=4599021c-30ad-4517-b8f7-7f87fe21393f","ios":"levelo://app?vid=4599021c-30ad-4517-b8f7-7f87fe21393f"},"vehicle_type_id":"4","last_reported":1781610208,"current_range_meters":4400,"station_id":"","pricing_plan_id":"cebpf4jnsgd1na2vs0mg"},{"bike_id":"972c2275-347a-4013-9df8-cf2ec5bb159f","system_id":"levelo_inurba_marseille","lat":43.30581,"lon":5.36537,"is_reserved":false,"is_disabled":true,"rental_uris":{"android":"levelo://app?vid=972c2275-347a-4013-9df8-cf2ec5bb159f","ios":"levelo://app?vid=972c2275-347a-4013-9df8-cf2ec5bb159f"},"vehicle_type_id":"4","last_reported":1781610208,"current_range_meters":4400,"station_id":"ce4bgs12rcd13ifvqcag","pricing_plan_id":"cebpf4jnsgd1na2vs0mg"},{"bike_id":"d1fe4607-d904-483c-ab68-d6487b306366","system_id":"levelo_inurba_marseille","lat":43.27219,"lon":5.39224,"is_reserved":false,"is_disabled":true,"rental_uris":{"android":"levelo://app?vid=d1fe4607-d904-483c-ab68-d6487b306366","ios":"levelo://app?vid=d1fe4607-d904-483c-ab68-d6487b306366"},"vehicle_type_id":"4","last_reported":1781610208,"current_range_meters":4400,"station_id":"ce4bhhp2rcd13ifvqfm0","pricing_plan_id":"cebpf4jnsgd1na2vs0mg"},{"bike_id":"f9ad348e-581c-4bfe-ae5c-69a0be30be7f","system_id":"levelo_inurba_marseille","lat":43.28458,"lon":5.37176,"is_reserved":false,"is_disabled":true,"rental_uris":{"android":"levelo://app?vid=f9ad348e-581c-4bfe-ae5c-69a0be30be7f","ios":"levelo://app?vid=f9ad348e-581c-4bfe-ae5c-69a0be30be7f"},"vehicle_type_id":"4","last_reported":1781610208,"current_range_meters":4400,"station_id":"","pricing_plan_id":"cebpf4jnsgd1na2vs0mg"},{"bike_id":"db41b9eb-9acb-49cf-84cd-8f9e13edc202","system_id":"levelo_inurba_marseille","lat":43.3019,"lon":5.41761,"is_reserved":false,"is_disabled":false,"rental_uris":{"android":"levelo://app?vid=db41b9eb-9acb-49cf-84cd-8f9e13edc202","ios":"levelo://app?vid=db41b9eb-9acb-49cf-84cd-8f9e13edc202"},"vehicle_type_id":"4","last_reported":1781610208,"current_range_meters":4400,"station_id":"","pricing_plan_id":"cebpf4jnsgd1na2vs0mg"},{"bike_id":"9b0ed1bd-b1fe-49a5-9b7f-4f7904128f15","system_id":"levelo_inurba_marseille","lat":43.27464,"lon":5.43875,"is_reserved":false,"is_disabled":false,"rental_uris":{"android":"levelo://app?vid=9b0ed1bd-b1fe-49a5-9b7f-4f7904128f15","ios":"levelo://app?vid=9b0ed1bd-b1fe-49a5-9b7f-4f7904128f15"},"vehicle_type_id":"4","last_reported":1781610208,"current_range_meters":4400,"station_id":"","pricing_plan_id":"cebpf4jnsgd1na2vs0mg"},{"bike_id":"1e0ee042-b5ac-4bdd-932d-ca3bd7ce817e","system_id":"levelo_inurba_marseille","lat":43.2953,"lon":5.37513,"is_reserved":false,"is_disabled":false,"rental_uris":{"android":"levelo://app?vid=1e0ee042-b5ac-4bdd-932d-ca3bd7ce817e","ios":"levelo://app?vid=1e0ee042-b5ac-4bdd-932d-ca3bd7ce817e"},"vehicle_type_id":"4","last_reported":1781610208,"current_range_meters":4400,"station_id":"ce4bgkp2rcd13ifvqbmg","pricing_plan_id":"cebpf4jnsgd1na2vs0mg"},{"bike_id":"97767495-fa12-45ef-b6ec-7e50f4848d27","system_id":"levelo_inurba_marseille","lat":43.30202,"lon":5.39467,"is_reserved":false,"is_disabled":false,"rental_uris":{"android":"levelo://app?vid=97767495-fa12-45ef-b6ec-7e50f4848d27","ios":"levelo://app?vid=97767495-fa12-45ef-b6ec-7e50f4848d27"},"vehicle_type_id":"4","last_reported":1781610208,"current_range_meters":4400,"station_id":"ce4bh0p2rcd13ifvqd70","pricing_plan_id":"cebpf4jnsgd1na2vs0mg"},{"bike_id":"bd1149a1-9c54-4812-83d9-df7a78fbcd6b","system_id":"levelo_inurba_marseille","lat":43.25736,"lon":5.41116,"is_reserved":false,"is_disabled":false,"rental_uris":{"android":"levelo://app?vid=bd1149a1-9c54-4812-83d9-df7a78fbcd6b","ios":"levelo://app?vid=bd1149a1-9c54-4812-83d9-df7a78fbcd6b"},"vehicle_type_id":"4","last_reported":1781610208,"current_range_meters":4400,"station_id":"ce4bhkp2rcd13ifvqgd0","pricing_plan_id":"cebpf4jnsgd1na2vs0mg"},{"bike_id":"b4730d5c-df75-42d5-84ec-3d7263fb3091","system_id":"levelo_inurba_marseille","lat":43.22673,"lon":5.34795,"is_reserved":false,"is_disabled":false,"rental_uris":{"android":"levelo://app?vid=b4730d5c-df75-42d5-84ec-3d7263fb3091","ios":"levelo://app?vid=b4730d5c-df75-42d5-84ec-3d7263fb3091"},"vehicle_type_id":"4","last_reported":1781610208,"current_range_meters":4800,"station_id":"","pricing_plan_id":"cebpf4jnsgd1na2vs0mg"},{"bike_id":"8ac4c1f7-a708-4f96-b505-f368096cff26","system_id":"levelo_inurba_marseille","lat":43.24409,"lon":5.3708,"is_reserved":false,"is_disabled":false,"rental_uris":{"android":"levelo://app?vid=8ac4c1f7-a708-4f96-b505-f368096cff26","ios":"levelo://app?vid=8ac4c1f7-a708-4f96-b505-f368096cff26"},"vehicle_type_id":"4","last_reported":1781610208,"current_range_meters":4800,"station_id":"ce4bhhh2rcd13ifvqfk0","pricing_plan_id":"cebpf4jnsgd1na2vs0mg"},{"bike_id":"2996e467-2a25-405c-9224-ba90fae1bcba","system_id":"levelo_inurba_marseille","lat":43.30122,"lon":5.38785,"is_reserved":false,"is_disabled":false,"rental_uris":{"android":"levelo://app?vid=2996e467-2a25-405c-9224-ba90fae1bcba","ios":"levelo://app?vid=2996e467-2a25-405c-9224-ba90fae1bcba"},"vehicle_type_id":"4","last_reported":1781610208,"current_range_meters":4800,"station_id":"ce4bghh2rcd13ifvqb60","pricing_plan_id":"cebpf4jnsgd1na2vs0mg"},{"bike_id":"f59d5d51-a0a6-482a-aaf3-205623a86a85","system_id":"levelo_inurba_marseille","lat":43.29853,"lon":5.36275,"is_reserved":false,"is_disabled":false,"rental_uris":{"android":"levelo://app?vid=f59d5d51-a0a6-482a-aaf3-205623a86a85","ios":"levelo://app?vid=f59d5d51-a0a6-482a-aaf3-205623a86a85"},"vehicle_type_id":"4","last_reported":1781610208,"current_range_meters":4800,"station_id":"ce4bgpp2rcd13ifvqc3g","pricing_plan_id":"cebpf4jnsgd1na2vs0mg"},{"bike_id":"57d3f012-98ac-419e-9c89-2184f24beb5f","system_id":"levelo_inurba_marseille","lat":43.30186,"lon":5.36615,"is_reserved":false,"is_disabled":false,"rental_uris":{"android":"levelo://app?vid=57d3f012-98ac-419e-9c89-2184f24beb5f","ios":"levelo://app?vid=57d3f012-98ac-419e-9c89-2184f24beb5f"},"vehicle_type_id":"4","last_reported":1781610208,"current_range_meters":4800,"station_id":"ce4bgrh2rcd13ifvqc8g","pricing_plan_id":"cebpf4jnsgd1na2vs0mg"},{"bike_id":"9496ec08-9cde-4cd1-8f24-e5874ffafbfe","system_id":"levelo_inurba_marseille","lat":43.30952,"lon":5.3906,"is_reserved":false,"is_disabled":false,"rental_uris":{"android":"levelo://app?vid=9496ec08-9cde-4cd1-8f24-e5874ffafbfe","ios":"levelo://app?vid=9496ec08-9cde-4cd1-8f24-e5874ffafbfe"},"vehicle_type_id":"4","last_reported":1781610208,"current_range_meters":4800,"station_id":"ce4bgup2rcd13ifvqco0","pricing_plan_id":"cebpf4jnsgd1na2vs0mg"},{"bike_id":"8b7e6af7-e30f-4524-ab6c-b83f17ca97f3","system_id":"levelo_inurba_marseille","lat":43.25719,"lon":5.41126,"is_reserved":false,"is_disabled":false,"rental_uris":{"android":"levelo://app?vid=8b7e6af7-e30f-4524-ab6c-b83f17ca97f3","ios":"levelo://app?vid=8b7e6af7-e30f-4524-ab6c-b83f17ca97f3"},"vehicle_type_id":"4","last_reported":1781610208,"current_range_meters":4800,"station_id":"ce4bhkp2rcd13ifvqgd0","pricing_plan_id":"cebpf4jnsgd1na2vs0mg"},{"bike_id":"5ba5ca3b-373f-47a4-8ede-22d92aac3721","system_id":"levelo_inurba_marseille","lat":43.28951,"lon":5.36389,"is_reserved":false,"is_disabled":true,"rental_uris":{"android":"levelo://app?vid=5ba5ca3b-373f-47a4-8ede-22d92aac3721","ios":"levelo://app?vid=5ba5ca3b-373f-47a4-8ede-22d92aac3721"},"vehicle_type_id":"4","last_reported":1781610208,"current_range_meters":4800,"station_id":"ce4bhc92rcd13ifvqetg","pricing_plan_id":"cebpf4jnsgd1na2vs0mg"},{"bike_id":"192e6cfc-4713-47ad-8605-af43c014e503","system_id":"levelo_inurba_marseille","lat":43.27901,"lon":5.38023,"is_reserved":false,"is_disabled":false,"rental_uris":{"android":"levelo://app?vid=192e6cfc-4713-47ad-8605-af43c014e503","ios":"levelo://app?vid=192e6cfc-4713-47ad-8605-af43c014e503"},"vehicle_type_id":"4","last_reported":1781610208,"current_range_meters":4800,"station_id":"ce4bhf92rcd13ifvqf50","pricing_plan_id":"cebpf4jnsgd1na2vs0mg"},{"bike_id":"58928b62-b7f2-45cf-b6f2-4dc4c39c7722","system_id":"levelo_inurba_marseille","lat":43.295897,"lon":5.385462,"is_reserved":false,"is_disabled":false,"rental_uris":{"android":"levelo://app?vid=58928b62-b7f2-45cf-b6f2-4dc4c39c7722","ios":"levelo://app?vid=58928b62-b7f2-45cf-b6f2-4dc4c39c7722"},"vehicle_type_id":"4","last_reported":1781610208,"current_range_meters":4800,"station_id":"","pricing_plan_id":"cebpf4jnsgd1na2vs0mg"},{"bike_id":"fc330720-30fd-4948-9971-1a95a83d03fc","system_id":"levelo_inurba_marseille","lat":43.27946,"lon":5.41044,"is_reserved":false,"is_disabled":false,"rental_uris":{"android":"levelo://app?vid=fc330720-30fd-4948-9971-1a95a83d03fc","ios":"levelo://app?vid=fc330720-30fd-4948-9971-1a95a83d03fc"},"vehicle_type_id":"4","last_reported":1781610208,"current_range_meters":4800,"station_id":"ce4bhnp2rcd13ifvqh0g","pricing_plan_id":"cebpf4jnsgd1na2vs0mg"},{"bike_id":"e2be02eb-807d-4b44-802e-01f254e8d728","system_id":"levelo_inurba_marseille","lat":43.30931,"lon":5.40161,"is_reserved":false,"is_disabled":false,"rental_uris":{"android":"levelo://app?vid=e2be02eb-807d-4b44-802e-01f254e8d728","ios":"levelo://app?vid=e2be02eb-807d-4b44-802e-01f254e8d728"},"vehicle_type_id":"4","last_reported":1781610208,"current_range_meters":4800,"station_id":"ce4bgvp2rcd13ifvqct0","pricing_plan_id":"cebpf4jnsgd1na2vs0mg"},{"bike_id":"4da64aaa-07c6-4e3f-a981-6e55ac68ca8b","system_id":"levelo_inurba_marseille","lat":43.28135,"lon":5.38912,"is_reserved":false,"is_disabled":false,"rental_uris":{"android":"levelo://app?vid=4da64aaa-07c6-4e3f-a981-6e55ac68ca8b","ios":"levelo://app?vid=4da64aaa-07c6-4e3f-a981-6e55ac68ca8b"},"vehicle_type_id":"4","last_reported":1781610208,"current_range_meters":4800,"station_id":"","pricing_plan_id":"cebpf4jnsgd1na2vs0mg"},{"bike_id":"85c13243-7921-4bc5-aeeb-8615f18e1cbd","system_id":"levelo_inurba_marseille","lat":43.26395,"lon":5.4105,"is_reserved":false,"is_disabled":true,"rental_uris":{"android":"levelo://app?vid=85c13243-7921-4bc5-aeeb-8615f18e1cbd","ios":"levelo://app?vid=85c13243-7921-4bc5-aeeb-8615f18e1cbd"},"vehicle_type_id":"4","last_reported":1781610208,"current_range_meters":4800,"station_id":"st_d4e5ca6na9uc73bfl5fg","pricing_plan_id":"cebpf4jnsgd1na2vs0mg"},{"bike_id":"e19a2b9d-c42d-4230-8c63-3a57ee9f732d","system_id":"levelo_inurba_marseille","lat":43.28474,"lon":5.48395,"is_reserved":false,"is_disabled":false,"rental_uris":{"android":"levelo://app?vid=e19a2b9d-c42d-4230-8c63-3a57ee9f732d","ios":"levelo://app?vid=e19a2b9d-c42d-4230-8c63-3a57ee9f732d"},"vehicle_type_id":"4","last_reported":1781610208,"current_range_meters":4800,"station_id":"st_d3svhcjqgbts73a3dn0g","pricing_plan_id":"cebpf4jnsgd1na2vs0mg"},{"bike_id":"aae0caa9-fd50-4e6d-a450-93f9cc10dbca","system_id":"levelo_inurba_marseille","lat":43.2841,"lon":5.37523,"is_reserved":false,"is_disabled":false,"rental_uris":{"android":"levelo://app?vid=aae0caa9-fd50-4e6d-a450-93f9cc10dbca","ios":"levelo://app?vid=aae0caa9-fd50-4e6d-a450-93f9cc10dbca"},"vehicle_type_id":"4","last_reported":1781610208,"current_range_meters":4800,"station_id":"ce4bh412rcd13ifvqds0","pricing_plan_id":"cebpf4jnsgd1na2vs0mg"},{"bike_id":"70b3318a-59c1-4a72-8c49-58fa39dd4268","system_id":"levelo_inurba_marseille","lat":43.30951,"lon":5.39059,"is_reserved":false,"is_disabled":false,"rental_uris":{"android":"levelo://app?vid=70b3318a-59c1-4a72-8c49-58fa39dd4268","ios":"levelo://app?vid=70b3318a-59c1-4a72-8c49-58fa39dd4268"},"vehicle_type_id":"4","last_reported":1781610208,"current_range_meters":4800,"station_id":"ce4bgup2rcd13ifvqco0","pricing_plan_id":"cebpf4jnsgd1na2vs0mg"},{"bike_id":"be5704b1-e64f-4576-bbc5-c2fe2d2d07d5","system_id":"levelo_inurba_marseille","lat":43.31348,"lon":5.36742,"is_reserved":false,"is_disabled":false,"rental_uris":{"android":"levelo://app?vid=be5704b1-e64f-4576-bbc5-c2fe2d2d07d5","ios":"levelo://app?vid=be5704b1-e64f-4576-bbc5-c2fe2d2d07d5"},"vehicle_type_id":"4","last_reported":1781610208,"current_range_meters":4800,"station_id":"ce4bgr92rcd13ifvqc6g","pricing_plan_id":"cebpf4jnsgd1na2vs0mg"},{"bike_id":"37086bdb-0b16-420e-a396-3a7db4249bc8","system_id":"levelo_inurba_marseille","lat":43.23355,"lon":5.43626,"is_reserved":false,"is_disabled":false,"rental_uris":{"android":"levelo://app?vid=37086bdb-0b16-420e-a396-3a7db4249bc8","ios":"levelo://app?vid=37086bdb-0b16-420e-a396-3a7db4249bc8"},"vehicle_type_id":"4","last_reported":1781610208,"current_range_meters":4800,"station_id":"","pricing_plan_id":"cebpf4jnsgd1na2vs0mg"},{"bike_id":"1ac65aa4-bda3-47a9-9b40-7a9a6f4f7554","system_id":"levelo_inurba_marseille","lat":43.286656,"lon":5.363483,"is_reserved":false,"is_disabled":false,"rental_uris":{"android":"levelo://app?vid=1ac65aa4-bda3-47a9-9b40-7a9a6f4f7554","ios":"levelo://app?vid=1ac65aa4-bda3-47a9-9b40-7a9a6f4f7554"},"vehicle_type_id":"4","last_reported":1781610208,"current_range_meters":4800,"station_id":"ce4bhah2rcd13ifvqej0","pricing_plan_id":"cebpf4jnsgd1na2vs0mg"},{"bike_id":"f151f97e-deff-428f-a73d-a748a4542f16","system_id":"levelo_inurba_marseille","lat":43.29796,"lon":5.3809,"is_reserved":false,"is_disabled":false,"rental_uris":{"android":"levelo://app?vid=f151f97e-deff-428f-a73d-a748a4542f16","ios":"levelo://app?vid=f151f97e-deff-428f-a73d-a748a4542f16"},"vehicle_type_id":"4","last_reported":1781610208,"current_range_meters":4800,"station_id":"ce4bgip2rcd13ifvqbb0","pricing_plan_id":"cebpf4jnsgd1na2vs0mg"},{"bike_id":"b036162c-184b-47b0-b9b2-a69688b907c3","system_id":"levelo_inurba_marseille","lat":43.29769,"lon":5.36752,"is_reserved":false,"is_disabled":false,"rental_uris":{"android":"levelo://app?vid=b036162c-184b-47b0-b9b2-a69688b907c3","ios":"levelo://app?vid=b036162c-184b-47b0-b9b2-a69688b907c3"},"vehicle_type_id":"4","last_reported":1781610208,"current_range_meters":4800,"station_id":"","pricing_plan_id":"cebpf4jnsgd1na2vs0mg"},{"bike_id":"240167fb-b755-4212-a8c1-7b594473940c","system_id":"levelo_inurba_marseille","lat":43.23787,"lon":5.36624,"is_reserved":false,"is_disabled":false,"rental_uris":{"android":"levelo://app?vid=240167fb-b755-4212-a8c1-7b594473940c","ios":"levelo://app?vid=240167fb-b755-4212-a8c1-7b594473940c"},"vehicle_type_id":"4","last_reported":1781610208,"current_range_meters":4800,"station_id":"st_d3nk18o9ro0c73en2l3g","pricing_plan_id":"cebpf4jnsgd1na2vs0mg"},{"bike_id":"52d17f33-307f-46a3-8d76-1e3fdacf4ea3","system_id":"levelo_inurba_marseille","lat":43.26557,"lon":5.37283,"is_reserved":false,"is_disabled":false,"rental_uris":{"android":"levelo://app?vid=52d17f33-307f-46a3-8d76-1e3fdacf4ea3","ios":"levelo://app?vid=52d17f33-307f-46a3-8d76-1e3fdacf4ea3"},"vehicle_type_id":"4","last_reported":1781610208,"current_range_meters":4800,"station_id":"ce4bhg12rcd13ifvqf70","pricing_plan_id":"cebpf4jnsgd1na2vs0mg"},{"bike_id":"79e5bca5-d693-456e-ba14-68440c5de768","system_id":"levelo_inurba_marseille","lat":43.28142,"lon":5.40129,"is_reserved":false,"is_disabled":false,"rental_uris":{"android":"levelo://app?vid=79e5bca5-d693-456e-ba14-68440c5de768","ios":"levelo://app?vid=79e5bca5-d693-456e-ba14-68440c5de768"},"vehicle_type_id":"4","last_reported":1781610208,"current_range_meters":4800,"station_id":"","pricing_plan_id":"cebpf4jnsgd1na2vs0mg"},{"bike_id":"fe0ba904-ca31-4fae-98fe-ecb0decad701","system_id":"levelo_inurba_marseille","lat":43.27625,"lon":5.38758,"is_reserved":false,"is_disabled":false,"rental_uris":{"android":"levelo://app?vid=fe0ba904-ca31-4fae-98fe-ecb0decad701","ios":"levelo://app?vid=fe0ba904-ca31-4fae-98fe-ecb0decad701"},"vehicle_type_id":"4","last_reported":1781610208,"current_range_meters":4800,"station_id":"","pricing_plan_id":"cebpf4jnsgd1na2vs0mg"},{"bike_id":"86ee25b2-2f21-424f-9c42-98211711660b","system_id":"levelo_inurba_marseille","lat":43.23973,"lon":5.36631,"is_reserved":false,"is_disabled":false,"rental_uris":{"android":"levelo://app?vid=86ee25b2-2f21-424f-9c42-98211711660b","ios":"levelo://app?vid=86ee25b2-2f21-424f-9c42-98211711660b"},"vehicle_type_id":"4","last_reported":1781610208,"current_range_meters":5600,"station_id":"ce4bhi12rcd13ifvqfp0","pricing_plan_id":"cebpf4jnsgd1na2vs0mg"},{"bike_id":"6ece36cf-6929-4dff-95a4-0da954ae57c0","system_id":"levelo_inurba_marseille","lat":43.29731,"lon":5.37697,"is_reserved":false,"is_disabled":false,"rental_uris":{"android":"levelo://app?vid=6ece36cf-6929-4dff-95a4-0da954ae57c0","ios":"levelo://app?vid=6ece36cf-6929-4dff-95a4-0da954ae57c0"},"vehicle_type_id":"4","last_reported":1781610208,"current_range_meters":5600,"station_id":"ce4bgkh2rcd13ifvqbl0","pricing_plan_id":"cebpf4jnsgd1na2vs0mg"},{"bike_id":"c91dbe3c-f9ab-4aa2-8d6c-ffc25383acc9","system_id":"levelo_inurba_marseille","lat":43.31376,"lon":5.36717,"is_reserved":false,"is_disabled":false,"rental_uris":{"android":"levelo://app?vid=c91dbe3c-f9ab-4aa2-8d6c-ffc25383acc9","ios":"levelo://app?vid=c91dbe3c-f9ab-4aa2-8d6c-ffc25383acc9"},"vehicle_type_id":"4","last_reported":1781610208,"current_range_meters":5600,"station_id":"ce4bgr92rcd13ifvqc6g","pricing_plan_id":"cebpf4jnsgd1na2vs0mg"},{"bike_id":"cfd6030a-67d9-4620-83d0-1ab92a24ede3","system_id":"levelo_inurba_marseille","lat":43.27488,"lon":5.41588,"is_reserved":false,"is_disabled":false,"rental_uris":{"android":"levelo://app?vid=cfd6030a-67d9-4620-83d0-1ab92a24ede3","ios":"levelo://app?vid=cfd6030a-67d9-4620-83d0-1ab92a24ede3"},"vehicle_type_id":"4","last_reported":1781610208,"current_range_meters":5600,"station_id":"st_d6im8g6chgec73a5pndg","pricing_plan_id":"cebpf4jnsgd1na2vs0mg"},{"bike_id":"596ce3b1-87f7-408e-8d07-41f96804a7ec","system_id":"levelo_inurba_marseille","lat":43.2455,"lon":5.41172,"is_reserved":false,"is_disabled":true,"rental_uris":{"android":"levelo://app?vid=596ce3b1-87f7-408e-8d07-41f96804a7ec","ios":"levelo://app?vid=596ce3b1-87f7-408e-8d07-41f96804a7ec"},"vehicle_type_id":"4","last_reported":1781610208,"current_range_meters":5600,"station_id":"","pricing_plan_id":"cebpf4jnsgd1na2vs0mg"},{"bike_id":"652501cd-58a0-40ec-8409-d9ad72f51281","system_id":"levelo_inurba_marseille","lat":43.308,"lon":5.3764,"is_reserved":false,"is_disabled":true,"rental_uris":{"android":"levelo://app?vid=652501cd-58a0-40ec-8409-d9ad72f51281","ios":"levelo://app?vid=652501cd-58a0-40ec-8409-d9ad72f51281"},"vehicle_type_id":"4","last_reported":1781610208,"current_range_meters":5600,"station_id":"ce4bgv92rcd13ifvqcq0","pricing_plan_id":"cebpf4jnsgd1na2vs0mg"},{"bike_id":"c8358c4f-314d-41c2-9d70-c9dd28e7c16d","system_id":"levelo_inurba_marseille","lat":43.33148,"lon":5.3795,"is_reserved":false,"is_disabled":false,"rental_uris":{"android":"levelo://app?vid=c8358c4f-314d-41c2-9d70-c9dd28e7c16d","ios":"levelo://app?vid=c8358c4f-314d-41c2-9d70-c9dd28e7c16d"},"vehicle_type_id":"4","last_reported":1781610208,"current_range_meters":5600,"station_id":"","pricing_plan_id":"cebpf4jnsgd1na2vs0mg"},{"bike_id":"0664e133-7b00-41bb-8bd6-5fd89c6bf821","system_id":"levelo_inurba_marseille","lat":43.27733,"lon":5.39623,"is_reserved":false,"is_disabled":false,"rental_uris":{"android":"levelo://app?vid=0664e133-7b00-41bb-8bd6-5fd89c6bf821","ios":"levelo://app?vid=0664e133-7b00-41bb-8bd6-5fd89c6bf821"},"vehicle_type_id":"4","last_reported":1781610208,"current_range_meters":5600,"station_id":"","pricing_plan_id":"cebpf4jnsgd1na2vs0mg"},{"bike_id":"1e805f45-94b9-4d5c-8991-1a4dce4a5839","system_id":"levelo_inurba_marseille","lat":43.24732,"lon":5.3948,"is_reserved":false,"is_disabled":false,"rental_uris":{"android":"levelo://app?vid=1e805f45-94b9-4d5c-8991-1a4dce4a5839","ios":"levelo://app?vid=1e805f45-94b9-4d5c-8991-1a4dce4a5839"},"vehicle_type_id":"4","last_reported":1781610208,"current_range_meters":5600,"station_id":"","pricing_plan_id":"cebpf4jnsgd1na2vs0mg"},{"bike_id":"ba64b955-0d73-4058-8738-77a03cf2dc7a","system_id":"levelo_inurba_marseille","lat":43.2255,"lon":5.41641,"is_reserved":false,"is_disabled":false,"rental_uris":{"android":"levelo://app?vid=ba64b955-0d73-4058-8738-77a03cf2dc7a","ios":"levelo://app?vid=ba64b955-0d73-4058-8738-77a03cf2dc7a"},"vehicle_type_id":"4","last_reported":1781610208,"current_range_meters":5600,"station_id":"st_d2o4gvlbi1j2169b742g","pricing_plan_id":"cebpf4jnsgd1na2vs0mg"},{"bike_id":"b10472a4-3cc4-4bf5-bed2-df9d229fed79","system_id":"levelo_inurba_marseille","lat":43.23379,"lon":5.41248,"is_reserved":false,"is_disabled":false,"rental_uris":{"android":"levelo://app?vid=b10472a4-3cc4-4bf5-bed2-df9d229fed79","ios":"levelo://app?vid=b10472a4-3cc4-4bf5-bed2-df9d229fed79"},"vehicle_type_id":"4","last_reported":1781610208,"current_range_meters":5600,"station_id":"st_d75pvndhf9lc73cqq3eg","pricing_plan_id":"cebpf4jnsgd1na2vs0mg"},{"bike_id":"c3c5e06c-b31c-45cb-8982-ce4cef61ffdc","system_id":"levelo_inurba_marseille","lat":43.30146,"lon":5.3807,"is_reserved":false,"is_disabled":false,"rental_uris":{"android":"levelo://app?vid=c3c5e06c-b31c-45cb-8982-ce4cef61ffdc","ios":"levelo://app?vid=c3c5e06c-b31c-45cb-8982-ce4cef61ffdc"},"vehicle_type_id":"4","last_reported":1781610208,"current_range_meters":5600,"station_id":"ce4bgjp2rcd13ifvqbh0","pricing_plan_id":"cebpf4jnsgd1na2vs0mg"},{"bike_id":"c5b5442f-0f1c-4b55-a223-d6f61f42599a","system_id":"levelo_inurba_marseille","lat":43.25818,"lon":5.39443,"is_reserved":false,"is_disabled":false,"rental_uris":{"android":"levelo://app?vid=c5b5442f-0f1c-4b55-a223-d6f61f42599a","ios":"levelo://app?vid=c5b5442f-0f1c-4b55-a223-d6f61f42599a"},"vehicle_type_id":"4","last_reported":1781610208,"current_range_meters":5600,"station_id":"ce4bhip2rcd13ifvqft0","pricing_plan_id":"cebpf4jnsgd1na2vs0mg"},{"bike_id":"d5508669-6646-45f6-9fa1-a09fb472fd0b","system_id":"levelo_inurba_marseille","lat":43.29204,"lon":5.39307,"is_reserved":false,"is_disabled":true,"rental_uris":{"android":"levelo://app?vid=d5508669-6646-45f6-9fa1-a09fb472fd0b","ios":"levelo://app?vid=d5508669-6646-45f6-9fa1-a09fb472fd0b"},"vehicle_type_id":"4","last_reported":1781610208,"current_range_meters":5600,"station_id":"ce4bh192rcd13ifvqdd0","pricing_plan_id":"cebpf4jnsgd1na2vs0mg"},{"bike_id":"ac1b3e9a-7257-4121-914f-dd1a22343045","system_id":"levelo_inurba_marseille","lat":43.29252,"lon":5.409,"is_reserved":false,"is_disabled":true,"rental_uris":{"android":"levelo://app?vid=ac1b3e9a-7257-4121-914f-dd1a22343045","ios":"levelo://app?vid=ac1b3e9a-7257-4121-914f-dd1a22343045"},"vehicle_type_id":"4","last_reported":1781610208,"current_range_meters":5600,"station_id":"ce4bh192rcd13ifvqdc0","pricing_plan_id":"cebpf4jnsgd1na2vs0mg"},{"bike_id":"0cca5a1f-7507-49f7-9791-cbaeb1832311","system_id":"levelo_inurba_marseille","lat":43.24456,"lon":5.44004,"is_reserved":false,"is_disabled":false,"rental_uris":{"android":"levelo://app?vid=0cca5a1f-7507-49f7-9791-cbaeb1832311","ios":"levelo://app?vid=0cca5a1f-7507-49f7-9791-cbaeb1832311"},"vehicle_type_id":"4","last_reported":1781610208,"current_range_meters":5600,"station_id":"","pricing_plan_id":"cebpf4jnsgd1na2vs0mg"},{"bike_id":"a35fbb15-8a44-413c-912d-979926691e55","system_id":"levelo_inurba_marseille","lat":43.31248,"lon":5.36845,"is_reserved":false,"is_disabled":false,"rental_uris":{"android":"levelo://app?vid=a35fbb15-8a44-413c-912d-979926691e55","ios":"levelo://app?vid=a35fbb15-8a44-413c-912d-979926691e55"},"vehicle_type_id":"4","last_reported":1781610208,"current_range_meters":5600,"station_id":"ce4bgl92rcd13ifvqbq0","pricing_plan_id":"cebpf4jnsgd1na2vs0mg"},{"bike_id":"cb5e498b-cf4e-4eca-8b4b-178218281872","system_id":"levelo_inurba_marseille","lat":43.23162,"lon":5.40487,"is_reserved":false,"is_disabled":false,"rental_uris":{"android":"levelo://app?vid=cb5e498b-cf4e-4eca-8b4b-178218281872","ios":"levelo://app?vid=cb5e498b-cf4e-4eca-8b4b-178218281872"},"vehicle_type_id":"4","last_reported":1781610208,"current_range_meters":5600,"station_id":"","pricing_plan_id":"cebpf4jnsgd1na2vs0mg"},{"bike_id":"df6a8f78-ee7d-4db1-9811-03e57c820235","system_id":"levelo_inurba_marseille","lat":43.31236,"lon":5.36896,"is_reserved":false,"is_disabled":true,"rental_uris":{"android":"levelo://app?vid=df6a8f78-ee7d-4db1-9811-03e57c820235","ios":"levelo://app?vid=df6a8f78-ee7d-4db1-9811-03e57c820235"},"vehicle_type_id":"4","last_reported":1781610208,"current_range_meters":5600,"station_id":"ce4bgl92rcd13ifvqbq0","pricing_plan_id":"cebpf4jnsgd1na2vs0mg"},{"bike_id":"63b63872-e7d9-46d9-baf6-d20b4efcbe7e","system_id":"levelo_inurba_marseille","lat":43.27999,"lon":5.40025,"is_reserved":false,"is_disabled":false,"rental_uris":{"android":"levelo://app?vid=63b63872-e7d9-46d9-baf6-d20b4efcbe7e","ios":"levelo://app?vid=63b63872-e7d9-46d9-baf6-d20b4efcbe7e"},"vehicle_type_id":"4","last_reported":1781610208,"current_range_meters":5600,"station_id":"ce4bho92rcd13ifvqh4g","pricing_plan_id":"cebpf4jnsgd1na2vs0mg"},{"bike_id":"ee17339f-9a50-4499-a870-3575b6ddb9df","system_id":"levelo_inurba_marseille","lat":43.28498,"lon":5.48346,"is_reserved":false,"is_disabled":false,"rental_uris":{"android":"levelo://app?vid=ee17339f-9a50-4499-a870-3575b6ddb9df","ios":"levelo://app?vid=ee17339f-9a50-4499-a870-3575b6ddb9df"},"vehicle_type_id":"4","last_reported":1781610208,"current_range_meters":5600,"station_id":"st_d3svhcjqgbts73a3dn0g","pricing_plan_id":"cebpf4jnsgd1na2vs0mg"},{"bike_id":"644eacd3-fcd1-49d3-9e60-c79490364449","system_id":"levelo_inurba_marseille","lat":43.32757,"lon":5.40137,"is_reserved":false,"is_disabled":false,"rental_uris":{"android":"levelo://app?vid=644eacd3-fcd1-49d3-9e60-c79490364449","ios":"levelo://app?vid=644eacd3-fcd1-49d3-9e60-c79490364449"},"vehicle_type_id":"4","last_reported":1781610208,"current_range_meters":5600,"station_id":"","pricing_plan_id":"cebpf4jnsgd1na2vs0mg"},{"bike_id":"5adaaac2-4318-4d12-bbbc-03df56ec37de","system_id":"levelo_inurba_marseille","lat":43.29617,"lon":5.37731,"is_reserved":false,"is_disabled":false,"rental_uris":{"android":"levelo://app?vid=5adaaac2-4318-4d12-bbbc-03df56ec37de","ios":"levelo://app?vid=5adaaac2-4318-4d12-bbbc-03df56ec37de"},"vehicle_type_id":"4","last_reported":1781610208,"current_range_meters":5600,"station_id":"ce4bgi92rcd13ifvqb90","pricing_plan_id":"cebpf4jnsgd1na2vs0mg"},{"bike_id":"51f745fa-3c53-461d-b870-31922a948693","system_id":"levelo_inurba_marseille","lat":43.23205,"lon":5.40545,"is_reserved":false,"is_disabled":false,"rental_uris":{"android":"levelo://app?vid=51f745fa-3c53-461d-b870-31922a948693","ios":"levelo://app?vid=51f745fa-3c53-461d-b870-31922a948693"},"vehicle_type_id":"4","last_reported":1781610208,"current_range_meters":5600,"station_id":"","pricing_plan_id":"cebpf4jnsgd1na2vs0mg"},{"bike_id":"cbebc6ee-f2ad-49d7-856d-25be310145af","system_id":"levelo_inurba_marseille","lat":43.29518,"lon":5.393994,"is_reserved":false,"is_disabled":true,"rental_uris":{"android":"levelo://app?vid=cbebc6ee-f2ad-49d7-856d-25be310145af","ios":"levelo://app?vid=cbebc6ee-f2ad-49d7-856d-25be310145af"},"vehicle_type_id":"4","last_reported":1781610208,"current_range_meters":6000,"station_id":"","pricing_plan_id":"cebpf4jnsgd1na2vs0mg"},{"bike_id":"3ab7283d-633d-42fc-b5ac-58fde1581d89","system_id":"levelo_inurba_marseille","lat":43.30966,"lon":5.39035,"is_reserved":false,"is_disabled":false,"rental_uris":{"android":"levelo://app?vid=3ab7283d-633d-42fc-b5ac-58fde1581d89","ios":"levelo://app?vid=3ab7283d-633d-42fc-b5ac-58fde1581d89"},"vehicle_type_id":"4","last_reported":1781610208,"current_range_meters":6000,"station_id":"ce4bgup2rcd13ifvqco0","pricing_plan_id":"cebpf4jnsgd1na2vs0mg"},{"bike_id":"de17725d-6f77-439f-b0e7-798e8f7abd64","system_id":"levelo_inurba_marseille","lat":43.3095,"lon":5.39055,"is_reserved":false,"is_disabled":false,"rental_uris":{"android":"levelo://app?vid=de17725d-6f77-439f-b0e7-798e8f7abd64","ios":"levelo://app?vid=de17725d-6f77-439f-b0e7-798e8f7abd64"},"vehicle_type_id":"4","last_reported":1781610208,"current_range_meters":6000,"station_id":"ce4bgup2rcd13ifvqco0","pricing_plan_id":"cebpf4jnsgd1na2vs0mg"},{"bike_id":"e7f928ce-84e3-4468-ad33-6c5f64fcae6b","system_id":"levelo_inurba_marseille","lat":43.30195,"lon":5.38087,"is_reserved":false,"is_disabled":false,"rental_uris":{"android":"levelo://app?vid=e7f928ce-84e3-4468-ad33-6c5f64fcae6b","ios":"levelo://app?vid=e7f928ce-84e3-4468-ad33-6c5f64fcae6b"},"vehicle_type_id":"4","last_reported":1781610208,"current_range_meters":6000,"station_id":"","pricing_plan_id":"cebpf4jnsgd1na2vs0mg"},{"bike_id":"1d204ad9-32ac-4a31-9ac0-92dda033a473","system_id":"levelo_inurba_marseille","lat":43.24649,"lon":5.38214,"is_reserved":false,"is_disabled":false,"rental_uris":{"android":"levelo://app?vid=1d204ad9-32ac-4a31-9ac0-92dda033a473","ios":"levelo://app?vid=1d204ad9-32ac-4a31-9ac0-92dda033a473"},"vehicle_type_id":"4","last_reported":1781610208,"current_range_meters":6000,"station_id":"ce4bhih2rcd13ifvqfr0","pricing_plan_id":"cebpf4jnsgd1na2vs0mg"},{"bike_id":"a569154f-0e82-4211-9061-70503a610dda","system_id":"levelo_inurba_marseille","lat":43.2572,"lon":5.41129,"is_reserved":false,"is_disabled":false,"rental_uris":{"android":"levelo://app?vid=a569154f-0e82-4211-9061-70503a610dda","ios":"levelo://app?vid=a569154f-0e82-4211-9061-70503a610dda"},"vehicle_type_id":"4","last_reported":1781610208,"current_range_meters":6000,"station_id":"ce4bhkp2rcd13ifvqgd0","pricing_plan_id":"cebpf4jnsgd1na2vs0mg"},{"bike_id":"57b07549-a96e-4ec6-b0fa-6b611c6ad420","system_id":"levelo_inurba_marseille","lat":43.32078,"lon":5.36839,"is_reserved":false,"is_disabled":false,"rental_uris":{"android":"levelo://app?vid=57b07549-a96e-4ec6-b0fa-6b611c6ad420","ios":"levelo://app?vid=57b07549-a96e-4ec6-b0fa-6b611c6ad420"},"vehicle_type_id":"4","last_reported":1781610208,"current_range_meters":6000,"station_id":"","pricing_plan_id":"cebpf4jnsgd1na2vs0mg"},{"bike_id":"50a4ac47-4426-4904-9e85-894204c1b3e6","system_id":"levelo_inurba_marseille","lat":43.26937,"lon":5.38922,"is_reserved":false,"is_disabled":false,"rental_uris":{"android":"levelo://app?vid=50a4ac47-4426-4904-9e85-894204c1b3e6","ios":"levelo://app?vid=50a4ac47-4426-4904-9e85-894204c1b3e6"},"vehicle_type_id":"4","last_reported":1781610208,"current_range_meters":6000,"station_id":"ce4bhhh2rcd13ifvqfl0","pricing_plan_id":"cebpf4jnsgd1na2vs0mg"},{"bike_id":"550ac519-8f9f-42df-9359-f24aa7253342","system_id":"levelo_inurba_marseille","lat":43.2508,"lon":5.39513,"is_reserved":false,"is_disabled":false,"rental_uris":{"android":"levelo://app?vid=550ac519-8f9f-42df-9359-f24aa7253342","ios":"levelo://app?vid=550ac519-8f9f-42df-9359-f24aa7253342"},"vehicle_type_id":"4","last_reported":1781610208,"current_range_meters":6000,"station_id":"ce4bhm12rcd13ifvqgkg","pricing_plan_id":"cebpf4jnsgd1na2vs0mg"},{"bike_id":"7c03db94-6fe3-4182-abc9-1f74746d5fbd","system_id":"levelo_inurba_marseille","lat":43.30459,"lon":5.37916,"is_reserved":false,"is_disabled":true,"rental_uris":{"android":"levelo://app?vid=7c03db94-6fe3-4182-abc9-1f74746d5fbd","ios":"levelo://app?vid=7c03db94-6fe3-4182-abc9-1f74746d5fbd"},"vehicle_type_id":"4","last_reported":1781610208,"current_range_meters":6000,"station_id":"ce4bgup2rcd13ifvqcn0","pricing_plan_id":"cebpf4jnsgd1na2vs0mg"},{"bike_id":"07b5b769-6460-4f1b-8bc5-605e5ec4fd02","system_id":"levelo_inurba_marseille","lat":43.30543,"lon":5.36491,"is_reserved":false,"is_disabled":false,"rental_uris":{"android":"levelo://app?vid=07b5b769-6460-4f1b-8bc5-605e5ec4fd02","ios":"levelo://app?vid=07b5b769-6460-4f1b-8bc5-605e5ec4fd02"},"vehicle_type_id":"4","last_reported":1781610208,"current_range_meters":6000,"station_id":"","pricing_plan_id":"cebpf4jnsgd1na2vs0mg"},{"bike_id":"f953d5ac-71cc-4a26-8961-c1d19dec1a52","system_id":"levelo_inurba_marseille","lat":43.29056,"lon":5.37594,"is_reserved":false,"is_disabled":false,"rental_uris":{"android":"levelo://app?vid=f953d5ac-71cc-4a26-8961-c1d19dec1a52","ios":"levelo://app?vid=f953d5ac-71cc-4a26-8961-c1d19dec1a52"},"vehicle_type_id":"4","last_reported":1781610208,"current_range_meters":6000,"station_id":"ce4bh692rcd13ifvqe90","pricing_plan_id":"cebpf4jnsgd1na2vs0mg"},{"bike_id":"d2295ce3-9e9d-4098-a238-902e7dc9f655","system_id":"levelo_inurba_marseille","lat":43.30949,"lon":5.39037,"is_reserved":false,"is_disabled":false,"rental_uris":{"android":"levelo://app?vid=d2295ce3-9e9d-4098-a238-902e7dc9f655","ios":"levelo://app?vid=d2295ce3-9e9d-4098-a238-902e7dc9f655"},"vehicle_type_id":"4","last_reported":1781610208,"current_range_meters":6000,"station_id":"ce4bgup2rcd13ifvqco0","pricing_plan_id":"cebpf4jnsgd1na2vs0mg"},{"bike_id":"942fed82-ab6c-4dad-9fbf-1cda3643ff2f","system_id":"levelo_inurba_marseille","lat":43.25087,"lon":5.39524,"is_reserved":false,"is_disabled":false,"rental_uris":{"android":"levelo://app?vid=942fed82-ab6c-4dad-9fbf-1cda3643ff2f","ios":"levelo://app?vid=942fed82-ab6c-4dad-9fbf-1cda3643ff2f"},"vehicle_type_id":"4","last_reported":1781610208,"current_range_meters":6000,"station_id":"ce4bhm12rcd13ifvqgkg","pricing_plan_id":"cebpf4jnsgd1na2vs0mg"},{"bike_id":"fbcae408-5e0b-477b-82b0-a7b83c0223a6","system_id":"levelo_inurba_marseille","lat":43.25548,"lon":5.38249,"is_reserved":false,"is_disabled":false,"rental_uris":{"android":"levelo://app?vid=fbcae408-5e0b-477b-82b0-a7b83c0223a6","ios":"levelo://app?vid=fbcae408-5e0b-477b-82b0-a7b83c0223a6"},"vehicle_type_id":"4","last_reported":1781610208,"current_range_meters":6400,"station_id":"ce4bhih2rcd13ifvqfs0","pricing_plan_id":"cebpf4jnsgd1na2vs0mg"},{"bike_id":"3f1e297d-55bd-4cd9-bf63-bfc3f5a86811","system_id":"levelo_inurba_marseille","lat":43.29993,"lon":5.37884,"is_reserved":false,"is_disabled":false,"rental_uris":{"android":"levelo://app?vid=3f1e297d-55bd-4cd9-bf63-bfc3f5a86811","ios":"levelo://app?vid=3f1e297d-55bd-4cd9-bf63-bfc3f5a86811"},"vehicle_type_id":"4","last_reported":1781610208,"current_range_meters":6400,"station_id":"","pricing_plan_id":"cebpf4jnsgd1na2vs0mg"},{"bike_id":"31c504f7-a794-4699-a565-63192e74d9e8","system_id":"levelo_inurba_marseille","lat":43.299066,"lon":5.381389,"is_reserved":false,"is_disabled":false,"rental_uris":{"android":"levelo://app?vid=31c504f7-a794-4699-a565-63192e74d9e8","ios":"levelo://app?vid=31c504f7-a794-4699-a565-63192e74d9e8"},"vehicle_type_id":"4","last_reported":1781610208,"current_range_meters":6400,"station_id":"ce4bgj12rcd13ifvqbc0","pricing_plan_id":"cebpf4jnsgd1na2vs0mg"},{"bike_id":"e88d6359-1b02-4c8d-9a8f-e849af5b015e","system_id":"levelo_inurba_marseille","lat":43.2583,"lon":5.39438,"is_reserved":false,"is_disabled":false,"rental_uris":{"android":"levelo://app?vid=e88d6359-1b02-4c8d-9a8f-e849af5b015e","ios":"levelo://app?vid=e88d6359-1b02-4c8d-9a8f-e849af5b015e"},"vehicle_type_id":"4","last_reported":1781610208,"current_range_meters":6400,"station_id":"ce4bhip2rcd13ifvqft0","pricing_plan_id":"cebpf4jnsgd1na2vs0mg"},{"bike_id":"8975bbfe-7692-4d21-bfe6-ffb910e52416","system_id":"levelo_inurba_marseille","lat":43.32367,"lon":5.36724,"is_reserved":false,"is_disabled":false,"rental_uris":{"android":"levelo://app?vid=8975bbfe-7692-4d21-bfe6-ffb910e52416","ios":"levelo://app?vid=8975bbfe-7692-4d21-bfe6-ffb910e52416"},"vehicle_type_id":"4","last_reported":1781610208,"current_range_meters":6400,"station_id":"ce4bhsh2rcd13ifvqi2g","pricing_plan_id":"cebpf4jnsgd1na2vs0mg"},{"bike_id":"cddad825-ea1f-4531-a7f2-5ab6b54d16e8","system_id":"levelo_inurba_marseille","lat":43.29324,"lon":5.3949,"is_reserved":false,"is_disabled":false,"rental_uris":{"android":"levelo://app?vid=cddad825-ea1f-4531-a7f2-5ab6b54d16e8","ios":"levelo://app?vid=cddad825-ea1f-4531-a7f2-5ab6b54d16e8"},"vehicle_type_id":"4","last_reported":1781610208,"current_range_meters":6400,"station_id":"","pricing_plan_id":"cebpf4jnsgd1na2vs0mg"},{"bike_id":"4bde50df-6da3-4c75-b961-168af5e4d377","system_id":"levelo_inurba_marseille","lat":43.25096,"lon":5.39512,"is_reserved":false,"is_disabled":false,"rental_uris":{"android":"levelo://app?vid=4bde50df-6da3-4c75-b961-168af5e4d377","ios":"levelo://app?vid=4bde50df-6da3-4c75-b961-168af5e4d377"},"vehicle_type_id":"4","last_reported":1781610208,"current_range_meters":6400,"station_id":"ce4bhm12rcd13ifvqgkg","pricing_plan_id":"cebpf4jnsgd1na2vs0mg"},{"bike_id":"6ebc6503-a2cf-462d-97f4-e70a7314fce1","system_id":"levelo_inurba_marseille","lat":43.30293,"lon":5.36915,"is_reserved":false,"is_disabled":false,"rental_uris":{"android":"levelo://app?vid=6ebc6503-a2cf-462d-97f4-e70a7314fce1","ios":"levelo://app?vid=6ebc6503-a2cf-462d-97f4-e70a7314fce1"},"vehicle_type_id":"4","last_reported":1781610208,"current_range_meters":6400,"station_id":"ce4bgqh2rcd13ifvqc5g","pricing_plan_id":"cebpf4jnsgd1na2vs0mg"},{"bike_id":"d08a48ac-110f-41a7-be6d-df0ee3e6254f","system_id":"levelo_inurba_marseille","lat":43.29706,"lon":5.36608,"is_reserved":false,"is_disabled":false,"rental_uris":{"android":"levelo://app?vid=d08a48ac-110f-41a7-be6d-df0ee3e6254f","ios":"levelo://app?vid=d08a48ac-110f-41a7-be6d-df0ee3e6254f"},"vehicle_type_id":"4","last_reported":1781610208,"current_range_meters":6400,"station_id":"ce4bgn12rcd13ifvqbt0","pricing_plan_id":"cebpf4jnsgd1na2vs0mg"},{"bike_id":"9c866a69-4578-4890-bdf7-f63af74dc162","system_id":"levelo_inurba_marseille","lat":43.30929,"lon":5.36846,"is_reserved":false,"is_disabled":false,"rental_uris":{"android":"levelo://app?vid=9c866a69-4578-4890-bdf7-f63af74dc162","ios":"levelo://app?vid=9c866a69-4578-4890-bdf7-f63af74dc162"},"vehicle_type_id":"4","last_reported":1781610208,"current_range_meters":6400,"station_id":"ce4bgn92rcd13ifvqbvg","pricing_plan_id":"cebpf4jnsgd1na2vs0mg"},{"bike_id":"e4526c85-09c0-49f8-9972-be7deeedf58a","system_id":"levelo_inurba_marseille","lat":43.23152,"lon":5.43725,"is_reserved":false,"is_disabled":false,"rental_uris":{"android":"levelo://app?vid=e4526c85-09c0-49f8-9972-be7deeedf58a","ios":"levelo://app?vid=e4526c85-09c0-49f8-9972-be7deeedf58a"},"vehicle_type_id":"4","last_reported":1781610208,"current_range_meters":6400,"station_id":"ce4bhmp2rcd13ifvqgog","pricing_plan_id":"cebpf4jnsgd1na2vs0mg"},{"bike_id":"080ae7f8-ebed-4d77-8980-50cc1035d758","system_id":"levelo_inurba_marseille","lat":43.29725,"lon":5.37709,"is_reserved":false,"is_disabled":false,"rental_uris":{"android":"levelo://app?vid=080ae7f8-ebed-4d77-8980-50cc1035d758","ios":"levelo://app?vid=080ae7f8-ebed-4d77-8980-50cc1035d758"},"vehicle_type_id":"4","last_reported":1781610208,"current_range_meters":6400,"station_id":"ce4bgkh2rcd13ifvqbl0","pricing_plan_id":"cebpf4jnsgd1na2vs0mg"},{"bike_id":"1176e056-508b-4f45-9139-b6c669b5ab65","system_id":"levelo_inurba_marseille","lat":43.28481,"lon":5.48391,"is_reserved":false,"is_disabled":false,"rental_uris":{"android":"levelo://app?vid=1176e056-508b-4f45-9139-b6c669b5ab65","ios":"levelo://app?vid=1176e056-508b-4f45-9139-b6c669b5ab65"},"vehicle_type_id":"4","last_reported":1781610208,"current_range_meters":6400,"station_id":"st_d3svhcjqgbts73a3dn0g","pricing_plan_id":"cebpf4jnsgd1na2vs0mg"},{"bike_id":"c6f2ba64-4986-4997-bd15-713030dcd8ed","system_id":"levelo_inurba_marseille","lat":43.23788,"lon":5.36638,"is_reserved":false,"is_disabled":false,"rental_uris":{"android":"levelo://app?vid=c6f2ba64-4986-4997-bd15-713030dcd8ed","ios":"levelo://app?vid=c6f2ba64-4986-4997-bd15-713030dcd8ed"},"vehicle_type_id":"4","last_reported":1781610208,"current_range_meters":6400,"station_id":"st_d3nk18o9ro0c73en2l3g","pricing_plan_id":"cebpf4jnsgd1na2vs0mg"},{"bike_id":"b9b82710-fe05-4bbb-a83a-eb8d2b699248","system_id":"levelo_inurba_marseille","lat":43.29194,"lon":5.39333,"is_reserved":false,"is_disabled":false,"rental_uris":{"android":"levelo://app?vid=b9b82710-fe05-4bbb-a83a-eb8d2b699248","ios":"levelo://app?vid=b9b82710-fe05-4bbb-a83a-eb8d2b699248"},"vehicle_type_id":"4","last_reported":1781610208,"current_range_meters":6400,"station_id":"ce4bh192rcd13ifvqdd0","pricing_plan_id":"cebpf4jnsgd1na2vs0mg"},{"bike_id":"78657639-19dd-49f6-870d-19629f31103e","system_id":"levelo_inurba_marseille","lat":43.31844,"lon":5.37996,"is_reserved":false,"is_disabled":false,"rental_uris":{"android":"levelo://app?vid=78657639-19dd-49f6-870d-19629f31103e","ios":"levelo://app?vid=78657639-19dd-49f6-870d-19629f31103e"},"vehicle_type_id":"4","last_reported":1781610208,"current_range_meters":6400,"station_id":"","pricing_plan_id":"cebpf4jnsgd1na2vs0mg"},{"bike_id":"e31dd6f2-2785-4104-b252-718b5551c705","system_id":"levelo_inurba_marseille","lat":43.24359,"lon":5.37088,"is_reserved":false,"is_disabled":false,"rental_uris":{"android":"levelo://app?vid=e31dd6f2-2785-4104-b252-718b5551c705","ios":"levelo://app?vid=e31dd6f2-2785-4104-b252-718b5551c705"},"vehicle_type_id":"4","last_reported":1781610208,"current_range_meters":6400,"station_id":"ce4bhhh2rcd13ifvqfk0","pricing_plan_id":"cebpf4jnsgd1na2vs0mg"},{"bike_id":"69ff9e27-e6f4-44f6-b66f-bd4f1371d05b","system_id":"levelo_inurba_marseille","lat":43.29491,"lon":5.43302,"is_reserved":false,"is_disabled":false,"rental_uris":{"android":"levelo://app?vid=69ff9e27-e6f4-44f6-b66f-bd4f1371d05b","ios":"levelo://app?vid=69ff9e27-e6f4-44f6-b66f-bd4f1371d05b"},"vehicle_type_id":"4","last_reported":1781610208,"current_range_meters":6400,"station_id":"st_d3j5ugp08ojc73fj9d10","pricing_plan_id":"cebpf4jnsgd1na2vs0mg"},{"bike_id":"dd33fe62-4196-4497-9c18-a047c29ff1fd","system_id":"levelo_inurba_marseille","lat":43.29882,"lon":5.38919,"is_reserved":false,"is_disabled":true,"rental_uris":{"android":"levelo://app?vid=dd33fe62-4196-4497-9c18-a047c29ff1fd","ios":"levelo://app?vid=dd33fe62-4196-4497-9c18-a047c29ff1fd"},"vehicle_type_id":"4","last_reported":1781610208,"current_range_meters":6400,"station_id":"ce4bh392rcd13ifvqdl0","pricing_plan_id":"cebpf4jnsgd1na2vs0mg"},{"bike_id":"36198e01-f64e-46cb-a27f-2597f2e302e0","system_id":"levelo_inurba_marseille","lat":43.2985,"lon":5.36263,"is_reserved":false,"is_disabled":false,"rental_uris":{"android":"levelo://app?vid=36198e01-f64e-46cb-a27f-2597f2e302e0","ios":"levelo://app?vid=36198e01-f64e-46cb-a27f-2597f2e302e0"},"vehicle_type_id":"4","last_reported":1781610208,"current_range_meters":6400,"station_id":"ce4bgpp2rcd13ifvqc3g","pricing_plan_id":"cebpf4jnsgd1na2vs0mg"},{"bike_id":"ca080f73-7ded-46d9-bcfe-12a9acd03665","system_id":"levelo_inurba_marseille","lat":43.22934,"lon":5.35385,"is_reserved":false,"is_disabled":false,"rental_uris":{"android":"levelo://app?vid=ca080f73-7ded-46d9-bcfe-12a9acd03665","ios":"levelo://app?vid=ca080f73-7ded-46d9-bcfe-12a9acd03665"},"vehicle_type_id":"4","last_reported":1781610208,"current_range_meters":6400,"station_id":"cpo3532slgdg3j2ikp40","pricing_plan_id":"cebpf4jnsgd1na2vs0mg"},{"bike_id":"5c84af3f-18a3-4867-8dc3-b8e76a3c2346","system_id":"levelo_inurba_marseille","lat":43.26942,"lon":5.38635,"is_reserved":false,"is_disabled":true,"rental_uris":{"android":"levelo://app?vid=5c84af3f-18a3-4867-8dc3-b8e76a3c2346","ios":"levelo://app?vid=5c84af3f-18a3-4867-8dc3-b8e76a3c2346"},"vehicle_type_id":"4","last_reported":1781610208,"current_range_meters":6800,"station_id":"ce4bhh92rcd13ifvqfh0","pricing_plan_id":"cebpf4jnsgd1na2vs0mg"},{"bike_id":"08fa2fe4-76a4-4e56-97b7-8d2e6cad8c69","system_id":"levelo_inurba_marseille","lat":43.29011,"lon":5.35621,"is_reserved":false,"is_disabled":false,"rental_uris":{"android":"levelo://app?vid=08fa2fe4-76a4-4e56-97b7-8d2e6cad8c69","ios":"levelo://app?vid=08fa2fe4-76a4-4e56-97b7-8d2e6cad8c69"},"vehicle_type_id":"4","last_reported":1781610208,"current_range_meters":6800,"station_id":"ce4bhb92rcd13ifvqen0","pricing_plan_id":"cebpf4jnsgd1na2vs0mg"},{"bike_id":"5968e368-3e4d-4b66-b82f-d090cc77e8c4","system_id":"levelo_inurba_marseille","lat":43.29094,"lon":5.38134,"is_reserved":false,"is_disabled":false,"rental_uris":{"android":"levelo://app?vid=5968e368-3e4d-4b66-b82f-d090cc77e8c4","ios":"levelo://app?vid=5968e368-3e4d-4b66-b82f-d090cc77e8c4"},"vehicle_type_id":"4","last_reported":1781610208,"current_range_meters":6800,"station_id":"ce4bh512rcd13ifvqe2g","pricing_plan_id":"cebpf4jnsgd1na2vs0mg"},{"bike_id":"92132944-91e0-4e0a-8448-3f1a1dc8d8c9","system_id":"levelo_inurba_marseille","lat":43.32508,"lon":5.38286,"is_reserved":false,"is_disabled":false,"rental_uris":{"android":"levelo://app?vid=92132944-91e0-4e0a-8448-3f1a1dc8d8c9","ios":"levelo://app?vid=92132944-91e0-4e0a-8448-3f1a1dc8d8c9"},"vehicle_type_id":"4","last_reported":1781610208,"current_range_meters":6800,"station_id":"st_d4asgbiv49dc73anf9m0","pricing_plan_id":"cebpf4jnsgd1na2vs0mg"},{"bike_id":"4d8c51f0-5780-4dc0-8aca-97fafb11355d","system_id":"levelo_inurba_marseille","lat":43.25926,"lon":5.40899,"is_reserved":false,"is_disabled":false,"rental_uris":{"android":"levelo://app?vid=4d8c51f0-5780-4dc0-8aca-97fafb11355d","ios":"levelo://app?vid=4d8c51f0-5780-4dc0-8aca-97fafb11355d"},"vehicle_type_id":"4","last_reported":1781610208,"current_range_meters":6800,"station_id":"ce4bhm92rcd13ifvqglg","pricing_plan_id":"cebpf4jnsgd1na2vs0mg"},{"bike_id":"63c1cc80-26eb-4316-ac5a-c4cbb05fbdb4","system_id":"levelo_inurba_marseille","lat":43.28486,"lon":5.48439,"is_reserved":false,"is_disabled":false,"rental_uris":{"android":"levelo://app?vid=63c1cc80-26eb-4316-ac5a-c4cbb05fbdb4","ios":"levelo://app?vid=63c1cc80-26eb-4316-ac5a-c4cbb05fbdb4"},"vehicle_type_id":"4","last_reported":1781610208,"current_range_meters":6800,"station_id":"st_d3svhcjqgbts73a3dn0g","pricing_plan_id":"cebpf4jnsgd1na2vs0mg"},{"bike_id":"61c27dec-80f0-4dc4-90ec-36826fc6d4a0","system_id":"levelo_inurba_marseille","lat":43.21196,"lon":5.35071,"is_reserved":false,"is_disabled":false,"rental_uris":{"android":"levelo://app?vid=61c27dec-80f0-4dc4-90ec-36826fc6d4a0","ios":"levelo://app?vid=61c27dec-80f0-4dc4-90ec-36826fc6d4a0"},"vehicle_type_id":"4","last_reported":1781610208,"current_range_meters":6800,"station_id":"st_cvj6sg6p6f1abm77japg","pricing_plan_id":"cebpf4jnsgd1na2vs0mg"},{"bike_id":"a75f7f80-a470-41cb-ac6f-6abc7358bddc","system_id":"levelo_inurba_marseille","lat":43.24666,"lon":5.3816,"is_reserved":false,"is_disabled":false,"rental_uris":{"android":"levelo://app?vid=a75f7f80-a470-41cb-ac6f-6abc7358bddc","ios":"levelo://app?vid=a75f7f80-a470-41cb-ac6f-6abc7358bddc"},"vehicle_type_id":"4","last_reported":1781610208,"current_range_meters":6800,"station_id":"ce4bhih2rcd13ifvqfr0","pricing_plan_id":"cebpf4jnsgd1na2vs0mg"},{"bike_id":"c30ae016-4834-496e-b8ac-bfe62c120025","system_id":"levelo_inurba_marseille","lat":43.2448,"lon":5.42545,"is_reserved":false,"is_disabled":false,"rental_uris":{"android":"levelo://app?vid=c30ae016-4834-496e-b8ac-bfe62c120025","ios":"levelo://app?vid=c30ae016-4834-496e-b8ac-bfe62c120025"},"vehicle_type_id":"4","last_reported":1781610208,"current_range_meters":6800,"station_id":"st_d4a3vfp97mjs738cd8kg","pricing_plan_id":"cebpf4jnsgd1na2vs0mg"},{"bike_id":"1d66768f-2869-4826-adb3-e04e46e8f715","system_id":"levelo_inurba_marseille","lat":43.33536,"lon":5.37473,"is_reserved":false,"is_disabled":false,"rental_uris":{"android":"levelo://app?vid=1d66768f-2869-4826-adb3-e04e46e8f715","ios":"levelo://app?vid=1d66768f-2869-4826-adb3-e04e46e8f715"},"vehicle_type_id":"4","last_reported":1781610208,"current_range_meters":6800,"station_id":"st_d46tts09ee8s73dlu43g","pricing_plan_id":"cebpf4jnsgd1na2vs0mg"},{"bike_id":"21242544-9e4c-461d-8c3c-60ea61faef13","system_id":"levelo_inurba_marseille","lat":43.3173,"lon":5.39014,"is_reserved":false,"is_disabled":false,"rental_uris":{"android":"levelo://app?vid=21242544-9e4c-461d-8c3c-60ea61faef13","ios":"levelo://app?vid=21242544-9e4c-461d-8c3c-60ea61faef13"},"vehicle_type_id":"4","last_reported":1781610208,"current_range_meters":6800,"station_id":"ce4bhqp2rcd13ifvqhng","pricing_plan_id":"cebpf4jnsgd1na2vs0mg"},{"bike_id":"cb2564e1-4d55-4076-ab6e-0b6bb22a9e35","system_id":"levelo_inurba_marseille","lat":43.29536,"lon":5.38546,"is_reserved":false,"is_disabled":false,"rental_uris":{"android":"levelo://app?vid=cb2564e1-4d55-4076-ab6e-0b6bb22a9e35","ios":"levelo://app?vid=cb2564e1-4d55-4076-ab6e-0b6bb22a9e35"},"vehicle_type_id":"4","last_reported":1781610208,"current_range_meters":6800,"station_id":"ce4bgih2rcd13ifvqba0","pricing_plan_id":"cebpf4jnsgd1na2vs0mg"},{"bike_id":"64597c75-8655-495c-822d-514af796b83c","system_id":"levelo_inurba_marseille","lat":43.2256,"lon":5.41634,"is_reserved":false,"is_disabled":false,"rental_uris":{"android":"levelo://app?vid=64597c75-8655-495c-822d-514af796b83c","ios":"levelo://app?vid=64597c75-8655-495c-822d-514af796b83c"},"vehicle_type_id":"4","last_reported":1781610208,"current_range_meters":6800,"station_id":"st_d2o4gvlbi1j2169b742g","pricing_plan_id":"cebpf4jnsgd1na2vs0mg"},{"bike_id":"5786c557-9560-4a10-93e8-f8d4cebf391f","system_id":"levelo_inurba_marseille","lat":43.25088,"lon":5.39495,"is_reserved":false,"is_disabled":false,"rental_uris":{"android":"levelo://app?vid=5786c557-9560-4a10-93e8-f8d4cebf391f","ios":"levelo://app?vid=5786c557-9560-4a10-93e8-f8d4cebf391f"},"vehicle_type_id":"4","last_reported":1781610208,"current_range_meters":6800,"station_id":"ce4bhm12rcd13ifvqgkg","pricing_plan_id":"cebpf4jnsgd1na2vs0mg"},{"bike_id":"9a17ac7a-4779-4d8b-98a6-dcf5e41c6d29","system_id":"levelo_inurba_marseille","lat":43.23961,"lon":5.36632,"is_reserved":false,"is_disabled":false,"rental_uris":{"android":"levelo://app?vid=9a17ac7a-4779-4d8b-98a6-dcf5e41c6d29","ios":"levelo://app?vid=9a17ac7a-4779-4d8b-98a6-dcf5e41c6d29"},"vehicle_type_id":"4","last_reported":1781610208,"current_range_meters":6800,"station_id":"ce4bhi12rcd13ifvqfp0","pricing_plan_id":"cebpf4jnsgd1na2vs0mg"},{"bike_id":"24ab2018-e47d-455c-a0b0-f6a54ae21bcc","system_id":"levelo_inurba_marseille","lat":43.27825,"lon":5.40742,"is_reserved":false,"is_disabled":true,"rental_uris":{"android":"levelo://app?vid=24ab2018-e47d-455c-a0b0-f6a54ae21bcc","ios":"levelo://app?vid=24ab2018-e47d-455c-a0b0-f6a54ae21bcc"},"vehicle_type_id":"4","last_reported":1781610208,"current_range_meters":6800,"station_id":"ce4bhnh2rcd13ifvqgtg","pricing_plan_id":"cebpf4jnsgd1na2vs0mg"},{"bike_id":"d405dd66-58bd-4376-a5c2-93e2248e5e05","system_id":"levelo_inurba_marseille","lat":43.30906,"lon":5.36875,"is_reserved":false,"is_disabled":false,"rental_uris":{"android":"levelo://app?vid=d405dd66-58bd-4376-a5c2-93e2248e5e05","ios":"levelo://app?vid=d405dd66-58bd-4376-a5c2-93e2248e5e05"},"vehicle_type_id":"4","last_reported":1781610208,"current_range_meters":6800,"station_id":"ce4bgn92rcd13ifvqbvg","pricing_plan_id":"cebpf4jnsgd1na2vs0mg"},{"bike_id":"be6a70b7-6594-448b-8779-f0c66f7a8eda","system_id":"levelo_inurba_marseille","lat":43.30436,"lon":5.37911,"is_reserved":false,"is_disabled":false,"rental_uris":{"android":"levelo://app?vid=be6a70b7-6594-448b-8779-f0c66f7a8eda","ios":"levelo://app?vid=be6a70b7-6594-448b-8779-f0c66f7a8eda"},"vehicle_type_id":"4","last_reported":1781610208,"current_range_meters":6800,"station_id":"ce4bgup2rcd13ifvqcn0","pricing_plan_id":"cebpf4jnsgd1na2vs0mg"},{"bike_id":"4b1184e8-72be-4f4a-85b1-5a6611344efb","system_id":"levelo_inurba_marseille","lat":43.27946,"lon":5.41051,"is_reserved":false,"is_disabled":false,"rental_uris":{"android":"levelo://app?vid=4b1184e8-72be-4f4a-85b1-5a6611344efb","ios":"levelo://app?vid=4b1184e8-72be-4f4a-85b1-5a6611344efb"},"vehicle_type_id":"4","last_reported":1781610208,"current_range_meters":6800,"station_id":"ce4bhnp2rcd13ifvqh0g","pricing_plan_id":"cebpf4jnsgd1na2vs0mg"},{"bike_id":"3a46714c-439b-4ccd-bcaf-8bab07093116","system_id":"levelo_inurba_marseille","lat":43.28519,"lon":5.38503,"is_reserved":false,"is_disabled":false,"rental_uris":{"android":"levelo://app?vid=3a46714c-439b-4ccd-bcaf-8bab07093116","ios":"levelo://app?vid=3a46714c-439b-4ccd-bcaf-8bab07093116"},"vehicle_type_id":"4","last_reported":1781610208,"current_range_meters":6800,"station_id":"","pricing_plan_id":"cebpf4jnsgd1na2vs0mg"},{"bike_id":"2859f041-b0a1-41a2-8ddc-39da5216a99b","system_id":"levelo_inurba_marseille","lat":43.31354,"lon":5.36743,"is_reserved":false,"is_disabled":false,"rental_uris":{"android":"levelo://app?vid=2859f041-b0a1-41a2-8ddc-39da5216a99b","ios":"levelo://app?vid=2859f041-b0a1-41a2-8ddc-39da5216a99b"},"vehicle_type_id":"4","last_reported":1781610208,"current_range_meters":6800,"station_id":"ce4bgr92rcd13ifvqc6g","pricing_plan_id":"cebpf4jnsgd1na2vs0mg"},{"bike_id":"b00fe017-7b8c-468b-bf7f-49593df19f5f","system_id":"levelo_inurba_marseille","lat":43.27834,"lon":5.40744,"is_reserved":false,"is_disabled":false,"rental_uris":{"android":"levelo://app?vid=b00fe017-7b8c-468b-bf7f-49593df19f5f","ios":"levelo://app?vid=b00fe017-7b8c-468b-bf7f-49593df19f5f"},"vehicle_type_id":"4","last_reported":1781610208,"current_range_meters":6800,"station_id":"ce4bhnh2rcd13ifvqgtg","pricing_plan_id":"cebpf4jnsgd1na2vs0mg"},{"bike_id":"55284478-6c38-4211-8eb3-3e942febd525","system_id":"levelo_inurba_marseille","lat":43.287,"lon":5.4669,"is_reserved":false,"is_disabled":false,"rental_uris":{"android":"levelo://app?vid=55284478-6c38-4211-8eb3-3e942febd525","ios":"levelo://app?vid=55284478-6c38-4211-8eb3-3e942febd525"},"vehicle_type_id":"4","last_reported":1781610208,"current_range_meters":6800,"station_id":"st_d6tc3vkotcvc738tfjhg","pricing_plan_id":"cebpf4jnsgd1na2vs0mg"},{"bike_id":"3f13c7d7-6685-42fc-9fea-521f2e54f53c","system_id":"levelo_inurba_marseille","lat":43.30957,"lon":5.3903,"is_reserved":false,"is_disabled":false,"rental_uris":{"android":"levelo://app?vid=3f13c7d7-6685-42fc-9fea-521f2e54f53c","ios":"levelo://app?vid=3f13c7d7-6685-42fc-9fea-521f2e54f53c"},"vehicle_type_id":"4","last_reported":1781610208,"current_range_meters":6800,"station_id":"ce4bgup2rcd13ifvqco0","pricing_plan_id":"cebpf4jnsgd1na2vs0mg"},{"bike_id":"d5ca71ef-c34d-44b9-99e1-ecdf09e939bd","system_id":"levelo_inurba_marseille","lat":43.27385,"lon":5.36272,"is_reserved":false,"is_disabled":false,"rental_uris":{"android":"levelo://app?vid=d5ca71ef-c34d-44b9-99e1-ecdf09e939bd","ios":"levelo://app?vid=d5ca71ef-c34d-44b9-99e1-ecdf09e939bd"},"vehicle_type_id":"4","last_reported":1781610208,"current_range_meters":6800,"station_id":"ce4bhbh2rcd13ifvqeo0","pricing_plan_id":"cebpf4jnsgd1na2vs0mg"},{"bike_id":"07699c09-9266-436c-b69b-d120a8d87374","system_id":"levelo_inurba_marseille","lat":43.29,"lon":5.37855,"is_reserved":false,"is_disabled":false,"rental_uris":{"android":"levelo://app?vid=07699c09-9266-436c-b69b-d120a8d87374","ios":"levelo://app?vid=07699c09-9266-436c-b69b-d120a8d87374"},"vehicle_type_id":"4","last_reported":1781610208,"current_range_meters":6800,"station_id":"ce4bh9p2rcd13ifvqed0","pricing_plan_id":"cebpf4jnsgd1na2vs0mg"},{"bike_id":"b74763e0-4cb6-49b1-9f1d-f654ab489391","system_id":"levelo_inurba_marseille","lat":43.22533,"lon":5.3483,"is_reserved":false,"is_disabled":false,"rental_uris":{"android":"levelo://app?vid=b74763e0-4cb6-49b1-9f1d-f654ab489391","ios":"levelo://app?vid=b74763e0-4cb6-49b1-9f1d-f654ab489391"},"vehicle_type_id":"4","last_reported":1781610208,"current_range_meters":6800,"station_id":"st_cvj5dfep6f1abm77gieg","pricing_plan_id":"cebpf4jnsgd1na2vs0mg"},{"bike_id":"d1a71da9-9b42-4e6c-825f-93adbdce2249","system_id":"levelo_inurba_marseille","lat":43.30887,"lon":5.37206,"is_reserved":false,"is_disabled":true,"rental_uris":{"android":"levelo://app?vid=d1a71da9-9b42-4e6c-825f-93adbdce2249","ios":"levelo://app?vid=d1a71da9-9b42-4e6c-825f-93adbdce2249"},"vehicle_type_id":"4","last_reported":1781610208,"current_range_meters":7200,"station_id":"ce4bguh2rcd13ifvqckg","pricing_plan_id":"cebpf4jnsgd1na2vs0mg"},{"bike_id":"269b2b92-c760-4f1c-87a9-f8bb117b72c9","system_id":"levelo_inurba_marseille","lat":43.27616,"lon":5.36108,"is_reserved":false,"is_disabled":false,"rental_uris":{"android":"levelo://app?vid=269b2b92-c760-4f1c-87a9-f8bb117b72c9","ios":"levelo://app?vid=269b2b92-c760-4f1c-87a9-f8bb117b72c9"},"vehicle_type_id":"4","last_reported":1781610208,"current_range_meters":7200,"station_id":"ce4bgj92rcd13ifvqbe0","pricing_plan_id":"cebpf4jnsgd1na2vs0mg"},{"bike_id":"87846115-8400-498e-8cf7-6c0620a731ea","system_id":"levelo_inurba_marseille","lat":43.2849,"lon":5.48375,"is_reserved":false,"is_disabled":false,"rental_uris":{"android":"levelo://app?vid=87846115-8400-498e-8cf7-6c0620a731ea","ios":"levelo://app?vid=87846115-8400-498e-8cf7-6c0620a731ea"},"vehicle_type_id":"4","last_reported":1781610208,"current_range_meters":7200,"station_id":"st_d3svhcjqgbts73a3dn0g","pricing_plan_id":"cebpf4jnsgd1na2vs0mg"},{"bike_id":"3e0db31d-6c43-49e6-9e36-c0830e3b11a1","system_id":"levelo_inurba_marseille","lat":43.32357,"lon":5.36773,"is_reserved":false,"is_disabled":false,"rental_uris":{"android":"levelo://app?vid=3e0db31d-6c43-49e6-9e36-c0830e3b11a1","ios":"levelo://app?vid=3e0db31d-6c43-49e6-9e36-c0830e3b11a1"},"vehicle_type_id":"4","last_reported":1781610208,"current_range_meters":7200,"station_id":"ce4bhsh2rcd13ifvqi2g","pricing_plan_id":"cebpf4jnsgd1na2vs0mg"},{"bike_id":"75b2f980-5634-434e-a8fc-14d3936fec3b","system_id":"levelo_inurba_marseille","lat":43.30312,"lon":5.37857,"is_reserved":false,"is_disabled":false,"rental_uris":{"android":"levelo://app?vid=75b2f980-5634-434e-a8fc-14d3936fec3b","ios":"levelo://app?vid=75b2f980-5634-434e-a8fc-14d3936fec3b"},"vehicle_type_id":"4","last_reported":1781610208,"current_range_meters":7200,"station_id":"","pricing_plan_id":"cebpf4jnsgd1na2vs0mg"},{"bike_id":"eedfa3a8-b4a8-408b-9081-52bfc010c558","system_id":"levelo_inurba_marseille","lat":43.32603,"lon":5.4145,"is_reserved":false,"is_disabled":false,"rental_uris":{"android":"levelo://app?vid=eedfa3a8-b4a8-408b-9081-52bfc010c558","ios":"levelo://app?vid=eedfa3a8-b4a8-408b-9081-52bfc010c558"},"vehicle_type_id":"4","last_reported":1781610208,"current_range_meters":7200,"station_id":"","pricing_plan_id":"cebpf4jnsgd1na2vs0mg"},{"bike_id":"779a3112-4608-475e-bcad-71e35d676d18","system_id":"levelo_inurba_marseille","lat":43.29934,"lon":5.38164,"is_reserved":false,"is_disabled":true,"rental_uris":{"android":"levelo://app?vid=779a3112-4608-475e-bcad-71e35d676d18","ios":"levelo://app?vid=779a3112-4608-475e-bcad-71e35d676d18"},"vehicle_type_id":"4","last_reported":1781610208,"current_range_meters":7200,"station_id":"ce4bgj12rcd13ifvqbc0","pricing_plan_id":"cebpf4jnsgd1na2vs0mg"},{"bike_id":"cc807d68-bd6b-4eaf-b572-b46a67b05fe0","system_id":"levelo_inurba_marseille","lat":43.30504,"lon":5.36728,"is_reserved":false,"is_disabled":false,"rental_uris":{"android":"levelo://app?vid=cc807d68-bd6b-4eaf-b572-b46a67b05fe0","ios":"levelo://app?vid=cc807d68-bd6b-4eaf-b572-b46a67b05fe0"},"vehicle_type_id":"4","last_reported":1781610208,"current_range_meters":7200,"station_id":"ce4bgrp2rcd13ifvqc9g","pricing_plan_id":"cebpf4jnsgd1na2vs0mg"},{"bike_id":"6ef0f497-6e61-4eb8-8b35-f18ca7a1cfb3","system_id":"levelo_inurba_marseille","lat":43.29023,"lon":5.38136,"is_reserved":false,"is_disabled":false,"rental_uris":{"android":"levelo://app?vid=6ef0f497-6e61-4eb8-8b35-f18ca7a1cfb3","ios":"levelo://app?vid=6ef0f497-6e61-4eb8-8b35-f18ca7a1cfb3"},"vehicle_type_id":"4","last_reported":1781610208,"current_range_meters":7200,"station_id":"ce4bh4p2rcd13ifvqe1g","pricing_plan_id":"cebpf4jnsgd1na2vs0mg"},{"bike_id":"574d1002-3801-4f0f-93f3-afd198211729","system_id":"levelo_inurba_marseille","lat":43.31084,"lon":5.42428,"is_reserved":false,"is_disabled":true,"rental_uris":{"android":"levelo://app?vid=574d1002-3801-4f0f-93f3-afd198211729","ios":"levelo://app?vid=574d1002-3801-4f0f-93f3-afd198211729"},"vehicle_type_id":"4","last_reported":1781610208,"current_range_meters":7200,"station_id":"ce4bhp92rcd13ifvqhag","pricing_plan_id":"cebpf4jnsgd1na2vs0mg"},{"bike_id":"bfa11232-ff3a-46db-9c7d-736ea0f00092","system_id":"levelo_inurba_marseille","lat":43.28619,"lon":5.35098,"is_reserved":false,"is_disabled":false,"rental_uris":{"android":"levelo://app?vid=bfa11232-ff3a-46db-9c7d-736ea0f00092","ios":"levelo://app?vid=bfa11232-ff3a-46db-9c7d-736ea0f00092"},"vehicle_type_id":"4","last_reported":1781610208,"current_range_meters":7200,"station_id":"ce4bhch2rcd13ifvqeug","pricing_plan_id":"cebpf4jnsgd1na2vs0mg"},{"bike_id":"cccb8539-b214-4443-a0a8-fcc39314f779","system_id":"levelo_inurba_marseille","lat":43.24957,"lon":5.40499,"is_reserved":false,"is_disabled":false,"rental_uris":{"android":"levelo://app?vid=cccb8539-b214-4443-a0a8-fcc39314f779","ios":"levelo://app?vid=cccb8539-b214-4443-a0a8-fcc39314f779"},"vehicle_type_id":"4","last_reported":1781610208,"current_range_meters":7200,"station_id":"st_d2ngiaodas8pm72gd1h0","pricing_plan_id":"cebpf4jnsgd1na2vs0mg"},{"bike_id":"abc92aa8-b9f3-42af-a8f9-a92a8b068ce5","system_id":"levelo_inurba_marseille","lat":43.31352,"lon":5.38503,"is_reserved":false,"is_disabled":false,"rental_uris":{"android":"levelo://app?vid=abc92aa8-b9f3-42af-a8f9-a92a8b068ce5","ios":"levelo://app?vid=abc92aa8-b9f3-42af-a8f9-a92a8b068ce5"},"vehicle_type_id":"4","last_reported":1781610208,"current_range_meters":7200,"station_id":"ce4bgt92rcd13ifvqcf0","pricing_plan_id":"cebpf4jnsgd1na2vs0mg"},{"bike_id":"32b36524-326f-4d23-ba90-3d0fd77062b7","system_id":"levelo_inurba_marseille","lat":43.27814,"lon":5.40711,"is_reserved":false,"is_disabled":false,"rental_uris":{"android":"levelo://app?vid=32b36524-326f-4d23-ba90-3d0fd77062b7","ios":"levelo://app?vid=32b36524-326f-4d23-ba90-3d0fd77062b7"},"vehicle_type_id":"4","last_reported":1781610208,"current_range_meters":7200,"station_id":"ce4bhnh2rcd13ifvqgtg","pricing_plan_id":"cebpf4jnsgd1na2vs0mg"},{"bike_id":"1f589027-766d-4ad6-a434-282e5fb82063","system_id":"levelo_inurba_marseille","lat":43.2119,"lon":5.35085,"is_reserved":false,"is_disabled":false,"rental_uris":{"android":"levelo://app?vid=1f589027-766d-4ad6-a434-282e5fb82063","ios":"levelo://app?vid=1f589027-766d-4ad6-a434-282e5fb82063"},"vehicle_type_id":"4","last_reported":1781610208,"current_range_meters":7200,"station_id":"st_cvj6sg6p6f1abm77japg","pricing_plan_id":"cebpf4jnsgd1na2vs0mg"},{"bike_id":"0fe2aa10-9e82-4407-931f-5a86fbaa0e3f","system_id":"levelo_inurba_marseille","lat":43.26407,"lon":5.41062,"is_reserved":false,"is_disabled":true,"rental_uris":{"android":"levelo://app?vid=0fe2aa10-9e82-4407-931f-5a86fbaa0e3f","ios":"levelo://app?vid=0fe2aa10-9e82-4407-931f-5a86fbaa0e3f"},"vehicle_type_id":"4","last_reported":1781610208,"current_range_meters":7200,"station_id":"st_d4e5ca6na9uc73bfl5fg","pricing_plan_id":"cebpf4jnsgd1na2vs0mg"},{"bike_id":"20d28c91-ba68-4575-a0fd-d55e19c32593","system_id":"levelo_inurba_marseille","lat":43.28477,"lon":5.4839,"is_reserved":false,"is_disabled":false,"rental_uris":{"android":"levelo://app?vid=20d28c91-ba68-4575-a0fd-d55e19c32593","ios":"levelo://app?vid=20d28c91-ba68-4575-a0fd-d55e19c32593"},"vehicle_type_id":"4","last_reported":1781610208,"current_range_meters":7200,"station_id":"st_d3svhcjqgbts73a3dn0g","pricing_plan_id":"cebpf4jnsgd1na2vs0mg"},{"bike_id":"280d03f8-d509-4ce9-a1b8-8667ebb7e127","system_id":"levelo_inurba_marseille","lat":43.25857,"lon":5.38881,"is_reserved":false,"is_disabled":false,"rental_uris":{"android":"levelo://app?vid=280d03f8-d509-4ce9-a1b8-8667ebb7e127","ios":"levelo://app?vid=280d03f8-d509-4ce9-a1b8-8667ebb7e127"},"vehicle_type_id":"4","last_reported":1781610208,"current_range_meters":7200,"station_id":"","pricing_plan_id":"cebpf4jnsgd1na2vs0mg"},{"bike_id":"e18f4c88-bd99-4150-b117-3bdadd746841","system_id":"levelo_inurba_marseille","lat":43.28691,"lon":5.46677,"is_reserved":false,"is_disabled":false,"rental_uris":{"android":"levelo://app?vid=e18f4c88-bd99-4150-b117-3bdadd746841","ios":"levelo://app?vid=e18f4c88-bd99-4150-b117-3bdadd746841"},"vehicle_type_id":"4","last_reported":1781610208,"current_range_meters":7200,"station_id":"st_d6tc3vkotcvc738tfjhg","pricing_plan_id":"cebpf4jnsgd1na2vs0mg"},{"bike_id":"d62f7d6c-4ba2-434d-a26f-dd8c656d45b9","system_id":"levelo_inurba_marseille","lat":43.26565,"lon":5.37275,"is_reserved":false,"is_disabled":false,"rental_uris":{"android":"levelo://app?vid=d62f7d6c-4ba2-434d-a26f-dd8c656d45b9","ios":"levelo://app?vid=d62f7d6c-4ba2-434d-a26f-dd8c656d45b9"},"vehicle_type_id":"4","last_reported":1781610208,"current_range_meters":7200,"station_id":"ce4bhg12rcd13ifvqf70","pricing_plan_id":"cebpf4jnsgd1na2vs0mg"},{"bike_id":"57a964d9-4642-433e-a5ba-e93ac3d8b94c","system_id":"levelo_inurba_marseille","lat":43.29934,"lon":5.36552,"is_reserved":false,"is_disabled":true,"rental_uris":{"android":"levelo://app?vid=57a964d9-4642-433e-a5ba-e93ac3d8b94c","ios":"levelo://app?vid=57a964d9-4642-433e-a5ba-e93ac3d8b94c"},"vehicle_type_id":"4","last_reported":1781610208,"current_range_meters":7200,"station_id":"ce4bgm92rcd13ifvqbr0","pricing_plan_id":"cebpf4jnsgd1na2vs0mg"},{"bike_id":"be45e0fe-8005-4983-b2d4-ef46e439adc4","system_id":"levelo_inurba_marseille","lat":43.30938,"lon":5.40149,"is_reserved":false,"is_disabled":false,"rental_uris":{"android":"levelo://app?vid=be45e0fe-8005-4983-b2d4-ef46e439adc4","ios":"levelo://app?vid=be45e0fe-8005-4983-b2d4-ef46e439adc4"},"vehicle_type_id":"4","last_reported":1781610208,"current_range_meters":7200,"station_id":"ce4bgvp2rcd13ifvqct0","pricing_plan_id":"cebpf4jnsgd1na2vs0mg"},{"bike_id":"b7465246-838b-487e-aa94-b7698da529fc","system_id":"levelo_inurba_marseille","lat":43.29726,"lon":5.37713,"is_reserved":false,"is_disabled":false,"rental_uris":{"android":"levelo://app?vid=b7465246-838b-487e-aa94-b7698da529fc","ios":"levelo://app?vid=b7465246-838b-487e-aa94-b7698da529fc"},"vehicle_type_id":"4","last_reported":1781610208,"current_range_meters":7200,"station_id":"ce4bgkh2rcd13ifvqbl0","pricing_plan_id":"cebpf4jnsgd1na2vs0mg"},{"bike_id":"c8743e6a-3fe4-496c-abdd-cc7d723b3666","system_id":"levelo_inurba_marseille","lat":43.27379,"lon":5.36269,"is_reserved":false,"is_disabled":false,"rental_uris":{"android":"levelo://app?vid=c8743e6a-3fe4-496c-abdd-cc7d723b3666","ios":"levelo://app?vid=c8743e6a-3fe4-496c-abdd-cc7d723b3666"},"vehicle_type_id":"4","last_reported":1781610208,"current_range_meters":7200,"station_id":"ce4bhbh2rcd13ifvqeo0","pricing_plan_id":"cebpf4jnsgd1na2vs0mg"},{"bike_id":"9316c0ed-2cb5-4b2f-8ec0-932240104021","system_id":"levelo_inurba_marseille","lat":43.30555,"lon":5.38451,"is_reserved":false,"is_disabled":false,"rental_uris":{"android":"levelo://app?vid=9316c0ed-2cb5-4b2f-8ec0-932240104021","ios":"levelo://app?vid=9316c0ed-2cb5-4b2f-8ec0-932240104021"},"vehicle_type_id":"4","last_reported":1781610208,"current_range_meters":8000,"station_id":"ce4bgg92rcd13ifvqb30","pricing_plan_id":"cebpf4jnsgd1na2vs0mg"},{"bike_id":"4b5426be-9611-4d02-918d-053e1cce99b9","system_id":"levelo_inurba_marseille","lat":43.26377,"lon":5.41107,"is_reserved":false,"is_disabled":false,"rental_uris":{"android":"levelo://app?vid=4b5426be-9611-4d02-918d-053e1cce99b9","ios":"levelo://app?vid=4b5426be-9611-4d02-918d-053e1cce99b9"},"vehicle_type_id":"4","last_reported":1781610208,"current_range_meters":8000,"station_id":"st_d4e5ca6na9uc73bfl5fg","pricing_plan_id":"cebpf4jnsgd1na2vs0mg"},{"bike_id":"4b68525f-b650-482b-b892-c0ba35c94b8a","system_id":"levelo_inurba_marseille","lat":43.26574,"lon":5.39022,"is_reserved":false,"is_disabled":false,"rental_uris":{"android":"levelo://app?vid=4b68525f-b650-482b-b892-c0ba35c94b8a","ios":"levelo://app?vid=4b68525f-b650-482b-b892-c0ba35c94b8a"},"vehicle_type_id":"4","last_reported":1781610208,"current_range_meters":8000,"station_id":"ce4bhe12rcd13ifvqf30","pricing_plan_id":"cebpf4jnsgd1na2vs0mg"},{"bike_id":"4864f0fe-9f67-4f9f-9619-d9c37a7f1815","system_id":"levelo_inurba_marseille","lat":43.314959,"lon":5.38019,"is_reserved":false,"is_disabled":false,"rental_uris":{"android":"levelo://app?vid=4864f0fe-9f67-4f9f-9619-d9c37a7f1815","ios":"levelo://app?vid=4864f0fe-9f67-4f9f-9619-d9c37a7f1815"},"vehicle_type_id":"4","last_reported":1781610208,"current_range_meters":8000,"station_id":"ce4bhsp2rcd13ifvqi50","pricing_plan_id":"cebpf4jnsgd1na2vs0mg"},{"bike_id":"0560a502-2a60-4cee-addc-a009dbfdcf16","system_id":"levelo_inurba_marseille","lat":43.231966,"lon":5.355541,"is_reserved":false,"is_disabled":false,"rental_uris":{"android":"levelo://app?vid=0560a502-2a60-4cee-addc-a009dbfdcf16","ios":"levelo://app?vid=0560a502-2a60-4cee-addc-a009dbfdcf16"},"vehicle_type_id":"4","last_reported":1781610208,"current_range_meters":8000,"station_id":"ce4bhu92rcd13ifvqi70","pricing_plan_id":"cebpf4jnsgd1na2vs0mg"},{"bike_id":"2f566132-1c9a-451f-b0d4-03be1c3482a0","system_id":"levelo_inurba_marseille","lat":43.24468,"lon":5.42539,"is_reserved":false,"is_disabled":true,"rental_uris":{"android":"levelo://app?vid=2f566132-1c9a-451f-b0d4-03be1c3482a0","ios":"levelo://app?vid=2f566132-1c9a-451f-b0d4-03be1c3482a0"},"vehicle_type_id":"4","last_reported":1781610208,"current_range_meters":8000,"station_id":"st_d4a3vfp97mjs738cd8kg","pricing_plan_id":"cebpf4jnsgd1na2vs0mg"},{"bike_id":"6dc56531-3159-4f50-a2e0-c8a7f7f6eeee","system_id":"levelo_inurba_marseille","lat":43.28271,"lon":5.35066,"is_reserved":false,"is_disabled":false,"rental_uris":{"android":"levelo://app?vid=6dc56531-3159-4f50-a2e0-c8a7f7f6eeee","ios":"levelo://app?vid=6dc56531-3159-4f50-a2e0-c8a7f7f6eeee"},"vehicle_type_id":"4","last_reported":1781610208,"current_range_meters":8000,"station_id":"ce4bhbp2rcd13ifvqerg","pricing_plan_id":"cebpf4jnsgd1na2vs0mg"},{"bike_id":"7fce5d9a-16b5-461e-91d1-e4607aeeeb5d","system_id":"levelo_inurba_marseille","lat":43.23197,"lon":5.4,"is_reserved":false,"is_disabled":false,"rental_uris":{"android":"levelo://app?vid=7fce5d9a-16b5-461e-91d1-e4607aeeeb5d","ios":"levelo://app?vid=7fce5d9a-16b5-461e-91d1-e4607aeeeb5d"},"vehicle_type_id":"4","last_reported":1781610208,"current_range_meters":8000,"station_id":"ce4bhn12rcd13ifvqgqg","pricing_plan_id":"cebpf4jnsgd1na2vs0mg"},{"bike_id":"e1b2170b-08b4-42fa-b2a2-076b040aa4a4","system_id":"levelo_inurba_marseille","lat":43.24549,"lon":5.39534,"is_reserved":false,"is_disabled":false,"rental_uris":{"android":"levelo://app?vid=e1b2170b-08b4-42fa-b2a2-076b040aa4a4","ios":"levelo://app?vid=e1b2170b-08b4-42fa-b2a2-076b040aa4a4"},"vehicle_type_id":"4","last_reported":1781610208,"current_range_meters":8000,"station_id":"ce4bhlp2rcd13ifvqgjg","pricing_plan_id":"cebpf4jnsgd1na2vs0mg"},{"bike_id":"6620f03a-72ab-49a4-b58f-9374898a6d56","system_id":"levelo_inurba_marseille","lat":43.2696,"lon":5.3861,"is_reserved":false,"is_disabled":true,"rental_uris":{"android":"levelo://app?vid=6620f03a-72ab-49a4-b58f-9374898a6d56","ios":"levelo://app?vid=6620f03a-72ab-49a4-b58f-9374898a6d56"},"vehicle_type_id":"4","last_reported":1781610208,"current_range_meters":8000,"station_id":"ce4bhh92rcd13ifvqfh0","pricing_plan_id":"cebpf4jnsgd1na2vs0mg"},{"bike_id":"688d3da7-9eb1-4ea7-a56b-24b303c53ae4","system_id":"levelo_inurba_marseille","lat":43.25791,"lon":5.38298,"is_reserved":false,"is_disabled":false,"rental_uris":{"android":"levelo://app?vid=688d3da7-9eb1-4ea7-a56b-24b303c53ae4","ios":"levelo://app?vid=688d3da7-9eb1-4ea7-a56b-24b303c53ae4"},"vehicle_type_id":"4","last_reported":1781610208,"current_range_meters":8000,"station_id":"","pricing_plan_id":"cebpf4jnsgd1na2vs0mg"},{"bike_id":"2baac3c9-95d6-477f-9aa5-4508cedbc082","system_id":"levelo_inurba_marseille","lat":43.28422,"lon":5.34967,"is_reserved":false,"is_disabled":false,"rental_uris":{"android":"levelo://app?vid=2baac3c9-95d6-477f-9aa5-4508cedbc082","ios":"levelo://app?vid=2baac3c9-95d6-477f-9aa5-4508cedbc082"},"vehicle_type_id":"4","last_reported":1781610208,"current_range_meters":8000,"station_id":"ce4bhbh2rcd13ifvqepg","pricing_plan_id":"cebpf4jnsgd1na2vs0mg"},{"bike_id":"de4f2f9b-aa29-43b6-a9be-736f6ea632cd","system_id":"levelo_inurba_marseille","lat":43.29557,"lon":5.42305,"is_reserved":false,"is_disabled":false,"rental_uris":{"android":"levelo://app?vid=de4f2f9b-aa29-43b6-a9be-736f6ea632cd","ios":"levelo://app?vid=de4f2f9b-aa29-43b6-a9be-736f6ea632cd"},"vehicle_type_id":"4","last_reported":1781610208,"current_range_meters":8000,"station_id":"ce4bhph2rcd13ifvqhdg","pricing_plan_id":"cebpf4jnsgd1na2vs0mg"},{"bike_id":"0ee5c527-5d14-45cb-8cd5-44156fdd97d0","system_id":"levelo_inurba_marseille","lat":43.30552,"lon":5.3656,"is_reserved":false,"is_disabled":false,"rental_uris":{"android":"levelo://app?vid=0ee5c527-5d14-45cb-8cd5-44156fdd97d0","ios":"levelo://app?vid=0ee5c527-5d14-45cb-8cd5-44156fdd97d0"},"vehicle_type_id":"4","last_reported":1781610208,"current_range_meters":8000,"station_id":"ce4bgs12rcd13ifvqcag","pricing_plan_id":"cebpf4jnsgd1na2vs0mg"},{"bike_id":"521237ec-b20d-4bfe-8c77-14c322c36934","system_id":"levelo_inurba_marseille","lat":43.2315,"lon":5.43722,"is_reserved":false,"is_disabled":false,"rental_uris":{"android":"levelo://app?vid=521237ec-b20d-4bfe-8c77-14c322c36934","ios":"levelo://app?vid=521237ec-b20d-4bfe-8c77-14c322c36934"},"vehicle_type_id":"4","last_reported":1781610208,"current_range_meters":8000,"station_id":"ce4bhmp2rcd13ifvqgog","pricing_plan_id":"cebpf4jnsgd1na2vs0mg"},