{"last_updated":1687010727,"ttl":30,"version":"2.2","data":{"bikes":[{"bike_id":"79fdfe61-0813-45b9-9793-b6ee3a6420c8","system_id":"levelo_inurba_marseille","lat":43.31363,"lon":5.36703,"is_reserved":false,"is_disabled":false,"rental_uris":{"android":"levelo://app?vid=79fdfe61-0813-45b9-9793-b6ee3a6420c8","ios":"levelo://app?vid=79fdfe61-0813-45b9-9793-b6ee3a6420c8"},"vehicle_type_id":"4","last_reported":1687010728,"current_range_meters":31200,"station_id":"","pricing_plan_id":"free"},{"bike_id":"173f5efc-c446-4347-a99a-9be1044892ca","system_id":"levelo_inurba_marseille","lat":43.312239,"lon":5.368562,"is_reserved":false,"is_disabled":false,"rental_uris":{"android":"levelo://app?vid=173f5efc-c446-4347-a99a-9be1044892ca","ios":"levelo://app?vid=173f5efc-c446-4347-a99a-9be1044892ca"},"vehicle_type_id":"4","last_reported":1687010728,"current_range_meters":15600,"station_id":"ce4bgl92rcd13ifvqbq0","pricing_plan_id":"free"},{"bike_id":"2e910c78-a6f7-4b79-ba5b-c8a169290904","system_id":"levelo_inurba_marseille","lat":43.312239,"lon":5.368562,"is_reserved":false,"is_disabled":false,"rental_uris":{"android":"levelo://app?vid=2e910c78-a6f7-4b79-ba5b-c8a169290904","ios":"levelo://app?vid=2e910c78-a6f7-4b79-ba5b-c8a169290904"},"vehicle_type_id":"4","last_reported":1687010728,"current_range_meters":20000,"station_id":"ce4bgl92rcd13ifvqbq0","pricing_plan_id":"free"},{"bike_id":"780ce21a-308c-4427-84de-bec8aa7ed898","system_id":"levelo_inurba_marseille","lat":43.31227,"lon":5.36867,"is_reserved":false,"is_disabled":false,"rental_uris":{"android":"levelo://app?vid=780ce21a-308c-4427-84de-bec8aa7ed898","ios":"levelo://app?vid=780ce21a-308c-4427-84de-bec8aa7ed898"},"vehicle_type_id":"4","last_reported":1687010728,"current_range_meters":21600,"station_id":"ce4bgl92rcd13ifvqbq0","pricing_plan_id":"free"},{"bike_id":"08b2a294-b42c-48d4-91f8-3b6949dffc7d","system_id":"levelo_inurba_marseille","lat":43.312239,"lon":5.368562,"is_reserved":false,"is_disabled":false,"rental_uris":{"android":"levelo://app?vid=08b2a294-b42c-48d4-91f8-3b6949dffc7d","ios":"levelo://app?vid=08b2a294-b42c-48d4-91f8-3b6949dffc7d"},"vehicle_type_id":"4","last_reported":1687010728,"current_range_meters":21600,"station_id":"ce4bgl92rcd13ifvqbq0","pricing_plan_id":"free"},{"bike_id":"11fa2495-3486-44c8-bbd7-14bdf846c08b","system_id":"levelo_inurba_marseille","lat":43.303046,"lon":5.368981,"is_reserved":false,"is_disabled":false,"rental_uris":{"android":"levelo://app?vid=11fa2495-3486-44c8-bbd7-14bdf846c08b","ios":"levelo://app?vid=11fa2495-3486-44c8-bbd7-14bdf846c08b"},"vehicle_type_id":"4","last_reported":1687010728,"current_range_meters":9600,"station_id":"ce4bgqh2rcd13ifvqc5g","pricing_plan_id":"free"},{"bike_id":"fd014098-2562-417d-9ca5-8dbdb7ac41a6","system_id":"levelo_inurba_marseille","lat":43.30875,"lon":5.37173,"is_reserved":false,"is_disabled":false,"rental_uris":{"android":"levelo://app?vid=fd014098-2562-417d-9ca5-8dbdb7ac41a6","ios":"levelo://app?vid=fd014098-2562-417d-9ca5-8dbdb7ac41a6"},"vehicle_type_id":"4","last_reported":1687010728,"current_range_meters":2000,"station_id":"","pricing_plan_id":"free"},{"bike_id":"a185bcf0-f339-406b-ae8c-e2a243426f55","system_id":"levelo_inurba_marseille","lat":43.308606,"lon":5.372099,"is_reserved":false,"is_disabled":false,"rental_uris":{"android":"levelo://app?vid=a185bcf0-f339-406b-ae8c-e2a243426f55","ios":"levelo://app?vid=a185bcf0-f339-406b-ae8c-e2a243426f55"},"vehicle_type_id":"4","last_reported":1687010728,"current_range_meters":28400,"station_id":"ce4bguh2rcd13ifvqckg","pricing_plan_id":"free"},{"bike_id":"9c746439-937e-436d-8c66-cb90c42aae7f","system_id":"levelo_inurba_marseille","lat":43.31415,"lon":5.37507,"is_reserved":false,"is_disabled":false,"rental_uris":{"android":"levelo://app?vid=9c746439-937e-436d-8c66-cb90c42aae7f","ios":"levelo://app?vid=9c746439-937e-436d-8c66-cb90c42aae7f"},"vehicle_type_id":"4","last_reported":1687010728,"current_range_meters":29600,"station_id":"","pricing_plan_id":"free"},{"bike_id":"c9d3741b-6a77-4070-ad4a-416edc105a18","system_id":"levelo_inurba_marseille","lat":43.305368,"lon":5.367343,"is_reserved":false,"is_disabled":false,"rental_uris":{"android":"levelo://app?vid=c9d3741b-6a77-4070-ad4a-416edc105a18","ios":"levelo://app?vid=c9d3741b-6a77-4070-ad4a-416edc105a18"},"vehicle_type_id":"4","last_reported":1687010728,"current_range_meters":30000,"station_id":"ce4bgrp2rcd13ifvqc9g","pricing_plan_id":"free"},{"bike_id":"cb424e54-2972-43fa-a685-2ffb8c12fa3c","system_id":"levelo_inurba_marseille","lat":43.305368,"lon":5.367343,"is_reserved":false,"is_disabled":false,"rental_uris":{"android":"levelo://app?vid=cb424e54-2972-43fa-a685-2ffb8c12fa3c","ios":"levelo://app?vid=cb424e54-2972-43fa-a685-2ffb8c12fa3c"},"vehicle_type_id":"4","last_reported":1687010728,"current_range_meters":19200,"station_id":"ce4bgrp2rcd13ifvqc9g","pricing_plan_id":"free"},{"bike_id":"1e2c0f56-1a7f-4365-9200-40a3cbf5217f","system_id":"levelo_inurba_marseille","lat":43.30549,"lon":5.36564,"is_reserved":false,"is_disabled":false,"rental_uris":{"android":"levelo://app?vid=1e2c0f56-1a7f-4365-9200-40a3cbf5217f","ios":"levelo://app?vid=1e2c0f56-1a7f-4365-9200-40a3cbf5217f"},"vehicle_type_id":"4","last_reported":1687010728,"current_range_meters":14400,"station_id":"ce4bgs12rcd13ifvqcag","pricing_plan_id":"free"},{"bike_id":"33b0aad8-a975-41cf-97a1-2bc5aaa04830","system_id":"levelo_inurba_marseille","lat":43.305706,"lon":5.365654,"is_reserved":false,"is_disabled":false,"rental_uris":{"android":"levelo://app?vid=33b0aad8-a975-41cf-97a1-2bc5aaa04830","ios":"levelo://app?vid=33b0aad8-a975-41cf-97a1-2bc5aaa04830"},"vehicle_type_id":"4","last_reported":1687010728,"current_range_meters":5200,"station_id":"ce4bgs12rcd13ifvqcag","pricing_plan_id":"free"},{"bike_id":"013e0d34-5d4f-48e2-ba47-e453977d852e","system_id":"levelo_inurba_marseille","lat":43.31122,"lon":5.37765,"is_reserved":false,"is_disabled":false,"rental_uris":{"android":"levelo://app?vid=013e0d34-5d4f-48e2-ba47-e453977d852e","ios":"levelo://app?vid=013e0d34-5d4f-48e2-ba47-e453977d852e"},"vehicle_type_id":"4","last_reported":1687010728,"current_range_meters":0,"station_id":"ce4bgt92rcd13ifvqcg0","pricing_plan_id":"free"},{"bike_id":"8a3f7d6f-9996-4769-bad7-91e53c07e708","system_id":"levelo_inurba_marseille","lat":43.317075,"lon":5.377367,"is_reserved":false,"is_disabled":false,"rental_uris":{"android":"levelo://app?vid=8a3f7d6f-9996-4769-bad7-91e53c07e708","ios":"levelo://app?vid=8a3f7d6f-9996-4769-bad7-91e53c07e708"},"vehicle_type_id":"4","last_reported":1687010728,"current_range_meters":30400,"station_id":"ce4bgth2rcd13ifvqch0","pricing_plan_id":"free"},{"bike_id":"2424216c-0462-4ad0-b127-d0366c91b61c","system_id":"levelo_inurba_marseille","lat":43.31697,"lon":5.37766,"is_reserved":false,"is_disabled":false,"rental_uris":{"android":"levelo://app?vid=2424216c-0462-4ad0-b127-d0366c91b61c","ios":"levelo://app?vid=2424216c-0462-4ad0-b127-d0366c91b61c"},"vehicle_type_id":"4","last_reported":1687010728,"current_range_meters":31200,"station_id":"ce4bgth2rcd13ifvqch0","pricing_plan_id":"free"},{"bike_id":"9c3216e2-9506-44a7-ae66-9495551be6e8","system_id":"levelo_inurba_marseille","lat":43.315293,"lon":5.380349,"is_reserved":false,"is_disabled":false,"rental_uris":{"android":"levelo://app?vid=9c3216e2-9506-44a7-ae66-9495551be6e8","ios":"levelo://app?vid=9c3216e2-9506-44a7-ae66-9495551be6e8"},"vehicle_type_id":"4","last_reported":1687010728,"current_range_meters":13600,"station_id":"ce4bhsp2rcd13ifvqi50","pricing_plan_id":"free"},{"bike_id":"ae33307b-fcd5-479b-9ae1-9002ed226c6e","system_id":"levelo_inurba_marseille","lat":43.308012,"lon":5.381511,"is_reserved":false,"is_disabled":false,"rental_uris":{"android":"levelo://app?vid=ae33307b-fcd5-479b-9ae1-9002ed226c6e","ios":"levelo://app?vid=ae33307b-fcd5-479b-9ae1-9002ed226c6e"},"vehicle_type_id":"4","last_reported":1687010728,"current_range_meters":10000,"station_id":"ce4bgt12rcd13ifvqce0","pricing_plan_id":"free"},{"bike_id":"43fc693e-f2a9-4aec-8fd9-d094bb02cb70","system_id":"levelo_inurba_marseille","lat":43.304606,"lon":5.379026,"is_reserved":false,"is_disabled":false,"rental_uris":{"android":"levelo://app?vid=43fc693e-f2a9-4aec-8fd9-d094bb02cb70","ios":"levelo://app?vid=43fc693e-f2a9-4aec-8fd9-d094bb02cb70"},"vehicle_type_id":"4","last_reported":1687010728,"current_range_meters":21200,"station_id":"ce4bgup2rcd13ifvqcn0","pricing_plan_id":"free"},{"bike_id":"67617a77-1fe0-4eae-92bf-b3b232d5ba96","system_id":"levelo_inurba_marseille","lat":43.30143,"lon":5.37413,"is_reserved":false,"is_disabled":false,"rental_uris":{"android":"levelo://app?vid=67617a77-1fe0-4eae-92bf-b3b232d5ba96","ios":"levelo://app?vid=67617a77-1fe0-4eae-92bf-b3b232d5ba96"},"vehicle_type_id":"4","last_reported":1687010728,"current_range_meters":25600,"station_id":"ce4bgs92rcd13ifvqcc0","pricing_plan_id":"free"},{"bike_id":"5003c2fa-8578-4b5b-aee0-bf9c6a52e3f5","system_id":"levelo_inurba_marseille","lat":43.31998,"lon":5.38152,"is_reserved":false,"is_disabled":false,"rental_uris":{"android":"levelo://app?vid=5003c2fa-8578-4b5b-aee0-bf9c6a52e3f5","ios":"levelo://app?vid=5003c2fa-8578-4b5b-aee0-bf9c6a52e3f5"},"vehicle_type_id":"4","last_reported":1687010728,"current_range_meters":0,"station_id":"ce4bhr12rcd13ifvqhpg","pricing_plan_id":"free"},{"bike_id":"09060dd7-710a-4360-9352-bc15d9d438c5","system_id":"levelo_inurba_marseille","lat":43.313571,"lon":5.384829,"is_reserved":false,"is_disabled":false,"rental_uris":{"android":"levelo://app?vid=09060dd7-710a-4360-9352-bc15d9d438c5","ios":"levelo://app?vid=09060dd7-710a-4360-9352-bc15d9d438c5"},"vehicle_type_id":"4","last_reported":1687010728,"current_range_meters":30000,"station_id":"ce4bgt92rcd13ifvqcf0","pricing_plan_id":"free"},{"bike_id":"724290ae-79b8-4dd6-aacb-ae94e2094a08","system_id":"levelo_inurba_marseille","lat":43.299222,"lon":5.365554,"is_reserved":false,"is_disabled":false,"rental_uris":{"android":"levelo://app?vid=724290ae-79b8-4dd6-aacb-ae94e2094a08","ios":"levelo://app?vid=724290ae-79b8-4dd6-aacb-ae94e2094a08"},"vehicle_type_id":"4","last_reported":1687010728,"current_range_meters":0,"station_id":"ce4bgm92rcd13ifvqbr0","pricing_plan_id":"free"},{"bike_id":"330412da-b9eb-49fa-9ba0-9288ee9ddd31","system_id":"levelo_inurba_marseille","lat":43.30046,"lon":5.37526,"is_reserved":false,"is_disabled":false,"rental_uris":{"android":"levelo://app?vid=330412da-b9eb-49fa-9ba0-9288ee9ddd31","ios":"levelo://app?vid=330412da-b9eb-49fa-9ba0-9288ee9ddd31"},"vehicle_type_id":"4","last_reported":1687010728,"current_range_meters":18800,"station_id":"","pricing_plan_id":"free"},{"bike_id":"5a5e3d8f-b983-46a7-9e9c-c922ae093802","system_id":"levelo_inurba_marseille","lat":43.328371,"lon":5.366912,"is_reserved":false,"is_disabled":false,"rental_uris":{"android":"levelo://app?vid=5a5e3d8f-b983-46a7-9e9c-c922ae093802","ios":"levelo://app?vid=5a5e3d8f-b983-46a7-9e9c-c922ae093802"},"vehicle_type_id":"4","last_reported":1687010728,"current_range_meters":31200,"station_id":"ce4bhs92rcd13ifvqi0g","pricing_plan_id":"free"},{"bike_id":"519a9111-344b-437a-af19-0f2a8950b7bd","system_id":"levelo_inurba_marseille","lat":43.328371,"lon":5.366912,"is_reserved":false,"is_disabled":false,"rental_uris":{"android":"levelo://app?vid=519a9111-344b-437a-af19-0f2a8950b7bd","ios":"levelo://app?vid=519a9111-344b-437a-af19-0f2a8950b7bd"},"vehicle_type_id":"4","last_reported":1687010728,"current_range_meters":20000,"station_id":"ce4bhs92rcd13ifvqi0g","pricing_plan_id":"free"},{"bike_id":"4bf53da7-5b2e-4feb-ad64-d834c27b533d","system_id":"levelo_inurba_marseille","lat":43.328371,"lon":5.366912,"is_reserved":false,"is_disabled":false,"rental_uris":{"android":"levelo://app?vid=4bf53da7-5b2e-4feb-ad64-d834c27b533d","ios":"levelo://app?vid=4bf53da7-5b2e-4feb-ad64-d834c27b533d"},"vehicle_type_id":"4","last_reported":1687010728,"current_range_meters":26000,"station_id":"ce4bhs92rcd13ifvqi0g","pricing_plan_id":"free"},{"bike_id":"6d12bf08-ef93-4cae-ab6e-6233437e9a82","system_id":"levelo_inurba_marseille","lat":43.32826,"lon":5.36683,"is_reserved":false,"is_disabled":false,"rental_uris":{"android":"levelo://app?vid=6d12bf08-ef93-4cae-ab6e-6233437e9a82","ios":"levelo://app?vid=6d12bf08-ef93-4cae-ab6e-6233437e9a82"},"vehicle_type_id":"4","last_reported":1687010728,"current_range_meters":19200,"station_id":"ce4bhs92rcd13ifvqi0g","pricing_plan_id":"free"},{"bike_id":"4bb85f49-7f9a-477c-abaa-23a093d581e6","system_id":"levelo_inurba_marseille","lat":43.32829,"lon":5.36684,"is_reserved":false,"is_disabled":false,"rental_uris":{"android":"levelo://app?vid=4bb85f49-7f9a-477c-abaa-23a093d581e6","ios":"levelo://app?vid=4bb85f49-7f9a-477c-abaa-23a093d581e6"},"vehicle_type_id":"4","last_reported":1687010728,"current_range_meters":20000,"station_id":"ce4bhs92rcd13ifvqi0g","pricing_plan_id":"free"},{"bike_id":"176f4894-d7fc-460e-aa5d-7c8c1e206dc3","system_id":"levelo_inurba_marseille","lat":43.297163,"lon":5.365866,"is_reserved":false,"is_disabled":false,"rental_uris":{"android":"levelo://app?vid=176f4894-d7fc-460e-aa5d-7c8c1e206dc3","ios":"levelo://app?vid=176f4894-d7fc-460e-aa5d-7c8c1e206dc3"},"vehicle_type_id":"4","last_reported":1687010728,"current_range_meters":15600,"station_id":"ce4bgn12rcd13ifvqbt0","pricing_plan_id":"free"},{"bike_id":"88d0330c-5bb0-4a19-9b65-d4683b42e015","system_id":"levelo_inurba_marseille","lat":43.29683,"lon":5.36046,"is_reserved":false,"is_disabled":false,"rental_uris":{"android":"levelo://app?vid=88d0330c-5bb0-4a19-9b65-d4683b42e015","ios":"levelo://app?vid=88d0330c-5bb0-4a19-9b65-d4683b42e015"},"vehicle_type_id":"4","last_reported":1687010728,"current_range_meters":6400,"station_id":"ce4bgpp2rcd13ifvqc3g","pricing_plan_id":"free"},{"bike_id":"18ff8f4d-b67d-48a9-8658-6a3a5592c3d5","system_id":"levelo_inurba_marseille","lat":43.29579,"lon":5.36741,"is_reserved":false,"is_disabled":false,"rental_uris":{"android":"levelo://app?vid=18ff8f4d-b67d-48a9-8658-6a3a5592c3d5","ios":"levelo://app?vid=18ff8f4d-b67d-48a9-8658-6a3a5592c3d5"},"vehicle_type_id":"4","last_reported":1687010728,"current_range_meters":13600,"station_id":"ce4bgph2rcd13ifvqc2g","pricing_plan_id":"free"},{"bike_id":"24f41ca5-b432-4feb-a0c8-a15026b97306","system_id":"levelo_inurba_marseille","lat":43.296131,"lon":5.370773,"is_reserved":false,"is_disabled":false,"rental_uris":{"android":"levelo://app?vid=24f41ca5-b432-4feb-a0c8-a15026b97306","ios":"levelo://app?vid=24f41ca5-b432-4feb-a0c8-a15026b97306"},"vehicle_type_id":"4","last_reported":1687010728,"current_range_meters":16000,"station_id":"ce4bgnh2rcd13ifvqc0g","pricing_plan_id":"free"},{"bike_id":"412bcbbd-7382-4844-814b-85b1bbc128ef","system_id":"levelo_inurba_marseille","lat":43.299028,"lon":5.381509,"is_reserved":false,"is_disabled":false,"rental_uris":{"android":"levelo://app?vid=412bcbbd-7382-4844-814b-85b1bbc128ef","ios":"levelo://app?vid=412bcbbd-7382-4844-814b-85b1bbc128ef"},"vehicle_type_id":"4","last_reported":1687010728,"current_range_meters":18400,"station_id":"ce4bgj12rcd13ifvqbc0","pricing_plan_id":"free"},{"bike_id":"3e968d98-92b4-4cea-86b5-8498781b0183","system_id":"levelo_inurba_marseille","lat":43.309589,"lon":5.390258,"is_reserved":false,"is_disabled":false,"rental_uris":{"android":"levelo://app?vid=3e968d98-92b4-4cea-86b5-8498781b0183","ios":"levelo://app?vid=3e968d98-92b4-4cea-86b5-8498781b0183"},"vehicle_type_id":"4","last_reported":1687010728,"current_range_meters":4800,"station_id":"ce4bgup2rcd13ifvqco0","pricing_plan_id":"free"},{"bike_id":"250c8a96-8498-4211-b8f3-1b00a8d1fbaf","system_id":"levelo_inurba_marseille","lat":43.296477,"lon":5.37768,"is_reserved":false,"is_disabled":false,"rental_uris":{"android":"levelo://app?vid=250c8a96-8498-4211-b8f3-1b00a8d1fbaf","ios":"levelo://app?vid=250c8a96-8498-4211-b8f3-1b00a8d1fbaf"},"vehicle_type_id":"4","last_reported":1687010728,"current_range_meters":16400,"station_id":"","pricing_plan_id":"free"},{"bike_id":"0d853b69-b785-4813-b715-55063ed16ab7","system_id":"levelo_inurba_marseille","lat":43.296263,"lon":5.377094,"is_reserved":false,"is_disabled":false,"rental_uris":{"android":"levelo://app?vid=0d853b69-b785-4813-b715-55063ed16ab7","ios":"levelo://app?vid=0d853b69-b785-4813-b715-55063ed16ab7"},"vehicle_type_id":"4","last_reported":1687010728,"current_range_meters":19200,"station_id":"ce4bgi92rcd13ifvqb90","pricing_plan_id":"free"},{"bike_id":"eb56f040-d7e3-440c-9d05-82afe187dd21","system_id":"levelo_inurba_marseille","lat":43.299724,"lon":5.384848,"is_reserved":false,"is_disabled":false,"rental_uris":{"android":"levelo://app?vid=eb56f040-d7e3-440c-9d05-82afe187dd21","ios":"levelo://app?vid=eb56f040-d7e3-440c-9d05-82afe187dd21"},"vehicle_type_id":"4","last_reported":1687010728,"current_range_meters":30800,"station_id":"ce4bgj92rcd13ifvqbd0","pricing_plan_id":"free"},{"bike_id":"897b140f-5ca8-4cab-8f31-63b62021f33a","system_id":"levelo_inurba_marseille","lat":43.299717,"lon":5.384845,"is_reserved":false,"is_disabled":false,"rental_uris":{"android":"levelo://app?vid=897b140f-5ca8-4cab-8f31-63b62021f33a","ios":"levelo://app?vid=897b140f-5ca8-4cab-8f31-63b62021f33a"},"vehicle_type_id":"4","last_reported":1687010728,"current_range_meters":800,"station_id":"ce4bgj92rcd13ifvqbd0","pricing_plan_id":"free"},{"bike_id":"2c9ad911-25e0-4222-8751-d809dfadd582","system_id":"levelo_inurba_marseille","lat":43.32369,"lon":5.38882,"is_reserved":false,"is_disabled":false,"rental_uris":{"android":"levelo://app?vid=2c9ad911-25e0-4222-8751-d809dfadd582","ios":"levelo://app?vid=2c9ad911-25e0-4222-8751-d809dfadd582"},"vehicle_type_id":"4","last_reported":1687010728,"current_range_meters":25600,"station_id":"ce4bhqp2rcd13ifvqhog","pricing_plan_id":"free"},{"bike_id":"2a3d27c2-784f-49fc-9330-ef2a44a9de99","system_id":"levelo_inurba_marseille","lat":43.293249,"lon":5.371578,"is_reserved":false,"is_disabled":false,"rental_uris":{"android":"levelo://app?vid=2a3d27c2-784f-49fc-9330-ef2a44a9de99","ios":"levelo://app?vid=2a3d27c2-784f-49fc-9330-ef2a44a9de99"},"vehicle_type_id":"4","last_reported":1687010728,"current_range_meters":31200,"station_id":"ce4bgh92rcd13ifvqb40","pricing_plan_id":"free"},{"bike_id":"19830262-b022-4ec0-a4f2-bb3c52867a0b","system_id":"levelo_inurba_marseille","lat":43.33068,"lon":5.3791,"is_reserved":false,"is_disabled":false,"rental_uris":{"android":"levelo://app?vid=19830262-b022-4ec0-a4f2-bb3c52867a0b","ios":"levelo://app?vid=19830262-b022-4ec0-a4f2-bb3c52867a0b"},"vehicle_type_id":"4","last_reported":1687010728,"current_range_meters":23200,"station_id":"","pricing_plan_id":"free"},{"bike_id":"6c4bbefc-419e-4aed-bac4-ea8338c5a0b4","system_id":"levelo_inurba_marseille","lat":43.282744,"lon":5.350533,"is_reserved":false,"is_disabled":false,"rental_uris":{"android":"levelo://app?vid=6c4bbefc-419e-4aed-bac4-ea8338c5a0b4","ios":"levelo://app?vid=6c4bbefc-419e-4aed-bac4-ea8338c5a0b4"},"vehicle_type_id":"4","last_reported":1687010728,"current_range_meters":3600,"station_id":"ce4bhbp2rcd13ifvqerg","pricing_plan_id":"free"},{"bike_id":"93369e0a-aa49-44c5-bdc6-e641698d6d35","system_id":"levelo_inurba_marseille","lat":43.290104,"lon":5.356111,"is_reserved":false,"is_disabled":false,"rental_uris":{"android":"levelo://app?vid=93369e0a-aa49-44c5-bdc6-e641698d6d35","ios":"levelo://app?vid=93369e0a-aa49-44c5-bdc6-e641698d6d35"},"vehicle_type_id":"4","last_reported":1687010728,"current_range_meters":30400,"station_id":"ce4bhb92rcd13ifvqen0","pricing_plan_id":"free"},{"bike_id":"73d4d782-30b0-4ef7-933b-52e8253a7a86","system_id":"levelo_inurba_marseille","lat":43.30085,"lon":5.390856,"is_reserved":false,"is_disabled":false,"rental_uris":{"android":"levelo://app?vid=73d4d782-30b0-4ef7-933b-52e8253a7a86","ios":"levelo://app?vid=73d4d782-30b0-4ef7-933b-52e8253a7a86"},"vehicle_type_id":"4","last_reported":1687010728,"current_range_meters":30400,"station_id":"ce4bh192rcd13ifvqdb0","pricing_plan_id":"free"},{"bike_id":"05d515f1-7345-41e9-b1c3-ea889825c8b7","system_id":"levelo_inurba_marseille","lat":43.29198,"lon":5.36058,"is_reserved":false,"is_disabled":false,"rental_uris":{"android":"levelo://app?vid=05d515f1-7345-41e9-b1c3-ea889825c8b7","ios":"levelo://app?vid=05d515f1-7345-41e9-b1c3-ea889825c8b7"},"vehicle_type_id":"4","last_reported":1687010728,"current_range_meters":31200,"station_id":"ce4bhbh2rcd13ifvqeqg","pricing_plan_id":"free"},{"bike_id":"ae007c60-b7ca-4221-85b6-0ec50d0533ed","system_id":"levelo_inurba_marseille","lat":43.291994,"lon":5.357886,"is_reserved":false,"is_disabled":false,"rental_uris":{"android":"levelo://app?vid=ae007c60-b7ca-4221-85b6-0ec50d0533ed","ios":"levelo://app?vid=ae007c60-b7ca-4221-85b6-0ec50d0533ed"},"vehicle_type_id":"4","last_reported":1687010728,"current_range_meters":1600,"station_id":"ce4bhb12rcd13ifvqel0","pricing_plan_id":"free"},{"bike_id":"7d48d57e-357c-484d-b749-dd09f371c87f","system_id":"levelo_inurba_marseille","lat":43.313291,"lon":5.396838,"is_reserved":false,"is_disabled":false,"rental_uris":{"android":"levelo://app?vid=7d48d57e-357c-484d-b749-dd09f371c87f","ios":"levelo://app?vid=7d48d57e-357c-484d-b749-dd09f371c87f"},"vehicle_type_id":"4","last_reported":1687010728,"current_range_meters":12800,"station_id":"ce4bgvp2rcd13ifvqcu0","pricing_plan_id":"free"},{"bike_id":"3af5866b-cf9e-4947-8572-687c1fdb3336","system_id":"levelo_inurba_marseille","lat":43.313291,"lon":5.396838,"is_reserved":false,"is_disabled":false,"rental_uris":{"android":"levelo://app?vid=3af5866b-cf9e-4947-8572-687c1fdb3336","ios":"levelo://app?vid=3af5866b-cf9e-4947-8572-687c1fdb3336"},"vehicle_type_id":"4","last_reported":1687010728,"current_range_meters":14000,"station_id":"ce4bgvp2rcd13ifvqcu0","pricing_plan_id":"free"},{"bike_id":"c4fe504a-82aa-47be-95e8-35262ae74312","system_id":"levelo_inurba_marseille","lat":43.29528,"lon":5.38536,"is_reserved":false,"is_disabled":false,"rental_uris":{"android":"levelo://app?vid=c4fe504a-82aa-47be-95e8-35262ae74312","ios":"levelo://app?vid=c4fe504a-82aa-47be-95e8-35262ae74312"},"vehicle_type_id":"4","last_reported":1687010728,"current_range_meters":31600,"station_id":"ce4bgih2rcd13ifvqba0","pricing_plan_id":"free"},{"bike_id":"f12fbd6e-6299-4e16-9479-31b210ffe217","system_id":"levelo_inurba_marseille","lat":43.29529,"lon":5.385581,"is_reserved":false,"is_disabled":false,"rental_uris":{"android":"levelo://app?vid=f12fbd6e-6299-4e16-9479-31b210ffe217","ios":"levelo://app?vid=f12fbd6e-6299-4e16-9479-31b210ffe217"},"vehicle_type_id":"4","last_reported":1687010728,"current_range_meters":3600,"station_id":"ce4bgih2rcd13ifvqba0","pricing_plan_id":"free"},{"bike_id":"2039b0d2-1187-43da-8bfa-f03afa96c4ab","system_id":"levelo_inurba_marseille","lat":43.290779,"lon":5.371482,"is_reserved":false,"is_disabled":false,"rental_uris":{"android":"levelo://app?vid=2039b0d2-1187-43da-8bfa-f03afa96c4ab","ios":"levelo://app?vid=2039b0d2-1187-43da-8bfa-f03afa96c4ab"},"vehicle_type_id":"4","last_reported":1687010728,"current_range_meters":8000,"station_id":"ce4bh5p2rcd13ifvqe4g","pricing_plan_id":"free"},{"bike_id":"7cc0ebcf-be2e-4e9a-bca2-64a1125d54fd","system_id":"levelo_inurba_marseille","lat":43.290624,"lon":5.359245,"is_reserved":false,"is_disabled":false,"rental_uris":{"android":"levelo://app?vid=7cc0ebcf-be2e-4e9a-bca2-64a1125d54fd","ios":"levelo://app?vid=7cc0ebcf-be2e-4e9a-bca2-64a1125d54fd"},"vehicle_type_id":"4","last_reported":1687010728,"current_range_meters":12400,"station_id":"ce4bha92rcd13ifvqeg0","pricing_plan_id":"free"},{"bike_id":"400dcd0d-8a5d-4d17-ac7d-a242b094407c","system_id":"levelo_inurba_marseille","lat":43.29035,"lon":5.37563,"is_reserved":false,"is_disabled":false,"rental_uris":{"android":"levelo://app?vid=400dcd0d-8a5d-4d17-ac7d-a242b094407c","ios":"levelo://app?vid=400dcd0d-8a5d-4d17-ac7d-a242b094407c"},"vehicle_type_id":"4","last_reported":1687010728,"current_range_meters":31200,"station_id":"ce4bh692rcd13ifvqe90","pricing_plan_id":"free"},{"bike_id":"39630402-347b-4592-9a2a-832959ab2a19","system_id":"levelo_inurba_marseille","lat":43.294162,"lon":5.386292,"is_reserved":false,"is_disabled":false,"rental_uris":{"android":"levelo://app?vid=39630402-347b-4592-9a2a-832959ab2a19","ios":"levelo://app?vid=39630402-347b-4592-9a2a-832959ab2a19"},"vehicle_type_id":"4","last_reported":1687010728,"current_range_meters":16000,"station_id":"ce4bh2h2rcd13ifvqdh0","pricing_plan_id":"free"},{"bike_id":"56a0bfba-57b2-4734-8f5e-8038c500adb9","system_id":"levelo_inurba_marseille","lat":43.294153,"lon":5.386305,"is_reserved":false,"is_disabled":false,"rental_uris":{"android":"levelo://app?vid=56a0bfba-57b2-4734-8f5e-8038c500adb9","ios":"levelo://app?vid=56a0bfba-57b2-4734-8f5e-8038c500adb9"},"vehicle_type_id":"4","last_reported":1687010728,"current_range_meters":28000,"station_id":"ce4bh2h2rcd13ifvqdh0","pricing_plan_id":"free"},{"bike_id":"7bb3f190-4ccd-497b-bcd2-e756bf8bd0c3","system_id":"levelo_inurba_marseille","lat":43.294162,"lon":5.386292,"is_reserved":false,"is_disabled":false,"rental_uris":{"android":"levelo://app?vid=7bb3f190-4ccd-497b-bcd2-e756bf8bd0c3","ios":"levelo://app?vid=7bb3f190-4ccd-497b-bcd2-e756bf8bd0c3"},"vehicle_type_id":"4","last_reported":1687010728,"current_range_meters":11600,"station_id":"ce4bh2h2rcd13ifvqdh0","pricing_plan_id":"free"},{"bike_id":"bec2b812-f30c-4117-bc2c-bb142ac894dd","system_id":"levelo_inurba_marseille","lat":43.289184,"lon":5.366408,"is_reserved":false,"is_disabled":false,"rental_uris":{"android":"levelo://app?vid=bec2b812-f30c-4117-bc2c-bb142ac894dd","ios":"levelo://app?vid=bec2b812-f30c-4117-bc2c-bb142ac894dd"},"vehicle_type_id":"4","last_reported":1687010728,"current_range_meters":12000,"station_id":"ce4bhap2rcd13ifvqek0","pricing_plan_id":"free"},{"bike_id":"31443825-6081-4c3b-91e7-bc2011aed1e1","system_id":"levelo_inurba_marseille","lat":43.289184,"lon":5.366408,"is_reserved":false,"is_disabled":false,"rental_uris":{"android":"levelo://app?vid=31443825-6081-4c3b-91e7-bc2011aed1e1","ios":"levelo://app?vid=31443825-6081-4c3b-91e7-bc2011aed1e1"},"vehicle_type_id":"4","last_reported":1687010728,"current_range_meters":4000,"station_id":"ce4bhap2rcd13ifvqek0","pricing_plan_id":"free"},{"bike_id":"e094d22e-33db-4d72-a76a-d488a2aeba39","system_id":"levelo_inurba_marseille","lat":43.289184,"lon":5.366408,"is_reserved":false,"is_disabled":false,"rental_uris":{"android":"levelo://app?vid=e094d22e-33db-4d72-a76a-d488a2aeba39","ios":"levelo://app?vid=e094d22e-33db-4d72-a76a-d488a2aeba39"},"vehicle_type_id":"4","last_reported":1687010728,"current_range_meters":6400,"station_id":"ce4bhap2rcd13ifvqek0","pricing_plan_id":"free"},{"bike_id":"7f24a218-a4e9-4493-9979-67616da75223","system_id":"levelo_inurba_marseille","lat":43.289184,"lon":5.366408,"is_reserved":false,"is_disabled":false,"rental_uris":{"android":"levelo://app?vid=7f24a218-a4e9-4493-9979-67616da75223","ios":"levelo://app?vid=7f24a218-a4e9-4493-9979-67616da75223"},"vehicle_type_id":"4","last_reported":1687010728,"current_range_meters":24000,"station_id":"ce4bhap2rcd13ifvqek0","pricing_plan_id":"free"},{"bike_id":"38eb09af-7166-42b9-865e-84246929498f","system_id":"levelo_inurba_marseille","lat":43.292642,"lon":5.384254,"is_reserved":false,"is_disabled":false,"rental_uris":{"android":"levelo://app?vid=38eb09af-7166-42b9-865e-84246929498f","ios":"levelo://app?vid=38eb09af-7166-42b9-865e-84246929498f"},"vehicle_type_id":"4","last_reported":1687010728,"current_range_meters":31200,"station_id":"ce4bh692rcd13ifvqea0","pricing_plan_id":"free"},{"bike_id":"52c77fab-bf00-4433-b45f-2e5ef3cfffdf","system_id":"levelo_inurba_marseille","lat":43.290104,"lon":5.356111,"is_reserved":false,"is_disabled":false,"rental_uris":{"android":"levelo://app?vid=52c77fab-bf00-4433-b45f-2e5ef3cfffdf","ios":"levelo://app?vid=52c77fab-bf00-4433-b45f-2e5ef3cfffdf"},"vehicle_type_id":"4","last_reported":1687010728,"current_range_meters":28800,"station_id":"ce4bhb92rcd13ifvqen0","pricing_plan_id":"free"},{"bike_id":"42aab55e-ba5f-482d-8377-41173f466a15","system_id":"levelo_inurba_marseille","lat":43.290103,"lon":5.356114,"is_reserved":false,"is_disabled":false,"rental_uris":{"android":"levelo://app?vid=42aab55e-ba5f-482d-8377-41173f466a15","ios":"levelo://app?vid=42aab55e-ba5f-482d-8377-41173f466a15"},"vehicle_type_id":"4","last_reported":1687010728,"current_range_meters":24400,"station_id":"ce4bhb92rcd13ifvqen0","pricing_plan_id":"free"},{"bike_id":"8ff6b0fe-232a-4a1e-b233-188c70e9c997","system_id":"levelo_inurba_marseille","lat":43.33041,"lon":5.38916,"is_reserved":false,"is_disabled":false,"rental_uris":{"android":"levelo://app?vid=8ff6b0fe-232a-4a1e-b233-188c70e9c997","ios":"levelo://app?vid=8ff6b0fe-232a-4a1e-b233-188c70e9c997"},"vehicle_type_id":"4","last_reported":1687010728,"current_range_meters":25200,"station_id":"ce4bhr92rcd13ifvqhrg","pricing_plan_id":"free"},{"bike_id":"cd56d723-59da-4369-babb-0447f34032c5","system_id":"levelo_inurba_marseille","lat":43.290104,"lon":5.356111,"is_reserved":false,"is_disabled":false,"rental_uris":{"android":"levelo://app?vid=cd56d723-59da-4369-babb-0447f34032c5","ios":"levelo://app?vid=cd56d723-59da-4369-babb-0447f34032c5"},"vehicle_type_id":"4","last_reported":1687010728,"current_range_meters":17200,"station_id":"ce4bhb92rcd13ifvqen0","pricing_plan_id":"free"},{"bike_id":"b962eb89-fc87-4e40-8730-bba24da3fdff","system_id":"levelo_inurba_marseille","lat":43.290104,"lon":5.356111,"is_reserved":false,"is_disabled":false,"rental_uris":{"android":"levelo://app?vid=b962eb89-fc87-4e40-8730-bba24da3fdff","ios":"levelo://app?vid=b962eb89-fc87-4e40-8730-bba24da3fdff"},"vehicle_type_id":"4","last_reported":1687010728,"current_range_meters":8000,"station_id":"ce4bhb92rcd13ifvqen0","pricing_plan_id":"free"},{"bike_id":"d36e29c4-a5c9-4af2-a925-873a7b145133","system_id":"levelo_inurba_marseille","lat":43.290104,"lon":5.356111,"is_reserved":false,"is_disabled":false,"rental_uris":{"android":"levelo://app?vid=d36e29c4-a5c9-4af2-a925-873a7b145133","ios":"levelo://app?vid=d36e29c4-a5c9-4af2-a925-873a7b145133"},"vehicle_type_id":"4","last_reported":1687010728,"current_range_meters":4800,"station_id":"ce4bhb92rcd13ifvqen0","pricing_plan_id":"free"},{"bike_id":"f838b722-e0de-4f98-ad0e-0c8594feed46","system_id":"levelo_inurba_marseille","lat":43.290104,"lon":5.356111,"is_reserved":false,"is_disabled":false,"rental_uris":{"android":"levelo://app?vid=f838b722-e0de-4f98-ad0e-0c8594feed46","ios":"levelo://app?vid=f838b722-e0de-4f98-ad0e-0c8594feed46"},"vehicle_type_id":"4","last_reported":1687010728,"current_range_meters":0,"station_id":"ce4bhb92rcd13ifvqen0","pricing_plan_id":"free"},{"bike_id":"c01bb64d-9321-4022-b6eb-11e3a496ebfd","system_id":"levelo_inurba_marseille","lat":43.290104,"lon":5.356111,"is_reserved":false,"is_disabled":false,"rental_uris":{"android":"levelo://app?vid=c01bb64d-9321-4022-b6eb-11e3a496ebfd","ios":"levelo://app?vid=c01bb64d-9321-4022-b6eb-11e3a496ebfd"},"vehicle_type_id":"4","last_reported":1687010728,"current_range_meters":18000,"station_id":"ce4bhb92rcd13ifvqen0","pricing_plan_id":"free"},{"bike_id":"88be538b-2a40-46b0-9450-5046ee4ad5dd","system_id":"levelo_inurba_marseille","lat":43.29094,"lon":5.38151,"is_reserved":false,"is_disabled":false,"rental_uris":{"android":"levelo://app?vid=88be538b-2a40-46b0-9450-5046ee4ad5dd","ios":"levelo://app?vid=88be538b-2a40-46b0-9450-5046ee4ad5dd"},"vehicle_type_id":"4","last_reported":1687010728,"current_range_meters":0,"station_id":"ce4bh512rcd13ifvqe2g","pricing_plan_id":"free"},{"bike_id":"f132a964-f3d2-4da6-8f11-464c1c14e39f","system_id":"levelo_inurba_marseille","lat":43.28867,"lon":5.37224,"is_reserved":false,"is_disabled":false,"rental_uris":{"android":"levelo://app?vid=f132a964-f3d2-4da6-8f11-464c1c14e39f","ios":"levelo://app?vid=f132a964-f3d2-4da6-8f11-464c1c14e39f"},"vehicle_type_id":"4","last_reported":1687010728,"current_range_meters":23200,"station_id":"","pricing_plan_id":"free"},{"bike_id":"5b3d2f3b-7df9-4fe3-95df-7e08caf51b50","system_id":"levelo_inurba_marseille","lat":43.289741,"lon":5.378306,"is_reserved":false,"is_disabled":false,"rental_uris":{"android":"levelo://app?vid=5b3d2f3b-7df9-4fe3-95df-7e08caf51b50","ios":"levelo://app?vid=5b3d2f3b-7df9-4fe3-95df-7e08caf51b50"},"vehicle_type_id":"4","last_reported":1687010728,"current_range_meters":17600,"station_id":"ce4bh9p2rcd13ifvqed0","pricing_plan_id":"free"},{"bike_id":"b9b44b37-7edf-4ab6-8685-17eb58a26dbc","system_id":"levelo_inurba_marseille","lat":43.295169,"lon":5.390426,"is_reserved":false,"is_disabled":false,"rental_uris":{"android":"levelo://app?vid=b9b44b37-7edf-4ab6-8685-17eb58a26dbc","ios":"levelo://app?vid=b9b44b37-7edf-4ab6-8685-17eb58a26dbc"},"vehicle_type_id":"4","last_reported":1687010728,"current_range_meters":30000,"station_id":"ce4bh3p2rcd13ifvqdp0","pricing_plan_id":"free"},{"bike_id":"914d690a-d91b-4b50-8758-38d13c26e5c9","system_id":"levelo_inurba_marseille","lat":43.28974,"lon":5.37831,"is_reserved":false,"is_disabled":false,"rental_uris":{"android":"levelo://app?vid=914d690a-d91b-4b50-8758-38d13c26e5c9","ios":"levelo://app?vid=914d690a-d91b-4b50-8758-38d13c26e5c9"},"vehicle_type_id":"4","last_reported":1687010728,"current_range_meters":31600,"station_id":"ce4bh9p2rcd13ifvqed0","pricing_plan_id":"free"},{"bike_id":"b05b180f-ee8d-4a76-89fd-09d59c0b1dc7","system_id":"levelo_inurba_marseille","lat":43.289743,"lon":5.378304,"is_reserved":false,"is_disabled":false,"rental_uris":{"android":"levelo://app?vid=b05b180f-ee8d-4a76-89fd-09d59c0b1dc7","ios":"levelo://app?vid=b05b180f-ee8d-4a76-89fd-09d59c0b1dc7"},"vehicle_type_id":"4","last_reported":1687010728,"current_range_meters":14400,"station_id":"ce4bh9p2rcd13ifvqed0","pricing_plan_id":"free"},{"bike_id":"c0fb8083-e02d-4dec-b1b9-fa095e6c5b75","system_id":"levelo_inurba_marseille","lat":43.337396,"lon":5.374526,"is_reserved":false,"is_disabled":false,"rental_uris":{"android":"levelo://app?vid=c0fb8083-e02d-4dec-b1b9-fa095e6c5b75","ios":"levelo://app?vid=c0fb8083-e02d-4dec-b1b9-fa095e6c5b75"},"vehicle_type_id":"4","last_reported":1687010728,"current_range_meters":0,"station_id":"ce4bhp92rcd13ifvqhag","pricing_plan_id":"free"},{"bike_id":"1d25b906-c86d-467f-b99b-8eb298cb0b69","system_id":"levelo_inurba_marseille","lat":43.309371,"lon":5.401449,"is_reserved":false,"is_disabled":false,"rental_uris":{"android":"levelo://app?vid=1d25b906-c86d-467f-b99b-8eb298cb0b69","ios":"levelo://app?vid=1d25b906-c86d-467f-b99b-8eb298cb0b69"},"vehicle_type_id":"4","last_reported":1687010728,"current_range_meters":31200,"station_id":"ce4bgvp2rcd13ifvqct0","pricing_plan_id":"free"},{"bike_id":"69216e0c-ac16-4090-9cb6-0c797c142a11","system_id":"levelo_inurba_marseille","lat":43.309371,"lon":5.401449,"is_reserved":false,"is_disabled":false,"rental_uris":{"android":"levelo://app?vid=69216e0c-ac16-4090-9cb6-0c797c142a11","ios":"levelo://app?vid=69216e0c-ac16-4090-9cb6-0c797c142a11"},"vehicle_type_id":"4","last_reported":1687010728,"current_range_meters":29200,"station_id":"ce4bgvp2rcd13ifvqct0","pricing_plan_id":"free"},{"bike_id":"41a8749b-6d93-4d1b-8e52-c5f60f65ae7c","system_id":"levelo_inurba_marseille","lat":43.33752,"lon":5.37443,"is_reserved":false,"is_disabled":false,"rental_uris":{"android":"levelo://app?vid=41a8749b-6d93-4d1b-8e52-c5f60f65ae7c","ios":"levelo://app?vid=41a8749b-6d93-4d1b-8e52-c5f60f65ae7c"},"vehicle_type_id":"4","last_reported":1687010728,"current_range_meters":30800,"station_id":"","pricing_plan_id":"free"},{"bike_id":"5f79dfb4-a023-4598-ba08-bd9e165199bf","system_id":"levelo_inurba_marseille","lat":43.301117,"lon":5.398795,"is_reserved":false,"is_disabled":false,"rental_uris":{"android":"levelo://app?vid=5f79dfb4-a023-4598-ba08-bd9e165199bf","ios":"levelo://app?vid=5f79dfb4-a023-4598-ba08-bd9e165199bf"},"vehicle_type_id":"4","last_reported":1687010728,"current_range_meters":0,"station_id":"ce4bh0h2rcd13ifvqd40","pricing_plan_id":"free"},{"bike_id":"4df8897d-2607-42ec-beaf-1d5f7d60609d","system_id":"levelo_inurba_marseille","lat":43.301117,"lon":5.398795,"is_reserved":false,"is_disabled":false,"rental_uris":{"android":"levelo://app?vid=4df8897d-2607-42ec-beaf-1d5f7d60609d","ios":"levelo://app?vid=4df8897d-2607-42ec-beaf-1d5f7d60609d"},"vehicle_type_id":"4","last_reported":1687010728,"current_range_meters":13600,"station_id":"ce4bh0h2rcd13ifvqd40","pricing_plan_id":"free"},{"bike_id":"c6fdb1b0-aada-41df-8be4-203bf6946210","system_id":"levelo_inurba_marseille","lat":43.301117,"lon":5.398795,"is_reserved":false,"is_disabled":false,"rental_uris":{"android":"levelo://app?vid=c6fdb1b0-aada-41df-8be4-203bf6946210","ios":"levelo://app?vid=c6fdb1b0-aada-41df-8be4-203bf6946210"},"vehicle_type_id":"4","last_reported":1687010728,"current_range_meters":9200,"station_id":"ce4bh0h2rcd13ifvqd40","pricing_plan_id":"free"},{"bike_id":"ab14b298-2fd2-4404-ab41-556e092e4ef0","system_id":"levelo_inurba_marseille","lat":43.29033,"lon":5.38636,"is_reserved":false,"is_disabled":false,"rental_uris":{"android":"levelo://app?vid=ab14b298-2fd2-4404-ab41-556e092e4ef0","ios":"levelo://app?vid=ab14b298-2fd2-4404-ab41-556e092e4ef0"},"vehicle_type_id":"4","last_reported":1687010728,"current_range_meters":5600,"station_id":"ce4bh4p2rcd13ifvqe0g","pricing_plan_id":"free"},{"bike_id":"34fa1547-831b-4b9e-839c-61db36dca058","system_id":"levelo_inurba_marseille","lat":43.2903,"lon":5.38654,"is_reserved":false,"is_disabled":false,"rental_uris":{"android":"levelo://app?vid=34fa1547-831b-4b9e-839c-61db36dca058","ios":"levelo://app?vid=34fa1547-831b-4b9e-839c-61db36dca058"},"vehicle_type_id":"4","last_reported":1687010728,"current_range_meters":11600,"station_id":"ce4bh4p2rcd13ifvqe0g","pricing_plan_id":"free"},{"bike_id":"98e2c6fa-eff3-40ce-9d1e-557556ce2ce8","system_id":"levelo_inurba_marseille","lat":43.290183,"lon":5.386359,"is_reserved":false,"is_disabled":false,"rental_uris":{"android":"levelo://app?vid=98e2c6fa-eff3-40ce-9d1e-557556ce2ce8","ios":"levelo://app?vid=98e2c6fa-eff3-40ce-9d1e-557556ce2ce8"},"vehicle_type_id":"4","last_reported":1687010728,"current_range_meters":10000,"station_id":"ce4bh4p2rcd13ifvqe0g","pricing_plan_id":"free"},{"bike_id":"ee7192f9-6f33-486e-b528-45ed754004f8","system_id":"levelo_inurba_marseille","lat":43.316517,"lon":5.404375,"is_reserved":false,"is_disabled":false,"rental_uris":{"android":"levelo://app?vid=ee7192f9-6f33-486e-b528-45ed754004f8","ios":"levelo://app?vid=ee7192f9-6f33-486e-b528-45ed754004f8"},"vehicle_type_id":"4","last_reported":1687010728,"current_range_meters":0,"station_id":"ce4bh012rcd13ifvqd00","pricing_plan_id":"free"},{"bike_id":"2d9b369e-92a9-4677-8aaa-03c71f9f1b1a","system_id":"levelo_inurba_marseille","lat":43.284534,"lon":5.358662,"is_reserved":false,"is_disabled":false,"rental_uris":{"android":"levelo://app?vid=2d9b369e-92a9-4677-8aaa-03c71f9f1b1a","ios":"levelo://app?vid=2d9b369e-92a9-4677-8aaa-03c71f9f1b1a"},"vehicle_type_id":"4","last_reported":1687010728,"current_range_meters":18400,"station_id":"ce4bhah2rcd13ifvqei0","pricing_plan_id":"free"},{"bike_id":"93a1e2ed-0a69-4426-ab28-6d081c3f5e6f","system_id":"levelo_inurba_marseille","lat":43.284534,"lon":5.358662,"is_reserved":false,"is_disabled":false,"rental_uris":{"android":"levelo://app?vid=93a1e2ed-0a69-4426-ab28-6d081c3f5e6f","ios":"levelo://app?vid=93a1e2ed-0a69-4426-ab28-6d081c3f5e6f"},"vehicle_type_id":"4","last_reported":1687010728,"current_range_meters":1600,"station_id":"ce4bhah2rcd13ifvqei0","pricing_plan_id":"free"},{"bike_id":"04f6eea0-39f2-4c46-b07f-2a66c7cd7b0d","system_id":"levelo_inurba_marseille","lat":43.285856,"lon":5.350771,"is_reserved":false,"is_disabled":false,"rental_uris":{"android":"levelo://app?vid=04f6eea0-39f2-4c46-b07f-2a66c7cd7b0d","ios":"levelo://app?vid=04f6eea0-39f2-4c46-b07f-2a66c7cd7b0d"},"vehicle_type_id":"4","last_reported":1687010728,"current_range_meters":31200,"station_id":"ce4bhch2rcd13ifvqeug","pricing_plan_id":"free"},{"bike_id":"ccdb497b-3d2c-42c1-9c14-01157df98b89","system_id":"levelo_inurba_marseille","lat":43.285848,"lon":5.350787,"is_reserved":false,"is_disabled":false,"rental_uris":{"android":"levelo://app?vid=ccdb497b-3d2c-42c1-9c14-01157df98b89","ios":"levelo://app?vid=ccdb497b-3d2c-42c1-9c14-01157df98b89"},"vehicle_type_id":"4","last_reported":1687010728,"current_range_meters":14800,"station_id":"ce4bhch2rcd13ifvqeug","pricing_plan_id":"free"},{"bike_id":"f4d5b5dc-8458-4c0e-97a3-67ed56c6248b","system_id":"levelo_inurba_marseille","lat":43.285848,"lon":5.350787,"is_reserved":false,"is_disabled":false,"rental_uris":{"android":"levelo://app?vid=f4d5b5dc-8458-4c0e-97a3-67ed56c6248b","ios":"levelo://app?vid=f4d5b5dc-8458-4c0e-97a3-67ed56c6248b"},"vehicle_type_id":"4","last_reported":1687010728,"current_range_meters":27200,"station_id":"ce4bhch2rcd13ifvqeug","pricing_plan_id":"free"},{"bike_id":"ebebaf4f-ba0f-4e1e-ac07-6492f2dd4fe5","system_id":"levelo_inurba_marseille","lat":43.285848,"lon":5.350787,"is_reserved":false,"is_disabled":false,"rental_uris":{"android":"levelo://app?vid=ebebaf4f-ba0f-4e1e-ac07-6492f2dd4fe5","ios":"levelo://app?vid=ebebaf4f-ba0f-4e1e-ac07-6492f2dd4fe5"},"vehicle_type_id":"4","last_reported":1687010728,"current_range_meters":11600,"station_id":"ce4bhch2rcd13ifvqeug","pricing_plan_id":"free"},{"bike_id":"b22a9bb0-c515-4ae5-b1e0-8fcc3dbcab11","system_id":"levelo_inurba_marseille","lat":43.285848,"lon":5.350787,"is_reserved":false,"is_disabled":false,"rental_uris":{"android":"levelo://app?vid=b22a9bb0-c515-4ae5-b1e0-8fcc3dbcab11","ios":"levelo://app?vid=b22a9bb0-c515-4ae5-b1e0-8fcc3dbcab11"},"vehicle_type_id":"4","last_reported":1687010728,"current_range_meters":20800,"station_id":"ce4bhch2rcd13ifvqeug","pricing_plan_id":"free"},{"bike_id":"4cc5df64-46d9-4268-a406-686b5cf5ad1a","system_id":"levelo_inurba_marseille","lat":43.28618,"lon":5.351,"is_reserved":false,"is_disabled":false,"rental_uris":{"android":"levelo://app?vid=4cc5df64-46d9-4268-a406-686b5cf5ad1a","ios":"levelo://app?vid=4cc5df64-46d9-4268-a406-686b5cf5ad1a"},"vehicle_type_id":"4","last_reported":1687010728,"current_range_meters":31200,"station_id":"ce4bhch2rcd13ifvqeug","pricing_plan_id":"free"},{"bike_id":"892c1571-6ac3-4749-97a6-2e78bfa9efbb","system_id":"levelo_inurba_marseille","lat":43.28618,"lon":5.35096,"is_reserved":false,"is_disabled":false,"rental_uris":{"android":"levelo://app?vid=892c1571-6ac3-4749-97a6-2e78bfa9efbb","ios":"levelo://app?vid=892c1571-6ac3-4749-97a6-2e78bfa9efbb"},"vehicle_type_id":"4","last_reported":1687010728,"current_range_meters":31200,"station_id":"ce4bhch2rcd13ifvqeug","pricing_plan_id":"free"},{"bike_id":"f597ebd4-b9f2-4420-af16-2c1b7ee694e3","system_id":"levelo_inurba_marseille","lat":43.28616,"lon":5.351,"is_reserved":false,"is_disabled":false,"rental_uris":{"android":"levelo://app?vid=f597ebd4-b9f2-4420-af16-2c1b7ee694e3","ios":"levelo://app?vid=f597ebd4-b9f2-4420-af16-2c1b7ee694e3"},"vehicle_type_id":"4","last_reported":1687010728,"current_range_meters":31200,"station_id":"ce4bhch2rcd13ifvqeug","pricing_plan_id":"free"},{"bike_id":"f602712f-e0a5-4fff-bab5-e551214dad7a","system_id":"levelo_inurba_marseille","lat":43.286595,"lon":5.386795,"is_reserved":false,"is_disabled":false,"rental_uris":{"android":"levelo://app?vid=f602712f-e0a5-4fff-bab5-e551214dad7a","ios":"levelo://app?vid=f602712f-e0a5-4fff-bab5-e551214dad7a"},"vehicle_type_id":"4","last_reported":1687010728,"current_range_meters":24000,"station_id":"ce4bh492rcd13ifvqdug","pricing_plan_id":"free"},{"bike_id":"edd27ecf-5e8a-44a0-82e6-021137b2b9de","system_id":"levelo_inurba_marseille","lat":43.28498,"lon":5.35132,"is_reserved":false,"is_disabled":false,"rental_uris":{"android":"levelo://app?vid=edd27ecf-5e8a-44a0-82e6-021137b2b9de","ios":"levelo://app?vid=edd27ecf-5e8a-44a0-82e6-021137b2b9de"},"vehicle_type_id":"4","last_reported":1687010728,"current_range_meters":0,"station_id":"","pricing_plan_id":"free"},{"bike_id":"43275ef6-770c-4f0e-926c-1c3aecd7abec","system_id":"levelo_inurba_marseille","lat":43.287909,"lon":5.390554,"is_reserved":false,"is_disabled":false,"rental_uris":{"android":"levelo://app?vid=43275ef6-770c-4f0e-926c-1c3aecd7abec","ios":"levelo://app?vid=43275ef6-770c-4f0e-926c-1c3aecd7abec"},"vehicle_type_id":"4","last_reported":1687010728,"current_range_meters":16400,"station_id":"","pricing_plan_id":"free"},{"bike_id":"16e5fedd-6e86-436a-a0a2-72c7cd60a6ea","system_id":"levelo_inurba_marseille","lat":43.32345,"lon":5.4062,"is_reserved":false,"is_disabled":false,"rental_uris":{"android":"levelo://app?vid=16e5fedd-6e86-436a-a0a2-72c7cd60a6ea","ios":"levelo://app?vid=16e5fedd-6e86-436a-a0a2-72c7cd60a6ea"},"vehicle_type_id":"4","last_reported":1687010728,"current_range_meters":28800,"station_id":"ce4bhq92rcd13ifvqhjg","pricing_plan_id":"free"},{"bike_id":"66bbab0c-12de-48cc-89b3-7ad32fc2346f","system_id":"levelo_inurba_marseille","lat":43.284793,"lon":5.384113,"is_reserved":false,"is_disabled":false,"rental_uris":{"android":"levelo://app?vid=66bbab0c-12de-48cc-89b3-7ad32fc2346f","ios":"levelo://app?vid=66bbab0c-12de-48cc-89b3-7ad32fc2346f"},"vehicle_type_id":"4","last_reported":1687010728,"current_range_meters":26400,"station_id":"ce4bh512rcd13ifvqe3g","pricing_plan_id":"free"},{"bike_id":"00b4d942-d645-4a17-a320-9c02b5ecca68","system_id":"levelo_inurba_marseille","lat":43.288501,"lon":5.393087,"is_reserved":false,"is_disabled":false,"rental_uris":{"android":"levelo://app?vid=00b4d942-d645-4a17-a320-9c02b5ecca68","ios":"levelo://app?vid=00b4d942-d645-4a17-a320-9c02b5ecca68"},"vehicle_type_id":"4","last_reported":1687010728,"current_range_meters":25600,"station_id":"ce4bh2p2rcd13ifvqdi0","pricing_plan_id":"free"},{"bike_id":"d8fe9958-3890-4a6a-a6bc-38b149e1d177","system_id":"levelo_inurba_marseille","lat":43.28421,"lon":5.34981,"is_reserved":false,"is_disabled":false,"rental_uris":{"android":"levelo://app?vid=d8fe9958-3890-4a6a-a6bc-38b149e1d177","ios":"levelo://app?vid=d8fe9958-3890-4a6a-a6bc-38b149e1d177"},"vehicle_type_id":"4","last_reported":1687010728,"current_range_meters":18400,"station_id":"ce4bhbh2rcd13ifvqepg","pricing_plan_id":"free"},{"bike_id":"8501090f-0616-4fbf-b834-4ef8e5317796","system_id":"levelo_inurba_marseille","lat":43.284217,"lon":5.349697,"is_reserved":false,"is_disabled":false,"rental_uris":{"android":"levelo://app?vid=8501090f-0616-4fbf-b834-4ef8e5317796","ios":"levelo://app?vid=8501090f-0616-4fbf-b834-4ef8e5317796"},"vehicle_type_id":"4","last_reported":1687010728,"current_range_meters":24000,"station_id":"ce4bhbh2rcd13ifvqepg","pricing_plan_id":"free"},{"bike_id":"90a1384b-427d-4d40-9165-9a91cb9fc4c2","system_id":"levelo_inurba_marseille","lat":43.284217,"lon":5.349697,"is_reserved":false,"is_disabled":false,"rental_uris":{"android":"levelo://app?vid=90a1384b-427d-4d40-9165-9a91cb9fc4c2","ios":"levelo://app?vid=90a1384b-427d-4d40-9165-9a91cb9fc4c2"},"vehicle_type_id":"4","last_reported":1687010728,"current_range_meters":15200,"station_id":"ce4bhbh2rcd13ifvqepg","pricing_plan_id":"free"},{"bike_id":"fd34b3b0-e913-4905-aa01-a34fab4d64e4","system_id":"levelo_inurba_marseille","lat":43.28417,"lon":5.34987,"is_reserved":false,"is_disabled":false,"rental_uris":{"android":"levelo://app?vid=fd34b3b0-e913-4905-aa01-a34fab4d64e4","ios":"levelo://app?vid=fd34b3b0-e913-4905-aa01-a34fab4d64e4"},"vehicle_type_id":"4","last_reported":1687010728,"current_range_meters":24000,"station_id":"ce4bhbh2rcd13ifvqepg","pricing_plan_id":"free"},{"bike_id":"517a06bd-6a1d-47b9-b901-fcc72401338d","system_id":"levelo_inurba_marseille","lat":43.28417,"lon":5.34982,"is_reserved":false,"is_disabled":false,"rental_uris":{"android":"levelo://app?vid=517a06bd-6a1d-47b9-b901-fcc72401338d","ios":"levelo://app?vid=517a06bd-6a1d-47b9-b901-fcc72401338d"},"vehicle_type_id":"4","last_reported":1687010728,"current_range_meters":12800,"station_id":"ce4bhbh2rcd13ifvqepg","pricing_plan_id":"free"},{"bike_id":"ad1434f8-d599-4c8d-a820-d597c2e56a40","system_id":"levelo_inurba_marseille","lat":43.28418,"lon":5.34976,"is_reserved":false,"is_disabled":false,"rental_uris":{"android":"levelo://app?vid=ad1434f8-d599-4c8d-a820-d597c2e56a40","ios":"levelo://app?vid=ad1434f8-d599-4c8d-a820-d597c2e56a40"},"vehicle_type_id":"4","last_reported":1687010728,"current_range_meters":15600,"station_id":"ce4bhbh2rcd13ifvqepg","pricing_plan_id":"free"},{"bike_id":"8943697f-dfdc-4cd3-877b-d6105a1ecddc","system_id":"levelo_inurba_marseille","lat":43.28416,"lon":5.34982,"is_reserved":false,"is_disabled":false,"rental_uris":{"android":"levelo://app?vid=8943697f-dfdc-4cd3-877b-d6105a1ecddc","ios":"levelo://app?vid=8943697f-dfdc-4cd3-877b-d6105a1ecddc"},"vehicle_type_id":"4","last_reported":1687010728,"current_range_meters":21200,"station_id":"ce4bhbh2rcd13ifvqepg","pricing_plan_id":"free"},{"bike_id":"22810d4c-f66a-4216-9571-fda8ecf907e2","system_id":"levelo_inurba_marseille","lat":43.28416,"lon":5.34979,"is_reserved":false,"is_disabled":false,"rental_uris":{"android":"levelo://app?vid=22810d4c-f66a-4216-9571-fda8ecf907e2","ios":"levelo://app?vid=22810d4c-f66a-4216-9571-fda8ecf907e2"},"vehicle_type_id":"4","last_reported":1687010728,"current_range_meters":20400,"station_id":"ce4bhbh2rcd13ifvqepg","pricing_plan_id":"free"},{"bike_id":"684dcdd4-c7d5-4ebd-b1f5-e2290e51d870","system_id":"levelo_inurba_marseille","lat":43.28414,"lon":5.34981,"is_reserved":false,"is_disabled":false,"rental_uris":{"android":"levelo://app?vid=684dcdd4-c7d5-4ebd-b1f5-e2290e51d870","ios":"levelo://app?vid=684dcdd4-c7d5-4ebd-b1f5-e2290e51d870"},"vehicle_type_id":"4","last_reported":1687010728,"current_range_meters":20400,"station_id":"ce4bhbh2rcd13ifvqepg","pricing_plan_id":"free"},{"bike_id":"3d693432-ef53-4f06-bcec-7bb9bbc1e5e6","system_id":"levelo_inurba_marseille","lat":43.33926,"lon":5.39057,"is_reserved":false,"is_disabled":false,"rental_uris":{"android":"levelo://app?vid=3d693432-ef53-4f06-bcec-7bb9bbc1e5e6","ios":"levelo://app?vid=3d693432-ef53-4f06-bcec-7bb9bbc1e5e6"},"vehicle_type_id":"4","last_reported":1687010728,"current_range_meters":21200,"station_id":"","pricing_plan_id":"free"},{"bike_id":"fb2e6138-7a4c-43fe-ab6c-f844b18c24e5","system_id":"levelo_inurba_marseille","lat":43.28278,"lon":5.35069,"is_reserved":false,"is_disabled":false,"rental_uris":{"android":"levelo://app?vid=fb2e6138-7a4c-43fe-ab6c-f844b18c24e5","ios":"levelo://app?vid=fb2e6138-7a4c-43fe-ab6c-f844b18c24e5"},"vehicle_type_id":"4","last_reported":1687010728,"current_range_meters":30400,"station_id":"ce4bhbp2rcd13ifvqerg","pricing_plan_id":"free"},{"bike_id":"b4d971b0-ece6-4c24-91c5-846c399eb313","system_id":"levelo_inurba_marseille","lat":43.28276,"lon":5.35068,"is_reserved":false,"is_disabled":false,"rental_uris":{"android":"levelo://app?vid=b4d971b0-ece6-4c24-91c5-846c399eb313","ios":"levelo://app?vid=b4d971b0-ece6-4c24-91c5-846c399eb313"},"vehicle_type_id":"4","last_reported":1687010728,"current_range_meters":20000,"station_id":"ce4bhbp2rcd13ifvqerg","pricing_plan_id":"free"},{"bike_id":"3fce86f7-6126-496d-a212-e1f0aee604f0","system_id":"levelo_inurba_marseille","lat":43.28274,"lon":5.35063,"is_reserved":false,"is_disabled":false,"rental_uris":{"android":"levelo://app?vid=3fce86f7-6126-496d-a212-e1f0aee604f0","ios":"levelo://app?vid=3fce86f7-6126-496d-a212-e1f0aee604f0"},"vehicle_type_id":"4","last_reported":1687010728,"current_range_meters":12000,"station_id":"ce4bhbp2rcd13ifvqerg","pricing_plan_id":"free"},{"bike_id":"c52bc6f4-3cd7-48de-80ba-0a6a7435b780","system_id":"levelo_inurba_marseille","lat":43.28273,"lon":5.3506,"is_reserved":false,"is_disabled":false,"rental_uris":{"android":"levelo://app?vid=c52bc6f4-3cd7-48de-80ba-0a6a7435b780","ios":"levelo://app?vid=c52bc6f4-3cd7-48de-80ba-0a6a7435b780"},"vehicle_type_id":"4","last_reported":1687010728,"current_range_meters":28400,"station_id":"ce4bhbp2rcd13ifvqerg","pricing_plan_id":"free"},{"bike_id":"5d28cd9a-1811-4248-bf78-d45234cd789f","system_id":"levelo_inurba_marseille","lat":43.282744,"lon":5.350533,"is_reserved":false,"is_disabled":false,"rental_uris":{"android":"levelo://app?vid=5d28cd9a-1811-4248-bf78-d45234cd789f","ios":"levelo://app?vid=5d28cd9a-1811-4248-bf78-d45234cd789f"},"vehicle_type_id":"4","last_reported":1687010728,"current_range_meters":26800,"station_id":"ce4bhbp2rcd13ifvqerg","pricing_plan_id":"free"},{"bike_id":"49f7a7f6-929e-420c-92ef-3e785a80dd6e","system_id":"levelo_inurba_marseille","lat":43.28266,"lon":5.3507,"is_reserved":false,"is_disabled":false,"rental_uris":{"android":"levelo://app?vid=49f7a7f6-929e-420c-92ef-3e785a80dd6e","ios":"levelo://app?vid=49f7a7f6-929e-420c-92ef-3e785a80dd6e"},"vehicle_type_id":"4","last_reported":1687010728,"current_range_meters":1600,"station_id":"ce4bhbp2rcd13ifvqerg","pricing_plan_id":"free"},{"bike_id":"ba578eb3-71b8-4b58-9021-8d7f01c0aad0","system_id":"levelo_inurba_marseille","lat":43.2912,"lon":5.40004,"is_reserved":false,"is_disabled":false,"rental_uris":{"android":"levelo://app?vid=ba578eb3-71b8-4b58-9021-8d7f01c0aad0","ios":"levelo://app?vid=ba578eb3-71b8-4b58-9021-8d7f01c0aad0"},"vehicle_type_id":"4","last_reported":1687010728,"current_range_meters":31200,"station_id":"","pricing_plan_id":"free"},{"bike_id":"e51ce3b0-3ab6-4b4d-bc39-3883e9f93973","system_id":"levelo_inurba_marseille","lat":43.28265,"lon":5.3507,"is_reserved":false,"is_disabled":false,"rental_uris":{"android":"levelo://app?vid=e51ce3b0-3ab6-4b4d-bc39-3883e9f93973","ios":"levelo://app?vid=e51ce3b0-3ab6-4b4d-bc39-3883e9f93973"},"vehicle_type_id":"4","last_reported":1687010728,"current_range_meters":0,"station_id":"ce4bhbp2rcd13ifvqerg","pricing_plan_id":"free"},{"bike_id":"e98470dd-87dc-4bbe-a8ff-932d72aea6f2","system_id":"levelo_inurba_marseille","lat":43.28039,"lon":5.369297,"is_reserved":false,"is_disabled":false,"rental_uris":{"android":"levelo://app?vid=e98470dd-87dc-4bbe-a8ff-932d72aea6f2","ios":"levelo://app?vid=e98470dd-87dc-4bbe-a8ff-932d72aea6f2"},"vehicle_type_id":"4","last_reported":1687010728,"current_range_meters":3600,"station_id":"ce4bha12rcd13ifvqef0","pricing_plan_id":"free"},{"bike_id":"e87cf89e-476c-4a4a-8ea2-c6a32cd15f4b","system_id":"levelo_inurba_marseille","lat":43.28039,"lon":5.369297,"is_reserved":false,"is_disabled":false,"rental_uris":{"android":"levelo://app?vid=e87cf89e-476c-4a4a-8ea2-c6a32cd15f4b","ios":"levelo://app?vid=e87cf89e-476c-4a4a-8ea2-c6a32cd15f4b"},"vehicle_type_id":"4","last_reported":1687010728,"current_range_meters":28000,"station_id":"ce4bha12rcd13ifvqef0","pricing_plan_id":"free"},{"bike_id":"79ff8005-2b41-459c-9345-20eb06e68b08","system_id":"levelo_inurba_marseille","lat":43.30833,"lon":5.41101,"is_reserved":false,"is_disabled":false,"rental_uris":{"android":"levelo://app?vid=79ff8005-2b41-459c-9345-20eb06e68b08","ios":"levelo://app?vid=79ff8005-2b41-459c-9345-20eb06e68b08"},"vehicle_type_id":"4","last_reported":1687010728,"current_range_meters":9600,"station_id":"","pricing_plan_id":"free"},{"bike_id":"d8fa76e8-69ea-4286-bd3a-0135edfb363e","system_id":"levelo_inurba_marseille","lat":43.32659,"lon":5.40991,"is_reserved":false,"is_disabled":false,"rental_uris":{"android":"levelo://app?vid=d8fa76e8-69ea-4286-bd3a-0135edfb363e","ios":"levelo://app?vid=d8fa76e8-69ea-4286-bd3a-0135edfb363e"},"vehicle_type_id":"4","last_reported":1687010728,"current_range_meters":21600,"station_id":"ce4bhpp2rcd13ifvqhgg","pricing_plan_id":"free"},{"bike_id":"1fbc387b-3662-43be-bf02-35ff8bceccb8","system_id":"levelo_inurba_marseille","lat":43.32661,"lon":5.40993,"is_reserved":false,"is_disabled":false,"rental_uris":{"android":"levelo://app?vid=1fbc387b-3662-43be-bf02-35ff8bceccb8","ios":"levelo://app?vid=1fbc387b-3662-43be-bf02-35ff8bceccb8"},"vehicle_type_id":"4","last_reported":1687010728,"current_range_meters":23600,"station_id":"ce4bhpp2rcd13ifvqhgg","pricing_plan_id":"free"},{"bike_id":"9eaa33b2-7ac8-4c00-9d6c-bdc5a7be5d5e","system_id":"levelo_inurba_marseille","lat":43.304188,"lon":5.412904,"is_reserved":false,"is_disabled":false,"rental_uris":{"android":"levelo://app?vid=9eaa33b2-7ac8-4c00-9d6c-bdc5a7be5d5e","ios":"levelo://app?vid=9eaa33b2-7ac8-4c00-9d6c-bdc5a7be5d5e"},"vehicle_type_id":"4","last_reported":1687010728,"current_range_meters":24400,"station_id":"ce4bhop2rcd13ifvqh8g","pricing_plan_id":"free"},{"bike_id":"abf548df-b314-4f37-9342-e2dca92fa292","system_id":"levelo_inurba_marseille","lat":43.299579,"lon":5.413255,"is_reserved":false,"is_disabled":false,"rental_uris":{"android":"levelo://app?vid=abf548df-b314-4f37-9342-e2dca92fa292","ios":"levelo://app?vid=abf548df-b314-4f37-9342-e2dca92fa292"},"vehicle_type_id":"4","last_reported":1687010728,"current_range_meters":28800,"station_id":"ce4bhp12rcd13ifvqh9g","pricing_plan_id":"free"},{"bike_id":"28be33be-df8a-4ede-9278-dd9e345e9331","system_id":"levelo_inurba_marseille","lat":43.299579,"lon":5.413255,"is_reserved":false,"is_disabled":false,"rental_uris":{"android":"levelo://app?vid=28be33be-df8a-4ede-9278-dd9e345e9331","ios":"levelo://app?vid=28be33be-df8a-4ede-9278-dd9e345e9331"},"vehicle_type_id":"4","last_reported":1687010728,"current_range_meters":26000,"station_id":"ce4bhp12rcd13ifvqh9g","pricing_plan_id":"free"},{"bike_id":"18b3eb8c-feab-48c4-a061-9385fa7e48b9","system_id":"levelo_inurba_marseille","lat":43.299579,"lon":5.413255,"is_reserved":false,"is_disabled":false,"rental_uris":{"android":"levelo://app?vid=18b3eb8c-feab-48c4-a061-9385fa7e48b9","ios":"levelo://app?vid=18b3eb8c-feab-48c4-a061-9385fa7e48b9"},"vehicle_type_id":"4","last_reported":1687010728,"current_range_meters":31200,"station_id":"ce4bhp12rcd13ifvqh9g","pricing_plan_id":"free"},{"bike_id":"4cfd59e5-c9ad-4589-beae-3ef51019073e","system_id":"levelo_inurba_marseille","lat":43.299577,"lon":5.413277,"is_reserved":false,"is_disabled":false,"rental_uris":{"android":"levelo://app?vid=4cfd59e5-c9ad-4589-beae-3ef51019073e","ios":"levelo://app?vid=4cfd59e5-c9ad-4589-beae-3ef51019073e"},"vehicle_type_id":"4","last_reported":1687010728,"current_range_meters":28400,"station_id":"ce4bhp12rcd13ifvqh9g","pricing_plan_id":"free"},{"bike_id":"179147e5-9930-4921-91eb-6392e8b15cff","system_id":"levelo_inurba_marseille","lat":43.299579,"lon":5.413255,"is_reserved":false,"is_disabled":false,"rental_uris":{"android":"levelo://app?vid=179147e5-9930-4921-91eb-6392e8b15cff","ios":"levelo://app?vid=179147e5-9930-4921-91eb-6392e8b15cff"},"vehicle_type_id":"4","last_reported":1687010728,"current_range_meters":31200,"station_id":"ce4bhp12rcd13ifvqh9g","pricing_plan_id":"free"},{"bike_id":"bd7329c2-73fd-4a82-9294-f9596a079787","system_id":"levelo_inurba_marseille","lat":43.325233,"lon":5.414318,"is_reserved":false,"is_disabled":false,"rental_uris":{"android":"levelo://app?vid=bd7329c2-73fd-4a82-9294-f9596a079787","ios":"levelo://app?vid=bd7329c2-73fd-4a82-9294-f9596a079787"},"vehicle_type_id":"4","last_reported":1687010728,"current_range_meters":18400,"station_id":"ce4bhq12rcd13ifvqhhg","pricing_plan_id":"free"},{"bike_id":"7e277862-a4fe-4469-9033-1ef963d94383","system_id":"levelo_inurba_marseille","lat":43.27618,"lon":5.361009,"is_reserved":false,"is_disabled":false,"rental_uris":{"android":"levelo://app?vid=7e277862-a4fe-4469-9033-1ef963d94383","ios":"levelo://app?vid=7e277862-a4fe-4469-9033-1ef963d94383"},"vehicle_type_id":"4","last_reported":1687010728,"current_range_meters":10000,"station_id":"ce4bgj92rcd13ifvqbe0","pricing_plan_id":"free"},{"bike_id":"90d6893a-f1b0-4703-883c-6fbf42830f17","system_id":"levelo_inurba_marseille","lat":43.27648,"lon":5.35802,"is_reserved":false,"is_disabled":false,"rental_uris":{"android":"levelo://app?vid=90d6893a-f1b0-4703-883c-6fbf42830f17","ios":"levelo://app?vid=90d6893a-f1b0-4703-883c-6fbf42830f17"},"vehicle_type_id":"4","last_reported":1687010728,"current_range_meters":26800,"station_id":"","pricing_plan_id":"free"},{"bike_id":"63e08bf9-eb09-47c7-903b-e0937545dccf","system_id":"levelo_inurba_marseille","lat":43.290103,"lon":5.356114,"is_reserved":false,"is_disabled":false,"rental_uris":{"android":"levelo://app?vid=63e08bf9-eb09-47c7-903b-e0937545dccf","ios":"levelo://app?vid=63e08bf9-eb09-47c7-903b-e0937545dccf"},"vehicle_type_id":"4","last_reported":1687010728,"current_range_meters":8000,"station_id":"ce4bhb92rcd13ifvqen0","pricing_plan_id":"free"},{"bike_id":"3ee2f498-372d-451a-a2c9-f551a0ebb69c","system_id":"levelo_inurba_marseille","lat":43.28077,"lon":5.3966,"is_reserved":false,"is_disabled":false,"rental_uris":{"android":"levelo://app?vid=3ee2f498-372d-451a-a2c9-f551a0ebb69c","ios":"levelo://app?vid=3ee2f498-372d-451a-a2c9-f551a0ebb69c"},"vehicle_type_id":"4","last_reported":1687010728,"current_range_meters":1600,"station_id":"ce4bho12rcd13ifvqh2g","pricing_plan_id":"free"},{"bike_id":"3e8cc5e9-b826-4dad-ae60-578af092ad3b","system_id":"levelo_inurba_marseille","lat":43.303837,"lon":5.418724,"is_reserved":false,"is_disabled":false,"rental_uris":{"android":"levelo://app?vid=3e8cc5e9-b826-4dad-ae60-578af092ad3b","ios":"levelo://app?vid=3e8cc5e9-b826-4dad-ae60-578af092ad3b"},"vehicle_type_id":"4","last_reported":1687010728,"current_range_meters":31600,"station_id":"ce4bhop2rcd13ifvqh7g","pricing_plan_id":"free"},{"bike_id":"3b0a172e-4aec-454b-af0c-42f990116fe9","system_id":"levelo_inurba_marseille","lat":43.27382,"lon":5.36254,"is_reserved":false,"is_disabled":false,"rental_uris":{"android":"levelo://app?vid=3b0a172e-4aec-454b-af0c-42f990116fe9","ios":"levelo://app?vid=3b0a172e-4aec-454b-af0c-42f990116fe9"},"vehicle_type_id":"4","last_reported":1687010728,"current_range_meters":21600,"station_id":"","pricing_plan_id":"free"},{"bike_id":"dde73559-3ab5-4160-b9bd-2643cd3772dd","system_id":"levelo_inurba_marseille","lat":43.273613,"lon":5.362705,"is_reserved":false,"is_disabled":false,"rental_uris":{"android":"levelo://app?vid=dde73559-3ab5-4160-b9bd-2643cd3772dd","ios":"levelo://app?vid=dde73559-3ab5-4160-b9bd-2643cd3772dd"},"vehicle_type_id":"4","last_reported":1687010728,"current_range_meters":17600,"station_id":"ce4bhbh2rcd13ifvqeo0","pricing_plan_id":"free"},{"bike_id":"b6fdf025-8654-43cb-abbf-62e3f4b8a0a5","system_id":"levelo_inurba_marseille","lat":43.27381,"lon":5.36252,"is_reserved":false,"is_disabled":false,"rental_uris":{"android":"levelo://app?vid=b6fdf025-8654-43cb-abbf-62e3f4b8a0a5","ios":"levelo://app?vid=b6fdf025-8654-43cb-abbf-62e3f4b8a0a5"},"vehicle_type_id":"4","last_reported":1687010728,"current_range_meters":14800,"station_id":"","pricing_plan_id":"free"},{"bike_id":"35dfa401-c28c-42a9-9b26-951703fe9328","system_id":"levelo_inurba_marseille","lat":43.273613,"lon":5.362705,"is_reserved":false,"is_disabled":false,"rental_uris":{"android":"levelo://app?vid=35dfa401-c28c-42a9-9b26-951703fe9328","ios":"levelo://app?vid=35dfa401-c28c-42a9-9b26-951703fe9328"},"vehicle_type_id":"4","last_reported":1687010728,"current_range_meters":23200,"station_id":"ce4bhbh2rcd13ifvqeo0","pricing_plan_id":"free"},{"bike_id":"56aa3bd3-9f9b-4a0a-b7b2-306609bee4d8","system_id":"levelo_inurba_marseille","lat":43.273613,"lon":5.362705,"is_reserved":false,"is_disabled":false,"rental_uris":{"android":"levelo://app?vid=56aa3bd3-9f9b-4a0a-b7b2-306609bee4d8","ios":"levelo://app?vid=56aa3bd3-9f9b-4a0a-b7b2-306609bee4d8"},"vehicle_type_id":"4","last_reported":1687010728,"current_range_meters":21200,"station_id":"ce4bhbh2rcd13ifvqeo0","pricing_plan_id":"free"},{"bike_id":"af8bc1e2-ee72-4abe-959c-11932026349a","system_id":"levelo_inurba_marseille","lat":43.273609,"lon":5.362708,"is_reserved":false,"is_disabled":false,"rental_uris":{"android":"levelo://app?vid=af8bc1e2-ee72-4abe-959c-11932026349a","ios":"levelo://app?vid=af8bc1e2-ee72-4abe-959c-11932026349a"},"vehicle_type_id":"4","last_reported":1687010728,"current_range_meters":22400,"station_id":"ce4bhbh2rcd13ifvqeo0","pricing_plan_id":"free"},{"bike_id":"5f90b6f7-55f2-4b89-acb2-29600d29e986","system_id":"levelo_inurba_marseille","lat":43.27377,"lon":5.36253,"is_reserved":false,"is_disabled":false,"rental_uris":{"android":"levelo://app?vid=5f90b6f7-55f2-4b89-acb2-29600d29e986","ios":"levelo://app?vid=5f90b6f7-55f2-4b89-acb2-29600d29e986"},"vehicle_type_id":"4","last_reported":1687010728,"current_range_meters":12000,"station_id":"ce4bhbh2rcd13ifvqeo0","pricing_plan_id":"free"},{"bike_id":"5a8ca264-e612-4624-be95-a229ef2af94f","system_id":"levelo_inurba_marseille","lat":43.273613,"lon":5.362705,"is_reserved":false,"is_disabled":false,"rental_uris":{"android":"levelo://app?vid=5a8ca264-e612-4624-be95-a229ef2af94f","ios":"levelo://app?vid=5a8ca264-e612-4624-be95-a229ef2af94f"},"vehicle_type_id":"4","last_reported":1687010728,"current_range_meters":28800,"station_id":"ce4bhbh2rcd13ifvqeo0","pricing_plan_id":"free"},{"bike_id":"272e835c-6083-4c70-8bdd-e9d26d6c6f4f","system_id":"levelo_inurba_marseille","lat":43.273613,"lon":5.362705,"is_reserved":false,"is_disabled":false,"rental_uris":{"android":"levelo://app?vid=272e835c-6083-4c70-8bdd-e9d26d6c6f4f","ios":"levelo://app?vid=272e835c-6083-4c70-8bdd-e9d26d6c6f4f"},"vehicle_type_id":"4","last_reported":1687010728,"current_range_meters":20400,"station_id":"ce4bhbh2rcd13ifvqeo0","pricing_plan_id":"free"},{"bike_id":"d6e357c3-e719-48cc-aded-701defe9df37","system_id":"levelo_inurba_marseille","lat":43.275625,"lon":5.384392,"is_reserved":false,"is_disabled":false,"rental_uris":{"android":"levelo://app?vid=d6e357c3-e719-48cc-aded-701defe9df37","ios":"levelo://app?vid=d6e357c3-e719-48cc-aded-701defe9df37"},"vehicle_type_id":"4","last_reported":1687010728,"current_range_meters":15600,"station_id":"ce4bhh92rcd13ifvqfi0","pricing_plan_id":"free"},{"bike_id":"b61d96df-1db9-4bd8-be08-3fa6894140e9","system_id":"levelo_inurba_marseille","lat":43.273609,"lon":5.362708,"is_reserved":false,"is_disabled":false,"rental_uris":{"android":"levelo://app?vid=b61d96df-1db9-4bd8-be08-3fa6894140e9","ios":"levelo://app?vid=b61d96df-1db9-4bd8-be08-3fa6894140e9"},"vehicle_type_id":"4","last_reported":1687010728,"current_range_meters":21600,"station_id":"ce4bhbh2rcd13ifvqeo0","pricing_plan_id":"free"},{"bike_id":"f3b3162c-48c0-4475-9cfb-97802cd94e68","system_id":"levelo_inurba_marseille","lat":43.273609,"lon":5.362708,"is_reserved":false,"is_disabled":false,"rental_uris":{"android":"levelo://app?vid=f3b3162c-48c0-4475-9cfb-97802cd94e68","ios":"levelo://app?vid=f3b3162c-48c0-4475-9cfb-97802cd94e68"},"vehicle_type_id":"4","last_reported":1687010728,"current_range_meters":25200,"station_id":"ce4bhbh2rcd13ifvqeo0","pricing_plan_id":"free"},{"bike_id":"f4e7102a-3b67-4078-9392-de32eb75df3f","system_id":"levelo_inurba_marseille","lat":43.273609,"lon":5.362708,"is_reserved":false,"is_disabled":false,"rental_uris":{"android":"levelo://app?vid=f4e7102a-3b67-4078-9392-de32eb75df3f","ios":"levelo://app?vid=f4e7102a-3b67-4078-9392-de32eb75df3f"},"vehicle_type_id":"4","last_reported":1687010728,"current_range_meters":19200,"station_id":"ce4bhbh2rcd13ifvqeo0","pricing_plan_id":"free"},{"bike_id":"d0f6ad9d-7425-4c7a-9ee3-a0df99bacdae","system_id":"levelo_inurba_marseille","lat":43.27371,"lon":5.3625,"is_reserved":false,"is_disabled":false,"rental_uris":{"android":"levelo://app?vid=d0f6ad9d-7425-4c7a-9ee3-a0df99bacdae","ios":"levelo://app?vid=d0f6ad9d-7425-4c7a-9ee3-a0df99bacdae"},"vehicle_type_id":"4","last_reported":1687010728,"current_range_meters":31200,"station_id":"","pricing_plan_id":"free"},{"bike_id":"7de536b1-dcab-4b7d-a557-dda9670511b8","system_id":"levelo_inurba_marseille","lat":43.273609,"lon":5.362708,"is_reserved":false,"is_disabled":false,"rental_uris":{"android":"levelo://app?vid=7de536b1-dcab-4b7d-a557-dda9670511b8","ios":"levelo://app?vid=7de536b1-dcab-4b7d-a557-dda9670511b8"},"vehicle_type_id":"4","last_reported":1687010728,"current_range_meters":4400,"station_id":"ce4bhbh2rcd13ifvqeo0","pricing_plan_id":"free"},{"bike_id":"8937ee4c-8b01-43cb-a324-3badb4b0f56e","system_id":"levelo_inurba_marseille","lat":43.273609,"lon":5.362708,"is_reserved":false,"is_disabled":false,"rental_uris":{"android":"levelo://app?vid=8937ee4c-8b01-43cb-a324-3badb4b0f56e","ios":"levelo://app?vid=8937ee4c-8b01-43cb-a324-3badb4b0f56e"},"vehicle_type_id":"4","last_reported":1687010728,"current_range_meters":21600,"station_id":"ce4bhbh2rcd13ifvqeo0","pricing_plan_id":"free"},{"bike_id":"2638c57d-eccc-4679-9b6f-664324e51e57","system_id":"levelo_inurba_marseille","lat":43.273609,"lon":5.362708,"is_reserved":false,"is_disabled":false,"rental_uris":{"android":"levelo://app?vid=2638c57d-eccc-4679-9b6f-664324e51e57","ios":"levelo://app?vid=2638c57d-eccc-4679-9b6f-664324e51e57"},"vehicle_type_id":"4","last_reported":1687010728,"current_range_meters":23200,"station_id":"ce4bhbh2rcd13ifvqeo0","pricing_plan_id":"free"},{"bike_id":"902fd6c0-ebc3-4a7a-b824-a71c45f32855","system_id":"levelo_inurba_marseille","lat":43.33607,"lon":5.41028,"is_reserved":false,"is_disabled":false,"rental_uris":{"android":"levelo://app?vid=902fd6c0-ebc3-4a7a-b824-a71c45f32855","ios":"levelo://app?vid=902fd6c0-ebc3-4a7a-b824-a71c45f32855"},"vehicle_type_id":"4","last_reported":1687010728,"current_range_meters":30400,"station_id":"ce4bhqh2rcd13ifvqhmg","pricing_plan_id":"free"},{"bike_id":"2671f276-fc91-4df0-a030-1d79f7ab90ec","system_id":"levelo_inurba_marseille","lat":43.317121,"lon":5.423936,"is_reserved":false,"is_disabled":false,"rental_uris":{"android":"levelo://app?vid=2671f276-fc91-4df0-a030-1d79f7ab90ec","ios":"levelo://app?vid=2671f276-fc91-4df0-a030-1d79f7ab90ec"},"vehicle_type_id":"4","last_reported":1687010728,"current_range_meters":26400,"station_id":"ce4bhp92rcd13ifvqhbg","pricing_plan_id":"free"},{"bike_id":"d924a432-9541-41dc-8775-e19175f75871","system_id":"levelo_inurba_marseille","lat":43.31085,"lon":5.42434,"is_reserved":false,"is_disabled":false,"rental_uris":{"android":"levelo://app?vid=d924a432-9541-41dc-8775-e19175f75871","ios":"levelo://app?vid=d924a432-9541-41dc-8775-e19175f75871"},"vehicle_type_id":"4","last_reported":1687010728,"current_range_meters":30000,"station_id":"ce4bhp92rcd13ifvqhag","pricing_plan_id":"free"},{"bike_id":"6275aaca-a354-407f-be44-df40f2969d44","system_id":"levelo_inurba_marseille","lat":43.27324,"lon":5.39083,"is_reserved":false,"is_disabled":false,"rental_uris":{"android":"levelo://app?vid=6275aaca-a354-407f-be44-df40f2969d44","ios":"levelo://app?vid=6275aaca-a354-407f-be44-df40f2969d44"},"vehicle_type_id":"4","last_reported":1687010728,"current_range_meters":31200,"station_id":"ce4bhgp2rcd13ifvqfe0","pricing_plan_id":"free"},{"bike_id":"f82c4e0b-ce86-4de4-962b-f266d6ba506e","system_id":"levelo_inurba_marseille","lat":43.273125,"lon":5.390731,"is_reserved":false,"is_disabled":false,"rental_uris":{"android":"levelo://app?vid=f82c4e0b-ce86-4de4-962b-f266d6ba506e","ios":"levelo://app?vid=f82c4e0b-ce86-4de4-962b-f266d6ba506e"},"vehicle_type_id":"4","last_reported":1687010728,"current_range_meters":29200,"station_id":"ce4bhgp2rcd13ifvqfe0","pricing_plan_id":"free"},{"bike_id":"cfba2fbe-9ed5-423f-b411-8d6c38451715","system_id":"levelo_inurba_marseille","lat":43.273129,"lon":5.390725,"is_reserved":false,"is_disabled":false,"rental_uris":{"android":"levelo://app?vid=cfba2fbe-9ed5-423f-b411-8d6c38451715","ios":"levelo://app?vid=cfba2fbe-9ed5-423f-b411-8d6c38451715"},"vehicle_type_id":"4","last_reported":1687010728,"current_range_meters":31200,"station_id":"ce4bhgp2rcd13ifvqfe0","pricing_plan_id":"free"},{"bike_id":"59cceb80-3ea9-4ac2-9ea7-19a69c14c10e","system_id":"levelo_inurba_marseille","lat":43.304096,"lon":5.425385,"is_reserved":false,"is_disabled":false,"rental_uris":{"android":"levelo://app?vid=59cceb80-3ea9-4ac2-9ea7-19a69c14c10e","ios":"levelo://app?vid=59cceb80-3ea9-4ac2-9ea7-19a69c14c10e"},"vehicle_type_id":"4","last_reported":1687010728,"current_range_meters":21600,"station_id":"ce4bhoh2rcd13ifvqh6g","pricing_plan_id":"free"},{"bike_id":"8b29d5d3-cd3d-4d8a-a84b-cd427d5512b6","system_id":"levelo_inurba_marseille","lat":43.30414,"lon":5.42545,"is_reserved":false,"is_disabled":false,"rental_uris":{"android":"levelo://app?vid=8b29d5d3-cd3d-4d8a-a84b-cd427d5512b6","ios":"levelo://app?vid=8b29d5d3-cd3d-4d8a-a84b-cd427d5512b6"},"vehicle_type_id":"4","last_reported":1687010728,"current_range_meters":13200,"station_id":"ce4bhoh2rcd13ifvqh6g","pricing_plan_id":"free"},{"bike_id":"1bff78bf-f52a-4496-8290-620058aae146","system_id":"levelo_inurba_marseille","lat":43.304161,"lon":5.425473,"is_reserved":false,"is_disabled":false,"rental_uris":{"android":"levelo://app?vid=1bff78bf-f52a-4496-8290-620058aae146","ios":"levelo://app?vid=1bff78bf-f52a-4496-8290-620058aae146"},"vehicle_type_id":"4","last_reported":1687010728,"current_range_meters":31200,"station_id":"ce4bhoh2rcd13ifvqh6g","pricing_plan_id":"free"},{"bike_id":"4c421232-7dc2-4011-b40f-c2ada192132a","system_id":"levelo_inurba_marseille","lat":43.304096,"lon":5.425385,"is_reserved":false,"is_disabled":false,"rental_uris":{"android":"levelo://app?vid=4c421232-7dc2-4011-b40f-c2ada192132a","ios":"levelo://app?vid=4c421232-7dc2-4011-b40f-c2ada192132a"},"vehicle_type_id":"4","last_reported":1687010728,"current_range_meters":25600,"station_id":"ce4bhoh2rcd13ifvqh6g","pricing_plan_id":"free"},{"bike_id":"6e007db5-4936-4386-a62e-38b09e885b23","system_id":"levelo_inurba_marseille","lat":43.295523,"lon":5.422926,"is_reserved":false,"is_disabled":false,"rental_uris":{"android":"levelo://app?vid=6e007db5-4936-4386-a62e-38b09e885b23","ios":"levelo://app?vid=6e007db5-4936-4386-a62e-38b09e885b23"},"vehicle_type_id":"4","last_reported":1687010728,"current_range_meters":2000,"station_id":"ce4bhph2rcd13ifvqhdg","pricing_plan_id":"free"},{"bike_id":"6dccc5dc-fbce-4c8c-a73f-6dce150a4b04","system_id":"levelo_inurba_marseille","lat":43.272116,"lon":5.391747,"is_reserved":false,"is_disabled":false,"rental_uris":{"android":"levelo://app?vid=6dccc5dc-fbce-4c8c-a73f-6dce150a4b04","ios":"levelo://app?vid=6dccc5dc-fbce-4c8c-a73f-6dce150a4b04"},"vehicle_type_id":"4","last_reported":1687010728,"current_range_meters":15600,"station_id":"ce4bhhp2rcd13ifvqfm0","pricing_plan_id":"free"},{"bike_id":"5bb09196-7978-4840-8f87-18cc9587a7cc","system_id":"levelo_inurba_marseille","lat":43.272116,"lon":5.391763,"is_reserved":false,"is_disabled":false,"rental_uris":{"android":"levelo://app?vid=5bb09196-7978-4840-8f87-18cc9587a7cc","ios":"levelo://app?vid=5bb09196-7978-4840-8f87-18cc9587a7cc"},"vehicle_type_id":"4","last_reported":1687010728,"current_range_meters":0,"station_id":"ce4bhhp2rcd13ifvqfm0","pricing_plan_id":"free"},{"bike_id":"41c530d1-1685-4cdd-810c-4425dece153b","system_id":"levelo_inurba_marseille","lat":43.26952,"lon":5.38627,"is_reserved":false,"is_disabled":false,"rental_uris":{"android":"levelo://app?vid=41c530d1-1685-4cdd-810c-4425dece153b","ios":"levelo://app?vid=41c530d1-1685-4cdd-810c-4425dece153b"},"vehicle_type_id":"4","last_reported":1687010728,"current_range_meters":9600,"station_id":"ce4bhh92rcd13ifvqfh0","pricing_plan_id":"free"},{"bike_id":"376927f3-0c04-4869-a8d0-492551bbc627","system_id":"levelo_inurba_marseille","lat":43.26959,"lon":5.3871,"is_reserved":false,"is_disabled":false,"rental_uris":{"android":"levelo://app?vid=376927f3-0c04-4869-a8d0-492551bbc627","ios":"levelo://app?vid=376927f3-0c04-4869-a8d0-492551bbc627"},"vehicle_type_id":"4","last_reported":1687010728,"current_range_meters":30000,"station_id":"","pricing_plan_id":"free"},{"bike_id":"711e9897-f66f-4c53-bfd0-218f22c7dd98","system_id":"levelo_inurba_marseille","lat":43.26681,"lon":5.382694,"is_reserved":false,"is_disabled":false,"rental_uris":{"android":"levelo://app?vid=711e9897-f66f-4c53-bfd0-218f22c7dd98","ios":"levelo://app?vid=711e9897-f66f-4c53-bfd0-218f22c7dd98"},"vehicle_type_id":"4","last_reported":1687010728,"current_range_meters":28000,"station_id":"ce4bhg92rcd13ifvqf90","pricing_plan_id":"free"},{"bike_id":"c14f1a6e-5132-4140-b2ae-bfcce9293293","system_id":"levelo_inurba_marseille","lat":43.27998,"lon":5.41657,"is_reserved":false,"is_disabled":false,"rental_uris":{"android":"levelo://app?vid=c14f1a6e-5132-4140-b2ae-bfcce9293293","ios":"levelo://app?vid=c14f1a6e-5132-4140-b2ae-bfcce9293293"},"vehicle_type_id":"4","last_reported":1687010728,"current_range_meters":15200,"station_id":"ce4bho12rcd13ifvqh1g","pricing_plan_id":"free"},{"bike_id":"82d2a9ac-865e-4b18-a347-38e2c437e268","system_id":"levelo_inurba_marseille","lat":43.267966,"lon":5.393976,"is_reserved":false,"is_disabled":false,"rental_uris":{"android":"levelo://app?vid=82d2a9ac-865e-4b18-a347-38e2c437e268","ios":"levelo://app?vid=82d2a9ac-865e-4b18-a347-38e2c437e268"},"vehicle_type_id":"4","last_reported":1687010728,"current_range_meters":21600,"station_id":"ce4bhh12rcd13ifvqfg0","pricing_plan_id":"free"},{"bike_id":"3987290e-fd4b-4f2b-81c0-57fca98f9cde","system_id":"levelo_inurba_marseille","lat":43.267966,"lon":5.393976,"is_reserved":false,"is_disabled":false,"rental_uris":{"android":"levelo://app?vid=3987290e-fd4b-4f2b-81c0-57fca98f9cde","ios":"levelo://app?vid=3987290e-fd4b-4f2b-81c0-57fca98f9cde"},"vehicle_type_id":"4","last_reported":1687010728,"current_range_meters":31200,"station_id":"ce4bhh12rcd13ifvqfg0","pricing_plan_id":"free"},{"bike_id":"8e217e71-42b4-48ab-b18b-301696b6b8a1","system_id":"levelo_inurba_marseille","lat":43.261782,"lon":5.374515,"is_reserved":false,"is_disabled":false,"rental_uris":{"android":"levelo://app?vid=8e217e71-42b4-48ab-b18b-301696b6b8a1","ios":"levelo://app?vid=8e217e71-42b4-48ab-b18b-301696b6b8a1"},"vehicle_type_id":"4","last_reported":1687010728,"current_range_meters":2000,"station_id":"ce4bhgp2rcd13ifvqfc0","pricing_plan_id":"free"},{"bike_id":"fdc27c93-2398-4427-969a-d5f9cbf527b1","system_id":"levelo_inurba_marseille","lat":43.262,"lon":5.37543,"is_reserved":false,"is_disabled":false,"rental_uris":{"android":"levelo://app?vid=fdc27c93-2398-4427-969a-d5f9cbf527b1","ios":"levelo://app?vid=fdc27c93-2398-4427-969a-d5f9cbf527b1"},"vehicle_type_id":"4","last_reported":1687010728,"current_range_meters":17600,"station_id":"","pricing_plan_id":"free"},{"bike_id":"5259cd2c-1dbc-45bf-af37-78946e5691ba","system_id":"levelo_inurba_marseille","lat":43.261782,"lon":5.374515,"is_reserved":false,"is_disabled":false,"rental_uris":{"android":"levelo://app?vid=5259cd2c-1dbc-45bf-af37-78946e5691ba","ios":"levelo://app?vid=5259cd2c-1dbc-45bf-af37-78946e5691ba"},"vehicle_type_id":"4","last_reported":1687010728,"current_range_meters":18400,"station_id":"ce4bhgp2rcd13ifvqfc0","pricing_plan_id":"free"},{"bike_id":"54191f78-35ca-4411-bd27-fd4f76c97b71","system_id":"levelo_inurba_marseille","lat":43.261782,"lon":5.374515,"is_reserved":false,"is_disabled":false,"rental_uris":{"android":"levelo://app?vid=54191f78-35ca-4411-bd27-fd4f76c97b71","ios":"levelo://app?vid=54191f78-35ca-4411-bd27-fd4f76c97b71"},"vehicle_type_id":"4","last_reported":1687010728,"current_range_meters":5200,"station_id":"ce4bhgp2rcd13ifvqfc0","pricing_plan_id":"free"},{"bike_id":"456aed17-dc28-4b43-a0e7-6faf975bb6c4","system_id":"levelo_inurba_marseille","lat":43.261782,"lon":5.374515,"is_reserved":false,"is_disabled":false,"rental_uris":{"android":"levelo://app?vid=456aed17-dc28-4b43-a0e7-6faf975bb6c4","ios":"levelo://app?vid=456aed17-dc28-4b43-a0e7-6faf975bb6c4"},"vehicle_type_id":"4","last_reported":1687010728,"current_range_meters":13200,"station_id":"ce4bhgp2rcd13ifvqfc0","pricing_plan_id":"free"},{"bike_id":"49b291bd-ea56-4184-bb6b-29f4561456fe","system_id":"levelo_inurba_marseille","lat":43.261782,"lon":5.374515,"is_reserved":false,"is_disabled":false,"rental_uris":{"android":"levelo://app?vid=49b291bd-ea56-4184-bb6b-29f4561456fe","ios":"levelo://app?vid=49b291bd-ea56-4184-bb6b-29f4561456fe"},"vehicle_type_id":"4","last_reported":1687010728,"current_range_meters":8400,"station_id":"ce4bhgp2rcd13ifvqfc0","pricing_plan_id":"free"},{"bike_id":"91c254b4-fef2-4a6b-9246-226657869095","system_id":"levelo_inurba_marseille","lat":43.261782,"lon":5.374515,"is_reserved":false,"is_disabled":false,"rental_uris":{"android":"levelo://app?vid=91c254b4-fef2-4a6b-9246-226657869095","ios":"levelo://app?vid=91c254b4-fef2-4a6b-9246-226657869095"},"vehicle_type_id":"4","last_reported":1687010728,"current_range_meters":6400,"station_id":"ce4bhgp2rcd13ifvqfc0","pricing_plan_id":"free"},{"bike_id":"2e37d1f6-4394-4836-b223-8a6e5f386185","system_id":"levelo_inurba_marseille","lat":43.261782,"lon":5.374515,"is_reserved":false,"is_disabled":false,"rental_uris":{"android":"levelo://app?vid=2e37d1f6-4394-4836-b223-8a6e5f386185","ios":"levelo://app?vid=2e37d1f6-4394-4836-b223-8a6e5f386185"},"vehicle_type_id":"4","last_reported":1687010728,"current_range_meters":20800,"station_id":"ce4bhgp2rcd13ifvqfc0","pricing_plan_id":"free"},{"bike_id":"eb82b6b3-daf9-4f09-bed8-2b784cf070fa","system_id":"levelo_inurba_marseille","lat":43.262012,"lon":5.379307,"is_reserved":false,"is_disabled":false,"rental_uris":{"android":"levelo://app?vid=eb82b6b3-daf9-4f09-bed8-2b784cf070fa","ios":"levelo://app?vid=eb82b6b3-daf9-4f09-bed8-2b784cf070fa"},"vehicle_type_id":"4","last_reported":1687010728,"current_range_meters":12000,"station_id":"ce4bhjp2rcd13ifvqg90","pricing_plan_id":"free"},{"bike_id":"e2dc7dfa-610e-4a4e-97f1-c2c501cba8c1","system_id":"levelo_inurba_marseille","lat":43.26206,"lon":5.37921,"is_reserved":false,"is_disabled":false,"rental_uris":{"android":"levelo://app?vid=e2dc7dfa-610e-4a4e-97f1-c2c501cba8c1","ios":"levelo://app?vid=e2dc7dfa-610e-4a4e-97f1-c2c501cba8c1"},"vehicle_type_id":"4","last_reported":1687010728,"current_range_meters":18400,"station_id":"ce4bhjp2rcd13ifvqg90","pricing_plan_id":"free"},{"bike_id":"169f9af3-aed2-4fdc-934f-663fee0188f6","system_id":"levelo_inurba_marseille","lat":43.26205,"lon":5.37918,"is_reserved":false,"is_disabled":false,"rental_uris":{"android":"levelo://app?vid=169f9af3-aed2-4fdc-934f-663fee0188f6","ios":"levelo://app?vid=169f9af3-aed2-4fdc-934f-663fee0188f6"},"vehicle_type_id":"4","last_reported":1687010728,"current_range_meters":25200,"station_id":"ce4bhjp2rcd13ifvqg90","pricing_plan_id":"free"},{"bike_id":"b66ee968-f311-40a9-86d7-6297db3c3882","system_id":"levelo_inurba_marseille","lat":43.26203,"lon":5.37923,"is_reserved":false,"is_disabled":false,"rental_uris":{"android":"levelo://app?vid=b66ee968-f311-40a9-86d7-6297db3c3882","ios":"levelo://app?vid=b66ee968-f311-40a9-86d7-6297db3c3882"},"vehicle_type_id":"4","last_reported":1687010728,"current_range_meters":18000,"station_id":"ce4bhjp2rcd13ifvqg90","pricing_plan_id":"free"},{"bike_id":"1290350e-c139-492d-bc0a-49bd9a893d1f","system_id":"levelo_inurba_marseille","lat":43.26203,"lon":5.37931,"is_reserved":false,"is_disabled":false,"rental_uris":{"android":"levelo://app?vid=1290350e-c139-492d-bc0a-49bd9a893d1f","ios":"levelo://app?vid=1290350e-c139-492d-bc0a-49bd9a893d1f"},"vehicle_type_id":"4","last_reported":1687010728,"current_range_meters":19200,"station_id":"ce4bhjp2rcd13ifvqg90","pricing_plan_id":"free"},{"bike_id":"4221ef51-b6f7-48eb-89db-3c2c7f768117","system_id":"levelo_inurba_marseille","lat":43.262012,"lon":5.379307,"is_reserved":false,"is_disabled":false,"rental_uris":{"android":"levelo://app?vid=4221ef51-b6f7-48eb-89db-3c2c7f768117","ios":"levelo://app?vid=4221ef51-b6f7-48eb-89db-3c2c7f768117"},"vehicle_type_id":"4","last_reported":1687010728,"current_range_meters":0,"station_id":"ce4bhjp2rcd13ifvqg90","pricing_plan_id":"free"},{"bike_id":"6e57d335-6dd5-4de1-9798-f96614239d95","system_id":"levelo_inurba_marseille","lat":43.262,"lon":5.37934,"is_reserved":false,"is_disabled":false,"rental_uris":{"android":"levelo://app?vid=6e57d335-6dd5-4de1-9798-f96614239d95","ios":"levelo://app?vid=6e57d335-6dd5-4de1-9798-f96614239d95"},"vehicle_type_id":"4","last_reported":1687010728,"current_range_meters":23600,"station_id":"ce4bhjp2rcd13ifvqg90","pricing_plan_id":"free"},{"bike_id":"350b9ea5-6643-4a3a-b826-0bf340ae4c16","system_id":"levelo_inurba_marseille","lat":43.262,"lon":5.37937,"is_reserved":false,"is_disabled":false,"rental_uris":{"android":"levelo://app?vid=350b9ea5-6643-4a3a-b826-0bf340ae4c16","ios":"levelo://app?vid=350b9ea5-6643-4a3a-b826-0bf340ae4c16"},"vehicle_type_id":"4","last_reported":1687010728,"current_range_meters":22400,"station_id":"ce4bhjp2rcd13ifvqg90","pricing_plan_id":"free"},{"bike_id":"255f1d55-73f2-4691-adc3-2cc7cbe003f7","system_id":"levelo_inurba_marseille","lat":43.262012,"lon":5.379307,"is_reserved":false,"is_disabled":false,"rental_uris":{"android":"levelo://app?vid=255f1d55-73f2-4691-adc3-2cc7cbe003f7","ios":"levelo://app?vid=255f1d55-73f2-4691-adc3-2cc7cbe003f7"},"vehicle_type_id":"4","last_reported":1687010728,"current_range_meters":11600,"station_id":"ce4bhjp2rcd13ifvqg90","pricing_plan_id":"free"},{"bike_id":"ab378214-b701-4916-8132-48240331f637","system_id":"levelo_inurba_marseille","lat":43.262012,"lon":5.379307,"is_reserved":false,"is_disabled":false,"rental_uris":{"android":"levelo://app?vid=ab378214-b701-4916-8132-48240331f637","ios":"levelo://app?vid=ab378214-b701-4916-8132-48240331f637"},"vehicle_type_id":"4","last_reported":1687010728,"current_range_meters":13600,"station_id":"ce4bhjp2rcd13ifvqg90","pricing_plan_id":"free"},{"bike_id":"7891bf97-4eb1-4cae-8d6e-efdfff2479a5","system_id":"levelo_inurba_marseille","lat":43.261623,"lon":5.379347,"is_reserved":false,"is_disabled":false,"rental_uris":{"android":"levelo://app?vid=7891bf97-4eb1-4cae-8d6e-efdfff2479a5","ios":"levelo://app?vid=7891bf97-4eb1-4cae-8d6e-efdfff2479a5"},"vehicle_type_id":"4","last_reported":1687010728,"current_range_meters":17200,"station_id":"ce4bhjp2rcd13ifvqg90","pricing_plan_id":"free"},{"bike_id":"3c6719eb-e3f8-4954-8b88-c41ecee083d7","system_id":"levelo_inurba_marseille","lat":43.260225,"lon":5.375455,"is_reserved":false,"is_disabled":false,"rental_uris":{"android":"levelo://app?vid=3c6719eb-e3f8-4954-8b88-c41ecee083d7","ios":"levelo://app?vid=3c6719eb-e3f8-4954-8b88-c41ecee083d7"},"vehicle_type_id":"4","last_reported":1687010728,"current_range_meters":31200,"station_id":"ce4bhgh2rcd13ifvqfa0","pricing_plan_id":"free"},{"bike_id":"e8e5db75-7e51-4263-bbb2-43546ffb4ef1","system_id":"levelo_inurba_marseille","lat":43.260219,"lon":5.37546,"is_reserved":false,"is_disabled":false,"rental_uris":{"android":"levelo://app?vid=e8e5db75-7e51-4263-bbb2-43546ffb4ef1","ios":"levelo://app?vid=e8e5db75-7e51-4263-bbb2-43546ffb4ef1"},"vehicle_type_id":"4","last_reported":1687010728,"current_range_meters":10000,"station_id":"ce4bhgh2rcd13ifvqfa0","pricing_plan_id":"free"},{"bike_id":"d9e64888-b0e7-46e4-933d-1a436665236e","system_id":"levelo_inurba_marseille","lat":43.2607,"lon":5.393983,"is_reserved":false,"is_disabled":false,"rental_uris":{"android":"levelo://app?vid=d9e64888-b0e7-46e4-933d-1a436665236e","ios":"levelo://app?vid=d9e64888-b0e7-46e4-933d-1a436665236e"},"vehicle_type_id":"4","last_reported":1687010728,"current_range_meters":12800,"station_id":"ce4bhh92rcd13ifvqfj0","pricing_plan_id":"free"},{"bike_id":"ddc4a6e7-41c4-4bbc-82e3-a632d8c2338c","system_id":"levelo_inurba_marseille","lat":43.275028,"lon":5.424534,"is_reserved":false,"is_disabled":false,"rental_uris":{"android":"levelo://app?vid=ddc4a6e7-41c4-4bbc-82e3-a632d8c2338c","ios":"levelo://app?vid=ddc4a6e7-41c4-4bbc-82e3-a632d8c2338c"},"vehicle_type_id":"4","last_reported":1687010728,"current_range_meters":13600,"station_id":"ce4bhn92rcd13ifvqgrg","pricing_plan_id":"free"},{"bike_id":"4a2fa9e3-d437-414e-809c-6b7d0be3e49b","system_id":"levelo_inurba_marseille","lat":43.26096,"lon":5.39763,"is_reserved":false,"is_disabled":false,"rental_uris":{"android":"levelo://app?vid=4a2fa9e3-d437-414e-809c-6b7d0be3e49b","ios":"levelo://app?vid=4a2fa9e3-d437-414e-809c-6b7d0be3e49b"},"vehicle_type_id":"4","last_reported":1687010728,"current_range_meters":27200,"station_id":"ce4bhi12rcd13ifvqfq0","pricing_plan_id":"free"},{"bike_id":"eafc13d1-f4fd-4b47-aade-fbfdb6e0bdb6","system_id":"levelo_inurba_marseille","lat":43.255756,"lon":5.382303,"is_reserved":false,"is_disabled":false,"rental_uris":{"android":"levelo://app?vid=eafc13d1-f4fd-4b47-aade-fbfdb6e0bdb6","ios":"levelo://app?vid=eafc13d1-f4fd-4b47-aade-fbfdb6e0bdb6"},"vehicle_type_id":"4","last_reported":1687010728,"current_range_meters":20000,"station_id":"ce4bhih2rcd13ifvqfs0","pricing_plan_id":"free"},{"bike_id":"f6cf65a0-bcc4-43cd-842a-35e40c21df46","system_id":"levelo_inurba_marseille","lat":43.255756,"lon":5.382303,"is_reserved":false,"is_disabled":false,"rental_uris":{"android":"levelo://app?vid=f6cf65a0-bcc4-43cd-842a-35e40c21df46","ios":"levelo://app?vid=f6cf65a0-bcc4-43cd-842a-35e40c21df46"},"vehicle_type_id":"4","last_reported":1687010728,"current_range_meters":17600,"station_id":"ce4bhih2rcd13ifvqfs0","pricing_plan_id":"free"},{"bike_id":"ac20ac61-9024-412b-9dae-33e5ec856ceb","system_id":"levelo_inurba_marseille","lat":43.255756,"lon":5.382303,"is_reserved":false,"is_disabled":false,"rental_uris":{"android":"levelo://app?vid=ac20ac61-9024-412b-9dae-33e5ec856ceb","ios":"levelo://app?vid=ac20ac61-9024-412b-9dae-33e5ec856ceb"},"vehicle_type_id":"4","last_reported":1687010728,"current_range_meters":6800,"station_id":"ce4bhih2rcd13ifvqfs0","pricing_plan_id":"free"},{"bike_id":"1e36d497-937a-455c-8cf0-a47b91f3abea","system_id":"levelo_inurba_marseille","lat":43.254945,"lon":5.376454,"is_reserved":false,"is_disabled":false,"rental_uris":{"android":"levelo://app?vid=1e36d497-937a-455c-8cf0-a47b91f3abea","ios":"levelo://app?vid=1e36d497-937a-455c-8cf0-a47b91f3abea"},"vehicle_type_id":"4","last_reported":1687010728,"current_range_meters":28800,"station_id":"ce4bhh12rcd13ifvqff0","pricing_plan_id":"free"},{"bike_id":"cb2790f8-e101-4de9-8007-72689631a3a0","system_id":"levelo_inurba_marseille","lat":43.254945,"lon":5.376454,"is_reserved":false,"is_disabled":false,"rental_uris":{"android":"levelo://app?vid=cb2790f8-e101-4de9-8007-72689631a3a0","ios":"levelo://app?vid=cb2790f8-e101-4de9-8007-72689631a3a0"},"vehicle_type_id":"4","last_reported":1687010728,"current_range_meters":12800,"station_id":"ce4bhh12rcd13ifvqff0","pricing_plan_id":"free"},{"bike_id":"50501cb7-ee58-45a5-81ac-7f298ba9f41f","system_id":"levelo_inurba_marseille","lat":43.254945,"lon":5.376454,"is_reserved":false,"is_disabled":false,"rental_uris":{"android":"levelo://app?vid=50501cb7-ee58-45a5-81ac-7f298ba9f41f","ios":"levelo://app?vid=50501cb7-ee58-45a5-81ac-7f298ba9f41f"},"vehicle_type_id":"4","last_reported":1687010728,"current_range_meters":32000,"station_id":"ce4bhh12rcd13ifvqff0","pricing_plan_id":"free"},{"bike_id":"c233b160-3a68-455c-ae15-06aca725d564","system_id":"levelo_inurba_marseille","lat":43.270721,"lon":5.422764,"is_reserved":false,"is_disabled":false,"rental_uris":{"android":"levelo://app?vid=c233b160-3a68-455c-ae15-06aca725d564","ios":"levelo://app?vid=c233b160-3a68-455c-ae15-06aca725d564"},"vehicle_type_id":"4","last_reported":1687010728,"current_range_meters":30000,"station_id":"ce4bhk92rcd13ifvqgb0","pricing_plan_id":"free"},{"bike_id":"3a9dad3c-8333-4cfd-9f8a-067716ca3de3","system_id":"levelo_inurba_marseille","lat":43.270721,"lon":5.422764,"is_reserved":false,"is_disabled":false,"rental_uris":{"android":"levelo://app?vid=3a9dad3c-8333-4cfd-9f8a-067716ca3de3","ios":"levelo://app?vid=3a9dad3c-8333-4cfd-9f8a-067716ca3de3"},"vehicle_type_id":"4","last_reported":1687010728,"current_range_meters":22800,"station_id":"ce4bhk92rcd13ifvqgb0","pricing_plan_id":"free"},{"bike_id":"380ea018-6d53-423b-b8cb-4a86fff7f762","system_id":"levelo_inurba_marseille","lat":43.25939,"lon":5.40908,"is_reserved":false,"is_disabled":false,"rental_uris":{"android":"levelo://app?vid=380ea018-6d53-423b-b8cb-4a86fff7f762","ios":"levelo://app?vid=380ea018-6d53-423b-b8cb-4a86fff7f762"},"vehicle_type_id":"4","last_reported":1687010728,"current_range_meters":7200,"station_id":"","pricing_plan_id":"free"},{"bike_id":"f44e6d11-6fdb-4946-a083-d97bec6a15f0","system_id":"levelo_inurba_marseille","lat":43.25938,"lon":5.40907,"is_reserved":false,"is_disabled":false,"rental_uris":{"android":"levelo://app?vid=f44e6d11-6fdb-4946-a083-d97bec6a15f0","ios":"levelo://app?vid=f44e6d11-6fdb-4946-a083-d97bec6a15f0"},"vehicle_type_id":"4","last_reported":1687010728,"current_range_meters":14000,"station_id":"","pricing_plan_id":"free"},{"bike_id":"86a905a3-3c0a-4ae9-a4b6-2eee22cb5b00","system_id":"levelo_inurba_marseille","lat":43.25934,"lon":5.40909,"is_reserved":false,"is_disabled":false,"rental_uris":{"android":"levelo://app?vid=86a905a3-3c0a-4ae9-a4b6-2eee22cb5b00","ios":"levelo://app?vid=86a905a3-3c0a-4ae9-a4b6-2eee22cb5b00"},"vehicle_type_id":"4","last_reported":1687010728,"current_range_meters":4800,"station_id":"","pricing_plan_id":"free"},{"bike_id":"84e383d7-99e5-4c88-b70a-994ba9ddca7e","system_id":"levelo_inurba_marseille","lat":43.25933,"lon":5.40909,"is_reserved":false,"is_disabled":false,"rental_uris":{"android":"levelo://app?vid=84e383d7-99e5-4c88-b70a-994ba9ddca7e","ios":"levelo://app?vid=84e383d7-99e5-4c88-b70a-994ba9ddca7e"},"vehicle_type_id":"4","last_reported":1687010728,"current_range_meters":14800,"station_id":"","pricing_plan_id":"free"},{"bike_id":"be0e3e3e-eb2d-47ab-82b9-3eea3770476b","system_id":"levelo_inurba_marseille","lat":43.2593,"lon":5.40905,"is_reserved":false,"is_disabled":false,"rental_uris":{"android":"levelo://app?vid=be0e3e3e-eb2d-47ab-82b9-3eea3770476b","ios":"levelo://app?vid=be0e3e3e-eb2d-47ab-82b9-3eea3770476b"},"vehicle_type_id":"4","last_reported":1687010728,"current_range_meters":12400,"station_id":"","pricing_plan_id":"free"},{"bike_id":"d7e6885a-915f-4840-b812-71547a248711","system_id":"levelo_inurba_marseille","lat":43.25931,"lon":5.40911,"is_reserved":false,"is_disabled":false,"rental_uris":{"android":"levelo://app?vid=d7e6885a-915f-4840-b812-71547a248711","ios":"levelo://app?vid=d7e6885a-915f-4840-b812-71547a248711"},"vehicle_type_id":"4","last_reported":1687010728,"current_range_meters":10400,"station_id":"","pricing_plan_id":"free"},{"bike_id":"53abe962-9804-4e3d-b337-9c8db65187dc","system_id":"levelo_inurba_marseille","lat":43.250023,"lon":5.38919,"is_reserved":false,"is_disabled":false,"rental_uris":{"android":"levelo://app?vid=53abe962-9804-4e3d-b337-9c8db65187dc","ios":"levelo://app?vid=53abe962-9804-4e3d-b337-9c8db65187dc"},"vehicle_type_id":"4","last_reported":1687010728,"current_range_meters":4800,"station_id":"ce4bhgp2rcd13ifvqfd0","pricing_plan_id":"free"},{"bike_id":"8d7cf85c-5f96-4ed5-8b74-2fb42ee051ae","system_id":"levelo_inurba_marseille","lat":43.250009,"lon":5.389195,"is_reserved":false,"is_disabled":false,"rental_uris":{"android":"levelo://app?vid=8d7cf85c-5f96-4ed5-8b74-2fb42ee051ae","ios":"levelo://app?vid=8d7cf85c-5f96-4ed5-8b74-2fb42ee051ae"},"vehicle_type_id":"4","last_reported":1687010728,"current_range_meters":400,"station_id":"ce4bhgp2rcd13ifvqfd0","pricing_plan_id":"free"},{"bike_id":"5e278894-d2f4-4086-ba08-1f5d8742cd8e","system_id":"levelo_inurba_marseille","lat":43.24998,"lon":5.38925,"is_reserved":false,"is_disabled":false,"rental_uris":{"android":"levelo://app?vid=5e278894-d2f4-4086-ba08-1f5d8742cd8e","ios":"levelo://app?vid=5e278894-d2f4-4086-ba08-1f5d8742cd8e"},"vehicle_type_id":"4","last_reported":1687010728,"current_range_meters":4000,"station_id":"ce4bhgp2rcd13ifvqfd0","pricing_plan_id":"free"},{"bike_id":"cd85dc4b-338e-4d3b-976c-e89dfe8c7696","system_id":"levelo_inurba_marseille","lat":43.250023,"lon":5.38919,"is_reserved":false,"is_disabled":false,"rental_uris":{"android":"levelo://app?vid=cd85dc4b-338e-4d3b-976c-e89dfe8c7696","ios":"levelo://app?vid=cd85dc4b-338e-4d3b-976c-e89dfe8c7696"},"vehicle_type_id":"4","last_reported":1687010728,"current_range_meters":3200,"station_id":"ce4bhgp2rcd13ifvqfd0","pricing_plan_id":"free"},{"bike_id":"059bf3d7-7e96-49fb-87d4-50fe2f99cc8d","system_id":"levelo_inurba_marseille","lat":43.2479,"lon":5.374457,"is_reserved":false,"is_disabled":false,"rental_uris":{"android":"levelo://app?vid=059bf3d7-7e96-49fb-87d4-50fe2f99cc8d","ios":"levelo://app?vid=059bf3d7-7e96-49fb-87d4-50fe2f99cc8d"},"vehicle_type_id":"4","last_reported":1687010728,"current_range_meters":22000,"station_id":"ce4bhgh2rcd13ifvqfb0","pricing_plan_id":"free"},{"bike_id":"cffaa43a-9d41-4eda-a9a3-27bb6de58e03","system_id":"levelo_inurba_marseille","lat":43.2479,"lon":5.374457,"is_reserved":false,"is_disabled":false,"rental_uris":{"android":"levelo://app?vid=cffaa43a-9d41-4eda-a9a3-27bb6de58e03","ios":"levelo://app?vid=cffaa43a-9d41-4eda-a9a3-27bb6de58e03"},"vehicle_type_id":"4","last_reported":1687010728,"current_range_meters":19600,"station_id":"ce4bhgh2rcd13ifvqfb0","pricing_plan_id":"free"},{"bike_id":"d6d1e319-9bc8-4a29-9a52-803f6bc9e4eb","system_id":"levelo_inurba_marseille","lat":43.2481,"lon":5.37458,"is_reserved":false,"is_disabled":false,"rental_uris":{"android":"levelo://app?vid=d6d1e319-9bc8-4a29-9a52-803f6bc9e4eb","ios":"levelo://app?vid=d6d1e319-9bc8-4a29-9a52-803f6bc9e4eb"},"vehicle_type_id":"4","last_reported":1687010728,"current_range_meters":0,"station_id":"ce4bhgh2rcd13ifvqfb0","pricing_plan_id":"free"},{"bike_id":"2c90c3dc-fa5d-4685-a6ab-4843f0ee81af","system_id":"levelo_inurba_marseille","lat":43.2479,"lon":5.374457,"is_reserved":false,"is_disabled":false,"rental_uris":{"android":"levelo://app?vid=2c90c3dc-fa5d-4685-a6ab-4843f0ee81af","ios":"levelo://app?vid=2c90c3dc-fa5d-4685-a6ab-4843f0ee81af"},"vehicle_type_id":"4","last_reported":1687010728,"current_range_meters":30000,"station_id":"ce4bhgh2rcd13ifvqfb0","pricing_plan_id":"free"},{"bike_id":"f1eb4ec9-6403-4dc1-ac12-9e10f82da9c6","system_id":"levelo_inurba_marseille","lat":43.24808,"lon":5.37454,"is_reserved":false,"is_disabled":false,"rental_uris":{"android":"levelo://app?vid=f1eb4ec9-6403-4dc1-ac12-9e10f82da9c6","ios":"levelo://app?vid=f1eb4ec9-6403-4dc1-ac12-9e10f82da9c6"},"vehicle_type_id":"4","last_reported":1687010728,"current_range_meters":15200,"station_id":"ce4bhgh2rcd13ifvqfb0","pricing_plan_id":"free"},{"bike_id":"52eb3ef3-4ea1-446b-8183-17e3bb4be53d","system_id":"levelo_inurba_marseille","lat":43.2479,"lon":5.374457,"is_reserved":false,"is_disabled":false,"rental_uris":{"android":"levelo://app?vid=52eb3ef3-4ea1-446b-8183-17e3bb4be53d","ios":"levelo://app?vid=52eb3ef3-4ea1-446b-8183-17e3bb4be53d"},"vehicle_type_id":"4","last_reported":1687010728,"current_range_meters":13200,"station_id":"ce4bhgh2rcd13ifvqfb0","pricing_plan_id":"free"},{"bike_id":"b4dff0c8-f723-448f-a055-8b6d175ef059","system_id":"levelo_inurba_marseille","lat":43.2479,"lon":5.374457,"is_reserved":false,"is_disabled":false,"rental_uris":{"android":"levelo://app?vid=b4dff0c8-f723-448f-a055-8b6d175ef059","ios":"levelo://app?vid=b4dff0c8-f723-448f-a055-8b6d175ef059"},"vehicle_type_id":"4","last_reported":1687010728,"current_range_meters":18000,"station_id":"ce4bhgh2rcd13ifvqfb0","pricing_plan_id":"free"},{"bike_id":"2989ebd0-3b35-497f-bba3-9d13ed40cf22","system_id":"levelo_inurba_marseille","lat":43.250966,"lon":5.395186,"is_reserved":false,"is_disabled":false,"rental_uris":{"android":"levelo://app?vid=2989ebd0-3b35-497f-bba3-9d13ed40cf22","ios":"levelo://app?vid=2989ebd0-3b35-497f-bba3-9d13ed40cf22"},"vehicle_type_id":"4","last_reported":1687010728,"current_range_meters":31200,"station_id":"ce4bhm12rcd13ifvqgkg","pricing_plan_id":"free"},{"bike_id":"f48cc19f-3bcd-4dc0-893e-8b909a6fbea1","system_id":"levelo_inurba_marseille","lat":43.24693,"lon":5.382096,"is_reserved":false,"is_disabled":false,"rental_uris":{"android":"levelo://app?vid=f48cc19f-3bcd-4dc0-893e-8b909a6fbea1","ios":"levelo://app?vid=f48cc19f-3bcd-4dc0-893e-8b909a6fbea1"},"vehicle_type_id":"4","last_reported":1687010728,"current_range_meters":10800,"station_id":"ce4bhih2rcd13ifvqfr0","pricing_plan_id":"free"},{"bike_id":"5742d650-14cd-49ba-93fa-a1709d32170f","system_id":"levelo_inurba_marseille","lat":43.246461,"lon":5.389014,"is_reserved":false,"is_disabled":false,"rental_uris":{"android":"levelo://app?vid=5742d650-14cd-49ba-93fa-a1709d32170f","ios":"levelo://app?vid=5742d650-14cd-49ba-93fa-a1709d32170f"},"vehicle_type_id":"4","last_reported":1687010728,"current_range_meters":26000,"station_id":"ce4bhg12rcd13ifvqf60","pricing_plan_id":"free"},{"bike_id":"cd3f30d8-8689-4b2a-9184-e48066a269c5","system_id":"levelo_inurba_marseille","lat":43.246467,"lon":5.388984,"is_reserved":false,"is_disabled":false,"rental_uris":{"android":"levelo://app?vid=cd3f30d8-8689-4b2a-9184-e48066a269c5","ios":"levelo://app?vid=cd3f30d8-8689-4b2a-9184-e48066a269c5"},"vehicle_type_id":"4","last_reported":1687010728,"current_range_meters":30400,"station_id":"ce4bhg12rcd13ifvqf60","pricing_plan_id":"free"},