{"last_updated":1732047046,"ttl":60,"version":"2.2","data":{"bikes":[{"bike_id":"cacde89c-5086-4b87-8bcd-a2b586b3345d","system_id":"levelo_inurba_marseille","lat":43.301514,"lon":5.381015,"is_reserved":false,"is_disabled":true,"rental_uris":{"android":"levelo://app?vid=cacde89c-5086-4b87-8bcd-a2b586b3345d","ios":"levelo://app?vid=cacde89c-5086-4b87-8bcd-a2b586b3345d"},"vehicle_type_id":"4","last_reported":1732047046,"current_range_meters":38800,"station_id":"ce4bgjp2rcd13ifvqbh0","pricing_plan_id":"cebpf4jnsgd1na2vs0mg"},{"bike_id":"46c6d75a-6f02-4f33-9930-3f2ae43c6e0c","system_id":"levelo_inurba_marseille","lat":43.25578,"lon":5.38239,"is_reserved":false,"is_disabled":false,"rental_uris":{"android":"levelo://app?vid=46c6d75a-6f02-4f33-9930-3f2ae43c6e0c","ios":"levelo://app?vid=46c6d75a-6f02-4f33-9930-3f2ae43c6e0c"},"vehicle_type_id":"4","last_reported":1732047046,"current_range_meters":28800,"station_id":"ce4bhih2rcd13ifvqfs0","pricing_plan_id":"cebpf4jnsgd1na2vs0mg"},{"bike_id":"b21da081-9879-40dd-84c5-23f42e6f5e53","system_id":"levelo_inurba_marseille","lat":43.27947,"lon":5.41041,"is_reserved":false,"is_disabled":true,"rental_uris":{"android":"levelo://app?vid=b21da081-9879-40dd-84c5-23f42e6f5e53","ios":"levelo://app?vid=b21da081-9879-40dd-84c5-23f42e6f5e53"},"vehicle_type_id":"4","last_reported":1732047046,"current_range_meters":17600,"station_id":"ce4bhnp2rcd13ifvqh0g","pricing_plan_id":"cebpf4jnsgd1na2vs0mg"},{"bike_id":"98fd58c5-ee32-4fee-a47c-fb865a30b758","system_id":"levelo_inurba_marseille","lat":43.25867,"lon":5.39904,"is_reserved":false,"is_disabled":false,"rental_uris":{"android":"levelo://app?vid=98fd58c5-ee32-4fee-a47c-fb865a30b758","ios":"levelo://app?vid=98fd58c5-ee32-4fee-a47c-fb865a30b758"},"vehicle_type_id":"4","last_reported":1732047046,"current_range_meters":27600,"station_id":"ce4bhl92rcd13ifvqghg","pricing_plan_id":"cebpf4jnsgd1na2vs0mg"},{"bike_id":"a892faef-a93d-417e-8807-b225fc9a1ba8","system_id":"levelo_inurba_marseille","lat":43.27998,"lon":5.40014,"is_reserved":false,"is_disabled":false,"rental_uris":{"android":"levelo://app?vid=a892faef-a93d-417e-8807-b225fc9a1ba8","ios":"levelo://app?vid=a892faef-a93d-417e-8807-b225fc9a1ba8"},"vehicle_type_id":"4","last_reported":1732047046,"current_range_meters":38800,"station_id":"ce4bho92rcd13ifvqh4g","pricing_plan_id":"cebpf4jnsgd1na2vs0mg"},{"bike_id":"dc94fd26-5f8e-4f9c-bc63-4eeb71a922dd","system_id":"levelo_inurba_marseille","lat":43.24995,"lon":5.38931,"is_reserved":false,"is_disabled":false,"rental_uris":{"android":"levelo://app?vid=dc94fd26-5f8e-4f9c-bc63-4eeb71a922dd","ios":"levelo://app?vid=dc94fd26-5f8e-4f9c-bc63-4eeb71a922dd"},"vehicle_type_id":"4","last_reported":1732047046,"current_range_meters":39200,"station_id":"ce4bhgp2rcd13ifvqfd0","pricing_plan_id":"cebpf4jnsgd1na2vs0mg"},{"bike_id":"bb9ea763-6e93-4922-b0c2-ce9421dca49b","system_id":"levelo_inurba_marseille","lat":43.25923,"lon":5.40896,"is_reserved":false,"is_disabled":false,"rental_uris":{"android":"levelo://app?vid=bb9ea763-6e93-4922-b0c2-ce9421dca49b","ios":"levelo://app?vid=bb9ea763-6e93-4922-b0c2-ce9421dca49b"},"vehicle_type_id":"4","last_reported":1732047046,"current_range_meters":38800,"station_id":"ce4bhm92rcd13ifvqglg","pricing_plan_id":"cebpf4jnsgd1na2vs0mg"},{"bike_id":"df89f28d-09ef-4d95-998a-b310ab3afea0","system_id":"levelo_inurba_marseille","lat":43.33021,"lon":5.39048,"is_reserved":false,"is_disabled":false,"rental_uris":{"android":"levelo://app?vid=df89f28d-09ef-4d95-998a-b310ab3afea0","ios":"levelo://app?vid=df89f28d-09ef-4d95-998a-b310ab3afea0"},"vehicle_type_id":"4","last_reported":1732047046,"current_range_meters":10800,"station_id":"ce4bhr92rcd13ifvqhrg","pricing_plan_id":"cebpf4jnsgd1na2vs0mg"},{"bike_id":"32c28f4b-d106-47da-ad83-2ad574a3a740","system_id":"levelo_inurba_marseille","lat":43.2953,"lon":5.38545,"is_reserved":false,"is_disabled":false,"rental_uris":{"android":"levelo://app?vid=32c28f4b-d106-47da-ad83-2ad574a3a740","ios":"levelo://app?vid=32c28f4b-d106-47da-ad83-2ad574a3a740"},"vehicle_type_id":"4","last_reported":1732047046,"current_range_meters":38800,"station_id":"ce4bgih2rcd13ifvqba0","pricing_plan_id":"cebpf4jnsgd1na2vs0mg"},{"bike_id":"bb98f687-17c5-4ade-ae57-e7194bc1da11","system_id":"levelo_inurba_marseille","lat":43.28406,"lon":5.37531,"is_reserved":false,"is_disabled":false,"rental_uris":{"android":"levelo://app?vid=bb98f687-17c5-4ade-ae57-e7194bc1da11","ios":"levelo://app?vid=bb98f687-17c5-4ade-ae57-e7194bc1da11"},"vehicle_type_id":"4","last_reported":1732047046,"current_range_meters":35600,"station_id":"ce4bh412rcd13ifvqds0","pricing_plan_id":"cebpf4jnsgd1na2vs0mg"},{"bike_id":"76350c48-5e2a-4fdb-beaa-2f76a219b158","system_id":"levelo_inurba_marseille","lat":43.28152,"lon":5.42643,"is_reserved":false,"is_disabled":false,"rental_uris":{"android":"levelo://app?vid=76350c48-5e2a-4fdb-beaa-2f76a219b158","ios":"levelo://app?vid=76350c48-5e2a-4fdb-beaa-2f76a219b158"},"vehicle_type_id":"4","last_reported":1732047046,"current_range_meters":36800,"station_id":"ce4bhnh2rcd13ifvqgug","pricing_plan_id":"cebpf4jnsgd1na2vs0mg"},{"bike_id":"5000ae5d-7ab8-4bff-ad5c-2f97a33df1a7","system_id":"levelo_inurba_marseille","lat":43.29189,"lon":5.358,"is_reserved":false,"is_disabled":false,"rental_uris":{"android":"levelo://app?vid=5000ae5d-7ab8-4bff-ad5c-2f97a33df1a7","ios":"levelo://app?vid=5000ae5d-7ab8-4bff-ad5c-2f97a33df1a7"},"vehicle_type_id":"4","last_reported":1732047046,"current_range_meters":37600,"station_id":"ce4bhb12rcd13ifvqel0","pricing_plan_id":"cebpf4jnsgd1na2vs0mg"},{"bike_id":"f15b25c1-4ac5-48f3-9bc4-bf7f4729c1c6","system_id":"levelo_inurba_marseille","lat":43.31325,"lon":5.39694,"is_reserved":false,"is_disabled":false,"rental_uris":{"android":"levelo://app?vid=f15b25c1-4ac5-48f3-9bc4-bf7f4729c1c6","ios":"levelo://app?vid=f15b25c1-4ac5-48f3-9bc4-bf7f4729c1c6"},"vehicle_type_id":"4","last_reported":1732047046,"current_range_meters":20000,"station_id":"ce4bgvp2rcd13ifvqcu0","pricing_plan_id":"cebpf4jnsgd1na2vs0mg"},{"bike_id":"0ea93326-5034-4b5e-97b8-0a33b4d38611","system_id":"levelo_inurba_marseille","lat":43.3015,"lon":5.38097,"is_reserved":false,"is_disabled":true,"rental_uris":{"android":"levelo://app?vid=0ea93326-5034-4b5e-97b8-0a33b4d38611","ios":"levelo://app?vid=0ea93326-5034-4b5e-97b8-0a33b4d38611"},"vehicle_type_id":"4","last_reported":1732047046,"current_range_meters":0,"station_id":"ce4bgjp2rcd13ifvqbh0","pricing_plan_id":"cebpf4jnsgd1na2vs0mg"},{"bike_id":"f62c9a9c-3a75-4223-b237-440f9b9ba740","system_id":"levelo_inurba_marseille","lat":43.30292,"lon":5.3921,"is_reserved":false,"is_disabled":false,"rental_uris":{"android":"levelo://app?vid=f62c9a9c-3a75-4223-b237-440f9b9ba740","ios":"levelo://app?vid=f62c9a9c-3a75-4223-b237-440f9b9ba740"},"vehicle_type_id":"4","last_reported":1732047046,"current_range_meters":37600,"station_id":"ce4bgkh2rcd13ifvqbk0","pricing_plan_id":"cebpf4jnsgd1na2vs0mg"},{"bike_id":"92ed161b-7532-4432-a194-1fd992bd18c4","system_id":"levelo_inurba_marseille","lat":43.28452,"lon":5.35891,"is_reserved":false,"is_disabled":false,"rental_uris":{"android":"levelo://app?vid=92ed161b-7532-4432-a194-1fd992bd18c4","ios":"levelo://app?vid=92ed161b-7532-4432-a194-1fd992bd18c4"},"vehicle_type_id":"4","last_reported":1732047046,"current_range_meters":38400,"station_id":"ce4bhah2rcd13ifvqei0","pricing_plan_id":"cebpf4jnsgd1na2vs0mg"},{"bike_id":"0729225f-edb5-4541-b6d9-a2bc5d69ccda","system_id":"levelo_inurba_marseille","lat":43.25082,"lon":5.39515,"is_reserved":false,"is_disabled":false,"rental_uris":{"android":"levelo://app?vid=0729225f-edb5-4541-b6d9-a2bc5d69ccda","ios":"levelo://app?vid=0729225f-edb5-4541-b6d9-a2bc5d69ccda"},"vehicle_type_id":"4","last_reported":1732047046,"current_range_meters":34800,"station_id":"ce4bhm12rcd13ifvqgkg","pricing_plan_id":"cebpf4jnsgd1na2vs0mg"},{"bike_id":"32a02b56-b3c6-4d9c-93da-9ec0f1b496d8","system_id":"levelo_inurba_marseille","lat":43.31484,"lon":5.37306,"is_reserved":false,"is_disabled":false,"rental_uris":{"android":"levelo://app?vid=32a02b56-b3c6-4d9c-93da-9ec0f1b496d8","ios":"levelo://app?vid=32a02b56-b3c6-4d9c-93da-9ec0f1b496d8"},"vehicle_type_id":"4","last_reported":1732047046,"current_range_meters":9200,"station_id":"ce4bgt12rcd13ifvqcd0","pricing_plan_id":"cebpf4jnsgd1na2vs0mg"},{"bike_id":"a977b746-1ded-41bb-8696-691cc9d5cea1","system_id":"levelo_inurba_marseille","lat":43.29875,"lon":5.39733,"is_reserved":false,"is_disabled":false,"rental_uris":{"android":"levelo://app?vid=a977b746-1ded-41bb-8696-691cc9d5cea1","ios":"levelo://app?vid=a977b746-1ded-41bb-8696-691cc9d5cea1"},"vehicle_type_id":"4","last_reported":1732047046,"current_range_meters":19600,"station_id":"ce4bh0h2rcd13ifvqd50","pricing_plan_id":"cebpf4jnsgd1na2vs0mg"},{"bike_id":"befe88e4-12d3-42a9-9602-54a0ae6623c7","system_id":"levelo_inurba_marseille","lat":43.30954,"lon":5.39069,"is_reserved":false,"is_disabled":false,"rental_uris":{"android":"levelo://app?vid=befe88e4-12d3-42a9-9602-54a0ae6623c7","ios":"levelo://app?vid=befe88e4-12d3-42a9-9602-54a0ae6623c7"},"vehicle_type_id":"4","last_reported":1732047046,"current_range_meters":0,"station_id":"ce4bgup2rcd13ifvqco0","pricing_plan_id":"cebpf4jnsgd1na2vs0mg"},{"bike_id":"dbe74249-58cd-403e-a63d-5e0a1c17b552","system_id":"levelo_inurba_marseille","lat":43.24093,"lon":5.37745,"is_reserved":false,"is_disabled":true,"rental_uris":{"android":"levelo://app?vid=dbe74249-58cd-403e-a63d-5e0a1c17b552","ios":"levelo://app?vid=dbe74249-58cd-403e-a63d-5e0a1c17b552"},"vehicle_type_id":"4","last_reported":1732047046,"current_range_meters":0,"station_id":"","pricing_plan_id":"cebpf4jnsgd1na2vs0mg"},{"bike_id":"c85666ef-4eaa-47a5-b89b-259bc40468c0","system_id":"levelo_inurba_marseille","lat":43.33015,"lon":5.39032,"is_reserved":false,"is_disabled":false,"rental_uris":{"android":"levelo://app?vid=c85666ef-4eaa-47a5-b89b-259bc40468c0","ios":"levelo://app?vid=c85666ef-4eaa-47a5-b89b-259bc40468c0"},"vehicle_type_id":"4","last_reported":1732047046,"current_range_meters":38800,"station_id":"ce4bhr92rcd13ifvqhrg","pricing_plan_id":"cebpf4jnsgd1na2vs0mg"},{"bike_id":"beea12d3-7f33-471c-9d5b-cc6e0d1044b9","system_id":"levelo_inurba_marseille","lat":43.3048,"lon":5.37924,"is_reserved":false,"is_disabled":false,"rental_uris":{"android":"levelo://app?vid=beea12d3-7f33-471c-9d5b-cc6e0d1044b9","ios":"levelo://app?vid=beea12d3-7f33-471c-9d5b-cc6e0d1044b9"},"vehicle_type_id":"4","last_reported":1732047046,"current_range_meters":30000,"station_id":"ce4bgup2rcd13ifvqcn0","pricing_plan_id":"cebpf4jnsgd1na2vs0mg"},{"bike_id":"f08f4cf5-2ffe-4009-8a64-8ed06be2f3f9","system_id":"levelo_inurba_marseille","lat":43.30294,"lon":5.36875,"is_reserved":false,"is_disabled":false,"rental_uris":{"android":"levelo://app?vid=f08f4cf5-2ffe-4009-8a64-8ed06be2f3f9","ios":"levelo://app?vid=f08f4cf5-2ffe-4009-8a64-8ed06be2f3f9"},"vehicle_type_id":"4","last_reported":1732047046,"current_range_meters":5600,"station_id":"ce4bgqh2rcd13ifvqc5g","pricing_plan_id":"cebpf4jnsgd1na2vs0mg"},{"bike_id":"4f9e0c5d-f9a7-40d1-b523-25b3d1c98455","system_id":"levelo_inurba_marseille","lat":43.2897,"lon":5.37836,"is_reserved":false,"is_disabled":false,"rental_uris":{"android":"levelo://app?vid=4f9e0c5d-f9a7-40d1-b523-25b3d1c98455","ios":"levelo://app?vid=4f9e0c5d-f9a7-40d1-b523-25b3d1c98455"},"vehicle_type_id":"4","last_reported":1732047046,"current_range_meters":30800,"station_id":"ce4bh9p2rcd13ifvqed0","pricing_plan_id":"cebpf4jnsgd1na2vs0mg"},{"bike_id":"25d2012a-bc68-4733-8ef9-7e23adebd322","system_id":"levelo_inurba_marseille","lat":43.31327,"lon":5.39684,"is_reserved":false,"is_disabled":false,"rental_uris":{"android":"levelo://app?vid=25d2012a-bc68-4733-8ef9-7e23adebd322","ios":"levelo://app?vid=25d2012a-bc68-4733-8ef9-7e23adebd322"},"vehicle_type_id":"4","last_reported":1732047046,"current_range_meters":12400,"station_id":"ce4bgvp2rcd13ifvqcu0","pricing_plan_id":"cebpf4jnsgd1na2vs0mg"},{"bike_id":"94044791-e2f3-4968-a6fa-650fe7f897c4","system_id":"levelo_inurba_marseille","lat":43.29969,"lon":5.38493,"is_reserved":false,"is_disabled":false,"rental_uris":{"android":"levelo://app?vid=94044791-e2f3-4968-a6fa-650fe7f897c4","ios":"levelo://app?vid=94044791-e2f3-4968-a6fa-650fe7f897c4"},"vehicle_type_id":"4","last_reported":1732047046,"current_range_meters":16000,"station_id":"ce4bgj92rcd13ifvqbd0","pricing_plan_id":"cebpf4jnsgd1na2vs0mg"},{"bike_id":"e68eafa6-5e9c-416f-9321-af780aefb27a","system_id":"levelo_inurba_marseille","lat":43.2395,"lon":5.36641,"is_reserved":false,"is_disabled":false,"rental_uris":{"android":"levelo://app?vid=e68eafa6-5e9c-416f-9321-af780aefb27a","ios":"levelo://app?vid=e68eafa6-5e9c-416f-9321-af780aefb27a"},"vehicle_type_id":"4","last_reported":1732047046,"current_range_meters":17200,"station_id":"ce4bhi12rcd13ifvqfp0","pricing_plan_id":"cebpf4jnsgd1na2vs0mg"},{"bike_id":"12b1e5ed-6fe3-452d-a7bb-1572617bbee2","system_id":"levelo_inurba_marseille","lat":43.27989,"lon":5.4166,"is_reserved":false,"is_disabled":false,"rental_uris":{"android":"levelo://app?vid=12b1e5ed-6fe3-452d-a7bb-1572617bbee2","ios":"levelo://app?vid=12b1e5ed-6fe3-452d-a7bb-1572617bbee2"},"vehicle_type_id":"4","last_reported":1732047046,"current_range_meters":38800,"station_id":"ce4bho12rcd13ifvqh1g","pricing_plan_id":"cebpf4jnsgd1na2vs0mg"},{"bike_id":"b750061b-d216-421d-8941-ce9089348f34","system_id":"levelo_inurba_marseille","lat":43.30135,"lon":5.39867,"is_reserved":false,"is_disabled":false,"rental_uris":{"android":"levelo://app?vid=b750061b-d216-421d-8941-ce9089348f34","ios":"levelo://app?vid=b750061b-d216-421d-8941-ce9089348f34"},"vehicle_type_id":"4","last_reported":1732047046,"current_range_meters":38800,"station_id":"ce4bh0h2rcd13ifvqd40","pricing_plan_id":"cebpf4jnsgd1na2vs0mg"},{"bike_id":"4ba8e894-e21f-4601-8e88-8daeaf278168","system_id":"levelo_inurba_marseille","lat":43.25933,"lon":5.40905,"is_reserved":false,"is_disabled":false,"rental_uris":{"android":"levelo://app?vid=4ba8e894-e21f-4601-8e88-8daeaf278168","ios":"levelo://app?vid=4ba8e894-e21f-4601-8e88-8daeaf278168"},"vehicle_type_id":"4","last_reported":1732047046,"current_range_meters":27200,"station_id":"ce4bhm92rcd13ifvqglg","pricing_plan_id":"cebpf4jnsgd1na2vs0mg"},{"bike_id":"c2659746-6ce6-4b62-b896-e18c68afa68c","system_id":"levelo_inurba_marseille","lat":43.31357,"lon":5.38495,"is_reserved":false,"is_disabled":true,"rental_uris":{"android":"levelo://app?vid=c2659746-6ce6-4b62-b896-e18c68afa68c","ios":"levelo://app?vid=c2659746-6ce6-4b62-b896-e18c68afa68c"},"vehicle_type_id":"4","last_reported":1732047046,"current_range_meters":0,"station_id":"ce4bgt92rcd13ifvqcf0","pricing_plan_id":"cebpf4jnsgd1na2vs0mg"},{"bike_id":"9ed866e6-b8c6-4b5a-867c-3b715b87d5f8","system_id":"levelo_inurba_marseille","lat":43.28693,"lon":5.39969,"is_reserved":false,"is_disabled":true,"rental_uris":{"android":"levelo://app?vid=9ed866e6-b8c6-4b5a-867c-3b715b87d5f8","ios":"levelo://app?vid=9ed866e6-b8c6-4b5a-867c-3b715b87d5f8"},"vehicle_type_id":"4","last_reported":1732047046,"current_range_meters":0,"station_id":"ce4bho92rcd13ifvqh3g","pricing_plan_id":"cebpf4jnsgd1na2vs0mg"},{"bike_id":"85308c21-24d3-4ff7-9073-790d239a9901","system_id":"levelo_inurba_marseille","lat":43.31071,"lon":5.38342,"is_reserved":false,"is_disabled":true,"rental_uris":{"android":"levelo://app?vid=85308c21-24d3-4ff7-9073-790d239a9901","ios":"levelo://app?vid=85308c21-24d3-4ff7-9073-790d239a9901"},"vehicle_type_id":"4","last_reported":1732047046,"current_range_meters":35600,"station_id":"ce4bgv92rcd13ifvqcr0","pricing_plan_id":"cebpf4jnsgd1na2vs0mg"},{"bike_id":"de208543-9b1f-469d-95ed-a601b777cb16","system_id":"levelo_inurba_marseille","lat":43.24179,"lon":5.39729,"is_reserved":false,"is_disabled":true,"rental_uris":{"android":"levelo://app?vid=de208543-9b1f-469d-95ed-a601b777cb16","ios":"levelo://app?vid=de208543-9b1f-469d-95ed-a601b777cb16"},"vehicle_type_id":"4","last_reported":1732047046,"current_range_meters":1200,"station_id":"ce4bhn12rcd13ifvqgpg","pricing_plan_id":"cebpf4jnsgd1na2vs0mg"},{"bike_id":"f2ca0235-9c69-43c7-abf6-aae5dc943f37","system_id":"levelo_inurba_marseille","lat":43.29783,"lon":5.3711,"is_reserved":false,"is_disabled":false,"rental_uris":{"android":"levelo://app?vid=f2ca0235-9c69-43c7-abf6-aae5dc943f37","ios":"levelo://app?vid=f2ca0235-9c69-43c7-abf6-aae5dc943f37"},"vehicle_type_id":"4","last_reported":1732047046,"current_range_meters":38800,"station_id":"ce4bgop2rcd13ifvqc1g","pricing_plan_id":"cebpf4jnsgd1na2vs0mg"},{"bike_id":"6b4fd609-2a55-4613-900a-ff42f37e922f","system_id":"levelo_inurba_marseille","lat":43.2467,"lon":5.38157,"is_reserved":false,"is_disabled":false,"rental_uris":{"android":"levelo://app?vid=6b4fd609-2a55-4613-900a-ff42f37e922f","ios":"levelo://app?vid=6b4fd609-2a55-4613-900a-ff42f37e922f"},"vehicle_type_id":"4","last_reported":1732047046,"current_range_meters":35200,"station_id":"ce4bhih2rcd13ifvqfr0","pricing_plan_id":"cebpf4jnsgd1na2vs0mg"},{"bike_id":"17868a27-5db2-4257-a0c1-5fe38f8156cc","system_id":"levelo_inurba_marseille","lat":43.28416,"lon":5.3751,"is_reserved":false,"is_disabled":false,"rental_uris":{"android":"levelo://app?vid=17868a27-5db2-4257-a0c1-5fe38f8156cc","ios":"levelo://app?vid=17868a27-5db2-4257-a0c1-5fe38f8156cc"},"vehicle_type_id":"4","last_reported":1732047046,"current_range_meters":23200,"station_id":"ce4bh412rcd13ifvqds0","pricing_plan_id":"cebpf4jnsgd1na2vs0mg"},{"bike_id":"2b5d7a4d-5b25-4b80-84d9-e10589e3033b","system_id":"levelo_inurba_marseille","lat":43.23966,"lon":5.3663,"is_reserved":false,"is_disabled":true,"rental_uris":{"android":"levelo://app?vid=2b5d7a4d-5b25-4b80-84d9-e10589e3033b","ios":"levelo://app?vid=2b5d7a4d-5b25-4b80-84d9-e10589e3033b"},"vehicle_type_id":"4","last_reported":1732047046,"current_range_meters":30400,"station_id":"ce4bhi12rcd13ifvqfp0","pricing_plan_id":"cebpf4jnsgd1na2vs0mg"},{"bike_id":"645e3cc3-5d53-4fad-b652-8da2295d3996","system_id":"levelo_inurba_marseille","lat":43.31753,"lon":5.39006,"is_reserved":false,"is_disabled":false,"rental_uris":{"android":"levelo://app?vid=645e3cc3-5d53-4fad-b652-8da2295d3996","ios":"levelo://app?vid=645e3cc3-5d53-4fad-b652-8da2295d3996"},"vehicle_type_id":"4","last_reported":1732047046,"current_range_meters":25600,"station_id":"ce4bhqp2rcd13ifvqhng","pricing_plan_id":"cebpf4jnsgd1na2vs0mg"},{"bike_id":"a4d0d86f-c13a-4aed-8602-dabadf1ae451","system_id":"levelo_inurba_marseille","lat":43.31699,"lon":5.43702,"is_reserved":false,"is_disabled":false,"rental_uris":{"android":"levelo://app?vid=a4d0d86f-c13a-4aed-8602-dabadf1ae451","ios":"levelo://app?vid=a4d0d86f-c13a-4aed-8602-dabadf1ae451"},"vehicle_type_id":"4","last_reported":1732047046,"current_range_meters":8400,"station_id":"ce4bhp92rcd13ifvqhcg","pricing_plan_id":"cebpf4jnsgd1na2vs0mg"},{"bike_id":"e3511c0c-eb2b-4100-bb2d-c5ebcd644bea","system_id":"levelo_inurba_marseille","lat":43.23955,"lon":5.36635,"is_reserved":false,"is_disabled":true,"rental_uris":{"android":"levelo://app?vid=e3511c0c-eb2b-4100-bb2d-c5ebcd644bea","ios":"levelo://app?vid=e3511c0c-eb2b-4100-bb2d-c5ebcd644bea"},"vehicle_type_id":"4","last_reported":1732047046,"current_range_meters":34000,"station_id":"ce4bhi12rcd13ifvqfp0","pricing_plan_id":"cebpf4jnsgd1na2vs0mg"},{"bike_id":"7dc2540e-5c15-49cc-843d-b22dafd2ded0","system_id":"levelo_inurba_marseille","lat":43.33757,"lon":5.37417,"is_reserved":false,"is_disabled":false,"rental_uris":{"android":"levelo://app?vid=7dc2540e-5c15-49cc-843d-b22dafd2ded0","ios":"levelo://app?vid=7dc2540e-5c15-49cc-843d-b22dafd2ded0"},"vehicle_type_id":"4","last_reported":1732047046,"current_range_meters":34800,"station_id":"","pricing_plan_id":"cebpf4jnsgd1na2vs0mg"},{"bike_id":"5917a06d-1a89-42ee-9c96-70b3e49f2520","system_id":"levelo_inurba_marseille","lat":43.31689,"lon":5.40462,"is_reserved":false,"is_disabled":true,"rental_uris":{"android":"levelo://app?vid=5917a06d-1a89-42ee-9c96-70b3e49f2520","ios":"levelo://app?vid=5917a06d-1a89-42ee-9c96-70b3e49f2520"},"vehicle_type_id":"4","last_reported":1732047046,"current_range_meters":10000,"station_id":"ce4bh012rcd13ifvqd00","pricing_plan_id":"cebpf4jnsgd1na2vs0mg"},{"bike_id":"4f9afd8d-edee-4af3-881a-dba0fbad4a10","system_id":"levelo_inurba_marseille","lat":43.29529,"lon":5.38534,"is_reserved":false,"is_disabled":false,"rental_uris":{"android":"levelo://app?vid=4f9afd8d-edee-4af3-881a-dba0fbad4a10","ios":"levelo://app?vid=4f9afd8d-edee-4af3-881a-dba0fbad4a10"},"vehicle_type_id":"4","last_reported":1732047046,"current_range_meters":36800,"station_id":"ce4bgih2rcd13ifvqba0","pricing_plan_id":"cebpf4jnsgd1na2vs0mg"},{"bike_id":"497454ce-e4eb-4dce-94e8-18190e4c429b","system_id":"levelo_inurba_marseille","lat":43.27819,"lon":5.40716,"is_reserved":false,"is_disabled":true,"rental_uris":{"android":"levelo://app?vid=497454ce-e4eb-4dce-94e8-18190e4c429b","ios":"levelo://app?vid=497454ce-e4eb-4dce-94e8-18190e4c429b"},"vehicle_type_id":"4","last_reported":1732047046,"current_range_meters":0,"station_id":"ce4bhnh2rcd13ifvqgtg","pricing_plan_id":"cebpf4jnsgd1na2vs0mg"},{"bike_id":"ecf6e5c4-c87c-4b1a-a8c7-1e6b23333b2c","system_id":"levelo_inurba_marseille","lat":43.30308,"lon":5.39211,"is_reserved":false,"is_disabled":false,"rental_uris":{"android":"levelo://app?vid=ecf6e5c4-c87c-4b1a-a8c7-1e6b23333b2c","ios":"levelo://app?vid=ecf6e5c4-c87c-4b1a-a8c7-1e6b23333b2c"},"vehicle_type_id":"4","last_reported":1732047046,"current_range_meters":3600,"station_id":"ce4bgkh2rcd13ifvqbk0","pricing_plan_id":"cebpf4jnsgd1na2vs0mg"},{"bike_id":"55f95fd1-6acd-4347-bb4c-6a144aacc036","system_id":"levelo_inurba_marseille","lat":43.28461,"lon":5.35884,"is_reserved":false,"is_disabled":false,"rental_uris":{"android":"levelo://app?vid=55f95fd1-6acd-4347-bb4c-6a144aacc036","ios":"levelo://app?vid=55f95fd1-6acd-4347-bb4c-6a144aacc036"},"vehicle_type_id":"4","last_reported":1732047046,"current_range_meters":38800,"station_id":"ce4bhah2rcd13ifvqei0","pricing_plan_id":"cebpf4jnsgd1na2vs0mg"},{"bike_id":"c1c3a3f1-9cc6-47b2-9eb7-bd10d04179dd","system_id":"levelo_inurba_marseille","lat":43.26195,"lon":5.37932,"is_reserved":false,"is_disabled":false,"rental_uris":{"android":"levelo://app?vid=c1c3a3f1-9cc6-47b2-9eb7-bd10d04179dd","ios":"levelo://app?vid=c1c3a3f1-9cc6-47b2-9eb7-bd10d04179dd"},"vehicle_type_id":"4","last_reported":1732047046,"current_range_meters":22400,"station_id":"ce4bhjp2rcd13ifvqg90","pricing_plan_id":"cebpf4jnsgd1na2vs0mg"},{"bike_id":"3c885cf1-0cce-4ad4-b825-06394af6c46e","system_id":"levelo_inurba_marseille","lat":43.29585,"lon":5.36749,"is_reserved":false,"is_disabled":false,"rental_uris":{"android":"levelo://app?vid=3c885cf1-0cce-4ad4-b825-06394af6c46e","ios":"levelo://app?vid=3c885cf1-0cce-4ad4-b825-06394af6c46e"},"vehicle_type_id":"4","last_reported":1732047046,"current_range_meters":39200,"station_id":"ce4bgph2rcd13ifvqc2g","pricing_plan_id":"cebpf4jnsgd1na2vs0mg"},{"bike_id":"5f07201c-bcb3-434b-a8fd-71f1088cb631","system_id":"levelo_inurba_marseille","lat":43.33718,"lon":5.39181,"is_reserved":false,"is_disabled":false,"rental_uris":{"android":"levelo://app?vid=5f07201c-bcb3-434b-a8fd-71f1088cb631","ios":"levelo://app?vid=5f07201c-bcb3-434b-a8fd-71f1088cb631"},"vehicle_type_id":"4","last_reported":1732047046,"current_range_meters":12400,"station_id":"ce4bhr92rcd13ifvqhsg","pricing_plan_id":"cebpf4jnsgd1na2vs0mg"},{"bike_id":"dc164298-2222-4ca7-92b0-fbbc273ecb2a","system_id":"levelo_inurba_marseille","lat":43.26769,"lon":5.39417,"is_reserved":false,"is_disabled":false,"rental_uris":{"android":"levelo://app?vid=dc164298-2222-4ca7-92b0-fbbc273ecb2a","ios":"levelo://app?vid=dc164298-2222-4ca7-92b0-fbbc273ecb2a"},"vehicle_type_id":"4","last_reported":1732047046,"current_range_meters":38800,"station_id":"ce4bhh12rcd13ifvqfg0","pricing_plan_id":"cebpf4jnsgd1na2vs0mg"},{"bike_id":"25073dac-1c4b-4235-88f2-ba7b09ca22ac","system_id":"levelo_inurba_marseille","lat":43.32285,"lon":5.38276,"is_reserved":false,"is_disabled":false,"rental_uris":{"android":"levelo://app?vid=25073dac-1c4b-4235-88f2-ba7b09ca22ac","ios":"levelo://app?vid=25073dac-1c4b-4235-88f2-ba7b09ca22ac"},"vehicle_type_id":"4","last_reported":1732047046,"current_range_meters":20400,"station_id":"ce4bhr12rcd13ifvqhqg","pricing_plan_id":"cebpf4jnsgd1na2vs0mg"},{"bike_id":"1283736e-9dda-457a-9c8c-5ecb34c836da","system_id":"levelo_inurba_marseille","lat":43.28718,"lon":5.36094,"is_reserved":false,"is_disabled":false,"rental_uris":{"android":"levelo://app?vid=1283736e-9dda-457a-9c8c-5ecb34c836da","ios":"levelo://app?vid=1283736e-9dda-457a-9c8c-5ecb34c836da"},"vehicle_type_id":"4","last_reported":1732047046,"current_range_meters":26800,"station_id":"cki0cbj6b192h4jlfktg","pricing_plan_id":"cebpf4jnsgd1na2vs0mg"},{"bike_id":"37f14134-d611-451c-9aaa-25a59bd49fe3","system_id":"levelo_inurba_marseille","lat":43.29875,"lon":5.39735,"is_reserved":false,"is_disabled":true,"rental_uris":{"android":"levelo://app?vid=37f14134-d611-451c-9aaa-25a59bd49fe3","ios":"levelo://app?vid=37f14134-d611-451c-9aaa-25a59bd49fe3"},"vehicle_type_id":"4","last_reported":1732047046,"current_range_meters":38800,"station_id":"ce4bh0h2rcd13ifvqd50","pricing_plan_id":"cebpf4jnsgd1na2vs0mg"},{"bike_id":"3b7d8bb6-9afb-4f3e-94ad-7bc3814d280b","system_id":"levelo_inurba_marseille","lat":43.28435,"lon":5.39188,"is_reserved":false,"is_disabled":false,"rental_uris":{"android":"levelo://app?vid=3b7d8bb6-9afb-4f3e-94ad-7bc3814d280b","ios":"levelo://app?vid=3b7d8bb6-9afb-4f3e-94ad-7bc3814d280b"},"vehicle_type_id":"4","last_reported":1732047046,"current_range_meters":28400,"station_id":"ce4bhoh2rcd13ifvqh5g","pricing_plan_id":"cebpf4jnsgd1na2vs0mg"},{"bike_id":"dc7fa527-4def-471c-bced-6291e149d306","system_id":"levelo_inurba_marseille","lat":43.27817,"lon":5.40706,"is_reserved":false,"is_disabled":true,"rental_uris":{"android":"levelo://app?vid=dc7fa527-4def-471c-bced-6291e149d306","ios":"levelo://app?vid=dc7fa527-4def-471c-bced-6291e149d306"},"vehicle_type_id":"4","last_reported":1732047046,"current_range_meters":8800,"station_id":"ce4bhnh2rcd13ifvqgtg","pricing_plan_id":"cebpf4jnsgd1na2vs0mg"},{"bike_id":"fe466b38-f08e-4c08-bae1-f457152e4063","system_id":"levelo_inurba_marseille","lat":43.29412,"lon":5.38625,"is_reserved":false,"is_disabled":true,"rental_uris":{"android":"levelo://app?vid=fe466b38-f08e-4c08-bae1-f457152e4063","ios":"levelo://app?vid=fe466b38-f08e-4c08-bae1-f457152e4063"},"vehicle_type_id":"4","last_reported":1732047046,"current_range_meters":1600,"station_id":"ce4bh2h2rcd13ifvqdh0","pricing_plan_id":"cebpf4jnsgd1na2vs0mg"},{"bike_id":"d674a550-723f-4e20-a0c2-89aa344c2ade","system_id":"levelo_inurba_marseille","lat":43.28206,"lon":5.4438,"is_reserved":false,"is_disabled":true,"rental_uris":{"android":"levelo://app?vid=d674a550-723f-4e20-a0c2-89aa344c2ade","ios":"levelo://app?vid=d674a550-723f-4e20-a0c2-89aa344c2ade"},"vehicle_type_id":"4","last_reported":1732047046,"current_range_meters":400,"station_id":"","pricing_plan_id":"cebpf4jnsgd1na2vs0mg"},{"bike_id":"676f965d-ced7-4bcf-9e72-3f3518021c38","system_id":"levelo_inurba_marseille","lat":43.30655,"lon":5.40097,"is_reserved":false,"is_disabled":false,"rental_uris":{"android":"levelo://app?vid=676f965d-ced7-4bcf-9e72-3f3518021c38","ios":"levelo://app?vid=676f965d-ced7-4bcf-9e72-3f3518021c38"},"vehicle_type_id":"4","last_reported":1732047046,"current_range_meters":32800,"station_id":"ce4bh112rcd13ifvqda0","pricing_plan_id":"cebpf4jnsgd1na2vs0mg"},{"bike_id":"73de2cc8-4db3-417a-9abb-3cffa18feca4","system_id":"levelo_inurba_marseille","lat":43.28415,"lon":5.37505,"is_reserved":false,"is_disabled":false,"rental_uris":{"android":"levelo://app?vid=73de2cc8-4db3-417a-9abb-3cffa18feca4","ios":"levelo://app?vid=73de2cc8-4db3-417a-9abb-3cffa18feca4"},"vehicle_type_id":"4","last_reported":1732047046,"current_range_meters":38800,"station_id":"ce4bh412rcd13ifvqds0","pricing_plan_id":"cebpf4jnsgd1na2vs0mg"},{"bike_id":"f5cf085e-8694-4c6f-ba9c-aa6e0d3c58c6","system_id":"levelo_inurba_marseille","lat":43.34606,"lon":5.35462,"is_reserved":false,"is_disabled":true,"rental_uris":{"android":"levelo://app?vid=f5cf085e-8694-4c6f-ba9c-aa6e0d3c58c6","ios":"levelo://app?vid=f5cf085e-8694-4c6f-ba9c-aa6e0d3c58c6"},"vehicle_type_id":"4","last_reported":1732047046,"current_range_meters":16400,"station_id":"","pricing_plan_id":"cebpf4jnsgd1na2vs0mg"},{"bike_id":"3d2beca7-eef0-4bae-98e1-8b3de347272c","system_id":"levelo_inurba_marseille","lat":43.23192,"lon":5.35556,"is_reserved":false,"is_disabled":true,"rental_uris":{"android":"levelo://app?vid=3d2beca7-eef0-4bae-98e1-8b3de347272c","ios":"levelo://app?vid=3d2beca7-eef0-4bae-98e1-8b3de347272c"},"vehicle_type_id":"4","last_reported":1732047046,"current_range_meters":0,"station_id":"ce4bhu92rcd13ifvqi70","pricing_plan_id":"cebpf4jnsgd1na2vs0mg"},{"bike_id":"5552f888-aa05-4d86-8066-0824ea157171","system_id":"levelo_inurba_marseille","lat":43.29278,"lon":5.37177,"is_reserved":false,"is_disabled":false,"rental_uris":{"android":"levelo://app?vid=5552f888-aa05-4d86-8066-0824ea157171","ios":"levelo://app?vid=5552f888-aa05-4d86-8066-0824ea157171"},"vehicle_type_id":"4","last_reported":1732047046,"current_range_meters":38000,"station_id":"ce4bgh92rcd13ifvqb40","pricing_plan_id":"cebpf4jnsgd1na2vs0mg"},{"bike_id":"5b0208d6-124b-4771-8c47-0ad7da20f926","system_id":"levelo_inurba_marseille","lat":43.32365,"lon":5.38884,"is_reserved":false,"is_disabled":false,"rental_uris":{"android":"levelo://app?vid=5b0208d6-124b-4771-8c47-0ad7da20f926","ios":"levelo://app?vid=5b0208d6-124b-4771-8c47-0ad7da20f926"},"vehicle_type_id":"4","last_reported":1732047046,"current_range_meters":7200,"station_id":"ce4bhqp2rcd13ifvqhog","pricing_plan_id":"cebpf4jnsgd1na2vs0mg"},{"bike_id":"1e34b337-e632-4079-8f96-e7d46b527251","system_id":"levelo_inurba_marseille","lat":43.31762,"lon":5.39008,"is_reserved":false,"is_disabled":false,"rental_uris":{"android":"levelo://app?vid=1e34b337-e632-4079-8f96-e7d46b527251","ios":"levelo://app?vid=1e34b337-e632-4079-8f96-e7d46b527251"},"vehicle_type_id":"4","last_reported":1732047046,"current_range_meters":22000,"station_id":"ce4bhqp2rcd13ifvqhng","pricing_plan_id":"cebpf4jnsgd1na2vs0mg"},{"bike_id":"e008ea5b-9c85-47a4-8557-75f660f9a13d","system_id":"levelo_inurba_marseille","lat":43.24389,"lon":5.37056,"is_reserved":false,"is_disabled":false,"rental_uris":{"android":"levelo://app?vid=e008ea5b-9c85-47a4-8557-75f660f9a13d","ios":"levelo://app?vid=e008ea5b-9c85-47a4-8557-75f660f9a13d"},"vehicle_type_id":"4","last_reported":1732047046,"current_range_meters":37600,"station_id":"ce4bhhh2rcd13ifvqfk0","pricing_plan_id":"cebpf4jnsgd1na2vs0mg"},{"bike_id":"f4b6451c-07fa-4369-8a7e-91b7f50d0cf0","system_id":"levelo_inurba_marseille","lat":43.31709,"lon":5.43711,"is_reserved":false,"is_disabled":false,"rental_uris":{"android":"levelo://app?vid=f4b6451c-07fa-4369-8a7e-91b7f50d0cf0","ios":"levelo://app?vid=f4b6451c-07fa-4369-8a7e-91b7f50d0cf0"},"vehicle_type_id":"4","last_reported":1732047046,"current_range_meters":24400,"station_id":"ce4bhp92rcd13ifvqhcg","pricing_plan_id":"cebpf4jnsgd1na2vs0mg"},{"bike_id":"05ca94c9-93ee-49e0-acb9-6e9ade2c639c","system_id":"levelo_inurba_marseille","lat":43.26944,"lon":5.40253,"is_reserved":false,"is_disabled":false,"rental_uris":{"android":"levelo://app?vid=05ca94c9-93ee-49e0-acb9-6e9ade2c639c","ios":"levelo://app?vid=05ca94c9-93ee-49e0-acb9-6e9ade2c639c"},"vehicle_type_id":"4","last_reported":1732047046,"current_range_meters":28800,"station_id":"cjm6bp8fraef2m0cb0m0","pricing_plan_id":"cebpf4jnsgd1na2vs0mg"},{"bike_id":"b3240729-8eb2-4095-8f89-1172cda3d8d4","system_id":"levelo_inurba_marseille","lat":43.29802,"lon":5.40403,"is_reserved":false,"is_disabled":false,"rental_uris":{"android":"levelo://app?vid=b3240729-8eb2-4095-8f89-1172cda3d8d4","ios":"levelo://app?vid=b3240729-8eb2-4095-8f89-1172cda3d8d4"},"vehicle_type_id":"4","last_reported":1732047046,"current_range_meters":38800,"station_id":"ce4bh112rcd13ifvqd90","pricing_plan_id":"cebpf4jnsgd1na2vs0mg"},{"bike_id":"1fdda543-2834-4ac4-a6e6-03047028c136","system_id":"levelo_inurba_marseille","lat":43.29617,"lon":5.37153,"is_reserved":false,"is_disabled":false,"rental_uris":{"android":"levelo://app?vid=1fdda543-2834-4ac4-a6e6-03047028c136","ios":"levelo://app?vid=1fdda543-2834-4ac4-a6e6-03047028c136"},"vehicle_type_id":"4","last_reported":1732047046,"current_range_meters":38000,"station_id":"ce4bgnh2rcd13ifvqc0g","pricing_plan_id":"cebpf4jnsgd1na2vs0mg"},{"bike_id":"ddde93d2-0dd1-42ac-9e68-0bd9d5d1dfbb","system_id":"levelo_inurba_marseille","lat":43.29894,"lon":5.43669,"is_reserved":false,"is_disabled":false,"rental_uris":{"android":"levelo://app?vid=ddde93d2-0dd1-42ac-9e68-0bd9d5d1dfbb","ios":"levelo://app?vid=ddde93d2-0dd1-42ac-9e68-0bd9d5d1dfbb"},"vehicle_type_id":"4","last_reported":1732047046,"current_range_meters":7200,"station_id":"ce4bhpp2rcd13ifvqhfg","pricing_plan_id":"cebpf4jnsgd1na2vs0mg"},{"bike_id":"0587f464-8fd6-430d-9045-f727e016e5fc","system_id":"levelo_inurba_marseille","lat":43.28458,"lon":5.35889,"is_reserved":false,"is_disabled":false,"rental_uris":{"android":"levelo://app?vid=0587f464-8fd6-430d-9045-f727e016e5fc","ios":"levelo://app?vid=0587f464-8fd6-430d-9045-f727e016e5fc"},"vehicle_type_id":"4","last_reported":1732047046,"current_range_meters":38800,"station_id":"ce4bhah2rcd13ifvqei0","pricing_plan_id":"cebpf4jnsgd1na2vs0mg"},{"bike_id":"73515bf0-f044-4f51-a059-4dbe3feae4bb","system_id":"levelo_inurba_marseille","lat":43.31531,"lon":5.38031,"is_reserved":false,"is_disabled":false,"rental_uris":{"android":"levelo://app?vid=73515bf0-f044-4f51-a059-4dbe3feae4bb","ios":"levelo://app?vid=73515bf0-f044-4f51-a059-4dbe3feae4bb"},"vehicle_type_id":"4","last_reported":1732047046,"current_range_meters":19600,"station_id":"ce4bhsp2rcd13ifvqi50","pricing_plan_id":"cebpf4jnsgd1na2vs0mg"},{"bike_id":"426c2584-9e4b-43a3-9d3d-7506fea38c39","system_id":"levelo_inurba_marseille","lat":43.30149,"lon":5.38085,"is_reserved":false,"is_disabled":false,"rental_uris":{"android":"levelo://app?vid=426c2584-9e4b-43a3-9d3d-7506fea38c39","ios":"levelo://app?vid=426c2584-9e4b-43a3-9d3d-7506fea38c39"},"vehicle_type_id":"4","last_reported":1732047046,"current_range_meters":17600,"station_id":"ce4bgjp2rcd13ifvqbh0","pricing_plan_id":"cebpf4jnsgd1na2vs0mg"},{"bike_id":"1769703b-9903-454d-ac38-a754f724b036","system_id":"levelo_inurba_marseille","lat":43.25573,"lon":5.38231,"is_reserved":false,"is_disabled":true,"rental_uris":{"android":"levelo://app?vid=1769703b-9903-454d-ac38-a754f724b036","ios":"levelo://app?vid=1769703b-9903-454d-ac38-a754f724b036"},"vehicle_type_id":"4","last_reported":1732047046,"current_range_meters":0,"station_id":"ce4bhih2rcd13ifvqfs0","pricing_plan_id":"cebpf4jnsgd1na2vs0mg"},{"bike_id":"bc249293-6395-4334-b84a-652f70f197fc","system_id":"levelo_inurba_marseille","lat":43.27631,"lon":5.42646,"is_reserved":false,"is_disabled":true,"rental_uris":{"android":"levelo://app?vid=bc249293-6395-4334-b84a-652f70f197fc","ios":"levelo://app?vid=bc249293-6395-4334-b84a-652f70f197fc"},"vehicle_type_id":"4","last_reported":1732047046,"current_range_meters":0,"station_id":"","pricing_plan_id":"cebpf4jnsgd1na2vs0mg"},{"bike_id":"69dac7f7-2f52-4f5f-a1f0-e5779ca511e2","system_id":"levelo_inurba_marseille","lat":43.30534,"lon":5.38414,"is_reserved":false,"is_disabled":false,"rental_uris":{"android":"levelo://app?vid=69dac7f7-2f52-4f5f-a1f0-e5779ca511e2","ios":"levelo://app?vid=69dac7f7-2f52-4f5f-a1f0-e5779ca511e2"},"vehicle_type_id":"4","last_reported":1732047046,"current_range_meters":25200,"station_id":"ce4bgg92rcd13ifvqb30","pricing_plan_id":"cebpf4jnsgd1na2vs0mg"},{"bike_id":"22481802-0224-4114-ab5c-d5c565cc8e65","system_id":"levelo_inurba_marseille","lat":43.31325,"lon":5.3969,"is_reserved":false,"is_disabled":false,"rental_uris":{"android":"levelo://app?vid=22481802-0224-4114-ab5c-d5c565cc8e65","ios":"levelo://app?vid=22481802-0224-4114-ab5c-d5c565cc8e65"},"vehicle_type_id":"4","last_reported":1732047046,"current_range_meters":22400,"station_id":"ce4bgvp2rcd13ifvqcu0","pricing_plan_id":"cebpf4jnsgd1na2vs0mg"},{"bike_id":"be1dd5f8-91fc-4786-8461-76cd869dae13","system_id":"levelo_inurba_marseille","lat":43.31982,"lon":5.41584,"is_reserved":false,"is_disabled":true,"rental_uris":{"android":"levelo://app?vid=be1dd5f8-91fc-4786-8461-76cd869dae13","ios":"levelo://app?vid=be1dd5f8-91fc-4786-8461-76cd869dae13"},"vehicle_type_id":"4","last_reported":1732047046,"current_range_meters":24800,"station_id":"","pricing_plan_id":"cebpf4jnsgd1na2vs0mg"},{"bike_id":"246aff44-33b5-4b0b-a7a6-700af2ee3dd7","system_id":"levelo_inurba_marseille","lat":43.30588,"lon":5.39351,"is_reserved":false,"is_disabled":false,"rental_uris":{"android":"levelo://app?vid=246aff44-33b5-4b0b-a7a6-700af2ee3dd7","ios":"levelo://app?vid=246aff44-33b5-4b0b-a7a6-700af2ee3dd7"},"vehicle_type_id":"4","last_reported":1732047046,"current_range_meters":25200,"station_id":"ce4bh0p2rcd13ifvqd80","pricing_plan_id":"cebpf4jnsgd1na2vs0mg"},{"bike_id":"64d610a1-b714-4caa-a05f-6091bb0c6f41","system_id":"levelo_inurba_marseille","lat":43.29259,"lon":5.38425,"is_reserved":false,"is_disabled":false,"rental_uris":{"android":"levelo://app?vid=64d610a1-b714-4caa-a05f-6091bb0c6f41","ios":"levelo://app?vid=64d610a1-b714-4caa-a05f-6091bb0c6f41"},"vehicle_type_id":"4","last_reported":1732047046,"current_range_meters":32800,"station_id":"ce4bh692rcd13ifvqea0","pricing_plan_id":"cebpf4jnsgd1na2vs0mg"},{"bike_id":"80ed2145-0455-4da8-ae4a-e36065982ce3","system_id":"levelo_inurba_marseille","lat":43.32358,"lon":5.38889,"is_reserved":false,"is_disabled":false,"rental_uris":{"android":"levelo://app?vid=80ed2145-0455-4da8-ae4a-e36065982ce3","ios":"levelo://app?vid=80ed2145-0455-4da8-ae4a-e36065982ce3"},"vehicle_type_id":"4","last_reported":1732047046,"current_range_meters":11600,"station_id":"ce4bhqp2rcd13ifvqhog","pricing_plan_id":"cebpf4jnsgd1na2vs0mg"},{"bike_id":"db4d5836-b9c0-4774-8034-c43c65bf62b3","system_id":"levelo_inurba_marseille","lat":43.28474,"lon":5.38424,"is_reserved":false,"is_disabled":false,"rental_uris":{"android":"levelo://app?vid=db4d5836-b9c0-4774-8034-c43c65bf62b3","ios":"levelo://app?vid=db4d5836-b9c0-4774-8034-c43c65bf62b3"},"vehicle_type_id":"4","last_reported":1732047046,"current_range_meters":3600,"station_id":"ce4bh512rcd13ifvqe3g","pricing_plan_id":"cebpf4jnsgd1na2vs0mg"},{"bike_id":"f198b97b-88d4-49aa-b205-4610520421a6","system_id":"levelo_inurba_marseille","lat":43.33022,"lon":5.39037,"is_reserved":false,"is_disabled":false,"rental_uris":{"android":"levelo://app?vid=f198b97b-88d4-49aa-b205-4610520421a6","ios":"levelo://app?vid=f198b97b-88d4-49aa-b205-4610520421a6"},"vehicle_type_id":"4","last_reported":1732047046,"current_range_meters":32800,"station_id":"ce4bhr92rcd13ifvqhrg","pricing_plan_id":"cebpf4jnsgd1na2vs0mg"},{"bike_id":"6fe65320-959e-41bb-8132-72e6c31cb31d","system_id":"levelo_inurba_marseille","lat":43.28075,"lon":5.39641,"is_reserved":false,"is_disabled":true,"rental_uris":{"android":"levelo://app?vid=6fe65320-959e-41bb-8132-72e6c31cb31d","ios":"levelo://app?vid=6fe65320-959e-41bb-8132-72e6c31cb31d"},"vehicle_type_id":"4","last_reported":1732047046,"current_range_meters":39200,"station_id":"ce4bho12rcd13ifvqh2g","pricing_plan_id":"cebpf4jnsgd1na2vs0mg"},{"bike_id":"abf2e417-7fd0-4f5e-9afa-64af93f85e22","system_id":"levelo_inurba_marseille","lat":43.31986,"lon":5.38138,"is_reserved":false,"is_disabled":false,"rental_uris":{"android":"levelo://app?vid=abf2e417-7fd0-4f5e-9afa-64af93f85e22","ios":"levelo://app?vid=abf2e417-7fd0-4f5e-9afa-64af93f85e22"},"vehicle_type_id":"4","last_reported":1732047046,"current_range_meters":35200,"station_id":"ce4bhr12rcd13ifvqhpg","pricing_plan_id":"cebpf4jnsgd1na2vs0mg"},{"bike_id":"e7f24bf0-eae1-41a8-93bb-91453789a04a","system_id":"levelo_inurba_marseille","lat":43.28449,"lon":5.35883,"is_reserved":false,"is_disabled":false,"rental_uris":{"android":"levelo://app?vid=e7f24bf0-eae1-41a8-93bb-91453789a04a","ios":"levelo://app?vid=e7f24bf0-eae1-41a8-93bb-91453789a04a"},"vehicle_type_id":"4","last_reported":1732047046,"current_range_meters":14800,"station_id":"ce4bhah2rcd13ifvqei0","pricing_plan_id":"cebpf4jnsgd1na2vs0mg"},{"bike_id":"0cdb8512-6540-4117-8917-ed82390a8a1b","system_id":"levelo_inurba_marseille","lat":43.29038,"lon":5.37565,"is_reserved":false,"is_disabled":false,"rental_uris":{"android":"levelo://app?vid=0cdb8512-6540-4117-8917-ed82390a8a1b","ios":"levelo://app?vid=0cdb8512-6540-4117-8917-ed82390a8a1b"},"vehicle_type_id":"4","last_reported":1732047046,"current_range_meters":38000,"station_id":"ce4bh692rcd13ifvqe90","pricing_plan_id":"cebpf4jnsgd1na2vs0mg"},{"bike_id":"5fe20d58-65ac-4c8a-b149-a2e6de20044d","system_id":"levelo_inurba_marseille","lat":43.2937,"lon":5.37851,"is_reserved":false,"is_disabled":true,"rental_uris":{"android":"levelo://app?vid=5fe20d58-65ac-4c8a-b149-a2e6de20044d","ios":"levelo://app?vid=5fe20d58-65ac-4c8a-b149-a2e6de20044d"},"vehicle_type_id":"4","last_reported":1732047046,"current_range_meters":30800,"station_id":"ce4bgjh2rcd13ifvqbf0","pricing_plan_id":"cebpf4jnsgd1na2vs0mg"},{"bike_id":"70c694b8-609a-4e19-9067-0bd1313ac6f9","system_id":"levelo_inurba_marseille","lat":43.32472,"lon":5.36558,"is_reserved":false,"is_disabled":false,"rental_uris":{"android":"levelo://app?vid=70c694b8-609a-4e19-9067-0bd1313ac6f9","ios":"levelo://app?vid=70c694b8-609a-4e19-9067-0bd1313ac6f9"},"vehicle_type_id":"4","last_reported":1732047046,"current_range_meters":38000,"station_id":"ce4bhs12rcd13ifvqhvg","pricing_plan_id":"cebpf4jnsgd1na2vs0mg"},{"bike_id":"6c884184-cddc-4cc0-aa45-5525e2fb7f75","system_id":"levelo_inurba_marseille","lat":43.23962,"lon":5.36632,"is_reserved":false,"is_disabled":false,"rental_uris":{"android":"levelo://app?vid=6c884184-cddc-4cc0-aa45-5525e2fb7f75","ios":"levelo://app?vid=6c884184-cddc-4cc0-aa45-5525e2fb7f75"},"vehicle_type_id":"4","last_reported":1732047046,"current_range_meters":20000,"station_id":"ce4bhi12rcd13ifvqfp0","pricing_plan_id":"cebpf4jnsgd1na2vs0mg"},{"bike_id":"80eedd34-0175-4976-abe5-d9d191073cb7","system_id":"levelo_inurba_marseille","lat":43.28932,"lon":5.39615,"is_reserved":false,"is_disabled":false,"rental_uris":{"android":"levelo://app?vid=80eedd34-0175-4976-abe5-d9d191073cb7","ios":"levelo://app?vid=80eedd34-0175-4976-abe5-d9d191073cb7"},"vehicle_type_id":"4","last_reported":1732047046,"current_range_meters":36000,"station_id":"ce4bh3h2rcd13ifvqdn0","pricing_plan_id":"cebpf4jnsgd1na2vs0mg"},{"bike_id":"2b891c5b-63d3-46d5-b15a-a179dad84936","system_id":"levelo_inurba_marseille","lat":43.24541,"lon":5.39529,"is_reserved":false,"is_disabled":true,"rental_uris":{"android":"levelo://app?vid=2b891c5b-63d3-46d5-b15a-a179dad84936","ios":"levelo://app?vid=2b891c5b-63d3-46d5-b15a-a179dad84936"},"vehicle_type_id":"4","last_reported":1732047046,"current_range_meters":0,"station_id":"ce4bhlp2rcd13ifvqgjg","pricing_plan_id":"cebpf4jnsgd1na2vs0mg"},{"bike_id":"3df07603-4cc7-450a-9655-3b7606e514c1","system_id":"levelo_inurba_marseille","lat":43.29067,"lon":5.37168,"is_reserved":false,"is_disabled":true,"rental_uris":{"android":"levelo://app?vid=3df07603-4cc7-450a-9655-3b7606e514c1","ios":"levelo://app?vid=3df07603-4cc7-450a-9655-3b7606e514c1"},"vehicle_type_id":"4","last_reported":1732047046,"current_range_meters":16800,"station_id":"ce4bh5p2rcd13ifvqe4g","pricing_plan_id":"cebpf4jnsgd1na2vs0mg"},{"bike_id":"dde16c35-c79b-425d-90fa-b4d361f9fa9c","system_id":"levelo_inurba_marseille","lat":43.31165,"lon":5.38719,"is_reserved":false,"is_disabled":false,"rental_uris":{"android":"levelo://app?vid=dde16c35-c79b-425d-90fa-b4d361f9fa9c","ios":"levelo://app?vid=dde16c35-c79b-425d-90fa-b4d361f9fa9c"},"vehicle_type_id":"4","last_reported":1732047046,"current_range_meters":30400,"station_id":"ce4bgv12rcd13ifvqcp0","pricing_plan_id":"cebpf4jnsgd1na2vs0mg"},{"bike_id":"43679b68-2478-4d79-a5c9-7b258522d608","system_id":"levelo_inurba_marseille","lat":43.30785,"lon":5.37641,"is_reserved":false,"is_disabled":false,"rental_uris":{"android":"levelo://app?vid=43679b68-2478-4d79-a5c9-7b258522d608","ios":"levelo://app?vid=43679b68-2478-4d79-a5c9-7b258522d608"},"vehicle_type_id":"4","last_reported":1732047046,"current_range_meters":16400,"station_id":"ce4bgv92rcd13ifvqcq0","pricing_plan_id":"cebpf4jnsgd1na2vs0mg"},{"bike_id":"6fd929c9-c29a-49da-bc01-964d6e811e3e","system_id":"levelo_inurba_marseille","lat":43.30904,"lon":5.36849,"is_reserved":false,"is_disabled":false,"rental_uris":{"android":"levelo://app?vid=6fd929c9-c29a-49da-bc01-964d6e811e3e","ios":"levelo://app?vid=6fd929c9-c29a-49da-bc01-964d6e811e3e"},"vehicle_type_id":"4","last_reported":1732047046,"current_range_meters":36800,"station_id":"ce4bgn92rcd13ifvqbvg","pricing_plan_id":"cebpf4jnsgd1na2vs0mg"},{"bike_id":"24b2c3eb-8b9b-40a7-8aad-177c7a5a5f47","system_id":"levelo_inurba_marseille","lat":43.26932,"lon":5.38911,"is_reserved":false,"is_disabled":true,"rental_uris":{"android":"levelo://app?vid=24b2c3eb-8b9b-40a7-8aad-177c7a5a5f47","ios":"levelo://app?vid=24b2c3eb-8b9b-40a7-8aad-177c7a5a5f47"},"vehicle_type_id":"4","last_reported":1732047046,"current_range_meters":0,"station_id":"ce4bhhh2rcd13ifvqfl0","pricing_plan_id":"cebpf4jnsgd1na2vs0mg"},{"bike_id":"20bc86cc-953f-4980-87b4-0f679ec890f4","system_id":"levelo_inurba_marseille","lat":43.2919,"lon":5.35795,"is_reserved":false,"is_disabled":false,"rental_uris":{"android":"levelo://app?vid=20bc86cc-953f-4980-87b4-0f679ec890f4","ios":"levelo://app?vid=20bc86cc-953f-4980-87b4-0f679ec890f4"},"vehicle_type_id":"4","last_reported":1732047046,"current_range_meters":10800,"station_id":"ce4bhb12rcd13ifvqel0","pricing_plan_id":"cebpf4jnsgd1na2vs0mg"},{"bike_id":"4bd268f3-b708-480d-b1f5-141d19aa9947","system_id":"levelo_inurba_marseille","lat":43.2447,"lon":5.37793,"is_reserved":false,"is_disabled":true,"rental_uris":{"android":"levelo://app?vid=4bd268f3-b708-480d-b1f5-141d19aa9947","ios":"levelo://app?vid=4bd268f3-b708-480d-b1f5-141d19aa9947"},"vehicle_type_id":"4","last_reported":1732047046,"current_range_meters":0,"station_id":"","pricing_plan_id":"cebpf4jnsgd1na2vs0mg"},{"bike_id":"a78bc1fa-f508-4cab-a5e8-89111600fa30","system_id":"levelo_inurba_marseille","lat":43.3415,"lon":5.40908,"is_reserved":false,"is_disabled":false,"rental_uris":{"android":"levelo://app?vid=a78bc1fa-f508-4cab-a5e8-89111600fa30","ios":"levelo://app?vid=a78bc1fa-f508-4cab-a5e8-89111600fa30"},"vehicle_type_id":"4","last_reported":1732047046,"current_range_meters":33200,"station_id":"ce4bhqh2rcd13ifvqhlg","pricing_plan_id":"cebpf4jnsgd1na2vs0mg"},{"bike_id":"9b4d52a8-a22b-418c-a556-65afaca3a235","system_id":"levelo_inurba_marseille","lat":43.33757,"lon":5.37458,"is_reserved":false,"is_disabled":false,"rental_uris":{"android":"levelo://app?vid=9b4d52a8-a22b-418c-a556-65afaca3a235","ios":"levelo://app?vid=9b4d52a8-a22b-418c-a556-65afaca3a235"},"vehicle_type_id":"4","last_reported":1732047046,"current_range_meters":20400,"station_id":"","pricing_plan_id":"cebpf4jnsgd1na2vs0mg"},{"bike_id":"0865269c-d4cf-4423-9d9e-e76dc6f775c6","system_id":"levelo_inurba_marseille","lat":43.2942,"lon":5.38609,"is_reserved":false,"is_disabled":false,"rental_uris":{"android":"levelo://app?vid=0865269c-d4cf-4423-9d9e-e76dc6f775c6","ios":"levelo://app?vid=0865269c-d4cf-4423-9d9e-e76dc6f775c6"},"vehicle_type_id":"4","last_reported":1732047046,"current_range_meters":29600,"station_id":"ce4bh2h2rcd13ifvqdh0","pricing_plan_id":"cebpf4jnsgd1na2vs0mg"},{"bike_id":"4d5fa4b8-d1ce-4e4b-87de-4eea68a4f2bd","system_id":"levelo_inurba_marseille","lat":43.30588,"lon":5.39353,"is_reserved":false,"is_disabled":false,"rental_uris":{"android":"levelo://app?vid=4d5fa4b8-d1ce-4e4b-87de-4eea68a4f2bd","ios":"levelo://app?vid=4d5fa4b8-d1ce-4e4b-87de-4eea68a4f2bd"},"vehicle_type_id":"4","last_reported":1732047046,"current_range_meters":10000,"station_id":"ce4bh0p2rcd13ifvqd80","pricing_plan_id":"cebpf4jnsgd1na2vs0mg"},{"bike_id":"d5e267a3-17b3-48f0-a5b7-c9834438a199","system_id":"levelo_inurba_marseille","lat":43.29805,"lon":5.40399,"is_reserved":false,"is_disabled":false,"rental_uris":{"android":"levelo://app?vid=d5e267a3-17b3-48f0-a5b7-c9834438a199","ios":"levelo://app?vid=d5e267a3-17b3-48f0-a5b7-c9834438a199"},"vehicle_type_id":"4","last_reported":1732047046,"current_range_meters":38800,"station_id":"ce4bh112rcd13ifvqd90","pricing_plan_id":"cebpf4jnsgd1na2vs0mg"},{"bike_id":"a12d6d5f-0f23-4ede-a12b-384b4925b55d","system_id":"levelo_inurba_marseille","lat":43.28406,"lon":5.37506,"is_reserved":false,"is_disabled":false,"rental_uris":{"android":"levelo://app?vid=a12d6d5f-0f23-4ede-a12b-384b4925b55d","ios":"levelo://app?vid=a12d6d5f-0f23-4ede-a12b-384b4925b55d"},"vehicle_type_id":"4","last_reported":1732047046,"current_range_meters":38400,"station_id":"ce4bh412rcd13ifvqds0","pricing_plan_id":"cebpf4jnsgd1na2vs0mg"},{"bike_id":"5c215695-7517-4c59-b4ed-3d09ca94c869","system_id":"levelo_inurba_marseille","lat":43.24801,"lon":5.37446,"is_reserved":false,"is_disabled":true,"rental_uris":{"android":"levelo://app?vid=5c215695-7517-4c59-b4ed-3d09ca94c869","ios":"levelo://app?vid=5c215695-7517-4c59-b4ed-3d09ca94c869"},"vehicle_type_id":"4","last_reported":1732047046,"current_range_meters":0,"station_id":"ce4bhgh2rcd13ifvqfb0","pricing_plan_id":"cebpf4jnsgd1na2vs0mg"},{"bike_id":"e74e8692-56b5-455e-b107-3674a73c30f0","system_id":"levelo_inurba_marseille","lat":43.2927,"lon":5.36839,"is_reserved":false,"is_disabled":true,"rental_uris":{"android":"levelo://app?vid=e74e8692-56b5-455e-b107-3674a73c30f0","ios":"levelo://app?vid=e74e8692-56b5-455e-b107-3674a73c30f0"},"vehicle_type_id":"4","last_reported":1732047046,"current_range_meters":800,"station_id":"ce4bhbp2rcd13ifvqesg","pricing_plan_id":"cebpf4jnsgd1na2vs0mg"},{"bike_id":"b8e0ff19-cfbf-49c3-a9f8-f8dcefd4b613","system_id":"levelo_inurba_marseille","lat":43.27672,"lon":5.38892,"is_reserved":false,"is_disabled":true,"rental_uris":{"android":"levelo://app?vid=b8e0ff19-cfbf-49c3-a9f8-f8dcefd4b613","ios":"levelo://app?vid=b8e0ff19-cfbf-49c3-a9f8-f8dcefd4b613"},"vehicle_type_id":"4","last_reported":1732047046,"current_range_meters":36400,"station_id":"ce4bhi12rcd13ifvqfo0","pricing_plan_id":"cebpf4jnsgd1na2vs0mg"},{"bike_id":"b46c9371-b004-46c9-a3dd-ee54f659d0b5","system_id":"levelo_inurba_marseille","lat":43.27421,"lon":5.39412,"is_reserved":false,"is_disabled":false,"rental_uris":{"android":"levelo://app?vid=b46c9371-b004-46c9-a3dd-ee54f659d0b5","ios":"levelo://app?vid=b46c9371-b004-46c9-a3dd-ee54f659d0b5"},"vehicle_type_id":"4","last_reported":1732047046,"current_range_meters":12000,"station_id":"ce4bhdp2rcd13ifvqf20","pricing_plan_id":"cebpf4jnsgd1na2vs0mg"},{"bike_id":"6a4a5079-d2ef-4951-93b7-ecaeefc95070","system_id":"levelo_inurba_marseille","lat":43.24993,"lon":5.38933,"is_reserved":false,"is_disabled":false,"rental_uris":{"android":"levelo://app?vid=6a4a5079-d2ef-4951-93b7-ecaeefc95070","ios":"levelo://app?vid=6a4a5079-d2ef-4951-93b7-ecaeefc95070"},"vehicle_type_id":"4","last_reported":1732047046,"current_range_meters":22800,"station_id":"ce4bhgp2rcd13ifvqfd0","pricing_plan_id":"cebpf4jnsgd1na2vs0mg"},{"bike_id":"eaa42bfa-9e14-44cc-8771-e7142d3132b3","system_id":"levelo_inurba_marseille","lat":43.30799,"lon":5.43518,"is_reserved":false,"is_disabled":false,"rental_uris":{"android":"levelo://app?vid=eaa42bfa-9e14-44cc-8771-e7142d3132b3","ios":"levelo://app?vid=eaa42bfa-9e14-44cc-8771-e7142d3132b3"},"vehicle_type_id":"4","last_reported":1732047046,"current_range_meters":31200,"station_id":"ce4bhph2rcd13ifvqheg","pricing_plan_id":"cebpf4jnsgd1na2vs0mg"},{"bike_id":"fb9f73fb-e251-464e-a0e5-a7697405831b","system_id":"levelo_inurba_marseille","lat":43.30317,"lon":5.4043,"is_reserved":false,"is_disabled":false,"rental_uris":{"android":"levelo://app?vid=fb9f73fb-e251-464e-a0e5-a7697405831b","ios":"levelo://app?vid=fb9f73fb-e251-464e-a0e5-a7697405831b"},"vehicle_type_id":"4","last_reported":1732047046,"current_range_meters":4000,"station_id":"ce4bh012rcd13ifvqd10","pricing_plan_id":"cebpf4jnsgd1na2vs0mg"},{"bike_id":"1462f68e-113f-431d-9d5b-f4d7f987f2b8","system_id":"levelo_inurba_marseille","lat":43.28481,"lon":5.38416,"is_reserved":false,"is_disabled":true,"rental_uris":{"android":"levelo://app?vid=1462f68e-113f-431d-9d5b-f4d7f987f2b8","ios":"levelo://app?vid=1462f68e-113f-431d-9d5b-f4d7f987f2b8"},"vehicle_type_id":"4","last_reported":1732047046,"current_range_meters":12400,"station_id":"ce4bh512rcd13ifvqe3g","pricing_plan_id":"cebpf4jnsgd1na2vs0mg"},{"bike_id":"c0ac236e-b052-4993-a73f-8d47ad75afde","system_id":"levelo_inurba_marseille","lat":43.28073,"lon":5.39624,"is_reserved":false,"is_disabled":false,"rental_uris":{"android":"levelo://app?vid=c0ac236e-b052-4993-a73f-8d47ad75afde","ios":"levelo://app?vid=c0ac236e-b052-4993-a73f-8d47ad75afde"},"vehicle_type_id":"4","last_reported":1732047046,"current_range_meters":7200,"station_id":"ce4bho12rcd13ifvqh2g","pricing_plan_id":"cebpf4jnsgd1na2vs0mg"},{"bike_id":"98ecb95d-710f-4a7b-b429-73ca51942102","system_id":"levelo_inurba_marseille","lat":43.284069,"lon":5.375245,"is_reserved":false,"is_disabled":false,"rental_uris":{"android":"levelo://app?vid=98ecb95d-710f-4a7b-b429-73ca51942102","ios":"levelo://app?vid=98ecb95d-710f-4a7b-b429-73ca51942102"},"vehicle_type_id":"4","last_reported":1732047046,"current_range_meters":24400,"station_id":"ce4bh412rcd13ifvqds0","pricing_plan_id":"cebpf4jnsgd1na2vs0mg"},{"bike_id":"f8611443-3338-4c70-8d03-bb8d90627937","system_id":"levelo_inurba_marseille","lat":43.2871,"lon":5.37933,"is_reserved":false,"is_disabled":true,"rental_uris":{"android":"levelo://app?vid=f8611443-3338-4c70-8d03-bb8d90627937","ios":"levelo://app?vid=f8611443-3338-4c70-8d03-bb8d90627937"},"vehicle_type_id":"4","last_reported":1732047046,"current_range_meters":0,"station_id":"ce4bh9p2rcd13ifvqec0","pricing_plan_id":"cebpf4jnsgd1na2vs0mg"},{"bike_id":"0b733133-03c9-4766-961e-92b775b50bbc","system_id":"levelo_inurba_marseille","lat":43.28193,"lon":5.44265,"is_reserved":false,"is_disabled":true,"rental_uris":{"android":"levelo://app?vid=0b733133-03c9-4766-961e-92b775b50bbc","ios":"levelo://app?vid=0b733133-03c9-4766-961e-92b775b50bbc"},"vehicle_type_id":"4","last_reported":1732047046,"current_range_meters":0,"station_id":"","pricing_plan_id":"cebpf4jnsgd1na2vs0mg"},{"bike_id":"87f72484-0dd8-4a5a-8b7f-bb079e67d618","system_id":"levelo_inurba_marseille","lat":43.29586,"lon":5.3675,"is_reserved":false,"is_disabled":false,"rental_uris":{"android":"levelo://app?vid=87f72484-0dd8-4a5a-8b7f-bb079e67d618","ios":"levelo://app?vid=87f72484-0dd8-4a5a-8b7f-bb079e67d618"},"vehicle_type_id":"4","last_reported":1732047046,"current_range_meters":27600,"station_id":"ce4bgph2rcd13ifvqc2g","pricing_plan_id":"cebpf4jnsgd1na2vs0mg"},{"bike_id":"d9a9fcd3-dfff-41da-81e5-54e419d0b57c","system_id":"levelo_inurba_marseille","lat":43.28613,"lon":5.35101,"is_reserved":false,"is_disabled":false,"rental_uris":{"android":"levelo://app?vid=d9a9fcd3-dfff-41da-81e5-54e419d0b57c","ios":"levelo://app?vid=d9a9fcd3-dfff-41da-81e5-54e419d0b57c"},"vehicle_type_id":"4","last_reported":1732047046,"current_range_meters":11600,"station_id":"ce4bhch2rcd13ifvqeug","pricing_plan_id":"cebpf4jnsgd1na2vs0mg"},{"bike_id":"0cb9fa22-9ef4-4bf5-9521-58ea78cc59b4","system_id":"levelo_inurba_marseille","lat":43.30144,"lon":5.37425,"is_reserved":false,"is_disabled":false,"rental_uris":{"android":"levelo://app?vid=0cb9fa22-9ef4-4bf5-9521-58ea78cc59b4","ios":"levelo://app?vid=0cb9fa22-9ef4-4bf5-9521-58ea78cc59b4"},"vehicle_type_id":"4","last_reported":1732047046,"current_range_meters":27200,"station_id":"ce4bgs92rcd13ifvqcc0","pricing_plan_id":"cebpf4jnsgd1na2vs0mg"},{"bike_id":"7d02f161-c4ab-430d-be6a-e052ba68aacf","system_id":"levelo_inurba_marseille","lat":43.30955,"lon":5.39028,"is_reserved":false,"is_disabled":true,"rental_uris":{"android":"levelo://app?vid=7d02f161-c4ab-430d-be6a-e052ba68aacf","ios":"levelo://app?vid=7d02f161-c4ab-430d-be6a-e052ba68aacf"},"vehicle_type_id":"4","last_reported":1732047046,"current_range_meters":10000,"station_id":"ce4bgup2rcd13ifvqco0","pricing_plan_id":"cebpf4jnsgd1na2vs0mg"},{"bike_id":"3b5dc64d-0c45-45fd-afd4-6ad22366192e","system_id":"levelo_inurba_marseille","lat":43.30295,"lon":5.39207,"is_reserved":false,"is_disabled":false,"rental_uris":{"android":"levelo://app?vid=3b5dc64d-0c45-45fd-afd4-6ad22366192e","ios":"levelo://app?vid=3b5dc64d-0c45-45fd-afd4-6ad22366192e"},"vehicle_type_id":"4","last_reported":1732047046,"current_range_meters":38000,"station_id":"ce4bgkh2rcd13ifvqbk0","pricing_plan_id":"cebpf4jnsgd1na2vs0mg"},{"bike_id":"e65461e3-d425-4dee-a20c-933c7023442e","system_id":"levelo_inurba_marseille","lat":43.30255,"lon":5.40062,"is_reserved":false,"is_disabled":true,"rental_uris":{"android":"levelo://app?vid=e65461e3-d425-4dee-a20c-933c7023442e","ios":"levelo://app?vid=e65461e3-d425-4dee-a20c-933c7023442e"},"vehicle_type_id":"4","last_reported":1732047046,"current_range_meters":36800,"station_id":"ce4bgvh2rcd13ifvqcs0","pricing_plan_id":"cebpf4jnsgd1na2vs0mg"},{"bike_id":"e8a55b1f-c734-4050-817f-07bf60214f39","system_id":"levelo_inurba_marseille","lat":43.28463,"lon":5.35886,"is_reserved":false,"is_disabled":false,"rental_uris":{"android":"levelo://app?vid=e8a55b1f-c734-4050-817f-07bf60214f39","ios":"levelo://app?vid=e8a55b1f-c734-4050-817f-07bf60214f39"},"vehicle_type_id":"4","last_reported":1732047046,"current_range_meters":12800,"station_id":"ce4bhah2rcd13ifvqei0","pricing_plan_id":"cebpf4jnsgd1na2vs0mg"},{"bike_id":"368a9c08-ba30-4500-b225-c41a16dfff4f","system_id":"levelo_inurba_marseille","lat":43.30952,"lon":5.39007,"is_reserved":false,"is_disabled":false,"rental_uris":{"android":"levelo://app?vid=368a9c08-ba30-4500-b225-c41a16dfff4f","ios":"levelo://app?vid=368a9c08-ba30-4500-b225-c41a16dfff4f"},"vehicle_type_id":"4","last_reported":1732047046,"current_range_meters":31200,"station_id":"ce4bgup2rcd13ifvqco0","pricing_plan_id":"cebpf4jnsgd1na2vs0mg"},{"bike_id":"2b011bcc-85ee-4fb7-9aa5-62b6131649f7","system_id":"levelo_inurba_marseille","lat":43.30786,"lon":5.37641,"is_reserved":false,"is_disabled":false,"rental_uris":{"android":"levelo://app?vid=2b011bcc-85ee-4fb7-9aa5-62b6131649f7","ios":"levelo://app?vid=2b011bcc-85ee-4fb7-9aa5-62b6131649f7"},"vehicle_type_id":"4","last_reported":1732047046,"current_range_meters":32400,"station_id":"ce4bgv92rcd13ifvqcq0","pricing_plan_id":"cebpf4jnsgd1na2vs0mg"},{"bike_id":"b5aa51a6-53b4-4ce1-9f62-46acd3a879d7","system_id":"levelo_inurba_marseille","lat":43.3127,"lon":5.40167,"is_reserved":false,"is_disabled":false,"rental_uris":{"android":"levelo://app?vid=b5aa51a6-53b4-4ce1-9f62-46acd3a879d7","ios":"levelo://app?vid=b5aa51a6-53b4-4ce1-9f62-46acd3a879d7"},"vehicle_type_id":"4","last_reported":1732047046,"current_range_meters":24000,"station_id":"ce4bh092rcd13ifvqd30","pricing_plan_id":"cebpf4jnsgd1na2vs0mg"},{"bike_id":"c60f87ce-b1d2-47bc-837f-3b0abc0e739a","system_id":"levelo_inurba_marseille","lat":43.29891,"lon":5.3973,"is_reserved":false,"is_disabled":false,"rental_uris":{"android":"levelo://app?vid=c60f87ce-b1d2-47bc-837f-3b0abc0e739a","ios":"levelo://app?vid=c60f87ce-b1d2-47bc-837f-3b0abc0e739a"},"vehicle_type_id":"4","last_reported":1732047046,"current_range_meters":22800,"station_id":"ce4bh0h2rcd13ifvqd50","pricing_plan_id":"cebpf4jnsgd1na2vs0mg"},{"bike_id":"894d1fa3-4046-45d6-bab2-de26487a6c66","system_id":"levelo_inurba_marseille","lat":43.31078,"lon":5.42434,"is_reserved":false,"is_disabled":false,"rental_uris":{"android":"levelo://app?vid=894d1fa3-4046-45d6-bab2-de26487a6c66","ios":"levelo://app?vid=894d1fa3-4046-45d6-bab2-de26487a6c66"},"vehicle_type_id":"4","last_reported":1732047046,"current_range_meters":29600,"station_id":"ce4bhp92rcd13ifvqhag","pricing_plan_id":"cebpf4jnsgd1na2vs0mg"},{"bike_id":"f751dc54-1931-4dd7-a38e-707eb19341e5","system_id":"levelo_inurba_marseille","lat":43.2847,"lon":5.38422,"is_reserved":false,"is_disabled":false,"rental_uris":{"android":"levelo://app?vid=f751dc54-1931-4dd7-a38e-707eb19341e5","ios":"levelo://app?vid=f751dc54-1931-4dd7-a38e-707eb19341e5"},"vehicle_type_id":"4","last_reported":1732047046,"current_range_meters":3200,"station_id":"ce4bh512rcd13ifvqe3g","pricing_plan_id":"cebpf4jnsgd1na2vs0mg"},{"bike_id":"4e3d2798-03bd-46a3-9eeb-a0bf2624405c","system_id":"levelo_inurba_marseille","lat":43.29784,"lon":5.37101,"is_reserved":false,"is_disabled":false,"rental_uris":{"android":"levelo://app?vid=4e3d2798-03bd-46a3-9eeb-a0bf2624405c","ios":"levelo://app?vid=4e3d2798-03bd-46a3-9eeb-a0bf2624405c"},"vehicle_type_id":"4","last_reported":1732047046,"current_range_meters":32000,"station_id":"ce4bgop2rcd13ifvqc1g","pricing_plan_id":"cebpf4jnsgd1na2vs0mg"},{"bike_id":"7ee91914-acad-4a65-8992-954e71eb40ed","system_id":"levelo_inurba_marseille","lat":43.27904,"lon":5.38007,"is_reserved":false,"is_disabled":false,"rental_uris":{"android":"levelo://app?vid=7ee91914-acad-4a65-8992-954e71eb40ed","ios":"levelo://app?vid=7ee91914-acad-4a65-8992-954e71eb40ed"},"vehicle_type_id":"4","last_reported":1732047046,"current_range_meters":16800,"station_id":"ce4bhf92rcd13ifvqf50","pricing_plan_id":"cebpf4jnsgd1na2vs0mg"},{"bike_id":"1eff5ce5-2d56-4465-a12c-60db9ec2175a","system_id":"levelo_inurba_marseille","lat":43.22927,"lon":5.35376,"is_reserved":false,"is_disabled":false,"rental_uris":{"android":"levelo://app?vid=1eff5ce5-2d56-4465-a12c-60db9ec2175a","ios":"levelo://app?vid=1eff5ce5-2d56-4465-a12c-60db9ec2175a"},"vehicle_type_id":"4","last_reported":1732047046,"current_range_meters":20400,"station_id":"cpo3532slgdg3j2ikp40","pricing_plan_id":"cebpf4jnsgd1na2vs0mg"},{"bike_id":"6ac38c08-263b-4dbc-9230-678d7993bb91","system_id":"levelo_inurba_marseille","lat":43.29297,"lon":5.37167,"is_reserved":false,"is_disabled":true,"rental_uris":{"android":"levelo://app?vid=6ac38c08-263b-4dbc-9230-678d7993bb91","ios":"levelo://app?vid=6ac38c08-263b-4dbc-9230-678d7993bb91"},"vehicle_type_id":"4","last_reported":1732047046,"current_range_meters":27600,"station_id":"ce4bgh92rcd13ifvqb40","pricing_plan_id":"cebpf4jnsgd1na2vs0mg"},{"bike_id":"384dcd34-d6c7-4cd6-a366-6ec5c33f37a6","system_id":"levelo_inurba_marseille","lat":43.2405,"lon":5.37719,"is_reserved":false,"is_disabled":false,"rental_uris":{"android":"levelo://app?vid=384dcd34-d6c7-4cd6-a366-6ec5c33f37a6","ios":"levelo://app?vid=384dcd34-d6c7-4cd6-a366-6ec5c33f37a6"},"vehicle_type_id":"4","last_reported":1732047046,"current_range_meters":30800,"station_id":"ce4bhnp2rcd13ifvqgvg","pricing_plan_id":"cebpf4jnsgd1na2vs0mg"},{"bike_id":"81070033-bcc2-4712-aaf2-ebd63bfae0ec","system_id":"levelo_inurba_marseille","lat":43.28434,"lon":5.39195,"is_reserved":false,"is_disabled":false,"rental_uris":{"android":"levelo://app?vid=81070033-bcc2-4712-aaf2-ebd63bfae0ec","ios":"levelo://app?vid=81070033-bcc2-4712-aaf2-ebd63bfae0ec"},"vehicle_type_id":"4","last_reported":1732047046,"current_range_meters":26000,"station_id":"ce4bhoh2rcd13ifvqh5g","pricing_plan_id":"cebpf4jnsgd1na2vs0mg"},{"bike_id":"9f3572b0-c0a7-43aa-8c1e-c100148af63b","system_id":"levelo_inurba_marseille","lat":43.29184,"lon":5.35784,"is_reserved":false,"is_disabled":true,"rental_uris":{"android":"levelo://app?vid=9f3572b0-c0a7-43aa-8c1e-c100148af63b","ios":"levelo://app?vid=9f3572b0-c0a7-43aa-8c1e-c100148af63b"},"vehicle_type_id":"4","last_reported":1732047046,"current_range_meters":38800,"station_id":"ce4bhb12rcd13ifvqel0","pricing_plan_id":"cebpf4jnsgd1na2vs0mg"},{"bike_id":"954054ad-77ac-46c3-a1b5-c8fc266a522b","system_id":"levelo_inurba_marseille","lat":43.31725,"lon":5.42398,"is_reserved":false,"is_disabled":false,"rental_uris":{"android":"levelo://app?vid=954054ad-77ac-46c3-a1b5-c8fc266a522b","ios":"levelo://app?vid=954054ad-77ac-46c3-a1b5-c8fc266a522b"},"vehicle_type_id":"4","last_reported":1732047046,"current_range_meters":38800,"station_id":"ce4bhp92rcd13ifvqhbg","pricing_plan_id":"cebpf4jnsgd1na2vs0mg"},{"bike_id":"b94b3063-babf-49c9-b320-48352507c0ca","system_id":"levelo_inurba_marseille","lat":43.29302,"lon":5.37172,"is_reserved":false,"is_disabled":false,"rental_uris":{"android":"levelo://app?vid=b94b3063-babf-49c9-b320-48352507c0ca","ios":"levelo://app?vid=b94b3063-babf-49c9-b320-48352507c0ca"},"vehicle_type_id":"4","last_reported":1732047046,"current_range_meters":9200,"station_id":"ce4bgh92rcd13ifvqb40","pricing_plan_id":"cebpf4jnsgd1na2vs0mg"},{"bike_id":"a068dc40-1862-43fc-975c-c8329fcb1c80","system_id":"levelo_inurba_marseille","lat":43.2732,"lon":5.3911,"is_reserved":false,"is_disabled":true,"rental_uris":{"android":"levelo://app?vid=a068dc40-1862-43fc-975c-c8329fcb1c80","ios":"levelo://app?vid=a068dc40-1862-43fc-975c-c8329fcb1c80"},"vehicle_type_id":"4","last_reported":1732047046,"current_range_meters":0,"station_id":"ce4bhgp2rcd13ifvqfe0","pricing_plan_id":"cebpf4jnsgd1na2vs0mg"},{"bike_id":"9c4a655e-2680-4a60-a844-6a2ea62fb4b1","system_id":"levelo_inurba_marseille","lat":43.26063,"lon":5.39394,"is_reserved":false,"is_disabled":true,"rental_uris":{"android":"levelo://app?vid=9c4a655e-2680-4a60-a844-6a2ea62fb4b1","ios":"levelo://app?vid=9c4a655e-2680-4a60-a844-6a2ea62fb4b1"},"vehicle_type_id":"4","last_reported":1732047046,"current_range_meters":27600,"station_id":"ce4bhh92rcd13ifvqfj0","pricing_plan_id":"cebpf4jnsgd1na2vs0mg"},{"bike_id":"2d983866-913c-4390-ae48-1873d10c9730","system_id":"levelo_inurba_marseille","lat":43.24813,"lon":5.37458,"is_reserved":false,"is_disabled":true,"rental_uris":{"android":"levelo://app?vid=2d983866-913c-4390-ae48-1873d10c9730","ios":"levelo://app?vid=2d983866-913c-4390-ae48-1873d10c9730"},"vehicle_type_id":"4","last_reported":1732047046,"current_range_meters":13600,"station_id":"ce4bhgh2rcd13ifvqfb0","pricing_plan_id":"cebpf4jnsgd1na2vs0mg"},{"bike_id":"e0f2d464-e856-4a2b-b26c-1674907834d7","system_id":"levelo_inurba_marseille","lat":43.29309,"lon":5.37151,"is_reserved":false,"is_disabled":false,"rental_uris":{"android":"levelo://app?vid=e0f2d464-e856-4a2b-b26c-1674907834d7","ios":"levelo://app?vid=e0f2d464-e856-4a2b-b26c-1674907834d7"},"vehicle_type_id":"4","last_reported":1732047046,"current_range_meters":37600,"station_id":"ce4bgh92rcd13ifvqb40","pricing_plan_id":"cebpf4jnsgd1na2vs0mg"},{"bike_id":"ada08269-fd0c-4046-bf21-25ab1000c736","system_id":"levelo_inurba_marseille","lat":43.31531,"lon":5.38025,"is_reserved":false,"is_disabled":false,"rental_uris":{"android":"levelo://app?vid=ada08269-fd0c-4046-bf21-25ab1000c736","ios":"levelo://app?vid=ada08269-fd0c-4046-bf21-25ab1000c736"},"vehicle_type_id":"4","last_reported":1732047046,"current_range_meters":24800,"station_id":"ce4bhsp2rcd13ifvqi50","pricing_plan_id":"cebpf4jnsgd1na2vs0mg"},{"bike_id":"be0057d7-36ed-4552-93a5-d26a01d6fce9","system_id":"levelo_inurba_marseille","lat":43.31715,"lon":5.37767,"is_reserved":false,"is_disabled":false,"rental_uris":{"android":"levelo://app?vid=be0057d7-36ed-4552-93a5-d26a01d6fce9","ios":"levelo://app?vid=be0057d7-36ed-4552-93a5-d26a01d6fce9"},"vehicle_type_id":"4","last_reported":1732047046,"current_range_meters":29600,"station_id":"ce4bgth2rcd13ifvqch0","pricing_plan_id":"cebpf4jnsgd1na2vs0mg"},{"bike_id":"e840fe4f-47a0-4d31-8133-7c332a3d517a","system_id":"levelo_inurba_marseille","lat":43.31082,"lon":5.42432,"is_reserved":false,"is_disabled":true,"rental_uris":{"android":"levelo://app?vid=e840fe4f-47a0-4d31-8133-7c332a3d517a","ios":"levelo://app?vid=e840fe4f-47a0-4d31-8133-7c332a3d517a"},"vehicle_type_id":"4","last_reported":1732047046,"current_range_meters":16400,"station_id":"ce4bhp92rcd13ifvqhag","pricing_plan_id":"cebpf4jnsgd1na2vs0mg"},{"bike_id":"b1f1f917-fbca-4468-807a-dad63fe9cf93","system_id":"levelo_inurba_marseille","lat":43.28072,"lon":5.39649,"is_reserved":false,"is_disabled":false,"rental_uris":{"android":"levelo://app?vid=b1f1f917-fbca-4468-807a-dad63fe9cf93","ios":"levelo://app?vid=b1f1f917-fbca-4468-807a-dad63fe9cf93"},"vehicle_type_id":"4","last_reported":1732047046,"current_range_meters":22400,"station_id":"ce4bho12rcd13ifvqh2g","pricing_plan_id":"cebpf4jnsgd1na2vs0mg"},{"bike_id":"7db3e109-59af-4df6-ad20-7ea41f506454","system_id":"levelo_inurba_marseille","lat":43.33018,"lon":5.39045,"is_reserved":false,"is_disabled":false,"rental_uris":{"android":"levelo://app?vid=7db3e109-59af-4df6-ad20-7ea41f506454","ios":"levelo://app?vid=7db3e109-59af-4df6-ad20-7ea41f506454"},"vehicle_type_id":"4","last_reported":1732047046,"current_range_meters":10000,"station_id":"ce4bhr92rcd13ifvqhrg","pricing_plan_id":"cebpf4jnsgd1na2vs0mg"},{"bike_id":"5bddf6e5-633d-4da8-a478-cc22aa6ccefd","system_id":"levelo_inurba_marseille","lat":43.28926,"lon":5.36397,"is_reserved":false,"is_disabled":false,"rental_uris":{"android":"levelo://app?vid=5bddf6e5-633d-4da8-a478-cc22aa6ccefd","ios":"levelo://app?vid=5bddf6e5-633d-4da8-a478-cc22aa6ccefd"},"vehicle_type_id":"4","last_reported":1732047046,"current_range_meters":27600,"station_id":"ce4bhc92rcd13ifvqetg","pricing_plan_id":"cebpf4jnsgd1na2vs0mg"},{"bike_id":"a1cf6f06-44aa-4bc8-9eb2-8055a5e207a9","system_id":"levelo_inurba_marseille","lat":43.32485,"lon":5.36558,"is_reserved":false,"is_disabled":false,"rental_uris":{"android":"levelo://app?vid=a1cf6f06-44aa-4bc8-9eb2-8055a5e207a9","ios":"levelo://app?vid=a1cf6f06-44aa-4bc8-9eb2-8055a5e207a9"},"vehicle_type_id":"4","last_reported":1732047046,"current_range_meters":38800,"station_id":"ce4bhs12rcd13ifvqhvg","pricing_plan_id":"cebpf4jnsgd1na2vs0mg"},{"bike_id":"e264033a-f915-4b27-a08a-2f42cfcf052a","system_id":"levelo_inurba_marseille","lat":43.33766,"lon":5.37427,"is_reserved":false,"is_disabled":false,"rental_uris":{"android":"levelo://app?vid=e264033a-f915-4b27-a08a-2f42cfcf052a","ios":"levelo://app?vid=e264033a-f915-4b27-a08a-2f42cfcf052a"},"vehicle_type_id":"4","last_reported":1732047046,"current_range_meters":30400,"station_id":"","pricing_plan_id":"cebpf4jnsgd1na2vs0mg"},{"bike_id":"c7281c22-d843-43e3-84da-959dc127222a","system_id":"levelo_inurba_marseille","lat":43.3171,"lon":5.43707,"is_reserved":false,"is_disabled":false,"rental_uris":{"android":"levelo://app?vid=c7281c22-d843-43e3-84da-959dc127222a","ios":"levelo://app?vid=c7281c22-d843-43e3-84da-959dc127222a"},"vehicle_type_id":"4","last_reported":1732047046,"current_range_meters":38800,"station_id":"ce4bhp92rcd13ifvqhcg","pricing_plan_id":"cebpf4jnsgd1na2vs0mg"},{"bike_id":"0b29f16f-7c80-42f5-be29-18f63a31302c","system_id":"levelo_inurba_marseille","lat":43.29418,"lon":5.38573,"is_reserved":false,"is_disabled":false,"rental_uris":{"android":"levelo://app?vid=0b29f16f-7c80-42f5-be29-18f63a31302c","ios":"levelo://app?vid=0b29f16f-7c80-42f5-be29-18f63a31302c"},"vehicle_type_id":"4","last_reported":1732047046,"current_range_meters":9200,"station_id":"ce4bh2h2rcd13ifvqdh0","pricing_plan_id":"cebpf4jnsgd1na2vs0mg"},{"bike_id":"478111c5-9ee8-4ccc-a30a-cc58cbff7345","system_id":"levelo_inurba_marseille","lat":43.29535,"lon":5.38545,"is_reserved":false,"is_disabled":false,"rental_uris":{"android":"levelo://app?vid=478111c5-9ee8-4ccc-a30a-cc58cbff7345","ios":"levelo://app?vid=478111c5-9ee8-4ccc-a30a-cc58cbff7345"},"vehicle_type_id":"4","last_reported":1732047046,"current_range_meters":37600,"station_id":"ce4bgih2rcd13ifvqba0","pricing_plan_id":"cebpf4jnsgd1na2vs0mg"},{"bike_id":"156824de-07e2-4260-894b-26e4b54b014b","system_id":"levelo_inurba_marseille","lat":43.27053,"lon":5.40264,"is_reserved":false,"is_disabled":false,"rental_uris":{"android":"levelo://app?vid=156824de-07e2-4260-894b-26e4b54b014b","ios":"levelo://app?vid=156824de-07e2-4260-894b-26e4b54b014b"},"vehicle_type_id":"4","last_reported":1732047046,"current_range_meters":38400,"station_id":"ce4bhk92rcd13ifvqgc0","pricing_plan_id":"cebpf4jnsgd1na2vs0mg"},{"bike_id":"123862ba-68e2-48f6-a477-31ab9dae8bd5","system_id":"levelo_inurba_marseille","lat":43.337444,"lon":5.374475,"is_reserved":false,"is_disabled":true,"rental_uris":{"android":"levelo://app?vid=123862ba-68e2-48f6-a477-31ab9dae8bd5","ios":"levelo://app?vid=123862ba-68e2-48f6-a477-31ab9dae8bd5"},"vehicle_type_id":"4","last_reported":1732047046,"current_range_meters":14400,"station_id":"","pricing_plan_id":"cebpf4jnsgd1na2vs0mg"},{"bike_id":"a57e1d53-2136-4179-a533-047787b1374e","system_id":"levelo_inurba_marseille","lat":43.27987,"lon":5.40001,"is_reserved":false,"is_disabled":true,"rental_uris":{"android":"levelo://app?vid=a57e1d53-2136-4179-a533-047787b1374e","ios":"levelo://app?vid=a57e1d53-2136-4179-a533-047787b1374e"},"vehicle_type_id":"4","last_reported":1732047046,"current_range_meters":38800,"station_id":"ce4bho92rcd13ifvqh4g","pricing_plan_id":"cebpf4jnsgd1na2vs0mg"},{"bike_id":"e09f5bd3-1d6d-4c2b-8ba5-e78c43cdb728","system_id":"levelo_inurba_marseille","lat":43.29557,"lon":5.42274,"is_reserved":false,"is_disabled":false,"rental_uris":{"android":"levelo://app?vid=e09f5bd3-1d6d-4c2b-8ba5-e78c43cdb728","ios":"levelo://app?vid=e09f5bd3-1d6d-4c2b-8ba5-e78c43cdb728"},"vehicle_type_id":"4","last_reported":1732047046,"current_range_meters":36400,"station_id":"ce4bhph2rcd13ifvqhdg","pricing_plan_id":"cebpf4jnsgd1na2vs0mg"},{"bike_id":"eca64764-71b8-4f3b-a2f9-8ab36125d3cd","system_id":"levelo_inurba_marseille","lat":43.26489,"lon":5.39542,"is_reserved":false,"is_disabled":false,"rental_uris":{"android":"levelo://app?vid=eca64764-71b8-4f3b-a2f9-8ab36125d3cd","ios":"levelo://app?vid=eca64764-71b8-4f3b-a2f9-8ab36125d3cd"},"vehicle_type_id":"4","last_reported":1732047046,"current_range_meters":20400,"station_id":"ce4bhi12rcd13ifvqfq0","pricing_plan_id":"cebpf4jnsgd1na2vs0mg"},{"bike_id":"5c576818-20af-409b-a7f5-400554d1aabd","system_id":"levelo_inurba_marseille","lat":43.29805,"lon":5.40406,"is_reserved":false,"is_disabled":false,"rental_uris":{"android":"levelo://app?vid=5c576818-20af-409b-a7f5-400554d1aabd","ios":"levelo://app?vid=5c576818-20af-409b-a7f5-400554d1aabd"},"vehicle_type_id":"4","last_reported":1732047046,"current_range_meters":38800,"station_id":"ce4bh112rcd13ifvqd90","pricing_plan_id":"cebpf4jnsgd1na2vs0mg"},{"bike_id":"66ffd7c3-e5e6-45da-aed2-6b9b69732823","system_id":"levelo_inurba_marseille","lat":43.31994,"lon":5.38154,"is_reserved":false,"is_disabled":false,"rental_uris":{"android":"levelo://app?vid=66ffd7c3-e5e6-45da-aed2-6b9b69732823","ios":"levelo://app?vid=66ffd7c3-e5e6-45da-aed2-6b9b69732823"},"vehicle_type_id":"4","last_reported":1732047046,"current_range_meters":28800,"station_id":"ce4bhr12rcd13ifvqhpg","pricing_plan_id":"cebpf4jnsgd1na2vs0mg"},{"bike_id":"ade2d91d-4332-4929-ad83-3cdec8b002c7","system_id":"levelo_inurba_marseille","lat":43.28151,"lon":5.42643,"is_reserved":false,"is_disabled":false,"rental_uris":{"android":"levelo://app?vid=ade2d91d-4332-4929-ad83-3cdec8b002c7","ios":"levelo://app?vid=ade2d91d-4332-4929-ad83-3cdec8b002c7"},"vehicle_type_id":"4","last_reported":1732047046,"current_range_meters":8400,"station_id":"ce4bhnh2rcd13ifvqgug","pricing_plan_id":"cebpf4jnsgd1na2vs0mg"},{"bike_id":"df9d5396-9474-4876-97a8-21d4c85769c9","system_id":"levelo_inurba_marseille","lat":43.28438,"lon":5.39196,"is_reserved":false,"is_disabled":false,"rental_uris":{"android":"levelo://app?vid=df9d5396-9474-4876-97a8-21d4c85769c9","ios":"levelo://app?vid=df9d5396-9474-4876-97a8-21d4c85769c9"},"vehicle_type_id":"4","last_reported":1732047046,"current_range_meters":36000,"station_id":"ce4bhoh2rcd13ifvqh5g","pricing_plan_id":"cebpf4jnsgd1na2vs0mg"},{"bike_id":"08fd2970-2148-42cd-beb2-611216c36f6c","system_id":"levelo_inurba_marseille","lat":43.29305,"lon":5.37163,"is_reserved":false,"is_disabled":false,"rental_uris":{"android":"levelo://app?vid=08fd2970-2148-42cd-beb2-611216c36f6c","ios":"levelo://app?vid=08fd2970-2148-42cd-beb2-611216c36f6c"},"vehicle_type_id":"4","last_reported":1732047046,"current_range_meters":37600,"station_id":"ce4bgh92rcd13ifvqb40","pricing_plan_id":"cebpf4jnsgd1na2vs0mg"},{"bike_id":"9a0f8073-9fc4-477f-af62-f52952da19ac","system_id":"levelo_inurba_marseille","lat":43.28452,"lon":5.35896,"is_reserved":false,"is_disabled":false,"rental_uris":{"android":"levelo://app?vid=9a0f8073-9fc4-477f-af62-f52952da19ac","ios":"levelo://app?vid=9a0f8073-9fc4-477f-af62-f52952da19ac"},"vehicle_type_id":"4","last_reported":1732047046,"current_range_meters":18800,"station_id":"ce4bhah2rcd13ifvqei0","pricing_plan_id":"cebpf4jnsgd1na2vs0mg"},{"bike_id":"2f20fc8b-d74f-4886-ad1b-dcba5c978d9d","system_id":"levelo_inurba_marseille","lat":43.27073,"lon":5.42279,"is_reserved":false,"is_disabled":false,"rental_uris":{"android":"levelo://app?vid=2f20fc8b-d74f-4886-ad1b-dcba5c978d9d","ios":"levelo://app?vid=2f20fc8b-d74f-4886-ad1b-dcba5c978d9d"},"vehicle_type_id":"4","last_reported":1732047046,"current_range_meters":10000,"station_id":"ce4bhk92rcd13ifvqgb0","pricing_plan_id":"cebpf4jnsgd1na2vs0mg"},{"bike_id":"0009ec07-8c49-43d0-9918-78167d6a99be","system_id":"levelo_inurba_marseille","lat":43.24663,"lon":5.38164,"is_reserved":false,"is_disabled":true,"rental_uris":{"android":"levelo://app?vid=0009ec07-8c49-43d0-9918-78167d6a99be","ios":"levelo://app?vid=0009ec07-8c49-43d0-9918-78167d6a99be"},"vehicle_type_id":"4","last_reported":1732047046,"current_range_meters":0,"station_id":"ce4bhih2rcd13ifvqfr0","pricing_plan_id":"cebpf4jnsgd1na2vs0mg"},{"bike_id":"efaa20f7-d2fb-4778-9ca3-b17e9193d440","system_id":"levelo_inurba_marseille","lat":43.337198,"lon":5.391738,"is_reserved":false,"is_disabled":false,"rental_uris":{"android":"levelo://app?vid=efaa20f7-d2fb-4778-9ca3-b17e9193d440","ios":"levelo://app?vid=efaa20f7-d2fb-4778-9ca3-b17e9193d440"},"vehicle_type_id":"4","last_reported":1732047046,"current_range_meters":37600,"station_id":"ce4bhr92rcd13ifvqhsg","pricing_plan_id":"cebpf4jnsgd1na2vs0mg"},{"bike_id":"64bbcae8-43b4-452e-941a-fd5c0231cadf","system_id":"levelo_inurba_marseille","lat":43.2934,"lon":5.40687,"is_reserved":false,"is_disabled":false,"rental_uris":{"android":"levelo://app?vid=64bbcae8-43b4-452e-941a-fd5c0231cadf","ios":"levelo://app?vid=64bbcae8-43b4-452e-941a-fd5c0231cadf"},"vehicle_type_id":"4","last_reported":1732047046,"current_range_meters":14400,"station_id":"","pricing_plan_id":"cebpf4jnsgd1na2vs0mg"},{"bike_id":"cbb19e09-aa20-4763-8e71-dc123172ec07","system_id":"levelo_inurba_marseille","lat":43.2315,"lon":5.43707,"is_reserved":false,"is_disabled":true,"rental_uris":{"android":"levelo://app?vid=cbb19e09-aa20-4763-8e71-dc123172ec07","ios":"levelo://app?vid=cbb19e09-aa20-4763-8e71-dc123172ec07"},"vehicle_type_id":"4","last_reported":1732047046,"current_range_meters":37600,"station_id":"ce4bhmp2rcd13ifvqgog","pricing_plan_id":"cebpf4jnsgd1na2vs0mg"},{"bike_id":"2a634383-2788-461d-a3e6-6654c8fa516b","system_id":"levelo_inurba_marseille","lat":43.32659,"lon":5.40989,"is_reserved":false,"is_disabled":false,"rental_uris":{"android":"levelo://app?vid=2a634383-2788-461d-a3e6-6654c8fa516b","ios":"levelo://app?vid=2a634383-2788-461d-a3e6-6654c8fa516b"},"vehicle_type_id":"4","last_reported":1732047046,"current_range_meters":28400,"station_id":"ce4bhpp2rcd13ifvqhgg","pricing_plan_id":"cebpf4jnsgd1na2vs0mg"},{"bike_id":"028e5427-36e2-49e1-b3db-260058fffb58","system_id":"levelo_inurba_marseille","lat":43.25573,"lon":5.38234,"is_reserved":false,"is_disabled":false,"rental_uris":{"android":"levelo://app?vid=028e5427-36e2-49e1-b3db-260058fffb58","ios":"levelo://app?vid=028e5427-36e2-49e1-b3db-260058fffb58"},"vehicle_type_id":"4","last_reported":1732047046,"current_range_meters":31200,"station_id":"ce4bhih2rcd13ifvqfs0","pricing_plan_id":"cebpf4jnsgd1na2vs0mg"},{"bike_id":"0db81cf3-40ae-4e31-aab7-a5cef3fda3e5","system_id":"levelo_inurba_marseille","lat":43.31479,"lon":5.37292,"is_reserved":false,"is_disabled":false,"rental_uris":{"android":"levelo://app?vid=0db81cf3-40ae-4e31-aab7-a5cef3fda3e5","ios":"levelo://app?vid=0db81cf3-40ae-4e31-aab7-a5cef3fda3e5"},"vehicle_type_id":"4","last_reported":1732047046,"current_range_meters":14400,"station_id":"ce4bgt12rcd13ifvqcd0","pricing_plan_id":"cebpf4jnsgd1na2vs0mg"},{"bike_id":"7f6bcbd7-c375-40a1-9303-b978ffb5acba","system_id":"levelo_inurba_marseille","lat":43.29877,"lon":5.39725,"is_reserved":false,"is_disabled":false,"rental_uris":{"android":"levelo://app?vid=7f6bcbd7-c375-40a1-9303-b978ffb5acba","ios":"levelo://app?vid=7f6bcbd7-c375-40a1-9303-b978ffb5acba"},"vehicle_type_id":"4","last_reported":1732047046,"current_range_meters":38800,"station_id":"ce4bh0h2rcd13ifvqd50","pricing_plan_id":"cebpf4jnsgd1na2vs0mg"},{"bike_id":"a913c6dc-727e-4a89-ad1a-a6de5a11bfd5","system_id":"levelo_inurba_marseille","lat":43.303,"lon":5.3921,"is_reserved":false,"is_disabled":false,"rental_uris":{"android":"levelo://app?vid=a913c6dc-727e-4a89-ad1a-a6de5a11bfd5","ios":"levelo://app?vid=a913c6dc-727e-4a89-ad1a-a6de5a11bfd5"},"vehicle_type_id":"4","last_reported":1732047046,"current_range_meters":34000,"station_id":"ce4bgkh2rcd13ifvqbk0","pricing_plan_id":"cebpf4jnsgd1na2vs0mg"},{"bike_id":"f15d321f-ef17-4363-91d4-7fd7ce61e353","system_id":"levelo_inurba_marseille","lat":43.29252,"lon":5.40908,"is_reserved":false,"is_disabled":false,"rental_uris":{"android":"levelo://app?vid=f15d321f-ef17-4363-91d4-7fd7ce61e353","ios":"levelo://app?vid=f15d321f-ef17-4363-91d4-7fd7ce61e353"},"vehicle_type_id":"4","last_reported":1732047046,"current_range_meters":9600,"station_id":"ce4bh192rcd13ifvqdc0","pricing_plan_id":"cebpf4jnsgd1na2vs0mg"},{"bike_id":"58b348a0-214e-4585-b413-619a307634a9","system_id":"levelo_inurba_marseille","lat":43.28915,"lon":5.3839,"is_reserved":false,"is_disabled":true,"rental_uris":{"android":"levelo://app?vid=58b348a0-214e-4585-b413-619a307634a9","ios":"levelo://app?vid=58b348a0-214e-4585-b413-619a307634a9"},"vehicle_type_id":"4","last_reported":1732047046,"current_range_meters":36400,"station_id":"ce4bh612rcd13ifvqe6g","pricing_plan_id":"cebpf4jnsgd1na2vs0mg"},{"bike_id":"1ea9d202-7235-44ff-a808-1a87a3b9cfc1","system_id":"levelo_inurba_marseille","lat":43.25578,"lon":5.38242,"is_reserved":false,"is_disabled":false,"rental_uris":{"android":"levelo://app?vid=1ea9d202-7235-44ff-a808-1a87a3b9cfc1","ios":"levelo://app?vid=1ea9d202-7235-44ff-a808-1a87a3b9cfc1"},"vehicle_type_id":"4","last_reported":1732047046,"current_range_meters":12800,"station_id":"ce4bhih2rcd13ifvqfs0","pricing_plan_id":"cebpf4jnsgd1na2vs0mg"},{"bike_id":"04ba697d-55c7-4c2f-93de-e345f8b77d99","system_id":"levelo_inurba_marseille","lat":43.31364,"lon":5.38494,"is_reserved":false,"is_disabled":false,"rental_uris":{"android":"levelo://app?vid=04ba697d-55c7-4c2f-93de-e345f8b77d99","ios":"levelo://app?vid=04ba697d-55c7-4c2f-93de-e345f8b77d99"},"vehicle_type_id":"4","last_reported":1732047046,"current_range_meters":19200,"station_id":"ce4bgt92rcd13ifvqcf0","pricing_plan_id":"cebpf4jnsgd1na2vs0mg"},{"bike_id":"0c5bbd39-2535-4e1b-896c-c0aa5772961e","system_id":"levelo_inurba_marseille","lat":43.33024,"lon":5.39043,"is_reserved":false,"is_disabled":false,"rental_uris":{"android":"levelo://app?vid=0c5bbd39-2535-4e1b-896c-c0aa5772961e","ios":"levelo://app?vid=0c5bbd39-2535-4e1b-896c-c0aa5772961e"},"vehicle_type_id":"4","last_reported":1732047046,"current_range_meters":5600,"station_id":"ce4bhr92rcd13ifvqhrg","pricing_plan_id":"cebpf4jnsgd1na2vs0mg"},{"bike_id":"ea3698ba-4aa8-4712-b521-18ff56838777","system_id":"levelo_inurba_marseille","lat":43.25495,"lon":5.3765,"is_reserved":false,"is_disabled":true,"rental_uris":{"android":"levelo://app?vid=ea3698ba-4aa8-4712-b521-18ff56838777","ios":"levelo://app?vid=ea3698ba-4aa8-4712-b521-18ff56838777"},"vehicle_type_id":"4","last_reported":1732047046,"current_range_meters":0,"station_id":"ce4bhh12rcd13ifvqff0","pricing_plan_id":"cebpf4jnsgd1na2vs0mg"},{"bike_id":"97a35da9-3917-40ad-b9e7-9f7cbd6aff5c","system_id":"levelo_inurba_marseille","lat":43.30132,"lon":5.39877,"is_reserved":false,"is_disabled":true,"rental_uris":{"android":"levelo://app?vid=97a35da9-3917-40ad-b9e7-9f7cbd6aff5c","ios":"levelo://app?vid=97a35da9-3917-40ad-b9e7-9f7cbd6aff5c"},"vehicle_type_id":"4","last_reported":1732047046,"current_range_meters":33200,"station_id":"ce4bh0h2rcd13ifvqd40","pricing_plan_id":"cebpf4jnsgd1na2vs0mg"},{"bike_id":"6e545785-5e16-4906-b88f-5bb12e1d71c6","system_id":"levelo_inurba_marseille","lat":43.29882,"lon":5.38912,"is_reserved":false,"is_disabled":false,"rental_uris":{"android":"levelo://app?vid=6e545785-5e16-4906-b88f-5bb12e1d71c6","ios":"levelo://app?vid=6e545785-5e16-4906-b88f-5bb12e1d71c6"},"vehicle_type_id":"4","last_reported":1732047046,"current_range_meters":16000,"station_id":"ce4bh392rcd13ifvqdl0","pricing_plan_id":"cebpf4jnsgd1na2vs0mg"},{"bike_id":"0b2426c1-a771-40d7-ae3b-17262098c829","system_id":"levelo_inurba_marseille","lat":43.27946,"lon":5.41073,"is_reserved":false,"is_disabled":false,"rental_uris":{"android":"levelo://app?vid=0b2426c1-a771-40d7-ae3b-17262098c829","ios":"levelo://app?vid=0b2426c1-a771-40d7-ae3b-17262098c829"},"vehicle_type_id":"4","last_reported":1732047046,"current_range_meters":6000,"station_id":"ce4bhnp2rcd13ifvqh0g","pricing_plan_id":"cebpf4jnsgd1na2vs0mg"},{"bike_id":"7a74f50b-fe40-4106-9f5d-13731ba6b393","system_id":"levelo_inurba_marseille","lat":43.32364,"lon":5.38886,"is_reserved":false,"is_disabled":false,"rental_uris":{"android":"levelo://app?vid=7a74f50b-fe40-4106-9f5d-13731ba6b393","ios":"levelo://app?vid=7a74f50b-fe40-4106-9f5d-13731ba6b393"},"vehicle_type_id":"4","last_reported":1732047046,"current_range_meters":33200,"station_id":"ce4bhqp2rcd13ifvqhog","pricing_plan_id":"cebpf4jnsgd1na2vs0mg"},{"bike_id":"e5951ee3-4a5a-4ebb-b469-096c5188dfa3","system_id":"levelo_inurba_marseille","lat":43.24029,"lon":5.36612,"is_reserved":false,"is_disabled":true,"rental_uris":{"android":"levelo://app?vid=e5951ee3-4a5a-4ebb-b469-096c5188dfa3","ios":"levelo://app?vid=e5951ee3-4a5a-4ebb-b469-096c5188dfa3"},"vehicle_type_id":"4","last_reported":1732047046,"current_range_meters":1200,"station_id":"","pricing_plan_id":"cebpf4jnsgd1na2vs0mg"},{"bike_id":"238e7ac6-2593-41aa-8819-532fe71ab0c7","system_id":"levelo_inurba_marseille","lat":43.30248,"lon":5.40042,"is_reserved":false,"is_disabled":false,"rental_uris":{"android":"levelo://app?vid=238e7ac6-2593-41aa-8819-532fe71ab0c7","ios":"levelo://app?vid=238e7ac6-2593-41aa-8819-532fe71ab0c7"},"vehicle_type_id":"4","last_reported":1732047046,"current_range_meters":20000,"station_id":"ce4bgvh2rcd13ifvqcs0","pricing_plan_id":"cebpf4jnsgd1na2vs0mg"},{"bike_id":"e479f909-ae5e-41db-9d1a-44b3b5e351a9","system_id":"levelo_inurba_marseille","lat":43.30778,"lon":5.3765,"is_reserved":false,"is_disabled":false,"rental_uris":{"android":"levelo://app?vid=e479f909-ae5e-41db-9d1a-44b3b5e351a9","ios":"levelo://app?vid=e479f909-ae5e-41db-9d1a-44b3b5e351a9"},"vehicle_type_id":"4","last_reported":1732047046,"current_range_meters":39200,"station_id":"ce4bgv92rcd13ifvqcq0","pricing_plan_id":"cebpf4jnsgd1na2vs0mg"},{"bike_id":"b2f6b9cf-69db-40ab-8230-689c41a2c16c","system_id":"levelo_inurba_marseille","lat":43.24169,"lon":5.36393,"is_reserved":false,"is_disabled":true,"rental_uris":{"android":"levelo://app?vid=b2f6b9cf-69db-40ab-8230-689c41a2c16c","ios":"levelo://app?vid=b2f6b9cf-69db-40ab-8230-689c41a2c16c"},"vehicle_type_id":"4","last_reported":1732047046,"current_range_meters":800,"station_id":"cpo36qri1sfpv3e86is0","pricing_plan_id":"cebpf4jnsgd1na2vs0mg"},{"bike_id":"2fcb6867-d92b-41d9-8e12-7bee2b648e53","system_id":"levelo_inurba_marseille","lat":43.29263,"lon":5.38448,"is_reserved":false,"is_disabled":true,"rental_uris":{"android":"levelo://app?vid=2fcb6867-d92b-41d9-8e12-7bee2b648e53","ios":"levelo://app?vid=2fcb6867-d92b-41d9-8e12-7bee2b648e53"},"vehicle_type_id":"4","last_reported":1732047046,"current_range_meters":0,"station_id":"ce4bh692rcd13ifvqea0","pricing_plan_id":"cebpf4jnsgd1na2vs0mg"},{"bike_id":"ee58c0c2-c7d8-4d0f-91e5-095566050b2d","system_id":"levelo_inurba_marseille","lat":43.28572,"lon":5.3949,"is_reserved":false,"is_disabled":false,"rental_uris":{"android":"levelo://app?vid=ee58c0c2-c7d8-4d0f-91e5-095566050b2d","ios":"levelo://app?vid=ee58c0c2-c7d8-4d0f-91e5-095566050b2d"},"vehicle_type_id":"4","last_reported":1732047046,"current_range_meters":38800,"station_id":"ce4bh292rcd13ifvqdg0","pricing_plan_id":"cebpf4jnsgd1na2vs0mg"},{"bike_id":"2910f69a-6dac-4d69-a60d-e4f1b8cce200","system_id":"levelo_inurba_marseille","lat":43.27815,"lon":5.40714,"is_reserved":false,"is_disabled":true,"rental_uris":{"android":"levelo://app?vid=2910f69a-6dac-4d69-a60d-e4f1b8cce200","ios":"levelo://app?vid=2910f69a-6dac-4d69-a60d-e4f1b8cce200"},"vehicle_type_id":"4","last_reported":1732047046,"current_range_meters":17600,"station_id":"ce4bhnh2rcd13ifvqgtg","pricing_plan_id":"cebpf4jnsgd1na2vs0mg"},{"bike_id":"3bf6e340-afe9-4ab4-b204-fb05aebb2616","system_id":"levelo_inurba_marseille","lat":43.27174,"lon":5.40996,"is_reserved":false,"is_disabled":false,"rental_uris":{"android":"levelo://app?vid=3bf6e340-afe9-4ab4-b204-fb05aebb2616","ios":"levelo://app?vid=3bf6e340-afe9-4ab4-b204-fb05aebb2616"},"vehicle_type_id":"4","last_reported":1732047046,"current_range_meters":37600,"station_id":"ce4bhl12rcd13ifvqgf0","pricing_plan_id":"cebpf4jnsgd1na2vs0mg"},{"bike_id":"8b06473f-89d9-40e7-b900-458975555237","system_id":"levelo_inurba_marseille","lat":43.31269,"lon":5.40159,"is_reserved":false,"is_disabled":false,"rental_uris":{"android":"levelo://app?vid=8b06473f-89d9-40e7-b900-458975555237","ios":"levelo://app?vid=8b06473f-89d9-40e7-b900-458975555237"},"vehicle_type_id":"4","last_reported":1732047046,"current_range_meters":16400,"station_id":"ce4bh092rcd13ifvqd30","pricing_plan_id":"cebpf4jnsgd1na2vs0mg"},{"bike_id":"68f14fe1-2aa2-45e7-8afd-b9c004cd4b55","system_id":"levelo_inurba_marseille","lat":43.26929,"lon":5.38916,"is_reserved":false,"is_disabled":false,"rental_uris":{"android":"levelo://app?vid=68f14fe1-2aa2-45e7-8afd-b9c004cd4b55","ios":"levelo://app?vid=68f14fe1-2aa2-45e7-8afd-b9c004cd4b55"},"vehicle_type_id":"4","last_reported":1732047046,"current_range_meters":38400,"station_id":"ce4bhhh2rcd13ifvqfl0","pricing_plan_id":"cebpf4jnsgd1na2vs0mg"},{"bike_id":"da118503-6ab7-4c94-98bc-2b63accd50d2","system_id":"levelo_inurba_marseille","lat":43.31083,"lon":5.42432,"is_reserved":false,"is_disabled":false,"rental_uris":{"android":"levelo://app?vid=da118503-6ab7-4c94-98bc-2b63accd50d2","ios":"levelo://app?vid=da118503-6ab7-4c94-98bc-2b63accd50d2"},"vehicle_type_id":"4","last_reported":1732047046,"current_range_meters":39200,"station_id":"ce4bhp92rcd13ifvqhag","pricing_plan_id":"cebpf4jnsgd1na2vs0mg"},{"bike_id":"d4d6be5e-7a21-465d-86e5-cfd407160d99","system_id":"levelo_inurba_marseille","lat":43.26941,"lon":5.40244,"is_reserved":false,"is_disabled":false,"rental_uris":{"android":"levelo://app?vid=d4d6be5e-7a21-465d-86e5-cfd407160d99","ios":"levelo://app?vid=d4d6be5e-7a21-465d-86e5-cfd407160d99"},"vehicle_type_id":"4","last_reported":1732047046,"current_range_meters":38800,"station_id":"cjm6bp8fraef2m0cb0m0","pricing_plan_id":"cebpf4jnsgd1na2vs0mg"},{"bike_id":"f55181d4-2053-40e2-9cda-06227a4b9bdf","system_id":"levelo_inurba_marseille","lat":43.32485,"lon":5.36555,"is_reserved":false,"is_disabled":false,"rental_uris":{"android":"levelo://app?vid=f55181d4-2053-40e2-9cda-06227a4b9bdf","ios":"levelo://app?vid=f55181d4-2053-40e2-9cda-06227a4b9bdf"},"vehicle_type_id":"4","last_reported":1732047046,"current_range_meters":14000,"station_id":"ce4bhs12rcd13ifvqhvg","pricing_plan_id":"cebpf4jnsgd1na2vs0mg"},{"bike_id":"7ccf2f24-0143-407d-973b-322d37cb2794","system_id":"levelo_inurba_marseille","lat":43.32101,"lon":5.36777,"is_reserved":false,"is_disabled":false,"rental_uris":{"android":"levelo://app?vid=7ccf2f24-0143-407d-973b-322d37cb2794","ios":"levelo://app?vid=7ccf2f24-0143-407d-973b-322d37cb2794"},"vehicle_type_id":"4","last_reported":1732047046,"current_range_meters":28800,"station_id":"ce4bhrh2rcd13ifvqhug","pricing_plan_id":"cebpf4jnsgd1na2vs0mg"},{"bike_id":"c68126c9-8aa5-4704-a059-6d6aef7145fc","system_id":"levelo_inurba_marseille","lat":43.28842,"lon":5.39294,"is_reserved":false,"is_disabled":false,"rental_uris":{"android":"levelo://app?vid=c68126c9-8aa5-4704-a059-6d6aef7145fc","ios":"levelo://app?vid=c68126c9-8aa5-4704-a059-6d6aef7145fc"},"vehicle_type_id":"4","last_reported":1732047046,"current_range_meters":6800,"station_id":"ce4bh2p2rcd13ifvqdi0","pricing_plan_id":"cebpf4jnsgd1na2vs0mg"},{"bike_id":"ad142e48-0964-413b-b6c6-2a15c9a22e3c","system_id":"levelo_inurba_marseille","lat":43.30348,"lon":5.4187,"is_reserved":false,"is_disabled":false,"rental_uris":{"android":"levelo://app?vid=ad142e48-0964-413b-b6c6-2a15c9a22e3c","ios":"levelo://app?vid=ad142e48-0964-413b-b6c6-2a15c9a22e3c"},"vehicle_type_id":"4","last_reported":1732047046,"current_range_meters":38800,"station_id":"ce4bhop2rcd13ifvqh7g","pricing_plan_id":"cebpf4jnsgd1na2vs0mg"},{"bike_id":"5b4c480a-bfd2-4c95-b8aa-e4c914eb54f7","system_id":"levelo_inurba_marseille","lat":43.29054,"lon":5.37145,"is_reserved":false,"is_disabled":false,"rental_uris":{"android":"levelo://app?vid=5b4c480a-bfd2-4c95-b8aa-e4c914eb54f7","ios":"levelo://app?vid=5b4c480a-bfd2-4c95-b8aa-e4c914eb54f7"},"vehicle_type_id":"4","last_reported":1732047046,"current_range_meters":38800,"station_id":"ce4bh5p2rcd13ifvqe4g","pricing_plan_id":"cebpf4jnsgd1na2vs0mg"},{"bike_id":"f2cc4eb9-f669-4abb-815a-092e264f769c","system_id":"levelo_inurba_marseille","lat":43.28938,"lon":5.39621,"is_reserved":false,"is_disabled":false,"rental_uris":{"android":"levelo://app?vid=f2cc4eb9-f669-4abb-815a-092e264f769c","ios":"levelo://app?vid=f2cc4eb9-f669-4abb-815a-092e264f769c"},"vehicle_type_id":"4","last_reported":1732047046,"current_range_meters":28800,"station_id":"ce4bh3h2rcd13ifvqdn0","pricing_plan_id":"cebpf4jnsgd1na2vs0mg"},{"bike_id":"7e35deb2-0950-494e-a5fc-48886e723f0a","system_id":"levelo_inurba_marseille","lat":43.290368,"lon":5.37561,"is_reserved":false,"is_disabled":true,"rental_uris":{"android":"levelo://app?vid=7e35deb2-0950-494e-a5fc-48886e723f0a","ios":"levelo://app?vid=7e35deb2-0950-494e-a5fc-48886e723f0a"},"vehicle_type_id":"4","last_reported":1732047046,"current_range_meters":8000,"station_id":"ce4bh692rcd13ifvqe90","pricing_plan_id":"cebpf4jnsgd1na2vs0mg"},{"bike_id":"d482b473-8011-43d1-9203-ef428f8af553","system_id":"levelo_inurba_marseille","lat":43.29554,"lon":5.42285,"is_reserved":false,"is_disabled":false,"rental_uris":{"android":"levelo://app?vid=d482b473-8011-43d1-9203-ef428f8af553","ios":"levelo://app?vid=d482b473-8011-43d1-9203-ef428f8af553"},"vehicle_type_id":"4","last_reported":1732047046,"current_range_meters":38800,"station_id":"ce4bhph2rcd13ifvqhdg","pricing_plan_id":"cebpf4jnsgd1na2vs0mg"},{"bike_id":"ecfa40ca-dba6-4b2d-936e-566e8f6431eb","system_id":"levelo_inurba_marseille","lat":43.28967,"lon":5.3716,"is_reserved":false,"is_disabled":true,"rental_uris":{"android":"levelo://app?vid=ecfa40ca-dba6-4b2d-936e-566e8f6431eb","ios":"levelo://app?vid=ecfa40ca-dba6-4b2d-936e-566e8f6431eb"},"vehicle_type_id":"4","last_reported":1732047046,"current_range_meters":6800,"station_id":"","pricing_plan_id":"cebpf4jnsgd1na2vs0mg"},{"bike_id":"cde5eb04-35f5-4971-aec4-8004f9b2dcd9","system_id":"levelo_inurba_marseille","lat":43.28269,"lon":5.35072,"is_reserved":false,"is_disabled":true,"rental_uris":{"android":"levelo://app?vid=cde5eb04-35f5-4971-aec4-8004f9b2dcd9","ios":"levelo://app?vid=cde5eb04-35f5-4971-aec4-8004f9b2dcd9"},"vehicle_type_id":"4","last_reported":1732047046,"current_range_meters":32400,"station_id":"ce4bhbp2rcd13ifvqerg","pricing_plan_id":"cebpf4jnsgd1na2vs0mg"},{"bike_id":"e63fa20f-859b-43dc-995d-a32935dd2a71","system_id":"levelo_inurba_marseille","lat":43.2761,"lon":5.36107,"is_reserved":false,"is_disabled":false,"rental_uris":{"android":"levelo://app?vid=e63fa20f-859b-43dc-995d-a32935dd2a71","ios":"levelo://app?vid=e63fa20f-859b-43dc-995d-a32935dd2a71"},"vehicle_type_id":"4","last_reported":1732047046,"current_range_meters":16400,"station_id":"ce4bgj92rcd13ifvqbe0","pricing_plan_id":"cebpf4jnsgd1na2vs0mg"},{"bike_id":"d5e4a0a2-6e8c-42b4-88d0-3c9fd662eff8","system_id":"levelo_inurba_marseille","lat":43.28703,"lon":5.39994,"is_reserved":false,"is_disabled":false,"rental_uris":{"android":"levelo://app?vid=d5e4a0a2-6e8c-42b4-88d0-3c9fd662eff8","ios":"levelo://app?vid=d5e4a0a2-6e8c-42b4-88d0-3c9fd662eff8"},"vehicle_type_id":"4","last_reported":1732047046,"current_range_meters":26800,"station_id":"ce4bho92rcd13ifvqh3g","pricing_plan_id":"cebpf4jnsgd1na2vs0mg"},{"bike_id":"95847fec-7d4e-4203-9906-b2cd26dae74c","system_id":"levelo_inurba_marseille","lat":43.27809,"lon":5.40716,"is_reserved":false,"is_disabled":false,"rental_uris":{"android":"levelo://app?vid=95847fec-7d4e-4203-9906-b2cd26dae74c","ios":"levelo://app?vid=95847fec-7d4e-4203-9906-b2cd26dae74c"},"vehicle_type_id":"4","last_reported":1732047046,"current_range_meters":38800,"station_id":"ce4bhnh2rcd13ifvqgtg","pricing_plan_id":"cebpf4jnsgd1na2vs0mg"},{"bike_id":"f8f06b47-791b-47ca-acea-dc1fdaad8acf","system_id":"levelo_inurba_marseille","lat":43.28701,"lon":5.39979,"is_reserved":false,"is_disabled":false,"rental_uris":{"android":"levelo://app?vid=f8f06b47-791b-47ca-acea-dc1fdaad8acf","ios":"levelo://app?vid=f8f06b47-791b-47ca-acea-dc1fdaad8acf"},"vehicle_type_id":"4","last_reported":1732047046,"current_range_meters":35600,"station_id":"ce4bho92rcd13ifvqh3g","pricing_plan_id":"cebpf4jnsgd1na2vs0mg"},{"bike_id":"dd847edf-5e44-408c-ab9e-db4ca8cad3d3","system_id":"levelo_inurba_marseille","lat":43.28661,"lon":5.38664,"is_reserved":false,"is_disabled":false,"rental_uris":{"android":"levelo://app?vid=dd847edf-5e44-408c-ab9e-db4ca8cad3d3","ios":"levelo://app?vid=dd847edf-5e44-408c-ab9e-db4ca8cad3d3"},"vehicle_type_id":"4","last_reported":1732047046,"current_range_meters":9200,"station_id":"ce4bh492rcd13ifvqdug","pricing_plan_id":"cebpf4jnsgd1na2vs0mg"},{"bike_id":"0e2bbe61-8f31-47ba-b582-6a82d0b052e0","system_id":"levelo_inurba_marseille","lat":43.29029,"lon":5.38353,"is_reserved":false,"is_disabled":false,"rental_uris":{"android":"levelo://app?vid=0e2bbe61-8f31-47ba-b582-6a82d0b052e0","ios":"levelo://app?vid=0e2bbe61-8f31-47ba-b582-6a82d0b052e0"},"vehicle_type_id":"4","last_reported":1732047046,"current_range_meters":27600,"station_id":"ce4bgip2rcd13ifvqbb0","pricing_plan_id":"cebpf4jnsgd1na2vs0mg"},{"bike_id":"c3bc0f64-f384-48a7-9517-04f95522a7e3","system_id":"levelo_inurba_marseille","lat":43.318242,"lon":5.37611,"is_reserved":false,"is_disabled":true,"rental_uris":{"android":"levelo://app?vid=c3bc0f64-f384-48a7-9517-04f95522a7e3","ios":"levelo://app?vid=c3bc0f64-f384-48a7-9517-04f95522a7e3"},"vehicle_type_id":"4","last_reported":1732047046,"current_range_meters":14000,"station_id":"","pricing_plan_id":"cebpf4jnsgd1na2vs0mg"},{"bike_id":"b35d0fdc-bad6-45ff-80e5-2e15006688d8","system_id":"levelo_inurba_marseille","lat":43.30532,"lon":5.38419,"is_reserved":false,"is_disabled":false,"rental_uris":{"android":"levelo://app?vid=b35d0fdc-bad6-45ff-80e5-2e15006688d8","ios":"levelo://app?vid=b35d0fdc-bad6-45ff-80e5-2e15006688d8"},"vehicle_type_id":"4","last_reported":1732047046,"current_range_meters":7200,"station_id":"ce4bgg92rcd13ifvqb30","pricing_plan_id":"cebpf4jnsgd1na2vs0mg"},{"bike_id":"b0e105d9-9f4c-4aac-ad98-aa479f2fe03e","system_id":"levelo_inurba_marseille","lat":43.31173,"lon":5.3871,"is_reserved":false,"is_disabled":false,"rental_uris":{"android":"levelo://app?vid=b0e105d9-9f4c-4aac-ad98-aa479f2fe03e","ios":"levelo://app?vid=b0e105d9-9f4c-4aac-ad98-aa479f2fe03e"},"vehicle_type_id":"4","last_reported":1732047046,"current_range_meters":28800,"station_id":"ce4bgv12rcd13ifvqcp0","pricing_plan_id":"cebpf4jnsgd1na2vs0mg"},{"bike_id":"e66e94c2-95bc-4223-a524-313295c2ae2c","system_id":"levelo_inurba_marseille","lat":43.29168,"lon":5.37152,"is_reserved":false,"is_disabled":false,"rental_uris":{"android":"levelo://app?vid=e66e94c2-95bc-4223-a524-313295c2ae2c","ios":"levelo://app?vid=e66e94c2-95bc-4223-a524-313295c2ae2c"},"vehicle_type_id":"4","last_reported":1732047046,"current_range_meters":38000,"station_id":"ce4bha92rcd13ifvqeh0","pricing_plan_id":"cebpf4jnsgd1na2vs0mg"},{"bike_id":"ce27fe64-e773-48c7-8be0-dcaf49f06d43","system_id":"levelo_inurba_marseille","lat":43.2408,"lon":5.37725,"is_reserved":false,"is_disabled":true,"rental_uris":{"android":"levelo://app?vid=ce27fe64-e773-48c7-8be0-dcaf49f06d43","ios":"levelo://app?vid=ce27fe64-e773-48c7-8be0-dcaf49f06d43"},