{"last_updated":1746036829,"ttl":60,"version":"2.2","data":{"bikes":[{"bike_id":"af4f0c69-e62d-4155-b1d1-a67b45271ae1","system_id":"levelo_inurba_marseille","lat":43.2476,"lon":5.41168,"is_reserved":false,"is_disabled":true,"rental_uris":{"android":"levelo://app?vid=af4f0c69-e62d-4155-b1d1-a67b45271ae1","ios":"levelo://app?vid=af4f0c69-e62d-4155-b1d1-a67b45271ae1"},"vehicle_type_id":"4","last_reported":1746036829,"current_range_meters":0,"station_id":"","pricing_plan_id":"cebpf4jnsgd1na2vs0mg"},{"bike_id":"848d4387-4b2a-4fcf-aa05-4e28464f9c04","system_id":"levelo_inurba_marseille","lat":43.29719,"lon":5.36253,"is_reserved":false,"is_disabled":true,"rental_uris":{"android":"levelo://app?vid=848d4387-4b2a-4fcf-aa05-4e28464f9c04","ios":"levelo://app?vid=848d4387-4b2a-4fcf-aa05-4e28464f9c04"},"vehicle_type_id":"4","last_reported":1746036829,"current_range_meters":0,"station_id":"","pricing_plan_id":"cebpf4jnsgd1na2vs0mg"},{"bike_id":"41eecc26-9e0f-430e-ae55-df1940b9ba5b","system_id":"levelo_inurba_marseille","lat":43.3091,"lon":5.38223,"is_reserved":false,"is_disabled":true,"rental_uris":{"android":"levelo://app?vid=41eecc26-9e0f-430e-ae55-df1940b9ba5b","ios":"levelo://app?vid=41eecc26-9e0f-430e-ae55-df1940b9ba5b"},"vehicle_type_id":"4","last_reported":1746036829,"current_range_meters":0,"station_id":"","pricing_plan_id":"cebpf4jnsgd1na2vs0mg"},{"bike_id":"af2baa02-626d-4353-9386-7627a67b7b27","system_id":"levelo_inurba_marseille","lat":43.28767,"lon":5.4495,"is_reserved":false,"is_disabled":true,"rental_uris":{"android":"levelo://app?vid=af2baa02-626d-4353-9386-7627a67b7b27","ios":"levelo://app?vid=af2baa02-626d-4353-9386-7627a67b7b27"},"vehicle_type_id":"4","last_reported":1746036829,"current_range_meters":0,"station_id":"","pricing_plan_id":"cebpf4jnsgd1na2vs0mg"},{"bike_id":"26deac1f-c435-40bc-9469-9ae0b266bb77","system_id":"levelo_inurba_marseille","lat":43.301981,"lon":5.384486,"is_reserved":false,"is_disabled":true,"rental_uris":{"android":"levelo://app?vid=26deac1f-c435-40bc-9469-9ae0b266bb77","ios":"levelo://app?vid=26deac1f-c435-40bc-9469-9ae0b266bb77"},"vehicle_type_id":"4","last_reported":1746036829,"current_range_meters":0,"station_id":"","pricing_plan_id":"cebpf4jnsgd1na2vs0mg"},{"bike_id":"a4c8a335-745b-4d95-97e0-7bac3cb18549","system_id":"levelo_inurba_marseille","lat":43.28123,"lon":5.39849,"is_reserved":false,"is_disabled":true,"rental_uris":{"android":"levelo://app?vid=a4c8a335-745b-4d95-97e0-7bac3cb18549","ios":"levelo://app?vid=a4c8a335-745b-4d95-97e0-7bac3cb18549"},"vehicle_type_id":"4","last_reported":1746036829,"current_range_meters":0,"station_id":"","pricing_plan_id":"cebpf4jnsgd1na2vs0mg"},{"bike_id":"74677f28-3596-4c5b-98de-ba4120a70f9d","system_id":"levelo_inurba_marseille","lat":43.25631,"lon":5.41194,"is_reserved":false,"is_disabled":true,"rental_uris":{"android":"levelo://app?vid=74677f28-3596-4c5b-98de-ba4120a70f9d","ios":"levelo://app?vid=74677f28-3596-4c5b-98de-ba4120a70f9d"},"vehicle_type_id":"4","last_reported":1746036829,"current_range_meters":0,"station_id":"","pricing_plan_id":"cebpf4jnsgd1na2vs0mg"},{"bike_id":"4db1787c-336a-4656-8fe8-cc0127c2107c","system_id":"levelo_inurba_marseille","lat":43.30147,"lon":5.38784,"is_reserved":false,"is_disabled":true,"rental_uris":{"android":"levelo://app?vid=4db1787c-336a-4656-8fe8-cc0127c2107c","ios":"levelo://app?vid=4db1787c-336a-4656-8fe8-cc0127c2107c"},"vehicle_type_id":"4","last_reported":1746036829,"current_range_meters":0,"station_id":"ce4bghh2rcd13ifvqb60","pricing_plan_id":"cebpf4jnsgd1na2vs0mg"},{"bike_id":"720066e2-acaf-43fd-891e-f1b661b8c675","system_id":"levelo_inurba_marseille","lat":43.29805,"lon":5.38107,"is_reserved":false,"is_disabled":true,"rental_uris":{"android":"levelo://app?vid=720066e2-acaf-43fd-891e-f1b661b8c675","ios":"levelo://app?vid=720066e2-acaf-43fd-891e-f1b661b8c675"},"vehicle_type_id":"4","last_reported":1746036829,"current_range_meters":0,"station_id":"ce4bgip2rcd13ifvqbb0","pricing_plan_id":"cebpf4jnsgd1na2vs0mg"},{"bike_id":"cd6696d7-b394-4c85-921a-12e93bf0ba4b","system_id":"levelo_inurba_marseille","lat":43.30445,"lon":5.38879,"is_reserved":false,"is_disabled":true,"rental_uris":{"android":"levelo://app?vid=cd6696d7-b394-4c85-921a-12e93bf0ba4b","ios":"levelo://app?vid=cd6696d7-b394-4c85-921a-12e93bf0ba4b"},"vehicle_type_id":"4","last_reported":1746036829,"current_range_meters":0,"station_id":"ce4bgk12rcd13ifvqbi0","pricing_plan_id":"cebpf4jnsgd1na2vs0mg"},{"bike_id":"c284d4bd-71b3-4053-9894-a61cb5b8d786","system_id":"levelo_inurba_marseille","lat":43.313265,"lon":5.366567,"is_reserved":false,"is_disabled":true,"rental_uris":{"android":"levelo://app?vid=c284d4bd-71b3-4053-9894-a61cb5b8d786","ios":"levelo://app?vid=c284d4bd-71b3-4053-9894-a61cb5b8d786"},"vehicle_type_id":"4","last_reported":1746036829,"current_range_meters":0,"station_id":"ce4bgs12rcd13ifvqcag","pricing_plan_id":"cebpf4jnsgd1na2vs0mg"},{"bike_id":"f5f8abad-29bb-47fa-b4aa-cbd29a4a419d","system_id":"levelo_inurba_marseille","lat":43.31367,"lon":5.38495,"is_reserved":false,"is_disabled":true,"rental_uris":{"android":"levelo://app?vid=f5f8abad-29bb-47fa-b4aa-cbd29a4a419d","ios":"levelo://app?vid=f5f8abad-29bb-47fa-b4aa-cbd29a4a419d"},"vehicle_type_id":"4","last_reported":1746036829,"current_range_meters":0,"station_id":"ce4bgt92rcd13ifvqcf0","pricing_plan_id":"cebpf4jnsgd1na2vs0mg"},{"bike_id":"d5d707d8-b210-49ad-af62-f73073c7d21c","system_id":"levelo_inurba_marseille","lat":43.309077,"lon":5.40146,"is_reserved":false,"is_disabled":true,"rental_uris":{"android":"levelo://app?vid=d5d707d8-b210-49ad-af62-f73073c7d21c","ios":"levelo://app?vid=d5d707d8-b210-49ad-af62-f73073c7d21c"},"vehicle_type_id":"4","last_reported":1746036829,"current_range_meters":0,"station_id":"ce4bgvp2rcd13ifvqct0","pricing_plan_id":"cebpf4jnsgd1na2vs0mg"},{"bike_id":"c79c6c05-21a0-4446-a191-25251cb5e3c9","system_id":"levelo_inurba_marseille","lat":43.30142,"lon":5.39887,"is_reserved":false,"is_disabled":true,"rental_uris":{"android":"levelo://app?vid=c79c6c05-21a0-4446-a191-25251cb5e3c9","ios":"levelo://app?vid=c79c6c05-21a0-4446-a191-25251cb5e3c9"},"vehicle_type_id":"4","last_reported":1746036829,"current_range_meters":0,"station_id":"ce4bh0h2rcd13ifvqd40","pricing_plan_id":"cebpf4jnsgd1na2vs0mg"},{"bike_id":"704cc059-d5d9-463d-ba63-fbfc98ac928b","system_id":"levelo_inurba_marseille","lat":43.29873,"lon":5.39735,"is_reserved":false,"is_disabled":true,"rental_uris":{"android":"levelo://app?vid=704cc059-d5d9-463d-ba63-fbfc98ac928b","ios":"levelo://app?vid=704cc059-d5d9-463d-ba63-fbfc98ac928b"},"vehicle_type_id":"4","last_reported":1746036829,"current_range_meters":0,"station_id":"ce4bh0h2rcd13ifvqd50","pricing_plan_id":"cebpf4jnsgd1na2vs0mg"},{"bike_id":"59c37ddf-736b-4369-b00b-67ce04a96ba9","system_id":"levelo_inurba_marseille","lat":43.29793,"lon":5.404,"is_reserved":false,"is_disabled":true,"rental_uris":{"android":"levelo://app?vid=59c37ddf-736b-4369-b00b-67ce04a96ba9","ios":"levelo://app?vid=59c37ddf-736b-4369-b00b-67ce04a96ba9"},"vehicle_type_id":"4","last_reported":1746036829,"current_range_meters":0,"station_id":"ce4bh112rcd13ifvqd90","pricing_plan_id":"cebpf4jnsgd1na2vs0mg"},{"bike_id":"076e924d-61a8-4be6-bfe7-c8d08cc8915c","system_id":"levelo_inurba_marseille","lat":43.29418,"lon":5.386278,"is_reserved":false,"is_disabled":true,"rental_uris":{"android":"levelo://app?vid=076e924d-61a8-4be6-bfe7-c8d08cc8915c","ios":"levelo://app?vid=076e924d-61a8-4be6-bfe7-c8d08cc8915c"},"vehicle_type_id":"4","last_reported":1746036829,"current_range_meters":0,"station_id":"ce4bh2h2rcd13ifvqdh0","pricing_plan_id":"cebpf4jnsgd1na2vs0mg"},{"bike_id":"a532f17c-f746-4fb5-ad74-7b3f35ff64d4","system_id":"levelo_inurba_marseille","lat":43.28395,"lon":5.37506,"is_reserved":false,"is_disabled":true,"rental_uris":{"android":"levelo://app?vid=a532f17c-f746-4fb5-ad74-7b3f35ff64d4","ios":"levelo://app?vid=a532f17c-f746-4fb5-ad74-7b3f35ff64d4"},"vehicle_type_id":"4","last_reported":1746036829,"current_range_meters":0,"station_id":"ce4bh412rcd13ifvqds0","pricing_plan_id":"cebpf4jnsgd1na2vs0mg"},{"bike_id":"08e4b66e-d992-46b7-a5c8-de6f8cc3da32","system_id":"levelo_inurba_marseille","lat":43.28477,"lon":5.3842,"is_reserved":false,"is_disabled":true,"rental_uris":{"android":"levelo://app?vid=08e4b66e-d992-46b7-a5c8-de6f8cc3da32","ios":"levelo://app?vid=08e4b66e-d992-46b7-a5c8-de6f8cc3da32"},"vehicle_type_id":"4","last_reported":1746036829,"current_range_meters":0,"station_id":"ce4bh512rcd13ifvqe3g","pricing_plan_id":"cebpf4jnsgd1na2vs0mg"},{"bike_id":"28b5136a-1eb4-4117-8d6f-cfaa39bda2ae","system_id":"levelo_inurba_marseille","lat":43.28422,"lon":5.34977,"is_reserved":false,"is_disabled":true,"rental_uris":{"android":"levelo://app?vid=28b5136a-1eb4-4117-8d6f-cfaa39bda2ae","ios":"levelo://app?vid=28b5136a-1eb4-4117-8d6f-cfaa39bda2ae"},"vehicle_type_id":"4","last_reported":1746036829,"current_range_meters":0,"station_id":"ce4bhbh2rcd13ifvqepg","pricing_plan_id":"cebpf4jnsgd1na2vs0mg"},{"bike_id":"46ceae57-e0be-45c3-8013-6b68cb96f8d7","system_id":"levelo_inurba_marseille","lat":43.28276,"lon":5.35063,"is_reserved":false,"is_disabled":true,"rental_uris":{"android":"levelo://app?vid=46ceae57-e0be-45c3-8013-6b68cb96f8d7","ios":"levelo://app?vid=46ceae57-e0be-45c3-8013-6b68cb96f8d7"},"vehicle_type_id":"4","last_reported":1746036829,"current_range_meters":0,"station_id":"ce4bhbp2rcd13ifvqerg","pricing_plan_id":"cebpf4jnsgd1na2vs0mg"},{"bike_id":"31d3841c-e050-423b-b821-c2d4f641a2b1","system_id":"levelo_inurba_marseille","lat":43.289439,"lon":5.363856,"is_reserved":false,"is_disabled":true,"rental_uris":{"android":"levelo://app?vid=31d3841c-e050-423b-b821-c2d4f641a2b1","ios":"levelo://app?vid=31d3841c-e050-423b-b821-c2d4f641a2b1"},"vehicle_type_id":"4","last_reported":1746036829,"current_range_meters":0,"station_id":"ce4bhc92rcd13ifvqetg","pricing_plan_id":"cebpf4jnsgd1na2vs0mg"},{"bike_id":"d439b0d3-4004-4099-b78f-a8dc95fe77f9","system_id":"levelo_inurba_marseille","lat":43.25501,"lon":5.37648,"is_reserved":false,"is_disabled":true,"rental_uris":{"android":"levelo://app?vid=d439b0d3-4004-4099-b78f-a8dc95fe77f9","ios":"levelo://app?vid=d439b0d3-4004-4099-b78f-a8dc95fe77f9"},"vehicle_type_id":"4","last_reported":1746036829,"current_range_meters":0,"station_id":"ce4bhh12rcd13ifvqff0","pricing_plan_id":"cebpf4jnsgd1na2vs0mg"},{"bike_id":"de8f9e7d-ece9-4277-a029-54df877bc5d4","system_id":"levelo_inurba_marseille","lat":43.25574,"lon":5.38228,"is_reserved":false,"is_disabled":true,"rental_uris":{"android":"levelo://app?vid=de8f9e7d-ece9-4277-a029-54df877bc5d4","ios":"levelo://app?vid=de8f9e7d-ece9-4277-a029-54df877bc5d4"},"vehicle_type_id":"4","last_reported":1746036829,"current_range_meters":0,"station_id":"ce4bhih2rcd13ifvqfs0","pricing_plan_id":"cebpf4jnsgd1na2vs0mg"},{"bike_id":"aa065116-94c1-4962-9384-141c97cc19bf","system_id":"levelo_inurba_marseille","lat":43.30427,"lon":5.41247,"is_reserved":false,"is_disabled":true,"rental_uris":{"android":"levelo://app?vid=aa065116-94c1-4962-9384-141c97cc19bf","ios":"levelo://app?vid=aa065116-94c1-4962-9384-141c97cc19bf"},"vehicle_type_id":"4","last_reported":1746036829,"current_range_meters":0,"station_id":"ce4bhop2rcd13ifvqh8g","pricing_plan_id":"cebpf4jnsgd1na2vs0mg"},{"bike_id":"ed314fde-c2f2-46d8-a9dd-8ae13d499d16","system_id":"levelo_inurba_marseille","lat":43.32348,"lon":5.40587,"is_reserved":false,"is_disabled":true,"rental_uris":{"android":"levelo://app?vid=ed314fde-c2f2-46d8-a9dd-8ae13d499d16","ios":"levelo://app?vid=ed314fde-c2f2-46d8-a9dd-8ae13d499d16"},"vehicle_type_id":"4","last_reported":1746036829,"current_range_meters":0,"station_id":"ce4bhq92rcd13ifvqhjg","pricing_plan_id":"cebpf4jnsgd1na2vs0mg"},{"bike_id":"53c1ea04-fb62-4277-ac3c-fd24bc3aa650","system_id":"levelo_inurba_marseille","lat":43.30256,"lon":5.36902,"is_reserved":false,"is_disabled":true,"rental_uris":{"android":"levelo://app?vid=53c1ea04-fb62-4277-ac3c-fd24bc3aa650","ios":"levelo://app?vid=53c1ea04-fb62-4277-ac3c-fd24bc3aa650"},"vehicle_type_id":"4","last_reported":1746036829,"current_range_meters":400,"station_id":"","pricing_plan_id":"cebpf4jnsgd1na2vs0mg"},{"bike_id":"9289eacd-ac7b-46ea-970e-81643a1931f4","system_id":"levelo_inurba_marseille","lat":43.301331,"lon":5.387712,"is_reserved":false,"is_disabled":true,"rental_uris":{"android":"levelo://app?vid=9289eacd-ac7b-46ea-970e-81643a1931f4","ios":"levelo://app?vid=9289eacd-ac7b-46ea-970e-81643a1931f4"},"vehicle_type_id":"4","last_reported":1746036829,"current_range_meters":400,"station_id":"ce4bghh2rcd13ifvqb60","pricing_plan_id":"cebpf4jnsgd1na2vs0mg"},{"bike_id":"107403fe-ff43-481e-a4a3-d59b2430bb91","system_id":"levelo_inurba_marseille","lat":43.30307,"lon":5.39205,"is_reserved":false,"is_disabled":true,"rental_uris":{"android":"levelo://app?vid=107403fe-ff43-481e-a4a3-d59b2430bb91","ios":"levelo://app?vid=107403fe-ff43-481e-a4a3-d59b2430bb91"},"vehicle_type_id":"4","last_reported":1746036829,"current_range_meters":400,"station_id":"ce4bgkh2rcd13ifvqbk0","pricing_plan_id":"cebpf4jnsgd1na2vs0mg"},{"bike_id":"5ad9f21c-b6af-40aa-8a8b-0cb85828e41a","system_id":"levelo_inurba_marseille","lat":43.24393,"lon":5.37051,"is_reserved":false,"is_disabled":true,"rental_uris":{"android":"levelo://app?vid=5ad9f21c-b6af-40aa-8a8b-0cb85828e41a","ios":"levelo://app?vid=5ad9f21c-b6af-40aa-8a8b-0cb85828e41a"},"vehicle_type_id":"4","last_reported":1746036829,"current_range_meters":400,"station_id":"ce4bhhh2rcd13ifvqfk0","pricing_plan_id":"cebpf4jnsgd1na2vs0mg"},{"bike_id":"df62b030-d4a4-4b7c-a4fe-ab39eccc7d5f","system_id":"levelo_inurba_marseille","lat":43.32328,"lon":5.40627,"is_reserved":false,"is_disabled":true,"rental_uris":{"android":"levelo://app?vid=df62b030-d4a4-4b7c-a4fe-ab39eccc7d5f","ios":"levelo://app?vid=df62b030-d4a4-4b7c-a4fe-ab39eccc7d5f"},"vehicle_type_id":"4","last_reported":1746036829,"current_range_meters":400,"station_id":"ce4bhq92rcd13ifvqhjg","pricing_plan_id":"cebpf4jnsgd1na2vs0mg"},{"bike_id":"e881e0aa-33eb-42d1-bdfb-56edf0dd945f","system_id":"levelo_inurba_marseille","lat":43.21741,"lon":5.34596,"is_reserved":false,"is_disabled":true,"rental_uris":{"android":"levelo://app?vid=e881e0aa-33eb-42d1-bdfb-56edf0dd945f","ios":"levelo://app?vid=e881e0aa-33eb-42d1-bdfb-56edf0dd945f"},"vehicle_type_id":"4","last_reported":1746036829,"current_range_meters":400,"station_id":"st_cvj6r9ubvosntc0bgbag","pricing_plan_id":"cebpf4jnsgd1na2vs0mg"},{"bike_id":"6178dea6-8a8d-4371-bddc-909080df01db","system_id":"levelo_inurba_marseille","lat":43.301331,"lon":5.387687,"is_reserved":false,"is_disabled":true,"rental_uris":{"android":"levelo://app?vid=6178dea6-8a8d-4371-bddc-909080df01db","ios":"levelo://app?vid=6178dea6-8a8d-4371-bddc-909080df01db"},"vehicle_type_id":"4","last_reported":1746036829,"current_range_meters":800,"station_id":"ce4bghh2rcd13ifvqb60","pricing_plan_id":"cebpf4jnsgd1na2vs0mg"},{"bike_id":"06badf46-946d-4d04-8d0e-40335eabe060","system_id":"levelo_inurba_marseille","lat":43.28407,"lon":5.37515,"is_reserved":false,"is_disabled":true,"rental_uris":{"android":"levelo://app?vid=06badf46-946d-4d04-8d0e-40335eabe060","ios":"levelo://app?vid=06badf46-946d-4d04-8d0e-40335eabe060"},"vehicle_type_id":"4","last_reported":1746036829,"current_range_meters":800,"station_id":"ce4bh412rcd13ifvqds0","pricing_plan_id":"cebpf4jnsgd1na2vs0mg"},{"bike_id":"26f38e39-3b37-416a-b805-6b6ffb782c23","system_id":"levelo_inurba_marseille","lat":43.28476,"lon":5.38431,"is_reserved":false,"is_disabled":true,"rental_uris":{"android":"levelo://app?vid=26f38e39-3b37-416a-b805-6b6ffb782c23","ios":"levelo://app?vid=26f38e39-3b37-416a-b805-6b6ffb782c23"},"vehicle_type_id":"4","last_reported":1746036829,"current_range_meters":800,"station_id":"ce4bh512rcd13ifvqe3g","pricing_plan_id":"cebpf4jnsgd1na2vs0mg"},{"bike_id":"20ef35d2-bb7c-43d4-9801-686ecf0654ab","system_id":"levelo_inurba_marseille","lat":43.27898,"lon":5.38012,"is_reserved":false,"is_disabled":true,"rental_uris":{"android":"levelo://app?vid=20ef35d2-bb7c-43d4-9801-686ecf0654ab","ios":"levelo://app?vid=20ef35d2-bb7c-43d4-9801-686ecf0654ab"},"vehicle_type_id":"4","last_reported":1746036829,"current_range_meters":800,"station_id":"ce4bhf92rcd13ifvqf50","pricing_plan_id":"cebpf4jnsgd1na2vs0mg"},{"bike_id":"f8f3d0f4-d0cd-4621-a18c-a13a5b662131","system_id":"levelo_inurba_marseille","lat":43.25579,"lon":5.38241,"is_reserved":false,"is_disabled":true,"rental_uris":{"android":"levelo://app?vid=f8f3d0f4-d0cd-4621-a18c-a13a5b662131","ios":"levelo://app?vid=f8f3d0f4-d0cd-4621-a18c-a13a5b662131"},"vehicle_type_id":"4","last_reported":1746036829,"current_range_meters":800,"station_id":"ce4bhih2rcd13ifvqfs0","pricing_plan_id":"cebpf4jnsgd1na2vs0mg"},{"bike_id":"65cade06-dde8-4362-ace2-fb5c08ac4095","system_id":"levelo_inurba_marseille","lat":43.25724,"lon":5.41109,"is_reserved":false,"is_disabled":true,"rental_uris":{"android":"levelo://app?vid=65cade06-dde8-4362-ace2-fb5c08ac4095","ios":"levelo://app?vid=65cade06-dde8-4362-ace2-fb5c08ac4095"},"vehicle_type_id":"4","last_reported":1746036829,"current_range_meters":800,"station_id":"ce4bhkp2rcd13ifvqgd0","pricing_plan_id":"cebpf4jnsgd1na2vs0mg"},{"bike_id":"5fe960bb-63e2-4fae-b771-b6a5b1b51ab9","system_id":"levelo_inurba_marseille","lat":43.2511,"lon":5.40324,"is_reserved":false,"is_disabled":true,"rental_uris":{"android":"levelo://app?vid=5fe960bb-63e2-4fae-b771-b6a5b1b51ab9","ios":"levelo://app?vid=5fe960bb-63e2-4fae-b771-b6a5b1b51ab9"},"vehicle_type_id":"4","last_reported":1746036829,"current_range_meters":800,"station_id":"ce4bhlh2rcd13ifvqgig","pricing_plan_id":"cebpf4jnsgd1na2vs0mg"},{"bike_id":"2854a144-f9ba-40f6-9676-46154c70ca48","system_id":"levelo_inurba_marseille","lat":43.29533,"lon":5.3854,"is_reserved":false,"is_disabled":true,"rental_uris":{"android":"levelo://app?vid=2854a144-f9ba-40f6-9676-46154c70ca48","ios":"levelo://app?vid=2854a144-f9ba-40f6-9676-46154c70ca48"},"vehicle_type_id":"4","last_reported":1746036829,"current_range_meters":1200,"station_id":"ce4bgih2rcd13ifvqba0","pricing_plan_id":"cebpf4jnsgd1na2vs0mg"},{"bike_id":"29eabc11-f94a-459d-b7cc-55d7cb729eb2","system_id":"levelo_inurba_marseille","lat":43.289374,"lon":5.396163,"is_reserved":false,"is_disabled":true,"rental_uris":{"android":"levelo://app?vid=29eabc11-f94a-459d-b7cc-55d7cb729eb2","ios":"levelo://app?vid=29eabc11-f94a-459d-b7cc-55d7cb729eb2"},"vehicle_type_id":"4","last_reported":1746036829,"current_range_meters":1200,"station_id":"ce4bh3h2rcd13ifvqdn0","pricing_plan_id":"cebpf4jnsgd1na2vs0mg"},{"bike_id":"6d4a0dc9-b7ac-4e78-a264-d973c51b0841","system_id":"levelo_inurba_marseille","lat":43.29006,"lon":5.3561,"is_reserved":false,"is_disabled":true,"rental_uris":{"android":"levelo://app?vid=6d4a0dc9-b7ac-4e78-a264-d973c51b0841","ios":"levelo://app?vid=6d4a0dc9-b7ac-4e78-a264-d973c51b0841"},"vehicle_type_id":"4","last_reported":1746036829,"current_range_meters":1200,"station_id":"ce4bhb92rcd13ifvqen0","pricing_plan_id":"cebpf4jnsgd1na2vs0mg"},{"bike_id":"f7a14177-f43f-4b5b-949e-d40f304fdd7e","system_id":"levelo_inurba_marseille","lat":43.28615,"lon":5.35103,"is_reserved":false,"is_disabled":true,"rental_uris":{"android":"levelo://app?vid=f7a14177-f43f-4b5b-949e-d40f304fdd7e","ios":"levelo://app?vid=f7a14177-f43f-4b5b-949e-d40f304fdd7e"},"vehicle_type_id":"4","last_reported":1746036829,"current_range_meters":1200,"station_id":"ce4bhch2rcd13ifvqeug","pricing_plan_id":"cebpf4jnsgd1na2vs0mg"},{"bike_id":"4422d707-67c7-4050-96df-896b03d3f89e","system_id":"levelo_inurba_marseille","lat":43.24803,"lon":5.37454,"is_reserved":false,"is_disabled":true,"rental_uris":{"android":"levelo://app?vid=4422d707-67c7-4050-96df-896b03d3f89e","ios":"levelo://app?vid=4422d707-67c7-4050-96df-896b03d3f89e"},"vehicle_type_id":"4","last_reported":1746036829,"current_range_meters":1200,"station_id":"ce4bhgh2rcd13ifvqfb0","pricing_plan_id":"cebpf4jnsgd1na2vs0mg"},{"bike_id":"2aa7e829-67cf-498c-b3de-5c8fbffc9bb9","system_id":"levelo_inurba_marseille","lat":43.26216,"lon":5.37432,"is_reserved":false,"is_disabled":true,"rental_uris":{"android":"levelo://app?vid=2aa7e829-67cf-498c-b3de-5c8fbffc9bb9","ios":"levelo://app?vid=2aa7e829-67cf-498c-b3de-5c8fbffc9bb9"},"vehicle_type_id":"4","last_reported":1746036829,"current_range_meters":1200,"station_id":"ce4bhgp2rcd13ifvqfc0","pricing_plan_id":"cebpf4jnsgd1na2vs0mg"},{"bike_id":"360bb301-4a2c-4204-9342-3a42cf3bd20e","system_id":"levelo_inurba_marseille","lat":43.2511,"lon":5.40318,"is_reserved":false,"is_disabled":true,"rental_uris":{"android":"levelo://app?vid=360bb301-4a2c-4204-9342-3a42cf3bd20e","ios":"levelo://app?vid=360bb301-4a2c-4204-9342-3a42cf3bd20e"},"vehicle_type_id":"4","last_reported":1746036829,"current_range_meters":1200,"station_id":"ce4bhlh2rcd13ifvqgig","pricing_plan_id":"cebpf4jnsgd1na2vs0mg"},{"bike_id":"30f9b49b-e789-4918-be6d-35ab54f7bff6","system_id":"levelo_inurba_marseille","lat":43.28714,"lon":5.3999,"is_reserved":false,"is_disabled":true,"rental_uris":{"android":"levelo://app?vid=30f9b49b-e789-4918-be6d-35ab54f7bff6","ios":"levelo://app?vid=30f9b49b-e789-4918-be6d-35ab54f7bff6"},"vehicle_type_id":"4","last_reported":1746036829,"current_range_meters":1200,"station_id":"ce4bho92rcd13ifvqh3g","pricing_plan_id":"cebpf4jnsgd1na2vs0mg"},{"bike_id":"d22d83fc-8b39-4698-8042-c075ee060bd1","system_id":"levelo_inurba_marseille","lat":43.31751,"lon":5.39021,"is_reserved":false,"is_disabled":true,"rental_uris":{"android":"levelo://app?vid=d22d83fc-8b39-4698-8042-c075ee060bd1","ios":"levelo://app?vid=d22d83fc-8b39-4698-8042-c075ee060bd1"},"vehicle_type_id":"4","last_reported":1746036829,"current_range_meters":1200,"station_id":"ce4bhqp2rcd13ifvqhng","pricing_plan_id":"cebpf4jnsgd1na2vs0mg"},{"bike_id":"7a5803ac-21b1-4756-99e8-0009d69c7c32","system_id":"levelo_inurba_marseille","lat":43.29594,"lon":5.38095,"is_reserved":false,"is_disabled":true,"rental_uris":{"android":"levelo://app?vid=7a5803ac-21b1-4756-99e8-0009d69c7c32","ios":"levelo://app?vid=7a5803ac-21b1-4756-99e8-0009d69c7c32"},"vehicle_type_id":"4","last_reported":1746036829,"current_range_meters":1600,"station_id":"ce4bgl12rcd13ifvqbo0","pricing_plan_id":"cebpf4jnsgd1na2vs0mg"},{"bike_id":"fd9dd7ee-1195-4756-9b2e-f0f595428996","system_id":"levelo_inurba_marseille","lat":43.29277,"lon":5.40113,"is_reserved":false,"is_disabled":true,"rental_uris":{"android":"levelo://app?vid=fd9dd7ee-1195-4756-9b2e-f0f595428996","ios":"levelo://app?vid=fd9dd7ee-1195-4756-9b2e-f0f595428996"},"vehicle_type_id":"4","last_reported":1746036829,"current_range_meters":1600,"station_id":"ce4bh312rcd13ifvqdk0","pricing_plan_id":"cebpf4jnsgd1na2vs0mg"},{"bike_id":"8c99acf7-bfe1-45e3-b85f-bbbeec00ba9d","system_id":"levelo_inurba_marseille","lat":43.28402,"lon":5.37514,"is_reserved":false,"is_disabled":true,"rental_uris":{"android":"levelo://app?vid=8c99acf7-bfe1-45e3-b85f-bbbeec00ba9d","ios":"levelo://app?vid=8c99acf7-bfe1-45e3-b85f-bbbeec00ba9d"},"vehicle_type_id":"4","last_reported":1746036829,"current_range_meters":1600,"station_id":"ce4bh412rcd13ifvqds0","pricing_plan_id":"cebpf4jnsgd1na2vs0mg"},{"bike_id":"f43b6c55-27b2-402b-84b5-f6fe6bcfa056","system_id":"levelo_inurba_marseille","lat":43.25504,"lon":5.37651,"is_reserved":false,"is_disabled":true,"rental_uris":{"android":"levelo://app?vid=f43b6c55-27b2-402b-84b5-f6fe6bcfa056","ios":"levelo://app?vid=f43b6c55-27b2-402b-84b5-f6fe6bcfa056"},"vehicle_type_id":"4","last_reported":1746036829,"current_range_meters":1600,"station_id":"ce4bhh12rcd13ifvqff0","pricing_plan_id":"cebpf4jnsgd1na2vs0mg"},{"bike_id":"3122997b-bca7-4800-9e71-2f1285b8448c","system_id":"levelo_inurba_marseille","lat":43.26212,"lon":5.40445,"is_reserved":false,"is_disabled":true,"rental_uris":{"android":"levelo://app?vid=3122997b-bca7-4800-9e71-2f1285b8448c","ios":"levelo://app?vid=3122997b-bca7-4800-9e71-2f1285b8448c"},"vehicle_type_id":"4","last_reported":1746036829,"current_range_meters":2000,"station_id":"ce4bhmh2rcd13ifvqgmg","pricing_plan_id":"cebpf4jnsgd1na2vs0mg"},{"bike_id":"e5b4b90d-e268-4de2-98f4-f6d0513f8801","system_id":"levelo_inurba_marseille","lat":43.26544,"lon":5.42216,"is_reserved":false,"is_disabled":false,"rental_uris":{"android":"levelo://app?vid=e5b4b90d-e268-4de2-98f4-f6d0513f8801","ios":"levelo://app?vid=e5b4b90d-e268-4de2-98f4-f6d0513f8801"},"vehicle_type_id":"4","last_reported":1746036829,"current_range_meters":2800,"station_id":"","pricing_plan_id":"cebpf4jnsgd1na2vs0mg"},{"bike_id":"56f685f5-0439-45cc-a632-b7df7c6fbd24","system_id":"levelo_inurba_marseille","lat":43.296204,"lon":5.376956,"is_reserved":false,"is_disabled":false,"rental_uris":{"android":"levelo://app?vid=56f685f5-0439-45cc-a632-b7df7c6fbd24","ios":"levelo://app?vid=56f685f5-0439-45cc-a632-b7df7c6fbd24"},"vehicle_type_id":"4","last_reported":1746036829,"current_range_meters":2800,"station_id":"ce4bgi92rcd13ifvqb90","pricing_plan_id":"cebpf4jnsgd1na2vs0mg"},{"bike_id":"557b93c7-1403-4c80-82fe-887978c16413","system_id":"levelo_inurba_marseille","lat":43.299793,"lon":5.384827,"is_reserved":false,"is_disabled":false,"rental_uris":{"android":"levelo://app?vid=557b93c7-1403-4c80-82fe-887978c16413","ios":"levelo://app?vid=557b93c7-1403-4c80-82fe-887978c16413"},"vehicle_type_id":"4","last_reported":1746036829,"current_range_meters":2800,"station_id":"ce4bgj92rcd13ifvqbd0","pricing_plan_id":"cebpf4jnsgd1na2vs0mg"},{"bike_id":"ee61b545-bb0b-4d39-bb90-c3060222ccfb","system_id":"levelo_inurba_marseille","lat":43.29622,"lon":5.37168,"is_reserved":false,"is_disabled":false,"rental_uris":{"android":"levelo://app?vid=ee61b545-bb0b-4d39-bb90-c3060222ccfb","ios":"levelo://app?vid=ee61b545-bb0b-4d39-bb90-c3060222ccfb"},"vehicle_type_id":"4","last_reported":1746036829,"current_range_meters":2800,"station_id":"ce4bgnh2rcd13ifvqc0g","pricing_plan_id":"cebpf4jnsgd1na2vs0mg"},{"bike_id":"961d8805-4e11-446e-a92f-5a4d7e32b7c8","system_id":"levelo_inurba_marseille","lat":43.25495,"lon":5.37648,"is_reserved":false,"is_disabled":false,"rental_uris":{"android":"levelo://app?vid=961d8805-4e11-446e-a92f-5a4d7e32b7c8","ios":"levelo://app?vid=961d8805-4e11-446e-a92f-5a4d7e32b7c8"},"vehicle_type_id":"4","last_reported":1746036829,"current_range_meters":2800,"station_id":"ce4bhh12rcd13ifvqff0","pricing_plan_id":"cebpf4jnsgd1na2vs0mg"},{"bike_id":"dcc01b38-d948-43c9-86dd-707f2d4336aa","system_id":"levelo_inurba_marseille","lat":43.244,"lon":5.3705,"is_reserved":false,"is_disabled":false,"rental_uris":{"android":"levelo://app?vid=dcc01b38-d948-43c9-86dd-707f2d4336aa","ios":"levelo://app?vid=dcc01b38-d948-43c9-86dd-707f2d4336aa"},"vehicle_type_id":"4","last_reported":1746036829,"current_range_meters":2800,"station_id":"ce4bhhh2rcd13ifvqfk0","pricing_plan_id":"cebpf4jnsgd1na2vs0mg"},{"bike_id":"468e0f30-b4f6-4854-89b8-f002918a665c","system_id":"levelo_inurba_marseille","lat":43.26932,"lon":5.38923,"is_reserved":false,"is_disabled":false,"rental_uris":{"android":"levelo://app?vid=468e0f30-b4f6-4854-89b8-f002918a665c","ios":"levelo://app?vid=468e0f30-b4f6-4854-89b8-f002918a665c"},"vehicle_type_id":"4","last_reported":1746036829,"current_range_meters":2800,"station_id":"ce4bhhh2rcd13ifvqfl0","pricing_plan_id":"cebpf4jnsgd1na2vs0mg"},{"bike_id":"77a346e4-7584-4817-b869-68648d8a8124","system_id":"levelo_inurba_marseille","lat":43.25871,"lon":5.39892,"is_reserved":false,"is_disabled":true,"rental_uris":{"android":"levelo://app?vid=77a346e4-7584-4817-b869-68648d8a8124","ios":"levelo://app?vid=77a346e4-7584-4817-b869-68648d8a8124"},"vehicle_type_id":"4","last_reported":1746036829,"current_range_meters":2800,"station_id":"ce4bhl92rcd13ifvqghg","pricing_plan_id":"cebpf4jnsgd1na2vs0mg"},{"bike_id":"9ee12208-d9e3-4c2f-97c5-64004e21345c","system_id":"levelo_inurba_marseille","lat":43.27814,"lon":5.40708,"is_reserved":false,"is_disabled":false,"rental_uris":{"android":"levelo://app?vid=9ee12208-d9e3-4c2f-97c5-64004e21345c","ios":"levelo://app?vid=9ee12208-d9e3-4c2f-97c5-64004e21345c"},"vehicle_type_id":"4","last_reported":1746036829,"current_range_meters":2800,"station_id":"ce4bhnh2rcd13ifvqgtg","pricing_plan_id":"cebpf4jnsgd1na2vs0mg"},{"bike_id":"2b579503-0858-4ac4-9854-5705e6e55c7a","system_id":"levelo_inurba_marseille","lat":43.28707,"lon":5.39999,"is_reserved":false,"is_disabled":false,"rental_uris":{"android":"levelo://app?vid=2b579503-0858-4ac4-9854-5705e6e55c7a","ios":"levelo://app?vid=2b579503-0858-4ac4-9854-5705e6e55c7a"},"vehicle_type_id":"4","last_reported":1746036829,"current_range_meters":2800,"station_id":"ce4bho92rcd13ifvqh3g","pricing_plan_id":"cebpf4jnsgd1na2vs0mg"},{"bike_id":"cb9488bb-e3c5-48cb-8763-b3fcd43357db","system_id":"levelo_inurba_marseille","lat":43.24169,"lon":5.36381,"is_reserved":false,"is_disabled":false,"rental_uris":{"android":"levelo://app?vid=cb9488bb-e3c5-48cb-8763-b3fcd43357db","ios":"levelo://app?vid=cb9488bb-e3c5-48cb-8763-b3fcd43357db"},"vehicle_type_id":"4","last_reported":1746036829,"current_range_meters":3200,"station_id":"cpo36qri1sfpv3e86is0","pricing_plan_id":"cebpf4jnsgd1na2vs0mg"},{"bike_id":"cf7ce0f7-19a8-4c89-85c7-9f6f3988326f","system_id":"levelo_inurba_marseille","lat":43.21757,"lon":5.34577,"is_reserved":false,"is_disabled":false,"rental_uris":{"android":"levelo://app?vid=cf7ce0f7-19a8-4c89-85c7-9f6f3988326f","ios":"levelo://app?vid=cf7ce0f7-19a8-4c89-85c7-9f6f3988326f"},"vehicle_type_id":"4","last_reported":1746036829,"current_range_meters":3200,"station_id":"st_cvj6r9ubvosntc0bgbag","pricing_plan_id":"cebpf4jnsgd1na2vs0mg"},{"bike_id":"73768040-e2b3-43a3-ba86-4d950a5cbe6f","system_id":"levelo_inurba_marseille","lat":43.2985,"lon":5.36273,"is_reserved":false,"is_disabled":false,"rental_uris":{"android":"levelo://app?vid=73768040-e2b3-43a3-ba86-4d950a5cbe6f","ios":"levelo://app?vid=73768040-e2b3-43a3-ba86-4d950a5cbe6f"},"vehicle_type_id":"4","last_reported":1746036829,"current_range_meters":3600,"station_id":"ce4bgpp2rcd13ifvqc3g","pricing_plan_id":"cebpf4jnsgd1na2vs0mg"},{"bike_id":"589cf191-8424-4d63-a69e-bcae8aeae07a","system_id":"levelo_inurba_marseille","lat":43.28936,"lon":5.366383,"is_reserved":false,"is_disabled":false,"rental_uris":{"android":"levelo://app?vid=589cf191-8424-4d63-a69e-bcae8aeae07a","ios":"levelo://app?vid=589cf191-8424-4d63-a69e-bcae8aeae07a"},"vehicle_type_id":"4","last_reported":1746036829,"current_range_meters":3600,"station_id":"ce4bhap2rcd13ifvqek0","pricing_plan_id":"cebpf4jnsgd1na2vs0mg"},{"bike_id":"4be295ab-d9f3-4adc-b7ed-368fb3453c94","system_id":"levelo_inurba_marseille","lat":43.24658,"lon":5.38162,"is_reserved":false,"is_disabled":false,"rental_uris":{"android":"levelo://app?vid=4be295ab-d9f3-4adc-b7ed-368fb3453c94","ios":"levelo://app?vid=4be295ab-d9f3-4adc-b7ed-368fb3453c94"},"vehicle_type_id":"4","last_reported":1746036829,"current_range_meters":3600,"station_id":"ce4bhih2rcd13ifvqfr0","pricing_plan_id":"cebpf4jnsgd1na2vs0mg"},{"bike_id":"94975bf6-97a6-4f52-ab9a-a7a7f414eb0e","system_id":"levelo_inurba_marseille","lat":43.30949,"lon":5.39036,"is_reserved":false,"is_disabled":false,"rental_uris":{"android":"levelo://app?vid=94975bf6-97a6-4f52-ab9a-a7a7f414eb0e","ios":"levelo://app?vid=94975bf6-97a6-4f52-ab9a-a7a7f414eb0e"},"vehicle_type_id":"4","last_reported":1746036829,"current_range_meters":4000,"station_id":"ce4bgup2rcd13ifvqco0","pricing_plan_id":"cebpf4jnsgd1na2vs0mg"},{"bike_id":"42fb0f9b-bd4c-45e5-8787-56b8e242ada0","system_id":"levelo_inurba_marseille","lat":43.29088,"lon":5.38152,"is_reserved":false,"is_disabled":false,"rental_uris":{"android":"levelo://app?vid=42fb0f9b-bd4c-45e5-8787-56b8e242ada0","ios":"levelo://app?vid=42fb0f9b-bd4c-45e5-8787-56b8e242ada0"},"vehicle_type_id":"4","last_reported":1746036829,"current_range_meters":4000,"station_id":"ce4bh512rcd13ifvqe2g","pricing_plan_id":"cebpf4jnsgd1na2vs0mg"},{"bike_id":"41b50bfa-1d6e-4dfb-a999-90e298d81efb","system_id":"levelo_inurba_marseille","lat":43.32367,"lon":5.38886,"is_reserved":false,"is_disabled":false,"rental_uris":{"android":"levelo://app?vid=41b50bfa-1d6e-4dfb-a999-90e298d81efb","ios":"levelo://app?vid=41b50bfa-1d6e-4dfb-a999-90e298d81efb"},"vehicle_type_id":"4","last_reported":1746036829,"current_range_meters":4000,"station_id":"ce4bhqp2rcd13ifvqhog","pricing_plan_id":"cebpf4jnsgd1na2vs0mg"},{"bike_id":"18f85f3e-d187-4724-bcac-7774bf71a783","system_id":"levelo_inurba_marseille","lat":43.224991,"lon":5.348042,"is_reserved":false,"is_disabled":false,"rental_uris":{"android":"levelo://app?vid=18f85f3e-d187-4724-bcac-7774bf71a783","ios":"levelo://app?vid=18f85f3e-d187-4724-bcac-7774bf71a783"},"vehicle_type_id":"4","last_reported":1746036829,"current_range_meters":4400,"station_id":"","pricing_plan_id":"cebpf4jnsgd1na2vs0mg"},{"bike_id":"ab72d62a-92ac-4e3e-8b3c-dd1f205c1440","system_id":"levelo_inurba_marseille","lat":43.30796,"lon":5.38155,"is_reserved":false,"is_disabled":false,"rental_uris":{"android":"levelo://app?vid=ab72d62a-92ac-4e3e-8b3c-dd1f205c1440","ios":"levelo://app?vid=ab72d62a-92ac-4e3e-8b3c-dd1f205c1440"},"vehicle_type_id":"4","last_reported":1746036829,"current_range_meters":4400,"station_id":"ce4bgt12rcd13ifvqce0","pricing_plan_id":"cebpf4jnsgd1na2vs0mg"},{"bike_id":"7edb3a6e-6020-4047-859f-4c81ec458d86","system_id":"levelo_inurba_marseille","lat":43.330104,"lon":5.390324,"is_reserved":false,"is_disabled":false,"rental_uris":{"android":"levelo://app?vid=7edb3a6e-6020-4047-859f-4c81ec458d86","ios":"levelo://app?vid=7edb3a6e-6020-4047-859f-4c81ec458d86"},"vehicle_type_id":"4","last_reported":1746036829,"current_range_meters":4400,"station_id":"ce4bhr92rcd13ifvqhrg","pricing_plan_id":"cebpf4jnsgd1na2vs0mg"},{"bike_id":"c3ccb954-ced3-4163-9867-7cfff0ce2aa6","system_id":"levelo_inurba_marseille","lat":43.31488,"lon":5.37214,"is_reserved":false,"is_disabled":false,"rental_uris":{"android":"levelo://app?vid=c3ccb954-ced3-4163-9867-7cfff0ce2aa6","ios":"levelo://app?vid=c3ccb954-ced3-4163-9867-7cfff0ce2aa6"},"vehicle_type_id":"4","last_reported":1746036829,"current_range_meters":4800,"station_id":"","pricing_plan_id":"cebpf4jnsgd1na2vs0mg"},{"bike_id":"06bb3fbc-1701-4a06-9cc8-e6b4858e3eeb","system_id":"levelo_inurba_marseille","lat":43.29551,"lon":5.36514,"is_reserved":false,"is_disabled":false,"rental_uris":{"android":"levelo://app?vid=06bb3fbc-1701-4a06-9cc8-e6b4858e3eeb","ios":"levelo://app?vid=06bb3fbc-1701-4a06-9cc8-e6b4858e3eeb"},"vehicle_type_id":"4","last_reported":1746036829,"current_range_meters":4800,"station_id":"","pricing_plan_id":"cebpf4jnsgd1na2vs0mg"},{"bike_id":"90907531-6684-42cc-8329-498c33ff4e4c","system_id":"levelo_inurba_marseille","lat":43.28949,"lon":5.36401,"is_reserved":false,"is_disabled":false,"rental_uris":{"android":"levelo://app?vid=90907531-6684-42cc-8329-498c33ff4e4c","ios":"levelo://app?vid=90907531-6684-42cc-8329-498c33ff4e4c"},"vehicle_type_id":"4","last_reported":1746036829,"current_range_meters":4800,"station_id":"ce4bhc92rcd13ifvqetg","pricing_plan_id":"cebpf4jnsgd1na2vs0mg"},{"bike_id":"12652fe5-77c9-4e5a-9be4-3cbae4409be0","system_id":"levelo_inurba_marseille","lat":43.29548,"lon":5.42285,"is_reserved":false,"is_disabled":false,"rental_uris":{"android":"levelo://app?vid=12652fe5-77c9-4e5a-9be4-3cbae4409be0","ios":"levelo://app?vid=12652fe5-77c9-4e5a-9be4-3cbae4409be0"},"vehicle_type_id":"4","last_reported":1746036829,"current_range_meters":4800,"station_id":"ce4bhph2rcd13ifvqhdg","pricing_plan_id":"cebpf4jnsgd1na2vs0mg"},{"bike_id":"39c589e3-5bcc-4d10-b01b-1d8d4a388364","system_id":"levelo_inurba_marseille","lat":43.21759,"lon":5.34591,"is_reserved":false,"is_disabled":false,"rental_uris":{"android":"levelo://app?vid=39c589e3-5bcc-4d10-b01b-1d8d4a388364","ios":"levelo://app?vid=39c589e3-5bcc-4d10-b01b-1d8d4a388364"},"vehicle_type_id":"4","last_reported":1746036829,"current_range_meters":4800,"station_id":"st_cvj6r9ubvosntc0bgbag","pricing_plan_id":"cebpf4jnsgd1na2vs0mg"},{"bike_id":"a70b3675-ce07-4932-93aa-744a537603a5","system_id":"levelo_inurba_marseille","lat":43.29918,"lon":5.38148,"is_reserved":false,"is_disabled":false,"rental_uris":{"android":"levelo://app?vid=a70b3675-ce07-4932-93aa-744a537603a5","ios":"levelo://app?vid=a70b3675-ce07-4932-93aa-744a537603a5"},"vehicle_type_id":"4","last_reported":1746036829,"current_range_meters":5600,"station_id":"ce4bgj12rcd13ifvqbc0","pricing_plan_id":"cebpf4jnsgd1na2vs0mg"},{"bike_id":"78f78a7c-87fb-47dd-8573-f2f8b3a44cb0","system_id":"levelo_inurba_marseille","lat":43.29944,"lon":5.36524,"is_reserved":false,"is_disabled":false,"rental_uris":{"android":"levelo://app?vid=78f78a7c-87fb-47dd-8573-f2f8b3a44cb0","ios":"levelo://app?vid=78f78a7c-87fb-47dd-8573-f2f8b3a44cb0"},"vehicle_type_id":"4","last_reported":1746036829,"current_range_meters":5600,"station_id":"ce4bgm92rcd13ifvqbr0","pricing_plan_id":"cebpf4jnsgd1na2vs0mg"},{"bike_id":"23eecb41-93e6-4c64-9ce9-d80442eb7604","system_id":"levelo_inurba_marseille","lat":43.30896,"lon":5.3718,"is_reserved":false,"is_disabled":false,"rental_uris":{"android":"levelo://app?vid=23eecb41-93e6-4c64-9ce9-d80442eb7604","ios":"levelo://app?vid=23eecb41-93e6-4c64-9ce9-d80442eb7604"},"vehicle_type_id":"4","last_reported":1746036829,"current_range_meters":5600,"station_id":"ce4bguh2rcd13ifvqckg","pricing_plan_id":"cebpf4jnsgd1na2vs0mg"},{"bike_id":"3838340e-9db7-4471-8940-3338b4986894","system_id":"levelo_inurba_marseille","lat":43.28036,"lon":5.36938,"is_reserved":false,"is_disabled":false,"rental_uris":{"android":"levelo://app?vid=3838340e-9db7-4471-8940-3338b4986894","ios":"levelo://app?vid=3838340e-9db7-4471-8940-3338b4986894"},"vehicle_type_id":"4","last_reported":1746036829,"current_range_meters":5600,"station_id":"ce4bha12rcd13ifvqef0","pricing_plan_id":"cebpf4jnsgd1na2vs0mg"},{"bike_id":"d5093ef7-843e-4002-9aa9-49801610a876","system_id":"levelo_inurba_marseille","lat":43.25501,"lon":5.37649,"is_reserved":false,"is_disabled":false,"rental_uris":{"android":"levelo://app?vid=d5093ef7-843e-4002-9aa9-49801610a876","ios":"levelo://app?vid=d5093ef7-843e-4002-9aa9-49801610a876"},"vehicle_type_id":"4","last_reported":1746036829,"current_range_meters":5600,"station_id":"ce4bhh12rcd13ifvqff0","pricing_plan_id":"cebpf4jnsgd1na2vs0mg"},{"bike_id":"972eaf32-7bb0-4999-ac51-7c3a56b016e3","system_id":"levelo_inurba_marseille","lat":43.28612,"lon":5.37053,"is_reserved":false,"is_disabled":false,"rental_uris":{"android":"levelo://app?vid=972eaf32-7bb0-4999-ac51-7c3a56b016e3","ios":"levelo://app?vid=972eaf32-7bb0-4999-ac51-7c3a56b016e3"},"vehicle_type_id":"4","last_reported":1746036829,"current_range_meters":5600,"station_id":"ce4bht12rcd13ifvqi60","pricing_plan_id":"cebpf4jnsgd1na2vs0mg"},{"bike_id":"28686ef7-1cf9-43c1-a4ea-6c88fcd947b6","system_id":"levelo_inurba_marseille","lat":43.30323,"lon":5.40441,"is_reserved":false,"is_disabled":false,"rental_uris":{"android":"levelo://app?vid=28686ef7-1cf9-43c1-a4ea-6c88fcd947b6","ios":"levelo://app?vid=28686ef7-1cf9-43c1-a4ea-6c88fcd947b6"},"vehicle_type_id":"4","last_reported":1746036829,"current_range_meters":6400,"station_id":"ce4bh012rcd13ifvqd10","pricing_plan_id":"cebpf4jnsgd1na2vs0mg"},{"bike_id":"91cea9a5-4e8e-432f-a056-8d179053a165","system_id":"levelo_inurba_marseille","lat":43.3065,"lon":5.401,"is_reserved":false,"is_disabled":false,"rental_uris":{"android":"levelo://app?vid=91cea9a5-4e8e-432f-a056-8d179053a165","ios":"levelo://app?vid=91cea9a5-4e8e-432f-a056-8d179053a165"},"vehicle_type_id":"4","last_reported":1746036829,"current_range_meters":6400,"station_id":"ce4bh112rcd13ifvqda0","pricing_plan_id":"cebpf4jnsgd1na2vs0mg"},{"bike_id":"e31cfe99-552d-4ab8-8a6e-b17eee8bbf31","system_id":"levelo_inurba_marseille","lat":43.23963,"lon":5.36629,"is_reserved":false,"is_disabled":false,"rental_uris":{"android":"levelo://app?vid=e31cfe99-552d-4ab8-8a6e-b17eee8bbf31","ios":"levelo://app?vid=e31cfe99-552d-4ab8-8a6e-b17eee8bbf31"},"vehicle_type_id":"4","last_reported":1746036829,"current_range_meters":6400,"station_id":"ce4bhi12rcd13ifvqfp0","pricing_plan_id":"cebpf4jnsgd1na2vs0mg"},{"bike_id":"c01b55e9-3298-4712-919d-fc9233df55c8","system_id":"levelo_inurba_marseille","lat":43.30951,"lon":5.39032,"is_reserved":false,"is_disabled":false,"rental_uris":{"android":"levelo://app?vid=c01b55e9-3298-4712-919d-fc9233df55c8","ios":"levelo://app?vid=c01b55e9-3298-4712-919d-fc9233df55c8"},"vehicle_type_id":"4","last_reported":1746036829,"current_range_meters":6800,"station_id":"ce4bgup2rcd13ifvqco0","pricing_plan_id":"cebpf4jnsgd1na2vs0mg"},{"bike_id":"e45fe090-fc1f-4150-81ca-7afecc22f72e","system_id":"levelo_inurba_marseille","lat":43.29281,"lon":5.36846,"is_reserved":false,"is_disabled":false,"rental_uris":{"android":"levelo://app?vid=e45fe090-fc1f-4150-81ca-7afecc22f72e","ios":"levelo://app?vid=e45fe090-fc1f-4150-81ca-7afecc22f72e"},"vehicle_type_id":"4","last_reported":1746036829,"current_range_meters":6800,"station_id":"ce4bhbp2rcd13ifvqesg","pricing_plan_id":"cebpf4jnsgd1na2vs0mg"},{"bike_id":"f3fc04b3-bd78-4bf3-b746-0c6e19835f50","system_id":"levelo_inurba_marseille","lat":43.26952,"lon":5.38631,"is_reserved":false,"is_disabled":false,"rental_uris":{"android":"levelo://app?vid=f3fc04b3-bd78-4bf3-b746-0c6e19835f50","ios":"levelo://app?vid=f3fc04b3-bd78-4bf3-b746-0c6e19835f50"},"vehicle_type_id":"4","last_reported":1746036829,"current_range_meters":6800,"station_id":"ce4bhh92rcd13ifvqfh0","pricing_plan_id":"cebpf4jnsgd1na2vs0mg"},{"bike_id":"5c5aa3a2-c88e-4316-a975-addcd7ae2f25","system_id":"levelo_inurba_marseille","lat":43.33039,"lon":5.38976,"is_reserved":false,"is_disabled":false,"rental_uris":{"android":"levelo://app?vid=5c5aa3a2-c88e-4316-a975-addcd7ae2f25","ios":"levelo://app?vid=5c5aa3a2-c88e-4316-a975-addcd7ae2f25"},"vehicle_type_id":"4","last_reported":1746036829,"current_range_meters":7200,"station_id":"ce4bhr92rcd13ifvqhrg","pricing_plan_id":"cebpf4jnsgd1na2vs0mg"},{"bike_id":"88b3bffe-9462-417f-8960-c5d91dfa63d0","system_id":"levelo_inurba_marseille","lat":43.305823,"lon":5.393464,"is_reserved":false,"is_disabled":false,"rental_uris":{"android":"levelo://app?vid=88b3bffe-9462-417f-8960-c5d91dfa63d0","ios":"levelo://app?vid=88b3bffe-9462-417f-8960-c5d91dfa63d0"},"vehicle_type_id":"4","last_reported":1746036829,"current_range_meters":8000,"station_id":"ce4bgip2rcd13ifvqbb0","pricing_plan_id":"cebpf4jnsgd1na2vs0mg"},{"bike_id":"3729bbec-d22a-44f4-85a0-0f3d2bdce26d","system_id":"levelo_inurba_marseille","lat":43.28477,"lon":5.38407,"is_reserved":false,"is_disabled":false,"rental_uris":{"android":"levelo://app?vid=3729bbec-d22a-44f4-85a0-0f3d2bdce26d","ios":"levelo://app?vid=3729bbec-d22a-44f4-85a0-0f3d2bdce26d"},"vehicle_type_id":"4","last_reported":1746036829,"current_range_meters":8000,"station_id":"ce4bh512rcd13ifvqe3g","pricing_plan_id":"cebpf4jnsgd1na2vs0mg"},{"bike_id":"73452967-5a2a-4478-b2dd-f9cc394b7967","system_id":"levelo_inurba_marseille","lat":43.23181,"lon":5.39976,"is_reserved":false,"is_disabled":false,"rental_uris":{"android":"levelo://app?vid=73452967-5a2a-4478-b2dd-f9cc394b7967","ios":"levelo://app?vid=73452967-5a2a-4478-b2dd-f9cc394b7967"},"vehicle_type_id":"4","last_reported":1746036829,"current_range_meters":8000,"station_id":"ce4bhn12rcd13ifvqgqg","pricing_plan_id":"cebpf4jnsgd1na2vs0mg"},{"bike_id":"cb1beb45-f5d1-415f-ae0d-d1e624219c50","system_id":"levelo_inurba_marseille","lat":43.2416,"lon":5.36402,"is_reserved":false,"is_disabled":false,"rental_uris":{"android":"levelo://app?vid=cb1beb45-f5d1-415f-ae0d-d1e624219c50","ios":"levelo://app?vid=cb1beb45-f5d1-415f-ae0d-d1e624219c50"},"vehicle_type_id":"4","last_reported":1746036829,"current_range_meters":8000,"station_id":"cpo36qri1sfpv3e86is0","pricing_plan_id":"cebpf4jnsgd1na2vs0mg"},{"bike_id":"64c8d3ea-9c6f-455a-b2d7-00a036fae7a4","system_id":"levelo_inurba_marseille","lat":43.26851,"lon":5.3916,"is_reserved":false,"is_disabled":false,"rental_uris":{"android":"levelo://app?vid=64c8d3ea-9c6f-455a-b2d7-00a036fae7a4","ios":"levelo://app?vid=64c8d3ea-9c6f-455a-b2d7-00a036fae7a4"},"vehicle_type_id":"4","last_reported":1746036829,"current_range_meters":8400,"station_id":"","pricing_plan_id":"cebpf4jnsgd1na2vs0mg"},{"bike_id":"cc5ce72c-dcc5-47e2-80fd-75618d06079f","system_id":"levelo_inurba_marseille","lat":43.30304,"lon":5.39209,"is_reserved":false,"is_disabled":false,"rental_uris":{"android":"levelo://app?vid=cc5ce72c-dcc5-47e2-80fd-75618d06079f","ios":"levelo://app?vid=cc5ce72c-dcc5-47e2-80fd-75618d06079f"},"vehicle_type_id":"4","last_reported":1746036829,"current_range_meters":8400,"station_id":"ce4bgkh2rcd13ifvqbk0","pricing_plan_id":"cebpf4jnsgd1na2vs0mg"},{"bike_id":"2f9c77b1-da0a-4349-9376-2b906506d301","system_id":"levelo_inurba_marseille","lat":43.30588,"lon":5.39363,"is_reserved":false,"is_disabled":false,"rental_uris":{"android":"levelo://app?vid=2f9c77b1-da0a-4349-9376-2b906506d301","ios":"levelo://app?vid=2f9c77b1-da0a-4349-9376-2b906506d301"},"vehicle_type_id":"4","last_reported":1746036829,"current_range_meters":8400,"station_id":"ce4bh0p2rcd13ifvqd80","pricing_plan_id":"cebpf4jnsgd1na2vs0mg"},{"bike_id":"7f3be31a-5e91-4dc3-9417-d36e5ccc0b44","system_id":"levelo_inurba_marseille","lat":43.29073,"lon":5.37166,"is_reserved":false,"is_disabled":false,"rental_uris":{"android":"levelo://app?vid=7f3be31a-5e91-4dc3-9417-d36e5ccc0b44","ios":"levelo://app?vid=7f3be31a-5e91-4dc3-9417-d36e5ccc0b44"},"vehicle_type_id":"4","last_reported":1746036829,"current_range_meters":8400,"station_id":"ce4bh5p2rcd13ifvqe4g","pricing_plan_id":"cebpf4jnsgd1na2vs0mg"},{"bike_id":"0c1e2d45-98d7-4eae-8c7e-febdc395401f","system_id":"levelo_inurba_marseille","lat":43.289375,"lon":5.364031,"is_reserved":false,"is_disabled":false,"rental_uris":{"android":"levelo://app?vid=0c1e2d45-98d7-4eae-8c7e-febdc395401f","ios":"levelo://app?vid=0c1e2d45-98d7-4eae-8c7e-febdc395401f"},"vehicle_type_id":"4","last_reported":1746036829,"current_range_meters":8400,"station_id":"ce4bhc92rcd13ifvqetg","pricing_plan_id":"cebpf4jnsgd1na2vs0mg"},{"bike_id":"489415b8-9254-45c1-b00c-e7554d56755c","system_id":"levelo_inurba_marseille","lat":43.245231,"lon":5.412193,"is_reserved":false,"is_disabled":false,"rental_uris":{"android":"levelo://app?vid=489415b8-9254-45c1-b00c-e7554d56755c","ios":"levelo://app?vid=489415b8-9254-45c1-b00c-e7554d56755c"},"vehicle_type_id":"4","last_reported":1746036829,"current_range_meters":8800,"station_id":"","pricing_plan_id":"cebpf4jnsgd1na2vs0mg"},{"bike_id":"07edfd45-c3fa-4b57-b865-cf1bf9963264","system_id":"levelo_inurba_marseille","lat":43.23395,"lon":5.36419,"is_reserved":false,"is_disabled":false,"rental_uris":{"android":"levelo://app?vid=07edfd45-c3fa-4b57-b865-cf1bf9963264","ios":"levelo://app?vid=07edfd45-c3fa-4b57-b865-cf1bf9963264"},"vehicle_type_id":"4","last_reported":1746036829,"current_range_meters":8800,"station_id":"","pricing_plan_id":"cebpf4jnsgd1na2vs0mg"},{"bike_id":"1670f1c4-deba-49b0-a6cb-421523805355","system_id":"levelo_inurba_marseille","lat":43.30945,"lon":5.39023,"is_reserved":false,"is_disabled":false,"rental_uris":{"android":"levelo://app?vid=1670f1c4-deba-49b0-a6cb-421523805355","ios":"levelo://app?vid=1670f1c4-deba-49b0-a6cb-421523805355"},"vehicle_type_id":"4","last_reported":1746036829,"current_range_meters":8800,"station_id":"ce4bgup2rcd13ifvqco0","pricing_plan_id":"cebpf4jnsgd1na2vs0mg"},{"bike_id":"2bdf3340-200a-4061-8b82-6ecf5a5111bd","system_id":"levelo_inurba_marseille","lat":43.29276,"lon":5.40112,"is_reserved":false,"is_disabled":false,"rental_uris":{"android":"levelo://app?vid=2bdf3340-200a-4061-8b82-6ecf5a5111bd","ios":"levelo://app?vid=2bdf3340-200a-4061-8b82-6ecf5a5111bd"},"vehicle_type_id":"4","last_reported":1746036829,"current_range_meters":8800,"station_id":"ce4bh312rcd13ifvqdk0","pricing_plan_id":"cebpf4jnsgd1na2vs0mg"},{"bike_id":"683aa5dc-594e-4cde-92bc-132b600f7ecb","system_id":"levelo_inurba_marseille","lat":43.28933,"lon":5.3638,"is_reserved":false,"is_disabled":false,"rental_uris":{"android":"levelo://app?vid=683aa5dc-594e-4cde-92bc-132b600f7ecb","ios":"levelo://app?vid=683aa5dc-594e-4cde-92bc-132b600f7ecb"},"vehicle_type_id":"4","last_reported":1746036829,"current_range_meters":8800,"station_id":"ce4bhc92rcd13ifvqetg","pricing_plan_id":"cebpf4jnsgd1na2vs0mg"},{"bike_id":"d8b890d2-7cca-44ed-9c8e-8d610e08b74d","system_id":"levelo_inurba_marseille","lat":43.25822,"lon":5.39437,"is_reserved":false,"is_disabled":false,"rental_uris":{"android":"levelo://app?vid=d8b890d2-7cca-44ed-9c8e-8d610e08b74d","ios":"levelo://app?vid=d8b890d2-7cca-44ed-9c8e-8d610e08b74d"},"vehicle_type_id":"4","last_reported":1746036829,"current_range_meters":8800,"station_id":"ce4bhip2rcd13ifvqft0","pricing_plan_id":"cebpf4jnsgd1na2vs0mg"},{"bike_id":"27c75853-b339-436d-a828-e52a5c43101b","system_id":"levelo_inurba_marseille","lat":43.302828,"lon":5.377115,"is_reserved":false,"is_disabled":false,"rental_uris":{"android":"levelo://app?vid=27c75853-b339-436d-a828-e52a5c43101b","ios":"levelo://app?vid=27c75853-b339-436d-a828-e52a5c43101b"},"vehicle_type_id":"4","last_reported":1746036829,"current_range_meters":9200,"station_id":"ce4bgn12rcd13ifvqbt0","pricing_plan_id":"cebpf4jnsgd1na2vs0mg"},{"bike_id":"522545ab-69c2-47f1-8f53-32a3ffa01b48","system_id":"levelo_inurba_marseille","lat":43.31174,"lon":5.3872,"is_reserved":false,"is_disabled":false,"rental_uris":{"android":"levelo://app?vid=522545ab-69c2-47f1-8f53-32a3ffa01b48","ios":"levelo://app?vid=522545ab-69c2-47f1-8f53-32a3ffa01b48"},"vehicle_type_id":"4","last_reported":1746036829,"current_range_meters":9200,"station_id":"ce4bgv12rcd13ifvqcp0","pricing_plan_id":"cebpf4jnsgd1na2vs0mg"},{"bike_id":"605a12db-4145-42a5-877a-b4a375a7cf38","system_id":"levelo_inurba_marseille","lat":43.31684,"lon":5.40474,"is_reserved":false,"is_disabled":false,"rental_uris":{"android":"levelo://app?vid=605a12db-4145-42a5-877a-b4a375a7cf38","ios":"levelo://app?vid=605a12db-4145-42a5-877a-b4a375a7cf38"},"vehicle_type_id":"4","last_reported":1746036829,"current_range_meters":9200,"station_id":"ce4bh012rcd13ifvqd00","pricing_plan_id":"cebpf4jnsgd1na2vs0mg"},{"bike_id":"59267934-bf13-4d98-8b2b-fed38ebb7ae8","system_id":"levelo_inurba_marseille","lat":43.26211,"lon":5.37439,"is_reserved":false,"is_disabled":false,"rental_uris":{"android":"levelo://app?vid=59267934-bf13-4d98-8b2b-fed38ebb7ae8","ios":"levelo://app?vid=59267934-bf13-4d98-8b2b-fed38ebb7ae8"},"vehicle_type_id":"4","last_reported":1746036829,"current_range_meters":9200,"station_id":"ce4bhgp2rcd13ifvqfc0","pricing_plan_id":"cebpf4jnsgd1na2vs0mg"},{"bike_id":"64c62d89-4f8d-4183-a0b1-7ea47d10271a","system_id":"levelo_inurba_marseille","lat":43.27592,"lon":5.38397,"is_reserved":false,"is_disabled":false,"rental_uris":{"android":"levelo://app?vid=64c62d89-4f8d-4183-a0b1-7ea47d10271a","ios":"levelo://app?vid=64c62d89-4f8d-4183-a0b1-7ea47d10271a"},"vehicle_type_id":"4","last_reported":1746036829,"current_range_meters":9200,"station_id":"ce4bhh92rcd13ifvqfi0","pricing_plan_id":"cebpf4jnsgd1na2vs0mg"},{"bike_id":"1cb9cedf-1f1b-4e4f-beeb-458b7c9fa817","system_id":"levelo_inurba_marseille","lat":43.28449,"lon":5.39201,"is_reserved":false,"is_disabled":false,"rental_uris":{"android":"levelo://app?vid=1cb9cedf-1f1b-4e4f-beeb-458b7c9fa817","ios":"levelo://app?vid=1cb9cedf-1f1b-4e4f-beeb-458b7c9fa817"},"vehicle_type_id":"4","last_reported":1746036829,"current_range_meters":9200,"station_id":"ce4bhoh2rcd13ifvqh5g","pricing_plan_id":"cebpf4jnsgd1na2vs0mg"},{"bike_id":"a925219e-1157-4d60-a912-13a36e556441","system_id":"levelo_inurba_marseille","lat":43.28608,"lon":5.37065,"is_reserved":false,"is_disabled":false,"rental_uris":{"android":"levelo://app?vid=a925219e-1157-4d60-a912-13a36e556441","ios":"levelo://app?vid=a925219e-1157-4d60-a912-13a36e556441"},"vehicle_type_id":"4","last_reported":1746036829,"current_range_meters":9200,"station_id":"ce4bht12rcd13ifvqi60","pricing_plan_id":"cebpf4jnsgd1na2vs0mg"},{"bike_id":"71353d50-dbb7-4e8b-9de1-72f459476479","system_id":"levelo_inurba_marseille","lat":43.29711,"lon":5.36601,"is_reserved":false,"is_disabled":false,"rental_uris":{"android":"levelo://app?vid=71353d50-dbb7-4e8b-9de1-72f459476479","ios":"levelo://app?vid=71353d50-dbb7-4e8b-9de1-72f459476479"},"vehicle_type_id":"4","last_reported":1746036829,"current_range_meters":9600,"station_id":"ce4bgn12rcd13ifvqbt0","pricing_plan_id":"cebpf4jnsgd1na2vs0mg"},{"bike_id":"f7efd833-142b-4252-a8cc-ba2bd9bae804","system_id":"levelo_inurba_marseille","lat":43.28936,"lon":5.39622,"is_reserved":false,"is_disabled":false,"rental_uris":{"android":"levelo://app?vid=f7efd833-142b-4252-a8cc-ba2bd9bae804","ios":"levelo://app?vid=f7efd833-142b-4252-a8cc-ba2bd9bae804"},"vehicle_type_id":"4","last_reported":1746036829,"current_range_meters":9600,"station_id":"ce4bh3h2rcd13ifvqdn0","pricing_plan_id":"cebpf4jnsgd1na2vs0mg"},{"bike_id":"3f59703e-5e80-4c73-afc5-849c824b57f2","system_id":"levelo_inurba_marseille","lat":43.29251,"lon":5.38442,"is_reserved":false,"is_disabled":false,"rental_uris":{"android":"levelo://app?vid=3f59703e-5e80-4c73-afc5-849c824b57f2","ios":"levelo://app?vid=3f59703e-5e80-4c73-afc5-849c824b57f2"},"vehicle_type_id":"4","last_reported":1746036829,"current_range_meters":9600,"station_id":"ce4bh692rcd13ifvqea0","pricing_plan_id":"cebpf4jnsgd1na2vs0mg"},{"bike_id":"cf61c6b3-d10b-488b-b680-92221b3ec9fa","system_id":"levelo_inurba_marseille","lat":43.29196,"lon":5.35803,"is_reserved":false,"is_disabled":false,"rental_uris":{"android":"levelo://app?vid=cf61c6b3-d10b-488b-b680-92221b3ec9fa","ios":"levelo://app?vid=cf61c6b3-d10b-488b-b680-92221b3ec9fa"},"vehicle_type_id":"4","last_reported":1746036829,"current_range_meters":9600,"station_id":"ce4bhb12rcd13ifvqel0","pricing_plan_id":"cebpf4jnsgd1na2vs0mg"},{"bike_id":"30a1a215-1d80-40f9-80f4-1691624f408b","system_id":"levelo_inurba_marseille","lat":43.33726,"lon":5.39196,"is_reserved":false,"is_disabled":false,"rental_uris":{"android":"levelo://app?vid=30a1a215-1d80-40f9-80f4-1691624f408b","ios":"levelo://app?vid=30a1a215-1d80-40f9-80f4-1691624f408b"},"vehicle_type_id":"4","last_reported":1746036829,"current_range_meters":9600,"station_id":"ce4bhr92rcd13ifvqhsg","pricing_plan_id":"cebpf4jnsgd1na2vs0mg"},{"bike_id":"d43774c4-ecb1-4f75-91c6-2f6e08a4a37b","system_id":"levelo_inurba_marseille","lat":43.21752,"lon":5.34603,"is_reserved":false,"is_disabled":false,"rental_uris":{"android":"levelo://app?vid=d43774c4-ecb1-4f75-91c6-2f6e08a4a37b","ios":"levelo://app?vid=d43774c4-ecb1-4f75-91c6-2f6e08a4a37b"},"vehicle_type_id":"4","last_reported":1746036829,"current_range_meters":9600,"station_id":"st_cvj6r9ubvosntc0bgbag","pricing_plan_id":"cebpf4jnsgd1na2vs0mg"},{"bike_id":"dcb0b990-89f9-495c-a9c1-10b17ae39667","system_id":"levelo_inurba_marseille","lat":43.234637,"lon":5.380526,"is_reserved":false,"is_disabled":false,"rental_uris":{"android":"levelo://app?vid=dcb0b990-89f9-495c-a9c1-10b17ae39667","ios":"levelo://app?vid=dcb0b990-89f9-495c-a9c1-10b17ae39667"},"vehicle_type_id":"4","last_reported":1746036829,"current_range_meters":10000,"station_id":"","pricing_plan_id":"cebpf4jnsgd1na2vs0mg"},{"bike_id":"c73b77a4-fdf6-4002-acbb-95247bbdd5bc","system_id":"levelo_inurba_marseille","lat":43.3095,"lon":5.39034,"is_reserved":false,"is_disabled":false,"rental_uris":{"android":"levelo://app?vid=c73b77a4-fdf6-4002-acbb-95247bbdd5bc","ios":"levelo://app?vid=c73b77a4-fdf6-4002-acbb-95247bbdd5bc"},"vehicle_type_id":"4","last_reported":1746036829,"current_range_meters":10000,"station_id":"","pricing_plan_id":"cebpf4jnsgd1na2vs0mg"},{"bike_id":"9b227bcb-b382-4bb9-bf06-37a28788a684","system_id":"levelo_inurba_marseille","lat":43.2926,"lon":5.40895,"is_reserved":false,"is_disabled":false,"rental_uris":{"android":"levelo://app?vid=9b227bcb-b382-4bb9-bf06-37a28788a684","ios":"levelo://app?vid=9b227bcb-b382-4bb9-bf06-37a28788a684"},"vehicle_type_id":"4","last_reported":1746036829,"current_range_meters":10000,"station_id":"ce4bh192rcd13ifvqdc0","pricing_plan_id":"cebpf4jnsgd1na2vs0mg"},{"bike_id":"3ce5a6a0-7c75-4b93-962c-2dd6ababc3c9","system_id":"levelo_inurba_marseille","lat":43.22507,"lon":5.34778,"is_reserved":false,"is_disabled":false,"rental_uris":{"android":"levelo://app?vid=3ce5a6a0-7c75-4b93-962c-2dd6ababc3c9","ios":"levelo://app?vid=3ce5a6a0-7c75-4b93-962c-2dd6ababc3c9"},"vehicle_type_id":"4","last_reported":1746036829,"current_range_meters":10000,"station_id":"st_cvj5dfep6f1abm77gieg","pricing_plan_id":"cebpf4jnsgd1na2vs0mg"},{"bike_id":"a58e3b51-b56a-4e22-b844-8dfbebd7426f","system_id":"levelo_inurba_marseille","lat":43.25001,"lon":5.38922,"is_reserved":false,"is_disabled":false,"rental_uris":{"android":"levelo://app?vid=a58e3b51-b56a-4e22-b844-8dfbebd7426f","ios":"levelo://app?vid=a58e3b51-b56a-4e22-b844-8dfbebd7426f"},"vehicle_type_id":"4","last_reported":1746036829,"current_range_meters":10800,"station_id":"ce4bhgp2rcd13ifvqfd0","pricing_plan_id":"cebpf4jnsgd1na2vs0mg"},{"bike_id":"5005516f-bb72-4ff4-8b8d-fd698aadd900","system_id":"levelo_inurba_marseille","lat":43.260594,"lon":5.393986,"is_reserved":false,"is_disabled":false,"rental_uris":{"android":"levelo://app?vid=5005516f-bb72-4ff4-8b8d-fd698aadd900","ios":"levelo://app?vid=5005516f-bb72-4ff4-8b8d-fd698aadd900"},"vehicle_type_id":"4","last_reported":1746036829,"current_range_meters":10800,"station_id":"ce4bhh92rcd13ifvqfj0","pricing_plan_id":"cebpf4jnsgd1na2vs0mg"},{"bike_id":"10b48f91-877d-44ab-acd0-ac84f75263a5","system_id":"levelo_inurba_marseille","lat":43.30309,"lon":5.39226,"is_reserved":false,"is_disabled":false,"rental_uris":{"android":"levelo://app?vid=10b48f91-877d-44ab-acd0-ac84f75263a5","ios":"levelo://app?vid=10b48f91-877d-44ab-acd0-ac84f75263a5"},"vehicle_type_id":"4","last_reported":1746036829,"current_range_meters":11200,"station_id":"ce4bgkh2rcd13ifvqbk0","pricing_plan_id":"cebpf4jnsgd1na2vs0mg"},{"bike_id":"7013e58b-b5fb-4a38-a4c2-049d492372fd","system_id":"levelo_inurba_marseille","lat":43.2512,"lon":5.40316,"is_reserved":false,"is_disabled":false,"rental_uris":{"android":"levelo://app?vid=7013e58b-b5fb-4a38-a4c2-049d492372fd","ios":"levelo://app?vid=7013e58b-b5fb-4a38-a4c2-049d492372fd"},"vehicle_type_id":"4","last_reported":1746036829,"current_range_meters":11200,"station_id":"ce4bhlh2rcd13ifvqgig","pricing_plan_id":"cebpf4jnsgd1na2vs0mg"},{"bike_id":"ac7f62b0-172a-4bdc-a244-904b09cfd708","system_id":"levelo_inurba_marseille","lat":43.26949,"lon":5.4026,"is_reserved":false,"is_disabled":false,"rental_uris":{"android":"levelo://app?vid=ac7f62b0-172a-4bdc-a244-904b09cfd708","ios":"levelo://app?vid=ac7f62b0-172a-4bdc-a244-904b09cfd708"},"vehicle_type_id":"4","last_reported":1746036829,"current_range_meters":11200,"station_id":"cjm6bp8fraef2m0cb0m0","pricing_plan_id":"cebpf4jnsgd1na2vs0mg"},{"bike_id":"e5e92a64-e709-4b1a-a9b1-cbffe85789ca","system_id":"levelo_inurba_marseille","lat":43.255547,"lon":5.381302,"is_reserved":false,"is_disabled":false,"rental_uris":{"android":"levelo://app?vid=e5e92a64-e709-4b1a-a9b1-cbffe85789ca","ios":"levelo://app?vid=e5e92a64-e709-4b1a-a9b1-cbffe85789ca"},"vehicle_type_id":"4","last_reported":1746036829,"current_range_meters":11600,"station_id":"","pricing_plan_id":"cebpf4jnsgd1na2vs0mg"},{"bike_id":"4d2745a1-95d6-497f-8cec-5533be19c9ad","system_id":"levelo_inurba_marseille","lat":43.31112,"lon":5.37771,"is_reserved":false,"is_disabled":false,"rental_uris":{"android":"levelo://app?vid=4d2745a1-95d6-497f-8cec-5533be19c9ad","ios":"levelo://app?vid=4d2745a1-95d6-497f-8cec-5533be19c9ad"},"vehicle_type_id":"4","last_reported":1746036829,"current_range_meters":11600,"station_id":"ce4bgt92rcd13ifvqcg0","pricing_plan_id":"cebpf4jnsgd1na2vs0mg"},{"bike_id":"e008f694-3bb2-4b58-85c0-923e3f30bc62","system_id":"levelo_inurba_marseille","lat":43.29634,"lon":5.40623,"is_reserved":false,"is_disabled":false,"rental_uris":{"android":"levelo://app?vid=e008f694-3bb2-4b58-85c0-923e3f30bc62","ios":"levelo://app?vid=e008f694-3bb2-4b58-85c0-923e3f30bc62"},"vehicle_type_id":"4","last_reported":1746036829,"current_range_meters":11600,"station_id":"ce4bh0h2rcd13ifvqd60","pricing_plan_id":"cebpf4jnsgd1na2vs0mg"},{"bike_id":"aa717341-dabd-41f1-a3d6-38979246ca95","system_id":"levelo_inurba_marseille","lat":43.26064,"lon":5.39392,"is_reserved":false,"is_disabled":false,"rental_uris":{"android":"levelo://app?vid=aa717341-dabd-41f1-a3d6-38979246ca95","ios":"levelo://app?vid=aa717341-dabd-41f1-a3d6-38979246ca95"},"vehicle_type_id":"4","last_reported":1746036829,"current_range_meters":12000,"station_id":"ce4bhh92rcd13ifvqfj0","pricing_plan_id":"cebpf4jnsgd1na2vs0mg"},{"bike_id":"a732b3d6-472a-46b2-b5fc-7d86a14ed2fc","system_id":"levelo_inurba_marseille","lat":43.33046,"lon":5.39035,"is_reserved":false,"is_disabled":false,"rental_uris":{"android":"levelo://app?vid=a732b3d6-472a-46b2-b5fc-7d86a14ed2fc","ios":"levelo://app?vid=a732b3d6-472a-46b2-b5fc-7d86a14ed2fc"},"vehicle_type_id":"4","last_reported":1746036829,"current_range_meters":12000,"station_id":"ce4bhr92rcd13ifvqhrg","pricing_plan_id":"cebpf4jnsgd1na2vs0mg"},{"bike_id":"fca9dc8b-9c20-4eab-83ff-17d0ce9a6922","system_id":"levelo_inurba_marseille","lat":43.26074,"lon":5.41702,"is_reserved":false,"is_disabled":false,"rental_uris":{"android":"levelo://app?vid=fca9dc8b-9c20-4eab-83ff-17d0ce9a6922","ios":"levelo://app?vid=fca9dc8b-9c20-4eab-83ff-17d0ce9a6922"},"vehicle_type_id":"4","last_reported":1746036829,"current_range_meters":12400,"station_id":"","pricing_plan_id":"cebpf4jnsgd1na2vs0mg"},{"bike_id":"c6cb7aa5-6c04-4262-bed8-a3eed2f3e01a","system_id":"levelo_inurba_marseille","lat":43.29567,"lon":5.37521,"is_reserved":false,"is_disabled":false,"rental_uris":{"android":"levelo://app?vid=c6cb7aa5-6c04-4262-bed8-a3eed2f3e01a","ios":"levelo://app?vid=c6cb7aa5-6c04-4262-bed8-a3eed2f3e01a"},"vehicle_type_id":"4","last_reported":1746036829,"current_range_meters":12400,"station_id":"ce4bgh92rcd13ifvqb50","pricing_plan_id":"cebpf4jnsgd1na2vs0mg"},{"bike_id":"c8ba1aee-0ee3-4b39-bed4-2706d2421432","system_id":"levelo_inurba_marseille","lat":43.30138,"lon":5.38787,"is_reserved":false,"is_disabled":false,"rental_uris":{"android":"levelo://app?vid=c8ba1aee-0ee3-4b39-bed4-2706d2421432","ios":"levelo://app?vid=c8ba1aee-0ee3-4b39-bed4-2706d2421432"},"vehicle_type_id":"4","last_reported":1746036829,"current_range_meters":12400,"station_id":"ce4bghh2rcd13ifvqb60","pricing_plan_id":"cebpf4jnsgd1na2vs0mg"},{"bike_id":"2d0fea3e-041c-4d20-aeb7-63739e3d5c27","system_id":"levelo_inurba_marseille","lat":43.29842,"lon":5.36321,"is_reserved":false,"is_disabled":false,"rental_uris":{"android":"levelo://app?vid=2d0fea3e-041c-4d20-aeb7-63739e3d5c27","ios":"levelo://app?vid=2d0fea3e-041c-4d20-aeb7-63739e3d5c27"},"vehicle_type_id":"4","last_reported":1746036829,"current_range_meters":12400,"station_id":"ce4bgpp2rcd13ifvqc3g","pricing_plan_id":"cebpf4jnsgd1na2vs0mg"},{"bike_id":"ee0a3939-fa73-4b04-9195-c90ba36dcb6e","system_id":"levelo_inurba_marseille","lat":43.31066,"lon":5.38345,"is_reserved":false,"is_disabled":false,"rental_uris":{"android":"levelo://app?vid=ee0a3939-fa73-4b04-9195-c90ba36dcb6e","ios":"levelo://app?vid=ee0a3939-fa73-4b04-9195-c90ba36dcb6e"},"vehicle_type_id":"4","last_reported":1746036829,"current_range_meters":12400,"station_id":"ce4bgv92rcd13ifvqcr0","pricing_plan_id":"cebpf4jnsgd1na2vs0mg"},{"bike_id":"2158cc56-1fc1-4a49-909a-141c9b747018","system_id":"levelo_inurba_marseille","lat":43.304588,"lon":5.390089,"is_reserved":false,"is_disabled":false,"rental_uris":{"android":"levelo://app?vid=2158cc56-1fc1-4a49-909a-141c9b747018","ios":"levelo://app?vid=2158cc56-1fc1-4a49-909a-141c9b747018"},"vehicle_type_id":"4","last_reported":1746036829,"current_range_meters":12400,"station_id":"ce4bh112rcd13ifvqda0","pricing_plan_id":"cebpf4jnsgd1na2vs0mg"},{"bike_id":"a324fa74-177e-4a10-b971-583533f44827","system_id":"levelo_inurba_marseille","lat":43.3108,"lon":5.42433,"is_reserved":false,"is_disabled":false,"rental_uris":{"android":"levelo://app?vid=a324fa74-177e-4a10-b971-583533f44827","ios":"levelo://app?vid=a324fa74-177e-4a10-b971-583533f44827"},"vehicle_type_id":"4","last_reported":1746036829,"current_range_meters":12400,"station_id":"ce4bhp92rcd13ifvqhag","pricing_plan_id":"cebpf4jnsgd1na2vs0mg"},{"bike_id":"d415aa0f-acee-4293-8218-538d848c7d64","system_id":"levelo_inurba_marseille","lat":43.24167,"lon":5.36395,"is_reserved":false,"is_disabled":false,"rental_uris":{"android":"levelo://app?vid=d415aa0f-acee-4293-8218-538d848c7d64","ios":"levelo://app?vid=d415aa0f-acee-4293-8218-538d848c7d64"},"vehicle_type_id":"4","last_reported":1746036829,"current_range_meters":12400,"station_id":"cpo36qri1sfpv3e86is0","pricing_plan_id":"cebpf4jnsgd1na2vs0mg"},{"bike_id":"c1cbc237-cfab-474a-aa26-81a87506105a","system_id":"levelo_inurba_marseille","lat":43.2176,"lon":5.3459,"is_reserved":false,"is_disabled":false,"rental_uris":{"android":"levelo://app?vid=c1cbc237-cfab-474a-aa26-81a87506105a","ios":"levelo://app?vid=c1cbc237-cfab-474a-aa26-81a87506105a"},"vehicle_type_id":"4","last_reported":1746036829,"current_range_meters":12400,"station_id":"st_cvj6r9ubvosntc0bgbag","pricing_plan_id":"cebpf4jnsgd1na2vs0mg"},{"bike_id":"379b8933-bc6e-4164-9d36-daaf2941e50f","system_id":"levelo_inurba_marseille","lat":43.30743,"lon":5.37477,"is_reserved":false,"is_disabled":false,"rental_uris":{"android":"levelo://app?vid=379b8933-bc6e-4164-9d36-daaf2941e50f","ios":"levelo://app?vid=379b8933-bc6e-4164-9d36-daaf2941e50f"},"vehicle_type_id":"4","last_reported":1746036829,"current_range_meters":12800,"station_id":"","pricing_plan_id":"cebpf4jnsgd1na2vs0mg"},{"bike_id":"2ae9ae89-df6d-4ac4-816e-ceb9f2bd8257","system_id":"levelo_inurba_marseille","lat":43.29579,"lon":5.3674,"is_reserved":false,"is_disabled":false,"rental_uris":{"android":"levelo://app?vid=2ae9ae89-df6d-4ac4-816e-ceb9f2bd8257","ios":"levelo://app?vid=2ae9ae89-df6d-4ac4-816e-ceb9f2bd8257"},"vehicle_type_id":"4","last_reported":1746036829,"current_range_meters":12800,"station_id":"ce4bgph2rcd13ifvqc2g","pricing_plan_id":"cebpf4jnsgd1na2vs0mg"},{"bike_id":"47483af2-4635-4d1a-81a8-6f70f266d4e5","system_id":"levelo_inurba_marseille","lat":43.289403,"lon":5.363869,"is_reserved":false,"is_disabled":false,"rental_uris":{"android":"levelo://app?vid=47483af2-4635-4d1a-81a8-6f70f266d4e5","ios":"levelo://app?vid=47483af2-4635-4d1a-81a8-6f70f266d4e5"},"vehicle_type_id":"4","last_reported":1746036829,"current_range_meters":12800,"station_id":"ce4bhc92rcd13ifvqetg","pricing_plan_id":"cebpf4jnsgd1na2vs0mg"},{"bike_id":"8ab8f219-1642-4a0d-af2a-eaa8ea6c816f","system_id":"levelo_inurba_marseille","lat":43.31757,"lon":5.39022,"is_reserved":false,"is_disabled":false,"rental_uris":{"android":"levelo://app?vid=8ab8f219-1642-4a0d-af2a-eaa8ea6c816f","ios":"levelo://app?vid=8ab8f219-1642-4a0d-af2a-eaa8ea6c816f"},"vehicle_type_id":"4","last_reported":1746036829,"current_range_meters":12800,"station_id":"ce4bhqp2rcd13ifvqhng","pricing_plan_id":"cebpf4jnsgd1na2vs0mg"},{"bike_id":"e13c43a2-99c4-484b-8e8e-dec1967b4de3","system_id":"levelo_inurba_marseille","lat":43.30792,"lon":5.38151,"is_reserved":false,"is_disabled":false,"rental_uris":{"android":"levelo://app?vid=e13c43a2-99c4-484b-8e8e-dec1967b4de3","ios":"levelo://app?vid=e13c43a2-99c4-484b-8e8e-dec1967b4de3"},"vehicle_type_id":"4","last_reported":1746036829,"current_range_meters":13600,"station_id":"ce4bgt12rcd13ifvqce0","pricing_plan_id":"cebpf4jnsgd1na2vs0mg"},{"bike_id":"b1e08f39-33fe-48c0-89a0-d0d4244aae15","system_id":"levelo_inurba_marseille","lat":43.28422,"lon":5.34977,"is_reserved":false,"is_disabled":false,"rental_uris":{"android":"levelo://app?vid=b1e08f39-33fe-48c0-89a0-d0d4244aae15","ios":"levelo://app?vid=b1e08f39-33fe-48c0-89a0-d0d4244aae15"},"vehicle_type_id":"4","last_reported":1746036829,"current_range_meters":13600,"station_id":"ce4bhbh2rcd13ifvqepg","pricing_plan_id":"cebpf4jnsgd1na2vs0mg"},{"bike_id":"f3d7f8e7-fd1e-4ba7-b281-bb145e92dee2","system_id":"levelo_inurba_marseille","lat":43.25087,"lon":5.39519,"is_reserved":false,"is_disabled":false,"rental_uris":{"android":"levelo://app?vid=f3d7f8e7-fd1e-4ba7-b281-bb145e92dee2","ios":"levelo://app?vid=f3d7f8e7-fd1e-4ba7-b281-bb145e92dee2"},"vehicle_type_id":"4","last_reported":1746036829,"current_range_meters":13600,"station_id":"ce4bhm12rcd13ifvqgkg","pricing_plan_id":"cebpf4jnsgd1na2vs0mg"},{"bike_id":"c0c6aafe-4159-4e87-9670-9bbba9e17016","system_id":"levelo_inurba_marseille","lat":43.32723,"lon":5.39247,"is_reserved":false,"is_disabled":false,"rental_uris":{"android":"levelo://app?vid=c0c6aafe-4159-4e87-9670-9bbba9e17016","ios":"levelo://app?vid=c0c6aafe-4159-4e87-9670-9bbba9e17016"},"vehicle_type_id":"4","last_reported":1746036829,"current_range_meters":14000,"station_id":"","pricing_plan_id":"cebpf4jnsgd1na2vs0mg"},{"bike_id":"7d76a9f6-c841-4fc8-a9cb-90b4c40b89e6","system_id":"levelo_inurba_marseille","lat":43.29417,"lon":5.38631,"is_reserved":false,"is_disabled":false,"rental_uris":{"android":"levelo://app?vid=7d76a9f6-c841-4fc8-a9cb-90b4c40b89e6","ios":"levelo://app?vid=7d76a9f6-c841-4fc8-a9cb-90b4c40b89e6"},"vehicle_type_id":"4","last_reported":1746036829,"current_range_meters":14000,"station_id":"ce4bh2h2rcd13ifvqdh0","pricing_plan_id":"cebpf4jnsgd1na2vs0mg"},{"bike_id":"85ea9e1f-37a8-4bd5-a8e6-66e47a3d13bb","system_id":"levelo_inurba_marseille","lat":43.3303,"lon":5.39042,"is_reserved":false,"is_disabled":false,"rental_uris":{"android":"levelo://app?vid=85ea9e1f-37a8-4bd5-a8e6-66e47a3d13bb","ios":"levelo://app?vid=85ea9e1f-37a8-4bd5-a8e6-66e47a3d13bb"},"vehicle_type_id":"4","last_reported":1746036829,"current_range_meters":14000,"station_id":"ce4bhr92rcd13ifvqhrg","pricing_plan_id":"cebpf4jnsgd1na2vs0mg"},{"bike_id":"01a9de55-a193-45b5-b96c-920327bd3d5a","system_id":"levelo_inurba_marseille","lat":43.21739,"lon":5.34605,"is_reserved":false,"is_disabled":false,"rental_uris":{"android":"levelo://app?vid=01a9de55-a193-45b5-b96c-920327bd3d5a","ios":"levelo://app?vid=01a9de55-a193-45b5-b96c-920327bd3d5a"},"vehicle_type_id":"4","last_reported":1746036829,"current_range_meters":14000,"station_id":"st_cvj6r9ubvosntc0bgbag","pricing_plan_id":"cebpf4jnsgd1na2vs0mg"},{"bike_id":"3e1495bd-f062-4177-be67-b0e58ae543d6","system_id":"levelo_inurba_marseille","lat":43.28728,"lon":5.36074,"is_reserved":false,"is_disabled":false,"rental_uris":{"android":"levelo://app?vid=3e1495bd-f062-4177-be67-b0e58ae543d6","ios":"levelo://app?vid=3e1495bd-f062-4177-be67-b0e58ae543d6"},"vehicle_type_id":"4","last_reported":1746036829,"current_range_meters":14400,"station_id":"cki0cbj6b192h4jlfktg","pricing_plan_id":"cebpf4jnsgd1na2vs0mg"},{"bike_id":"0ce6a7cb-925f-4f2a-bd23-5ae7ca8b5dc5","system_id":"levelo_inurba_marseille","lat":43.27372,"lon":5.36259,"is_reserved":false,"is_disabled":false,"rental_uris":{"android":"levelo://app?vid=0ce6a7cb-925f-4f2a-bd23-5ae7ca8b5dc5","ios":"levelo://app?vid=0ce6a7cb-925f-4f2a-bd23-5ae7ca8b5dc5"},"vehicle_type_id":"4","last_reported":1746036829,"current_range_meters":14800,"station_id":"ce4bhbh2rcd13ifvqeo0","pricing_plan_id":"cebpf4jnsgd1na2vs0mg"},{"bike_id":"595df542-ce19-4fff-8b03-ca283d677c5d","system_id":"levelo_inurba_marseille","lat":43.27378,"lon":5.36255,"is_reserved":false,"is_disabled":false,"rental_uris":{"android":"levelo://app?vid=595df542-ce19-4fff-8b03-ca283d677c5d","ios":"levelo://app?vid=595df542-ce19-4fff-8b03-ca283d677c5d"},"vehicle_type_id":"4","last_reported":1746036829,"current_range_meters":14800,"station_id":"ce4bhbh2rcd13ifvqeo0","pricing_plan_id":"cebpf4jnsgd1na2vs0mg"},{"bike_id":"7bd101c7-6aba-46d3-bb1b-b8f02ff62f6f","system_id":"levelo_inurba_marseille","lat":43.28419,"lon":5.34981,"is_reserved":false,"is_disabled":false,"rental_uris":{"android":"levelo://app?vid=7bd101c7-6aba-46d3-bb1b-b8f02ff62f6f","ios":"levelo://app?vid=7bd101c7-6aba-46d3-bb1b-b8f02ff62f6f"},"vehicle_type_id":"4","last_reported":1746036829,"current_range_meters":14800,"station_id":"ce4bhbh2rcd13ifvqepg","pricing_plan_id":"cebpf4jnsgd1na2vs0mg"},{"bike_id":"9a7783a4-4d08-4eab-986b-b2b52705c7b0","system_id":"levelo_inurba_marseille","lat":43.29237,"lon":5.36091,"is_reserved":false,"is_disabled":false,"rental_uris":{"android":"levelo://app?vid=9a7783a4-4d08-4eab-986b-b2b52705c7b0","ios":"levelo://app?vid=9a7783a4-4d08-4eab-986b-b2b52705c7b0"},"vehicle_type_id":"4","last_reported":1746036829,"current_range_meters":14800,"station_id":"ce4bhbh2rcd13ifvqeqg","pricing_plan_id":"cebpf4jnsgd1na2vs0mg"},{"bike_id":"26f2d28b-17dd-40c9-808c-013124f7f6d1","system_id":"levelo_inurba_marseille","lat":43.29274,"lon":5.36842,"is_reserved":false,"is_disabled":false,"rental_uris":{"android":"levelo://app?vid=26f2d28b-17dd-40c9-808c-013124f7f6d1","ios":"levelo://app?vid=26f2d28b-17dd-40c9-808c-013124f7f6d1"},"vehicle_type_id":"4","last_reported":1746036829,"current_range_meters":14800,"station_id":"ce4bhbp2rcd13ifvqesg","pricing_plan_id":"cebpf4jnsgd1na2vs0mg"},{"bike_id":"86c2979e-8cf6-48ed-bdb1-835ff11e3adc","system_id":"levelo_inurba_marseille","lat":43.25401,"lon":5.4184,"is_reserved":false,"is_disabled":false,"rental_uris":{"android":"levelo://app?vid=86c2979e-8cf6-48ed-bdb1-835ff11e3adc","ios":"levelo://app?vid=86c2979e-8cf6-48ed-bdb1-835ff11e3adc"},"vehicle_type_id":"4","last_reported":1746036829,"current_range_meters":15200,"station_id":"","pricing_plan_id":"cebpf4jnsgd1na2vs0mg"},{"bike_id":"581c0794-438f-444e-a464-57f2f9b08257","system_id":"levelo_inurba_marseille","lat":43.28476,"lon":5.38406,"is_reserved":false,"is_disabled":false,"rental_uris":{"android":"levelo://app?vid=581c0794-438f-444e-a464-57f2f9b08257","ios":"levelo://app?vid=581c0794-438f-444e-a464-57f2f9b08257"},"vehicle_type_id":"4","last_reported":1746036829,"current_range_meters":15200,"station_id":"ce4bh512rcd13ifvqe3g","pricing_plan_id":"cebpf4jnsgd1na2vs0mg"},{"bike_id":"5f9cf889-d69c-4e4b-bb97-b46474752909","system_id":"levelo_inurba_marseille","lat":43.2927,"lon":5.38425,"is_reserved":false,"is_disabled":false,"rental_uris":{"android":"levelo://app?vid=5f9cf889-d69c-4e4b-bb97-b46474752909","ios":"levelo://app?vid=5f9cf889-d69c-4e4b-bb97-b46474752909"},"vehicle_type_id":"4","last_reported":1746036829,"current_range_meters":15200,"station_id":"ce4bh692rcd13ifvqea0","pricing_plan_id":"cebpf4jnsgd1na2vs0mg"},{"bike_id":"6872085b-c79a-403d-b19d-72223b249284","system_id":"levelo_inurba_marseille","lat":43.26023,"lon":5.37562,"is_reserved":false,"is_disabled":false,"rental_uris":{"android":"levelo://app?vid=6872085b-c79a-403d-b19d-72223b249284","ios":"levelo://app?vid=6872085b-c79a-403d-b19d-72223b249284"},"vehicle_type_id":"4","last_reported":1746036829,"current_range_meters":15200,"station_id":"ce4bhgh2rcd13ifvqfa0","pricing_plan_id":"cebpf4jnsgd1na2vs0mg"},{"bike_id":"2c459efe-0b09-477e-90f3-1554a958dfd9","system_id":"levelo_inurba_marseille","lat":43.24806,"lon":5.37455,"is_reserved":false,"is_disabled":false,"rental_uris":{"android":"levelo://app?vid=2c459efe-0b09-477e-90f3-1554a958dfd9","ios":"levelo://app?vid=2c459efe-0b09-477e-90f3-1554a958dfd9"},"vehicle_type_id":"4","last_reported":1746036829,"current_range_meters":15200,"station_id":"ce4bhgh2rcd13ifvqfb0","pricing_plan_id":"cebpf4jnsgd1na2vs0mg"},{"bike_id":"c804147b-2374-4845-91ab-585e7777ab7d","system_id":"levelo_inurba_marseille","lat":43.29729,"lon":5.36596,"is_reserved":false,"is_disabled":false,"rental_uris":{"android":"levelo://app?vid=c804147b-2374-4845-91ab-585e7777ab7d","ios":"levelo://app?vid=c804147b-2374-4845-91ab-585e7777ab7d"},"vehicle_type_id":"4","last_reported":1746036829,"current_range_meters":16000,"station_id":"ce4bgn12rcd13ifvqbt0","pricing_plan_id":"cebpf4jnsgd1na2vs0mg"},{"bike_id":"5bddc8f4-772d-4653-ac31-5c786eede17e","system_id":"levelo_inurba_marseille","lat":43.29697,"lon":5.36603,"is_reserved":false,"is_disabled":false,"rental_uris":{"android":"levelo://app?vid=5bddc8f4-772d-4653-ac31-5c786eede17e","ios":"levelo://app?vid=5bddc8f4-772d-4653-ac31-5c786eede17e"},"vehicle_type_id":"4","last_reported":1746036829,"current_range_meters":16000,"station_id":"ce4bgn12rcd13ifvqbt0","pricing_plan_id":"cebpf4jnsgd1na2vs0mg"},{"bike_id":"34b484ab-c0f1-4e55-b51a-e2bafdafb63e","system_id":"levelo_inurba_marseille","lat":43.230548,"lon":5.354963,"is_reserved":false,"is_disabled":false,"rental_uris":{"android":"levelo://app?vid=34b484ab-c0f1-4e55-b51a-e2bafdafb63e","ios":"levelo://app?vid=34b484ab-c0f1-4e55-b51a-e2bafdafb63e"},"vehicle_type_id":"4","last_reported":1746036829,"current_range_meters":16000,"station_id":"cpo3342slgdg3j2ifvpg","pricing_plan_id":"cebpf4jnsgd1na2vs0mg"},{"bike_id":"7940bc1b-eaa7-4f49-a435-46dc9391f6a1","system_id":"levelo_inurba_marseille","lat":43.212,"lon":5.350674,"is_reserved":false,"is_disabled":false,"rental_uris":{"android":"levelo://app?vid=7940bc1b-eaa7-4f49-a435-46dc9391f6a1","ios":"levelo://app?vid=7940bc1b-eaa7-4f49-a435-46dc9391f6a1"},"vehicle_type_id":"4","last_reported":1746036829,"current_range_meters":16000,"station_id":"st_cvj6sg6p6f1abm77japg","pricing_plan_id":"cebpf4jnsgd1na2vs0mg"},{"bike_id":"5b3b4866-905c-4647-ae08-9058596db07e","system_id":"levelo_inurba_marseille","lat":43.29192,"lon":5.35807,"is_reserved":false,"is_disabled":false,"rental_uris":{"android":"levelo://app?vid=5b3b4866-905c-4647-ae08-9058596db07e","ios":"levelo://app?vid=5b3b4866-905c-4647-ae08-9058596db07e"},"vehicle_type_id":"4","last_reported":1746036829,"current_range_meters":16400,"station_id":"ce4bhb12rcd13ifvqel0","pricing_plan_id":"cebpf4jnsgd1na2vs0mg"},{"bike_id":"b862ed22-d010-4fe1-adaa-7ea363cc4a4d","system_id":"levelo_inurba_marseille","lat":43.27383,"lon":5.3626,"is_reserved":false,"is_disabled":false,"rental_uris":{"android":"levelo://app?vid=b862ed22-d010-4fe1-adaa-7ea363cc4a4d","ios":"levelo://app?vid=b862ed22-d010-4fe1-adaa-7ea363cc4a4d"},"vehicle_type_id":"4","last_reported":1746036829,"current_range_meters":16400,"station_id":"ce4bhbh2rcd13ifvqeo0","pricing_plan_id":"cebpf4jnsgd1na2vs0mg"},{"bike_id":"4514539f-058c-421a-b933-aa03501d306d","system_id":"levelo_inurba_marseille","lat":43.29284,"lon":5.36845,"is_reserved":false,"is_disabled":false,"rental_uris":{"android":"levelo://app?vid=4514539f-058c-421a-b933-aa03501d306d","ios":"levelo://app?vid=4514539f-058c-421a-b933-aa03501d306d"},"vehicle_type_id":"4","last_reported":1746036829,"current_range_meters":16400,"station_id":"ce4bhbp2rcd13ifvqesg","pricing_plan_id":"cebpf4jnsgd1na2vs0mg"},{"bike_id":"71924328-ac09-4bfd-b88a-c6aa543fe473","system_id":"levelo_inurba_marseille","lat":43.23957,"lon":5.36642,"is_reserved":false,"is_disabled":false,"rental_uris":{"android":"levelo://app?vid=71924328-ac09-4bfd-b88a-c6aa543fe473","ios":"levelo://app?vid=71924328-ac09-4bfd-b88a-c6aa543fe473"},"vehicle_type_id":"4","last_reported":1746036829,"current_range_meters":16400,"station_id":"ce4bhi12rcd13ifvqfp0","pricing_plan_id":"cebpf4jnsgd1na2vs0mg"},{"bike_id":"fd7875a1-1cd0-47f8-880b-6ef58a6b7e2e","system_id":"levelo_inurba_marseille","lat":43.22931,"lon":5.35357,"is_reserved":false,"is_disabled":false,"rental_uris":{"android":"levelo://app?vid=fd7875a1-1cd0-47f8-880b-6ef58a6b7e2e","ios":"levelo://app?vid=fd7875a1-1cd0-47f8-880b-6ef58a6b7e2e"},"vehicle_type_id":"4","last_reported":1746036829,"current_range_meters":16400,"station_id":"cpo3532slgdg3j2ikp40","pricing_plan_id":"cebpf4jnsgd1na2vs0mg"},{"bike_id":"7dd8c987-5af6-4b9d-9145-b6a65473eea8","system_id":"levelo_inurba_marseille","lat":43.295207,"lon":5.388907,"is_reserved":false,"is_disabled":false,"rental_uris":{"android":"levelo://app?vid=7dd8c987-5af6-4b9d-9145-b6a65473eea8","ios":"levelo://app?vid=7dd8c987-5af6-4b9d-9145-b6a65473eea8"},"vehicle_type_id":"4","last_reported":1746036829,"current_range_meters":16800,"station_id":"ce4bh2h2rcd13ifvqdh0","pricing_plan_id":"cebpf4jnsgd1na2vs0mg"},{"bike_id":"9cc4ee70-6d15-4394-a852-35288b7bb302","system_id":"levelo_inurba_marseille","lat":43.27565,"lon":5.3842,"is_reserved":false,"is_disabled":false,"rental_uris":{"android":"levelo://app?vid=9cc4ee70-6d15-4394-a852-35288b7bb302","ios":"levelo://app?vid=9cc4ee70-6d15-4394-a852-35288b7bb302"},"vehicle_type_id":"4","last_reported":1746036829,"current_range_meters":16800,"station_id":"ce4bhh92rcd13ifvqfi0","pricing_plan_id":"cebpf4jnsgd1na2vs0mg"},{"bike_id":"64ea7867-3b57-44bc-bdaf-c145d33776cd","system_id":"levelo_inurba_marseille","lat":43.28341,"lon":5.38098,"is_reserved":false,"is_disabled":false,"rental_uris":{"android":"levelo://app?vid=64ea7867-3b57-44bc-bdaf-c145d33776cd","ios":"levelo://app?vid=64ea7867-3b57-44bc-bdaf-c145d33776cd"},"vehicle_type_id":"4","last_reported":1746036829,"current_range_meters":17200,"station_id":"ce4bh412rcd13ifvqdr0","pricing_plan_id":"cebpf4jnsgd1na2vs0mg"},{"bike_id":"b1b4d74f-092b-476b-abae-f60870c92748","system_id":"levelo_inurba_marseille","lat":43.25086,"lon":5.39521,"is_reserved":false,"is_disabled":false,"rental_uris":{"android":"levelo://app?vid=b1b4d74f-092b-476b-abae-f60870c92748","ios":"levelo://app?vid=b1b4d74f-092b-476b-abae-f60870c92748"},"vehicle_type_id":"4","last_reported":1746036829,"current_range_meters":17200,"station_id":"ce4bhm12rcd13ifvqgkg","pricing_plan_id":"cebpf4jnsgd1na2vs0mg"},{"bike_id":"0d150482-492f-4899-9141-d88688e9af5d","system_id":"levelo_inurba_marseille","lat":43.29555,"lon":5.42292,"is_reserved":false,"is_disabled":false,"rental_uris":{"android":"levelo://app?vid=0d150482-492f-4899-9141-d88688e9af5d","ios":"levelo://app?vid=0d150482-492f-4899-9141-d88688e9af5d"},"vehicle_type_id":"4","last_reported":1746036829,"current_range_meters":17200,"station_id":"ce4bhph2rcd13ifvqhdg","pricing_plan_id":"cebpf4jnsgd1na2vs0mg"},{"bike_id":"1a6574a5-f29c-4f4f-92c6-62b4fd2ee6fa","system_id":"levelo_inurba_marseille","lat":43.26558,"lon":5.37281,"is_reserved":false,"is_disabled":false,"rental_uris":{"android":"levelo://app?vid=1a6574a5-f29c-4f4f-92c6-62b4fd2ee6fa","ios":"levelo://app?vid=1a6574a5-f29c-4f4f-92c6-62b4fd2ee6fa"},"vehicle_type_id":"4","last_reported":1746036829,"current_range_meters":17600,"station_id":"ce4bhg12rcd13ifvqf70","pricing_plan_id":"cebpf4jnsgd1na2vs0mg"},{"bike_id":"d9557032-9b81-4a15-903a-670b93be0f61","system_id":"levelo_inurba_marseille","lat":43.24662,"lon":5.38159,"is_reserved":false,"is_disabled":false,"rental_uris":{"android":"levelo://app?vid=d9557032-9b81-4a15-903a-670b93be0f61","ios":"levelo://app?vid=d9557032-9b81-4a15-903a-670b93be0f61"},"vehicle_type_id":"4","last_reported":1746036829,"current_range_meters":17600,"station_id":"ce4bhih2rcd13ifvqfr0","pricing_plan_id":"cebpf4jnsgd1na2vs0mg"},{"bike_id":"7a0d5ca9-5e85-47d8-a0a9-5402e73152f3","system_id":"levelo_inurba_marseille","lat":43.31714,"lon":5.43708,"is_reserved":false,"is_disabled":false,"rental_uris":{"android":"levelo://app?vid=7a0d5ca9-5e85-47d8-a0a9-5402e73152f3","ios":"levelo://app?vid=7a0d5ca9-5e85-47d8-a0a9-5402e73152f3"},"vehicle_type_id":"4","last_reported":1746036829,"current_range_meters":17600,"station_id":"ce4bhp92rcd13ifvqhcg","pricing_plan_id":"cebpf4jnsgd1na2vs0mg"},{"bike_id":"8f643cfd-11d8-48a7-a6b5-3e2d2620503e","system_id":"levelo_inurba_marseille","lat":43.2861,"lon":5.37065,"is_reserved":false,"is_disabled":false,"rental_uris":{"android":"levelo://app?vid=8f643cfd-11d8-48a7-a6b5-3e2d2620503e","ios":"levelo://app?vid=8f643cfd-11d8-48a7-a6b5-3e2d2620503e"},"vehicle_type_id":"4","last_reported":1746036829,"current_range_meters":17600,"station_id":"ce4bht12rcd13ifvqi60","pricing_plan_id":"cebpf4jnsgd1na2vs0mg"},{"bike_id":"b58385b2-d1b2-4ecc-af75-eb7cf4772905","system_id":"levelo_inurba_marseille","lat":43.23075,"lon":5.35484,"is_reserved":false,"is_disabled":false,"rental_uris":{"android":"levelo://app?vid=b58385b2-d1b2-4ecc-af75-eb7cf4772905","ios":"levelo://app?vid=b58385b2-d1b2-4ecc-af75-eb7cf4772905"},"vehicle_type_id":"4","last_reported":1746036829,"current_range_meters":17600,"station_id":"cpo3342slgdg3j2ifvpg","pricing_plan_id":"cebpf4jnsgd1na2vs0mg"},{"bike_id":"aebdf8c5-253b-4377-a3fb-c4cb08028d37","system_id":"levelo_inurba_marseille","lat":43.31067,"lon":5.38361,"is_reserved":false,"is_disabled":false,"rental_uris":{"android":"levelo://app?vid=aebdf8c5-253b-4377-a3fb-c4cb08028d37","ios":"levelo://app?vid=aebdf8c5-253b-4377-a3fb-c4cb08028d37"},"vehicle_type_id":"4","last_reported":1746036829,"current_range_meters":18000,"station_id":"ce4bgv92rcd13ifvqcr0","pricing_plan_id":"cebpf4jnsgd1na2vs0mg"},{"bike_id":"31e645e2-111a-475d-88df-cc1b326f5545","system_id":"levelo_inurba_marseille","lat":43.28427,"lon":5.34981,"is_reserved":false,"is_disabled":false,"rental_uris":{"android":"levelo://app?vid=31e645e2-111a-475d-88df-cc1b326f5545","ios":"levelo://app?vid=31e645e2-111a-475d-88df-cc1b326f5545"},"vehicle_type_id":"4","last_reported":1746036829,"current_range_meters":18000,"station_id":"ce4bhbh2rcd13ifvqepg","pricing_plan_id":"cebpf4jnsgd1na2vs0mg"},{"bike_id":"822aa0fd-4399-4c1b-a713-25ee9cfad38e","system_id":"levelo_inurba_marseille","lat":43.24808,"lon":5.37458,"is_reserved":false,"is_disabled":false,"rental_uris":{"android":"levelo://app?vid=822aa0fd-4399-4c1b-a713-25ee9cfad38e","ios":"levelo://app?vid=822aa0fd-4399-4c1b-a713-25ee9cfad38e"},"vehicle_type_id":"4","last_reported":1746036829,"current_range_meters":18000,"station_id":"ce4bhgh2rcd13ifvqfb0","pricing_plan_id":"cebpf4jnsgd1na2vs0mg"},{"bike_id":"458af73f-fa20-47c4-9d5e-1193d1a5b8db","system_id":"levelo_inurba_marseille","lat":43.241549,"lon":5.364095,"is_reserved":false,"is_disabled":false,"rental_uris":{"android":"levelo://app?vid=458af73f-fa20-47c4-9d5e-1193d1a5b8db","ios":"levelo://app?vid=458af73f-fa20-47c4-9d5e-1193d1a5b8db"},"vehicle_type_id":"4","last_reported":1746036829,"current_range_meters":18000,"station_id":"cpo36qri1sfpv3e86is0","pricing_plan_id":"cebpf4jnsgd1na2vs0mg"},{"bike_id":"010aef2a-f6c2-4e58-aeeb-af6928f8bb93","system_id":"levelo_inurba_marseille","lat":43.323187,"lon":5.4078,"is_reserved":false,"is_disabled":false,"rental_uris":{"android":"levelo://app?vid=010aef2a-f6c2-4e58-aeeb-af6928f8bb93","ios":"levelo://app?vid=010aef2a-f6c2-4e58-aeeb-af6928f8bb93"},"vehicle_type_id":"4","last_reported":1746036829,"current_range_meters":18800,"station_id":"","pricing_plan_id":"cebpf4jnsgd1na2vs0mg"},{"bike_id":"af4c3e45-4c43-4925-a3cb-61e3359bb893","system_id":"levelo_inurba_marseille","lat":43.28935,"lon":5.3664,"is_reserved":false,"is_disabled":false,"rental_uris":{"android":"levelo://app?vid=af4c3e45-4c43-4925-a3cb-61e3359bb893","ios":"levelo://app?vid=af4c3e45-4c43-4925-a3cb-61e3359bb893"},"vehicle_type_id":"4","last_reported":1746036829,"current_range_meters":18800,"station_id":"ce4bhap2rcd13ifvqek0","pricing_plan_id":"cebpf4jnsgd1na2vs0mg"},{"bike_id":"e379e3ea-1bed-4787-896d-4b0a7cd0cdb7","system_id":"levelo_inurba_marseille","lat":43.26567,"lon":5.39023,"is_reserved":false,"is_disabled":false,"rental_uris":{"android":"levelo://app?vid=e379e3ea-1bed-4787-896d-4b0a7cd0cdb7","ios":"levelo://app?vid=e379e3ea-1bed-4787-896d-4b0a7cd0cdb7"},"vehicle_type_id":"4","last_reported":1746036829,"current_range_meters":18800,"station_id":"ce4bhe12rcd13ifvqf30","pricing_plan_id":"cebpf4jnsgd1na2vs0mg"},{"bike_id":"c8581763-0ce2-4bab-ab9e-b4108eaa2ed7","system_id":"levelo_inurba_marseille","lat":43.32369,"lon":5.38895,"is_reserved":false,"is_disabled":false,"rental_uris":{"android":"levelo://app?vid=c8581763-0ce2-4bab-ab9e-b4108eaa2ed7","ios":"levelo://app?vid=c8581763-0ce2-4bab-ab9e-b4108eaa2ed7"},"vehicle_type_id":"4","last_reported":1746036829,"current_range_meters":18800,"station_id":"ce4bhqp2rcd13ifvqhog","pricing_plan_id":"cebpf4jnsgd1na2vs0mg"},{"bike_id":"e4977978-491c-4ba8-9b18-fdc25c19ff03","system_id":"levelo_inurba_marseille","lat":43.293,"lon":5.37455,"is_reserved":false,"is_disabled":false,"rental_uris":{"android":"levelo://app?vid=e4977978-491c-4ba8-9b18-fdc25c19ff03","ios":"levelo://app?vid=e4977978-491c-4ba8-9b18-fdc25c19ff03"},"vehicle_type_id":"4","last_reported":1746036829,"current_range_meters":19200,"station_id":"ce4bgi12rcd13ifvqb70","pricing_plan_id":"cebpf4jnsgd1na2vs0mg"},{"bike_id":"ebe172d7-b1e0-4eff-a1e4-b91d1419a879","system_id":"levelo_inurba_marseille","lat":43.30949,"lon":5.39035,"is_reserved":false,"is_disabled":false,"rental_uris":{"android":"levelo://app?vid=ebe172d7-b1e0-4eff-a1e4-b91d1419a879","ios":"levelo://app?vid=ebe172d7-b1e0-4eff-a1e4-b91d1419a879"},"vehicle_type_id":"4","last_reported":1746036829,"current_range_meters":19200,"station_id":"ce4bgup2rcd13ifvqco0","pricing_plan_id":"cebpf4jnsgd1na2vs0mg"},{"bike_id":"79fd3b66-f432-4ffb-9396-082b4ce3c6e2","system_id":"levelo_inurba_marseille","lat":43.29207,"lon":5.36042,"is_reserved":false,"is_disabled":false,"rental_uris":{"android":"levelo://app?vid=79fd3b66-f432-4ffb-9396-082b4ce3c6e2","ios":"levelo://app?vid=79fd3b66-f432-4ffb-9396-082b4ce3c6e2"},"vehicle_type_id":"4","last_reported":1746036829,"current_range_meters":19200,"station_id":"ce4bhbh2rcd13ifvqeqg","pricing_plan_id":"cebpf4jnsgd1na2vs0mg"},{"bike_id":"ce5b795d-b5f5-4c2f-bb50-69e2ec328996","system_id":"levelo_inurba_marseille","lat":43.330265,"lon":5.390515,"is_reserved":false,"is_disabled":false,"rental_uris":{"android":"levelo://app?vid=ce5b795d-b5f5-4c2f-bb50-69e2ec328996","ios":"levelo://app?vid=ce5b795d-b5f5-4c2f-bb50-69e2ec328996"},"vehicle_type_id":"4","last_reported":1746036829,"current_range_meters":19200,"station_id":"ce4bhr92rcd13ifvqhrg","pricing_plan_id":"cebpf4jnsgd1na2vs0mg"},{"bike_id":"d99bf105-2a68-4379-a106-5dfa667da890","system_id":"levelo_inurba_marseille","lat":43.33011,"lon":5.39047,"is_reserved":false,"is_disabled":false,"rental_uris":{"android":"levelo://app?vid=d99bf105-2a68-4379-a106-5dfa667da890","ios":"levelo://app?vid=d99bf105-2a68-4379-a106-5dfa667da890"},"vehicle_type_id":"4","last_reported":1746036829,"current_range_meters":19200,"station_id":"ce4bhr92rcd13ifvqhrg","pricing_plan_id":"cebpf4jnsgd1na2vs0mg"},{"bike_id":"92a20b13-177d-4b3b-9a23-372ca7dbd163","system_id":"levelo_inurba_marseille","lat":43.3073,"lon":5.42446,"is_reserved":false,"is_disabled":false,"rental_uris":{"android":"levelo://app?vid=92a20b13-177d-4b3b-9a23-372ca7dbd163","ios":"levelo://app?vid=92a20b13-177d-4b3b-9a23-372ca7dbd163"},"vehicle_type_id":"4","last_reported":1746036829,"current_range_meters":19200,"station_id":"st_cvj6ca6bvosntc0bfgr0","pricing_plan_id":"cebpf4jnsgd1na2vs0mg"},{"bike_id":"4ae237e9-e515-4600-9c92-a8645ce1bf12","system_id":"levelo_inurba_marseille","lat":43.29197,"lon":5.35799,"is_reserved":false,"is_disabled":false,"rental_uris":{"android":"levelo://app?vid=4ae237e9-e515-4600-9c92-a8645ce1bf12","ios":"levelo://app?vid=4ae237e9-e515-4600-9c92-a8645ce1bf12"},"vehicle_type_id":"4","last_reported":1746036829,"current_range_meters":19600,"station_id":"ce4bhb12rcd13ifvqel0","pricing_plan_id":"cebpf4jnsgd1na2vs0mg"},{"bike_id":"01d4a972-4d0a-4d7e-8433-d7b2210a801b","system_id":"levelo_inurba_marseille","lat":43.29273,"lon":5.36846,"is_reserved":false,"is_disabled":false,"rental_uris":{"android":"levelo://app?vid=01d4a972-4d0a-4d7e-8433-d7b2210a801b","ios":"levelo://app?vid=01d4a972-4d0a-4d7e-8433-d7b2210a801b"},"vehicle_type_id":"4","last_reported":1746036829,"current_range_meters":19600,"station_id":"ce4bhbp2rcd13ifvqesg","pricing_plan_id":"cebpf4jnsgd1na2vs0mg"},{"bike_id":"b45b031b-eb94-42dd-b8af-30e04a22f228","system_id":"levelo_inurba_marseille","lat":43.24386,"lon":5.37056,"is_reserved":false,"is_disabled":false,"rental_uris":{"android":"levelo://app?vid=b45b031b-eb94-42dd-b8af-30e04a22f228","ios":"levelo://app?vid=b45b031b-eb94-42dd-b8af-30e04a22f228"},"vehicle_type_id":"4","last_reported":1746036829,"current_range_meters":19600,"station_id":"ce4bhhh2rcd13ifvqfk0","pricing_plan_id":"cebpf4jnsgd1na2vs0mg"},{"bike_id":"8a108257-ba62-40f1-b151-5864796d192a","system_id":"levelo_inurba_marseille","lat":43.21751,"lon":5.34603,"is_reserved":false,"is_disabled":false,"rental_uris":{"android":"levelo://app?vid=8a108257-ba62-40f1-b151-5864796d192a","ios":"levelo://app?vid=8a108257-ba62-40f1-b151-5864796d192a"},"vehicle_type_id":"4","last_reported":1746036829,"current_range_meters":19600,"station_id":"st_cvj6r9ubvosntc0bgbag","pricing_plan_id":"cebpf4jnsgd1na2vs0mg"},{"bike_id":"f84fe095-8ea5-4e3f-a9c5-2aeb79660c1f","system_id":"levelo_inurba_marseille","lat":43.29901,"lon":5.38118,"is_reserved":false,"is_disabled":false,"rental_uris":{"android":"levelo://app?vid=f84fe095-8ea5-4e3f-a9c5-2aeb79660c1f","ios":"levelo://app?vid=f84fe095-8ea5-4e3f-a9c5-2aeb79660c1f"},"vehicle_type_id":"4","last_reported":1746036829,"current_range_meters":20000,"station_id":"ce4bgj12rcd13ifvqbc0","pricing_plan_id":"cebpf4jnsgd1na2vs0mg"},{"bike_id":"a2248ed8-a836-4b12-bfa4-87b136132f11","system_id":"levelo_inurba_marseille","lat":43.30547,"lon":5.38433,"is_reserved":false,"is_disabled":false,"rental_uris":{"android":"levelo://app?vid=a2248ed8-a836-4b12-bfa4-87b136132f11","ios":"levelo://app?vid=a2248ed8-a836-4b12-bfa4-87b136132f11"},"vehicle_type_id":"4","last_reported":1746036829,"current_range_meters":20400,"station_id":"ce4bgg92rcd13ifvqb30","pricing_plan_id":"cebpf4jnsgd1na2vs0mg"},{"bike_id":"793e3c47-efcf-4e94-b65d-baad1f2d77b5","system_id":"levelo_inurba_marseille","lat":43.301392,"lon":5.387663,"is_reserved":false,"is_disabled":false,"rental_uris":{"android":"levelo://app?vid=793e3c47-efcf-4e94-b65d-baad1f2d77b5","ios":"levelo://app?vid=793e3c47-efcf-4e94-b65d-baad1f2d77b5"},"vehicle_type_id":"4","last_reported":1746036829,"current_range_meters":20400,"station_id":"ce4bghh2rcd13ifvqb60","pricing_plan_id":"cebpf4jnsgd1na2vs0mg"},{"bike_id":"1df16a71-a75a-4852-b05f-07b0eb3462fd","system_id":"levelo_inurba_marseille","lat":43.248199,"lon":5.374563,"is_reserved":false,"is_disabled":false,"rental_uris":{"android":"levelo://app?vid=1df16a71-a75a-4852-b05f-07b0eb3462fd","ios":"levelo://app?vid=1df16a71-a75a-4852-b05f-07b0eb3462fd"},"vehicle_type_id":"4","last_reported":1746036829,"current_range_meters":20400,"station_id":"ce4bgup2rcd13ifvqco0","pricing_plan_id":"cebpf4jnsgd1na2vs0mg"},{"bike_id":"ba49f72d-e027-4e4a-a84a-b28089e4f1ab","system_id":"levelo_inurba_marseille","lat":43.31174,"lon":5.3872,"is_reserved":false,"is_disabled":false,"rental_uris":{"android":"levelo://app?vid=ba49f72d-e027-4e4a-a84a-b28089e4f1ab","ios":"levelo://app?vid=ba49f72d-e027-4e4a-a84a-b28089e4f1ab"},"vehicle_type_id":"4","last_reported":1746036829,"current_range_meters":20400,"station_id":"ce4bgv12rcd13ifvqcp0","pricing_plan_id":"cebpf4jnsgd1na2vs0mg"},{"bike_id":"105722b6-35d0-48e8-b905-c11920677d4f","system_id":"levelo_inurba_marseille","lat":43.29195,"lon":5.35788,"is_reserved":false,"is_disabled":false,"rental_uris":{"android":"levelo://app?vid=105722b6-35d0-48e8-b905-c11920677d4f","ios":"levelo://app?vid=105722b6-35d0-48e8-b905-c11920677d4f"},"vehicle_type_id":"4","last_reported":1746036829,"current_range_meters":20400,"station_id":"ce4bhb12rcd13ifvqel0","pricing_plan_id":"cebpf4jnsgd1na2vs0mg"},{"bike_id":"b4b6bbfd-b753-469f-8ee7-2cd93986f6d7","system_id":"levelo_inurba_marseille","lat":43.28851,"lon":5.35848,"is_reserved":false,"is_disabled":false,"rental_uris":{"android":"levelo://app?vid=b4b6bbfd-b753-469f-8ee7-2cd93986f6d7","ios":"levelo://app?vid=b4b6bbfd-b753-469f-8ee7-2cd93986f6d7"},"vehicle_type_id":"4","last_reported":1746036829,"current_range_meters":20400,"station_id":"ce4bhb12rcd13ifvqem0","pricing_plan_id":"cebpf4jnsgd1na2vs0mg"},{"bike_id":"19197077-e4d2-4623-97b9-7269ce6d9c7d","system_id":"levelo_inurba_marseille","lat":43.25942,"lon":5.40906,"is_reserved":false,"is_disabled":false,"rental_uris":{"android":"levelo://app?vid=19197077-e4d2-4623-97b9-7269ce6d9c7d","ios":"levelo://app?vid=19197077-e4d2-4623-97b9-7269ce6d9c7d"},"vehicle_type_id":"4","last_reported":1746036829,"current_range_meters":20400,"station_id":"ce4bhm92rcd13ifvqglg","pricing_plan_id":"cebpf4jnsgd1na2vs0mg"},{"bike_id":"2854e416-204c-4527-9aac-4a2b50393a8f","system_id":"levelo_inurba_marseille","lat":43.29291,"lon":5.37461,"is_reserved":false,"is_disabled":false,"rental_uris":{"android":"levelo://app?vid=2854e416-204c-4527-9aac-4a2b50393a8f","ios":"levelo://app?vid=2854e416-204c-4527-9aac-4a2b50393a8f"},"vehicle_type_id":"4","last_reported":1746036829,"current_range_meters":20800,"station_id":"ce4bgi12rcd13ifvqb70","pricing_plan_id":"cebpf4jnsgd1na2vs0mg"},{"bike_id":"d7382821-82ff-45ab-859d-2bd4e2b99307","system_id":"levelo_inurba_marseille","lat":43.29711,"lon":5.36611,"is_reserved":false,"is_disabled":false,"rental_uris":{"android":"levelo://app?vid=d7382821-82ff-45ab-859d-2bd4e2b99307","ios":"levelo://app?vid=d7382821-82ff-45ab-859d-2bd4e2b99307"},"vehicle_type_id":"4","last_reported":1746036829,"current_range_meters":20800,"station_id":"ce4bgn12rcd13ifvqbt0","pricing_plan_id":"cebpf4jnsgd1na2vs0mg"},{"bike_id":"5d796bd8-3332-4716-a098-0b39643ee84e","system_id":"levelo_inurba_marseille","lat":43.27376,"lon":5.36253,"is_reserved":false,"is_disabled":false,"rental_uris":{"android":"levelo://app?vid=5d796bd8-3332-4716-a098-0b39643ee84e","ios":"levelo://app?vid=5d796bd8-3332-4716-a098-0b39643ee84e"},"vehicle_type_id":"4","last_reported":1746036829,"current_range_meters":20800,"station_id":"ce4bhbh2rcd13ifvqeo0","pricing_plan_id":"cebpf4jnsgd1na2vs0mg"},{"bike_id":"9fc29131-3b3c-4a4c-95a9-5f672357be97","system_id":"levelo_inurba_marseille","lat":43.24082,"lon":5.37754,"is_reserved":false,"is_disabled":false,"rental_uris":{"android":"levelo://app?vid=9fc29131-3b3c-4a4c-95a9-5f672357be97","ios":"levelo://app?vid=9fc29131-3b3c-4a4c-95a9-5f672357be97"},"vehicle_type_id":"4","last_reported":1746036829,"current_range_meters":20800,"station_id":"ce4bhnp2rcd13ifvqgvg","pricing_plan_id":"cebpf4jnsgd1na2vs0mg"},{"bike_id":"c7b75ff6-c0be-4f80-94ba-f7afc11fa6b7","system_id":"levelo_inurba_marseille","lat":43.2175,"lon":5.34605,"is_reserved":false,"is_disabled":false,"rental_uris":{"android":"levelo://app?vid=c7b75ff6-c0be-4f80-94ba-f7afc11fa6b7","ios":"levelo://app?vid=c7b75ff6-c0be-4f80-94ba-f7afc11fa6b7"},"vehicle_type_id":"4","last_reported":1746036829,"current_range_meters":20800,"station_id":"st_cvj6r9ubvosntc0bgbag","pricing_plan_id":"cebpf4jnsgd1na2vs0mg"},{"bike_id":"69f4ef01-1634-4baa-969d-86fdf116dcfe","system_id":"levelo_inurba_marseille","lat":43.30795,"lon":5.3815,"is_reserved":false,"is_disabled":false,"rental_uris":{"android":"levelo://app?vid=69f4ef01-1634-4baa-969d-86fdf116dcfe","ios":"levelo://app?vid=69f4ef01-1634-4baa-969d-86fdf116dcfe"},"vehicle_type_id":"4","last_reported":1746036829,"current_range_meters":21600,"station_id":"ce4bgt12rcd13ifvqce0","pricing_plan_id":"cebpf4jnsgd1na2vs0mg"},{"bike_id":"e22fc1ff-b8e0-40bd-b23e-e1dfe180a1e2","system_id":"levelo_inurba_marseille","lat":43.31177,"lon":5.387147,"is_reserved":false,"is_disabled":false,"rental_uris":{"android":"levelo://app?vid=e22fc1ff-b8e0-40bd-b23e-e1dfe180a1e2","ios":"levelo://app?vid=e22fc1ff-b8e0-40bd-b23e-e1dfe180a1e2"},"vehicle_type_id":"4","last_reported":1746036829,"current_range_meters":21600,"station_id":"ce4bgv12rcd13ifvqcp0","pricing_plan_id":"cebpf4jnsgd1na2vs0mg"},{"bike_id":"1c7950e2-3d6c-4c82-861b-15e68b512840","system_id":"levelo_inurba_marseille","lat":43.24386,"lon":5.37058,"is_reserved":false,"is_disabled":false,"rental_uris":{"android":"levelo://app?vid=1c7950e2-3d6c-4c82-861b-15e68b512840","ios":"levelo://app?vid=1c7950e2-3d6c-4c82-861b-15e68b512840"},"vehicle_type_id":"4","last_reported":1746036829,"current_range_meters":21600,"station_id":"ce4bhhh2rcd13ifvqfk0","pricing_plan_id":"cebpf4jnsgd1na2vs0mg"},{"bike_id":"ab308b00-4b1d-48b2-88b1-189c7e9412ed","system_id":"levelo_inurba_marseille","lat":43.30942,"lon":5.39029,"is_reserved":false,"is_disabled":false,"rental_uris":{"android":"levelo://app?vid=ab308b00-4b1d-48b2-88b1-189c7e9412ed","ios":"levelo://app?vid=ab308b00-4b1d-48b2-88b1-189c7e9412ed"},"vehicle_type_id":"4","last_reported":1746036829,"current_range_meters":22000,"station_id":"ce4bgup2rcd13ifvqco0","pricing_plan_id":"cebpf4jnsgd1na2vs0mg"},{"bike_id":"a5854305-b57d-4fe6-b243-0fe0fcf896bd","system_id":"levelo_inurba_marseille","lat":43.28609,"lon":5.35101,"is_reserved":false,"is_disabled":false,"rental_uris":{"android":"levelo://app?vid=a5854305-b57d-4fe6-b243-0fe0fcf896bd","ios":"levelo://app?vid=a5854305-b57d-4fe6-b243-0fe0fcf896bd"},"vehicle_type_id":"4","last_reported":1746036829,"current_range_meters":22000,"station_id":"ce4bhch2rcd13ifvqeug","pricing_plan_id":"cebpf4jnsgd1na2vs0mg"},