{"last_updated":1714576025,"ttl":30,"version":"2.2","data":{"bikes":[{"bike_id":"a27f2a16-099b-4550-8354-dfa89c452f99","system_id":"levelo_inurba_marseille","lat":43.31341,"lon":5.367098,"is_reserved":false,"is_disabled":false,"rental_uris":{"android":"levelo://app?vid=a27f2a16-099b-4550-8354-dfa89c452f99","ios":"levelo://app?vid=a27f2a16-099b-4550-8354-dfa89c452f99"},"vehicle_type_id":"4","last_reported":1714576025,"current_range_meters":26800,"station_id":"ce4bgr92rcd13ifvqc6g","pricing_plan_id":"cebpf4jnsgd1na2vs0mg"},{"bike_id":"8bb11d24-7ba2-43fd-b2dc-b88255f25ec4","system_id":"levelo_inurba_marseille","lat":43.31341,"lon":5.367098,"is_reserved":false,"is_disabled":false,"rental_uris":{"android":"levelo://app?vid=8bb11d24-7ba2-43fd-b2dc-b88255f25ec4","ios":"levelo://app?vid=8bb11d24-7ba2-43fd-b2dc-b88255f25ec4"},"vehicle_type_id":"4","last_reported":1714576025,"current_range_meters":800,"station_id":"ce4bgr92rcd13ifvqc6g","pricing_plan_id":"cebpf4jnsgd1na2vs0mg"},{"bike_id":"7e77f73f-bd2a-4527-9341-c86471e12b61","system_id":"levelo_inurba_marseille","lat":43.31341,"lon":5.367098,"is_reserved":false,"is_disabled":false,"rental_uris":{"android":"levelo://app?vid=7e77f73f-bd2a-4527-9341-c86471e12b61","ios":"levelo://app?vid=7e77f73f-bd2a-4527-9341-c86471e12b61"},"vehicle_type_id":"4","last_reported":1714576025,"current_range_meters":23200,"station_id":"ce4bgr92rcd13ifvqc6g","pricing_plan_id":"cebpf4jnsgd1na2vs0mg"},{"bike_id":"b1c85b8f-cb93-42b4-9095-c12cb5955104","system_id":"levelo_inurba_marseille","lat":43.313391,"lon":5.36706,"is_reserved":false,"is_disabled":false,"rental_uris":{"android":"levelo://app?vid=b1c85b8f-cb93-42b4-9095-c12cb5955104","ios":"levelo://app?vid=b1c85b8f-cb93-42b4-9095-c12cb5955104"},"vehicle_type_id":"4","last_reported":1714576025,"current_range_meters":31200,"station_id":"ce4bgr92rcd13ifvqc6g","pricing_plan_id":"cebpf4jnsgd1na2vs0mg"},{"bike_id":"70bf028e-f787-4cdf-91e3-65cf05eaabef","system_id":"levelo_inurba_marseille","lat":43.31341,"lon":5.367098,"is_reserved":false,"is_disabled":false,"rental_uris":{"android":"levelo://app?vid=70bf028e-f787-4cdf-91e3-65cf05eaabef","ios":"levelo://app?vid=70bf028e-f787-4cdf-91e3-65cf05eaabef"},"vehicle_type_id":"4","last_reported":1714576025,"current_range_meters":6800,"station_id":"ce4bgr92rcd13ifvqc6g","pricing_plan_id":"cebpf4jnsgd1na2vs0mg"},{"bike_id":"812104c2-c6c4-4e37-b991-8cc1ca326245","system_id":"levelo_inurba_marseille","lat":43.313391,"lon":5.36706,"is_reserved":false,"is_disabled":false,"rental_uris":{"android":"levelo://app?vid=812104c2-c6c4-4e37-b991-8cc1ca326245","ios":"levelo://app?vid=812104c2-c6c4-4e37-b991-8cc1ca326245"},"vehicle_type_id":"4","last_reported":1714576025,"current_range_meters":28800,"station_id":"ce4bgr92rcd13ifvqc6g","pricing_plan_id":"cebpf4jnsgd1na2vs0mg"},{"bike_id":"eea110d5-1146-4c50-b5ba-88b0cf336768","system_id":"levelo_inurba_marseille","lat":43.313391,"lon":5.36706,"is_reserved":false,"is_disabled":false,"rental_uris":{"android":"levelo://app?vid=eea110d5-1146-4c50-b5ba-88b0cf336768","ios":"levelo://app?vid=eea110d5-1146-4c50-b5ba-88b0cf336768"},"vehicle_type_id":"4","last_reported":1714576025,"current_range_meters":29600,"station_id":"ce4bgr92rcd13ifvqc6g","pricing_plan_id":"cebpf4jnsgd1na2vs0mg"},{"bike_id":"9d60afea-2df3-49b7-b604-c84c724d2b48","system_id":"levelo_inurba_marseille","lat":43.313391,"lon":5.36706,"is_reserved":false,"is_disabled":false,"rental_uris":{"android":"levelo://app?vid=9d60afea-2df3-49b7-b604-c84c724d2b48","ios":"levelo://app?vid=9d60afea-2df3-49b7-b604-c84c724d2b48"},"vehicle_type_id":"4","last_reported":1714576025,"current_range_meters":30400,"station_id":"ce4bgr92rcd13ifvqc6g","pricing_plan_id":"cebpf4jnsgd1na2vs0mg"},{"bike_id":"8c8cca2b-9f2e-42dc-80b7-f3a600a76349","system_id":"levelo_inurba_marseille","lat":43.313391,"lon":5.36706,"is_reserved":false,"is_disabled":false,"rental_uris":{"android":"levelo://app?vid=8c8cca2b-9f2e-42dc-80b7-f3a600a76349","ios":"levelo://app?vid=8c8cca2b-9f2e-42dc-80b7-f3a600a76349"},"vehicle_type_id":"4","last_reported":1714576025,"current_range_meters":6000,"station_id":"ce4bgr92rcd13ifvqc6g","pricing_plan_id":"cebpf4jnsgd1na2vs0mg"},{"bike_id":"18266c9b-436c-485b-9d02-c25f4c81f4af","system_id":"levelo_inurba_marseille","lat":43.31341,"lon":5.367098,"is_reserved":false,"is_disabled":false,"rental_uris":{"android":"levelo://app?vid=18266c9b-436c-485b-9d02-c25f4c81f4af","ios":"levelo://app?vid=18266c9b-436c-485b-9d02-c25f4c81f4af"},"vehicle_type_id":"4","last_reported":1714576025,"current_range_meters":19200,"station_id":"ce4bgr92rcd13ifvqc6g","pricing_plan_id":"cebpf4jnsgd1na2vs0mg"},{"bike_id":"9f801138-5d1e-4075-8cfb-ac3394e842a7","system_id":"levelo_inurba_marseille","lat":43.31341,"lon":5.367098,"is_reserved":false,"is_disabled":false,"rental_uris":{"android":"levelo://app?vid=9f801138-5d1e-4075-8cfb-ac3394e842a7","ios":"levelo://app?vid=9f801138-5d1e-4075-8cfb-ac3394e842a7"},"vehicle_type_id":"4","last_reported":1714576025,"current_range_meters":26000,"station_id":"ce4bgr92rcd13ifvqc6g","pricing_plan_id":"cebpf4jnsgd1na2vs0mg"},{"bike_id":"371445c8-a44f-485a-a7c2-f06d783d9390","system_id":"levelo_inurba_marseille","lat":43.31341,"lon":5.367098,"is_reserved":false,"is_disabled":false,"rental_uris":{"android":"levelo://app?vid=371445c8-a44f-485a-a7c2-f06d783d9390","ios":"levelo://app?vid=371445c8-a44f-485a-a7c2-f06d783d9390"},"vehicle_type_id":"4","last_reported":1714576025,"current_range_meters":23200,"station_id":"ce4bgr92rcd13ifvqc6g","pricing_plan_id":"cebpf4jnsgd1na2vs0mg"},{"bike_id":"b4e68743-8c81-4414-8c15-a413ebe65e71","system_id":"levelo_inurba_marseille","lat":43.31341,"lon":5.367098,"is_reserved":false,"is_disabled":false,"rental_uris":{"android":"levelo://app?vid=b4e68743-8c81-4414-8c15-a413ebe65e71","ios":"levelo://app?vid=b4e68743-8c81-4414-8c15-a413ebe65e71"},"vehicle_type_id":"4","last_reported":1714576025,"current_range_meters":30400,"station_id":"ce4bgr92rcd13ifvqc6g","pricing_plan_id":"cebpf4jnsgd1na2vs0mg"},{"bike_id":"d02ef422-ca1f-444e-9e48-ad5d1e2e0ba1","system_id":"levelo_inurba_marseille","lat":43.312239,"lon":5.368562,"is_reserved":false,"is_disabled":false,"rental_uris":{"android":"levelo://app?vid=d02ef422-ca1f-444e-9e48-ad5d1e2e0ba1","ios":"levelo://app?vid=d02ef422-ca1f-444e-9e48-ad5d1e2e0ba1"},"vehicle_type_id":"4","last_reported":1714576025,"current_range_meters":19200,"station_id":"ce4bgl92rcd13ifvqbq0","pricing_plan_id":"cebpf4jnsgd1na2vs0mg"},{"bike_id":"0215f77d-213b-4fa8-9d13-aadc2c00c230","system_id":"levelo_inurba_marseille","lat":43.312239,"lon":5.368562,"is_reserved":false,"is_disabled":false,"rental_uris":{"android":"levelo://app?vid=0215f77d-213b-4fa8-9d13-aadc2c00c230","ios":"levelo://app?vid=0215f77d-213b-4fa8-9d13-aadc2c00c230"},"vehicle_type_id":"4","last_reported":1714576025,"current_range_meters":4800,"station_id":"ce4bgl92rcd13ifvqbq0","pricing_plan_id":"cebpf4jnsgd1na2vs0mg"},{"bike_id":"9f1880fc-330d-4e93-a780-66307bffbbc7","system_id":"levelo_inurba_marseille","lat":43.312239,"lon":5.368562,"is_reserved":false,"is_disabled":false,"rental_uris":{"android":"levelo://app?vid=9f1880fc-330d-4e93-a780-66307bffbbc7","ios":"levelo://app?vid=9f1880fc-330d-4e93-a780-66307bffbbc7"},"vehicle_type_id":"4","last_reported":1714576025,"current_range_meters":17200,"station_id":"ce4bgl92rcd13ifvqbq0","pricing_plan_id":"cebpf4jnsgd1na2vs0mg"},{"bike_id":"32445177-b9f5-4b67-90d7-5152d9096a3e","system_id":"levelo_inurba_marseille","lat":43.312239,"lon":5.368562,"is_reserved":false,"is_disabled":false,"rental_uris":{"android":"levelo://app?vid=32445177-b9f5-4b67-90d7-5152d9096a3e","ios":"levelo://app?vid=32445177-b9f5-4b67-90d7-5152d9096a3e"},"vehicle_type_id":"4","last_reported":1714576025,"current_range_meters":7200,"station_id":"ce4bgl92rcd13ifvqbq0","pricing_plan_id":"cebpf4jnsgd1na2vs0mg"},{"bike_id":"82bebe07-363b-4865-afec-49c20d158c2b","system_id":"levelo_inurba_marseille","lat":43.312239,"lon":5.368562,"is_reserved":false,"is_disabled":false,"rental_uris":{"android":"levelo://app?vid=82bebe07-363b-4865-afec-49c20d158c2b","ios":"levelo://app?vid=82bebe07-363b-4865-afec-49c20d158c2b"},"vehicle_type_id":"4","last_reported":1714576025,"current_range_meters":6000,"station_id":"ce4bgl92rcd13ifvqbq0","pricing_plan_id":"cebpf4jnsgd1na2vs0mg"},{"bike_id":"c7902e60-dba4-4305-a381-5bdff66d590b","system_id":"levelo_inurba_marseille","lat":43.312239,"lon":5.368562,"is_reserved":false,"is_disabled":false,"rental_uris":{"android":"levelo://app?vid=c7902e60-dba4-4305-a381-5bdff66d590b","ios":"levelo://app?vid=c7902e60-dba4-4305-a381-5bdff66d590b"},"vehicle_type_id":"4","last_reported":1714576025,"current_range_meters":20800,"station_id":"ce4bgl92rcd13ifvqbq0","pricing_plan_id":"cebpf4jnsgd1na2vs0mg"},{"bike_id":"92fc841d-6090-4431-b9cf-67ae45924af9","system_id":"levelo_inurba_marseille","lat":43.31231,"lon":5.36862,"is_reserved":false,"is_disabled":false,"rental_uris":{"android":"levelo://app?vid=92fc841d-6090-4431-b9cf-67ae45924af9","ios":"levelo://app?vid=92fc841d-6090-4431-b9cf-67ae45924af9"},"vehicle_type_id":"4","last_reported":1714576025,"current_range_meters":15600,"station_id":"ce4bgl92rcd13ifvqbq0","pricing_plan_id":"cebpf4jnsgd1na2vs0mg"},{"bike_id":"95a46280-8619-49ea-90f4-7217241e36f1","system_id":"levelo_inurba_marseille","lat":43.312239,"lon":5.368562,"is_reserved":false,"is_disabled":false,"rental_uris":{"android":"levelo://app?vid=95a46280-8619-49ea-90f4-7217241e36f1","ios":"levelo://app?vid=95a46280-8619-49ea-90f4-7217241e36f1"},"vehicle_type_id":"4","last_reported":1714576025,"current_range_meters":19200,"station_id":"ce4bgl92rcd13ifvqbq0","pricing_plan_id":"cebpf4jnsgd1na2vs0mg"},{"bike_id":"37d40662-408c-49bd-9265-0d60d93e6ac1","system_id":"levelo_inurba_marseille","lat":43.312239,"lon":5.368562,"is_reserved":false,"is_disabled":false,"rental_uris":{"android":"levelo://app?vid=37d40662-408c-49bd-9265-0d60d93e6ac1","ios":"levelo://app?vid=37d40662-408c-49bd-9265-0d60d93e6ac1"},"vehicle_type_id":"4","last_reported":1714576025,"current_range_meters":11600,"station_id":"ce4bgl92rcd13ifvqbq0","pricing_plan_id":"cebpf4jnsgd1na2vs0mg"},{"bike_id":"692e5edc-d8f4-404e-9963-827d5bca2a40","system_id":"levelo_inurba_marseille","lat":43.312239,"lon":5.368562,"is_reserved":false,"is_disabled":false,"rental_uris":{"android":"levelo://app?vid=692e5edc-d8f4-404e-9963-827d5bca2a40","ios":"levelo://app?vid=692e5edc-d8f4-404e-9963-827d5bca2a40"},"vehicle_type_id":"4","last_reported":1714576025,"current_range_meters":4000,"station_id":"ce4bgl92rcd13ifvqbq0","pricing_plan_id":"cebpf4jnsgd1na2vs0mg"},{"bike_id":"4831f2a6-52de-40a6-ac01-1cfbcad1ef2a","system_id":"levelo_inurba_marseille","lat":43.30914,"lon":5.36841,"is_reserved":false,"is_disabled":false,"rental_uris":{"android":"levelo://app?vid=4831f2a6-52de-40a6-ac01-1cfbcad1ef2a","ios":"levelo://app?vid=4831f2a6-52de-40a6-ac01-1cfbcad1ef2a"},"vehicle_type_id":"4","last_reported":1714576025,"current_range_meters":0,"station_id":"ce4bgn92rcd13ifvqbvg","pricing_plan_id":"cebpf4jnsgd1na2vs0mg"},{"bike_id":"e7ea1ca0-d941-4a27-bfc5-58fc5f4fa36a","system_id":"levelo_inurba_marseille","lat":43.314811,"lon":5.373104,"is_reserved":false,"is_disabled":false,"rental_uris":{"android":"levelo://app?vid=e7ea1ca0-d941-4a27-bfc5-58fc5f4fa36a","ios":"levelo://app?vid=e7ea1ca0-d941-4a27-bfc5-58fc5f4fa36a"},"vehicle_type_id":"4","last_reported":1714576025,"current_range_meters":1200,"station_id":"ce4bgt12rcd13ifvqcd0","pricing_plan_id":"cebpf4jnsgd1na2vs0mg"},{"bike_id":"02be71e1-a72b-41a1-86f9-6caa480ff2e9","system_id":"levelo_inurba_marseille","lat":43.314811,"lon":5.373103,"is_reserved":false,"is_disabled":false,"rental_uris":{"android":"levelo://app?vid=02be71e1-a72b-41a1-86f9-6caa480ff2e9","ios":"levelo://app?vid=02be71e1-a72b-41a1-86f9-6caa480ff2e9"},"vehicle_type_id":"4","last_reported":1714576025,"current_range_meters":17200,"station_id":"ce4bgt12rcd13ifvqcd0","pricing_plan_id":"cebpf4jnsgd1na2vs0mg"},{"bike_id":"c6e5b0fe-def1-45a5-8e42-43c3733edd14","system_id":"levelo_inurba_marseille","lat":43.314811,"lon":5.373103,"is_reserved":false,"is_disabled":false,"rental_uris":{"android":"levelo://app?vid=c6e5b0fe-def1-45a5-8e42-43c3733edd14","ios":"levelo://app?vid=c6e5b0fe-def1-45a5-8e42-43c3733edd14"},"vehicle_type_id":"4","last_reported":1714576025,"current_range_meters":17200,"station_id":"ce4bgt12rcd13ifvqcd0","pricing_plan_id":"cebpf4jnsgd1na2vs0mg"},{"bike_id":"49fdd8e9-b830-433f-84cb-1e2006fdd6cc","system_id":"levelo_inurba_marseille","lat":43.309039,"lon":5.371797,"is_reserved":false,"is_disabled":false,"rental_uris":{"android":"levelo://app?vid=49fdd8e9-b830-433f-84cb-1e2006fdd6cc","ios":"levelo://app?vid=49fdd8e9-b830-433f-84cb-1e2006fdd6cc"},"vehicle_type_id":"4","last_reported":1714576025,"current_range_meters":12800,"station_id":"ce4bguh2rcd13ifvqckg","pricing_plan_id":"cebpf4jnsgd1na2vs0mg"},{"bike_id":"0fdcfb86-436e-4241-9513-d307ae69e99c","system_id":"levelo_inurba_marseille","lat":43.309034,"lon":5.371783,"is_reserved":false,"is_disabled":false,"rental_uris":{"android":"levelo://app?vid=0fdcfb86-436e-4241-9513-d307ae69e99c","ios":"levelo://app?vid=0fdcfb86-436e-4241-9513-d307ae69e99c"},"vehicle_type_id":"4","last_reported":1714576025,"current_range_meters":6000,"station_id":"ce4bguh2rcd13ifvqckg","pricing_plan_id":"cebpf4jnsgd1na2vs0mg"},{"bike_id":"2eeff195-bb9a-444b-804a-a8b7e494b904","system_id":"levelo_inurba_marseille","lat":43.309034,"lon":5.371783,"is_reserved":false,"is_disabled":false,"rental_uris":{"android":"levelo://app?vid=2eeff195-bb9a-444b-804a-a8b7e494b904","ios":"levelo://app?vid=2eeff195-bb9a-444b-804a-a8b7e494b904"},"vehicle_type_id":"4","last_reported":1714576025,"current_range_meters":3600,"station_id":"ce4bguh2rcd13ifvqckg","pricing_plan_id":"cebpf4jnsgd1na2vs0mg"},{"bike_id":"41afb98f-6572-48cd-aad2-b0151abcacd3","system_id":"levelo_inurba_marseille","lat":43.30544,"lon":5.36548,"is_reserved":false,"is_disabled":false,"rental_uris":{"android":"levelo://app?vid=41afb98f-6572-48cd-aad2-b0151abcacd3","ios":"levelo://app?vid=41afb98f-6572-48cd-aad2-b0151abcacd3"},"vehicle_type_id":"4","last_reported":1714576025,"current_range_meters":0,"station_id":"ce4bgs12rcd13ifvqcag","pricing_plan_id":"cebpf4jnsgd1na2vs0mg"},{"bike_id":"9342317a-5d32-4f7c-aa79-578db10d9f37","system_id":"levelo_inurba_marseille","lat":43.30541,"lon":5.36554,"is_reserved":false,"is_disabled":false,"rental_uris":{"android":"levelo://app?vid=9342317a-5d32-4f7c-aa79-578db10d9f37","ios":"levelo://app?vid=9342317a-5d32-4f7c-aa79-578db10d9f37"},"vehicle_type_id":"4","last_reported":1714576025,"current_range_meters":24000,"station_id":"","pricing_plan_id":"cebpf4jnsgd1na2vs0mg"},{"bike_id":"ff34ce50-ec50-4427-8a65-8e58f1f59561","system_id":"levelo_inurba_marseille","lat":43.310791,"lon":5.376789,"is_reserved":false,"is_disabled":false,"rental_uris":{"android":"levelo://app?vid=ff34ce50-ec50-4427-8a65-8e58f1f59561","ios":"levelo://app?vid=ff34ce50-ec50-4427-8a65-8e58f1f59561"},"vehicle_type_id":"4","last_reported":1714576025,"current_range_meters":0,"station_id":"ce4bgt92rcd13ifvqcg0","pricing_plan_id":"cebpf4jnsgd1na2vs0mg"},{"bike_id":"8a39e379-e4ec-4b4c-a9de-c748e1388fb6","system_id":"levelo_inurba_marseille","lat":43.30536,"lon":5.36537,"is_reserved":false,"is_disabled":false,"rental_uris":{"android":"levelo://app?vid=8a39e379-e4ec-4b4c-a9de-c748e1388fb6","ios":"levelo://app?vid=8a39e379-e4ec-4b4c-a9de-c748e1388fb6"},"vehicle_type_id":"4","last_reported":1714576025,"current_range_meters":0,"station_id":"ce4bgs12rcd13ifvqcag","pricing_plan_id":"cebpf4jnsgd1na2vs0mg"},{"bike_id":"81290835-0ea3-4900-8cbf-e0c0d28328c5","system_id":"levelo_inurba_marseille","lat":43.305989,"lon":5.37225,"is_reserved":false,"is_disabled":false,"rental_uris":{"android":"levelo://app?vid=81290835-0ea3-4900-8cbf-e0c0d28328c5","ios":"levelo://app?vid=81290835-0ea3-4900-8cbf-e0c0d28328c5"},"vehicle_type_id":"4","last_reported":1714576025,"current_range_meters":20800,"station_id":"ce4bgqh2rcd13ifvqc4g","pricing_plan_id":"cebpf4jnsgd1na2vs0mg"},{"bike_id":"bd9662a3-a9f3-4cfb-ad32-8f5e66a56046","system_id":"levelo_inurba_marseille","lat":43.305989,"lon":5.37225,"is_reserved":false,"is_disabled":false,"rental_uris":{"android":"levelo://app?vid=bd9662a3-a9f3-4cfb-ad32-8f5e66a56046","ios":"levelo://app?vid=bd9662a3-a9f3-4cfb-ad32-8f5e66a56046"},"vehicle_type_id":"4","last_reported":1714576025,"current_range_meters":29200,"station_id":"ce4bgqh2rcd13ifvqc4g","pricing_plan_id":"cebpf4jnsgd1na2vs0mg"},{"bike_id":"67795843-5134-44f1-9886-b303f289a6fb","system_id":"levelo_inurba_marseille","lat":43.305989,"lon":5.37225,"is_reserved":false,"is_disabled":false,"rental_uris":{"android":"levelo://app?vid=67795843-5134-44f1-9886-b303f289a6fb","ios":"levelo://app?vid=67795843-5134-44f1-9886-b303f289a6fb"},"vehicle_type_id":"4","last_reported":1714576025,"current_range_meters":1200,"station_id":"ce4bgqh2rcd13ifvqc4g","pricing_plan_id":"cebpf4jnsgd1na2vs0mg"},{"bike_id":"12929176-ef7b-408e-9dbc-e6358bf01144","system_id":"levelo_inurba_marseille","lat":43.305989,"lon":5.37225,"is_reserved":false,"is_disabled":false,"rental_uris":{"android":"levelo://app?vid=12929176-ef7b-408e-9dbc-e6358bf01144","ios":"levelo://app?vid=12929176-ef7b-408e-9dbc-e6358bf01144"},"vehicle_type_id":"4","last_reported":1714576025,"current_range_meters":0,"station_id":"ce4bgqh2rcd13ifvqc4g","pricing_plan_id":"cebpf4jnsgd1na2vs0mg"},{"bike_id":"c1cbfa52-905b-4bcc-ba45-0d7c5611ee14","system_id":"levelo_inurba_marseille","lat":43.305989,"lon":5.37225,"is_reserved":false,"is_disabled":false,"rental_uris":{"android":"levelo://app?vid=c1cbfa52-905b-4bcc-ba45-0d7c5611ee14","ios":"levelo://app?vid=c1cbfa52-905b-4bcc-ba45-0d7c5611ee14"},"vehicle_type_id":"4","last_reported":1714576025,"current_range_meters":19600,"station_id":"ce4bgqh2rcd13ifvqc4g","pricing_plan_id":"cebpf4jnsgd1na2vs0mg"},{"bike_id":"2f8a6ca6-e8f5-4838-b77c-f2917d6011e7","system_id":"levelo_inurba_marseille","lat":43.305989,"lon":5.37225,"is_reserved":false,"is_disabled":false,"rental_uris":{"android":"levelo://app?vid=2f8a6ca6-e8f5-4838-b77c-f2917d6011e7","ios":"levelo://app?vid=2f8a6ca6-e8f5-4838-b77c-f2917d6011e7"},"vehicle_type_id":"4","last_reported":1714576025,"current_range_meters":11600,"station_id":"ce4bgqh2rcd13ifvqc4g","pricing_plan_id":"cebpf4jnsgd1na2vs0mg"},{"bike_id":"3c0f90fd-f355-4501-b444-f28729003fe3","system_id":"levelo_inurba_marseille","lat":43.30599,"lon":5.3723,"is_reserved":false,"is_disabled":false,"rental_uris":{"android":"levelo://app?vid=3c0f90fd-f355-4501-b444-f28729003fe3","ios":"levelo://app?vid=3c0f90fd-f355-4501-b444-f28729003fe3"},"vehicle_type_id":"4","last_reported":1714576025,"current_range_meters":0,"station_id":"ce4bgqh2rcd13ifvqc4g","pricing_plan_id":"cebpf4jnsgd1na2vs0mg"},{"bike_id":"86cad7ad-4e96-46a2-bb4e-364a76ff810b","system_id":"levelo_inurba_marseille","lat":43.305983,"lon":5.372323,"is_reserved":false,"is_disabled":false,"rental_uris":{"android":"levelo://app?vid=86cad7ad-4e96-46a2-bb4e-364a76ff810b","ios":"levelo://app?vid=86cad7ad-4e96-46a2-bb4e-364a76ff810b"},"vehicle_type_id":"4","last_reported":1714576025,"current_range_meters":16000,"station_id":"ce4bgqh2rcd13ifvqc4g","pricing_plan_id":"cebpf4jnsgd1na2vs0mg"},{"bike_id":"6520f4c7-08a5-49eb-9213-9704f5a644e1","system_id":"levelo_inurba_marseille","lat":43.311125,"lon":5.377624,"is_reserved":false,"is_disabled":false,"rental_uris":{"android":"levelo://app?vid=6520f4c7-08a5-49eb-9213-9704f5a644e1","ios":"levelo://app?vid=6520f4c7-08a5-49eb-9213-9704f5a644e1"},"vehicle_type_id":"4","last_reported":1714576025,"current_range_meters":0,"station_id":"ce4bgt92rcd13ifvqcg0","pricing_plan_id":"cebpf4jnsgd1na2vs0mg"},{"bike_id":"05bc2085-f011-42c8-9d58-187f81f19973","system_id":"levelo_inurba_marseille","lat":43.305989,"lon":5.37225,"is_reserved":false,"is_disabled":false,"rental_uris":{"android":"levelo://app?vid=05bc2085-f011-42c8-9d58-187f81f19973","ios":"levelo://app?vid=05bc2085-f011-42c8-9d58-187f81f19973"},"vehicle_type_id":"4","last_reported":1714576025,"current_range_meters":20400,"station_id":"ce4bgqh2rcd13ifvqc4g","pricing_plan_id":"cebpf4jnsgd1na2vs0mg"},{"bike_id":"b72161eb-3c25-481c-9b9d-e40cc67b942d","system_id":"levelo_inurba_marseille","lat":43.305989,"lon":5.37225,"is_reserved":false,"is_disabled":false,"rental_uris":{"android":"levelo://app?vid=b72161eb-3c25-481c-9b9d-e40cc67b942d","ios":"levelo://app?vid=b72161eb-3c25-481c-9b9d-e40cc67b942d"},"vehicle_type_id":"4","last_reported":1714576025,"current_range_meters":15200,"station_id":"ce4bgqh2rcd13ifvqc4g","pricing_plan_id":"cebpf4jnsgd1na2vs0mg"},{"bike_id":"5a3cb831-78a8-49da-95e7-bd9c3a635d79","system_id":"levelo_inurba_marseille","lat":43.307945,"lon":5.376487,"is_reserved":false,"is_disabled":false,"rental_uris":{"android":"levelo://app?vid=5a3cb831-78a8-49da-95e7-bd9c3a635d79","ios":"levelo://app?vid=5a3cb831-78a8-49da-95e7-bd9c3a635d79"},"vehicle_type_id":"4","last_reported":1714576025,"current_range_meters":13600,"station_id":"ce4bgv92rcd13ifvqcq0","pricing_plan_id":"cebpf4jnsgd1na2vs0mg"},{"bike_id":"3631e3ec-f6e9-4534-be66-34aeb4b9fb2f","system_id":"levelo_inurba_marseille","lat":43.30787,"lon":5.37634,"is_reserved":false,"is_disabled":false,"rental_uris":{"android":"levelo://app?vid=3631e3ec-f6e9-4534-be66-34aeb4b9fb2f","ios":"levelo://app?vid=3631e3ec-f6e9-4534-be66-34aeb4b9fb2f"},"vehicle_type_id":"4","last_reported":1714576025,"current_range_meters":7200,"station_id":"ce4bgv92rcd13ifvqcq0","pricing_plan_id":"cebpf4jnsgd1na2vs0mg"},{"bike_id":"3b843150-0aec-4412-bc87-32ea6be6b2cf","system_id":"levelo_inurba_marseille","lat":43.30784,"lon":5.37637,"is_reserved":false,"is_disabled":false,"rental_uris":{"android":"levelo://app?vid=3b843150-0aec-4412-bc87-32ea6be6b2cf","ios":"levelo://app?vid=3b843150-0aec-4412-bc87-32ea6be6b2cf"},"vehicle_type_id":"4","last_reported":1714576025,"current_range_meters":2000,"station_id":"ce4bgv92rcd13ifvqcq0","pricing_plan_id":"cebpf4jnsgd1na2vs0mg"},{"bike_id":"ab3256ad-5e1b-4fcd-9c60-a427cafb2270","system_id":"levelo_inurba_marseille","lat":43.317075,"lon":5.377367,"is_reserved":false,"is_disabled":false,"rental_uris":{"android":"levelo://app?vid=ab3256ad-5e1b-4fcd-9c60-a427cafb2270","ios":"levelo://app?vid=ab3256ad-5e1b-4fcd-9c60-a427cafb2270"},"vehicle_type_id":"4","last_reported":1714576025,"current_range_meters":18800,"station_id":"ce4bgth2rcd13ifvqch0","pricing_plan_id":"cebpf4jnsgd1na2vs0mg"},{"bike_id":"82e0fc08-d96f-4eaa-98f5-1f61049bd6b7","system_id":"levelo_inurba_marseille","lat":43.31714,"lon":5.377519,"is_reserved":false,"is_disabled":false,"rental_uris":{"android":"levelo://app?vid=82e0fc08-d96f-4eaa-98f5-1f61049bd6b7","ios":"levelo://app?vid=82e0fc08-d96f-4eaa-98f5-1f61049bd6b7"},"vehicle_type_id":"4","last_reported":1714576025,"current_range_meters":19200,"station_id":"ce4bgth2rcd13ifvqch0","pricing_plan_id":"cebpf4jnsgd1na2vs0mg"},{"bike_id":"98d580f9-42ca-4e12-9d14-2cd9b6caf836","system_id":"levelo_inurba_marseille","lat":43.317236,"lon":5.37789,"is_reserved":false,"is_disabled":false,"rental_uris":{"android":"levelo://app?vid=98d580f9-42ca-4e12-9d14-2cd9b6caf836","ios":"levelo://app?vid=98d580f9-42ca-4e12-9d14-2cd9b6caf836"},"vehicle_type_id":"4","last_reported":1714576025,"current_range_meters":4800,"station_id":"ce4bgth2rcd13ifvqch0","pricing_plan_id":"cebpf4jnsgd1na2vs0mg"},{"bike_id":"031929f8-4373-4229-89c9-142300042306","system_id":"levelo_inurba_marseille","lat":43.303046,"lon":5.368981,"is_reserved":false,"is_disabled":false,"rental_uris":{"android":"levelo://app?vid=031929f8-4373-4229-89c9-142300042306","ios":"levelo://app?vid=031929f8-4373-4229-89c9-142300042306"},"vehicle_type_id":"4","last_reported":1714576025,"current_range_meters":2400,"station_id":"ce4bgqh2rcd13ifvqc5g","pricing_plan_id":"cebpf4jnsgd1na2vs0mg"},{"bike_id":"efa0453b-a09c-4e11-88ef-37d9a15a60c0","system_id":"levelo_inurba_marseille","lat":43.303046,"lon":5.368981,"is_reserved":false,"is_disabled":false,"rental_uris":{"android":"levelo://app?vid=efa0453b-a09c-4e11-88ef-37d9a15a60c0","ios":"levelo://app?vid=efa0453b-a09c-4e11-88ef-37d9a15a60c0"},"vehicle_type_id":"4","last_reported":1714576025,"current_range_meters":0,"station_id":"ce4bgqh2rcd13ifvqc5g","pricing_plan_id":"cebpf4jnsgd1na2vs0mg"},{"bike_id":"3667d5a8-6ae3-4981-8086-7f0c76681e3e","system_id":"levelo_inurba_marseille","lat":43.303046,"lon":5.368981,"is_reserved":false,"is_disabled":false,"rental_uris":{"android":"levelo://app?vid=3667d5a8-6ae3-4981-8086-7f0c76681e3e","ios":"levelo://app?vid=3667d5a8-6ae3-4981-8086-7f0c76681e3e"},"vehicle_type_id":"4","last_reported":1714576025,"current_range_meters":21600,"station_id":"ce4bgqh2rcd13ifvqc5g","pricing_plan_id":"cebpf4jnsgd1na2vs0mg"},{"bike_id":"9a5b57a6-1ecd-4bd8-b8c3-92bab67c278e","system_id":"levelo_inurba_marseille","lat":43.315293,"lon":5.380349,"is_reserved":false,"is_disabled":false,"rental_uris":{"android":"levelo://app?vid=9a5b57a6-1ecd-4bd8-b8c3-92bab67c278e","ios":"levelo://app?vid=9a5b57a6-1ecd-4bd8-b8c3-92bab67c278e"},"vehicle_type_id":"4","last_reported":1714576025,"current_range_meters":29600,"station_id":"ce4bhsp2rcd13ifvqi50","pricing_plan_id":"cebpf4jnsgd1na2vs0mg"},{"bike_id":"fbb2fa9f-713e-4a00-a1e6-04d1206cf2da","system_id":"levelo_inurba_marseille","lat":43.315289,"lon":5.380349,"is_reserved":false,"is_disabled":false,"rental_uris":{"android":"levelo://app?vid=fbb2fa9f-713e-4a00-a1e6-04d1206cf2da","ios":"levelo://app?vid=fbb2fa9f-713e-4a00-a1e6-04d1206cf2da"},"vehicle_type_id":"4","last_reported":1714576025,"current_range_meters":22000,"station_id":"ce4bhsp2rcd13ifvqi50","pricing_plan_id":"cebpf4jnsgd1na2vs0mg"},{"bike_id":"f90db55e-a1d6-4b79-b019-fabfd0622dfe","system_id":"levelo_inurba_marseille","lat":43.301939,"lon":5.366286,"is_reserved":false,"is_disabled":false,"rental_uris":{"android":"levelo://app?vid=f90db55e-a1d6-4b79-b019-fabfd0622dfe","ios":"levelo://app?vid=f90db55e-a1d6-4b79-b019-fabfd0622dfe"},"vehicle_type_id":"4","last_reported":1714576025,"current_range_meters":18800,"station_id":"ce4bgrh2rcd13ifvqc8g","pricing_plan_id":"cebpf4jnsgd1na2vs0mg"},{"bike_id":"037a5e95-b051-4657-8441-c7f4be50d7aa","system_id":"levelo_inurba_marseille","lat":43.308012,"lon":5.381511,"is_reserved":false,"is_disabled":false,"rental_uris":{"android":"levelo://app?vid=037a5e95-b051-4657-8441-c7f4be50d7aa","ios":"levelo://app?vid=037a5e95-b051-4657-8441-c7f4be50d7aa"},"vehicle_type_id":"4","last_reported":1714576025,"current_range_meters":0,"station_id":"ce4bgt12rcd13ifvqce0","pricing_plan_id":"cebpf4jnsgd1na2vs0mg"},{"bike_id":"385a97eb-bd9c-42f9-8e74-5167c66d6287","system_id":"levelo_inurba_marseille","lat":43.308012,"lon":5.381511,"is_reserved":false,"is_disabled":false,"rental_uris":{"android":"levelo://app?vid=385a97eb-bd9c-42f9-8e74-5167c66d6287","ios":"levelo://app?vid=385a97eb-bd9c-42f9-8e74-5167c66d6287"},"vehicle_type_id":"4","last_reported":1714576025,"current_range_meters":0,"station_id":"ce4bgt12rcd13ifvqce0","pricing_plan_id":"cebpf4jnsgd1na2vs0mg"},{"bike_id":"9b79f426-70a9-4955-acb7-0cb17617fd34","system_id":"levelo_inurba_marseille","lat":43.304606,"lon":5.379026,"is_reserved":false,"is_disabled":false,"rental_uris":{"android":"levelo://app?vid=9b79f426-70a9-4955-acb7-0cb17617fd34","ios":"levelo://app?vid=9b79f426-70a9-4955-acb7-0cb17617fd34"},"vehicle_type_id":"4","last_reported":1714576025,"current_range_meters":2400,"station_id":"ce4bgup2rcd13ifvqcn0","pricing_plan_id":"cebpf4jnsgd1na2vs0mg"},{"bike_id":"8f7a652c-9daf-4ece-8331-b8e0bfe7c225","system_id":"levelo_inurba_marseille","lat":43.304606,"lon":5.379026,"is_reserved":false,"is_disabled":false,"rental_uris":{"android":"levelo://app?vid=8f7a652c-9daf-4ece-8331-b8e0bfe7c225","ios":"levelo://app?vid=8f7a652c-9daf-4ece-8331-b8e0bfe7c225"},"vehicle_type_id":"4","last_reported":1714576025,"current_range_meters":25600,"station_id":"ce4bgup2rcd13ifvqcn0","pricing_plan_id":"cebpf4jnsgd1na2vs0mg"},{"bike_id":"7048bb4c-cbf2-44a1-8687-61a282f96174","system_id":"levelo_inurba_marseille","lat":43.304606,"lon":5.379026,"is_reserved":false,"is_disabled":false,"rental_uris":{"android":"levelo://app?vid=7048bb4c-cbf2-44a1-8687-61a282f96174","ios":"levelo://app?vid=7048bb4c-cbf2-44a1-8687-61a282f96174"},"vehicle_type_id":"4","last_reported":1714576025,"current_range_meters":15600,"station_id":"ce4bgup2rcd13ifvqcn0","pricing_plan_id":"cebpf4jnsgd1na2vs0mg"},{"bike_id":"6e0da1e1-7ac5-4b14-86fc-689fa5c4c571","system_id":"levelo_inurba_marseille","lat":43.304606,"lon":5.379026,"is_reserved":false,"is_disabled":false,"rental_uris":{"android":"levelo://app?vid=6e0da1e1-7ac5-4b14-86fc-689fa5c4c571","ios":"levelo://app?vid=6e0da1e1-7ac5-4b14-86fc-689fa5c4c571"},"vehicle_type_id":"4","last_reported":1714576025,"current_range_meters":23600,"station_id":"ce4bgup2rcd13ifvqcn0","pricing_plan_id":"cebpf4jnsgd1na2vs0mg"},{"bike_id":"da814755-a194-4650-b7a1-e34a7b696375","system_id":"levelo_inurba_marseille","lat":43.304606,"lon":5.379026,"is_reserved":false,"is_disabled":false,"rental_uris":{"android":"levelo://app?vid=da814755-a194-4650-b7a1-e34a7b696375","ios":"levelo://app?vid=da814755-a194-4650-b7a1-e34a7b696375"},"vehicle_type_id":"4","last_reported":1714576025,"current_range_meters":11200,"station_id":"ce4bgup2rcd13ifvqcn0","pricing_plan_id":"cebpf4jnsgd1na2vs0mg"},{"bike_id":"baf25f53-d072-4b31-9c24-f80e0afa2528","system_id":"levelo_inurba_marseille","lat":43.304606,"lon":5.379026,"is_reserved":false,"is_disabled":false,"rental_uris":{"android":"levelo://app?vid=baf25f53-d072-4b31-9c24-f80e0afa2528","ios":"levelo://app?vid=baf25f53-d072-4b31-9c24-f80e0afa2528"},"vehicle_type_id":"4","last_reported":1714576025,"current_range_meters":26400,"station_id":"ce4bgup2rcd13ifvqcn0","pricing_plan_id":"cebpf4jnsgd1na2vs0mg"},{"bike_id":"97baf90f-a8c6-4c0d-83ae-da3cdc297450","system_id":"levelo_inurba_marseille","lat":43.304606,"lon":5.379026,"is_reserved":false,"is_disabled":false,"rental_uris":{"android":"levelo://app?vid=97baf90f-a8c6-4c0d-83ae-da3cdc297450","ios":"levelo://app?vid=97baf90f-a8c6-4c0d-83ae-da3cdc297450"},"vehicle_type_id":"4","last_reported":1714576025,"current_range_meters":2800,"station_id":"ce4bgup2rcd13ifvqcn0","pricing_plan_id":"cebpf4jnsgd1na2vs0mg"},{"bike_id":"b5f68a6b-3c5e-48a3-99ac-a7630fd04768","system_id":"levelo_inurba_marseille","lat":43.304606,"lon":5.379026,"is_reserved":false,"is_disabled":false,"rental_uris":{"android":"levelo://app?vid=b5f68a6b-3c5e-48a3-99ac-a7630fd04768","ios":"levelo://app?vid=b5f68a6b-3c5e-48a3-99ac-a7630fd04768"},"vehicle_type_id":"4","last_reported":1714576025,"current_range_meters":3200,"station_id":"ce4bgup2rcd13ifvqcn0","pricing_plan_id":"cebpf4jnsgd1na2vs0mg"},{"bike_id":"27a29ecd-7120-4276-ade4-4741d6a6459f","system_id":"levelo_inurba_marseille","lat":43.304715,"lon":5.379112,"is_reserved":false,"is_disabled":false,"rental_uris":{"android":"levelo://app?vid=27a29ecd-7120-4276-ade4-4741d6a6459f","ios":"levelo://app?vid=27a29ecd-7120-4276-ade4-4741d6a6459f"},"vehicle_type_id":"4","last_reported":1714576025,"current_range_meters":22800,"station_id":"ce4bgup2rcd13ifvqcn0","pricing_plan_id":"cebpf4jnsgd1na2vs0mg"},{"bike_id":"339687d1-ac21-4b24-b00f-6ff83c842ea3","system_id":"levelo_inurba_marseille","lat":43.304606,"lon":5.379026,"is_reserved":false,"is_disabled":false,"rental_uris":{"android":"levelo://app?vid=339687d1-ac21-4b24-b00f-6ff83c842ea3","ios":"levelo://app?vid=339687d1-ac21-4b24-b00f-6ff83c842ea3"},"vehicle_type_id":"4","last_reported":1714576025,"current_range_meters":16400,"station_id":"ce4bgup2rcd13ifvqcn0","pricing_plan_id":"cebpf4jnsgd1na2vs0mg"},{"bike_id":"15289464-eb03-41d3-a459-58039ea88795","system_id":"levelo_inurba_marseille","lat":43.304606,"lon":5.379026,"is_reserved":false,"is_disabled":false,"rental_uris":{"android":"levelo://app?vid=15289464-eb03-41d3-a459-58039ea88795","ios":"levelo://app?vid=15289464-eb03-41d3-a459-58039ea88795"},"vehicle_type_id":"4","last_reported":1714576025,"current_range_meters":5200,"station_id":"ce4bgup2rcd13ifvqcn0","pricing_plan_id":"cebpf4jnsgd1na2vs0mg"},{"bike_id":"6875cb4e-ee49-411d-8caa-7cc65df8e631","system_id":"levelo_inurba_marseille","lat":43.304606,"lon":5.379026,"is_reserved":false,"is_disabled":false,"rental_uris":{"android":"levelo://app?vid=6875cb4e-ee49-411d-8caa-7cc65df8e631","ios":"levelo://app?vid=6875cb4e-ee49-411d-8caa-7cc65df8e631"},"vehicle_type_id":"4","last_reported":1714576025,"current_range_meters":6800,"station_id":"ce4bgup2rcd13ifvqcn0","pricing_plan_id":"cebpf4jnsgd1na2vs0mg"},{"bike_id":"8a62af9a-2a8d-4f3c-b563-ddb2df53a4b2","system_id":"levelo_inurba_marseille","lat":43.304606,"lon":5.379026,"is_reserved":false,"is_disabled":false,"rental_uris":{"android":"levelo://app?vid=8a62af9a-2a8d-4f3c-b563-ddb2df53a4b2","ios":"levelo://app?vid=8a62af9a-2a8d-4f3c-b563-ddb2df53a4b2"},"vehicle_type_id":"4","last_reported":1714576025,"current_range_meters":24000,"station_id":"ce4bgup2rcd13ifvqcn0","pricing_plan_id":"cebpf4jnsgd1na2vs0mg"},{"bike_id":"b7e1812b-71b7-413a-9761-bc07c6cc1d8b","system_id":"levelo_inurba_marseille","lat":43.304606,"lon":5.379026,"is_reserved":false,"is_disabled":false,"rental_uris":{"android":"levelo://app?vid=b7e1812b-71b7-413a-9761-bc07c6cc1d8b","ios":"levelo://app?vid=b7e1812b-71b7-413a-9761-bc07c6cc1d8b"},"vehicle_type_id":"4","last_reported":1714576025,"current_range_meters":24000,"station_id":"ce4bgup2rcd13ifvqcn0","pricing_plan_id":"cebpf4jnsgd1na2vs0mg"},{"bike_id":"61f148c8-a6cf-400a-a852-48aa57397481","system_id":"levelo_inurba_marseille","lat":43.304606,"lon":5.379026,"is_reserved":false,"is_disabled":false,"rental_uris":{"android":"levelo://app?vid=61f148c8-a6cf-400a-a852-48aa57397481","ios":"levelo://app?vid=61f148c8-a6cf-400a-a852-48aa57397481"},"vehicle_type_id":"4","last_reported":1714576025,"current_range_meters":10800,"station_id":"ce4bgup2rcd13ifvqcn0","pricing_plan_id":"cebpf4jnsgd1na2vs0mg"},{"bike_id":"dca0d2d9-9a9e-44e2-aee1-97d83fc307e1","system_id":"levelo_inurba_marseille","lat":43.304606,"lon":5.379026,"is_reserved":false,"is_disabled":false,"rental_uris":{"android":"levelo://app?vid=dca0d2d9-9a9e-44e2-aee1-97d83fc307e1","ios":"levelo://app?vid=dca0d2d9-9a9e-44e2-aee1-97d83fc307e1"},"vehicle_type_id":"4","last_reported":1714576025,"current_range_meters":31200,"station_id":"ce4bgup2rcd13ifvqcn0","pricing_plan_id":"cebpf4jnsgd1na2vs0mg"},{"bike_id":"a2c062aa-e037-49d5-bfe9-71d9ba3a2ae5","system_id":"levelo_inurba_marseille","lat":43.304606,"lon":5.379026,"is_reserved":false,"is_disabled":false,"rental_uris":{"android":"levelo://app?vid=a2c062aa-e037-49d5-bfe9-71d9ba3a2ae5","ios":"levelo://app?vid=a2c062aa-e037-49d5-bfe9-71d9ba3a2ae5"},"vehicle_type_id":"4","last_reported":1714576025,"current_range_meters":26400,"station_id":"ce4bgup2rcd13ifvqcn0","pricing_plan_id":"cebpf4jnsgd1na2vs0mg"},{"bike_id":"48b929d2-e3df-404d-820d-793f9abd15f1","system_id":"levelo_inurba_marseille","lat":43.304606,"lon":5.379026,"is_reserved":false,"is_disabled":false,"rental_uris":{"android":"levelo://app?vid=48b929d2-e3df-404d-820d-793f9abd15f1","ios":"levelo://app?vid=48b929d2-e3df-404d-820d-793f9abd15f1"},"vehicle_type_id":"4","last_reported":1714576025,"current_range_meters":31600,"station_id":"ce4bgup2rcd13ifvqcn0","pricing_plan_id":"cebpf4jnsgd1na2vs0mg"},{"bike_id":"e71bdeeb-599b-42c9-9b46-c1d1a55a5696","system_id":"levelo_inurba_marseille","lat":43.304606,"lon":5.379026,"is_reserved":false,"is_disabled":false,"rental_uris":{"android":"levelo://app?vid=e71bdeeb-599b-42c9-9b46-c1d1a55a5696","ios":"levelo://app?vid=e71bdeeb-599b-42c9-9b46-c1d1a55a5696"},"vehicle_type_id":"4","last_reported":1714576025,"current_range_meters":23200,"station_id":"ce4bgup2rcd13ifvqcn0","pricing_plan_id":"cebpf4jnsgd1na2vs0mg"},{"bike_id":"7036c69a-b779-4ece-8f74-4bc87ed55d46","system_id":"levelo_inurba_marseille","lat":43.324771,"lon":5.36557,"is_reserved":false,"is_disabled":false,"rental_uris":{"android":"levelo://app?vid=7036c69a-b779-4ece-8f74-4bc87ed55d46","ios":"levelo://app?vid=7036c69a-b779-4ece-8f74-4bc87ed55d46"},"vehicle_type_id":"4","last_reported":1714576025,"current_range_meters":12800,"station_id":"ce4bhs12rcd13ifvqhvg","pricing_plan_id":"cebpf4jnsgd1na2vs0mg"},{"bike_id":"2d745f19-9e6f-407d-8030-70a535b6c69a","system_id":"levelo_inurba_marseille","lat":43.304606,"lon":5.379026,"is_reserved":false,"is_disabled":false,"rental_uris":{"android":"levelo://app?vid=2d745f19-9e6f-407d-8030-70a535b6c69a","ios":"levelo://app?vid=2d745f19-9e6f-407d-8030-70a535b6c69a"},"vehicle_type_id":"4","last_reported":1714576025,"current_range_meters":13200,"station_id":"ce4bgup2rcd13ifvqcn0","pricing_plan_id":"cebpf4jnsgd1na2vs0mg"},{"bike_id":"3508f144-2468-46c9-abf6-dc7450deae38","system_id":"levelo_inurba_marseille","lat":43.304606,"lon":5.379026,"is_reserved":false,"is_disabled":false,"rental_uris":{"android":"levelo://app?vid=3508f144-2468-46c9-abf6-dc7450deae38","ios":"levelo://app?vid=3508f144-2468-46c9-abf6-dc7450deae38"},"vehicle_type_id":"4","last_reported":1714576025,"current_range_meters":25600,"station_id":"ce4bgup2rcd13ifvqcn0","pricing_plan_id":"cebpf4jnsgd1na2vs0mg"},{"bike_id":"b22ab42e-8a3a-4ec7-97c5-d3fb72660fea","system_id":"levelo_inurba_marseille","lat":43.324771,"lon":5.36557,"is_reserved":false,"is_disabled":false,"rental_uris":{"android":"levelo://app?vid=b22ab42e-8a3a-4ec7-97c5-d3fb72660fea","ios":"levelo://app?vid=b22ab42e-8a3a-4ec7-97c5-d3fb72660fea"},"vehicle_type_id":"4","last_reported":1714576025,"current_range_meters":22400,"station_id":"ce4bhs12rcd13ifvqhvg","pricing_plan_id":"cebpf4jnsgd1na2vs0mg"},{"bike_id":"d68c6a04-97b9-446b-af52-1bf9a27f07c4","system_id":"levelo_inurba_marseille","lat":43.304606,"lon":5.379026,"is_reserved":false,"is_disabled":false,"rental_uris":{"android":"levelo://app?vid=d68c6a04-97b9-446b-af52-1bf9a27f07c4","ios":"levelo://app?vid=d68c6a04-97b9-446b-af52-1bf9a27f07c4"},"vehicle_type_id":"4","last_reported":1714576025,"current_range_meters":23200,"station_id":"ce4bgup2rcd13ifvqcn0","pricing_plan_id":"cebpf4jnsgd1na2vs0mg"},{"bike_id":"fe31481a-0451-49ec-81da-8efb345e394b","system_id":"levelo_inurba_marseille","lat":43.324771,"lon":5.36557,"is_reserved":false,"is_disabled":false,"rental_uris":{"android":"levelo://app?vid=fe31481a-0451-49ec-81da-8efb345e394b","ios":"levelo://app?vid=fe31481a-0451-49ec-81da-8efb345e394b"},"vehicle_type_id":"4","last_reported":1714576025,"current_range_meters":12000,"station_id":"ce4bhs12rcd13ifvqhvg","pricing_plan_id":"cebpf4jnsgd1na2vs0mg"},{"bike_id":"caadc003-ff39-41d7-a207-143cea53cb36","system_id":"levelo_inurba_marseille","lat":43.32475,"lon":5.36567,"is_reserved":false,"is_disabled":false,"rental_uris":{"android":"levelo://app?vid=caadc003-ff39-41d7-a207-143cea53cb36","ios":"levelo://app?vid=caadc003-ff39-41d7-a207-143cea53cb36"},"vehicle_type_id":"4","last_reported":1714576025,"current_range_meters":26400,"station_id":"ce4bhs12rcd13ifvqhvg","pricing_plan_id":"cebpf4jnsgd1na2vs0mg"},{"bike_id":"e560c9f7-9a68-4c7c-a574-1ae51de44590","system_id":"levelo_inurba_marseille","lat":43.324771,"lon":5.36557,"is_reserved":false,"is_disabled":false,"rental_uris":{"android":"levelo://app?vid=e560c9f7-9a68-4c7c-a574-1ae51de44590","ios":"levelo://app?vid=e560c9f7-9a68-4c7c-a574-1ae51de44590"},"vehicle_type_id":"4","last_reported":1714576025,"current_range_meters":31600,"station_id":"ce4bhs12rcd13ifvqhvg","pricing_plan_id":"cebpf4jnsgd1na2vs0mg"},{"bike_id":"20ee36ab-83ec-4fcb-9465-adbceb8bedfc","system_id":"levelo_inurba_marseille","lat":43.324771,"lon":5.36557,"is_reserved":false,"is_disabled":false,"rental_uris":{"android":"levelo://app?vid=20ee36ab-83ec-4fcb-9465-adbceb8bedfc","ios":"levelo://app?vid=20ee36ab-83ec-4fcb-9465-adbceb8bedfc"},"vehicle_type_id":"4","last_reported":1714576025,"current_range_meters":26400,"station_id":"ce4bhs12rcd13ifvqhvg","pricing_plan_id":"cebpf4jnsgd1na2vs0mg"},{"bike_id":"cb5035c4-9e66-46e5-baea-a68bc4206adf","system_id":"levelo_inurba_marseille","lat":43.32476,"lon":5.36575,"is_reserved":false,"is_disabled":false,"rental_uris":{"android":"levelo://app?vid=cb5035c4-9e66-46e5-baea-a68bc4206adf","ios":"levelo://app?vid=cb5035c4-9e66-46e5-baea-a68bc4206adf"},"vehicle_type_id":"4","last_reported":1714576025,"current_range_meters":16400,"station_id":"ce4bhs12rcd13ifvqhvg","pricing_plan_id":"cebpf4jnsgd1na2vs0mg"},{"bike_id":"7972f9ad-6222-4dea-a6e8-16f9765ca7a4","system_id":"levelo_inurba_marseille","lat":43.304606,"lon":5.379026,"is_reserved":false,"is_disabled":false,"rental_uris":{"android":"levelo://app?vid=7972f9ad-6222-4dea-a6e8-16f9765ca7a4","ios":"levelo://app?vid=7972f9ad-6222-4dea-a6e8-16f9765ca7a4"},"vehicle_type_id":"4","last_reported":1714576025,"current_range_meters":800,"station_id":"ce4bgup2rcd13ifvqcn0","pricing_plan_id":"cebpf4jnsgd1na2vs0mg"},{"bike_id":"ec9ad42d-7bf5-43ef-a2cf-ce73f78031d9","system_id":"levelo_inurba_marseille","lat":43.324771,"lon":5.36557,"is_reserved":false,"is_disabled":false,"rental_uris":{"android":"levelo://app?vid=ec9ad42d-7bf5-43ef-a2cf-ce73f78031d9","ios":"levelo://app?vid=ec9ad42d-7bf5-43ef-a2cf-ce73f78031d9"},"vehicle_type_id":"4","last_reported":1714576025,"current_range_meters":19200,"station_id":"ce4bhs12rcd13ifvqhvg","pricing_plan_id":"cebpf4jnsgd1na2vs0mg"},{"bike_id":"ff14dfe6-78af-413d-a3ea-3b224d7ea33d","system_id":"levelo_inurba_marseille","lat":43.324771,"lon":5.36557,"is_reserved":false,"is_disabled":false,"rental_uris":{"android":"levelo://app?vid=ff14dfe6-78af-413d-a3ea-3b224d7ea33d","ios":"levelo://app?vid=ff14dfe6-78af-413d-a3ea-3b224d7ea33d"},"vehicle_type_id":"4","last_reported":1714576025,"current_range_meters":19600,"station_id":"ce4bhs12rcd13ifvqhvg","pricing_plan_id":"cebpf4jnsgd1na2vs0mg"},{"bike_id":"263ddf92-f97b-4bde-af65-350aba08e4ca","system_id":"levelo_inurba_marseille","lat":43.32478,"lon":5.36563,"is_reserved":false,"is_disabled":false,"rental_uris":{"android":"levelo://app?vid=263ddf92-f97b-4bde-af65-350aba08e4ca","ios":"levelo://app?vid=263ddf92-f97b-4bde-af65-350aba08e4ca"},"vehicle_type_id":"4","last_reported":1714576025,"current_range_meters":31600,"station_id":"ce4bhs12rcd13ifvqhvg","pricing_plan_id":"cebpf4jnsgd1na2vs0mg"},{"bike_id":"06ac2027-09f1-4680-aa1f-6ab726213cb9","system_id":"levelo_inurba_marseille","lat":43.324771,"lon":5.36557,"is_reserved":false,"is_disabled":false,"rental_uris":{"android":"levelo://app?vid=06ac2027-09f1-4680-aa1f-6ab726213cb9","ios":"levelo://app?vid=06ac2027-09f1-4680-aa1f-6ab726213cb9"},"vehicle_type_id":"4","last_reported":1714576025,"current_range_meters":16000,"station_id":"ce4bhs12rcd13ifvqhvg","pricing_plan_id":"cebpf4jnsgd1na2vs0mg"},{"bike_id":"505c9fc0-49c3-4c39-ab88-1ba2555dbf58","system_id":"levelo_inurba_marseille","lat":43.32479,"lon":5.36578,"is_reserved":false,"is_disabled":false,"rental_uris":{"android":"levelo://app?vid=505c9fc0-49c3-4c39-ab88-1ba2555dbf58","ios":"levelo://app?vid=505c9fc0-49c3-4c39-ab88-1ba2555dbf58"},"vehicle_type_id":"4","last_reported":1714576025,"current_range_meters":7200,"station_id":"ce4bhs12rcd13ifvqhvg","pricing_plan_id":"cebpf4jnsgd1na2vs0mg"},{"bike_id":"b21ae7ee-dd87-4fb7-a859-109931d2977d","system_id":"levelo_inurba_marseille","lat":43.32479,"lon":5.36567,"is_reserved":false,"is_disabled":false,"rental_uris":{"android":"levelo://app?vid=b21ae7ee-dd87-4fb7-a859-109931d2977d","ios":"levelo://app?vid=b21ae7ee-dd87-4fb7-a859-109931d2977d"},"vehicle_type_id":"4","last_reported":1714576025,"current_range_meters":14400,"station_id":"ce4bhs12rcd13ifvqhvg","pricing_plan_id":"cebpf4jnsgd1na2vs0mg"},{"bike_id":"071ab0ad-56ca-4fd5-a7ed-e4446453c2bb","system_id":"levelo_inurba_marseille","lat":43.324771,"lon":5.36557,"is_reserved":false,"is_disabled":false,"rental_uris":{"android":"levelo://app?vid=071ab0ad-56ca-4fd5-a7ed-e4446453c2bb","ios":"levelo://app?vid=071ab0ad-56ca-4fd5-a7ed-e4446453c2bb"},"vehicle_type_id":"4","last_reported":1714576025,"current_range_meters":28800,"station_id":"ce4bhs12rcd13ifvqhvg","pricing_plan_id":"cebpf4jnsgd1na2vs0mg"},{"bike_id":"0a4a6ca4-0474-4f68-b089-af26c0c8b25a","system_id":"levelo_inurba_marseille","lat":43.324771,"lon":5.36557,"is_reserved":false,"is_disabled":false,"rental_uris":{"android":"levelo://app?vid=0a4a6ca4-0474-4f68-b089-af26c0c8b25a","ios":"levelo://app?vid=0a4a6ca4-0474-4f68-b089-af26c0c8b25a"},"vehicle_type_id":"4","last_reported":1714576025,"current_range_meters":15600,"station_id":"ce4bhs12rcd13ifvqhvg","pricing_plan_id":"cebpf4jnsgd1na2vs0mg"},{"bike_id":"a220ad8e-30f9-4404-aa2e-6db3aa6afb45","system_id":"levelo_inurba_marseille","lat":43.324771,"lon":5.36557,"is_reserved":false,"is_disabled":false,"rental_uris":{"android":"levelo://app?vid=a220ad8e-30f9-4404-aa2e-6db3aa6afb45","ios":"levelo://app?vid=a220ad8e-30f9-4404-aa2e-6db3aa6afb45"},"vehicle_type_id":"4","last_reported":1714576025,"current_range_meters":31600,"station_id":"ce4bhs12rcd13ifvqhvg","pricing_plan_id":"cebpf4jnsgd1na2vs0mg"},{"bike_id":"18fb7a60-66d6-4c12-ad66-c83a47a61459","system_id":"levelo_inurba_marseille","lat":43.324771,"lon":5.36557,"is_reserved":false,"is_disabled":false,"rental_uris":{"android":"levelo://app?vid=18fb7a60-66d6-4c12-ad66-c83a47a61459","ios":"levelo://app?vid=18fb7a60-66d6-4c12-ad66-c83a47a61459"},"vehicle_type_id":"4","last_reported":1714576025,"current_range_meters":19200,"station_id":"ce4bhs12rcd13ifvqhvg","pricing_plan_id":"cebpf4jnsgd1na2vs0mg"},{"bike_id":"c309f7ba-6ad6-4d3f-a1a7-a3843971cf8b","system_id":"levelo_inurba_marseille","lat":43.324771,"lon":5.36557,"is_reserved":false,"is_disabled":false,"rental_uris":{"android":"levelo://app?vid=c309f7ba-6ad6-4d3f-a1a7-a3843971cf8b","ios":"levelo://app?vid=c309f7ba-6ad6-4d3f-a1a7-a3843971cf8b"},"vehicle_type_id":"4","last_reported":1714576025,"current_range_meters":20000,"station_id":"ce4bhs12rcd13ifvqhvg","pricing_plan_id":"cebpf4jnsgd1na2vs0mg"},{"bike_id":"3233b655-0e42-4745-9352-e7ab6daacfd8","system_id":"levelo_inurba_marseille","lat":43.32482,"lon":5.36564,"is_reserved":false,"is_disabled":false,"rental_uris":{"android":"levelo://app?vid=3233b655-0e42-4745-9352-e7ab6daacfd8","ios":"levelo://app?vid=3233b655-0e42-4745-9352-e7ab6daacfd8"},"vehicle_type_id":"4","last_reported":1714576025,"current_range_meters":27200,"station_id":"ce4bhs12rcd13ifvqhvg","pricing_plan_id":"cebpf4jnsgd1na2vs0mg"},{"bike_id":"ade2f056-3343-43fd-a88d-ccc9da771907","system_id":"levelo_inurba_marseille","lat":43.310804,"lon":5.38359,"is_reserved":false,"is_disabled":false,"rental_uris":{"android":"levelo://app?vid=ade2f056-3343-43fd-a88d-ccc9da771907","ios":"levelo://app?vid=ade2f056-3343-43fd-a88d-ccc9da771907"},"vehicle_type_id":"4","last_reported":1714576025,"current_range_meters":26800,"station_id":"ce4bgv92rcd13ifvqcr0","pricing_plan_id":"cebpf4jnsgd1na2vs0mg"},{"bike_id":"b542f8ad-0de0-40a1-9ef7-53b385381a12","system_id":"levelo_inurba_marseille","lat":43.324771,"lon":5.36557,"is_reserved":false,"is_disabled":false,"rental_uris":{"android":"levelo://app?vid=b542f8ad-0de0-40a1-9ef7-53b385381a12","ios":"levelo://app?vid=b542f8ad-0de0-40a1-9ef7-53b385381a12"},"vehicle_type_id":"4","last_reported":1714576025,"current_range_meters":30000,"station_id":"ce4bhs12rcd13ifvqhvg","pricing_plan_id":"cebpf4jnsgd1na2vs0mg"},{"bike_id":"6b85554c-f195-4dc5-977f-2b7beb5ffe88","system_id":"levelo_inurba_marseille","lat":43.32483,"lon":5.36565,"is_reserved":false,"is_disabled":false,"rental_uris":{"android":"levelo://app?vid=6b85554c-f195-4dc5-977f-2b7beb5ffe88","ios":"levelo://app?vid=6b85554c-f195-4dc5-977f-2b7beb5ffe88"},"vehicle_type_id":"4","last_reported":1714576025,"current_range_meters":20400,"station_id":"ce4bhs12rcd13ifvqhvg","pricing_plan_id":"cebpf4jnsgd1na2vs0mg"},{"bike_id":"51b7c40f-72b8-4c8d-9344-83420c22fcac","system_id":"levelo_inurba_marseille","lat":43.32484,"lon":5.36572,"is_reserved":false,"is_disabled":false,"rental_uris":{"android":"levelo://app?vid=51b7c40f-72b8-4c8d-9344-83420c22fcac","ios":"levelo://app?vid=51b7c40f-72b8-4c8d-9344-83420c22fcac"},"vehicle_type_id":"4","last_reported":1714576025,"current_range_meters":13200,"station_id":"ce4bhs12rcd13ifvqhvg","pricing_plan_id":"cebpf4jnsgd1na2vs0mg"},{"bike_id":"1c9411c0-d42f-4c9c-954b-623621242b42","system_id":"levelo_inurba_marseille","lat":43.324771,"lon":5.36557,"is_reserved":false,"is_disabled":false,"rental_uris":{"android":"levelo://app?vid=1c9411c0-d42f-4c9c-954b-623621242b42","ios":"levelo://app?vid=1c9411c0-d42f-4c9c-954b-623621242b42"},"vehicle_type_id":"4","last_reported":1714576025,"current_range_meters":9200,"station_id":"ce4bhs12rcd13ifvqhvg","pricing_plan_id":"cebpf4jnsgd1na2vs0mg"},{"bike_id":"775b5193-55cb-42f1-b0fa-acd6f40ef433","system_id":"levelo_inurba_marseille","lat":43.324771,"lon":5.36557,"is_reserved":false,"is_disabled":false,"rental_uris":{"android":"levelo://app?vid=775b5193-55cb-42f1-b0fa-acd6f40ef433","ios":"levelo://app?vid=775b5193-55cb-42f1-b0fa-acd6f40ef433"},"vehicle_type_id":"4","last_reported":1714576025,"current_range_meters":25600,"station_id":"ce4bhs12rcd13ifvqhvg","pricing_plan_id":"cebpf4jnsgd1na2vs0mg"},{"bike_id":"fca0512a-e514-43b3-a37e-665741369b77","system_id":"levelo_inurba_marseille","lat":43.324771,"lon":5.36557,"is_reserved":false,"is_disabled":false,"rental_uris":{"android":"levelo://app?vid=fca0512a-e514-43b3-a37e-665741369b77","ios":"levelo://app?vid=fca0512a-e514-43b3-a37e-665741369b77"},"vehicle_type_id":"4","last_reported":1714576025,"current_range_meters":14000,"station_id":"ce4bhs12rcd13ifvqhvg","pricing_plan_id":"cebpf4jnsgd1na2vs0mg"},{"bike_id":"af6857de-a57d-4252-8875-b8f4dd1d899c","system_id":"levelo_inurba_marseille","lat":43.324771,"lon":5.36557,"is_reserved":false,"is_disabled":false,"rental_uris":{"android":"levelo://app?vid=af6857de-a57d-4252-8875-b8f4dd1d899c","ios":"levelo://app?vid=af6857de-a57d-4252-8875-b8f4dd1d899c"},"vehicle_type_id":"4","last_reported":1714576025,"current_range_meters":22400,"station_id":"ce4bhs12rcd13ifvqhvg","pricing_plan_id":"cebpf4jnsgd1na2vs0mg"},{"bike_id":"c30ca96a-f2b4-417b-a177-35191cbb8887","system_id":"levelo_inurba_marseille","lat":43.304606,"lon":5.379026,"is_reserved":false,"is_disabled":false,"rental_uris":{"android":"levelo://app?vid=c30ca96a-f2b4-417b-a177-35191cbb8887","ios":"levelo://app?vid=c30ca96a-f2b4-417b-a177-35191cbb8887"},"vehicle_type_id":"4","last_reported":1714576025,"current_range_meters":0,"station_id":"ce4bgup2rcd13ifvqcn0","pricing_plan_id":"cebpf4jnsgd1na2vs0mg"},{"bike_id":"3c49a36e-e46e-44f5-b526-abcbeabd32d2","system_id":"levelo_inurba_marseille","lat":43.304606,"lon":5.379026,"is_reserved":false,"is_disabled":false,"rental_uris":{"android":"levelo://app?vid=3c49a36e-e46e-44f5-b526-abcbeabd32d2","ios":"levelo://app?vid=3c49a36e-e46e-44f5-b526-abcbeabd32d2"},"vehicle_type_id":"4","last_reported":1714576025,"current_range_meters":16400,"station_id":"ce4bgup2rcd13ifvqcn0","pricing_plan_id":"cebpf4jnsgd1na2vs0mg"},{"bike_id":"321f9d28-ee7f-4afa-a28c-be53e03f8d73","system_id":"levelo_inurba_marseille","lat":43.310804,"lon":5.38359,"is_reserved":false,"is_disabled":false,"rental_uris":{"android":"levelo://app?vid=321f9d28-ee7f-4afa-a28c-be53e03f8d73","ios":"levelo://app?vid=321f9d28-ee7f-4afa-a28c-be53e03f8d73"},"vehicle_type_id":"4","last_reported":1714576025,"current_range_meters":0,"station_id":"ce4bgv92rcd13ifvqcr0","pricing_plan_id":"cebpf4jnsgd1na2vs0mg"},{"bike_id":"cc5dd7be-9922-4f00-96a1-524a1188d5de","system_id":"levelo_inurba_marseille","lat":43.310804,"lon":5.38359,"is_reserved":false,"is_disabled":false,"rental_uris":{"android":"levelo://app?vid=cc5dd7be-9922-4f00-96a1-524a1188d5de","ios":"levelo://app?vid=cc5dd7be-9922-4f00-96a1-524a1188d5de"},"vehicle_type_id":"4","last_reported":1714576025,"current_range_meters":26000,"station_id":"ce4bgv92rcd13ifvqcr0","pricing_plan_id":"cebpf4jnsgd1na2vs0mg"},{"bike_id":"b91bd2c1-eb0a-413a-8499-d3ea9e3fec8a","system_id":"levelo_inurba_marseille","lat":43.304606,"lon":5.379026,"is_reserved":false,"is_disabled":false,"rental_uris":{"android":"levelo://app?vid=b91bd2c1-eb0a-413a-8499-d3ea9e3fec8a","ios":"levelo://app?vid=b91bd2c1-eb0a-413a-8499-d3ea9e3fec8a"},"vehicle_type_id":"4","last_reported":1714576025,"current_range_meters":4800,"station_id":"ce4bgup2rcd13ifvqcn0","pricing_plan_id":"cebpf4jnsgd1na2vs0mg"},{"bike_id":"f008f77f-4fa9-4fb9-b447-a83c703f3529","system_id":"levelo_inurba_marseille","lat":43.310701,"lon":5.383488,"is_reserved":false,"is_disabled":false,"rental_uris":{"android":"levelo://app?vid=f008f77f-4fa9-4fb9-b447-a83c703f3529","ios":"levelo://app?vid=f008f77f-4fa9-4fb9-b447-a83c703f3529"},"vehicle_type_id":"4","last_reported":1714576025,"current_range_meters":28800,"station_id":"ce4bgv92rcd13ifvqcr0","pricing_plan_id":"cebpf4jnsgd1na2vs0mg"},{"bike_id":"48323be1-02f1-4cd4-9ee7-7edf72b69185","system_id":"levelo_inurba_marseille","lat":43.302784,"lon":5.377158,"is_reserved":false,"is_disabled":false,"rental_uris":{"android":"levelo://app?vid=48323be1-02f1-4cd4-9ee7-7edf72b69185","ios":"levelo://app?vid=48323be1-02f1-4cd4-9ee7-7edf72b69185"},"vehicle_type_id":"4","last_reported":1714576025,"current_range_meters":6000,"station_id":"ce4bguh2rcd13ifvqcj0","pricing_plan_id":"cebpf4jnsgd1na2vs0mg"},{"bike_id":"e8691a44-38b2-4172-8ccd-17af301de311","system_id":"levelo_inurba_marseille","lat":43.308012,"lon":5.381511,"is_reserved":false,"is_disabled":false,"rental_uris":{"android":"levelo://app?vid=e8691a44-38b2-4172-8ccd-17af301de311","ios":"levelo://app?vid=e8691a44-38b2-4172-8ccd-17af301de311"},"vehicle_type_id":"4","last_reported":1714576025,"current_range_meters":0,"station_id":"ce4bgt12rcd13ifvqce0","pricing_plan_id":"cebpf4jnsgd1na2vs0mg"},{"bike_id":"e06a2a97-8bbf-4da9-b1f4-9a6043c78a4d","system_id":"levelo_inurba_marseille","lat":43.310804,"lon":5.38359,"is_reserved":false,"is_disabled":false,"rental_uris":{"android":"levelo://app?vid=e06a2a97-8bbf-4da9-b1f4-9a6043c78a4d","ios":"levelo://app?vid=e06a2a97-8bbf-4da9-b1f4-9a6043c78a4d"},"vehicle_type_id":"4","last_reported":1714576025,"current_range_meters":12800,"station_id":"ce4bgv92rcd13ifvqcr0","pricing_plan_id":"cebpf4jnsgd1na2vs0mg"},{"bike_id":"314ff1cc-f494-4905-bb66-fca0d47b8dab","system_id":"levelo_inurba_marseille","lat":43.302784,"lon":5.377158,"is_reserved":false,"is_disabled":false,"rental_uris":{"android":"levelo://app?vid=314ff1cc-f494-4905-bb66-fca0d47b8dab","ios":"levelo://app?vid=314ff1cc-f494-4905-bb66-fca0d47b8dab"},"vehicle_type_id":"4","last_reported":1714576025,"current_range_meters":16000,"station_id":"ce4bguh2rcd13ifvqcj0","pricing_plan_id":"cebpf4jnsgd1na2vs0mg"},{"bike_id":"5c2f9c78-c6e3-47e0-8bff-b3402d81a482","system_id":"levelo_inurba_marseille","lat":43.30277,"lon":5.37691,"is_reserved":false,"is_disabled":false,"rental_uris":{"android":"levelo://app?vid=5c2f9c78-c6e3-47e0-8bff-b3402d81a482","ios":"levelo://app?vid=5c2f9c78-c6e3-47e0-8bff-b3402d81a482"},"vehicle_type_id":"4","last_reported":1714576025,"current_range_meters":2000,"station_id":"ce4bguh2rcd13ifvqcj0","pricing_plan_id":"cebpf4jnsgd1na2vs0mg"},{"bike_id":"447531e9-9cd8-4669-b673-73e39845c733","system_id":"levelo_inurba_marseille","lat":43.30272,"lon":5.37695,"is_reserved":false,"is_disabled":false,"rental_uris":{"android":"levelo://app?vid=447531e9-9cd8-4669-b673-73e39845c733","ios":"levelo://app?vid=447531e9-9cd8-4669-b673-73e39845c733"},"vehicle_type_id":"4","last_reported":1714576025,"current_range_meters":13600,"station_id":"ce4bguh2rcd13ifvqcj0","pricing_plan_id":"cebpf4jnsgd1na2vs0mg"},{"bike_id":"ea75d43c-e8e4-45b2-97aa-306dcc09c60b","system_id":"levelo_inurba_marseille","lat":43.301429,"lon":5.37413,"is_reserved":false,"is_disabled":false,"rental_uris":{"android":"levelo://app?vid=ea75d43c-e8e4-45b2-97aa-306dcc09c60b","ios":"levelo://app?vid=ea75d43c-e8e4-45b2-97aa-306dcc09c60b"},"vehicle_type_id":"4","last_reported":1714576025,"current_range_meters":9200,"station_id":"ce4bgs92rcd13ifvqcc0","pricing_plan_id":"cebpf4jnsgd1na2vs0mg"},{"bike_id":"c372662d-9e1e-42a1-b013-ad6e421f837c","system_id":"levelo_inurba_marseille","lat":43.302784,"lon":5.377158,"is_reserved":false,"is_disabled":false,"rental_uris":{"android":"levelo://app?vid=c372662d-9e1e-42a1-b013-ad6e421f837c","ios":"levelo://app?vid=c372662d-9e1e-42a1-b013-ad6e421f837c"},"vehicle_type_id":"4","last_reported":1714576025,"current_range_meters":22400,"station_id":"ce4bguh2rcd13ifvqcj0","pricing_plan_id":"cebpf4jnsgd1na2vs0mg"},{"bike_id":"fd1d05c7-ea28-439c-ad92-cf19d3db2909","system_id":"levelo_inurba_marseille","lat":43.30143,"lon":5.37413,"is_reserved":false,"is_disabled":false,"rental_uris":{"android":"levelo://app?vid=fd1d05c7-ea28-439c-ad92-cf19d3db2909","ios":"levelo://app?vid=fd1d05c7-ea28-439c-ad92-cf19d3db2909"},"vehicle_type_id":"4","last_reported":1714576025,"current_range_meters":20000,"station_id":"ce4bgs92rcd13ifvqcc0","pricing_plan_id":"cebpf4jnsgd1na2vs0mg"},{"bike_id":"b7f604e8-ba30-4917-b166-7635815a8675","system_id":"levelo_inurba_marseille","lat":43.304606,"lon":5.379026,"is_reserved":false,"is_disabled":false,"rental_uris":{"android":"levelo://app?vid=b7f604e8-ba30-4917-b166-7635815a8675","ios":"levelo://app?vid=b7f604e8-ba30-4917-b166-7635815a8675"},"vehicle_type_id":"4","last_reported":1714576025,"current_range_meters":0,"station_id":"ce4bgup2rcd13ifvqcn0","pricing_plan_id":"cebpf4jnsgd1na2vs0mg"},{"bike_id":"a1c6dcb1-6229-46cd-b037-a7f81557d817","system_id":"levelo_inurba_marseille","lat":43.302784,"lon":5.377158,"is_reserved":false,"is_disabled":false,"rental_uris":{"android":"levelo://app?vid=a1c6dcb1-6229-46cd-b037-a7f81557d817","ios":"levelo://app?vid=a1c6dcb1-6229-46cd-b037-a7f81557d817"},"vehicle_type_id":"4","last_reported":1714576025,"current_range_meters":26800,"station_id":"ce4bguh2rcd13ifvqcj0","pricing_plan_id":"cebpf4jnsgd1na2vs0mg"},{"bike_id":"68c7f58b-7415-460d-9d62-b52ed8916f2a","system_id":"levelo_inurba_marseille","lat":43.30143,"lon":5.37413,"is_reserved":false,"is_disabled":false,"rental_uris":{"android":"levelo://app?vid=68c7f58b-7415-460d-9d62-b52ed8916f2a","ios":"levelo://app?vid=68c7f58b-7415-460d-9d62-b52ed8916f2a"},"vehicle_type_id":"4","last_reported":1714576025,"current_range_meters":16400,"station_id":"ce4bgs92rcd13ifvqcc0","pricing_plan_id":"cebpf4jnsgd1na2vs0mg"},{"bike_id":"42d549f8-6af7-486c-b3b5-c2414c94d67a","system_id":"levelo_inurba_marseille","lat":43.30145,"lon":5.374217,"is_reserved":false,"is_disabled":false,"rental_uris":{"android":"levelo://app?vid=42d549f8-6af7-486c-b3b5-c2414c94d67a","ios":"levelo://app?vid=42d549f8-6af7-486c-b3b5-c2414c94d67a"},"vehicle_type_id":"4","last_reported":1714576025,"current_range_meters":2400,"station_id":"ce4bgs92rcd13ifvqcc0","pricing_plan_id":"cebpf4jnsgd1na2vs0mg"},{"bike_id":"4f12562f-35ec-4897-b7f7-8743b55bc651","system_id":"levelo_inurba_marseille","lat":43.302685,"lon":5.377094,"is_reserved":false,"is_disabled":false,"rental_uris":{"android":"levelo://app?vid=4f12562f-35ec-4897-b7f7-8743b55bc651","ios":"levelo://app?vid=4f12562f-35ec-4897-b7f7-8743b55bc651"},"vehicle_type_id":"4","last_reported":1714576025,"current_range_meters":24000,"station_id":"ce4bguh2rcd13ifvqcj0","pricing_plan_id":"cebpf4jnsgd1na2vs0mg"},{"bike_id":"d8311480-bf9a-4225-b9cf-8fd7f2e19c06","system_id":"levelo_inurba_marseille","lat":43.302784,"lon":5.377158,"is_reserved":false,"is_disabled":false,"rental_uris":{"android":"levelo://app?vid=d8311480-bf9a-4225-b9cf-8fd7f2e19c06","ios":"levelo://app?vid=d8311480-bf9a-4225-b9cf-8fd7f2e19c06"},"vehicle_type_id":"4","last_reported":1714576025,"current_range_meters":6000,"station_id":"ce4bguh2rcd13ifvqcj0","pricing_plan_id":"cebpf4jnsgd1na2vs0mg"},{"bike_id":"cc7eecfa-9f3e-4b91-bd98-471aa3e812f4","system_id":"levelo_inurba_marseille","lat":43.301429,"lon":5.37413,"is_reserved":false,"is_disabled":false,"rental_uris":{"android":"levelo://app?vid=cc7eecfa-9f3e-4b91-bd98-471aa3e812f4","ios":"levelo://app?vid=cc7eecfa-9f3e-4b91-bd98-471aa3e812f4"},"vehicle_type_id":"4","last_reported":1714576025,"current_range_meters":27200,"station_id":"ce4bgs92rcd13ifvqcc0","pricing_plan_id":"cebpf4jnsgd1na2vs0mg"},{"bike_id":"e7862a33-c641-4b73-b9f4-79c26ceb9ae3","system_id":"levelo_inurba_marseille","lat":43.301429,"lon":5.37413,"is_reserved":false,"is_disabled":false,"rental_uris":{"android":"levelo://app?vid=e7862a33-c641-4b73-b9f4-79c26ceb9ae3","ios":"levelo://app?vid=e7862a33-c641-4b73-b9f4-79c26ceb9ae3"},"vehicle_type_id":"4","last_reported":1714576025,"current_range_meters":3600,"station_id":"ce4bgs92rcd13ifvqcc0","pricing_plan_id":"cebpf4jnsgd1na2vs0mg"},{"bike_id":"5b05b681-df72-40f4-9098-f00424acfd96","system_id":"levelo_inurba_marseille","lat":43.30539,"lon":5.38118,"is_reserved":false,"is_disabled":false,"rental_uris":{"android":"levelo://app?vid=5b05b681-df72-40f4-9098-f00424acfd96","ios":"levelo://app?vid=5b05b681-df72-40f4-9098-f00424acfd96"},"vehicle_type_id":"4","last_reported":1714576025,"current_range_meters":22400,"station_id":"","pricing_plan_id":"cebpf4jnsgd1na2vs0mg"},{"bike_id":"fe0815d3-117d-4a7a-95d8-005c2066c030","system_id":"levelo_inurba_marseille","lat":43.302805,"lon":5.377855,"is_reserved":false,"is_disabled":false,"rental_uris":{"android":"levelo://app?vid=fe0815d3-117d-4a7a-95d8-005c2066c030","ios":"levelo://app?vid=fe0815d3-117d-4a7a-95d8-005c2066c030"},"vehicle_type_id":"4","last_reported":1714576025,"current_range_meters":2000,"station_id":"ce4bguh2rcd13ifvqcj0","pricing_plan_id":"cebpf4jnsgd1na2vs0mg"},{"bike_id":"b3400650-0334-4551-92b0-231f6450255b","system_id":"levelo_inurba_marseille","lat":43.319924,"lon":5.38149,"is_reserved":false,"is_disabled":false,"rental_uris":{"android":"levelo://app?vid=b3400650-0334-4551-92b0-231f6450255b","ios":"levelo://app?vid=b3400650-0334-4551-92b0-231f6450255b"},"vehicle_type_id":"4","last_reported":1714576025,"current_range_meters":10000,"station_id":"ce4bhr12rcd13ifvqhpg","pricing_plan_id":"cebpf4jnsgd1na2vs0mg"},{"bike_id":"952baf88-6145-4f3f-b32f-66ddd2b06b56","system_id":"levelo_inurba_marseille","lat":43.319975,"lon":5.381515,"is_reserved":false,"is_disabled":false,"rental_uris":{"android":"levelo://app?vid=952baf88-6145-4f3f-b32f-66ddd2b06b56","ios":"levelo://app?vid=952baf88-6145-4f3f-b32f-66ddd2b06b56"},"vehicle_type_id":"4","last_reported":1714576025,"current_range_meters":2800,"station_id":"ce4bhr12rcd13ifvqhpg","pricing_plan_id":"cebpf4jnsgd1na2vs0mg"},{"bike_id":"4b678404-bcb7-469e-8217-1687e76be9e0","system_id":"levelo_inurba_marseille","lat":43.31992,"lon":5.38158,"is_reserved":false,"is_disabled":false,"rental_uris":{"android":"levelo://app?vid=4b678404-bcb7-469e-8217-1687e76be9e0","ios":"levelo://app?vid=4b678404-bcb7-469e-8217-1687e76be9e0"},"vehicle_type_id":"4","last_reported":1714576025,"current_range_meters":20000,"station_id":"ce4bhr12rcd13ifvqhpg","pricing_plan_id":"cebpf4jnsgd1na2vs0mg"},{"bike_id":"4eabf273-d6ab-4f69-aa17-5ce3078e9cfa","system_id":"levelo_inurba_marseille","lat":43.319988,"lon":5.381574,"is_reserved":false,"is_disabled":false,"rental_uris":{"android":"levelo://app?vid=4eabf273-d6ab-4f69-aa17-5ce3078e9cfa","ios":"levelo://app?vid=4eabf273-d6ab-4f69-aa17-5ce3078e9cfa"},"vehicle_type_id":"4","last_reported":1714576025,"current_range_meters":8800,"station_id":"ce4bhr12rcd13ifvqhpg","pricing_plan_id":"cebpf4jnsgd1na2vs0mg"},{"bike_id":"a3f31677-b31c-4cfe-ae20-47db3f1d22cf","system_id":"levelo_inurba_marseille","lat":43.313571,"lon":5.384829,"is_reserved":false,"is_disabled":false,"rental_uris":{"android":"levelo://app?vid=a3f31677-b31c-4cfe-ae20-47db3f1d22cf","ios":"levelo://app?vid=a3f31677-b31c-4cfe-ae20-47db3f1d22cf"},"vehicle_type_id":"4","last_reported":1714576025,"current_range_meters":22800,"station_id":"ce4bgt92rcd13ifvqcf0","pricing_plan_id":"cebpf4jnsgd1na2vs0mg"},{"bike_id":"91c689ce-af11-4582-8bee-b5a844e2d27d","system_id":"levelo_inurba_marseille","lat":43.303002,"lon":5.379314,"is_reserved":false,"is_disabled":false,"rental_uris":{"android":"levelo://app?vid=91c689ce-af11-4582-8bee-b5a844e2d27d","ios":"levelo://app?vid=91c689ce-af11-4582-8bee-b5a844e2d27d"},"vehicle_type_id":"4","last_reported":1714576025,"current_range_meters":19200,"station_id":"ce4bguh2rcd13ifvqcj0","pricing_plan_id":"cebpf4jnsgd1na2vs0mg"},{"bike_id":"9cfc4523-4177-491c-9aed-fddc9de48bdb","system_id":"levelo_inurba_marseille","lat":43.299222,"lon":5.365554,"is_reserved":false,"is_disabled":false,"rental_uris":{"android":"levelo://app?vid=9cfc4523-4177-491c-9aed-fddc9de48bdb","ios":"levelo://app?vid=9cfc4523-4177-491c-9aed-fddc9de48bdb"},"vehicle_type_id":"4","last_reported":1714576025,"current_range_meters":4000,"station_id":"ce4bgm92rcd13ifvqbr0","pricing_plan_id":"cebpf4jnsgd1na2vs0mg"},{"bike_id":"d249c824-2e90-4368-ab45-378b3f8c739a","system_id":"levelo_inurba_marseille","lat":43.299724,"lon":5.371829,"is_reserved":false,"is_disabled":false,"rental_uris":{"android":"levelo://app?vid=d249c824-2e90-4368-ab45-378b3f8c739a","ios":"levelo://app?vid=d249c824-2e90-4368-ab45-378b3f8c739a"},"vehicle_type_id":"4","last_reported":1714576025,"current_range_meters":28400,"station_id":"ce4bgr92rcd13ifvqc7g","pricing_plan_id":"cebpf4jnsgd1na2vs0mg"},{"bike_id":"478dc6e8-591b-4953-a76f-f47af868094d","system_id":"levelo_inurba_marseille","lat":43.299724,"lon":5.371829,"is_reserved":false,"is_disabled":false,"rental_uris":{"android":"levelo://app?vid=478dc6e8-591b-4953-a76f-f47af868094d","ios":"levelo://app?vid=478dc6e8-591b-4953-a76f-f47af868094d"},"vehicle_type_id":"4","last_reported":1714576025,"current_range_meters":22400,"station_id":"ce4bgr92rcd13ifvqc7g","pricing_plan_id":"cebpf4jnsgd1na2vs0mg"},{"bike_id":"8c50d329-ac01-4497-b013-0aece01e5237","system_id":"levelo_inurba_marseille","lat":43.299724,"lon":5.371829,"is_reserved":false,"is_disabled":false,"rental_uris":{"android":"levelo://app?vid=8c50d329-ac01-4497-b013-0aece01e5237","ios":"levelo://app?vid=8c50d329-ac01-4497-b013-0aece01e5237"},"vehicle_type_id":"4","last_reported":1714576025,"current_range_meters":27600,"station_id":"ce4bgr92rcd13ifvqc7g","pricing_plan_id":"cebpf4jnsgd1na2vs0mg"},{"bike_id":"79ac5d6d-c6e9-4072-85d7-c763e933f9bb","system_id":"levelo_inurba_marseille","lat":43.299724,"lon":5.371829,"is_reserved":false,"is_disabled":false,"rental_uris":{"android":"levelo://app?vid=79ac5d6d-c6e9-4072-85d7-c763e933f9bb","ios":"levelo://app?vid=79ac5d6d-c6e9-4072-85d7-c763e933f9bb"},"vehicle_type_id":"4","last_reported":1714576025,"current_range_meters":30400,"station_id":"ce4bgr92rcd13ifvqc7g","pricing_plan_id":"cebpf4jnsgd1na2vs0mg"},{"bike_id":"4fb351be-c47c-4b4c-82b3-261f749882b3","system_id":"levelo_inurba_marseille","lat":43.299724,"lon":5.371829,"is_reserved":false,"is_disabled":false,"rental_uris":{"android":"levelo://app?vid=4fb351be-c47c-4b4c-82b3-261f749882b3","ios":"levelo://app?vid=4fb351be-c47c-4b4c-82b3-261f749882b3"},"vehicle_type_id":"4","last_reported":1714576025,"current_range_meters":21200,"station_id":"ce4bgr92rcd13ifvqc7g","pricing_plan_id":"cebpf4jnsgd1na2vs0mg"},{"bike_id":"6dcbdb77-bba5-4bed-bb96-e24596a49f61","system_id":"levelo_inurba_marseille","lat":43.299494,"lon":5.371733,"is_reserved":false,"is_disabled":false,"rental_uris":{"android":"levelo://app?vid=6dcbdb77-bba5-4bed-bb96-e24596a49f61","ios":"levelo://app?vid=6dcbdb77-bba5-4bed-bb96-e24596a49f61"},"vehicle_type_id":"4","last_reported":1714576025,"current_range_meters":30000,"station_id":"ce4bgr92rcd13ifvqc7g","pricing_plan_id":"cebpf4jnsgd1na2vs0mg"},{"bike_id":"5148eaf7-93aa-4fbf-bcf9-d889b8726733","system_id":"levelo_inurba_marseille","lat":43.311722,"lon":5.387247,"is_reserved":false,"is_disabled":false,"rental_uris":{"android":"levelo://app?vid=5148eaf7-93aa-4fbf-bcf9-d889b8726733","ios":"levelo://app?vid=5148eaf7-93aa-4fbf-bcf9-d889b8726733"},"vehicle_type_id":"4","last_reported":1714576025,"current_range_meters":0,"station_id":"ce4bgv12rcd13ifvqcp0","pricing_plan_id":"cebpf4jnsgd1na2vs0mg"},{"bike_id":"c7d10390-51d0-4631-b3eb-139cf4f879c5","system_id":"levelo_inurba_marseille","lat":43.284462,"lon":5.392121,"is_reserved":false,"is_disabled":false,"rental_uris":{"android":"levelo://app?vid=c7d10390-51d0-4631-b3eb-139cf4f879c5","ios":"levelo://app?vid=c7d10390-51d0-4631-b3eb-139cf4f879c5"},"vehicle_type_id":"4","last_reported":1714576025,"current_range_meters":6800,"station_id":"ce4bhoh2rcd13ifvqh5g","pricing_plan_id":"cebpf4jnsgd1na2vs0mg"},{"bike_id":"6edb7bb5-6df4-4ee4-95b3-5ba1918086f9","system_id":"levelo_inurba_marseille","lat":43.298433,"lon":5.362774,"is_reserved":false,"is_disabled":false,"rental_uris":{"android":"levelo://app?vid=6edb7bb5-6df4-4ee4-95b3-5ba1918086f9","ios":"levelo://app?vid=6edb7bb5-6df4-4ee4-95b3-5ba1918086f9"},"vehicle_type_id":"4","last_reported":1714576025,"current_range_meters":31200,"station_id":"ce4bgpp2rcd13ifvqc3g","pricing_plan_id":"cebpf4jnsgd1na2vs0mg"},{"bike_id":"6e125a9a-67da-4d2a-a483-2937ecdd964d","system_id":"levelo_inurba_marseille","lat":43.29853,"lon":5.36287,"is_reserved":false,"is_disabled":false,"rental_uris":{"android":"levelo://app?vid=6e125a9a-67da-4d2a-a483-2937ecdd964d","ios":"levelo://app?vid=6e125a9a-67da-4d2a-a483-2937ecdd964d"},"vehicle_type_id":"4","last_reported":1714576025,"current_range_meters":31200,"station_id":"ce4bgpp2rcd13ifvqc3g","pricing_plan_id":"cebpf4jnsgd1na2vs0mg"},{"bike_id":"b1a4e005-1e19-430f-af6b-529b037c9d05","system_id":"levelo_inurba_marseille","lat":43.298527,"lon":5.362864,"is_reserved":false,"is_disabled":false,"rental_uris":{"android":"levelo://app?vid=b1a4e005-1e19-430f-af6b-529b037c9d05","ios":"levelo://app?vid=b1a4e005-1e19-430f-af6b-529b037c9d05"},"vehicle_type_id":"4","last_reported":1714576025,"current_range_meters":10800,"station_id":"ce4bgpp2rcd13ifvqc3g","pricing_plan_id":"cebpf4jnsgd1na2vs0mg"},{"bike_id":"63dc557f-339e-43c6-910c-d865466228f1","system_id":"levelo_inurba_marseille","lat":43.30546,"lon":5.38419,"is_reserved":false,"is_disabled":false,"rental_uris":{"android":"levelo://app?vid=63dc557f-339e-43c6-910c-d865466228f1","ios":"levelo://app?vid=63dc557f-339e-43c6-910c-d865466228f1"},"vehicle_type_id":"4","last_reported":1714576025,"current_range_meters":5200,"station_id":"ce4bgg92rcd13ifvqb30","pricing_plan_id":"cebpf4jnsgd1na2vs0mg"},{"bike_id":"fe39230c-39f5-422e-b478-dadb82267fc4","system_id":"levelo_inurba_marseille","lat":43.29853,"lon":5.36281,"is_reserved":false,"is_disabled":false,"rental_uris":{"android":"levelo://app?vid=fe39230c-39f5-422e-b478-dadb82267fc4","ios":"levelo://app?vid=fe39230c-39f5-422e-b478-dadb82267fc4"},"vehicle_type_id":"4","last_reported":1714576025,"current_range_meters":7200,"station_id":"ce4bgpp2rcd13ifvqc3g","pricing_plan_id":"cebpf4jnsgd1na2vs0mg"},{"bike_id":"e8541831-866d-4e02-aa69-dd14a4debf51","system_id":"levelo_inurba_marseille","lat":43.29851,"lon":5.3629,"is_reserved":false,"is_disabled":false,"rental_uris":{"android":"levelo://app?vid=e8541831-866d-4e02-aa69-dd14a4debf51","ios":"levelo://app?vid=e8541831-866d-4e02-aa69-dd14a4debf51"},"vehicle_type_id":"4","last_reported":1714576025,"current_range_meters":28000,"station_id":"ce4bgpp2rcd13ifvqc3g","pricing_plan_id":"cebpf4jnsgd1na2vs0mg"},{"bike_id":"fee65362-64dc-4047-a50f-d6fe3d358077","system_id":"levelo_inurba_marseille","lat":43.29851,"lon":5.36289,"is_reserved":false,"is_disabled":false,"rental_uris":{"android":"levelo://app?vid=fee65362-64dc-4047-a50f-d6fe3d358077","ios":"levelo://app?vid=fee65362-64dc-4047-a50f-d6fe3d358077"},"vehicle_type_id":"4","last_reported":1714576025,"current_range_meters":22800,"station_id":"ce4bgpp2rcd13ifvqc3g","pricing_plan_id":"cebpf4jnsgd1na2vs0mg"},{"bike_id":"0a5799c2-b7d2-4633-b57b-22128976bfa3","system_id":"levelo_inurba_marseille","lat":43.29852,"lon":5.36279,"is_reserved":false,"is_disabled":false,"rental_uris":{"android":"levelo://app?vid=0a5799c2-b7d2-4633-b57b-22128976bfa3","ios":"levelo://app?vid=0a5799c2-b7d2-4633-b57b-22128976bfa3"},"vehicle_type_id":"4","last_reported":1714576025,"current_range_meters":17200,"station_id":"ce4bgpp2rcd13ifvqc3g","pricing_plan_id":"cebpf4jnsgd1na2vs0mg"},{"bike_id":"17dc2ba4-a297-4c9f-aabe-9cf081ea9f45","system_id":"levelo_inurba_marseille","lat":43.298514,"lon":5.362798,"is_reserved":false,"is_disabled":false,"rental_uris":{"android":"levelo://app?vid=17dc2ba4-a297-4c9f-aabe-9cf081ea9f45","ios":"levelo://app?vid=17dc2ba4-a297-4c9f-aabe-9cf081ea9f45"},"vehicle_type_id":"4","last_reported":1714576025,"current_range_meters":22400,"station_id":"ce4bgpp2rcd13ifvqc3g","pricing_plan_id":"cebpf4jnsgd1na2vs0mg"},{"bike_id":"08ca568d-a82c-4079-baa4-82153591fac8","system_id":"levelo_inurba_marseille","lat":43.29847,"lon":5.36284,"is_reserved":false,"is_disabled":false,"rental_uris":{"android":"levelo://app?vid=08ca568d-a82c-4079-baa4-82153591fac8","ios":"levelo://app?vid=08ca568d-a82c-4079-baa4-82153591fac8"},"vehicle_type_id":"4","last_reported":1714576025,"current_range_meters":27600,"station_id":"ce4bgpp2rcd13ifvqc3g","pricing_plan_id":"cebpf4jnsgd1na2vs0mg"},{"bike_id":"3cc53f19-5e7d-462b-bb17-856d2431ec1a","system_id":"levelo_inurba_marseille","lat":43.29849,"lon":5.36271,"is_reserved":false,"is_disabled":false,"rental_uris":{"android":"levelo://app?vid=3cc53f19-5e7d-462b-bb17-856d2431ec1a","ios":"levelo://app?vid=3cc53f19-5e7d-462b-bb17-856d2431ec1a"},"vehicle_type_id":"4","last_reported":1714576025,"current_range_meters":26800,"station_id":"ce4bgpp2rcd13ifvqc3g","pricing_plan_id":"cebpf4jnsgd1na2vs0mg"},{"bike_id":"c8534744-11d4-46b1-93db-2fd388ed5a59","system_id":"levelo_inurba_marseille","lat":43.29848,"lon":5.36265,"is_reserved":false,"is_disabled":false,"rental_uris":{"android":"levelo://app?vid=c8534744-11d4-46b1-93db-2fd388ed5a59","ios":"levelo://app?vid=c8534744-11d4-46b1-93db-2fd388ed5a59"},"vehicle_type_id":"4","last_reported":1714576025,"current_range_meters":22400,"station_id":"ce4bgpp2rcd13ifvqc3g","pricing_plan_id":"cebpf4jnsgd1na2vs0mg"},{"bike_id":"763ddc54-a2a0-4c47-8ce7-bdb37edd8b53","system_id":"levelo_inurba_marseille","lat":43.29845,"lon":5.36282,"is_reserved":false,"is_disabled":false,"rental_uris":{"android":"levelo://app?vid=763ddc54-a2a0-4c47-8ce7-bdb37edd8b53","ios":"levelo://app?vid=763ddc54-a2a0-4c47-8ce7-bdb37edd8b53"},"vehicle_type_id":"4","last_reported":1714576025,"current_range_meters":20000,"station_id":"ce4bgpp2rcd13ifvqc3g","pricing_plan_id":"cebpf4jnsgd1na2vs0mg"},{"bike_id":"a7f64e09-9f11-488b-bfaf-738c97dd5098","system_id":"levelo_inurba_marseille","lat":43.298433,"lon":5.362774,"is_reserved":false,"is_disabled":false,"rental_uris":{"android":"levelo://app?vid=a7f64e09-9f11-488b-bfaf-738c97dd5098","ios":"levelo://app?vid=a7f64e09-9f11-488b-bfaf-738c97dd5098"},"vehicle_type_id":"4","last_reported":1714576025,"current_range_meters":31200,"station_id":"ce4bgpp2rcd13ifvqc3g","pricing_plan_id":"cebpf4jnsgd1na2vs0mg"},{"bike_id":"b60a3b3e-a273-4169-b8b5-b54fb1674386","system_id":"levelo_inurba_marseille","lat":43.29844,"lon":5.36281,"is_reserved":false,"is_disabled":false,"rental_uris":{"android":"levelo://app?vid=b60a3b3e-a273-4169-b8b5-b54fb1674386","ios":"levelo://app?vid=b60a3b3e-a273-4169-b8b5-b54fb1674386"},"vehicle_type_id":"4","last_reported":1714576025,"current_range_meters":26400,"station_id":"ce4bgpp2rcd13ifvqc3g","pricing_plan_id":"cebpf4jnsgd1na2vs0mg"},{"bike_id":"c552312b-45a1-41fb-897d-164c1d962ea2","system_id":"levelo_inurba_marseille","lat":43.29845,"lon":5.36269,"is_reserved":false,"is_disabled":false,"rental_uris":{"android":"levelo://app?vid=c552312b-45a1-41fb-897d-164c1d962ea2","ios":"levelo://app?vid=c552312b-45a1-41fb-897d-164c1d962ea2"},"vehicle_type_id":"4","last_reported":1714576025,"current_range_meters":21200,"station_id":"ce4bgpp2rcd13ifvqc3g","pricing_plan_id":"cebpf4jnsgd1na2vs0mg"},{"bike_id":"2c1b4e8f-fe9f-4fa9-b596-da3b7a2dda8d","system_id":"levelo_inurba_marseille","lat":43.298433,"lon":5.362774,"is_reserved":false,"is_disabled":false,"rental_uris":{"android":"levelo://app?vid=2c1b4e8f-fe9f-4fa9-b596-da3b7a2dda8d","ios":"levelo://app?vid=2c1b4e8f-fe9f-4fa9-b596-da3b7a2dda8d"},"vehicle_type_id":"4","last_reported":1714576025,"current_range_meters":28800,"station_id":"ce4bgpp2rcd13ifvqc3g","pricing_plan_id":"cebpf4jnsgd1na2vs0mg"},{"bike_id":"95a71883-bda4-4518-af7b-b46ea0e661ef","system_id":"levelo_inurba_marseille","lat":43.29844,"lon":5.36268,"is_reserved":false,"is_disabled":false,"rental_uris":{"android":"levelo://app?vid=95a71883-bda4-4518-af7b-b46ea0e661ef","ios":"levelo://app?vid=95a71883-bda4-4518-af7b-b46ea0e661ef"},"vehicle_type_id":"4","last_reported":1714576025,"current_range_meters":20400,"station_id":"ce4bgpp2rcd13ifvqc3g","pricing_plan_id":"cebpf4jnsgd1na2vs0mg"},{"bike_id":"5c38d13e-b127-4da3-8a32-8bd2db3848f0","system_id":"levelo_inurba_marseille","lat":43.29843,"lon":5.36266,"is_reserved":false,"is_disabled":false,"rental_uris":{"android":"levelo://app?vid=5c38d13e-b127-4da3-8a32-8bd2db3848f0","ios":"levelo://app?vid=5c38d13e-b127-4da3-8a32-8bd2db3848f0"},"vehicle_type_id":"4","last_reported":1714576025,"current_range_meters":800,"station_id":"ce4bgpp2rcd13ifvqc3g","pricing_plan_id":"cebpf4jnsgd1na2vs0mg"},{"bike_id":"ab3234e2-c9e9-4f6c-b33f-be79c27f96ba","system_id":"levelo_inurba_marseille","lat":43.29842,"lon":5.36267,"is_reserved":false,"is_disabled":false,"rental_uris":{"android":"levelo://app?vid=ab3234e2-c9e9-4f6c-b33f-be79c27f96ba","ios":"levelo://app?vid=ab3234e2-c9e9-4f6c-b33f-be79c27f96ba"},"vehicle_type_id":"4","last_reported":1714576025,"current_range_meters":31200,"station_id":"ce4bgpp2rcd13ifvqc3g","pricing_plan_id":"cebpf4jnsgd1na2vs0mg"},{"bike_id":"e48223a4-d4ee-424c-a5ed-b03b2ac52ac3","system_id":"levelo_inurba_marseille","lat":43.2984,"lon":5.36268,"is_reserved":false,"is_disabled":false,"rental_uris":{"android":"levelo://app?vid=e48223a4-d4ee-424c-a5ed-b03b2ac52ac3","ios":"levelo://app?vid=e48223a4-d4ee-424c-a5ed-b03b2ac52ac3"},"vehicle_type_id":"4","last_reported":1714576025,"current_range_meters":24800,"station_id":"ce4bgpp2rcd13ifvqc3g","pricing_plan_id":"cebpf4jnsgd1na2vs0mg"},{"bike_id":"f40c9c0a-f3b5-4756-8f58-69d665e23edc","system_id":"levelo_inurba_marseille","lat":43.29839,"lon":5.36267,"is_reserved":false,"is_disabled":false,"rental_uris":{"android":"levelo://app?vid=f40c9c0a-f3b5-4756-8f58-69d665e23edc","ios":"levelo://app?vid=f40c9c0a-f3b5-4756-8f58-69d665e23edc"},"vehicle_type_id":"4","last_reported":1714576025,"current_range_meters":26400,"station_id":"ce4bgpp2rcd13ifvqc3g","pricing_plan_id":"cebpf4jnsgd1na2vs0mg"},{"bike_id":"f0fcc9b4-7827-4a54-874a-546abc319221","system_id":"levelo_inurba_marseille","lat":43.29838,"lon":5.36265,"is_reserved":false,"is_disabled":false,"rental_uris":{"android":"levelo://app?vid=f0fcc9b4-7827-4a54-874a-546abc319221","ios":"levelo://app?vid=f0fcc9b4-7827-4a54-874a-546abc319221"},"vehicle_type_id":"4","last_reported":1714576025,"current_range_meters":25600,"station_id":"ce4bgpp2rcd13ifvqc3g","pricing_plan_id":"cebpf4jnsgd1na2vs0mg"},{"bike_id":"b65ead4b-b6af-4c75-931b-4ff5418e8148","system_id":"levelo_inurba_marseille","lat":43.29838,"lon":5.36263,"is_reserved":false,"is_disabled":false,"rental_uris":{"android":"levelo://app?vid=b65ead4b-b6af-4c75-931b-4ff5418e8148","ios":"levelo://app?vid=b65ead4b-b6af-4c75-931b-4ff5418e8148"},"vehicle_type_id":"4","last_reported":1714576025,"current_range_meters":30800,"station_id":"ce4bgpp2rcd13ifvqc3g","pricing_plan_id":"cebpf4jnsgd1na2vs0mg"},{"bike_id":"7601b375-2bb8-413d-987e-77a869b91cb5","system_id":"levelo_inurba_marseille","lat":43.29918,"lon":5.37474,"is_reserved":false,"is_disabled":false,"rental_uris":{"android":"levelo://app?vid=7601b375-2bb8-413d-987e-77a869b91cb5","ios":"levelo://app?vid=7601b375-2bb8-413d-987e-77a869b91cb5"},"vehicle_type_id":"4","last_reported":1714576025,"current_range_meters":6000,"station_id":"ce4bgjh2rcd13ifvqbg0","pricing_plan_id":"cebpf4jnsgd1na2vs0mg"},{"bike_id":"93cfd89c-2827-496e-b39a-62c23169d000","system_id":"levelo_inurba_marseille","lat":43.29914,"lon":5.37465,"is_reserved":false,"is_disabled":false,"rental_uris":{"android":"levelo://app?vid=93cfd89c-2827-496e-b39a-62c23169d000","ios":"levelo://app?vid=93cfd89c-2827-496e-b39a-62c23169d000"},"vehicle_type_id":"4","last_reported":1714576025,"current_range_meters":14800,"station_id":"ce4bgjh2rcd13ifvqbg0","pricing_plan_id":"cebpf4jnsgd1na2vs0mg"},{"bike_id":"914bb636-0a00-4901-85e0-fda61dc15b7a","system_id":"levelo_inurba_marseille","lat":43.311722,"lon":5.387247,"is_reserved":false,"is_disabled":false,"rental_uris":{"android":"levelo://app?vid=914bb636-0a00-4901-85e0-fda61dc15b7a","ios":"levelo://app?vid=914bb636-0a00-4901-85e0-fda61dc15b7a"},"vehicle_type_id":"4","last_reported":1714576025,"current_range_meters":800,"station_id":"ce4bgv12rcd13ifvqcp0","pricing_plan_id":"cebpf4jnsgd1na2vs0mg"},{"bike_id":"404e4356-bedc-4831-87ab-25b229099277","system_id":"levelo_inurba_marseille","lat":43.311722,"lon":5.387247,"is_reserved":false,"is_disabled":false,"rental_uris":{"android":"levelo://app?vid=404e4356-bedc-4831-87ab-25b229099277","ios":"levelo://app?vid=404e4356-bedc-4831-87ab-25b229099277"},"vehicle_type_id":"4","last_reported":1714576025,"current_range_meters":10800,"station_id":"ce4bgv12rcd13ifvqcp0","pricing_plan_id":"cebpf4jnsgd1na2vs0mg"},{"bike_id":"eef94e31-a688-4811-a5af-0d0e86bb0163","system_id":"levelo_inurba_marseille","lat":43.299243,"lon":5.374807,"is_reserved":false,"is_disabled":false,"rental_uris":{"android":"levelo://app?vid=eef94e31-a688-4811-a5af-0d0e86bb0163","ios":"levelo://app?vid=eef94e31-a688-4811-a5af-0d0e86bb0163"},"vehicle_type_id":"4","last_reported":1714576025,"current_range_meters":4800,"station_id":"ce4bgjh2rcd13ifvqbg0","pricing_plan_id":"cebpf4jnsgd1na2vs0mg"},{"bike_id":"6e0dc8b2-f785-478d-96ff-694407af2293","system_id":"levelo_inurba_marseille","lat":43.311722,"lon":5.387247,"is_reserved":false,"is_disabled":false,"rental_uris":{"android":"levelo://app?vid=6e0dc8b2-f785-478d-96ff-694407af2293","ios":"levelo://app?vid=6e0dc8b2-f785-478d-96ff-694407af2293"},"vehicle_type_id":"4","last_reported":1714576025,"current_range_meters":29600,"station_id":"ce4bgv12rcd13ifvqcp0","pricing_plan_id":"cebpf4jnsgd1na2vs0mg"},{"bike_id":"e5bb4353-fe64-4b37-a463-860759c383f8","system_id":"levelo_inurba_marseille","lat":43.311722,"lon":5.387247,"is_reserved":false,"is_disabled":false,"rental_uris":{"android":"levelo://app?vid=e5bb4353-fe64-4b37-a463-860759c383f8","ios":"levelo://app?vid=e5bb4353-fe64-4b37-a463-860759c383f8"},"vehicle_type_id":"4","last_reported":1714576025,"current_range_meters":31200,"station_id":"ce4bgv12rcd13ifvqcp0","pricing_plan_id":"cebpf4jnsgd1na2vs0mg"},{"bike_id":"fb541c8d-6eba-4d37-b8a2-6b6bc53d8338","system_id":"levelo_inurba_marseille","lat":43.311722,"lon":5.387247,"is_reserved":false,"is_disabled":false,"rental_uris":{"android":"levelo://app?vid=fb541c8d-6eba-4d37-b8a2-6b6bc53d8338","ios":"levelo://app?vid=fb541c8d-6eba-4d37-b8a2-6b6bc53d8338"},"vehicle_type_id":"4","last_reported":1714576025,"current_range_meters":14000,"station_id":"ce4bgv12rcd13ifvqcp0","pricing_plan_id":"cebpf4jnsgd1na2vs0mg"},{"bike_id":"87afb410-72d5-4fbd-b38b-b15c82153b5f","system_id":"levelo_inurba_marseille","lat":43.322872,"lon":5.382756,"is_reserved":false,"is_disabled":false,"rental_uris":{"android":"levelo://app?vid=87afb410-72d5-4fbd-b38b-b15c82153b5f","ios":"levelo://app?vid=87afb410-72d5-4fbd-b38b-b15c82153b5f"},"vehicle_type_id":"4","last_reported":1714576025,"current_range_meters":0,"station_id":"ce4bhr12rcd13ifvqhqg","pricing_plan_id":"cebpf4jnsgd1na2vs0mg"},{"bike_id":"211842b6-ede9-4c44-9533-4871c0c19d61","system_id":"levelo_inurba_marseille","lat":43.297163,"lon":5.365866,"is_reserved":false,"is_disabled":false,"rental_uris":{"android":"levelo://app?vid=211842b6-ede9-4c44-9533-4871c0c19d61","ios":"levelo://app?vid=211842b6-ede9-4c44-9533-4871c0c19d61"},"vehicle_type_id":"4","last_reported":1714576025,"current_range_meters":3600,"station_id":"ce4bgn12rcd13ifvqbt0","pricing_plan_id":"cebpf4jnsgd1na2vs0mg"},{"bike_id":"aae01807-acc3-401d-8cd0-afa55859e23d","system_id":"levelo_inurba_marseille","lat":43.2968,"lon":5.37291,"is_reserved":false,"is_disabled":false,"rental_uris":{"android":"levelo://app?vid=aae01807-acc3-401d-8cd0-afa55859e23d","ios":"levelo://app?vid=aae01807-acc3-401d-8cd0-afa55859e23d"},"vehicle_type_id":"4","last_reported":1714576025,"current_range_meters":15200,"station_id":"ce4bgk12rcd13ifvqbj0","pricing_plan_id":"cebpf4jnsgd1na2vs0mg"},{"bike_id":"13e8297c-ac9d-431d-84a8-033f5fed02f8","system_id":"levelo_inurba_marseille","lat":43.305364,"lon":5.384119,"is_reserved":false,"is_disabled":false,"rental_uris":{"android":"levelo://app?vid=13e8297c-ac9d-431d-84a8-033f5fed02f8","ios":"levelo://app?vid=13e8297c-ac9d-431d-84a8-033f5fed02f8"},"vehicle_type_id":"4","last_reported":1714576025,"current_range_meters":0,"station_id":"ce4bgg92rcd13ifvqb30","pricing_plan_id":"cebpf4jnsgd1na2vs0mg"},{"bike_id":"788943f3-3b83-480c-be5f-f83b40a2a346","system_id":"levelo_inurba_marseille","lat":43.29573,"lon":5.367355,"is_reserved":false,"is_disabled":false,"rental_uris":{"android":"levelo://app?vid=788943f3-3b83-480c-be5f-f83b40a2a346","ios":"levelo://app?vid=788943f3-3b83-480c-be5f-f83b40a2a346"},"vehicle_type_id":"4","last_reported":1714576025,"current_range_meters":27600,"station_id":"ce4bgph2rcd13ifvqc2g","pricing_plan_id":"cebpf4jnsgd1na2vs0mg"},{"bike_id":"d68b02e2-7b73-452c-8ad3-a2300ce4de39","system_id":"levelo_inurba_marseille","lat":43.296921,"lon":5.376579,"is_reserved":false,"is_disabled":false,"rental_uris":{"android":"levelo://app?vid=d68b02e2-7b73-452c-8ad3-a2300ce4de39","ios":"levelo://app?vid=d68b02e2-7b73-452c-8ad3-a2300ce4de39"},"vehicle_type_id":"4","last_reported":1714576025,"current_range_meters":2000,"station_id":"ce4bgkh2rcd13ifvqbl0","pricing_plan_id":"cebpf4jnsgd1na2vs0mg"},{"bike_id":"8db4a4aa-dd46-4b7f-8c96-cf49f7107b52","system_id":"levelo_inurba_marseille","lat":43.309589,"lon":5.390258,"is_reserved":false,"is_disabled":false,"rental_uris":{"android":"levelo://app?vid=8db4a4aa-dd46-4b7f-8c96-cf49f7107b52","ios":"levelo://app?vid=8db4a4aa-dd46-4b7f-8c96-cf49f7107b52"},"vehicle_type_id":"4","last_reported":1714576025,"current_range_meters":10800,"station_id":"ce4bgup2rcd13ifvqco0","pricing_plan_id":"cebpf4jnsgd1na2vs0mg"},{"bike_id":"82e4fb94-294f-4c2c-bc2a-a3371d755a7f","system_id":"levelo_inurba_marseille","lat":43.299075,"lon":5.381531,"is_reserved":false,"is_disabled":false,"rental_uris":{"android":"levelo://app?vid=82e4fb94-294f-4c2c-bc2a-a3371d755a7f","ios":"levelo://app?vid=82e4fb94-294f-4c2c-bc2a-a3371d755a7f"},"vehicle_type_id":"4","last_reported":1714576025,"current_range_meters":0,"station_id":"","pricing_plan_id":"cebpf4jnsgd1na2vs0mg"},{"bike_id":"f52711ec-600f-4eb9-b2e8-ca89e05cc364","system_id":"levelo_inurba_marseille","lat":43.299028,"lon":5.381509,"is_reserved":false,"is_disabled":false,"rental_uris":{"android":"levelo://app?vid=f52711ec-600f-4eb9-b2e8-ca89e05cc364","ios":"levelo://app?vid=f52711ec-600f-4eb9-b2e8-ca89e05cc364"},"vehicle_type_id":"4","last_reported":1714576025,"current_range_meters":27200,"station_id":"ce4bgj12rcd13ifvqbc0","pricing_plan_id":"cebpf4jnsgd1na2vs0mg"},{"bike_id":"d6cf056d-fae9-4102-9604-fc87ca490fc1","system_id":"levelo_inurba_marseille","lat":43.296921,"lon":5.376579,"is_reserved":false,"is_disabled":false,"rental_uris":{"android":"levelo://app?vid=d6cf056d-fae9-4102-9604-fc87ca490fc1","ios":"levelo://app?vid=d6cf056d-fae9-4102-9604-fc87ca490fc1"},"vehicle_type_id":"4","last_reported":1714576025,"current_range_meters":7200,"station_id":"ce4bgkh2rcd13ifvqbl0","pricing_plan_id":"cebpf4jnsgd1na2vs0mg"},{"bike_id":"07cda65c-ee8a-46a8-9b43-5ee071dd6d03","system_id":"levelo_inurba_marseille","lat":43.2992,"lon":5.38215,"is_reserved":false,"is_disabled":false,"rental_uris":{"android":"levelo://app?vid=07cda65c-ee8a-46a8-9b43-5ee071dd6d03","ios":"levelo://app?vid=07cda65c-ee8a-46a8-9b43-5ee071dd6d03"},"vehicle_type_id":"4","last_reported":1714576025,"current_range_meters":20400,"station_id":"","pricing_plan_id":"cebpf4jnsgd1na2vs0mg"},{"bike_id":"d29862bf-1bf4-4c53-a2bf-a418541f7a0e","system_id":"levelo_inurba_marseille","lat":43.31757,"lon":5.39009,"is_reserved":false,"is_disabled":false,"rental_uris":{"android":"levelo://app?vid=d29862bf-1bf4-4c53-a2bf-a418541f7a0e","ios":"levelo://app?vid=d29862bf-1bf4-4c53-a2bf-a418541f7a0e"},"vehicle_type_id":"4","last_reported":1714576025,"current_range_meters":9600,"station_id":"ce4bhqp2rcd13ifvqhng","pricing_plan_id":"cebpf4jnsgd1na2vs0mg"},{"bike_id":"e7f7f8c6-3502-40da-b88a-452fc9534ddc","system_id":"levelo_inurba_marseille","lat":43.317601,"lon":5.390093,"is_reserved":false,"is_disabled":false,"rental_uris":{"android":"levelo://app?vid=e7f7f8c6-3502-40da-b88a-452fc9534ddc","ios":"levelo://app?vid=e7f7f8c6-3502-40da-b88a-452fc9534ddc"},"vehicle_type_id":"4","last_reported":1714576025,"current_range_meters":22800,"station_id":"ce4bhqp2rcd13ifvqhng","pricing_plan_id":"cebpf4jnsgd1na2vs0mg"},{"bike_id":"160120ba-f068-445d-b9bd-561cc5fe6e33","system_id":"levelo_inurba_marseille","lat":43.317606,"lon":5.390113,"is_reserved":false,"is_disabled":false,"rental_uris":{"android":"levelo://app?vid=160120ba-f068-445d-b9bd-561cc5fe6e33","ios":"levelo://app?vid=160120ba-f068-445d-b9bd-561cc5fe6e33"},"vehicle_type_id":"4","last_reported":1714576025,"current_range_meters":13200,"station_id":"ce4bhqp2rcd13ifvqhng","pricing_plan_id":"cebpf4jnsgd1na2vs0mg"},{"bike_id":"0aef9f46-a872-4800-887c-1b470256494a","system_id":"levelo_inurba_marseille","lat":43.317589,"lon":5.390125,"is_reserved":false,"is_disabled":false,"rental_uris":{"android":"levelo://app?vid=0aef9f46-a872-4800-887c-1b470256494a","ios":"levelo://app?vid=0aef9f46-a872-4800-887c-1b470256494a"},"vehicle_type_id":"4","last_reported":1714576025,"current_range_meters":24800,"station_id":"ce4bhqp2rcd13ifvqhng","pricing_plan_id":"cebpf4jnsgd1na2vs0mg"},{"bike_id":"16227458-1903-4958-9f5d-852ad595ecd8","system_id":"levelo_inurba_marseille","lat":43.31754,"lon":5.39019,"is_reserved":false,"is_disabled":false,"rental_uris":{"android":"levelo://app?vid=16227458-1903-4958-9f5d-852ad595ecd8","ios":"levelo://app?vid=16227458-1903-4958-9f5d-852ad595ecd8"},"vehicle_type_id":"4","last_reported":1714576025,"current_range_meters":17200,"station_id":"ce4bhqp2rcd13ifvqhng","pricing_plan_id":"cebpf4jnsgd1na2vs0mg"},{"bike_id":"b1addad9-e6b9-42db-aafc-ca3fa67234a4","system_id":"levelo_inurba_marseille","lat":43.317557,"lon":5.390173,"is_reserved":false,"is_disabled":false,"rental_uris":{"android":"levelo://app?vid=b1addad9-e6b9-42db-aafc-ca3fa67234a4","ios":"levelo://app?vid=b1addad9-e6b9-42db-aafc-ca3fa67234a4"},"vehicle_type_id":"4","last_reported":1714576025,"current_range_meters":24400,"station_id":"ce4bhqp2rcd13ifvqhng","pricing_plan_id":"cebpf4jnsgd1na2vs0mg"},{"bike_id":"b5271f54-f37d-423a-b48c-8177de38a8f8","system_id":"levelo_inurba_marseille","lat":43.317552,"lon":5.39021,"is_reserved":false,"is_disabled":false,"rental_uris":{"android":"levelo://app?vid=b5271f54-f37d-423a-b48c-8177de38a8f8","ios":"levelo://app?vid=b5271f54-f37d-423a-b48c-8177de38a8f8"},"vehicle_type_id":"4","last_reported":1714576025,"current_range_meters":28800,"station_id":"ce4bhqp2rcd13ifvqhng","pricing_plan_id":"cebpf4jnsgd1na2vs0mg"},{"bike_id":"88b24db4-632b-4045-a01f-3d312d3ba27d","system_id":"levelo_inurba_marseille","lat":43.317557,"lon":5.390173,"is_reserved":false,"is_disabled":false,"rental_uris":{"android":"levelo://app?vid=88b24db4-632b-4045-a01f-3d312d3ba27d","ios":"levelo://app?vid=88b24db4-632b-4045-a01f-3d312d3ba27d"},"vehicle_type_id":"4","last_reported":1714576025,"current_range_meters":15600,"station_id":"ce4bhqp2rcd13ifvqhng","pricing_plan_id":"cebpf4jnsgd1na2vs0mg"},{"bike_id":"568f4c3c-1d25-4618-a1f6-0154a9d3b72a","system_id":"levelo_inurba_marseille","lat":43.31757,"lon":5.39021,"is_reserved":false,"is_disabled":false,"rental_uris":{"android":"levelo://app?vid=568f4c3c-1d25-4618-a1f6-0154a9d3b72a","ios":"levelo://app?vid=568f4c3c-1d25-4618-a1f6-0154a9d3b72a"},"vehicle_type_id":"4","last_reported":1714576025,"current_range_meters":24400,"station_id":"ce4bhqp2rcd13ifvqhng","pricing_plan_id":"cebpf4jnsgd1na2vs0mg"},{"bike_id":"3e90fa85-c942-47c4-a797-7ff343ed3b41","system_id":"levelo_inurba_marseille","lat":43.317557,"lon":5.390173,"is_reserved":false,"is_disabled":false,"rental_uris":{"android":"levelo://app?vid=3e90fa85-c942-47c4-a797-7ff343ed3b41","ios":"levelo://app?vid=3e90fa85-c942-47c4-a797-7ff343ed3b41"},"vehicle_type_id":"4","last_reported":1714576025,"current_range_meters":29200,"station_id":"ce4bhqp2rcd13ifvqhng","pricing_plan_id":"cebpf4jnsgd1na2vs0mg"},{"bike_id":"5fe3e757-23ae-453c-8b4e-3d8a0d6225c3","system_id":"levelo_inurba_marseille","lat":43.29813,"lon":5.38082,"is_reserved":false,"is_disabled":false,"rental_uris":{"android":"levelo://app?vid=5fe3e757-23ae-453c-8b4e-3d8a0d6225c3","ios":"levelo://app?vid=5fe3e757-23ae-453c-8b4e-3d8a0d6225c3"},"vehicle_type_id":"4","last_reported":1714576025,"current_range_meters":14400,"station_id":"ce4bgip2rcd13ifvqbb0","pricing_plan_id":"cebpf4jnsgd1na2vs0mg"},{"bike_id":"efa7c4c4-b16d-4c7e-8826-9853ca266e22","system_id":"levelo_inurba_marseille","lat":43.29809,"lon":5.38077,"is_reserved":false,"is_disabled":false,"rental_uris":{"android":"levelo://app?vid=efa7c4c4-b16d-4c7e-8826-9853ca266e22","ios":"levelo://app?vid=efa7c4c4-b16d-4c7e-8826-9853ca266e22"},"vehicle_type_id":"4","last_reported":1714576025,"current_range_meters":14400,"station_id":"ce4bgip2rcd13ifvqbb0","pricing_plan_id":"cebpf4jnsgd1na2vs0mg"},{"bike_id":"4a44756b-848b-4474-acb8-4c0ea1582587","system_id":"levelo_inurba_marseille","lat":43.298092,"lon":5.380871,"is_reserved":false,"is_disabled":false,"rental_uris":{"android":"levelo://app?vid=4a44756b-848b-4474-acb8-4c0ea1582587","ios":"levelo://app?vid=4a44756b-848b-4474-acb8-4c0ea1582587"},"vehicle_type_id":"4","last_reported":1714576025,"current_range_meters":12800,"station_id":"ce4bgip2rcd13ifvqbb0","pricing_plan_id":"cebpf4jnsgd1na2vs0mg"},{"bike_id":"37c35e09-47a2-45bf-8f05-a3fd08049fe8","system_id":"levelo_inurba_marseille","lat":43.297099,"lon":5.37872,"is_reserved":false,"is_disabled":false,"rental_uris":{"android":"levelo://app?vid=37c35e09-47a2-45bf-8f05-a3fd08049fe8","ios":"levelo://app?vid=37c35e09-47a2-45bf-8f05-a3fd08049fe8"},"vehicle_type_id":"4","last_reported":1714576025,"current_range_meters":7600,"station_id":"","pricing_plan_id":"cebpf4jnsgd1na2vs0mg"},{"bike_id":"a7d72b7c-43d5-432d-a442-0079320de49b","system_id":"levelo_inurba_marseille","lat":43.29809,"lon":5.380966,"is_reserved":false,"is_disabled":false,"rental_uris":{"android":"levelo://app?vid=a7d72b7c-43d5-432d-a442-0079320de49b","ios":"levelo://app?vid=a7d72b7c-43d5-432d-a442-0079320de49b"},"vehicle_type_id":"4","last_reported":1714576025,"current_range_meters":14800,"station_id":"ce4bgip2rcd13ifvqbb0","pricing_plan_id":"cebpf4jnsgd1na2vs0mg"},{"bike_id":"1024b08d-7d05-4e78-9c79-d7ef1559f6ab","system_id":"levelo_inurba_marseille","lat":43.298035,"lon":5.380923,"is_reserved":false,"is_disabled":false,"rental_uris":{"android":"levelo://app?vid=1024b08d-7d05-4e78-9c79-d7ef1559f6ab","ios":"levelo://app?vid=1024b08d-7d05-4e78-9c79-d7ef1559f6ab"},"vehicle_type_id":"4","last_reported":1714576025,"current_range_meters":8800,"station_id":"ce4bgip2rcd13ifvqbb0","pricing_plan_id":"cebpf4jnsgd1na2vs0mg"},{"bike_id":"6dc2707e-2009-4632-aeaa-c36d25b8fec3","system_id":"levelo_inurba_marseille","lat":43.298037,"lon":5.381066,"is_reserved":false,"is_disabled":false,"rental_uris":{"android":"levelo://app?vid=6dc2707e-2009-4632-aeaa-c36d25b8fec3","ios":"levelo://app?vid=6dc2707e-2009-4632-aeaa-c36d25b8fec3"},"vehicle_type_id":"4","last_reported":1714576025,"current_range_meters":17600,"station_id":"ce4bgip2rcd13ifvqbb0","pricing_plan_id":"cebpf4jnsgd1na2vs0mg"},{"bike_id":"e5297714-5b7b-451f-9a18-2a1c69aeb003","system_id":"levelo_inurba_marseille","lat":43.298037,"lon":5.381066,"is_reserved":false,"is_disabled":false,"rental_uris":{"android":"levelo://app?vid=e5297714-5b7b-451f-9a18-2a1c69aeb003","ios":"levelo://app?vid=e5297714-5b7b-451f-9a18-2a1c69aeb003"},"vehicle_type_id":"4","last_reported":1714576025,"current_range_meters":27200,"station_id":"ce4bgip2rcd13ifvqbb0","pricing_plan_id":"cebpf4jnsgd1na2vs0mg"},{"bike_id":"cdc59235-8420-4f9c-b05a-1660a471e113","system_id":"levelo_inurba_marseille","lat":43.298037,"lon":5.381066,"is_reserved":false,"is_disabled":false,"rental_uris":{"android":"levelo://app?vid=cdc59235-8420-4f9c-b05a-1660a471e113","ios":"levelo://app?vid=cdc59235-8420-4f9c-b05a-1660a471e113"},"vehicle_type_id":"4","last_reported":1714576025,"current_range_meters":27200,"station_id":"ce4bgip2rcd13ifvqbb0","pricing_plan_id":"cebpf4jnsgd1na2vs0mg"},{"bike_id":"9ab068bc-dc2d-4643-aa3b-eb9337c5c6d3","system_id":"levelo_inurba_marseille","lat":43.29586,"lon":5.3752,"is_reserved":false,"is_disabled":false,"rental_uris":{"android":"levelo://app?vid=9ab068bc-dc2d-4643-aa3b-eb9337c5c6d3","ios":"levelo://app?vid=9ab068bc-dc2d-4643-aa3b-eb9337c5c6d3"},"vehicle_type_id":"4","last_reported":1714576025,"current_range_meters":4400,"station_id":"","pricing_plan_id":"cebpf4jnsgd1na2vs0mg"},{"bike_id":"b8693aff-d889-46b9-a4f1-5622605a0278","system_id":"levelo_inurba_marseille","lat":43.293009,"lon":5.374584,"is_reserved":false,"is_disabled":false,"rental_uris":{"android":"levelo://app?vid=b8693aff-d889-46b9-a4f1-5622605a0278","ios":"levelo://app?vid=b8693aff-d889-46b9-a4f1-5622605a0278"},"vehicle_type_id":"4","last_reported":1714576025,"current_range_meters":30000,"station_id":"ce4bgi12rcd13ifvqb70","pricing_plan_id":"cebpf4jnsgd1na2vs0mg"},{"bike_id":"076dd448-5c64-4e65-ae97-45da8a2c4b41","system_id":"levelo_inurba_marseille","lat":43.298024,"lon":5.381039,"is_reserved":false,"is_disabled":false,"rental_uris":{"android":"levelo://app?vid=076dd448-5c64-4e65-ae97-45da8a2c4b41","ios":"levelo://app?vid=076dd448-5c64-4e65-ae97-45da8a2c4b41"},"vehicle_type_id":"4","last_reported":1714576025,"current_range_meters":0,"station_id":"ce4bgip2rcd13ifvqbb0","pricing_plan_id":"cebpf4jnsgd1na2vs0mg"},{"bike_id":"10a97a63-8a27-421d-9217-39692509f23d","system_id":"levelo_inurba_marseille","lat":43.298037,"lon":5.381066,"is_reserved":false,"is_disabled":false,"rental_uris":{"android":"levelo://app?vid=10a97a63-8a27-421d-9217-39692509f23d","ios":"levelo://app?vid=10a97a63-8a27-421d-9217-39692509f23d"},"vehicle_type_id":"4","last_reported":1714576025,"current_range_meters":17200,"station_id":"ce4bgip2rcd13ifvqbb0","pricing_plan_id":"cebpf4jnsgd1na2vs0mg"},{"bike_id":"8c5e1a3f-41b9-4289-b1be-ed031123d9f8","system_id":"levelo_inurba_marseille","lat":43.298037,"lon":5.381066,"is_reserved":false,"is_disabled":false,"rental_uris":{"android":"levelo://app?vid=8c5e1a3f-41b9-4289-b1be-ed031123d9f8","ios":"levelo://app?vid=8c5e1a3f-41b9-4289-b1be-ed031123d9f8"},"vehicle_type_id":"4","last_reported":1714576025,"current_range_meters":28000,"station_id":"ce4bgip2rcd13ifvqbb0","pricing_plan_id":"cebpf4jnsgd1na2vs0mg"},{"bike_id":"8a25f35c-cb08-418e-8738-541869e591ea","system_id":"levelo_inurba_marseille","lat":43.304274,"lon":5.388873,"is_reserved":false,"is_disabled":false,"rental_uris":{"android":"levelo://app?vid=8a25f35c-cb08-418e-8738-541869e591ea","ios":"levelo://app?vid=8a25f35c-cb08-418e-8738-541869e591ea"},"vehicle_type_id":"4","last_reported":1714576025,"current_range_meters":18000,"station_id":"ce4bgk12rcd13ifvqbi0","pricing_plan_id":"cebpf4jnsgd1na2vs0mg"},{"bike_id":"396e7677-3c42-4456-bf1c-5b6f9fbdb73e","system_id":"levelo_inurba_marseille","lat":43.29802,"lon":5.38111,"is_reserved":false,"is_disabled":false,"rental_uris":{"android":"levelo://app?vid=396e7677-3c42-4456-bf1c-5b6f9fbdb73e","ios":"levelo://app?vid=396e7677-3c42-4456-bf1c-5b6f9fbdb73e"},"vehicle_type_id":"4","last_reported":1714576025,"current_range_meters":23600,"station_id":"ce4bgip2rcd13ifvqbb0","pricing_plan_id":"cebpf4jnsgd1na2vs0mg"},