{"last_updated":1728479858,"ttl":60,"version":"2.2","data":{"bikes":[{"bike_id":"4f16a43e-5854-4f00-bcc8-476650dbbc20","system_id":"levelo_inurba_marseille","lat":43.30433,"lon":5.39743,"is_reserved":false,"is_disabled":false,"rental_uris":{"android":"levelo://app?vid=4f16a43e-5854-4f00-bcc8-476650dbbc20","ios":"levelo://app?vid=4f16a43e-5854-4f00-bcc8-476650dbbc20"},"vehicle_type_id":"4","last_reported":1728479858,"current_range_meters":9200,"station_id":"ce4bh092rcd13ifvqd20","pricing_plan_id":"cebpf4jnsgd1na2vs0mg"},{"bike_id":"c60da232-2931-445e-9832-6a7c4cbdbe4f","system_id":"levelo_inurba_marseille","lat":43.25939,"lon":5.40909,"is_reserved":false,"is_disabled":false,"rental_uris":{"android":"levelo://app?vid=c60da232-2931-445e-9832-6a7c4cbdbe4f","ios":"levelo://app?vid=c60da232-2931-445e-9832-6a7c4cbdbe4f"},"vehicle_type_id":"4","last_reported":1728479858,"current_range_meters":28000,"station_id":"ce4bhm92rcd13ifvqglg","pricing_plan_id":"cebpf4jnsgd1na2vs0mg"},{"bike_id":"4d05d63f-111c-4b0a-b626-f412071e31cd","system_id":"levelo_inurba_marseille","lat":43.26684,"lon":5.38271,"is_reserved":false,"is_disabled":false,"rental_uris":{"android":"levelo://app?vid=4d05d63f-111c-4b0a-b626-f412071e31cd","ios":"levelo://app?vid=4d05d63f-111c-4b0a-b626-f412071e31cd"},"vehicle_type_id":"4","last_reported":1728479858,"current_range_meters":25600,"station_id":"ce4bhg92rcd13ifvqf90","pricing_plan_id":"cebpf4jnsgd1na2vs0mg"},{"bike_id":"6f950bbe-cd61-409b-aa7e-88ffe899ca87","system_id":"levelo_inurba_marseille","lat":43.296109,"lon":5.377191,"is_reserved":false,"is_disabled":false,"rental_uris":{"android":"levelo://app?vid=6f950bbe-cd61-409b-aa7e-88ffe899ca87","ios":"levelo://app?vid=6f950bbe-cd61-409b-aa7e-88ffe899ca87"},"vehicle_type_id":"4","last_reported":1728479858,"current_range_meters":36000,"station_id":"ce4bgi92rcd13ifvqb90","pricing_plan_id":"cebpf4jnsgd1na2vs0mg"},{"bike_id":"6b8918a4-396b-43e5-9a7f-f056357bf660","system_id":"levelo_inurba_marseille","lat":43.23069,"lon":5.35491,"is_reserved":false,"is_disabled":false,"rental_uris":{"android":"levelo://app?vid=6b8918a4-396b-43e5-9a7f-f056357bf660","ios":"levelo://app?vid=6b8918a4-396b-43e5-9a7f-f056357bf660"},"vehicle_type_id":"4","last_reported":1728479858,"current_range_meters":8400,"station_id":"cpo3342slgdg3j2ifvpg","pricing_plan_id":"cebpf4jnsgd1na2vs0mg"},{"bike_id":"8ccca870-c25f-40ed-a541-09c2f486d75f","system_id":"levelo_inurba_marseille","lat":43.29901,"lon":5.43669,"is_reserved":false,"is_disabled":false,"rental_uris":{"android":"levelo://app?vid=8ccca870-c25f-40ed-a541-09c2f486d75f","ios":"levelo://app?vid=8ccca870-c25f-40ed-a541-09c2f486d75f"},"vehicle_type_id":"4","last_reported":1728479858,"current_range_meters":7200,"station_id":"ce4bhpp2rcd13ifvqhfg","pricing_plan_id":"cebpf4jnsgd1na2vs0mg"},{"bike_id":"8dc1da34-b365-48c8-a247-baa08ce48506","system_id":"levelo_inurba_marseille","lat":43.28038,"lon":5.36937,"is_reserved":false,"is_disabled":false,"rental_uris":{"android":"levelo://app?vid=8dc1da34-b365-48c8-a247-baa08ce48506","ios":"levelo://app?vid=8dc1da34-b365-48c8-a247-baa08ce48506"},"vehicle_type_id":"4","last_reported":1728479858,"current_range_meters":27600,"station_id":"ce4bha12rcd13ifvqef0","pricing_plan_id":"cebpf4jnsgd1na2vs0mg"},{"bike_id":"75a293f1-95c2-44d2-b251-03761e29857c","system_id":"levelo_inurba_marseille","lat":43.32545,"lon":5.41447,"is_reserved":false,"is_disabled":false,"rental_uris":{"android":"levelo://app?vid=75a293f1-95c2-44d2-b251-03761e29857c","ios":"levelo://app?vid=75a293f1-95c2-44d2-b251-03761e29857c"},"vehicle_type_id":"4","last_reported":1728479858,"current_range_meters":38800,"station_id":"ce4bhq12rcd13ifvqhhg","pricing_plan_id":"cebpf4jnsgd1na2vs0mg"},{"bike_id":"cdc1896a-9a72-4b15-a706-f54d3e6c2b04","system_id":"levelo_inurba_marseille","lat":43.30602,"lon":5.37222,"is_reserved":false,"is_disabled":false,"rental_uris":{"android":"levelo://app?vid=cdc1896a-9a72-4b15-a706-f54d3e6c2b04","ios":"levelo://app?vid=cdc1896a-9a72-4b15-a706-f54d3e6c2b04"},"vehicle_type_id":"4","last_reported":1728479858,"current_range_meters":36400,"station_id":"ce4bgqh2rcd13ifvqc4g","pricing_plan_id":"cebpf4jnsgd1na2vs0mg"},{"bike_id":"4a31d6b0-4ff9-4fe9-9683-c1f64d53f1d0","system_id":"levelo_inurba_marseille","lat":43.28938,"lon":5.36385,"is_reserved":false,"is_disabled":false,"rental_uris":{"android":"levelo://app?vid=4a31d6b0-4ff9-4fe9-9683-c1f64d53f1d0","ios":"levelo://app?vid=4a31d6b0-4ff9-4fe9-9683-c1f64d53f1d0"},"vehicle_type_id":"4","last_reported":1728479858,"current_range_meters":38800,"station_id":"ce4bhc92rcd13ifvqetg","pricing_plan_id":"cebpf4jnsgd1na2vs0mg"},{"bike_id":"c4e52a7b-d4be-4441-864d-289adb0b3e1b","system_id":"levelo_inurba_marseille","lat":43.28699,"lon":5.39984,"is_reserved":false,"is_disabled":false,"rental_uris":{"android":"levelo://app?vid=c4e52a7b-d4be-4441-864d-289adb0b3e1b","ios":"levelo://app?vid=c4e52a7b-d4be-4441-864d-289adb0b3e1b"},"vehicle_type_id":"4","last_reported":1728479858,"current_range_meters":30400,"station_id":"ce4bho92rcd13ifvqh3g","pricing_plan_id":"cebpf4jnsgd1na2vs0mg"},{"bike_id":"641ad825-8f87-408f-ae23-4477d0a7e5e1","system_id":"levelo_inurba_marseille","lat":43.231483,"lon":5.437173,"is_reserved":false,"is_disabled":false,"rental_uris":{"android":"levelo://app?vid=641ad825-8f87-408f-ae23-4477d0a7e5e1","ios":"levelo://app?vid=641ad825-8f87-408f-ae23-4477d0a7e5e1"},"vehicle_type_id":"4","last_reported":1728479858,"current_range_meters":18800,"station_id":"ce4bhmp2rcd13ifvqgog","pricing_plan_id":"cebpf4jnsgd1na2vs0mg"},{"bike_id":"4d5eb297-de00-4af0-8636-b9e42fc1d0a5","system_id":"levelo_inurba_marseille","lat":43.29862,"lon":5.38399,"is_reserved":false,"is_disabled":false,"rental_uris":{"android":"levelo://app?vid=4d5eb297-de00-4af0-8636-b9e42fc1d0a5","ios":"levelo://app?vid=4d5eb297-de00-4af0-8636-b9e42fc1d0a5"},"vehicle_type_id":"4","last_reported":1728479858,"current_range_meters":28400,"station_id":"ce4bgi92rcd13ifvqb90","pricing_plan_id":"cebpf4jnsgd1na2vs0mg"},{"bike_id":"2b729c08-92dd-453c-9b9b-21773eca92a8","system_id":"levelo_inurba_marseille","lat":43.30887,"lon":5.37184,"is_reserved":false,"is_disabled":false,"rental_uris":{"android":"levelo://app?vid=2b729c08-92dd-453c-9b9b-21773eca92a8","ios":"levelo://app?vid=2b729c08-92dd-453c-9b9b-21773eca92a8"},"vehicle_type_id":"4","last_reported":1728479858,"current_range_meters":22000,"station_id":"ce4bguh2rcd13ifvqckg","pricing_plan_id":"cebpf4jnsgd1na2vs0mg"},{"bike_id":"64c9abdc-a744-4b43-9856-a64e8ee5db15","system_id":"levelo_inurba_marseille","lat":43.23069,"lon":5.35487,"is_reserved":false,"is_disabled":false,"rental_uris":{"android":"levelo://app?vid=64c9abdc-a744-4b43-9856-a64e8ee5db15","ios":"levelo://app?vid=64c9abdc-a744-4b43-9856-a64e8ee5db15"},"vehicle_type_id":"4","last_reported":1728479858,"current_range_meters":38000,"station_id":"cpo3342slgdg3j2ifvpg","pricing_plan_id":"cebpf4jnsgd1na2vs0mg"},{"bike_id":"fa676a5e-9c79-4a67-bacd-add425a4036d","system_id":"levelo_inurba_marseille","lat":43.23182,"lon":5.3998,"is_reserved":false,"is_disabled":false,"rental_uris":{"android":"levelo://app?vid=fa676a5e-9c79-4a67-bacd-add425a4036d","ios":"levelo://app?vid=fa676a5e-9c79-4a67-bacd-add425a4036d"},"vehicle_type_id":"4","last_reported":1728479858,"current_range_meters":33600,"station_id":"ce4bhn12rcd13ifvqgqg","pricing_plan_id":"cebpf4jnsgd1na2vs0mg"},{"bike_id":"7469462f-90e1-470e-8aab-e30796ef4ddd","system_id":"levelo_inurba_marseille","lat":43.26552,"lon":5.37282,"is_reserved":false,"is_disabled":false,"rental_uris":{"android":"levelo://app?vid=7469462f-90e1-470e-8aab-e30796ef4ddd","ios":"levelo://app?vid=7469462f-90e1-470e-8aab-e30796ef4ddd"},"vehicle_type_id":"4","last_reported":1728479858,"current_range_meters":26000,"station_id":"ce4bhg12rcd13ifvqf70","pricing_plan_id":"cebpf4jnsgd1na2vs0mg"},{"bike_id":"aebe4de8-b2bc-4e90-8aff-3c0b9ec5f5ba","system_id":"levelo_inurba_marseille","lat":43.23156,"lon":5.43706,"is_reserved":false,"is_disabled":false,"rental_uris":{"android":"levelo://app?vid=aebe4de8-b2bc-4e90-8aff-3c0b9ec5f5ba","ios":"levelo://app?vid=aebe4de8-b2bc-4e90-8aff-3c0b9ec5f5ba"},"vehicle_type_id":"4","last_reported":1728479858,"current_range_meters":14800,"station_id":"ce4bhmp2rcd13ifvqgog","pricing_plan_id":"cebpf4jnsgd1na2vs0mg"},{"bike_id":"34c0aa67-8ee4-4f8c-a17a-645d30d6ab32","system_id":"levelo_inurba_marseille","lat":43.32028,"lon":5.41565,"is_reserved":false,"is_disabled":false,"rental_uris":{"android":"levelo://app?vid=34c0aa67-8ee4-4f8c-a17a-645d30d6ab32","ios":"levelo://app?vid=34c0aa67-8ee4-4f8c-a17a-645d30d6ab32"},"vehicle_type_id":"4","last_reported":1728479858,"current_range_meters":26800,"station_id":"ce4bhq92rcd13ifvqhkg","pricing_plan_id":"cebpf4jnsgd1na2vs0mg"},{"bike_id":"192332e1-1d6f-4e8c-9bbd-874934f796fa","system_id":"levelo_inurba_marseille","lat":43.30536,"lon":5.36697,"is_reserved":false,"is_disabled":false,"rental_uris":{"android":"levelo://app?vid=192332e1-1d6f-4e8c-9bbd-874934f796fa","ios":"levelo://app?vid=192332e1-1d6f-4e8c-9bbd-874934f796fa"},"vehicle_type_id":"4","last_reported":1728479858,"current_range_meters":19600,"station_id":"ce4bgrp2rcd13ifvqc9g","pricing_plan_id":"cebpf4jnsgd1na2vs0mg"},{"bike_id":"56ce137e-37b8-4da0-8ddb-243cffb9239c","system_id":"levelo_inurba_marseille","lat":43.31723,"lon":5.42395,"is_reserved":false,"is_disabled":false,"rental_uris":{"android":"levelo://app?vid=56ce137e-37b8-4da0-8ddb-243cffb9239c","ios":"levelo://app?vid=56ce137e-37b8-4da0-8ddb-243cffb9239c"},"vehicle_type_id":"4","last_reported":1728479858,"current_range_meters":37600,"station_id":"ce4bhp92rcd13ifvqhbg","pricing_plan_id":"cebpf4jnsgd1na2vs0mg"},{"bike_id":"439167e9-21ff-4cfd-99eb-830fdb806821","system_id":"levelo_inurba_marseille","lat":43.28855,"lon":5.35854,"is_reserved":false,"is_disabled":false,"rental_uris":{"android":"levelo://app?vid=439167e9-21ff-4cfd-99eb-830fdb806821","ios":"levelo://app?vid=439167e9-21ff-4cfd-99eb-830fdb806821"},"vehicle_type_id":"4","last_reported":1728479858,"current_range_meters":29600,"station_id":"ce4bhb12rcd13ifvqem0","pricing_plan_id":"cebpf4jnsgd1na2vs0mg"},{"bike_id":"4ea4efb5-98a6-4c74-b3ed-c25319004503","system_id":"levelo_inurba_marseille","lat":43.31077,"lon":5.38351,"is_reserved":false,"is_disabled":false,"rental_uris":{"android":"levelo://app?vid=4ea4efb5-98a6-4c74-b3ed-c25319004503","ios":"levelo://app?vid=4ea4efb5-98a6-4c74-b3ed-c25319004503"},"vehicle_type_id":"4","last_reported":1728479858,"current_range_meters":25200,"station_id":"ce4bgv92rcd13ifvqcr0","pricing_plan_id":"cebpf4jnsgd1na2vs0mg"},{"bike_id":"82823ea6-6be3-424f-8848-ca81a2939c0a","system_id":"levelo_inurba_marseille","lat":43.30882,"lon":5.39639,"is_reserved":false,"is_disabled":false,"rental_uris":{"android":"levelo://app?vid=82823ea6-6be3-424f-8848-ca81a2939c0a","ios":"levelo://app?vid=82823ea6-6be3-424f-8848-ca81a2939c0a"},"vehicle_type_id":"4","last_reported":1728479858,"current_range_meters":33600,"station_id":"ce4bh012rcd13ifvqcv0","pricing_plan_id":"cebpf4jnsgd1na2vs0mg"},{"bike_id":"e7891b6f-a684-4550-90ca-c57372568441","system_id":"levelo_inurba_marseille","lat":43.31364,"lon":5.38486,"is_reserved":false,"is_disabled":false,"rental_uris":{"android":"levelo://app?vid=e7891b6f-a684-4550-90ca-c57372568441","ios":"levelo://app?vid=e7891b6f-a684-4550-90ca-c57372568441"},"vehicle_type_id":"4","last_reported":1728479858,"current_range_meters":8800,"station_id":"ce4bgt92rcd13ifvqcf0","pricing_plan_id":"cebpf4jnsgd1na2vs0mg"},{"bike_id":"2cd972aa-f638-43ef-8e8f-9c98c896ad2d","system_id":"levelo_inurba_marseille","lat":43.24074,"lon":5.37758,"is_reserved":false,"is_disabled":false,"rental_uris":{"android":"levelo://app?vid=2cd972aa-f638-43ef-8e8f-9c98c896ad2d","ios":"levelo://app?vid=2cd972aa-f638-43ef-8e8f-9c98c896ad2d"},"vehicle_type_id":"4","last_reported":1728479858,"current_range_meters":16000,"station_id":"ce4bhnp2rcd13ifvqgvg","pricing_plan_id":"cebpf4jnsgd1na2vs0mg"},{"bike_id":"a74dfcc5-6da9-45da-9096-5a61039d6d55","system_id":"levelo_inurba_marseille","lat":43.287018,"lon":5.379303,"is_reserved":false,"is_disabled":false,"rental_uris":{"android":"levelo://app?vid=a74dfcc5-6da9-45da-9096-5a61039d6d55","ios":"levelo://app?vid=a74dfcc5-6da9-45da-9096-5a61039d6d55"},"vehicle_type_id":"4","last_reported":1728479858,"current_range_meters":33600,"station_id":"ce4bh9p2rcd13ifvqec0","pricing_plan_id":"cebpf4jnsgd1na2vs0mg"},{"bike_id":"d17168ca-18e2-43b4-abb5-338236f751a3","system_id":"levelo_inurba_marseille","lat":43.25105,"lon":5.40323,"is_reserved":false,"is_disabled":false,"rental_uris":{"android":"levelo://app?vid=d17168ca-18e2-43b4-abb5-338236f751a3","ios":"levelo://app?vid=d17168ca-18e2-43b4-abb5-338236f751a3"},"vehicle_type_id":"4","last_reported":1728479858,"current_range_meters":4400,"station_id":"ce4bhlh2rcd13ifvqgig","pricing_plan_id":"cebpf4jnsgd1na2vs0mg"},{"bike_id":"0f21128f-2cd6-4779-8b8b-00ba634cf7e3","system_id":"levelo_inurba_marseille","lat":43.25117,"lon":5.40321,"is_reserved":false,"is_disabled":false,"rental_uris":{"android":"levelo://app?vid=0f21128f-2cd6-4779-8b8b-00ba634cf7e3","ios":"levelo://app?vid=0f21128f-2cd6-4779-8b8b-00ba634cf7e3"},"vehicle_type_id":"4","last_reported":1728479858,"current_range_meters":37600,"station_id":"ce4bhlh2rcd13ifvqgig","pricing_plan_id":"cebpf4jnsgd1na2vs0mg"},{"bike_id":"2de0b763-ad98-4e1f-aa5d-72612c5aa4fb","system_id":"levelo_inurba_marseille","lat":43.24175,"lon":5.39716,"is_reserved":false,"is_disabled":false,"rental_uris":{"android":"levelo://app?vid=2de0b763-ad98-4e1f-aa5d-72612c5aa4fb","ios":"levelo://app?vid=2de0b763-ad98-4e1f-aa5d-72612c5aa4fb"},"vehicle_type_id":"4","last_reported":1728479858,"current_range_meters":10800,"station_id":"ce4bhn12rcd13ifvqgpg","pricing_plan_id":"cebpf4jnsgd1na2vs0mg"},{"bike_id":"fcaf1f81-25e0-4442-b15a-94b076fa2256","system_id":"levelo_inurba_marseille","lat":43.295622,"lon":5.422845,"is_reserved":false,"is_disabled":false,"rental_uris":{"android":"levelo://app?vid=fcaf1f81-25e0-4442-b15a-94b076fa2256","ios":"levelo://app?vid=fcaf1f81-25e0-4442-b15a-94b076fa2256"},"vehicle_type_id":"4","last_reported":1728479858,"current_range_meters":20000,"station_id":"ce4bhph2rcd13ifvqhdg","pricing_plan_id":"cebpf4jnsgd1na2vs0mg"},{"bike_id":"59a20882-e884-470e-b111-32ed424e7cc3","system_id":"levelo_inurba_marseille","lat":43.33725,"lon":5.39193,"is_reserved":false,"is_disabled":false,"rental_uris":{"android":"levelo://app?vid=59a20882-e884-470e-b111-32ed424e7cc3","ios":"levelo://app?vid=59a20882-e884-470e-b111-32ed424e7cc3"},"vehicle_type_id":"4","last_reported":1728479858,"current_range_meters":30800,"station_id":"ce4bhr92rcd13ifvqhsg","pricing_plan_id":"cebpf4jnsgd1na2vs0mg"},{"bike_id":"b36aecc6-08e0-4f6b-8291-5358f90935db","system_id":"levelo_inurba_marseille","lat":43.28436,"lon":5.39179,"is_reserved":false,"is_disabled":false,"rental_uris":{"android":"levelo://app?vid=b36aecc6-08e0-4f6b-8291-5358f90935db","ios":"levelo://app?vid=b36aecc6-08e0-4f6b-8291-5358f90935db"},"vehicle_type_id":"4","last_reported":1728479858,"current_range_meters":33200,"station_id":"ce4bhoh2rcd13ifvqh5g","pricing_plan_id":"cebpf4jnsgd1na2vs0mg"},{"bike_id":"72078f29-e154-4c5b-836a-c7e362ba1f09","system_id":"levelo_inurba_marseille","lat":43.33764,"lon":5.37466,"is_reserved":false,"is_disabled":false,"rental_uris":{"android":"levelo://app?vid=72078f29-e154-4c5b-836a-c7e362ba1f09","ios":"levelo://app?vid=72078f29-e154-4c5b-836a-c7e362ba1f09"},"vehicle_type_id":"4","last_reported":1728479858,"current_range_meters":10800,"station_id":"ce4rr2p2rcd13i802rgg","pricing_plan_id":"cebpf4jnsgd1na2vs0mg"},{"bike_id":"7d7ab187-9965-49a4-bf26-b6ade39671fc","system_id":"levelo_inurba_marseille","lat":43.23195,"lon":5.3555,"is_reserved":false,"is_disabled":false,"rental_uris":{"android":"levelo://app?vid=7d7ab187-9965-49a4-bf26-b6ade39671fc","ios":"levelo://app?vid=7d7ab187-9965-49a4-bf26-b6ade39671fc"},"vehicle_type_id":"4","last_reported":1728479858,"current_range_meters":24800,"station_id":"ce4bhu92rcd13ifvqi70","pricing_plan_id":"cebpf4jnsgd1na2vs0mg"},{"bike_id":"dc80b0e4-e686-4875-9991-4f06e3429d36","system_id":"levelo_inurba_marseille","lat":43.31761,"lon":5.39013,"is_reserved":false,"is_disabled":false,"rental_uris":{"android":"levelo://app?vid=dc80b0e4-e686-4875-9991-4f06e3429d36","ios":"levelo://app?vid=dc80b0e4-e686-4875-9991-4f06e3429d36"},"vehicle_type_id":"4","last_reported":1728479858,"current_range_meters":16800,"station_id":"ce4bhqp2rcd13ifvqhng","pricing_plan_id":"cebpf4jnsgd1na2vs0mg"},{"bike_id":"64cbf5ad-210a-4eed-8035-947870e47e4b","system_id":"levelo_inurba_marseille","lat":43.23181,"lon":5.39993,"is_reserved":false,"is_disabled":false,"rental_uris":{"android":"levelo://app?vid=64cbf5ad-210a-4eed-8035-947870e47e4b","ios":"levelo://app?vid=64cbf5ad-210a-4eed-8035-947870e47e4b"},"vehicle_type_id":"4","last_reported":1728479858,"current_range_meters":2800,"station_id":"ce4bhn12rcd13ifvqgqg","pricing_plan_id":"cebpf4jnsgd1na2vs0mg"},{"bike_id":"7364275a-0083-43f7-9c08-95d74ce45cee","system_id":"levelo_inurba_marseille","lat":43.29723,"lon":5.37719,"is_reserved":false,"is_disabled":false,"rental_uris":{"android":"levelo://app?vid=7364275a-0083-43f7-9c08-95d74ce45cee","ios":"levelo://app?vid=7364275a-0083-43f7-9c08-95d74ce45cee"},"vehicle_type_id":"4","last_reported":1728479858,"current_range_meters":38400,"station_id":"ce4bgkh2rcd13ifvqbl0","pricing_plan_id":"cebpf4jnsgd1na2vs0mg"},{"bike_id":"5c561410-29e7-49fb-bd6f-96ce87ad6718","system_id":"levelo_inurba_marseille","lat":43.30908,"lon":5.36846,"is_reserved":false,"is_disabled":false,"rental_uris":{"android":"levelo://app?vid=5c561410-29e7-49fb-bd6f-96ce87ad6718","ios":"levelo://app?vid=5c561410-29e7-49fb-bd6f-96ce87ad6718"},"vehicle_type_id":"4","last_reported":1728479858,"current_range_meters":25600,"station_id":"ce4bgn92rcd13ifvqbvg","pricing_plan_id":"cebpf4jnsgd1na2vs0mg"},{"bike_id":"7dd56a6b-ec2c-4470-b345-14af7dd0ef03","system_id":"levelo_inurba_marseille","lat":43.28421,"lon":5.34985,"is_reserved":false,"is_disabled":false,"rental_uris":{"android":"levelo://app?vid=7dd56a6b-ec2c-4470-b345-14af7dd0ef03","ios":"levelo://app?vid=7dd56a6b-ec2c-4470-b345-14af7dd0ef03"},"vehicle_type_id":"4","last_reported":1728479858,"current_range_meters":38800,"station_id":"ce4bhbh2rcd13ifvqepg","pricing_plan_id":"cebpf4jnsgd1na2vs0mg"},{"bike_id":"2c4c3de7-36cc-49ba-89f4-420d8d550649","system_id":"levelo_inurba_marseille","lat":43.25931,"lon":5.40898,"is_reserved":false,"is_disabled":false,"rental_uris":{"android":"levelo://app?vid=2c4c3de7-36cc-49ba-89f4-420d8d550649","ios":"levelo://app?vid=2c4c3de7-36cc-49ba-89f4-420d8d550649"},"vehicle_type_id":"4","last_reported":1728479858,"current_range_meters":25600,"station_id":"ce4bhm92rcd13ifvqglg","pricing_plan_id":"cebpf4jnsgd1na2vs0mg"},{"bike_id":"74e9ce9d-9e9f-4c6b-92fb-2f9a88c1f0f4","system_id":"levelo_inurba_marseille","lat":43.24178,"lon":5.36392,"is_reserved":false,"is_disabled":false,"rental_uris":{"android":"levelo://app?vid=74e9ce9d-9e9f-4c6b-92fb-2f9a88c1f0f4","ios":"levelo://app?vid=74e9ce9d-9e9f-4c6b-92fb-2f9a88c1f0f4"},"vehicle_type_id":"4","last_reported":1728479858,"current_range_meters":37600,"station_id":"cpo36qri1sfpv3e86is0","pricing_plan_id":"cebpf4jnsgd1na2vs0mg"},{"bike_id":"e0e108ab-ee50-4adc-9d5a-b4b566283f1a","system_id":"levelo_inurba_marseille","lat":43.2989,"lon":5.38894,"is_reserved":false,"is_disabled":false,"rental_uris":{"android":"levelo://app?vid=e0e108ab-ee50-4adc-9d5a-b4b566283f1a","ios":"levelo://app?vid=e0e108ab-ee50-4adc-9d5a-b4b566283f1a"},"vehicle_type_id":"4","last_reported":1728479858,"current_range_meters":24400,"station_id":"ce4bh392rcd13ifvqdl0","pricing_plan_id":"cebpf4jnsgd1na2vs0mg"},{"bike_id":"792577a6-685a-43bd-bdfe-2ef41696d1e8","system_id":"levelo_inurba_marseille","lat":43.23188,"lon":5.39994,"is_reserved":false,"is_disabled":false,"rental_uris":{"android":"levelo://app?vid=792577a6-685a-43bd-bdfe-2ef41696d1e8","ios":"levelo://app?vid=792577a6-685a-43bd-bdfe-2ef41696d1e8"},"vehicle_type_id":"4","last_reported":1728479858,"current_range_meters":32400,"station_id":"ce4bhn12rcd13ifvqgqg","pricing_plan_id":"cebpf4jnsgd1na2vs0mg"},{"bike_id":"2566bfeb-9088-4de8-8225-f8587d728c8e","system_id":"levelo_inurba_marseille","lat":43.24389,"lon":5.37055,"is_reserved":false,"is_disabled":false,"rental_uris":{"android":"levelo://app?vid=2566bfeb-9088-4de8-8225-f8587d728c8e","ios":"levelo://app?vid=2566bfeb-9088-4de8-8225-f8587d728c8e"},"vehicle_type_id":"4","last_reported":1728479858,"current_range_meters":25600,"station_id":"ce4bhhh2rcd13ifvqfk0","pricing_plan_id":"cebpf4jnsgd1na2vs0mg"},{"bike_id":"2a0d9cd5-ed5d-4dac-ab08-11a2433121e7","system_id":"levelo_inurba_marseille","lat":43.25379,"lon":5.384202,"is_reserved":false,"is_disabled":false,"rental_uris":{"android":"levelo://app?vid=2a0d9cd5-ed5d-4dac-ab08-11a2433121e7","ios":"levelo://app?vid=2a0d9cd5-ed5d-4dac-ab08-11a2433121e7"},"vehicle_type_id":"4","last_reported":1728479858,"current_range_meters":38800,"station_id":"ce4bhgp2rcd13ifvqfd0","pricing_plan_id":"cebpf4jnsgd1na2vs0mg"},{"bike_id":"b54e9ef9-d972-4a51-94db-ff061a7b9a07","system_id":"levelo_inurba_marseille","lat":43.25114,"lon":5.40321,"is_reserved":false,"is_disabled":false,"rental_uris":{"android":"levelo://app?vid=b54e9ef9-d972-4a51-94db-ff061a7b9a07","ios":"levelo://app?vid=b54e9ef9-d972-4a51-94db-ff061a7b9a07"},"vehicle_type_id":"4","last_reported":1728479858,"current_range_meters":12800,"station_id":"ce4bhlh2rcd13ifvqgig","pricing_plan_id":"cebpf4jnsgd1na2vs0mg"},{"bike_id":"8bea543b-214d-40ec-9431-9caab1e0e5b3","system_id":"levelo_inurba_marseille","lat":43.23156,"lon":5.43713,"is_reserved":false,"is_disabled":false,"rental_uris":{"android":"levelo://app?vid=8bea543b-214d-40ec-9431-9caab1e0e5b3","ios":"levelo://app?vid=8bea543b-214d-40ec-9431-9caab1e0e5b3"},"vehicle_type_id":"4","last_reported":1728479858,"current_range_meters":13600,"station_id":"ce4bhmp2rcd13ifvqgog","pricing_plan_id":"cebpf4jnsgd1na2vs0mg"},{"bike_id":"4093053b-c626-4a09-b5e6-1e1f073c548e","system_id":"levelo_inurba_marseille","lat":43.32548,"lon":5.41444,"is_reserved":false,"is_disabled":false,"rental_uris":{"android":"levelo://app?vid=4093053b-c626-4a09-b5e6-1e1f073c548e","ios":"levelo://app?vid=4093053b-c626-4a09-b5e6-1e1f073c548e"},"vehicle_type_id":"4","last_reported":1728479858,"current_range_meters":4000,"station_id":"ce4bhq12rcd13ifvqhhg","pricing_plan_id":"cebpf4jnsgd1na2vs0mg"},{"bike_id":"c8b0f9ec-3371-4835-b214-a1b79f4757b6","system_id":"levelo_inurba_marseille","lat":43.325533,"lon":5.414413,"is_reserved":false,"is_disabled":false,"rental_uris":{"android":"levelo://app?vid=c8b0f9ec-3371-4835-b214-a1b79f4757b6","ios":"levelo://app?vid=c8b0f9ec-3371-4835-b214-a1b79f4757b6"},"vehicle_type_id":"4","last_reported":1728479858,"current_range_meters":21600,"station_id":"ce4bhq12rcd13ifvqhhg","pricing_plan_id":"cebpf4jnsgd1na2vs0mg"},{"bike_id":"ea5635e0-80cb-496e-adfa-0885ec66db1a","system_id":"levelo_inurba_marseille","lat":43.27068,"lon":5.40255,"is_reserved":false,"is_disabled":false,"rental_uris":{"android":"levelo://app?vid=ea5635e0-80cb-496e-adfa-0885ec66db1a","ios":"levelo://app?vid=ea5635e0-80cb-496e-adfa-0885ec66db1a"},"vehicle_type_id":"4","last_reported":1728479858,"current_range_meters":22800,"station_id":"ce4bhk92rcd13ifvqgc0","pricing_plan_id":"cebpf4jnsgd1na2vs0mg"},{"bike_id":"c895b53b-46e8-4e15-8f14-c06e6de792df","system_id":"levelo_inurba_marseille","lat":43.32546,"lon":5.41431,"is_reserved":false,"is_disabled":false,"rental_uris":{"android":"levelo://app?vid=c895b53b-46e8-4e15-8f14-c06e6de792df","ios":"levelo://app?vid=c895b53b-46e8-4e15-8f14-c06e6de792df"},"vehicle_type_id":"4","last_reported":1728479858,"current_range_meters":38800,"station_id":"ce4bhq12rcd13ifvqhhg","pricing_plan_id":"cebpf4jnsgd1na2vs0mg"},{"bike_id":"dc6dc69a-f765-4a50-a9c8-ae9272a6c5ae","system_id":"levelo_inurba_marseille","lat":43.29909,"lon":5.38153,"is_reserved":false,"is_disabled":false,"rental_uris":{"android":"levelo://app?vid=dc6dc69a-f765-4a50-a9c8-ae9272a6c5ae","ios":"levelo://app?vid=dc6dc69a-f765-4a50-a9c8-ae9272a6c5ae"},"vehicle_type_id":"4","last_reported":1728479858,"current_range_meters":34000,"station_id":"ce4bgj12rcd13ifvqbc0","pricing_plan_id":"cebpf4jnsgd1na2vs0mg"},{"bike_id":"8a40eb56-ce24-44ac-99e9-53383819e85a","system_id":"levelo_inurba_marseille","lat":43.30196,"lon":5.36621,"is_reserved":false,"is_disabled":false,"rental_uris":{"android":"levelo://app?vid=8a40eb56-ce24-44ac-99e9-53383819e85a","ios":"levelo://app?vid=8a40eb56-ce24-44ac-99e9-53383819e85a"},"vehicle_type_id":"4","last_reported":1728479858,"current_range_meters":38000,"station_id":"ce4bgrh2rcd13ifvqc8g","pricing_plan_id":"cebpf4jnsgd1na2vs0mg"},{"bike_id":"ac45a0e0-9a70-4810-97dd-a872e45e1a81","system_id":"levelo_inurba_marseille","lat":43.27625,"lon":5.36104,"is_reserved":false,"is_disabled":false,"rental_uris":{"android":"levelo://app?vid=ac45a0e0-9a70-4810-97dd-a872e45e1a81","ios":"levelo://app?vid=ac45a0e0-9a70-4810-97dd-a872e45e1a81"},"vehicle_type_id":"4","last_reported":1728479858,"current_range_meters":17600,"station_id":"ce4bgj92rcd13ifvqbe0","pricing_plan_id":"cebpf4jnsgd1na2vs0mg"},{"bike_id":"67f5c9ce-d342-43bc-a463-b94ab74a1fe0","system_id":"levelo_inurba_marseille","lat":43.33028,"lon":5.39035,"is_reserved":false,"is_disabled":false,"rental_uris":{"android":"levelo://app?vid=67f5c9ce-d342-43bc-a463-b94ab74a1fe0","ios":"levelo://app?vid=67f5c9ce-d342-43bc-a463-b94ab74a1fe0"},"vehicle_type_id":"4","last_reported":1728479858,"current_range_meters":16800,"station_id":"ce4bhr92rcd13ifvqhrg","pricing_plan_id":"cebpf4jnsgd1na2vs0mg"},{"bike_id":"8513be67-a978-4cfc-9563-19285ed6fe5a","system_id":"levelo_inurba_marseille","lat":43.23196,"lon":5.35544,"is_reserved":false,"is_disabled":false,"rental_uris":{"android":"levelo://app?vid=8513be67-a978-4cfc-9563-19285ed6fe5a","ios":"levelo://app?vid=8513be67-a978-4cfc-9563-19285ed6fe5a"},"vehicle_type_id":"4","last_reported":1728479858,"current_range_meters":12000,"station_id":"ce4bhu92rcd13ifvqi70","pricing_plan_id":"cebpf4jnsgd1na2vs0mg"},{"bike_id":"930e9a6a-ce27-4dc1-b41b-09b8406a6c3b","system_id":"levelo_inurba_marseille","lat":43.24906,"lon":5.40884,"is_reserved":false,"is_disabled":false,"rental_uris":{"android":"levelo://app?vid=930e9a6a-ce27-4dc1-b41b-09b8406a6c3b","ios":"levelo://app?vid=930e9a6a-ce27-4dc1-b41b-09b8406a6c3b"},"vehicle_type_id":"4","last_reported":1728479858,"current_range_meters":3200,"station_id":"","pricing_plan_id":"cebpf4jnsgd1na2vs0mg"},{"bike_id":"d8cb6b90-b705-4514-9ba6-b97731c0c613","system_id":"levelo_inurba_marseille","lat":43.25085,"lon":5.39508,"is_reserved":false,"is_disabled":false,"rental_uris":{"android":"levelo://app?vid=d8cb6b90-b705-4514-9ba6-b97731c0c613","ios":"levelo://app?vid=d8cb6b90-b705-4514-9ba6-b97731c0c613"},"vehicle_type_id":"4","last_reported":1728479858,"current_range_meters":24000,"station_id":"ce4bhm12rcd13ifvqgkg","pricing_plan_id":"cebpf4jnsgd1na2vs0mg"},{"bike_id":"c65ae82e-6371-4506-ac29-dc9e1eccf47a","system_id":"levelo_inurba_marseille","lat":43.32027,"lon":5.41573,"is_reserved":false,"is_disabled":false,"rental_uris":{"android":"levelo://app?vid=c65ae82e-6371-4506-ac29-dc9e1eccf47a","ios":"levelo://app?vid=c65ae82e-6371-4506-ac29-dc9e1eccf47a"},"vehicle_type_id":"4","last_reported":1728479858,"current_range_meters":19200,"station_id":"ce4bhq92rcd13ifvqhkg","pricing_plan_id":"cebpf4jnsgd1na2vs0mg"},{"bike_id":"efbb93df-7e27-45e4-9d11-caf8bd064015","system_id":"levelo_inurba_marseille","lat":43.29054,"lon":5.35896,"is_reserved":false,"is_disabled":false,"rental_uris":{"android":"levelo://app?vid=efbb93df-7e27-45e4-9d11-caf8bd064015","ios":"levelo://app?vid=efbb93df-7e27-45e4-9d11-caf8bd064015"},"vehicle_type_id":"4","last_reported":1728479858,"current_range_meters":33600,"station_id":"ce4bha92rcd13ifvqeg0","pricing_plan_id":"cebpf4jnsgd1na2vs0mg"},{"bike_id":"7231eb34-919a-43e0-b6d1-0c3784efe33d","system_id":"levelo_inurba_marseille","lat":43.27954,"lon":5.41041,"is_reserved":false,"is_disabled":false,"rental_uris":{"android":"levelo://app?vid=7231eb34-919a-43e0-b6d1-0c3784efe33d","ios":"levelo://app?vid=7231eb34-919a-43e0-b6d1-0c3784efe33d"},"vehicle_type_id":"4","last_reported":1728479858,"current_range_meters":4800,"station_id":"ce4bhnp2rcd13ifvqh0g","pricing_plan_id":"cebpf4jnsgd1na2vs0mg"},{"bike_id":"922252e8-02c2-4987-8eed-1d6d69073568","system_id":"levelo_inurba_marseille","lat":43.26686,"lon":5.38265,"is_reserved":false,"is_disabled":false,"rental_uris":{"android":"levelo://app?vid=922252e8-02c2-4987-8eed-1d6d69073568","ios":"levelo://app?vid=922252e8-02c2-4987-8eed-1d6d69073568"},"vehicle_type_id":"4","last_reported":1728479858,"current_range_meters":32000,"station_id":"ce4bhg92rcd13ifvqf90","pricing_plan_id":"cebpf4jnsgd1na2vs0mg"},{"bike_id":"c283bee0-b392-40e1-b183-58fab03c3b3d","system_id":"levelo_inurba_marseille","lat":43.28419,"lon":5.34973,"is_reserved":false,"is_disabled":false,"rental_uris":{"android":"levelo://app?vid=c283bee0-b392-40e1-b183-58fab03c3b3d","ios":"levelo://app?vid=c283bee0-b392-40e1-b183-58fab03c3b3d"},"vehicle_type_id":"4","last_reported":1728479858,"current_range_meters":20400,"station_id":"ce4bhbh2rcd13ifvqepg","pricing_plan_id":"cebpf4jnsgd1na2vs0mg"},{"bike_id":"601ff526-4c64-4aac-b2e3-ffd6c4b0f650","system_id":"levelo_inurba_marseille","lat":43.29601,"lon":5.37695,"is_reserved":false,"is_disabled":false,"rental_uris":{"android":"levelo://app?vid=601ff526-4c64-4aac-b2e3-ffd6c4b0f650","ios":"levelo://app?vid=601ff526-4c64-4aac-b2e3-ffd6c4b0f650"},"vehicle_type_id":"4","last_reported":1728479858,"current_range_meters":20800,"station_id":"ce4bgi92rcd13ifvqb90","pricing_plan_id":"cebpf4jnsgd1na2vs0mg"},{"bike_id":"a6b3d3c3-66cf-4ef9-93fa-38e21f9a6c77","system_id":"levelo_inurba_marseille","lat":43.26683,"lon":5.3827,"is_reserved":false,"is_disabled":false,"rental_uris":{"android":"levelo://app?vid=a6b3d3c3-66cf-4ef9-93fa-38e21f9a6c77","ios":"levelo://app?vid=a6b3d3c3-66cf-4ef9-93fa-38e21f9a6c77"},"vehicle_type_id":"4","last_reported":1728479858,"current_range_meters":38800,"station_id":"ce4bhg92rcd13ifvqf90","pricing_plan_id":"cebpf4jnsgd1na2vs0mg"},{"bike_id":"3ba0acd7-cf5a-4e20-80c8-5b6706eb167d","system_id":"levelo_inurba_marseille","lat":43.28434,"lon":5.3918,"is_reserved":false,"is_disabled":false,"rental_uris":{"android":"levelo://app?vid=3ba0acd7-cf5a-4e20-80c8-5b6706eb167d","ios":"levelo://app?vid=3ba0acd7-cf5a-4e20-80c8-5b6706eb167d"},"vehicle_type_id":"4","last_reported":1728479858,"current_range_meters":40000,"station_id":"ce4bhoh2rcd13ifvqh5g","pricing_plan_id":"cebpf4jnsgd1na2vs0mg"},{"bike_id":"9993826a-0660-4bbd-88cf-59ca5a41212a","system_id":"levelo_inurba_marseille","lat":43.30264,"lon":5.37704,"is_reserved":false,"is_disabled":false,"rental_uris":{"android":"levelo://app?vid=9993826a-0660-4bbd-88cf-59ca5a41212a","ios":"levelo://app?vid=9993826a-0660-4bbd-88cf-59ca5a41212a"},"vehicle_type_id":"4","last_reported":1728479858,"current_range_meters":38000,"station_id":"ce4bguh2rcd13ifvqcj0","pricing_plan_id":"cebpf4jnsgd1na2vs0mg"},{"bike_id":"19c4d656-fd32-4469-808a-5c326631fe33","system_id":"levelo_inurba_marseille","lat":43.3014,"lon":5.38059,"is_reserved":false,"is_disabled":false,"rental_uris":{"android":"levelo://app?vid=19c4d656-fd32-4469-808a-5c326631fe33","ios":"levelo://app?vid=19c4d656-fd32-4469-808a-5c326631fe33"},"vehicle_type_id":"4","last_reported":1728479858,"current_range_meters":12400,"station_id":"ce4bgjp2rcd13ifvqbh0","pricing_plan_id":"cebpf4jnsgd1na2vs0mg"},{"bike_id":"321ff2c6-cc16-4857-84cd-6f10af9a2a6d","system_id":"levelo_inurba_marseille","lat":43.317505,"lon":5.390154,"is_reserved":false,"is_disabled":false,"rental_uris":{"android":"levelo://app?vid=321ff2c6-cc16-4857-84cd-6f10af9a2a6d","ios":"levelo://app?vid=321ff2c6-cc16-4857-84cd-6f10af9a2a6d"},"vehicle_type_id":"4","last_reported":1728479858,"current_range_meters":11600,"station_id":"ce4bhqp2rcd13ifvqhng","pricing_plan_id":"cebpf4jnsgd1na2vs0mg"},{"bike_id":"abdeb7b7-9443-4a2e-90f2-c4f781442d2e","system_id":"levelo_inurba_marseille","lat":43.29902,"lon":5.43657,"is_reserved":false,"is_disabled":false,"rental_uris":{"android":"levelo://app?vid=abdeb7b7-9443-4a2e-90f2-c4f781442d2e","ios":"levelo://app?vid=abdeb7b7-9443-4a2e-90f2-c4f781442d2e"},"vehicle_type_id":"4","last_reported":1728479858,"current_range_meters":16000,"station_id":"ce4bhpp2rcd13ifvqhfg","pricing_plan_id":"cebpf4jnsgd1na2vs0mg"},{"bike_id":"64d235d4-e870-48fd-b837-fbb00d535c47","system_id":"levelo_inurba_marseille","lat":43.29975,"lon":5.38484,"is_reserved":false,"is_disabled":false,"rental_uris":{"android":"levelo://app?vid=64d235d4-e870-48fd-b837-fbb00d535c47","ios":"levelo://app?vid=64d235d4-e870-48fd-b837-fbb00d535c47"},"vehicle_type_id":"4","last_reported":1728479858,"current_range_meters":24000,"station_id":"ce4bgj92rcd13ifvqbd0","pricing_plan_id":"cebpf4jnsgd1na2vs0mg"},{"bike_id":"8a405849-d973-4018-a65b-2ee3923b0092","system_id":"levelo_inurba_marseille","lat":43.32473,"lon":5.36573,"is_reserved":false,"is_disabled":false,"rental_uris":{"android":"levelo://app?vid=8a405849-d973-4018-a65b-2ee3923b0092","ios":"levelo://app?vid=8a405849-d973-4018-a65b-2ee3923b0092"},"vehicle_type_id":"4","last_reported":1728479858,"current_range_meters":15200,"station_id":"ce4bhs12rcd13ifvqhvg","pricing_plan_id":"cebpf4jnsgd1na2vs0mg"},{"bike_id":"d38dd870-fb35-4ebe-8242-7b8d175eed8b","system_id":"levelo_inurba_marseille","lat":43.32275,"lon":5.40656,"is_reserved":false,"is_disabled":false,"rental_uris":{"android":"levelo://app?vid=d38dd870-fb35-4ebe-8242-7b8d175eed8b","ios":"levelo://app?vid=d38dd870-fb35-4ebe-8242-7b8d175eed8b"},"vehicle_type_id":"4","last_reported":1728479858,"current_range_meters":11200,"station_id":"","pricing_plan_id":"cebpf4jnsgd1na2vs0mg"},{"bike_id":"96188103-6827-458e-99c4-2ebb31205912","system_id":"levelo_inurba_marseille","lat":43.28716,"lon":5.37935,"is_reserved":false,"is_disabled":false,"rental_uris":{"android":"levelo://app?vid=96188103-6827-458e-99c4-2ebb31205912","ios":"levelo://app?vid=96188103-6827-458e-99c4-2ebb31205912"},"vehicle_type_id":"4","last_reported":1728479858,"current_range_meters":11200,"station_id":"ce4bh9p2rcd13ifvqec0","pricing_plan_id":"cebpf4jnsgd1na2vs0mg"},{"bike_id":"c0aec3d1-48c9-4433-a550-08e66cf083db","system_id":"levelo_inurba_marseille","lat":43.26804,"lon":5.40267,"is_reserved":false,"is_disabled":false,"rental_uris":{"android":"levelo://app?vid=c0aec3d1-48c9-4433-a550-08e66cf083db","ios":"levelo://app?vid=c0aec3d1-48c9-4433-a550-08e66cf083db"},"vehicle_type_id":"4","last_reported":1728479858,"current_range_meters":8000,"station_id":"ce501612rcd8frsf0b60","pricing_plan_id":"cebpf4jnsgd1na2vs0mg"},{"bike_id":"0d4be6cf-75c2-4167-aeb1-0ab484b31dc8","system_id":"levelo_inurba_marseille","lat":43.299343,"lon":5.365387,"is_reserved":false,"is_disabled":false,"rental_uris":{"android":"levelo://app?vid=0d4be6cf-75c2-4167-aeb1-0ab484b31dc8","ios":"levelo://app?vid=0d4be6cf-75c2-4167-aeb1-0ab484b31dc8"},"vehicle_type_id":"4","last_reported":1728479858,"current_range_meters":36400,"station_id":"ce4bgm92rcd13ifvqbr0","pricing_plan_id":"cebpf4jnsgd1na2vs0mg"},{"bike_id":"1ff36ab3-6e4c-45e9-bccd-effa91cda4e3","system_id":"levelo_inurba_marseille","lat":43.28457,"lon":5.35881,"is_reserved":false,"is_disabled":false,"rental_uris":{"android":"levelo://app?vid=1ff36ab3-6e4c-45e9-bccd-effa91cda4e3","ios":"levelo://app?vid=1ff36ab3-6e4c-45e9-bccd-effa91cda4e3"},"vehicle_type_id":"4","last_reported":1728479858,"current_range_meters":8800,"station_id":"ce4bhah2rcd13ifvqei0","pricing_plan_id":"cebpf4jnsgd1na2vs0mg"},{"bike_id":"7d7a792c-b09d-41ed-b0a7-82f6935e3e14","system_id":"levelo_inurba_marseille","lat":43.26938,"lon":5.40256,"is_reserved":false,"is_disabled":false,"rental_uris":{"android":"levelo://app?vid=7d7a792c-b09d-41ed-b0a7-82f6935e3e14","ios":"levelo://app?vid=7d7a792c-b09d-41ed-b0a7-82f6935e3e14"},"vehicle_type_id":"4","last_reported":1728479858,"current_range_meters":38400,"station_id":"cjm6bp8fraef2m0cb0m0","pricing_plan_id":"cebpf4jnsgd1na2vs0mg"},{"bike_id":"3149796e-1be1-4e9f-8c36-3a378637d985","system_id":"levelo_inurba_marseille","lat":43.24807,"lon":5.37452,"is_reserved":false,"is_disabled":false,"rental_uris":{"android":"levelo://app?vid=3149796e-1be1-4e9f-8c36-3a378637d985","ios":"levelo://app?vid=3149796e-1be1-4e9f-8c36-3a378637d985"},"vehicle_type_id":"4","last_reported":1728479858,"current_range_meters":9200,"station_id":"ce4bhgh2rcd13ifvqfb0","pricing_plan_id":"cebpf4jnsgd1na2vs0mg"},{"bike_id":"16d7894a-6a5e-46f2-96f5-650c1157a01a","system_id":"levelo_inurba_marseille","lat":43.29783,"lon":5.37107,"is_reserved":false,"is_disabled":false,"rental_uris":{"android":"levelo://app?vid=16d7894a-6a5e-46f2-96f5-650c1157a01a","ios":"levelo://app?vid=16d7894a-6a5e-46f2-96f5-650c1157a01a"},"vehicle_type_id":"4","last_reported":1728479858,"current_range_meters":9200,"station_id":"ce4bgop2rcd13ifvqc1g","pricing_plan_id":"cebpf4jnsgd1na2vs0mg"},{"bike_id":"0796fc03-cedd-4668-8767-ff9d83360f15","system_id":"levelo_inurba_marseille","lat":43.27625,"lon":5.36106,"is_reserved":false,"is_disabled":false,"rental_uris":{"android":"levelo://app?vid=0796fc03-cedd-4668-8767-ff9d83360f15","ios":"levelo://app?vid=0796fc03-cedd-4668-8767-ff9d83360f15"},"vehicle_type_id":"4","last_reported":1728479858,"current_range_meters":27200,"station_id":"ce4bgj92rcd13ifvqbe0","pricing_plan_id":"cebpf4jnsgd1na2vs0mg"},{"bike_id":"45051c07-a864-41b8-be9f-d6bc8c6d0047","system_id":"levelo_inurba_marseille","lat":43.23151,"lon":5.4372,"is_reserved":false,"is_disabled":false,"rental_uris":{"android":"levelo://app?vid=45051c07-a864-41b8-be9f-d6bc8c6d0047","ios":"levelo://app?vid=45051c07-a864-41b8-be9f-d6bc8c6d0047"},"vehicle_type_id":"4","last_reported":1728479858,"current_range_meters":30400,"station_id":"ce4bhmp2rcd13ifvqgog","pricing_plan_id":"cebpf4jnsgd1na2vs0mg"},{"bike_id":"88a5f119-b850-4816-867b-7247aedcee98","system_id":"levelo_inurba_marseille","lat":43.29622,"lon":5.3771,"is_reserved":false,"is_disabled":false,"rental_uris":{"android":"levelo://app?vid=88a5f119-b850-4816-867b-7247aedcee98","ios":"levelo://app?vid=88a5f119-b850-4816-867b-7247aedcee98"},"vehicle_type_id":"4","last_reported":1728479858,"current_range_meters":29600,"station_id":"ce4bgi92rcd13ifvqb90","pricing_plan_id":"cebpf4jnsgd1na2vs0mg"},{"bike_id":"e49c4924-e52e-443c-a1ad-c02f50dd7628","system_id":"levelo_inurba_marseille","lat":43.27945,"lon":5.41032,"is_reserved":false,"is_disabled":false,"rental_uris":{"android":"levelo://app?vid=e49c4924-e52e-443c-a1ad-c02f50dd7628","ios":"levelo://app?vid=e49c4924-e52e-443c-a1ad-c02f50dd7628"},"vehicle_type_id":"4","last_reported":1728479858,"current_range_meters":2000,"station_id":"ce4bhnp2rcd13ifvqh0g","pricing_plan_id":"cebpf4jnsgd1na2vs0mg"},{"bike_id":"fa49a0a8-62e4-41ea-9ead-de4005e97fff","system_id":"levelo_inurba_marseille","lat":43.23195,"lon":5.35556,"is_reserved":false,"is_disabled":false,"rental_uris":{"android":"levelo://app?vid=fa49a0a8-62e4-41ea-9ead-de4005e97fff","ios":"levelo://app?vid=fa49a0a8-62e4-41ea-9ead-de4005e97fff"},"vehicle_type_id":"4","last_reported":1728479858,"current_range_meters":2800,"station_id":"ce4bhu92rcd13ifvqi70","pricing_plan_id":"cebpf4jnsgd1na2vs0mg"},{"bike_id":"a2669f3a-b54e-4fbb-9b92-5c5cfb930d28","system_id":"levelo_inurba_marseille","lat":43.25931,"lon":5.409,"is_reserved":false,"is_disabled":false,"rental_uris":{"android":"levelo://app?vid=a2669f3a-b54e-4fbb-9b92-5c5cfb930d28","ios":"levelo://app?vid=a2669f3a-b54e-4fbb-9b92-5c5cfb930d28"},"vehicle_type_id":"4","last_reported":1728479858,"current_range_meters":25600,"station_id":"ce4bhm92rcd13ifvqglg","pricing_plan_id":"cebpf4jnsgd1na2vs0mg"},{"bike_id":"62930a7f-74ee-49d2-82a3-62a466b84fb0","system_id":"levelo_inurba_marseille","lat":43.32713,"lon":5.38338,"is_reserved":false,"is_disabled":false,"rental_uris":{"android":"levelo://app?vid=62930a7f-74ee-49d2-82a3-62a466b84fb0","ios":"levelo://app?vid=62930a7f-74ee-49d2-82a3-62a466b84fb0"},"vehicle_type_id":"4","last_reported":1728479858,"current_range_meters":8400,"station_id":"","pricing_plan_id":"cebpf4jnsgd1na2vs0mg"},{"bike_id":"32a47555-5b90-4e71-acec-5d7469e9cc0c","system_id":"levelo_inurba_marseille","lat":43.3249,"lon":5.3656,"is_reserved":false,"is_disabled":false,"rental_uris":{"android":"levelo://app?vid=32a47555-5b90-4e71-acec-5d7469e9cc0c","ios":"levelo://app?vid=32a47555-5b90-4e71-acec-5d7469e9cc0c"},"vehicle_type_id":"4","last_reported":1728479858,"current_range_meters":40000,"station_id":"ce4bhs12rcd13ifvqhvg","pricing_plan_id":"cebpf4jnsgd1na2vs0mg"},{"bike_id":"90085373-0aeb-4ec1-80a2-88ea15d88c2b","system_id":"levelo_inurba_marseille","lat":43.30606,"lon":5.37216,"is_reserved":false,"is_disabled":false,"rental_uris":{"android":"levelo://app?vid=90085373-0aeb-4ec1-80a2-88ea15d88c2b","ios":"levelo://app?vid=90085373-0aeb-4ec1-80a2-88ea15d88c2b"},"vehicle_type_id":"4","last_reported":1728479858,"current_range_meters":5600,"station_id":"ce4bgqh2rcd13ifvqc4g","pricing_plan_id":"cebpf4jnsgd1na2vs0mg"},{"bike_id":"d90712d7-c141-4692-95f9-dd71034a00eb","system_id":"levelo_inurba_marseille","lat":43.29842,"lon":5.36268,"is_reserved":false,"is_disabled":false,"rental_uris":{"android":"levelo://app?vid=d90712d7-c141-4692-95f9-dd71034a00eb","ios":"levelo://app?vid=d90712d7-c141-4692-95f9-dd71034a00eb"},"vehicle_type_id":"4","last_reported":1728479858,"current_range_meters":22000,"station_id":"ce4bgpp2rcd13ifvqc3g","pricing_plan_id":"cebpf4jnsgd1na2vs0mg"},{"bike_id":"6052bbae-af22-42ff-8f6e-595e17cf0c42","system_id":"levelo_inurba_marseille","lat":43.34151,"lon":5.40895,"is_reserved":false,"is_disabled":false,"rental_uris":{"android":"levelo://app?vid=6052bbae-af22-42ff-8f6e-595e17cf0c42","ios":"levelo://app?vid=6052bbae-af22-42ff-8f6e-595e17cf0c42"},"vehicle_type_id":"4","last_reported":1728479858,"current_range_meters":24400,"station_id":"ce4bhqh2rcd13ifvqhlg","pricing_plan_id":"cebpf4jnsgd1na2vs0mg"},{"bike_id":"e24b9641-1917-43a5-aada-feca225b2098","system_id":"levelo_inurba_marseille","lat":43.29623,"lon":5.37142,"is_reserved":false,"is_disabled":false,"rental_uris":{"android":"levelo://app?vid=e24b9641-1917-43a5-aada-feca225b2098","ios":"levelo://app?vid=e24b9641-1917-43a5-aada-feca225b2098"},"vehicle_type_id":"4","last_reported":1728479858,"current_range_meters":37600,"station_id":"ce4bgnh2rcd13ifvqc0g","pricing_plan_id":"cebpf4jnsgd1na2vs0mg"},{"bike_id":"30e77985-f321-4428-b8ef-345622c0855d","system_id":"levelo_inurba_marseille","lat":43.274951,"lon":5.424466,"is_reserved":false,"is_disabled":false,"rental_uris":{"android":"levelo://app?vid=30e77985-f321-4428-b8ef-345622c0855d","ios":"levelo://app?vid=30e77985-f321-4428-b8ef-345622c0855d"},"vehicle_type_id":"4","last_reported":1728479858,"current_range_meters":12800,"station_id":"ce4bhn92rcd13ifvqgrg","pricing_plan_id":"cebpf4jnsgd1na2vs0mg"},{"bike_id":"70579604-fe31-4626-8ce5-732c300fd65a","system_id":"levelo_inurba_marseille","lat":43.29928,"lon":5.36532,"is_reserved":false,"is_disabled":false,"rental_uris":{"android":"levelo://app?vid=70579604-fe31-4626-8ce5-732c300fd65a","ios":"levelo://app?vid=70579604-fe31-4626-8ce5-732c300fd65a"},"vehicle_type_id":"4","last_reported":1728479858,"current_range_meters":8400,"station_id":"ce4bgm92rcd13ifvqbr0","pricing_plan_id":"cebpf4jnsgd1na2vs0mg"},{"bike_id":"dbc7ac39-d091-40f6-b363-24616b7a4d92","system_id":"levelo_inurba_marseille","lat":43.27059,"lon":5.4026,"is_reserved":false,"is_disabled":false,"rental_uris":{"android":"levelo://app?vid=dbc7ac39-d091-40f6-b363-24616b7a4d92","ios":"levelo://app?vid=dbc7ac39-d091-40f6-b363-24616b7a4d92"},"vehicle_type_id":"4","last_reported":1728479858,"current_range_meters":22400,"station_id":"ce4bhk92rcd13ifvqgc0","pricing_plan_id":"cebpf4jnsgd1na2vs0mg"},{"bike_id":"c6a7a19f-0c7b-4ac1-b5ba-1ab7106c241f","system_id":"levelo_inurba_marseille","lat":43.24657,"lon":5.38893,"is_reserved":false,"is_disabled":false,"rental_uris":{"android":"levelo://app?vid=c6a7a19f-0c7b-4ac1-b5ba-1ab7106c241f","ios":"levelo://app?vid=c6a7a19f-0c7b-4ac1-b5ba-1ab7106c241f"},"vehicle_type_id":"4","last_reported":1728479858,"current_range_meters":9600,"station_id":"ce4bhg12rcd13ifvqf60","pricing_plan_id":"cebpf4jnsgd1na2vs0mg"},{"bike_id":"eb4f00f7-c42d-47c4-8043-05a2ffe1c6d8","system_id":"levelo_inurba_marseille","lat":43.306488,"lon":5.401011,"is_reserved":false,"is_disabled":false,"rental_uris":{"android":"levelo://app?vid=eb4f00f7-c42d-47c4-8043-05a2ffe1c6d8","ios":"levelo://app?vid=eb4f00f7-c42d-47c4-8043-05a2ffe1c6d8"},"vehicle_type_id":"4","last_reported":1728479858,"current_range_meters":35600,"station_id":"ce4bh112rcd13ifvqda0","pricing_plan_id":"cebpf4jnsgd1na2vs0mg"},{"bike_id":"baba3ddf-e747-4095-9a9c-078163c7026f","system_id":"levelo_inurba_marseille","lat":43.25932,"lon":5.40904,"is_reserved":false,"is_disabled":false,"rental_uris":{"android":"levelo://app?vid=baba3ddf-e747-4095-9a9c-078163c7026f","ios":"levelo://app?vid=baba3ddf-e747-4095-9a9c-078163c7026f"},"vehicle_type_id":"4","last_reported":1728479858,"current_range_meters":6000,"station_id":"ce4bhm92rcd13ifvqglg","pricing_plan_id":"cebpf4jnsgd1na2vs0mg"},{"bike_id":"6217f0d4-29aa-4911-a3f9-c02e45328700","system_id":"levelo_inurba_marseille","lat":43.23202,"lon":5.35548,"is_reserved":false,"is_disabled":false,"rental_uris":{"android":"levelo://app?vid=6217f0d4-29aa-4911-a3f9-c02e45328700","ios":"levelo://app?vid=6217f0d4-29aa-4911-a3f9-c02e45328700"},"vehicle_type_id":"4","last_reported":1728479858,"current_range_meters":32400,"station_id":"ce4bhu92rcd13ifvqi70","pricing_plan_id":"cebpf4jnsgd1na2vs0mg"},{"bike_id":"46085c91-dea8-4875-b545-657baad45de1","system_id":"levelo_inurba_marseille","lat":43.25865,"lon":5.39893,"is_reserved":false,"is_disabled":false,"rental_uris":{"android":"levelo://app?vid=46085c91-dea8-4875-b545-657baad45de1","ios":"levelo://app?vid=46085c91-dea8-4875-b545-657baad45de1"},"vehicle_type_id":"4","last_reported":1728479858,"current_range_meters":25600,"station_id":"ce4bhl92rcd13ifvqghg","pricing_plan_id":"cebpf4jnsgd1na2vs0mg"},{"bike_id":"bf5069c2-67d2-47d0-b55e-132096c40e8e","system_id":"levelo_inurba_marseille","lat":43.30947,"lon":5.39034,"is_reserved":false,"is_disabled":false,"rental_uris":{"android":"levelo://app?vid=bf5069c2-67d2-47d0-b55e-132096c40e8e","ios":"levelo://app?vid=bf5069c2-67d2-47d0-b55e-132096c40e8e"},"vehicle_type_id":"4","last_reported":1728479858,"current_range_meters":12400,"station_id":"ce4bgup2rcd13ifvqco0","pricing_plan_id":"cebpf4jnsgd1na2vs0mg"},{"bike_id":"9d3935c4-e49c-4d7a-9332-1bd57798c7ac","system_id":"levelo_inurba_marseille","lat":43.26944,"lon":5.40254,"is_reserved":false,"is_disabled":false,"rental_uris":{"android":"levelo://app?vid=9d3935c4-e49c-4d7a-9332-1bd57798c7ac","ios":"levelo://app?vid=9d3935c4-e49c-4d7a-9332-1bd57798c7ac"},"vehicle_type_id":"4","last_reported":1728479858,"current_range_meters":40000,"station_id":"cjm6bp8fraef2m0cb0m0","pricing_plan_id":"cebpf4jnsgd1na2vs0mg"},{"bike_id":"fde7cf76-2bbb-462c-878e-7256af82b32b","system_id":"levelo_inurba_marseille","lat":43.23197,"lon":5.35546,"is_reserved":false,"is_disabled":false,"rental_uris":{"android":"levelo://app?vid=fde7cf76-2bbb-462c-878e-7256af82b32b","ios":"levelo://app?vid=fde7cf76-2bbb-462c-878e-7256af82b32b"},"vehicle_type_id":"4","last_reported":1728479858,"current_range_meters":38800,"station_id":"ce4bhu92rcd13ifvqi70","pricing_plan_id":"cebpf4jnsgd1na2vs0mg"},{"bike_id":"54602502-4a4c-4e60-9d75-4e528dd80298","system_id":"levelo_inurba_marseille","lat":43.29978,"lon":5.38492,"is_reserved":false,"is_disabled":false,"rental_uris":{"android":"levelo://app?vid=54602502-4a4c-4e60-9d75-4e528dd80298","ios":"levelo://app?vid=54602502-4a4c-4e60-9d75-4e528dd80298"},"vehicle_type_id":"4","last_reported":1728479858,"current_range_meters":38400,"station_id":"ce4bgj92rcd13ifvqbd0","pricing_plan_id":"cebpf4jnsgd1na2vs0mg"},{"bike_id":"3167695e-aa02-4782-8c6f-0b9eadf19105","system_id":"levelo_inurba_marseille","lat":43.29979,"lon":5.37172,"is_reserved":false,"is_disabled":false,"rental_uris":{"android":"levelo://app?vid=3167695e-aa02-4782-8c6f-0b9eadf19105","ios":"levelo://app?vid=3167695e-aa02-4782-8c6f-0b9eadf19105"},"vehicle_type_id":"4","last_reported":1728479858,"current_range_meters":14000,"station_id":"ce4bgr92rcd13ifvqc7g","pricing_plan_id":"cebpf4jnsgd1na2vs0mg"},{"bike_id":"2b6677d5-7b62-4a07-b6c3-7bf77f5bcd5c","system_id":"levelo_inurba_marseille","lat":43.28446,"lon":5.39185,"is_reserved":false,"is_disabled":false,"rental_uris":{"android":"levelo://app?vid=2b6677d5-7b62-4a07-b6c3-7bf77f5bcd5c","ios":"levelo://app?vid=2b6677d5-7b62-4a07-b6c3-7bf77f5bcd5c"},"vehicle_type_id":"4","last_reported":1728479858,"current_range_meters":37600,"station_id":"ce4bhoh2rcd13ifvqh5g","pricing_plan_id":"cebpf4jnsgd1na2vs0mg"},{"bike_id":"059e6db7-ae36-493a-bf3f-954f60cd5405","system_id":"levelo_inurba_marseille","lat":43.29015,"lon":5.38128,"is_reserved":false,"is_disabled":false,"rental_uris":{"android":"levelo://app?vid=059e6db7-ae36-493a-bf3f-954f60cd5405","ios":"levelo://app?vid=059e6db7-ae36-493a-bf3f-954f60cd5405"},"vehicle_type_id":"4","last_reported":1728479858,"current_range_meters":4000,"station_id":"ce4bh4p2rcd13ifvqe1g","pricing_plan_id":"cebpf4jnsgd1na2vs0mg"},{"bike_id":"8ebaa87f-e11b-4585-bb64-61dc7d74e947","system_id":"levelo_inurba_marseille","lat":43.2587,"lon":5.39899,"is_reserved":false,"is_disabled":false,"rental_uris":{"android":"levelo://app?vid=8ebaa87f-e11b-4585-bb64-61dc7d74e947","ios":"levelo://app?vid=8ebaa87f-e11b-4585-bb64-61dc7d74e947"},"vehicle_type_id":"4","last_reported":1728479858,"current_range_meters":4400,"station_id":"ce4bhl92rcd13ifvqghg","pricing_plan_id":"cebpf4jnsgd1na2vs0mg"},{"bike_id":"864fa0f7-511a-44ad-9ab9-af7de5fd696e","system_id":"levelo_inurba_marseille","lat":43.30872,"lon":5.3962,"is_reserved":false,"is_disabled":false,"rental_uris":{"android":"levelo://app?vid=864fa0f7-511a-44ad-9ab9-af7de5fd696e","ios":"levelo://app?vid=864fa0f7-511a-44ad-9ab9-af7de5fd696e"},"vehicle_type_id":"4","last_reported":1728479858,"current_range_meters":36000,"station_id":"ce4bh012rcd13ifvqcv0","pricing_plan_id":"cebpf4jnsgd1na2vs0mg"},{"bike_id":"9361834a-1392-4419-9448-f235cfa358af","system_id":"levelo_inurba_marseille","lat":43.30538,"lon":5.367,"is_reserved":false,"is_disabled":false,"rental_uris":{"android":"levelo://app?vid=9361834a-1392-4419-9448-f235cfa358af","ios":"levelo://app?vid=9361834a-1392-4419-9448-f235cfa358af"},"vehicle_type_id":"4","last_reported":1728479858,"current_range_meters":32400,"station_id":"ce4bgrp2rcd13ifvqc9g","pricing_plan_id":"cebpf4jnsgd1na2vs0mg"},{"bike_id":"04bb8275-9114-406c-af66-4121c7d2be07","system_id":"levelo_inurba_marseille","lat":43.28617,"lon":5.35103,"is_reserved":false,"is_disabled":false,"rental_uris":{"android":"levelo://app?vid=04bb8275-9114-406c-af66-4121c7d2be07","ios":"levelo://app?vid=04bb8275-9114-406c-af66-4121c7d2be07"},"vehicle_type_id":"4","last_reported":1728479858,"current_range_meters":35600,"station_id":"ce4bhch2rcd13ifvqeug","pricing_plan_id":"cebpf4jnsgd1na2vs0mg"},{"bike_id":"d80bfdf3-f9a5-4093-8b7b-d5ae47861bec","system_id":"levelo_inurba_marseille","lat":43.30802,"lon":5.43519,"is_reserved":false,"is_disabled":false,"rental_uris":{"android":"levelo://app?vid=d80bfdf3-f9a5-4093-8b7b-d5ae47861bec","ios":"levelo://app?vid=d80bfdf3-f9a5-4093-8b7b-d5ae47861bec"},"vehicle_type_id":"4","last_reported":1728479858,"current_range_meters":17200,"station_id":"ce4bhph2rcd13ifvqheg","pricing_plan_id":"cebpf4jnsgd1na2vs0mg"},{"bike_id":"a4dd4fd0-c46e-4873-a5cb-0d69d5c83e4f","system_id":"levelo_inurba_marseille","lat":43.28433,"lon":5.39181,"is_reserved":false,"is_disabled":false,"rental_uris":{"android":"levelo://app?vid=a4dd4fd0-c46e-4873-a5cb-0d69d5c83e4f","ios":"levelo://app?vid=a4dd4fd0-c46e-4873-a5cb-0d69d5c83e4f"},"vehicle_type_id":"4","last_reported":1728479858,"current_range_meters":34800,"station_id":"ce4bhoh2rcd13ifvqh5g","pricing_plan_id":"cebpf4jnsgd1na2vs0mg"},{"bike_id":"2250666e-2423-4ec9-a242-d1f6b184ebc2","system_id":"levelo_inurba_marseille","lat":43.30142,"lon":5.37412,"is_reserved":false,"is_disabled":false,"rental_uris":{"android":"levelo://app?vid=2250666e-2423-4ec9-a242-d1f6b184ebc2","ios":"levelo://app?vid=2250666e-2423-4ec9-a242-d1f6b184ebc2"},"vehicle_type_id":"4","last_reported":1728479858,"current_range_meters":27200,"station_id":"ce4bgs92rcd13ifvqcc0","pricing_plan_id":"cebpf4jnsgd1na2vs0mg"},{"bike_id":"b3e3f652-e848-4392-85d6-4d2242c30d89","system_id":"levelo_inurba_marseille","lat":43.28718,"lon":5.37924,"is_reserved":false,"is_disabled":false,"rental_uris":{"android":"levelo://app?vid=b3e3f652-e848-4392-85d6-4d2242c30d89","ios":"levelo://app?vid=b3e3f652-e848-4392-85d6-4d2242c30d89"},"vehicle_type_id":"4","last_reported":1728479858,"current_range_meters":7200,"station_id":"ce4bh9p2rcd13ifvqec0","pricing_plan_id":"cebpf4jnsgd1na2vs0mg"},{"bike_id":"34eef90e-154f-478d-b455-c13756d8eaaf","system_id":"levelo_inurba_marseille","lat":43.28467,"lon":5.3588,"is_reserved":false,"is_disabled":false,"rental_uris":{"android":"levelo://app?vid=34eef90e-154f-478d-b455-c13756d8eaaf","ios":"levelo://app?vid=34eef90e-154f-478d-b455-c13756d8eaaf"},"vehicle_type_id":"4","last_reported":1728479858,"current_range_meters":5600,"station_id":"ce4bhah2rcd13ifvqei0","pricing_plan_id":"cebpf4jnsgd1na2vs0mg"},{"bike_id":"e9d63d80-714f-412f-9d79-f9b71cc2b9c8","system_id":"levelo_inurba_marseille","lat":43.284397,"lon":5.391967,"is_reserved":false,"is_disabled":false,"rental_uris":{"android":"levelo://app?vid=e9d63d80-714f-412f-9d79-f9b71cc2b9c8","ios":"levelo://app?vid=e9d63d80-714f-412f-9d79-f9b71cc2b9c8"},"vehicle_type_id":"4","last_reported":1728479858,"current_range_meters":8000,"station_id":"ce4bhoh2rcd13ifvqh5g","pricing_plan_id":"cebpf4jnsgd1na2vs0mg"},{"bike_id":"8f195e73-56cf-4dbf-97df-c620bbc300b1","system_id":"levelo_inurba_marseille","lat":43.23157,"lon":5.43703,"is_reserved":false,"is_disabled":false,"rental_uris":{"android":"levelo://app?vid=8f195e73-56cf-4dbf-97df-c620bbc300b1","ios":"levelo://app?vid=8f195e73-56cf-4dbf-97df-c620bbc300b1"},"vehicle_type_id":"4","last_reported":1728479858,"current_range_meters":16400,"station_id":"ce4bhmp2rcd13ifvqgog","pricing_plan_id":"cebpf4jnsgd1na2vs0mg"},{"bike_id":"fbc9901d-046b-4ffa-9b1b-bd94431f72d0","system_id":"levelo_inurba_marseille","lat":43.29909,"lon":5.37471,"is_reserved":false,"is_disabled":false,"rental_uris":{"android":"levelo://app?vid=fbc9901d-046b-4ffa-9b1b-bd94431f72d0","ios":"levelo://app?vid=fbc9901d-046b-4ffa-9b1b-bd94431f72d0"},"vehicle_type_id":"4","last_reported":1728479858,"current_range_meters":38000,"station_id":"ce4bgjh2rcd13ifvqbg0","pricing_plan_id":"cebpf4jnsgd1na2vs0mg"},{"bike_id":"25afecff-8faf-4ca5-beb4-ce74280dcb13","system_id":"levelo_inurba_marseille","lat":43.2319,"lon":5.35541,"is_reserved":false,"is_disabled":false,"rental_uris":{"android":"levelo://app?vid=25afecff-8faf-4ca5-beb4-ce74280dcb13","ios":"levelo://app?vid=25afecff-8faf-4ca5-beb4-ce74280dcb13"},"vehicle_type_id":"4","last_reported":1728479858,"current_range_meters":3200,"station_id":"ce4bhu92rcd13ifvqi70","pricing_plan_id":"cebpf4jnsgd1na2vs0mg"},{"bike_id":"7219fee0-219f-4cfa-8633-b620db7597ae","system_id":"levelo_inurba_marseille","lat":43.29822,"lon":5.37089,"is_reserved":false,"is_disabled":false,"rental_uris":{"android":"levelo://app?vid=7219fee0-219f-4cfa-8633-b620db7597ae","ios":"levelo://app?vid=7219fee0-219f-4cfa-8633-b620db7597ae"},"vehicle_type_id":"4","last_reported":1728479858,"current_range_meters":11200,"station_id":"ce4bgop2rcd13ifvqc1g","pricing_plan_id":"cebpf4jnsgd1na2vs0mg"},{"bike_id":"f91066a1-e8cb-48d4-8373-4e9e845c15f1","system_id":"levelo_inurba_marseille","lat":43.30802,"lon":5.4352,"is_reserved":false,"is_disabled":false,"rental_uris":{"android":"levelo://app?vid=f91066a1-e8cb-48d4-8373-4e9e845c15f1","ios":"levelo://app?vid=f91066a1-e8cb-48d4-8373-4e9e845c15f1"},"vehicle_type_id":"4","last_reported":1728479858,"current_range_meters":9200,"station_id":"ce4bhph2rcd13ifvqheg","pricing_plan_id":"cebpf4jnsgd1na2vs0mg"},{"bike_id":"2dd616b9-9e26-4804-9e66-e211bea1c8f1","system_id":"levelo_inurba_marseille","lat":43.27621,"lon":5.36103,"is_reserved":false,"is_disabled":false,"rental_uris":{"android":"levelo://app?vid=2dd616b9-9e26-4804-9e66-e211bea1c8f1","ios":"levelo://app?vid=2dd616b9-9e26-4804-9e66-e211bea1c8f1"},"vehicle_type_id":"4","last_reported":1728479858,"current_range_meters":30800,"station_id":"ce4bgj92rcd13ifvqbe0","pricing_plan_id":"cebpf4jnsgd1na2vs0mg"},{"bike_id":"9c4a2054-61dd-460f-9bfa-9e7be74f9d66","system_id":"levelo_inurba_marseille","lat":43.29724,"lon":5.37698,"is_reserved":false,"is_disabled":false,"rental_uris":{"android":"levelo://app?vid=9c4a2054-61dd-460f-9bfa-9e7be74f9d66","ios":"levelo://app?vid=9c4a2054-61dd-460f-9bfa-9e7be74f9d66"},"vehicle_type_id":"4","last_reported":1728479858,"current_range_meters":24400,"station_id":"ce4bgkh2rcd13ifvqbl0","pricing_plan_id":"cebpf4jnsgd1na2vs0mg"},{"bike_id":"603932a3-f239-48d4-ae25-bed4575339e1","system_id":"levelo_inurba_marseille","lat":43.32035,"lon":5.41569,"is_reserved":false,"is_disabled":false,"rental_uris":{"android":"levelo://app?vid=603932a3-f239-48d4-ae25-bed4575339e1","ios":"levelo://app?vid=603932a3-f239-48d4-ae25-bed4575339e1"},"vehicle_type_id":"4","last_reported":1728479858,"current_range_meters":35600,"station_id":"ce4bhq92rcd13ifvqhkg","pricing_plan_id":"cebpf4jnsgd1na2vs0mg"},{"bike_id":"d819c6e6-0d15-4623-ab7d-7d4be1f5b1aa","system_id":"levelo_inurba_marseille","lat":43.30539,"lon":5.36522,"is_reserved":false,"is_disabled":false,"rental_uris":{"android":"levelo://app?vid=d819c6e6-0d15-4623-ab7d-7d4be1f5b1aa","ios":"levelo://app?vid=d819c6e6-0d15-4623-ab7d-7d4be1f5b1aa"},"vehicle_type_id":"4","last_reported":1728479858,"current_range_meters":15200,"station_id":"ce4bgs12rcd13ifvqcag","pricing_plan_id":"cebpf4jnsgd1na2vs0mg"},{"bike_id":"003dfcd1-e77c-45f7-bd34-289604a833af","system_id":"levelo_inurba_marseille","lat":43.31715,"lon":5.43704,"is_reserved":false,"is_disabled":false,"rental_uris":{"android":"levelo://app?vid=003dfcd1-e77c-45f7-bd34-289604a833af","ios":"levelo://app?vid=003dfcd1-e77c-45f7-bd34-289604a833af"},"vehicle_type_id":"4","last_reported":1728479858,"current_range_meters":27600,"station_id":"ce4bhp92rcd13ifvqhcg","pricing_plan_id":"cebpf4jnsgd1na2vs0mg"},{"bike_id":"2da6e46e-c4a1-45ae-a363-4743b2ed352c","system_id":"levelo_inurba_marseille","lat":43.23183,"lon":5.35537,"is_reserved":false,"is_disabled":false,"rental_uris":{"android":"levelo://app?vid=2da6e46e-c4a1-45ae-a363-4743b2ed352c","ios":"levelo://app?vid=2da6e46e-c4a1-45ae-a363-4743b2ed352c"},"vehicle_type_id":"4","last_reported":1728479858,"current_range_meters":8000,"station_id":"ce4bhu92rcd13ifvqi70","pricing_plan_id":"cebpf4jnsgd1na2vs0mg"},{"bike_id":"c227984e-8d78-4879-8c2d-00646f783317","system_id":"levelo_inurba_marseille","lat":43.30515,"lon":5.3841,"is_reserved":false,"is_disabled":false,"rental_uris":{"android":"levelo://app?vid=c227984e-8d78-4879-8c2d-00646f783317","ios":"levelo://app?vid=c227984e-8d78-4879-8c2d-00646f783317"},"vehicle_type_id":"4","last_reported":1728479858,"current_range_meters":31200,"station_id":"ce4bgg92rcd13ifvqb30","pricing_plan_id":"cebpf4jnsgd1na2vs0mg"},{"bike_id":"1c0a2ab5-c75b-4c89-b9a7-558116c8f839","system_id":"levelo_inurba_marseille","lat":43.32034,"lon":5.41574,"is_reserved":false,"is_disabled":false,"rental_uris":{"android":"levelo://app?vid=1c0a2ab5-c75b-4c89-b9a7-558116c8f839","ios":"levelo://app?vid=1c0a2ab5-c75b-4c89-b9a7-558116c8f839"},"vehicle_type_id":"4","last_reported":1728479858,"current_range_meters":34800,"station_id":"ce4bhq92rcd13ifvqhkg","pricing_plan_id":"cebpf4jnsgd1na2vs0mg"},{"bike_id":"277380ff-98d7-4b02-9453-5cfff4dd00d4","system_id":"levelo_inurba_marseille","lat":43.3047,"lon":5.3791,"is_reserved":false,"is_disabled":false,"rental_uris":{"android":"levelo://app?vid=277380ff-98d7-4b02-9453-5cfff4dd00d4","ios":"levelo://app?vid=277380ff-98d7-4b02-9453-5cfff4dd00d4"},"vehicle_type_id":"4","last_reported":1728479858,"current_range_meters":18800,"station_id":"ce4bgup2rcd13ifvqcn0","pricing_plan_id":"cebpf4jnsgd1na2vs0mg"},{"bike_id":"e57286d2-2ce6-4ac6-9051-b628db8fc1f3","system_id":"levelo_inurba_marseille","lat":43.28416,"lon":5.34974,"is_reserved":false,"is_disabled":false,"rental_uris":{"android":"levelo://app?vid=e57286d2-2ce6-4ac6-9051-b628db8fc1f3","ios":"levelo://app?vid=e57286d2-2ce6-4ac6-9051-b628db8fc1f3"},"vehicle_type_id":"4","last_reported":1728479858,"current_range_meters":39200,"station_id":"ce4bhbh2rcd13ifvqepg","pricing_plan_id":"cebpf4jnsgd1na2vs0mg"},{"bike_id":"cd5db413-cd84-47e8-8776-565b7138cca3","system_id":"levelo_inurba_marseille","lat":43.32483,"lon":5.36563,"is_reserved":false,"is_disabled":false,"rental_uris":{"android":"levelo://app?vid=cd5db413-cd84-47e8-8776-565b7138cca3","ios":"levelo://app?vid=cd5db413-cd84-47e8-8776-565b7138cca3"},"vehicle_type_id":"4","last_reported":1728479858,"current_range_meters":36800,"station_id":"ce4bhs12rcd13ifvqhvg","pricing_plan_id":"cebpf4jnsgd1na2vs0mg"},{"bike_id":"dfdccf07-aed8-42a7-ac87-5d79dbf2de60","system_id":"levelo_inurba_marseille","lat":43.29719,"lon":5.37701,"is_reserved":false,"is_disabled":false,"rental_uris":{"android":"levelo://app?vid=dfdccf07-aed8-42a7-ac87-5d79dbf2de60","ios":"levelo://app?vid=dfdccf07-aed8-42a7-ac87-5d79dbf2de60"},"vehicle_type_id":"4","last_reported":1728479858,"current_range_meters":28000,"station_id":"ce4bgkh2rcd13ifvqbl0","pricing_plan_id":"cebpf4jnsgd1na2vs0mg"},{"bike_id":"d637a702-dbdd-4f5f-a98c-3814ecd02bd8","system_id":"levelo_inurba_marseille","lat":43.23152,"lon":5.4371,"is_reserved":false,"is_disabled":false,"rental_uris":{"android":"levelo://app?vid=d637a702-dbdd-4f5f-a98c-3814ecd02bd8","ios":"levelo://app?vid=d637a702-dbdd-4f5f-a98c-3814ecd02bd8"},"vehicle_type_id":"4","last_reported":1728479858,"current_range_meters":28800,"station_id":"ce4bhmp2rcd13ifvqgog","pricing_plan_id":"cebpf4jnsgd1na2vs0mg"},{"bike_id":"ad79d8bb-7fd0-42ab-ab7d-314a3b6284b3","system_id":"levelo_inurba_marseille","lat":43.29579,"lon":5.37497,"is_reserved":false,"is_disabled":false,"rental_uris":{"android":"levelo://app?vid=ad79d8bb-7fd0-42ab-ab7d-314a3b6284b3","ios":"levelo://app?vid=ad79d8bb-7fd0-42ab-ab7d-314a3b6284b3"},"vehicle_type_id":"4","last_reported":1728479858,"current_range_meters":24400,"station_id":"ce4bgh92rcd13ifvqb50","pricing_plan_id":"cebpf4jnsgd1na2vs0mg"},{"bike_id":"1b1ce16d-d73f-460e-895e-39a56aae1cce","system_id":"levelo_inurba_marseille","lat":43.29255,"lon":5.40897,"is_reserved":false,"is_disabled":false,"rental_uris":{"android":"levelo://app?vid=1b1ce16d-d73f-460e-895e-39a56aae1cce","ios":"levelo://app?vid=1b1ce16d-d73f-460e-895e-39a56aae1cce"},"vehicle_type_id":"4","last_reported":1728479858,"current_range_meters":11200,"station_id":"ce4bh192rcd13ifvqdc0","pricing_plan_id":"cebpf4jnsgd1na2vs0mg"},{"bike_id":"8d06181a-6075-4139-9696-5ca6c1154ac9","system_id":"levelo_inurba_marseille","lat":43.25822,"lon":5.39426,"is_reserved":false,"is_disabled":false,"rental_uris":{"android":"levelo://app?vid=8d06181a-6075-4139-9696-5ca6c1154ac9","ios":"levelo://app?vid=8d06181a-6075-4139-9696-5ca6c1154ac9"},"vehicle_type_id":"4","last_reported":1728479858,"current_range_meters":20000,"station_id":"ce4bhip2rcd13ifvqft0","pricing_plan_id":"cebpf4jnsgd1na2vs0mg"},{"bike_id":"d91454a3-c4e0-4f18-b97f-6fdf09324c9b","system_id":"levelo_inurba_marseille","lat":43.337444,"lon":5.374475,"is_reserved":false,"is_disabled":false,"rental_uris":{"android":"levelo://app?vid=d91454a3-c4e0-4f18-b97f-6fdf09324c9b","ios":"levelo://app?vid=d91454a3-c4e0-4f18-b97f-6fdf09324c9b"},"vehicle_type_id":"4","last_reported":1728479858,"current_range_meters":14000,"station_id":"ce4rr2p2rcd13i802rgg","pricing_plan_id":"cebpf4jnsgd1na2vs0mg"},{"bike_id":"2d6781a9-e550-4a47-bb4d-63241c36d6a4","system_id":"levelo_inurba_marseille","lat":43.31279,"lon":5.40167,"is_reserved":false,"is_disabled":false,"rental_uris":{"android":"levelo://app?vid=2d6781a9-e550-4a47-bb4d-63241c36d6a4","ios":"levelo://app?vid=2d6781a9-e550-4a47-bb4d-63241c36d6a4"},"vehicle_type_id":"4","last_reported":1728479858,"current_range_meters":17600,"station_id":"ce4bh092rcd13ifvqd30","pricing_plan_id":"cebpf4jnsgd1na2vs0mg"},{"bike_id":"91418eb3-1890-49ea-a820-50f7ad54ba1f","system_id":"levelo_inurba_marseille","lat":43.26553,"lon":5.37284,"is_reserved":false,"is_disabled":false,"rental_uris":{"android":"levelo://app?vid=91418eb3-1890-49ea-a820-50f7ad54ba1f","ios":"levelo://app?vid=91418eb3-1890-49ea-a820-50f7ad54ba1f"},"vehicle_type_id":"4","last_reported":1728479858,"current_range_meters":27600,"station_id":"ce4bhg12rcd13ifvqf70","pricing_plan_id":"cebpf4jnsgd1na2vs0mg"},{"bike_id":"1f1de7b2-8e79-444d-8c6b-4341a62e8db9","system_id":"levelo_inurba_marseille","lat":43.28002,"lon":5.40017,"is_reserved":false,"is_disabled":false,"rental_uris":{"android":"levelo://app?vid=1f1de7b2-8e79-444d-8c6b-4341a62e8db9","ios":"levelo://app?vid=1f1de7b2-8e79-444d-8c6b-4341a62e8db9"},"vehicle_type_id":"4","last_reported":1728479858,"current_range_meters":14000,"station_id":"ce4bho92rcd13ifvqh4g","pricing_plan_id":"cebpf4jnsgd1na2vs0mg"},{"bike_id":"b122d44a-5822-45fd-bef2-bac33a049876","system_id":"levelo_inurba_marseille","lat":43.28701,"lon":5.37381,"is_reserved":false,"is_disabled":false,"rental_uris":{"android":"levelo://app?vid=b122d44a-5822-45fd-bef2-bac33a049876","ios":"levelo://app?vid=b122d44a-5822-45fd-bef2-bac33a049876"},"vehicle_type_id":"4","last_reported":1728479858,"current_range_meters":18000,"station_id":"ce4bh3p2rcd13ifvqdq0","pricing_plan_id":"cebpf4jnsgd1na2vs0mg"},{"bike_id":"31400b79-9bea-4eff-b39d-83eace75e8db","system_id":"levelo_inurba_marseille","lat":43.32541,"lon":5.41436,"is_reserved":false,"is_disabled":false,"rental_uris":{"android":"levelo://app?vid=31400b79-9bea-4eff-b39d-83eace75e8db","ios":"levelo://app?vid=31400b79-9bea-4eff-b39d-83eace75e8db"},"vehicle_type_id":"4","last_reported":1728479858,"current_range_meters":22800,"station_id":"ce4bhq12rcd13ifvqhhg","pricing_plan_id":"cebpf4jnsgd1na2vs0mg"},{"bike_id":"16ba126f-5e6e-4930-90b0-f0a0c42e6d08","system_id":"levelo_inurba_marseille","lat":43.32488,"lon":5.3656,"is_reserved":false,"is_disabled":false,"rental_uris":{"android":"levelo://app?vid=16ba126f-5e6e-4930-90b0-f0a0c42e6d08","ios":"levelo://app?vid=16ba126f-5e6e-4930-90b0-f0a0c42e6d08"},"vehicle_type_id":"4","last_reported":1728479858,"current_range_meters":14800,"station_id":"ce4bhs12rcd13ifvqhvg","pricing_plan_id":"cebpf4jnsgd1na2vs0mg"},{"bike_id":"f7f60def-9458-4908-b6aa-08d70e886f2a","system_id":"levelo_inurba_marseille","lat":43.28715,"lon":5.37927,"is_reserved":false,"is_disabled":false,"rental_uris":{"android":"levelo://app?vid=f7f60def-9458-4908-b6aa-08d70e886f2a","ios":"levelo://app?vid=f7f60def-9458-4908-b6aa-08d70e886f2a"},"vehicle_type_id":"4","last_reported":1728479858,"current_range_meters":30800,"station_id":"ce4bh9p2rcd13ifvqec0","pricing_plan_id":"cebpf4jnsgd1na2vs0mg"},{"bike_id":"f63cf4a2-5fba-4c54-9baa-8b1b4a02004d","system_id":"levelo_inurba_marseille","lat":43.30802,"lon":5.4352,"is_reserved":false,"is_disabled":false,"rental_uris":{"android":"levelo://app?vid=f63cf4a2-5fba-4c54-9baa-8b1b4a02004d","ios":"levelo://app?vid=f63cf4a2-5fba-4c54-9baa-8b1b4a02004d"},"vehicle_type_id":"4","last_reported":1728479858,"current_range_meters":24800,"station_id":"ce4bhph2rcd13ifvqheg","pricing_plan_id":"cebpf4jnsgd1na2vs0mg"},{"bike_id":"981417f7-3650-4686-9c01-f3fca65dc77f","system_id":"levelo_inurba_marseille","lat":43.23069,"lon":5.35494,"is_reserved":false,"is_disabled":false,"rental_uris":{"android":"levelo://app?vid=981417f7-3650-4686-9c01-f3fca65dc77f","ios":"levelo://app?vid=981417f7-3650-4686-9c01-f3fca65dc77f"},"vehicle_type_id":"4","last_reported":1728479858,"current_range_meters":18000,"station_id":"cpo3342slgdg3j2ifvpg","pricing_plan_id":"cebpf4jnsgd1na2vs0mg"},{"bike_id":"657d044b-0adc-4f82-bf17-44a52c018db5","system_id":"levelo_inurba_marseille","lat":43.309265,"lon":5.37883,"is_reserved":false,"is_disabled":false,"rental_uris":{"android":"levelo://app?vid=657d044b-0adc-4f82-bf17-44a52c018db5","ios":"levelo://app?vid=657d044b-0adc-4f82-bf17-44a52c018db5"},"vehicle_type_id":"4","last_reported":1728479858,"current_range_meters":8400,"station_id":"ce4bgg92rcd13ifvqb30","pricing_plan_id":"cebpf4jnsgd1na2vs0mg"},{"bike_id":"3fab305b-1728-4a45-9f4f-fb39052b80d2","system_id":"levelo_inurba_marseille","lat":43.25492,"lon":5.37649,"is_reserved":false,"is_disabled":false,"rental_uris":{"android":"levelo://app?vid=3fab305b-1728-4a45-9f4f-fb39052b80d2","ios":"levelo://app?vid=3fab305b-1728-4a45-9f4f-fb39052b80d2"},"vehicle_type_id":"4","last_reported":1728479858,"current_range_meters":37600,"station_id":"ce4bhh12rcd13ifvqff0","pricing_plan_id":"cebpf4jnsgd1na2vs0mg"},{"bike_id":"db0dffa4-8e05-4cb3-a500-ffacf0585f3c","system_id":"levelo_inurba_marseille","lat":43.30297,"lon":5.3733,"is_reserved":false,"is_disabled":false,"rental_uris":{"android":"levelo://app?vid=db0dffa4-8e05-4cb3-a500-ffacf0585f3c","ios":"levelo://app?vid=db0dffa4-8e05-4cb3-a500-ffacf0585f3c"},"vehicle_type_id":"4","last_reported":1728479858,"current_range_meters":19600,"station_id":"","pricing_plan_id":"cebpf4jnsgd1na2vs0mg"},{"bike_id":"a7fc21fc-96fb-4603-843c-267888a20c03","system_id":"levelo_inurba_marseille","lat":43.30543,"lon":5.36692,"is_reserved":false,"is_disabled":false,"rental_uris":{"android":"levelo://app?vid=a7fc21fc-96fb-4603-843c-267888a20c03","ios":"levelo://app?vid=a7fc21fc-96fb-4603-843c-267888a20c03"},"vehicle_type_id":"4","last_reported":1728479858,"current_range_meters":40000,"station_id":"ce4bgrp2rcd13ifvqc9g","pricing_plan_id":"cebpf4jnsgd1na2vs0mg"},{"bike_id":"6043d035-2a10-4fe1-86c9-2701edda0a11","system_id":"levelo_inurba_marseille","lat":43.24178,"lon":5.37917,"is_reserved":false,"is_disabled":false,"rental_uris":{"android":"levelo://app?vid=6043d035-2a10-4fe1-86c9-2701edda0a11","ios":"levelo://app?vid=6043d035-2a10-4fe1-86c9-2701edda0a11"},"vehicle_type_id":"4","last_reported":1728479858,"current_range_meters":26000,"station_id":"ce4bhnp2rcd13ifvqgvg","pricing_plan_id":"cebpf4jnsgd1na2vs0mg"},{"bike_id":"ede68b2f-f53f-4ad5-a3f5-950bc936b5eb","system_id":"levelo_inurba_marseille","lat":43.33773,"lon":5.37398,"is_reserved":false,"is_disabled":false,"rental_uris":{"android":"levelo://app?vid=ede68b2f-f53f-4ad5-a3f5-950bc936b5eb","ios":"levelo://app?vid=ede68b2f-f53f-4ad5-a3f5-950bc936b5eb"},"vehicle_type_id":"4","last_reported":1728479858,"current_range_meters":33600,"station_id":"","pricing_plan_id":"cebpf4jnsgd1na2vs0mg"},{"bike_id":"5d19a48f-4ecb-4a04-8593-e3ad4a8266a2","system_id":"levelo_inurba_marseille","lat":43.29846,"lon":5.36272,"is_reserved":false,"is_disabled":false,"rental_uris":{"android":"levelo://app?vid=5d19a48f-4ecb-4a04-8593-e3ad4a8266a2","ios":"levelo://app?vid=5d19a48f-4ecb-4a04-8593-e3ad4a8266a2"},"vehicle_type_id":"4","last_reported":1728479858,"current_range_meters":37600,"station_id":"ce4bgpp2rcd13ifvqc3g","pricing_plan_id":"cebpf4jnsgd1na2vs0mg"},{"bike_id":"8e987c29-7cec-464e-98fe-efe413b69153","system_id":"levelo_inurba_marseille","lat":43.29254,"lon":5.40921,"is_reserved":false,"is_disabled":false,"rental_uris":{"android":"levelo://app?vid=8e987c29-7cec-464e-98fe-efe413b69153","ios":"levelo://app?vid=8e987c29-7cec-464e-98fe-efe413b69153"},"vehicle_type_id":"4","last_reported":1728479858,"current_range_meters":28800,"station_id":"ce4bh192rcd13ifvqdc0","pricing_plan_id":"cebpf4jnsgd1na2vs0mg"},{"bike_id":"b9f35de0-0bf3-4bea-bf68-d8893f94426e","system_id":"levelo_inurba_marseille","lat":43.31712,"lon":5.43701,"is_reserved":false,"is_disabled":false,"rental_uris":{"android":"levelo://app?vid=b9f35de0-0bf3-4bea-bf68-d8893f94426e","ios":"levelo://app?vid=b9f35de0-0bf3-4bea-bf68-d8893f94426e"},"vehicle_type_id":"4","last_reported":1728479858,"current_range_meters":37600,"station_id":"ce4bhp92rcd13ifvqhcg","pricing_plan_id":"cebpf4jnsgd1na2vs0mg"},{"bike_id":"92f02590-07bb-4cfa-829f-8bd0dd55de75","system_id":"levelo_inurba_marseille","lat":43.31119,"lon":5.37769,"is_reserved":false,"is_disabled":false,"rental_uris":{"android":"levelo://app?vid=92f02590-07bb-4cfa-829f-8bd0dd55de75","ios":"levelo://app?vid=92f02590-07bb-4cfa-829f-8bd0dd55de75"},"vehicle_type_id":"4","last_reported":1728479858,"current_range_meters":27600,"station_id":"ce4bgt92rcd13ifvqcg0","pricing_plan_id":"cebpf4jnsgd1na2vs0mg"},{"bike_id":"7f179467-f2c0-49e3-a308-ef2b443c7654","system_id":"levelo_inurba_marseille","lat":43.29403,"lon":5.37796,"is_reserved":false,"is_disabled":false,"rental_uris":{"android":"levelo://app?vid=7f179467-f2c0-49e3-a308-ef2b443c7654","ios":"levelo://app?vid=7f179467-f2c0-49e3-a308-ef2b443c7654"},"vehicle_type_id":"4","last_reported":1728479858,"current_range_meters":28400,"station_id":"","pricing_plan_id":"cebpf4jnsgd1na2vs0mg"},{"bike_id":"6e49588b-e9bf-4f4c-8e72-fb15858c96b3","system_id":"levelo_inurba_marseille","lat":43.31121,"lon":5.37779,"is_reserved":false,"is_disabled":false,"rental_uris":{"android":"levelo://app?vid=6e49588b-e9bf-4f4c-8e72-fb15858c96b3","ios":"levelo://app?vid=6e49588b-e9bf-4f4c-8e72-fb15858c96b3"},"vehicle_type_id":"4","last_reported":1728479858,"current_range_meters":22800,"station_id":"ce4bgt92rcd13ifvqcg0","pricing_plan_id":"cebpf4jnsgd1na2vs0mg"},{"bike_id":"810b32d6-b30c-480b-a6ee-5bd54d112eb8","system_id":"levelo_inurba_marseille","lat":43.33749,"lon":5.37442,"is_reserved":false,"is_disabled":false,"rental_uris":{"android":"levelo://app?vid=810b32d6-b30c-480b-a6ee-5bd54d112eb8","ios":"levelo://app?vid=810b32d6-b30c-480b-a6ee-5bd54d112eb8"},"vehicle_type_id":"4","last_reported":1728479858,"current_range_meters":28000,"station_id":"ce4rr2p2rcd13i802rgg","pricing_plan_id":"cebpf4jnsgd1na2vs0mg"},{"bike_id":"998d4f08-ab38-4827-9215-5b73e6ca89ac","system_id":"levelo_inurba_marseille","lat":43.30803,"lon":5.43523,"is_reserved":false,"is_disabled":false,"rental_uris":{"android":"levelo://app?vid=998d4f08-ab38-4827-9215-5b73e6ca89ac","ios":"levelo://app?vid=998d4f08-ab38-4827-9215-5b73e6ca89ac"},"vehicle_type_id":"4","last_reported":1728479858,"current_range_meters":29600,"station_id":"ce4bhph2rcd13ifvqheg","pricing_plan_id":"cebpf4jnsgd1na2vs0mg"},{"bike_id":"94cdcab5-9243-498f-b0e7-e6662102c11c","system_id":"levelo_inurba_marseille","lat":43.28476,"lon":5.38541,"is_reserved":false,"is_disabled":false,"rental_uris":{"android":"levelo://app?vid=94cdcab5-9243-498f-b0e7-e6662102c11c","ios":"levelo://app?vid=94cdcab5-9243-498f-b0e7-e6662102c11c"},"vehicle_type_id":"4","last_reported":1728479858,"current_range_meters":3600,"station_id":"ce4bh8p2rcd13ifvqeb0","pricing_plan_id":"cebpf4jnsgd1na2vs0mg"},{"bike_id":"566f124d-d2dc-44d6-baaa-cd99b0a92098","system_id":"levelo_inurba_marseille","lat":43.23149,"lon":5.43717,"is_reserved":false,"is_disabled":false,"rental_uris":{"android":"levelo://app?vid=566f124d-d2dc-44d6-baaa-cd99b0a92098","ios":"levelo://app?vid=566f124d-d2dc-44d6-baaa-cd99b0a92098"},"vehicle_type_id":"4","last_reported":1728479858,"current_range_meters":38800,"station_id":"ce4bhmp2rcd13ifvqgog","pricing_plan_id":"cebpf4jnsgd1na2vs0mg"},{"bike_id":"a4f84992-35ab-4623-84c9-9f7f2fc0cf9a","system_id":"levelo_inurba_marseille","lat":43.23152,"lon":5.43711,"is_reserved":false,"is_disabled":false,"rental_uris":{"android":"levelo://app?vid=a4f84992-35ab-4623-84c9-9f7f2fc0cf9a","ios":"levelo://app?vid=a4f84992-35ab-4623-84c9-9f7f2fc0cf9a"},"vehicle_type_id":"4","last_reported":1728479858,"current_range_meters":11200,"station_id":"ce4bhmp2rcd13ifvqgog","pricing_plan_id":"cebpf4jnsgd1na2vs0mg"},{"bike_id":"a1333966-6a88-422a-82c6-d4da571e999e","system_id":"levelo_inurba_marseille","lat":43.28434,"lon":5.39184,"is_reserved":false,"is_disabled":false,"rental_uris":{"android":"levelo://app?vid=a1333966-6a88-422a-82c6-d4da571e999e","ios":"levelo://app?vid=a1333966-6a88-422a-82c6-d4da571e999e"},"vehicle_type_id":"4","last_reported":1728479858,"current_range_meters":39200,"station_id":"ce4bhoh2rcd13ifvqh5g","pricing_plan_id":"cebpf4jnsgd1na2vs0mg"},{"bike_id":"62f12335-414f-41bd-90da-c4e3d76fe10d","system_id":"levelo_inurba_marseille","lat":43.29803,"lon":5.40408,"is_reserved":false,"is_disabled":false,"rental_uris":{"android":"levelo://app?vid=62f12335-414f-41bd-90da-c4e3d76fe10d","ios":"levelo://app?vid=62f12335-414f-41bd-90da-c4e3d76fe10d"},"vehicle_type_id":"4","last_reported":1728479858,"current_range_meters":38000,"station_id":"ce4bh112rcd13ifvqd90","pricing_plan_id":"cebpf4jnsgd1na2vs0mg"},{"bike_id":"d96095e4-c924-413a-939d-e8e97cdbb436","system_id":"levelo_inurba_marseille","lat":43.28429,"lon":5.3918,"is_reserved":false,"is_disabled":false,"rental_uris":{"android":"levelo://app?vid=d96095e4-c924-413a-939d-e8e97cdbb436","ios":"levelo://app?vid=d96095e4-c924-413a-939d-e8e97cdbb436"},"vehicle_type_id":"4","last_reported":1728479858,"current_range_meters":4400,"station_id":"ce4bhoh2rcd13ifvqh5g","pricing_plan_id":"cebpf4jnsgd1na2vs0mg"},{"bike_id":"aad49f33-14f2-45dd-a058-84d4eb8d4fd5","system_id":"levelo_inurba_marseille","lat":43.308977,"lon":5.371801,"is_reserved":false,"is_disabled":false,"rental_uris":{"android":"levelo://app?vid=aad49f33-14f2-45dd-a058-84d4eb8d4fd5","ios":"levelo://app?vid=aad49f33-14f2-45dd-a058-84d4eb8d4fd5"},"vehicle_type_id":"4","last_reported":1728479858,"current_range_meters":24800,"station_id":"ce4bguh2rcd13ifvqckg","pricing_plan_id":"cebpf4jnsgd1na2vs0mg"},{"bike_id":"e1a5c79b-b669-4f11-8eb4-af5513c136c6","system_id":"levelo_inurba_marseille","lat":43.30278,"lon":5.377,"is_reserved":false,"is_disabled":false,"rental_uris":{"android":"levelo://app?vid=e1a5c79b-b669-4f11-8eb4-af5513c136c6","ios":"levelo://app?vid=e1a5c79b-b669-4f11-8eb4-af5513c136c6"},"vehicle_type_id":"4","last_reported":1728479858,"current_range_meters":36400,"station_id":"ce4bguh2rcd13ifvqcj0","pricing_plan_id":"cebpf4jnsgd1na2vs0mg"},{"bike_id":"30a123c7-c6aa-4ab8-b6fd-6bb95b77d21e","system_id":"levelo_inurba_marseille","lat":43.337444,"lon":5.374475,"is_reserved":false,"is_disabled":false,"rental_uris":{"android":"levelo://app?vid=30a123c7-c6aa-4ab8-b6fd-6bb95b77d21e","ios":"levelo://app?vid=30a123c7-c6aa-4ab8-b6fd-6bb95b77d21e"},"vehicle_type_id":"4","last_reported":1728479858,"current_range_meters":38400,"station_id":"ce4bgvp2rcd13ifvqcu0","pricing_plan_id":"cebpf4jnsgd1na2vs0mg"},{"bike_id":"f86e2ec4-57ac-4e5b-a0af-16ca32a933ae","system_id":"levelo_inurba_marseille","lat":43.29873,"lon":5.39721,"is_reserved":false,"is_disabled":false,"rental_uris":{"android":"levelo://app?vid=f86e2ec4-57ac-4e5b-a0af-16ca32a933ae","ios":"levelo://app?vid=f86e2ec4-57ac-4e5b-a0af-16ca32a933ae"},"vehicle_type_id":"4","last_reported":1728479858,"current_range_meters":3200,"station_id":"ce4bh0h2rcd13ifvqd50","pricing_plan_id":"cebpf4jnsgd1na2vs0mg"},{"bike_id":"b168926f-85c1-4e16-a43b-f41ab3a7a76b","system_id":"levelo_inurba_marseille","lat":43.3064,"lon":5.40086,"is_reserved":false,"is_disabled":false,"rental_uris":{"android":"levelo://app?vid=b168926f-85c1-4e16-a43b-f41ab3a7a76b","ios":"levelo://app?vid=b168926f-85c1-4e16-a43b-f41ab3a7a76b"},"vehicle_type_id":"4","last_reported":1728479858,"current_range_meters":38800,"station_id":"ce4bh112rcd13ifvqda0","pricing_plan_id":"cebpf4jnsgd1na2vs0mg"},{"bike_id":"40052a8b-54a1-4f3e-aaef-6370a6ee75c4","system_id":"levelo_inurba_marseille","lat":43.29025,"lon":5.37549,"is_reserved":false,"is_disabled":false,"rental_uris":{"android":"levelo://app?vid=40052a8b-54a1-4f3e-aaef-6370a6ee75c4","ios":"levelo://app?vid=40052a8b-54a1-4f3e-aaef-6370a6ee75c4"},"vehicle_type_id":"4","last_reported":1728479858,"current_range_meters":38400,"station_id":"ce4bh692rcd13ifvqe90","pricing_plan_id":"cebpf4jnsgd1na2vs0mg"},{"bike_id":"82f03b2f-1450-4d85-8a48-5d34a1bdee15","system_id":"levelo_inurba_marseille","lat":43.33759,"lon":5.37445,"is_reserved":false,"is_disabled":false,"rental_uris":{"android":"levelo://app?vid=82f03b2f-1450-4d85-8a48-5d34a1bdee15","ios":"levelo://app?vid=82f03b2f-1450-4d85-8a48-5d34a1bdee15"},"vehicle_type_id":"4","last_reported":1728479858,"current_range_meters":37600,"station_id":"","pricing_plan_id":"cebpf4jnsgd1na2vs0mg"},{"bike_id":"048ad1a0-7038-4802-9f07-a3f61e6198d5","system_id":"levelo_inurba_marseille","lat":43.298413,"lon":5.362407,"is_reserved":false,"is_disabled":false,"rental_uris":{"android":"levelo://app?vid=048ad1a0-7038-4802-9f07-a3f61e6198d5","ios":"levelo://app?vid=048ad1a0-7038-4802-9f07-a3f61e6198d5"},"vehicle_type_id":"4","last_reported":1728479858,"current_range_meters":2800,"station_id":"ce4bgpp2rcd13ifvqc3g","pricing_plan_id":"cebpf4jnsgd1na2vs0mg"},{"bike_id":"e4c87921-49da-40cb-aec6-7b9e1d0c48f8","system_id":"levelo_inurba_marseille","lat":43.28851,"lon":5.35857,"is_reserved":false,"is_disabled":false,"rental_uris":{"android":"levelo://app?vid=e4c87921-49da-40cb-aec6-7b9e1d0c48f8","ios":"levelo://app?vid=e4c87921-49da-40cb-aec6-7b9e1d0c48f8"},"vehicle_type_id":"4","last_reported":1728479858,"current_range_meters":12000,"station_id":"ce4bhb12rcd13ifvqem0","pricing_plan_id":"cebpf4jnsgd1na2vs0mg"},{"bike_id":"7a93d1c6-7145-483f-b383-2ded6eeddd22","system_id":"levelo_inurba_marseille","lat":43.2997,"lon":5.37157,"is_reserved":false,"is_disabled":false,"rental_uris":{"android":"levelo://app?vid=7a93d1c6-7145-483f-b383-2ded6eeddd22","ios":"levelo://app?vid=7a93d1c6-7145-483f-b383-2ded6eeddd22"},"vehicle_type_id":"4","last_reported":1728479858,"current_range_meters":26000,"station_id":"ce4bgr92rcd13ifvqc7g","pricing_plan_id":"cebpf4jnsgd1na2vs0mg"},{"bike_id":"82fd737f-1569-41ca-aefd-5344a92e74ab","system_id":"levelo_inurba_marseille","lat":43.29578,"lon":5.37516,"is_reserved":false,"is_disabled":false,"rental_uris":{"android":"levelo://app?vid=82fd737f-1569-41ca-aefd-5344a92e74ab","ios":"levelo://app?vid=82fd737f-1569-41ca-aefd-5344a92e74ab"},"vehicle_type_id":"4","last_reported":1728479858,"current_range_meters":38800,"station_id":"ce4bgh92rcd13ifvqb50","pricing_plan_id":"cebpf4jnsgd1na2vs0mg"},{"bike_id":"39a92be7-fad8-4b47-bc27-49faeea9875f","system_id":"levelo_inurba_marseille","lat":43.29973,"lon":5.38487,"is_reserved":false,"is_disabled":false,"rental_uris":{"android":"levelo://app?vid=39a92be7-fad8-4b47-bc27-49faeea9875f","ios":"levelo://app?vid=39a92be7-fad8-4b47-bc27-49faeea9875f"},"vehicle_type_id":"4","last_reported":1728479858,"current_range_meters":22400,"station_id":"ce4bgj92rcd13ifvqbd0","pricing_plan_id":"cebpf4jnsgd1na2vs0mg"},{"bike_id":"a7705a29-8973-45f1-afb4-90324c5cfa98","system_id":"levelo_inurba_marseille","lat":43.30227,"lon":5.37525,"is_reserved":false,"is_disabled":false,"rental_uris":{"android":"levelo://app?vid=a7705a29-8973-45f1-afb4-90324c5cfa98","ios":"levelo://app?vid=a7705a29-8973-45f1-afb4-90324c5cfa98"},"vehicle_type_id":"4","last_reported":1728479858,"current_range_meters":8400,"station_id":"","pricing_plan_id":"cebpf4jnsgd1na2vs0mg"},{"bike_id":"5c46cfc4-27cb-4621-a2b6-d3f842c0ec1a","system_id":"levelo_inurba_marseille","lat":43.295929,"lon":5.38103,"is_reserved":false,"is_disabled":false,"rental_uris":{"android":"levelo://app?vid=5c46cfc4-27cb-4621-a2b6-d3f842c0ec1a","ios":"levelo://app?vid=5c46cfc4-27cb-4621-a2b6-d3f842c0ec1a"},"vehicle_type_id":"4","last_reported":1728479858,"current_range_meters":34000,"station_id":"ce4bgl12rcd13ifvqbo0","pricing_plan_id":"cebpf4jnsgd1na2vs0mg"},{"bike_id":"75dbb45b-553d-40f8-8853-54d758a5d76b","system_id":"levelo_inurba_marseille","lat":43.279068,"lon":5.380203,"is_reserved":false,"is_disabled":false,"rental_uris":{"android":"levelo://app?vid=75dbb45b-553d-40f8-8853-54d758a5d76b","ios":"levelo://app?vid=75dbb45b-553d-40f8-8853-54d758a5d76b"},"vehicle_type_id":"4","last_reported":1728479858,"current_range_meters":19600,"station_id":"ce4bhf92rcd13ifvqf50","pricing_plan_id":"cebpf4jnsgd1na2vs0mg"},{"bike_id":"45016bde-0159-48ce-a9da-745bedfccf25","system_id":"levelo_inurba_marseille","lat":43.309508,"lon":5.390288,"is_reserved":false,"is_disabled":false,"rental_uris":{"android":"levelo://app?vid=45016bde-0159-48ce-a9da-745bedfccf25","ios":"levelo://app?vid=45016bde-0159-48ce-a9da-745bedfccf25"},"vehicle_type_id":"4","last_reported":1728479858,"current_range_meters":30800,"station_id":"ce4bgup2rcd13ifvqco0","pricing_plan_id":"cebpf4jnsgd1na2vs0mg"},{"bike_id":"d2428f56-aec7-4366-8c32-2439e3897180","system_id":"levelo_inurba_marseille","lat":43.32028,"lon":5.41584,"is_reserved":false,"is_disabled":false,"rental_uris":{"android":"levelo://app?vid=d2428f56-aec7-4366-8c32-2439e3897180","ios":"levelo://app?vid=d2428f56-aec7-4366-8c32-2439e3897180"},"vehicle_type_id":"4","last_reported":1728479858,"current_range_meters":36400,"station_id":"ce4bhq92rcd13ifvqhkg","pricing_plan_id":"cebpf4jnsgd1na2vs0mg"},{"bike_id":"5684f635-c27f-42a1-a7e3-297e88301bf8","system_id":"levelo_inurba_marseille","lat":43.2668,"lon":5.3827,"is_reserved":false,"is_disabled":false,"rental_uris":{"android":"levelo://app?vid=5684f635-c27f-42a1-a7e3-297e88301bf8","ios":"levelo://app?vid=5684f635-c27f-42a1-a7e3-297e88301bf8"},"vehicle_type_id":"4","last_reported":1728479858,"current_range_meters":36800,"station_id":"ce4bhg92rcd13ifvqf90","pricing_plan_id":"cebpf4jnsgd1na2vs0mg"},{"bike_id":"7cf49a9f-e0d6-456c-9979-a6b821eedd0d","system_id":"levelo_inurba_marseille","lat":43.2706,"lon":5.40261,"is_reserved":false,"is_disabled":false,"rental_uris":{"android":"levelo://app?vid=7cf49a9f-e0d6-456c-9979-a6b821eedd0d","ios":"levelo://app?vid=7cf49a9f-e0d6-456c-9979-a6b821eedd0d"},"vehicle_type_id":"4","last_reported":1728479858,"current_range_meters":25200,"station_id":"ce4bhk92rcd13ifvqgc0","pricing_plan_id":"cebpf4jnsgd1na2vs0mg"},{"bike_id":"549c60b7-e80a-465c-9929-5897ccbe828d","system_id":"levelo_inurba_marseille","lat":43.23151,"lon":5.43717,"is_reserved":false,"is_disabled":false,"rental_uris":{"android":"levelo://app?vid=549c60b7-e80a-465c-9929-5897ccbe828d","ios":"levelo://app?vid=549c60b7-e80a-465c-9929-5897ccbe828d"},"vehicle_type_id":"4","last_reported":1728479858,"current_range_meters":36800,"station_id":"ce4bhmp2rcd13ifvqgog","pricing_plan_id":"cebpf4jnsgd1na2vs0mg"},{"bike_id":"2b143dcd-abbf-48d2-8316-43c915e5fdc3","system_id":"levelo_inurba_marseille","lat":43.25121,"lon":5.40322,"is_reserved":false,"is_disabled":false,"rental_uris":{"android":"levelo://app?vid=2b143dcd-abbf-48d2-8316-43c915e5fdc3","ios":"levelo://app?vid=2b143dcd-abbf-48d2-8316-43c915e5fdc3"},"vehicle_type_id":"4","last_reported":1728479858,"current_range_meters":35600,"station_id":"ce4bhlh2rcd13ifvqgig","pricing_plan_id":"cebpf4jnsgd1na2vs0mg"},{"bike_id":"27bc020e-17e2-45b8-83e8-ade6aa71191f","system_id":"levelo_inurba_marseille","lat":43.25103,"lon":5.40324,"is_reserved":false,"is_disabled":false,"rental_uris":{"android":"levelo://app?vid=27bc020e-17e2-45b8-83e8-ade6aa71191f","ios":"levelo://app?vid=27bc020e-17e2-45b8-83e8-ade6aa71191f"},"vehicle_type_id":"4","last_reported":1728479858,"current_range_meters":3200,"station_id":"ce4bhlh2rcd13ifvqgig","pricing_plan_id":"cebpf4jnsgd1na2vs0mg"},{"bike_id":"520aae5d-cdf3-453f-80b4-ae51cc4b6feb","system_id":"levelo_inurba_marseille","lat":43.31456,"lon":5.37362,"is_reserved":false,"is_disabled":false,"rental_uris":{"android":"levelo://app?vid=520aae5d-cdf3-453f-80b4-ae51cc4b6feb","ios":"levelo://app?vid=520aae5d-cdf3-453f-80b4-ae51cc4b6feb"},"vehicle_type_id":"4","last_reported":1728479858,"current_range_meters":38800,"station_id":"","pricing_plan_id":"cebpf4jnsgd1na2vs0mg"},{"bike_id":"3fcd2e47-b058-4d57-9981-06908c150759","system_id":"levelo_inurba_marseille","lat":43.29583,"lon":5.37504,"is_reserved":false,"is_disabled":false,"rental_uris":{"android":"levelo://app?vid=3fcd2e47-b058-4d57-9981-06908c150759","ios":"levelo://app?vid=3fcd2e47-b058-4d57-9981-06908c150759"},"vehicle_type_id":"4","last_reported":1728479858,"current_range_meters":38800,"station_id":"ce4bgh92rcd13ifvqb50","pricing_plan_id":"cebpf4jnsgd1na2vs0mg"},{"bike_id":"19024301-9196-4f3a-95cf-7d6474e47dbb","system_id":"levelo_inurba_marseille","lat":43.28474,"lon":5.35871,"is_reserved":false,"is_disabled":false,"rental_uris":{"android":"levelo://app?vid=19024301-9196-4f3a-95cf-7d6474e47dbb","ios":"levelo://app?vid=19024301-9196-4f3a-95cf-7d6474e47dbb"},"vehicle_type_id":"4","last_reported":1728479858,"current_range_meters":34800,"station_id":"ce4bhah2rcd13ifvqei0","pricing_plan_id":"cebpf4jnsgd1na2vs0mg"},{"bike_id":"bebf9441-ed1d-41b5-b4ef-1f8c4eb01b22","system_id":"levelo_inurba_marseille","lat":43.25869,"lon":5.39891,"is_reserved":false,"is_disabled":false,"rental_uris":{"android":"levelo://app?vid=bebf9441-ed1d-41b5-b4ef-1f8c4eb01b22","ios":"levelo://app?vid=bebf9441-ed1d-41b5-b4ef-1f8c4eb01b22"},"vehicle_type_id":"4","last_reported":1728479858,"current_range_meters":22000,"station_id":"ce4bhl92rcd13ifvqghg","pricing_plan_id":"cebpf4jnsgd1na2vs0mg"},{"bike_id":"e595cea1-c9d9-48c1-a588-7623d5e1e94a","system_id":"levelo_inurba_marseille","lat":43.2396,"lon":5.36626,"is_reserved":false,"is_disabled":false,"rental_uris":{"android":"levelo://app?vid=e595cea1-c9d9-48c1-a588-7623d5e1e94a","ios":"levelo://app?vid=e595cea1-c9d9-48c1-a588-7623d5e1e94a"},"vehicle_type_id":"4","last_reported":1728479858,"current_range_meters":9600,"station_id":"ce4bhi12rcd13ifvqfp0","pricing_plan_id":"cebpf4jnsgd1na2vs0mg"},{"bike_id":"314258a4-23f1-4a6b-8b4c-a1b8452ec4cf","system_id":"levelo_inurba_marseille","lat":43.27057,"lon":5.40259,"is_reserved":false,"is_disabled":false,"rental_uris":{"android":"levelo://app?vid=314258a4-23f1-4a6b-8b4c-a1b8452ec4cf","ios":"levelo://app?vid=314258a4-23f1-4a6b-8b4c-a1b8452ec4cf"},"vehicle_type_id":"4","last_reported":1728479858,"current_range_meters":11200,"station_id":"ce4bhk92rcd13ifvqgc0","pricing_plan_id":"cebpf4jnsgd1na2vs0mg"},{"bike_id":"c05f3a0d-0644-415d-9641-f969c6dc17fe","system_id":"levelo_inurba_marseille","lat":43.30897,"lon":5.37178,"is_reserved":false,"is_disabled":false,"rental_uris":{"android":"levelo://app?vid=c05f3a0d-0644-415d-9641-f969c6dc17fe","ios":"levelo://app?vid=c05f3a0d-0644-415d-9641-f969c6dc17fe"},"vehicle_type_id":"4","last_reported":1728479858,"current_range_meters":38800,"station_id":"ce4bguh2rcd13ifvqckg","pricing_plan_id":"cebpf4jnsgd1na2vs0mg"},{"bike_id":"13a6922f-978d-4915-80b9-cc721d78de85","system_id":"levelo_inurba_marseille","lat":43.2954,"lon":5.39036,"is_reserved":false,"is_disabled":false,"rental_uris":{"android":"levelo://app?vid=13a6922f-978d-4915-80b9-cc721d78de85","ios":"levelo://app?vid=13a6922f-978d-4915-80b9-cc721d78de85"},"vehicle_type_id":"4","last_reported":1728479858,"current_range_meters":26000,"station_id":"ce4bh3p2rcd13ifvqdp0","pricing_plan_id":"cebpf4jnsgd1na2vs0mg"},{"bike_id":"001f4499-bdc3-403f-be37-f060687f5ecb","system_id":"levelo_inurba_marseille","lat":43.29643,"lon":5.37763,"is_reserved":false,"is_disabled":false,"rental_uris":{"android":"levelo://app?vid=001f4499-bdc3-403f-be37-f060687f5ecb","ios":"levelo://app?vid=001f4499-bdc3-403f-be37-f060687f5ecb"},"vehicle_type_id":"4","last_reported":1728479858,"current_range_meters":8800,"station_id":"ce4bgkh2rcd13ifvqbl0","pricing_plan_id":"cebpf4jnsgd1na2vs0mg"},{"bike_id":"2ff001b9-59b5-4759-9a68-616d75995793","system_id":"levelo_inurba_marseille","lat":43.29049,"lon":5.35898,"is_reserved":false,"is_disabled":false,"rental_uris":{"android":"levelo://app?vid=2ff001b9-59b5-4759-9a68-616d75995793","ios":"levelo://app?vid=2ff001b9-59b5-4759-9a68-616d75995793"},"vehicle_type_id":"4","last_reported":1728479858,"current_range_meters":39200,"station_id":"ce4bha92rcd13ifvqeg0","pricing_plan_id":"cebpf4jnsgd1na2vs0mg"},{"bike_id":"f945205e-66ce-40b9-b57b-83f13d36ece5","system_id":"levelo_inurba_marseille","lat":43.25004,"lon":5.38925,"is_reserved":false,"is_disabled":false,"rental_uris":{"android":"levelo://app?vid=f945205e-66ce-40b9-b57b-83f13d36ece5","ios":"levelo://app?vid=f945205e-66ce-40b9-b57b-83f13d36ece5"},"vehicle_type_id":"4","last_reported":1728479858,"current_range_meters":2000,"station_id":"ce4bhgp2rcd13ifvqfd0","pricing_plan_id":"cebpf4jnsgd1na2vs0mg"},{"bike_id":"962a692d-7e39-45ee-b56a-68d1339f2e0c","system_id":"levelo_inurba_marseille","lat":43.23153,"lon":5.43708,"is_reserved":false,"is_disabled":false,"rental_uris":{"android":"levelo://app?vid=962a692d-7e39-45ee-b56a-68d1339f2e0c","ios":"levelo://app?vid=962a692d-7e39-45ee-b56a-68d1339f2e0c"},"vehicle_type_id":"4","last_reported":1728479858,"current_range_meters":38800,"station_id":"ce4bhmp2rcd13ifvqgog","pricing_plan_id":"cebpf4jnsgd1na2vs0mg"},{"bike_id":"bf244315-477f-4562-a3e4-cc788276852a","system_id":"levelo_inurba_marseille","lat":43.28043,"lon":5.36943,"is_reserved":false,"is_disabled":false,"rental_uris":{"android":"levelo://app?vid=bf244315-477f-4562-a3e4-cc788276852a","ios":"levelo://app?vid=bf244315-477f-4562-a3e4-cc788276852a"},"vehicle_type_id":"4","last_reported":1728479858,"current_range_meters":20000,"station_id":"ce4bha12rcd13ifvqef0","pricing_plan_id":"cebpf4jnsgd1na2vs0mg"},{"bike_id":"61633579-2163-4e1c-8196-b84e75141326","system_id":"levelo_inurba_marseille","lat":43.30545,"lon":5.36519,"is_reserved":false,"is_disabled":false,"rental_uris":{"android":"levelo://app?vid=61633579-2163-4e1c-8196-b84e75141326","ios":"levelo://app?vid=61633579-2163-4e1c-8196-b84e75141326"},"vehicle_type_id":"4","last_reported":1728479858,"current_range_meters":38000,"station_id":"ce4bgs12rcd13ifvqcag","pricing_plan_id":"cebpf4jnsgd1na2vs0mg"},{"bike_id":"81d49c0c-b020-45f2-8d81-6459353c9809","system_id":"levelo_inurba_marseille","lat":43.31763,"lon":5.39016,"is_reserved":false,"is_disabled":false,"rental_uris":{"android":"levelo://app?vid=81d49c0c-b020-45f2-8d81-6459353c9809","ios":"levelo://app?vid=81d49c0c-b020-45f2-8d81-6459353c9809"},"vehicle_type_id":"4","last_reported":1728479858,"current_range_meters":24000,"station_id":"ce4bhqp2rcd13ifvqhng","pricing_plan_id":"cebpf4jnsgd1na2vs0mg"},{"bike_id":"1daee7de-c125-4dbc-9d7e-e702557574dd","system_id":"levelo_inurba_marseille","lat":43.27207,"lon":5.39173,"is_reserved":false,"is_disabled":false,"rental_uris":{"android":"levelo://app?vid=1daee7de-c125-4dbc-9d7e-e702557574dd","ios":"levelo://app?vid=1daee7de-c125-4dbc-9d7e-e702557574dd"},"vehicle_type_id":"4","last_reported":1728479858,"current_range_meters":10000,"station_id":"ce4bhhp2rcd13ifvqfm0","pricing_plan_id":"cebpf4jnsgd1na2vs0mg"},{"bike_id":"683f14b9-3cd3-45f0-9d8f-a5b45a40cd45","system_id":"levelo_inurba_marseille","lat":43.28437,"lon":5.39186,"is_reserved":false,"is_disabled":false,"rental_uris":{"android":"levelo://app?vid=683f14b9-3cd3-45f0-9d8f-a5b45a40cd45","ios":"levelo://app?vid=683f14b9-3cd3-45f0-9d8f-a5b45a40cd45"},"vehicle_type_id":"4","last_reported":1728479858,"current_range_meters":34000,"station_id":"ce4bhoh2rcd13ifvqh5g","pricing_plan_id":"cebpf4jnsgd1na2vs0mg"},{"bike_id":"d59d0612-a7d1-48b3-89c2-fb71670d93cf","system_id":"levelo_inurba_marseille","lat":43.26803,"lon":5.40267,"is_reserved":false,"is_disabled":false,"rental_uris":{"android":"levelo://app?vid=d59d0612-a7d1-48b3-89c2-fb71670d93cf","ios":"levelo://app?vid=d59d0612-a7d1-48b3-89c2-fb71670d93cf"},"vehicle_type_id":"4","last_reported":1728479858,"current_range_meters":38800,"station_id":"ce501612rcd8frsf0b60","pricing_plan_id":"cebpf4jnsgd1na2vs0mg"},{"bike_id":"29a52626-39a7-4d44-8ba5-062f6aca2e27","system_id":"levelo_inurba_marseille","lat":43.30535,"lon":5.36688,"is_reserved":false,"is_disabled":false,"rental_uris":{"android":"levelo://app?vid=29a52626-39a7-4d44-8ba5-062f6aca2e27","ios":"levelo://app?vid=29a52626-39a7-4d44-8ba5-062f6aca2e27"},"vehicle_type_id":"4","last_reported":1728479858,"current_range_meters":25600,"station_id":"ce4bgrp2rcd13ifvqc9g","pricing_plan_id":"cebpf4jnsgd1na2vs0mg"},{"bike_id":"53f7dab7-29d9-4c2a-b423-39eabd582cfd","system_id":"levelo_inurba_marseille","lat":43.24387,"lon":5.37056,"is_reserved":false,"is_disabled":false,"rental_uris":{"android":"levelo://app?vid=53f7dab7-29d9-4c2a-b423-39eabd582cfd","ios":"levelo://app?vid=53f7dab7-29d9-4c2a-b423-39eabd582cfd"},"vehicle_type_id":"4","last_reported":1728479858,"current_range_meters":40000,"station_id":"ce4bhhh2rcd13ifvqfk0","pricing_plan_id":"cebpf4jnsgd1na2vs0mg"},{"bike_id":"b853ad89-54e8-458f-86b5-a31c46bb9cdc","system_id":"levelo_inurba_marseille","lat":43.32665,"lon":5.40986,"is_reserved":false,"is_disabled":false,"rental_uris":{"android":"levelo://app?vid=b853ad89-54e8-458f-86b5-a31c46bb9cdc","ios":"levelo://app?vid=b853ad89-54e8-458f-86b5-a31c46bb9cdc"},"vehicle_type_id":"4","last_reported":1728479858,"current_range_meters":8800,"station_id":"ce4bhpp2rcd13ifvqhgg","pricing_plan_id":"cebpf4jnsgd1na2vs0mg"},{"bike_id":"2bad5ce0-f3fd-4dd3-b36a-8640569ab538","system_id":"levelo_inurba_marseille","lat":43.31889,"lon":5.40729,"is_reserved":false,"is_disabled":false,"rental_uris":{"android":"levelo://app?vid=2bad5ce0-f3fd-4dd3-b36a-8640569ab538","ios":"levelo://app?vid=2bad5ce0-f3fd-4dd3-b36a-8640569ab538"},"vehicle_type_id":"4","last_reported":1728479858,"current_range_meters":11600,"station_id":"ce4bhq12rcd13ifvqhig","pricing_plan_id":"cebpf4jnsgd1na2vs0mg"},{"bike_id":"cb5095a1-11ac-494a-8055-eec60d86fb1c","system_id":"levelo_inurba_marseille","lat":43.31224,"lon":5.36849,"is_reserved":false,"is_disabled":false,"rental_uris":{"android":"levelo://app?vid=cb5095a1-11ac-494a-8055-eec60d86fb1c","ios":"levelo://app?vid=cb5095a1-11ac-494a-8055-eec60d86fb1c"},"vehicle_type_id":"4","last_reported":1728479858,"current_range_meters":35200,"station_id":"ce4bgl92rcd13ifvqbq0","pricing_plan_id":"cebpf4jnsgd1na2vs0mg"},{"bike_id":"77404474-de3d-40de-8b42-9015e8e5fde6","system_id":"levelo_inurba_marseille","lat":43.28944,"lon":5.39623,"is_reserved":false,"is_disabled":false,"rental_uris":{"android":"levelo://app?vid=77404474-de3d-40de-8b42-9015e8e5fde6","ios":"levelo://app?vid=77404474-de3d-40de-8b42-9015e8e5fde6"},"vehicle_type_id":"4","last_reported":1728479858,"current_range_meters":22800,"station_id":"ce4bh3h2rcd13ifvqdn0","pricing_plan_id":"cebpf4jnsgd1na2vs0mg"},{"bike_id":"ab793054-e94f-46db-9b76-38477c7e818b","system_id":"levelo_inurba_marseille","lat":43.32544,"lon":5.4144,"is_reserved":false,"is_disabled":false,"rental_uris":{"android":"levelo://app?vid=ab793054-e94f-46db-9b76-38477c7e818b","ios":"levelo://app?vid=ab793054-e94f-46db-9b76-38477c7e818b"},"vehicle_type_id":"4","last_reported":1728479858,"current_range_meters":6000,"station_id":"ce4bhq12rcd13ifvqhhg","pricing_plan_id":"cebpf4jnsgd1na2vs0mg"},{"bike_id":"93179479-8aaf-4fe6-bc7f-df0c8ebcbcff","system_id":"levelo_inurba_marseille","lat":43.29295,"lon":5.37448,"is_reserved":false,"is_disabled":false,"rental_uris":{"android":"levelo://app?vid=93179479-8aaf-4fe6-bc7f-df0c8ebcbcff","ios":"levelo://app?vid=93179479-8aaf-4fe6-bc7f-df0c8ebcbcff"},"vehicle_type_id":"4","last_reported":1728479858,"current_range_meters":8000,"station_id":"ce4bgi12rcd13ifvqb70","pricing_plan_id":"cebpf4jnsgd1na2vs0mg"},{"bike_id":"b8034255-6ec0-4bed-ac40-f649b450ecd8","system_id":"levelo_inurba_marseille","lat":43.28437,"lon":5.39188,"is_reserved":false,"is_disabled":false,"rental_uris":{"android":"levelo://app?vid=b8034255-6ec0-4bed-ac40-f649b450ecd8","ios":"levelo://app?vid=b8034255-6ec0-4bed-ac40-f649b450ecd8"},"vehicle_type_id":"4","last_reported":1728479858,"current_range_meters":30000,"station_id":"ce4bhoh2rcd13ifvqh5g","pricing_plan_id":"cebpf4jnsgd1na2vs0mg"},{"bike_id":"466b858d-e5f2-4d17-aed8-aaa12d14197a","system_id":"levelo_inurba_marseille","lat":43.29003,"lon":5.3561,"is_reserved":false,"is_disabled":false,"rental_uris":{"android":"levelo://app?vid=466b858d-e5f2-4d17-aed8-aaa12d14197a","ios":"levelo://app?vid=466b858d-e5f2-4d17-aed8-aaa12d14197a"},"vehicle_type_id":"4","last_reported":1728479858,"current_range_meters":24000,"station_id":"ce4bhb92rcd13ifvqen0","pricing_plan_id":"cebpf4jnsgd1na2vs0mg"},