{"last_updated":1685016772,"ttl":30,"version":"2.2","data":{"bikes":[{"bike_id":"ab333eea-3dd6-4b0c-8ee1-ebbbee5cd192","system_id":"levelo_inurba_marseille","lat":43.31341,"lon":5.367098,"is_reserved":false,"is_disabled":false,"rental_uris":{"android":"levelo://app?vid=ab333eea-3dd6-4b0c-8ee1-ebbbee5cd192","ios":"levelo://app?vid=ab333eea-3dd6-4b0c-8ee1-ebbbee5cd192"},"vehicle_type_id":"4","last_reported":1685016772,"current_range_meters":20400,"station_id":"ce4bgr92rcd13ifvqc6g","pricing_plan_id":"free"},{"bike_id":"9add802e-2be5-47bb-99d4-889533610c7f","system_id":"levelo_inurba_marseille","lat":43.313391,"lon":5.36706,"is_reserved":false,"is_disabled":false,"rental_uris":{"android":"levelo://app?vid=9add802e-2be5-47bb-99d4-889533610c7f","ios":"levelo://app?vid=9add802e-2be5-47bb-99d4-889533610c7f"},"vehicle_type_id":"4","last_reported":1685016772,"current_range_meters":25600,"station_id":"ce4bgr92rcd13ifvqc6g","pricing_plan_id":"free"},{"bike_id":"c7196536-9b0a-4dcd-a747-b9a6353a191a","system_id":"levelo_inurba_marseille","lat":43.31341,"lon":5.367098,"is_reserved":false,"is_disabled":false,"rental_uris":{"android":"levelo://app?vid=c7196536-9b0a-4dcd-a747-b9a6353a191a","ios":"levelo://app?vid=c7196536-9b0a-4dcd-a747-b9a6353a191a"},"vehicle_type_id":"4","last_reported":1685016772,"current_range_meters":31600,"station_id":"ce4bgr92rcd13ifvqc6g","pricing_plan_id":"free"},{"bike_id":"be0f795b-7ced-4c0d-8d5e-c3c455811729","system_id":"levelo_inurba_marseille","lat":43.313391,"lon":5.36706,"is_reserved":false,"is_disabled":false,"rental_uris":{"android":"levelo://app?vid=be0f795b-7ced-4c0d-8d5e-c3c455811729","ios":"levelo://app?vid=be0f795b-7ced-4c0d-8d5e-c3c455811729"},"vehicle_type_id":"4","last_reported":1685016772,"current_range_meters":31600,"station_id":"ce4bgr92rcd13ifvqc6g","pricing_plan_id":"free"},{"bike_id":"43653bd7-693f-4e9f-a189-36b2f77d0ea1","system_id":"levelo_inurba_marseille","lat":43.31346,"lon":5.36715,"is_reserved":false,"is_disabled":false,"rental_uris":{"android":"levelo://app?vid=43653bd7-693f-4e9f-a189-36b2f77d0ea1","ios":"levelo://app?vid=43653bd7-693f-4e9f-a189-36b2f77d0ea1"},"vehicle_type_id":"4","last_reported":1685016772,"current_range_meters":31200,"station_id":"ce4bgr92rcd13ifvqc6g","pricing_plan_id":"free"},{"bike_id":"85c73a90-66de-434e-b698-7d80915eb59f","system_id":"levelo_inurba_marseille","lat":43.31341,"lon":5.367098,"is_reserved":false,"is_disabled":false,"rental_uris":{"android":"levelo://app?vid=85c73a90-66de-434e-b698-7d80915eb59f","ios":"levelo://app?vid=85c73a90-66de-434e-b698-7d80915eb59f"},"vehicle_type_id":"4","last_reported":1685016772,"current_range_meters":31200,"station_id":"ce4bgr92rcd13ifvqc6g","pricing_plan_id":"free"},{"bike_id":"e984a29f-7fbf-4df4-8737-51e1746b0871","system_id":"levelo_inurba_marseille","lat":43.313391,"lon":5.36706,"is_reserved":false,"is_disabled":false,"rental_uris":{"android":"levelo://app?vid=e984a29f-7fbf-4df4-8737-51e1746b0871","ios":"levelo://app?vid=e984a29f-7fbf-4df4-8737-51e1746b0871"},"vehicle_type_id":"4","last_reported":1685016772,"current_range_meters":31600,"station_id":"ce4bgr92rcd13ifvqc6g","pricing_plan_id":"free"},{"bike_id":"275bcb69-0784-42fa-b862-afbe2737c47f","system_id":"levelo_inurba_marseille","lat":43.313391,"lon":5.36706,"is_reserved":false,"is_disabled":false,"rental_uris":{"android":"levelo://app?vid=275bcb69-0784-42fa-b862-afbe2737c47f","ios":"levelo://app?vid=275bcb69-0784-42fa-b862-afbe2737c47f"},"vehicle_type_id":"4","last_reported":1685016772,"current_range_meters":29600,"station_id":"ce4bgr92rcd13ifvqc6g","pricing_plan_id":"free"},{"bike_id":"c483a466-8b7a-4236-8add-6682a44bd099","system_id":"levelo_inurba_marseille","lat":43.313391,"lon":5.36706,"is_reserved":false,"is_disabled":false,"rental_uris":{"android":"levelo://app?vid=c483a466-8b7a-4236-8add-6682a44bd099","ios":"levelo://app?vid=c483a466-8b7a-4236-8add-6682a44bd099"},"vehicle_type_id":"4","last_reported":1685016772,"current_range_meters":25600,"station_id":"ce4bgr92rcd13ifvqc6g","pricing_plan_id":"free"},{"bike_id":"057874b2-e801-4ed3-9143-b0ecbb73e206","system_id":"levelo_inurba_marseille","lat":43.312239,"lon":5.368562,"is_reserved":false,"is_disabled":false,"rental_uris":{"android":"levelo://app?vid=057874b2-e801-4ed3-9143-b0ecbb73e206","ios":"levelo://app?vid=057874b2-e801-4ed3-9143-b0ecbb73e206"},"vehicle_type_id":"4","last_reported":1685016772,"current_range_meters":27200,"station_id":"ce4bgl92rcd13ifvqbq0","pricing_plan_id":"free"},{"bike_id":"a6af8036-e835-4df6-9747-b1ddadefd95f","system_id":"levelo_inurba_marseille","lat":43.312239,"lon":5.368562,"is_reserved":false,"is_disabled":false,"rental_uris":{"android":"levelo://app?vid=a6af8036-e835-4df6-9747-b1ddadefd95f","ios":"levelo://app?vid=a6af8036-e835-4df6-9747-b1ddadefd95f"},"vehicle_type_id":"4","last_reported":1685016772,"current_range_meters":10000,"station_id":"ce4bgl92rcd13ifvqbq0","pricing_plan_id":"free"},{"bike_id":"7b5c99ab-fe4f-4d0a-92df-752ed5837304","system_id":"levelo_inurba_marseille","lat":43.312239,"lon":5.368562,"is_reserved":false,"is_disabled":false,"rental_uris":{"android":"levelo://app?vid=7b5c99ab-fe4f-4d0a-92df-752ed5837304","ios":"levelo://app?vid=7b5c99ab-fe4f-4d0a-92df-752ed5837304"},"vehicle_type_id":"4","last_reported":1685016772,"current_range_meters":31600,"station_id":"ce4bgl92rcd13ifvqbq0","pricing_plan_id":"free"},{"bike_id":"8d9361dd-ac91-4d6f-a5d2-67c479257155","system_id":"levelo_inurba_marseille","lat":43.309076,"lon":5.368465,"is_reserved":false,"is_disabled":false,"rental_uris":{"android":"levelo://app?vid=8d9361dd-ac91-4d6f-a5d2-67c479257155","ios":"levelo://app?vid=8d9361dd-ac91-4d6f-a5d2-67c479257155"},"vehicle_type_id":"4","last_reported":1685016772,"current_range_meters":24000,"station_id":"ce4bgn92rcd13ifvqbvg","pricing_plan_id":"free"},{"bike_id":"c94d3c4b-8a36-4138-9dd9-5ff48a1f9b30","system_id":"levelo_inurba_marseille","lat":43.30905,"lon":5.36853,"is_reserved":false,"is_disabled":false,"rental_uris":{"android":"levelo://app?vid=c94d3c4b-8a36-4138-9dd9-5ff48a1f9b30","ios":"levelo://app?vid=c94d3c4b-8a36-4138-9dd9-5ff48a1f9b30"},"vehicle_type_id":"4","last_reported":1685016772,"current_range_meters":31200,"station_id":"ce4bgn92rcd13ifvqbvg","pricing_plan_id":"free"},{"bike_id":"bb26d739-cdd8-439c-a709-7a422a970418","system_id":"levelo_inurba_marseille","lat":43.309076,"lon":5.368465,"is_reserved":false,"is_disabled":false,"rental_uris":{"android":"levelo://app?vid=bb26d739-cdd8-439c-a709-7a422a970418","ios":"levelo://app?vid=bb26d739-cdd8-439c-a709-7a422a970418"},"vehicle_type_id":"4","last_reported":1685016772,"current_range_meters":28400,"station_id":"ce4bgn92rcd13ifvqbvg","pricing_plan_id":"free"},{"bike_id":"76bc4219-9662-441c-b53b-d4fcd1865c9d","system_id":"levelo_inurba_marseille","lat":43.314811,"lon":5.373104,"is_reserved":false,"is_disabled":false,"rental_uris":{"android":"levelo://app?vid=76bc4219-9662-441c-b53b-d4fcd1865c9d","ios":"levelo://app?vid=76bc4219-9662-441c-b53b-d4fcd1865c9d"},"vehicle_type_id":"4","last_reported":1685016772,"current_range_meters":20800,"station_id":"ce4bgt12rcd13ifvqcd0","pricing_plan_id":"free"},{"bike_id":"db0d3519-701c-4778-94e2-eb09106b5449","system_id":"levelo_inurba_marseille","lat":43.314811,"lon":5.373104,"is_reserved":false,"is_disabled":false,"rental_uris":{"android":"levelo://app?vid=db0d3519-701c-4778-94e2-eb09106b5449","ios":"levelo://app?vid=db0d3519-701c-4778-94e2-eb09106b5449"},"vehicle_type_id":"4","last_reported":1685016772,"current_range_meters":31200,"station_id":"ce4bgt12rcd13ifvqcd0","pricing_plan_id":"free"},{"bike_id":"37ab0458-0b18-44cf-ada0-887cbe9741f1","system_id":"levelo_inurba_marseille","lat":43.314811,"lon":5.373104,"is_reserved":false,"is_disabled":false,"rental_uris":{"android":"levelo://app?vid=37ab0458-0b18-44cf-ada0-887cbe9741f1","ios":"levelo://app?vid=37ab0458-0b18-44cf-ada0-887cbe9741f1"},"vehicle_type_id":"4","last_reported":1685016772,"current_range_meters":31600,"station_id":"ce4bgt12rcd13ifvqcd0","pricing_plan_id":"free"},{"bike_id":"11036aef-4b23-406b-9255-9bdc0b6bb565","system_id":"levelo_inurba_marseille","lat":43.314811,"lon":5.373104,"is_reserved":false,"is_disabled":false,"rental_uris":{"android":"levelo://app?vid=11036aef-4b23-406b-9255-9bdc0b6bb565","ios":"levelo://app?vid=11036aef-4b23-406b-9255-9bdc0b6bb565"},"vehicle_type_id":"4","last_reported":1685016772,"current_range_meters":9200,"station_id":"ce4bgt12rcd13ifvqcd0","pricing_plan_id":"free"},{"bike_id":"1ba0cfe2-03a3-4870-bc0d-399d6fd59a45","system_id":"levelo_inurba_marseille","lat":43.314811,"lon":5.373104,"is_reserved":false,"is_disabled":false,"rental_uris":{"android":"levelo://app?vid=1ba0cfe2-03a3-4870-bc0d-399d6fd59a45","ios":"levelo://app?vid=1ba0cfe2-03a3-4870-bc0d-399d6fd59a45"},"vehicle_type_id":"4","last_reported":1685016772,"current_range_meters":26000,"station_id":"ce4bgt12rcd13ifvqcd0","pricing_plan_id":"free"},{"bike_id":"643b7958-34c5-42cf-b390-9f5140eadccc","system_id":"levelo_inurba_marseille","lat":43.314811,"lon":5.373104,"is_reserved":false,"is_disabled":false,"rental_uris":{"android":"levelo://app?vid=643b7958-34c5-42cf-b390-9f5140eadccc","ios":"levelo://app?vid=643b7958-34c5-42cf-b390-9f5140eadccc"},"vehicle_type_id":"4","last_reported":1685016772,"current_range_meters":31200,"station_id":"ce4bgt12rcd13ifvqcd0","pricing_plan_id":"free"},{"bike_id":"0b81d4eb-2691-44c0-beed-2716b4b0564e","system_id":"levelo_inurba_marseille","lat":43.314811,"lon":5.373104,"is_reserved":false,"is_disabled":false,"rental_uris":{"android":"levelo://app?vid=0b81d4eb-2691-44c0-beed-2716b4b0564e","ios":"levelo://app?vid=0b81d4eb-2691-44c0-beed-2716b4b0564e"},"vehicle_type_id":"4","last_reported":1685016772,"current_range_meters":31600,"station_id":"ce4bgt12rcd13ifvqcd0","pricing_plan_id":"free"},{"bike_id":"b2dfd504-e910-445d-9772-694f36a095e4","system_id":"levelo_inurba_marseille","lat":43.314811,"lon":5.373104,"is_reserved":false,"is_disabled":false,"rental_uris":{"android":"levelo://app?vid=b2dfd504-e910-445d-9772-694f36a095e4","ios":"levelo://app?vid=b2dfd504-e910-445d-9772-694f36a095e4"},"vehicle_type_id":"4","last_reported":1685016772,"current_range_meters":31600,"station_id":"ce4bgt12rcd13ifvqcd0","pricing_plan_id":"free"},{"bike_id":"6b439d1d-d933-462e-9338-95a240460556","system_id":"levelo_inurba_marseille","lat":43.308614,"lon":5.372098,"is_reserved":false,"is_disabled":false,"rental_uris":{"android":"levelo://app?vid=6b439d1d-d933-462e-9338-95a240460556","ios":"levelo://app?vid=6b439d1d-d933-462e-9338-95a240460556"},"vehicle_type_id":"4","last_reported":1685016772,"current_range_meters":28400,"station_id":"ce4bguh2rcd13ifvqckg","pricing_plan_id":"free"},{"bike_id":"c138181f-48ac-4415-a593-05e777911b4d","system_id":"levelo_inurba_marseille","lat":43.30686,"lon":5.36689,"is_reserved":false,"is_disabled":false,"rental_uris":{"android":"levelo://app?vid=c138181f-48ac-4415-a593-05e777911b4d","ios":"levelo://app?vid=c138181f-48ac-4415-a593-05e777911b4d"},"vehicle_type_id":"4","last_reported":1685016772,"current_range_meters":23600,"station_id":"","pricing_plan_id":"free"},{"bike_id":"214c8f9e-6229-4b99-9e3b-7c4da761d09b","system_id":"levelo_inurba_marseille","lat":43.305368,"lon":5.367343,"is_reserved":false,"is_disabled":false,"rental_uris":{"android":"levelo://app?vid=214c8f9e-6229-4b99-9e3b-7c4da761d09b","ios":"levelo://app?vid=214c8f9e-6229-4b99-9e3b-7c4da761d09b"},"vehicle_type_id":"4","last_reported":1685016772,"current_range_meters":2400,"station_id":"ce4bgrp2rcd13ifvqc9g","pricing_plan_id":"free"},{"bike_id":"0cbd013f-1e5c-4bcc-99d2-9a45ad001d66","system_id":"levelo_inurba_marseille","lat":43.305706,"lon":5.365654,"is_reserved":false,"is_disabled":false,"rental_uris":{"android":"levelo://app?vid=0cbd013f-1e5c-4bcc-99d2-9a45ad001d66","ios":"levelo://app?vid=0cbd013f-1e5c-4bcc-99d2-9a45ad001d66"},"vehicle_type_id":"4","last_reported":1685016772,"current_range_meters":20000,"station_id":"ce4bgs12rcd13ifvqcag","pricing_plan_id":"free"},{"bike_id":"b5e15134-0bf6-411a-b24b-bc9f7e55c8f7","system_id":"levelo_inurba_marseille","lat":43.305368,"lon":5.367343,"is_reserved":false,"is_disabled":false,"rental_uris":{"android":"levelo://app?vid=b5e15134-0bf6-411a-b24b-bc9f7e55c8f7","ios":"levelo://app?vid=b5e15134-0bf6-411a-b24b-bc9f7e55c8f7"},"vehicle_type_id":"4","last_reported":1685016772,"current_range_meters":27200,"station_id":"ce4bgrp2rcd13ifvqc9g","pricing_plan_id":"free"},{"bike_id":"8196ffec-f12b-439e-90a4-bdb567d477cf","system_id":"levelo_inurba_marseille","lat":43.305368,"lon":5.367343,"is_reserved":false,"is_disabled":false,"rental_uris":{"android":"levelo://app?vid=8196ffec-f12b-439e-90a4-bdb567d477cf","ios":"levelo://app?vid=8196ffec-f12b-439e-90a4-bdb567d477cf"},"vehicle_type_id":"4","last_reported":1685016772,"current_range_meters":22000,"station_id":"ce4bgrp2rcd13ifvqc9g","pricing_plan_id":"free"},{"bike_id":"7a0aef98-4321-4ce6-b636-37fb5727af66","system_id":"levelo_inurba_marseille","lat":43.305706,"lon":5.365654,"is_reserved":false,"is_disabled":false,"rental_uris":{"android":"levelo://app?vid=7a0aef98-4321-4ce6-b636-37fb5727af66","ios":"levelo://app?vid=7a0aef98-4321-4ce6-b636-37fb5727af66"},"vehicle_type_id":"4","last_reported":1685016772,"current_range_meters":21600,"station_id":"ce4bgs12rcd13ifvqcag","pricing_plan_id":"free"},{"bike_id":"d2572ef8-1392-48e4-a969-e484a0edd11e","system_id":"levelo_inurba_marseille","lat":43.305706,"lon":5.365654,"is_reserved":false,"is_disabled":false,"rental_uris":{"android":"levelo://app?vid=d2572ef8-1392-48e4-a969-e484a0edd11e","ios":"levelo://app?vid=d2572ef8-1392-48e4-a969-e484a0edd11e"},"vehicle_type_id":"4","last_reported":1685016772,"current_range_meters":25200,"station_id":"ce4bgs12rcd13ifvqcag","pricing_plan_id":"free"},{"bike_id":"09ceac73-97db-4c6f-8d50-d2c4cf6d4faa","system_id":"levelo_inurba_marseille","lat":43.305706,"lon":5.365654,"is_reserved":false,"is_disabled":false,"rental_uris":{"android":"levelo://app?vid=09ceac73-97db-4c6f-8d50-d2c4cf6d4faa","ios":"levelo://app?vid=09ceac73-97db-4c6f-8d50-d2c4cf6d4faa"},"vehicle_type_id":"4","last_reported":1685016772,"current_range_meters":19600,"station_id":"ce4bgs12rcd13ifvqcag","pricing_plan_id":"free"},{"bike_id":"c90d46c6-b661-4a39-898c-edffff943bc4","system_id":"levelo_inurba_marseille","lat":43.305706,"lon":5.365654,"is_reserved":false,"is_disabled":false,"rental_uris":{"android":"levelo://app?vid=c90d46c6-b661-4a39-898c-edffff943bc4","ios":"levelo://app?vid=c90d46c6-b661-4a39-898c-edffff943bc4"},"vehicle_type_id":"4","last_reported":1685016772,"current_range_meters":22800,"station_id":"ce4bgs12rcd13ifvqcag","pricing_plan_id":"free"},{"bike_id":"f61d83f0-a44c-4f9f-ac1f-32df5151a940","system_id":"levelo_inurba_marseille","lat":43.305706,"lon":5.365654,"is_reserved":false,"is_disabled":false,"rental_uris":{"android":"levelo://app?vid=f61d83f0-a44c-4f9f-ac1f-32df5151a940","ios":"levelo://app?vid=f61d83f0-a44c-4f9f-ac1f-32df5151a940"},"vehicle_type_id":"4","last_reported":1685016772,"current_range_meters":25600,"station_id":"ce4bgs12rcd13ifvqcag","pricing_plan_id":"free"},{"bike_id":"dc4e831a-def2-4a8d-82f8-b73883f7839b","system_id":"levelo_inurba_marseille","lat":43.31117,"lon":5.37769,"is_reserved":false,"is_disabled":false,"rental_uris":{"android":"levelo://app?vid=dc4e831a-def2-4a8d-82f8-b73883f7839b","ios":"levelo://app?vid=dc4e831a-def2-4a8d-82f8-b73883f7839b"},"vehicle_type_id":"4","last_reported":1685016772,"current_range_meters":24800,"station_id":"ce4bgt92rcd13ifvqcg0","pricing_plan_id":"free"},{"bike_id":"2ab4639f-70ee-4cae-8aea-667b4c6c63d0","system_id":"levelo_inurba_marseille","lat":43.317075,"lon":5.377367,"is_reserved":false,"is_disabled":false,"rental_uris":{"android":"levelo://app?vid=2ab4639f-70ee-4cae-8aea-667b4c6c63d0","ios":"levelo://app?vid=2ab4639f-70ee-4cae-8aea-667b4c6c63d0"},"vehicle_type_id":"4","last_reported":1685016772,"current_range_meters":17600,"station_id":"ce4bgth2rcd13ifvqch0","pricing_plan_id":"free"},{"bike_id":"1e3654da-4ca8-4941-8c9e-d7ae66415c19","system_id":"levelo_inurba_marseille","lat":43.317075,"lon":5.377367,"is_reserved":false,"is_disabled":false,"rental_uris":{"android":"levelo://app?vid=1e3654da-4ca8-4941-8c9e-d7ae66415c19","ios":"levelo://app?vid=1e3654da-4ca8-4941-8c9e-d7ae66415c19"},"vehicle_type_id":"4","last_reported":1685016772,"current_range_meters":22000,"station_id":"ce4bgth2rcd13ifvqch0","pricing_plan_id":"free"},{"bike_id":"b6855b1f-51d1-440e-8236-2a00d5254915","system_id":"levelo_inurba_marseille","lat":43.317075,"lon":5.377367,"is_reserved":false,"is_disabled":false,"rental_uris":{"android":"levelo://app?vid=b6855b1f-51d1-440e-8236-2a00d5254915","ios":"levelo://app?vid=b6855b1f-51d1-440e-8236-2a00d5254915"},"vehicle_type_id":"4","last_reported":1685016772,"current_range_meters":20000,"station_id":"ce4bgth2rcd13ifvqch0","pricing_plan_id":"free"},{"bike_id":"8945841a-7770-487f-a018-37b5826c7149","system_id":"levelo_inurba_marseille","lat":43.317075,"lon":5.377367,"is_reserved":false,"is_disabled":false,"rental_uris":{"android":"levelo://app?vid=8945841a-7770-487f-a018-37b5826c7149","ios":"levelo://app?vid=8945841a-7770-487f-a018-37b5826c7149"},"vehicle_type_id":"4","last_reported":1685016772,"current_range_meters":26400,"station_id":"ce4bgth2rcd13ifvqch0","pricing_plan_id":"free"},{"bike_id":"e0c120af-edda-495a-af40-15fcc09948cc","system_id":"levelo_inurba_marseille","lat":43.317075,"lon":5.377367,"is_reserved":false,"is_disabled":false,"rental_uris":{"android":"levelo://app?vid=e0c120af-edda-495a-af40-15fcc09948cc","ios":"levelo://app?vid=e0c120af-edda-495a-af40-15fcc09948cc"},"vehicle_type_id":"4","last_reported":1685016772,"current_range_meters":29200,"station_id":"ce4bgth2rcd13ifvqch0","pricing_plan_id":"free"},{"bike_id":"16e7282a-4eed-47c3-83b3-d7e0dee6c006","system_id":"levelo_inurba_marseille","lat":43.317075,"lon":5.377367,"is_reserved":false,"is_disabled":false,"rental_uris":{"android":"levelo://app?vid=16e7282a-4eed-47c3-83b3-d7e0dee6c006","ios":"levelo://app?vid=16e7282a-4eed-47c3-83b3-d7e0dee6c006"},"vehicle_type_id":"4","last_reported":1685016772,"current_range_meters":22400,"station_id":"ce4bgth2rcd13ifvqch0","pricing_plan_id":"free"},{"bike_id":"68553df9-2b4c-4244-a834-2447f191355a","system_id":"levelo_inurba_marseille","lat":43.317075,"lon":5.377367,"is_reserved":false,"is_disabled":false,"rental_uris":{"android":"levelo://app?vid=68553df9-2b4c-4244-a834-2447f191355a","ios":"levelo://app?vid=68553df9-2b4c-4244-a834-2447f191355a"},"vehicle_type_id":"4","last_reported":1685016772,"current_range_meters":7200,"station_id":"ce4bgth2rcd13ifvqch0","pricing_plan_id":"free"},{"bike_id":"3022569d-6af5-45bd-8997-a0f8c384be8e","system_id":"levelo_inurba_marseille","lat":43.317075,"lon":5.377367,"is_reserved":false,"is_disabled":false,"rental_uris":{"android":"levelo://app?vid=3022569d-6af5-45bd-8997-a0f8c384be8e","ios":"levelo://app?vid=3022569d-6af5-45bd-8997-a0f8c384be8e"},"vehicle_type_id":"4","last_reported":1685016772,"current_range_meters":25200,"station_id":"ce4bgth2rcd13ifvqch0","pricing_plan_id":"free"},{"bike_id":"9131a18f-c97e-4447-9aba-a95bef5c80ae","system_id":"levelo_inurba_marseille","lat":43.317075,"lon":5.377367,"is_reserved":false,"is_disabled":false,"rental_uris":{"android":"levelo://app?vid=9131a18f-c97e-4447-9aba-a95bef5c80ae","ios":"levelo://app?vid=9131a18f-c97e-4447-9aba-a95bef5c80ae"},"vehicle_type_id":"4","last_reported":1685016772,"current_range_meters":30000,"station_id":"ce4bgth2rcd13ifvqch0","pricing_plan_id":"free"},{"bike_id":"8d3b898a-41aa-4f28-b1a2-33ce656ae17f","system_id":"levelo_inurba_marseille","lat":43.317075,"lon":5.377367,"is_reserved":false,"is_disabled":false,"rental_uris":{"android":"levelo://app?vid=8d3b898a-41aa-4f28-b1a2-33ce656ae17f","ios":"levelo://app?vid=8d3b898a-41aa-4f28-b1a2-33ce656ae17f"},"vehicle_type_id":"4","last_reported":1685016772,"current_range_meters":23200,"station_id":"ce4bgth2rcd13ifvqch0","pricing_plan_id":"free"},{"bike_id":"fd38c318-e10c-4ea0-8386-140691495f8d","system_id":"levelo_inurba_marseille","lat":43.31713,"lon":5.37832,"is_reserved":false,"is_disabled":false,"rental_uris":{"android":"levelo://app?vid=fd38c318-e10c-4ea0-8386-140691495f8d","ios":"levelo://app?vid=fd38c318-e10c-4ea0-8386-140691495f8d"},"vehicle_type_id":"4","last_reported":1685016772,"current_range_meters":28800,"station_id":"","pricing_plan_id":"free"},{"bike_id":"46bd889a-1f3e-44cc-8c6b-967ad64473d0","system_id":"levelo_inurba_marseille","lat":43.30304,"lon":5.368987,"is_reserved":false,"is_disabled":false,"rental_uris":{"android":"levelo://app?vid=46bd889a-1f3e-44cc-8c6b-967ad64473d0","ios":"levelo://app?vid=46bd889a-1f3e-44cc-8c6b-967ad64473d0"},"vehicle_type_id":"4","last_reported":1685016772,"current_range_meters":26800,"station_id":"ce4bgqh2rcd13ifvqc5g","pricing_plan_id":"free"},{"bike_id":"bfd635d6-3f2b-4875-8c7b-78a961c2a61a","system_id":"levelo_inurba_marseille","lat":43.30308,"lon":5.36876,"is_reserved":false,"is_disabled":false,"rental_uris":{"android":"levelo://app?vid=bfd635d6-3f2b-4875-8c7b-78a961c2a61a","ios":"levelo://app?vid=bfd635d6-3f2b-4875-8c7b-78a961c2a61a"},"vehicle_type_id":"4","last_reported":1685016772,"current_range_meters":26000,"station_id":"ce4bgqh2rcd13ifvqc5g","pricing_plan_id":"free"},{"bike_id":"662e0004-0c9a-4039-a7b8-4d02ae11f264","system_id":"levelo_inurba_marseille","lat":43.30304,"lon":5.368987,"is_reserved":false,"is_disabled":false,"rental_uris":{"android":"levelo://app?vid=662e0004-0c9a-4039-a7b8-4d02ae11f264","ios":"levelo://app?vid=662e0004-0c9a-4039-a7b8-4d02ae11f264"},"vehicle_type_id":"4","last_reported":1685016772,"current_range_meters":18800,"station_id":"ce4bgqh2rcd13ifvqc5g","pricing_plan_id":"free"},{"bike_id":"e6d095ef-2b84-4614-9036-dcde0d40e77b","system_id":"levelo_inurba_marseille","lat":43.315289,"lon":5.380349,"is_reserved":false,"is_disabled":false,"rental_uris":{"android":"levelo://app?vid=e6d095ef-2b84-4614-9036-dcde0d40e77b","ios":"levelo://app?vid=e6d095ef-2b84-4614-9036-dcde0d40e77b"},"vehicle_type_id":"4","last_reported":1685016772,"current_range_meters":31200,"station_id":"ce4bhsp2rcd13ifvqi50","pricing_plan_id":"free"},{"bike_id":"d89317e6-0268-4af2-bc1f-65ba3e57a063","system_id":"levelo_inurba_marseille","lat":43.315289,"lon":5.380349,"is_reserved":false,"is_disabled":false,"rental_uris":{"android":"levelo://app?vid=d89317e6-0268-4af2-bc1f-65ba3e57a063","ios":"levelo://app?vid=d89317e6-0268-4af2-bc1f-65ba3e57a063"},"vehicle_type_id":"4","last_reported":1685016772,"current_range_meters":31200,"station_id":"ce4bhsp2rcd13ifvqi50","pricing_plan_id":"free"},{"bike_id":"5667468a-befa-4d46-9e08-82371f38a1ba","system_id":"levelo_inurba_marseille","lat":43.315293,"lon":5.380349,"is_reserved":false,"is_disabled":false,"rental_uris":{"android":"levelo://app?vid=5667468a-befa-4d46-9e08-82371f38a1ba","ios":"levelo://app?vid=5667468a-befa-4d46-9e08-82371f38a1ba"},"vehicle_type_id":"4","last_reported":1685016772,"current_range_meters":26800,"station_id":"ce4bhsp2rcd13ifvqi50","pricing_plan_id":"free"},{"bike_id":"1c46bc6b-3dcc-4388-bf8d-3fee885fe07f","system_id":"levelo_inurba_marseille","lat":43.301939,"lon":5.366286,"is_reserved":false,"is_disabled":false,"rental_uris":{"android":"levelo://app?vid=1c46bc6b-3dcc-4388-bf8d-3fee885fe07f","ios":"levelo://app?vid=1c46bc6b-3dcc-4388-bf8d-3fee885fe07f"},"vehicle_type_id":"4","last_reported":1685016772,"current_range_meters":28800,"station_id":"ce4bgrh2rcd13ifvqc8g","pricing_plan_id":"free"},{"bike_id":"664b1cb7-cee1-44ca-8a28-af3bf303709d","system_id":"levelo_inurba_marseille","lat":43.301745,"lon":5.366241,"is_reserved":false,"is_disabled":false,"rental_uris":{"android":"levelo://app?vid=664b1cb7-cee1-44ca-8a28-af3bf303709d","ios":"levelo://app?vid=664b1cb7-cee1-44ca-8a28-af3bf303709d"},"vehicle_type_id":"4","last_reported":1685016772,"current_range_meters":22800,"station_id":"","pricing_plan_id":"free"},{"bike_id":"3a127441-ebab-4190-9e2f-ae6b4172ada8","system_id":"levelo_inurba_marseille","lat":43.308012,"lon":5.381511,"is_reserved":false,"is_disabled":false,"rental_uris":{"android":"levelo://app?vid=3a127441-ebab-4190-9e2f-ae6b4172ada8","ios":"levelo://app?vid=3a127441-ebab-4190-9e2f-ae6b4172ada8"},"vehicle_type_id":"4","last_reported":1685016772,"current_range_meters":23200,"station_id":"ce4bgt12rcd13ifvqce0","pricing_plan_id":"free"},{"bike_id":"a50db0b2-81dd-478f-918a-2962e53808ad","system_id":"levelo_inurba_marseille","lat":43.304606,"lon":5.379026,"is_reserved":false,"is_disabled":false,"rental_uris":{"android":"levelo://app?vid=a50db0b2-81dd-478f-918a-2962e53808ad","ios":"levelo://app?vid=a50db0b2-81dd-478f-918a-2962e53808ad"},"vehicle_type_id":"4","last_reported":1685016772,"current_range_meters":1200,"station_id":"ce4bgup2rcd13ifvqcn0","pricing_plan_id":"free"},{"bike_id":"863823a4-040e-4915-82fe-a0802a7b9745","system_id":"levelo_inurba_marseille","lat":43.3047,"lon":5.37892,"is_reserved":false,"is_disabled":false,"rental_uris":{"android":"levelo://app?vid=863823a4-040e-4915-82fe-a0802a7b9745","ios":"levelo://app?vid=863823a4-040e-4915-82fe-a0802a7b9745"},"vehicle_type_id":"4","last_reported":1685016772,"current_range_meters":22800,"station_id":"ce4bgup2rcd13ifvqcn0","pricing_plan_id":"free"},{"bike_id":"9b0e13c2-50fc-40f3-a4b1-165ec841fc11","system_id":"levelo_inurba_marseille","lat":43.304606,"lon":5.379026,"is_reserved":false,"is_disabled":false,"rental_uris":{"android":"levelo://app?vid=9b0e13c2-50fc-40f3-a4b1-165ec841fc11","ios":"levelo://app?vid=9b0e13c2-50fc-40f3-a4b1-165ec841fc11"},"vehicle_type_id":"4","last_reported":1685016772,"current_range_meters":24000,"station_id":"ce4bgup2rcd13ifvqcn0","pricing_plan_id":"free"},{"bike_id":"7c8e47f6-8e85-4c65-be72-08727df199da","system_id":"levelo_inurba_marseille","lat":43.304606,"lon":5.379026,"is_reserved":false,"is_disabled":false,"rental_uris":{"android":"levelo://app?vid=7c8e47f6-8e85-4c65-be72-08727df199da","ios":"levelo://app?vid=7c8e47f6-8e85-4c65-be72-08727df199da"},"vehicle_type_id":"4","last_reported":1685016772,"current_range_meters":31200,"station_id":"ce4bgup2rcd13ifvqcn0","pricing_plan_id":"free"},{"bike_id":"7395c332-0b22-4349-8d13-fd8e52e63d93","system_id":"levelo_inurba_marseille","lat":43.304606,"lon":5.379026,"is_reserved":false,"is_disabled":false,"rental_uris":{"android":"levelo://app?vid=7395c332-0b22-4349-8d13-fd8e52e63d93","ios":"levelo://app?vid=7395c332-0b22-4349-8d13-fd8e52e63d93"},"vehicle_type_id":"4","last_reported":1685016772,"current_range_meters":21600,"station_id":"ce4bgup2rcd13ifvqcn0","pricing_plan_id":"free"},{"bike_id":"cb79e689-3bb0-430f-95c7-107aeee7d1fc","system_id":"levelo_inurba_marseille","lat":43.304606,"lon":5.379026,"is_reserved":false,"is_disabled":false,"rental_uris":{"android":"levelo://app?vid=cb79e689-3bb0-430f-95c7-107aeee7d1fc","ios":"levelo://app?vid=cb79e689-3bb0-430f-95c7-107aeee7d1fc"},"vehicle_type_id":"4","last_reported":1685016772,"current_range_meters":31600,"station_id":"ce4bgup2rcd13ifvqcn0","pricing_plan_id":"free"},{"bike_id":"cf2f3eb4-6f4f-4a50-b605-72765a8ff72b","system_id":"levelo_inurba_marseille","lat":43.304606,"lon":5.379026,"is_reserved":false,"is_disabled":false,"rental_uris":{"android":"levelo://app?vid=cf2f3eb4-6f4f-4a50-b605-72765a8ff72b","ios":"levelo://app?vid=cf2f3eb4-6f4f-4a50-b605-72765a8ff72b"},"vehicle_type_id":"4","last_reported":1685016772,"current_range_meters":30800,"station_id":"ce4bgup2rcd13ifvqcn0","pricing_plan_id":"free"},{"bike_id":"4e814b18-bd40-456c-8834-f45cc5994bd7","system_id":"levelo_inurba_marseille","lat":43.304606,"lon":5.379026,"is_reserved":false,"is_disabled":false,"rental_uris":{"android":"levelo://app?vid=4e814b18-bd40-456c-8834-f45cc5994bd7","ios":"levelo://app?vid=4e814b18-bd40-456c-8834-f45cc5994bd7"},"vehicle_type_id":"4","last_reported":1685016772,"current_range_meters":31200,"station_id":"ce4bgup2rcd13ifvqcn0","pricing_plan_id":"free"},{"bike_id":"f597d245-5484-40fd-a94e-c732fabf651b","system_id":"levelo_inurba_marseille","lat":43.304606,"lon":5.379026,"is_reserved":false,"is_disabled":false,"rental_uris":{"android":"levelo://app?vid=f597d245-5484-40fd-a94e-c732fabf651b","ios":"levelo://app?vid=f597d245-5484-40fd-a94e-c732fabf651b"},"vehicle_type_id":"4","last_reported":1685016772,"current_range_meters":27200,"station_id":"ce4bgup2rcd13ifvqcn0","pricing_plan_id":"free"},{"bike_id":"bbbfc76f-0981-452d-9331-e387301d3fdd","system_id":"levelo_inurba_marseille","lat":43.304606,"lon":5.379026,"is_reserved":false,"is_disabled":false,"rental_uris":{"android":"levelo://app?vid=bbbfc76f-0981-452d-9331-e387301d3fdd","ios":"levelo://app?vid=bbbfc76f-0981-452d-9331-e387301d3fdd"},"vehicle_type_id":"4","last_reported":1685016772,"current_range_meters":27200,"station_id":"ce4bgup2rcd13ifvqcn0","pricing_plan_id":"free"},{"bike_id":"c95c124c-90ad-4b4a-bbbc-da3d70626f4a","system_id":"levelo_inurba_marseille","lat":43.30458,"lon":5.37888,"is_reserved":false,"is_disabled":false,"rental_uris":{"android":"levelo://app?vid=c95c124c-90ad-4b4a-bbbc-da3d70626f4a","ios":"levelo://app?vid=c95c124c-90ad-4b4a-bbbc-da3d70626f4a"},"vehicle_type_id":"4","last_reported":1685016772,"current_range_meters":20000,"station_id":"ce4bgup2rcd13ifvqcn0","pricing_plan_id":"free"},{"bike_id":"fec61e95-eee6-47da-bb41-60634a74c235","system_id":"levelo_inurba_marseille","lat":43.304606,"lon":5.379026,"is_reserved":false,"is_disabled":false,"rental_uris":{"android":"levelo://app?vid=fec61e95-eee6-47da-bb41-60634a74c235","ios":"levelo://app?vid=fec61e95-eee6-47da-bb41-60634a74c235"},"vehicle_type_id":"4","last_reported":1685016772,"current_range_meters":31600,"station_id":"ce4bgup2rcd13ifvqcn0","pricing_plan_id":"free"},{"bike_id":"0d182200-5941-408f-91ef-0f874f5b46d5","system_id":"levelo_inurba_marseille","lat":43.30468,"lon":5.37901,"is_reserved":false,"is_disabled":false,"rental_uris":{"android":"levelo://app?vid=0d182200-5941-408f-91ef-0f874f5b46d5","ios":"levelo://app?vid=0d182200-5941-408f-91ef-0f874f5b46d5"},"vehicle_type_id":"4","last_reported":1685016772,"current_range_meters":20800,"station_id":"ce4bgup2rcd13ifvqcn0","pricing_plan_id":"free"},{"bike_id":"5a7a7e37-5a2a-43b9-b38c-6cfc67fb7f20","system_id":"levelo_inurba_marseille","lat":43.304606,"lon":5.379026,"is_reserved":false,"is_disabled":false,"rental_uris":{"android":"levelo://app?vid=5a7a7e37-5a2a-43b9-b38c-6cfc67fb7f20","ios":"levelo://app?vid=5a7a7e37-5a2a-43b9-b38c-6cfc67fb7f20"},"vehicle_type_id":"4","last_reported":1685016772,"current_range_meters":31600,"station_id":"ce4bgup2rcd13ifvqcn0","pricing_plan_id":"free"},{"bike_id":"d91d74fb-f6d4-4a20-8e52-3d25c1e8f3ae","system_id":"levelo_inurba_marseille","lat":43.304606,"lon":5.379026,"is_reserved":false,"is_disabled":false,"rental_uris":{"android":"levelo://app?vid=d91d74fb-f6d4-4a20-8e52-3d25c1e8f3ae","ios":"levelo://app?vid=d91d74fb-f6d4-4a20-8e52-3d25c1e8f3ae"},"vehicle_type_id":"4","last_reported":1685016772,"current_range_meters":31600,"station_id":"ce4bgup2rcd13ifvqcn0","pricing_plan_id":"free"},{"bike_id":"b61a68e2-6000-4bdb-9bc4-3598198ea889","system_id":"levelo_inurba_marseille","lat":43.30462,"lon":5.37897,"is_reserved":false,"is_disabled":false,"rental_uris":{"android":"levelo://app?vid=b61a68e2-6000-4bdb-9bc4-3598198ea889","ios":"levelo://app?vid=b61a68e2-6000-4bdb-9bc4-3598198ea889"},"vehicle_type_id":"4","last_reported":1685016772,"current_range_meters":21600,"station_id":"ce4bgup2rcd13ifvqcn0","pricing_plan_id":"free"},{"bike_id":"c55ca39e-0e57-4098-bcf7-7ef12d439714","system_id":"levelo_inurba_marseille","lat":43.304606,"lon":5.379026,"is_reserved":false,"is_disabled":false,"rental_uris":{"android":"levelo://app?vid=c55ca39e-0e57-4098-bcf7-7ef12d439714","ios":"levelo://app?vid=c55ca39e-0e57-4098-bcf7-7ef12d439714"},"vehicle_type_id":"4","last_reported":1685016772,"current_range_meters":31200,"station_id":"ce4bgup2rcd13ifvqcn0","pricing_plan_id":"free"},{"bike_id":"547dc033-842d-4737-9847-d0d04f9126ba","system_id":"levelo_inurba_marseille","lat":43.30469,"lon":5.37908,"is_reserved":false,"is_disabled":false,"rental_uris":{"android":"levelo://app?vid=547dc033-842d-4737-9847-d0d04f9126ba","ios":"levelo://app?vid=547dc033-842d-4737-9847-d0d04f9126ba"},"vehicle_type_id":"4","last_reported":1685016772,"current_range_meters":21200,"station_id":"ce4bgup2rcd13ifvqcn0","pricing_plan_id":"free"},{"bike_id":"7ef50207-6d47-435a-8ead-8b21a651be3c","system_id":"levelo_inurba_marseille","lat":43.304646,"lon":5.379035,"is_reserved":false,"is_disabled":false,"rental_uris":{"android":"levelo://app?vid=7ef50207-6d47-435a-8ead-8b21a651be3c","ios":"levelo://app?vid=7ef50207-6d47-435a-8ead-8b21a651be3c"},"vehicle_type_id":"4","last_reported":1685016772,"current_range_meters":15600,"station_id":"","pricing_plan_id":"free"},{"bike_id":"c2753820-8c3f-4b36-b195-3fbd1d1d7104","system_id":"levelo_inurba_marseille","lat":43.30459,"lon":5.379,"is_reserved":false,"is_disabled":false,"rental_uris":{"android":"levelo://app?vid=c2753820-8c3f-4b36-b195-3fbd1d1d7104","ios":"levelo://app?vid=c2753820-8c3f-4b36-b195-3fbd1d1d7104"},"vehicle_type_id":"4","last_reported":1685016772,"current_range_meters":23200,"station_id":"ce4bgup2rcd13ifvqcn0","pricing_plan_id":"free"},{"bike_id":"610fff3d-ab29-41f5-ae69-b55454563145","system_id":"levelo_inurba_marseille","lat":43.304606,"lon":5.379026,"is_reserved":false,"is_disabled":false,"rental_uris":{"android":"levelo://app?vid=610fff3d-ab29-41f5-ae69-b55454563145","ios":"levelo://app?vid=610fff3d-ab29-41f5-ae69-b55454563145"},"vehicle_type_id":"4","last_reported":1685016772,"current_range_meters":18800,"station_id":"ce4bgup2rcd13ifvqcn0","pricing_plan_id":"free"},{"bike_id":"94f072e2-85ff-4596-bbb0-710894775dab","system_id":"levelo_inurba_marseille","lat":43.30454,"lon":5.37895,"is_reserved":false,"is_disabled":false,"rental_uris":{"android":"levelo://app?vid=94f072e2-85ff-4596-bbb0-710894775dab","ios":"levelo://app?vid=94f072e2-85ff-4596-bbb0-710894775dab"},"vehicle_type_id":"4","last_reported":1685016772,"current_range_meters":25600,"station_id":"ce4bgup2rcd13ifvqcn0","pricing_plan_id":"free"},{"bike_id":"9ca7ec49-2439-4eb5-a379-4f14113cfda7","system_id":"levelo_inurba_marseille","lat":43.304606,"lon":5.379026,"is_reserved":false,"is_disabled":false,"rental_uris":{"android":"levelo://app?vid=9ca7ec49-2439-4eb5-a379-4f14113cfda7","ios":"levelo://app?vid=9ca7ec49-2439-4eb5-a379-4f14113cfda7"},"vehicle_type_id":"4","last_reported":1685016772,"current_range_meters":26800,"station_id":"ce4bgup2rcd13ifvqcn0","pricing_plan_id":"free"},{"bike_id":"2c93f268-1dbf-4244-8795-c960b0476931","system_id":"levelo_inurba_marseille","lat":43.304606,"lon":5.379026,"is_reserved":false,"is_disabled":false,"rental_uris":{"android":"levelo://app?vid=2c93f268-1dbf-4244-8795-c960b0476931","ios":"levelo://app?vid=2c93f268-1dbf-4244-8795-c960b0476931"},"vehicle_type_id":"4","last_reported":1685016772,"current_range_meters":18000,"station_id":"ce4bgup2rcd13ifvqcn0","pricing_plan_id":"free"},{"bike_id":"fb8b5732-fa72-4b2a-99f6-b19b6f61e809","system_id":"levelo_inurba_marseille","lat":43.30457,"lon":5.37904,"is_reserved":false,"is_disabled":false,"rental_uris":{"android":"levelo://app?vid=fb8b5732-fa72-4b2a-99f6-b19b6f61e809","ios":"levelo://app?vid=fb8b5732-fa72-4b2a-99f6-b19b6f61e809"},"vehicle_type_id":"4","last_reported":1685016772,"current_range_meters":21200,"station_id":"ce4bgup2rcd13ifvqcn0","pricing_plan_id":"free"},{"bike_id":"4a04b2b5-e6b7-4dde-a6fa-a015924ab68d","system_id":"levelo_inurba_marseille","lat":43.30455,"lon":5.37902,"is_reserved":false,"is_disabled":false,"rental_uris":{"android":"levelo://app?vid=4a04b2b5-e6b7-4dde-a6fa-a015924ab68d","ios":"levelo://app?vid=4a04b2b5-e6b7-4dde-a6fa-a015924ab68d"},"vehicle_type_id":"4","last_reported":1685016772,"current_range_meters":31200,"station_id":"ce4bgup2rcd13ifvqcn0","pricing_plan_id":"free"},{"bike_id":"e20fa457-c2e9-48a5-a965-677a4ae3e247","system_id":"levelo_inurba_marseille","lat":43.304606,"lon":5.379026,"is_reserved":false,"is_disabled":false,"rental_uris":{"android":"levelo://app?vid=e20fa457-c2e9-48a5-a965-677a4ae3e247","ios":"levelo://app?vid=e20fa457-c2e9-48a5-a965-677a4ae3e247"},"vehicle_type_id":"4","last_reported":1685016772,"current_range_meters":13600,"station_id":"ce4bgup2rcd13ifvqcn0","pricing_plan_id":"free"},{"bike_id":"afd651ca-f931-4bbb-bac1-8b1df0ed4515","system_id":"levelo_inurba_marseille","lat":43.304606,"lon":5.379026,"is_reserved":false,"is_disabled":false,"rental_uris":{"android":"levelo://app?vid=afd651ca-f931-4bbb-bac1-8b1df0ed4515","ios":"levelo://app?vid=afd651ca-f931-4bbb-bac1-8b1df0ed4515"},"vehicle_type_id":"4","last_reported":1685016772,"current_range_meters":28000,"station_id":"ce4bgup2rcd13ifvqcn0","pricing_plan_id":"free"},{"bike_id":"89baf52f-062e-470a-bd90-f63134490c8f","system_id":"levelo_inurba_marseille","lat":43.30147,"lon":5.37408,"is_reserved":false,"is_disabled":false,"rental_uris":{"android":"levelo://app?vid=89baf52f-062e-470a-bd90-f63134490c8f","ios":"levelo://app?vid=89baf52f-062e-470a-bd90-f63134490c8f"},"vehicle_type_id":"4","last_reported":1685016772,"current_range_meters":3600,"station_id":"","pricing_plan_id":"free"},{"bike_id":"53feb8c7-101d-43da-9f23-300499210f52","system_id":"levelo_inurba_marseille","lat":43.30141,"lon":5.37405,"is_reserved":false,"is_disabled":false,"rental_uris":{"android":"levelo://app?vid=53feb8c7-101d-43da-9f23-300499210f52","ios":"levelo://app?vid=53feb8c7-101d-43da-9f23-300499210f52"},"vehicle_type_id":"4","last_reported":1685016772,"current_range_meters":26000,"station_id":"","pricing_plan_id":"free"},{"bike_id":"ec2bf9d8-bdcd-4d00-823b-5e25cb80cc6b","system_id":"levelo_inurba_marseille","lat":43.319935,"lon":5.381699,"is_reserved":false,"is_disabled":false,"rental_uris":{"android":"levelo://app?vid=ec2bf9d8-bdcd-4d00-823b-5e25cb80cc6b","ios":"levelo://app?vid=ec2bf9d8-bdcd-4d00-823b-5e25cb80cc6b"},"vehicle_type_id":"4","last_reported":1685016772,"current_range_meters":31200,"station_id":"ce4bhr12rcd13ifvqhpg","pricing_plan_id":"free"},{"bike_id":"bfdcad51-97fc-4fc5-8b82-c545596782cd","system_id":"levelo_inurba_marseille","lat":43.319935,"lon":5.381699,"is_reserved":false,"is_disabled":false,"rental_uris":{"android":"levelo://app?vid=bfdcad51-97fc-4fc5-8b82-c545596782cd","ios":"levelo://app?vid=bfdcad51-97fc-4fc5-8b82-c545596782cd"},"vehicle_type_id":"4","last_reported":1685016772,"current_range_meters":31200,"station_id":"ce4bhr12rcd13ifvqhpg","pricing_plan_id":"free"},{"bike_id":"530a238a-2fe4-4ada-b174-d32325afbdf2","system_id":"levelo_inurba_marseille","lat":43.31995,"lon":5.38149,"is_reserved":false,"is_disabled":false,"rental_uris":{"android":"levelo://app?vid=530a238a-2fe4-4ada-b174-d32325afbdf2","ios":"levelo://app?vid=530a238a-2fe4-4ada-b174-d32325afbdf2"},"vehicle_type_id":"4","last_reported":1685016772,"current_range_meters":30000,"station_id":"ce4bhr12rcd13ifvqhpg","pricing_plan_id":"free"},{"bike_id":"e5571f58-adb6-49b7-8c86-2d757ae8e1a0","system_id":"levelo_inurba_marseille","lat":43.319935,"lon":5.381699,"is_reserved":false,"is_disabled":false,"rental_uris":{"android":"levelo://app?vid=e5571f58-adb6-49b7-8c86-2d757ae8e1a0","ios":"levelo://app?vid=e5571f58-adb6-49b7-8c86-2d757ae8e1a0"},"vehicle_type_id":"4","last_reported":1685016772,"current_range_meters":22800,"station_id":"ce4bhr12rcd13ifvqhpg","pricing_plan_id":"free"},{"bike_id":"0d8c7cdb-342a-483d-8084-83a1b19c465c","system_id":"levelo_inurba_marseille","lat":43.31997,"lon":5.38156,"is_reserved":false,"is_disabled":false,"rental_uris":{"android":"levelo://app?vid=0d8c7cdb-342a-483d-8084-83a1b19c465c","ios":"levelo://app?vid=0d8c7cdb-342a-483d-8084-83a1b19c465c"},"vehicle_type_id":"4","last_reported":1685016772,"current_range_meters":24000,"station_id":"ce4bhr12rcd13ifvqhpg","pricing_plan_id":"free"},{"bike_id":"5ac2fe43-85c7-472b-b3f7-4192c6da01ce","system_id":"levelo_inurba_marseille","lat":43.320076,"lon":5.381696,"is_reserved":false,"is_disabled":false,"rental_uris":{"android":"levelo://app?vid=5ac2fe43-85c7-472b-b3f7-4192c6da01ce","ios":"levelo://app?vid=5ac2fe43-85c7-472b-b3f7-4192c6da01ce"},"vehicle_type_id":"4","last_reported":1685016772,"current_range_meters":21600,"station_id":"","pricing_plan_id":"free"},{"bike_id":"e6f8cdf2-4a65-4fab-8066-1a3730118956","system_id":"levelo_inurba_marseille","lat":43.313571,"lon":5.384829,"is_reserved":false,"is_disabled":false,"rental_uris":{"android":"levelo://app?vid=e6f8cdf2-4a65-4fab-8066-1a3730118956","ios":"levelo://app?vid=e6f8cdf2-4a65-4fab-8066-1a3730118956"},"vehicle_type_id":"4","last_reported":1685016772,"current_range_meters":22800,"station_id":"ce4bgt92rcd13ifvqcf0","pricing_plan_id":"free"},{"bike_id":"7ff0cf0c-f9cb-4047-bca4-1219b301fb5d","system_id":"levelo_inurba_marseille","lat":43.313571,"lon":5.384829,"is_reserved":false,"is_disabled":false,"rental_uris":{"android":"levelo://app?vid=7ff0cf0c-f9cb-4047-bca4-1219b301fb5d","ios":"levelo://app?vid=7ff0cf0c-f9cb-4047-bca4-1219b301fb5d"},"vehicle_type_id":"4","last_reported":1685016772,"current_range_meters":30000,"station_id":"ce4bgt92rcd13ifvqcf0","pricing_plan_id":"free"},{"bike_id":"0067f80c-06e7-4a80-bf07-23277e25fdf3","system_id":"levelo_inurba_marseille","lat":43.313571,"lon":5.384829,"is_reserved":false,"is_disabled":false,"rental_uris":{"android":"levelo://app?vid=0067f80c-06e7-4a80-bf07-23277e25fdf3","ios":"levelo://app?vid=0067f80c-06e7-4a80-bf07-23277e25fdf3"},"vehicle_type_id":"4","last_reported":1685016772,"current_range_meters":14800,"station_id":"ce4bgt92rcd13ifvqcf0","pricing_plan_id":"free"},{"bike_id":"65b82cf4-50b8-40c6-9ebb-bc81ef4f21c4","system_id":"levelo_inurba_marseille","lat":43.313571,"lon":5.384829,"is_reserved":false,"is_disabled":false,"rental_uris":{"android":"levelo://app?vid=65b82cf4-50b8-40c6-9ebb-bc81ef4f21c4","ios":"levelo://app?vid=65b82cf4-50b8-40c6-9ebb-bc81ef4f21c4"},"vehicle_type_id":"4","last_reported":1685016772,"current_range_meters":25600,"station_id":"ce4bgt92rcd13ifvqcf0","pricing_plan_id":"free"},{"bike_id":"5fa403dd-6641-4344-b57d-14f2b48d8a0e","system_id":"levelo_inurba_marseille","lat":43.313571,"lon":5.384829,"is_reserved":false,"is_disabled":false,"rental_uris":{"android":"levelo://app?vid=5fa403dd-6641-4344-b57d-14f2b48d8a0e","ios":"levelo://app?vid=5fa403dd-6641-4344-b57d-14f2b48d8a0e"},"vehicle_type_id":"4","last_reported":1685016772,"current_range_meters":29600,"station_id":"ce4bgt92rcd13ifvqcf0","pricing_plan_id":"free"},{"bike_id":"d4b0c2b6-4e7a-43aa-b1a1-ee583cc5e17a","system_id":"levelo_inurba_marseille","lat":43.313571,"lon":5.384829,"is_reserved":false,"is_disabled":false,"rental_uris":{"android":"levelo://app?vid=d4b0c2b6-4e7a-43aa-b1a1-ee583cc5e17a","ios":"levelo://app?vid=d4b0c2b6-4e7a-43aa-b1a1-ee583cc5e17a"},"vehicle_type_id":"4","last_reported":1685016772,"current_range_meters":29600,"station_id":"ce4bgt92rcd13ifvqcf0","pricing_plan_id":"free"},{"bike_id":"3e96d812-4a85-4a74-91a9-2cfb6a122e6e","system_id":"levelo_inurba_marseille","lat":43.313571,"lon":5.384829,"is_reserved":false,"is_disabled":false,"rental_uris":{"android":"levelo://app?vid=3e96d812-4a85-4a74-91a9-2cfb6a122e6e","ios":"levelo://app?vid=3e96d812-4a85-4a74-91a9-2cfb6a122e6e"},"vehicle_type_id":"4","last_reported":1685016772,"current_range_meters":30400,"station_id":"ce4bgt92rcd13ifvqcf0","pricing_plan_id":"free"},{"bike_id":"b360bd51-0e52-486d-883d-27080b4d038e","system_id":"levelo_inurba_marseille","lat":43.298433,"lon":5.362774,"is_reserved":false,"is_disabled":false,"rental_uris":{"android":"levelo://app?vid=b360bd51-0e52-486d-883d-27080b4d038e","ios":"levelo://app?vid=b360bd51-0e52-486d-883d-27080b4d038e"},"vehicle_type_id":"4","last_reported":1685016772,"current_range_meters":27600,"station_id":"ce4bgpp2rcd13ifvqc3g","pricing_plan_id":"free"},{"bike_id":"a841f93a-a0a4-490a-92f5-6c035aaee142","system_id":"levelo_inurba_marseille","lat":43.305364,"lon":5.384119,"is_reserved":false,"is_disabled":false,"rental_uris":{"android":"levelo://app?vid=a841f93a-a0a4-490a-92f5-6c035aaee142","ios":"levelo://app?vid=a841f93a-a0a4-490a-92f5-6c035aaee142"},"vehicle_type_id":"4","last_reported":1685016772,"current_range_meters":16800,"station_id":"ce4bgg92rcd13ifvqb30","pricing_plan_id":"free"},{"bike_id":"89ab4bce-900e-4e04-9d47-c39c98521424","system_id":"levelo_inurba_marseille","lat":43.298433,"lon":5.362774,"is_reserved":false,"is_disabled":false,"rental_uris":{"android":"levelo://app?vid=89ab4bce-900e-4e04-9d47-c39c98521424","ios":"levelo://app?vid=89ab4bce-900e-4e04-9d47-c39c98521424"},"vehicle_type_id":"4","last_reported":1685016772,"current_range_meters":27200,"station_id":"ce4bgpp2rcd13ifvqc3g","pricing_plan_id":"free"},{"bike_id":"487f00c6-133b-41a9-8984-d8b7dd5ffbb4","system_id":"levelo_inurba_marseille","lat":43.298433,"lon":5.362774,"is_reserved":false,"is_disabled":false,"rental_uris":{"android":"levelo://app?vid=487f00c6-133b-41a9-8984-d8b7dd5ffbb4","ios":"levelo://app?vid=487f00c6-133b-41a9-8984-d8b7dd5ffbb4"},"vehicle_type_id":"4","last_reported":1685016772,"current_range_meters":30000,"station_id":"ce4bgpp2rcd13ifvqc3g","pricing_plan_id":"free"},{"bike_id":"d9825012-a460-43e3-9f0e-f387d708c65d","system_id":"levelo_inurba_marseille","lat":43.305364,"lon":5.384119,"is_reserved":false,"is_disabled":false,"rental_uris":{"android":"levelo://app?vid=d9825012-a460-43e3-9f0e-f387d708c65d","ios":"levelo://app?vid=d9825012-a460-43e3-9f0e-f387d708c65d"},"vehicle_type_id":"4","last_reported":1685016772,"current_range_meters":27600,"station_id":"ce4bgg92rcd13ifvqb30","pricing_plan_id":"free"},{"bike_id":"9163706e-85b3-4d1e-a6e2-476354a7ab76","system_id":"levelo_inurba_marseille","lat":43.298433,"lon":5.362774,"is_reserved":false,"is_disabled":false,"rental_uris":{"android":"levelo://app?vid=9163706e-85b3-4d1e-a6e2-476354a7ab76","ios":"levelo://app?vid=9163706e-85b3-4d1e-a6e2-476354a7ab76"},"vehicle_type_id":"4","last_reported":1685016772,"current_range_meters":10000,"station_id":"ce4bgpp2rcd13ifvqc3g","pricing_plan_id":"free"},{"bike_id":"aa8749f3-de4f-4ce2-b068-954f9a690f84","system_id":"levelo_inurba_marseille","lat":43.298433,"lon":5.362774,"is_reserved":false,"is_disabled":false,"rental_uris":{"android":"levelo://app?vid=aa8749f3-de4f-4ce2-b068-954f9a690f84","ios":"levelo://app?vid=aa8749f3-de4f-4ce2-b068-954f9a690f84"},"vehicle_type_id":"4","last_reported":1685016772,"current_range_meters":27200,"station_id":"ce4bgpp2rcd13ifvqc3g","pricing_plan_id":"free"},{"bike_id":"d3467e67-8f8a-4c5f-b6f3-a939022b1125","system_id":"levelo_inurba_marseille","lat":43.305364,"lon":5.384119,"is_reserved":false,"is_disabled":false,"rental_uris":{"android":"levelo://app?vid=d3467e67-8f8a-4c5f-b6f3-a939022b1125","ios":"levelo://app?vid=d3467e67-8f8a-4c5f-b6f3-a939022b1125"},"vehicle_type_id":"4","last_reported":1685016772,"current_range_meters":14000,"station_id":"ce4bgg92rcd13ifvqb30","pricing_plan_id":"free"},{"bike_id":"a186415f-01ea-4407-b5e4-726cfba05e38","system_id":"levelo_inurba_marseille","lat":43.299243,"lon":5.37481,"is_reserved":false,"is_disabled":false,"rental_uris":{"android":"levelo://app?vid=a186415f-01ea-4407-b5e4-726cfba05e38","ios":"levelo://app?vid=a186415f-01ea-4407-b5e4-726cfba05e38"},"vehicle_type_id":"4","last_reported":1685016772,"current_range_meters":25600,"station_id":"ce4bgjh2rcd13ifvqbg0","pricing_plan_id":"free"},{"bike_id":"1c0041ad-d6ee-4b00-8056-7ccf23331356","system_id":"levelo_inurba_marseille","lat":43.298433,"lon":5.362774,"is_reserved":false,"is_disabled":false,"rental_uris":{"android":"levelo://app?vid=1c0041ad-d6ee-4b00-8056-7ccf23331356","ios":"levelo://app?vid=1c0041ad-d6ee-4b00-8056-7ccf23331356"},"vehicle_type_id":"4","last_reported":1685016772,"current_range_meters":31600,"station_id":"ce4bgpp2rcd13ifvqc3g","pricing_plan_id":"free"},{"bike_id":"f612a92b-c79e-4d62-bd69-d9947a9c15df","system_id":"levelo_inurba_marseille","lat":43.299243,"lon":5.37481,"is_reserved":false,"is_disabled":false,"rental_uris":{"android":"levelo://app?vid=f612a92b-c79e-4d62-bd69-d9947a9c15df","ios":"levelo://app?vid=f612a92b-c79e-4d62-bd69-d9947a9c15df"},"vehicle_type_id":"4","last_reported":1685016772,"current_range_meters":31600,"station_id":"ce4bgjh2rcd13ifvqbg0","pricing_plan_id":"free"},{"bike_id":"222af222-eb78-44de-9b83-1cd69aaa2759","system_id":"levelo_inurba_marseille","lat":43.299243,"lon":5.37481,"is_reserved":false,"is_disabled":false,"rental_uris":{"android":"levelo://app?vid=222af222-eb78-44de-9b83-1cd69aaa2759","ios":"levelo://app?vid=222af222-eb78-44de-9b83-1cd69aaa2759"},"vehicle_type_id":"4","last_reported":1685016772,"current_range_meters":31600,"station_id":"ce4bgjh2rcd13ifvqbg0","pricing_plan_id":"free"},{"bike_id":"21456688-dbd0-4daf-bda8-f84a9d3ac02e","system_id":"levelo_inurba_marseille","lat":43.305364,"lon":5.384119,"is_reserved":false,"is_disabled":false,"rental_uris":{"android":"levelo://app?vid=21456688-dbd0-4daf-bda8-f84a9d3ac02e","ios":"levelo://app?vid=21456688-dbd0-4daf-bda8-f84a9d3ac02e"},"vehicle_type_id":"4","last_reported":1685016772,"current_range_meters":16800,"station_id":"ce4bgg92rcd13ifvqb30","pricing_plan_id":"free"},{"bike_id":"f4a5c009-9116-45de-843f-e750266933a4","system_id":"levelo_inurba_marseille","lat":43.299243,"lon":5.37481,"is_reserved":false,"is_disabled":false,"rental_uris":{"android":"levelo://app?vid=f4a5c009-9116-45de-843f-e750266933a4","ios":"levelo://app?vid=f4a5c009-9116-45de-843f-e750266933a4"},"vehicle_type_id":"4","last_reported":1685016772,"current_range_meters":29200,"station_id":"ce4bgjh2rcd13ifvqbg0","pricing_plan_id":"free"},{"bike_id":"9a0fa379-af02-4500-a67d-8fb09debb19a","system_id":"levelo_inurba_marseille","lat":43.299243,"lon":5.374807,"is_reserved":false,"is_disabled":false,"rental_uris":{"android":"levelo://app?vid=9a0fa379-af02-4500-a67d-8fb09debb19a","ios":"levelo://app?vid=9a0fa379-af02-4500-a67d-8fb09debb19a"},"vehicle_type_id":"4","last_reported":1685016772,"current_range_meters":18400,"station_id":"ce4bgjh2rcd13ifvqbg0","pricing_plan_id":"free"},{"bike_id":"3bfb4307-1252-4ce7-90cf-0d223bd74af7","system_id":"levelo_inurba_marseille","lat":43.299243,"lon":5.37481,"is_reserved":false,"is_disabled":false,"rental_uris":{"android":"levelo://app?vid=3bfb4307-1252-4ce7-90cf-0d223bd74af7","ios":"levelo://app?vid=3bfb4307-1252-4ce7-90cf-0d223bd74af7"},"vehicle_type_id":"4","last_reported":1685016772,"current_range_meters":23200,"station_id":"ce4bgjh2rcd13ifvqbg0","pricing_plan_id":"free"},{"bike_id":"7f150796-9809-4146-a47c-5341212bb9ee","system_id":"levelo_inurba_marseille","lat":43.299243,"lon":5.37481,"is_reserved":false,"is_disabled":false,"rental_uris":{"android":"levelo://app?vid=7f150796-9809-4146-a47c-5341212bb9ee","ios":"levelo://app?vid=7f150796-9809-4146-a47c-5341212bb9ee"},"vehicle_type_id":"4","last_reported":1685016772,"current_range_meters":20400,"station_id":"ce4bgjh2rcd13ifvqbg0","pricing_plan_id":"free"},{"bike_id":"06d97226-790c-4cce-b2d2-f9b56c25339f","system_id":"levelo_inurba_marseille","lat":43.311722,"lon":5.387247,"is_reserved":false,"is_disabled":false,"rental_uris":{"android":"levelo://app?vid=06d97226-790c-4cce-b2d2-f9b56c25339f","ios":"levelo://app?vid=06d97226-790c-4cce-b2d2-f9b56c25339f"},"vehicle_type_id":"4","last_reported":1685016772,"current_range_meters":30800,"station_id":"ce4bgv12rcd13ifvqcp0","pricing_plan_id":"free"},{"bike_id":"9424a6ae-c4a5-43ac-9197-7674e37b4fb0","system_id":"levelo_inurba_marseille","lat":43.299243,"lon":5.374807,"is_reserved":false,"is_disabled":false,"rental_uris":{"android":"levelo://app?vid=9424a6ae-c4a5-43ac-9197-7674e37b4fb0","ios":"levelo://app?vid=9424a6ae-c4a5-43ac-9197-7674e37b4fb0"},"vehicle_type_id":"4","last_reported":1685016772,"current_range_meters":31600,"station_id":"ce4bgjh2rcd13ifvqbg0","pricing_plan_id":"free"},{"bike_id":"65c49fca-29d5-422c-8b90-ee0679ccfae0","system_id":"levelo_inurba_marseille","lat":43.311722,"lon":5.387247,"is_reserved":false,"is_disabled":false,"rental_uris":{"android":"levelo://app?vid=65c49fca-29d5-422c-8b90-ee0679ccfae0","ios":"levelo://app?vid=65c49fca-29d5-422c-8b90-ee0679ccfae0"},"vehicle_type_id":"4","last_reported":1685016772,"current_range_meters":31600,"station_id":"ce4bgv12rcd13ifvqcp0","pricing_plan_id":"free"},{"bike_id":"6593734c-6b45-42e5-9029-536c9d67ca03","system_id":"levelo_inurba_marseille","lat":43.311722,"lon":5.387247,"is_reserved":false,"is_disabled":false,"rental_uris":{"android":"levelo://app?vid=6593734c-6b45-42e5-9029-536c9d67ca03","ios":"levelo://app?vid=6593734c-6b45-42e5-9029-536c9d67ca03"},"vehicle_type_id":"4","last_reported":1685016772,"current_range_meters":31600,"station_id":"ce4bgv12rcd13ifvqcp0","pricing_plan_id":"free"},{"bike_id":"469d8d10-995a-48de-bfd6-106d97611bb5","system_id":"levelo_inurba_marseille","lat":43.311722,"lon":5.387247,"is_reserved":false,"is_disabled":false,"rental_uris":{"android":"levelo://app?vid=469d8d10-995a-48de-bfd6-106d97611bb5","ios":"levelo://app?vid=469d8d10-995a-48de-bfd6-106d97611bb5"},"vehicle_type_id":"4","last_reported":1685016772,"current_range_meters":25200,"station_id":"ce4bgv12rcd13ifvqcp0","pricing_plan_id":"free"},{"bike_id":"6a515dd8-201b-4d7b-b191-b85bf0ef467f","system_id":"levelo_inurba_marseille","lat":43.297794,"lon":5.370888,"is_reserved":false,"is_disabled":false,"rental_uris":{"android":"levelo://app?vid=6a515dd8-201b-4d7b-b191-b85bf0ef467f","ios":"levelo://app?vid=6a515dd8-201b-4d7b-b191-b85bf0ef467f"},"vehicle_type_id":"4","last_reported":1685016772,"current_range_meters":30000,"station_id":"ce4bgop2rcd13ifvqc1g","pricing_plan_id":"free"},{"bike_id":"50fcd39d-5482-4c7b-a506-9e30906771aa","system_id":"levelo_inurba_marseille","lat":43.29793,"lon":5.37097,"is_reserved":false,"is_disabled":false,"rental_uris":{"android":"levelo://app?vid=50fcd39d-5482-4c7b-a506-9e30906771aa","ios":"levelo://app?vid=50fcd39d-5482-4c7b-a506-9e30906771aa"},"vehicle_type_id":"4","last_reported":1685016772,"current_range_meters":27200,"station_id":"ce4bgop2rcd13ifvqc1g","pricing_plan_id":"free"},{"bike_id":"52da7501-5ca2-443a-a7cc-1ba4d93dffc0","system_id":"levelo_inurba_marseille","lat":43.297794,"lon":5.370888,"is_reserved":false,"is_disabled":false,"rental_uris":{"android":"levelo://app?vid=52da7501-5ca2-443a-a7cc-1ba4d93dffc0","ios":"levelo://app?vid=52da7501-5ca2-443a-a7cc-1ba4d93dffc0"},"vehicle_type_id":"4","last_reported":1685016772,"current_range_meters":22000,"station_id":"ce4bgop2rcd13ifvqc1g","pricing_plan_id":"free"},{"bike_id":"86d683ac-54c6-430c-a42f-d2e1fbd1937d","system_id":"levelo_inurba_marseille","lat":43.297774,"lon":5.370875,"is_reserved":false,"is_disabled":false,"rental_uris":{"android":"levelo://app?vid=86d683ac-54c6-430c-a42f-d2e1fbd1937d","ios":"levelo://app?vid=86d683ac-54c6-430c-a42f-d2e1fbd1937d"},"vehicle_type_id":"4","last_reported":1685016772,"current_range_meters":21200,"station_id":"ce4bgop2rcd13ifvqc1g","pricing_plan_id":"free"},{"bike_id":"fad50468-bff6-4eb0-bc39-08e7203bec60","system_id":"levelo_inurba_marseille","lat":43.328371,"lon":5.366912,"is_reserved":false,"is_disabled":false,"rental_uris":{"android":"levelo://app?vid=fad50468-bff6-4eb0-bc39-08e7203bec60","ios":"levelo://app?vid=fad50468-bff6-4eb0-bc39-08e7203bec60"},"vehicle_type_id":"4","last_reported":1685016772,"current_range_meters":18000,"station_id":"ce4bhs92rcd13ifvqi0g","pricing_plan_id":"free"},{"bike_id":"07d0f5f8-594a-4c99-bd5f-efd86e16327f","system_id":"levelo_inurba_marseille","lat":43.328371,"lon":5.366912,"is_reserved":false,"is_disabled":false,"rental_uris":{"android":"levelo://app?vid=07d0f5f8-594a-4c99-bd5f-efd86e16327f","ios":"levelo://app?vid=07d0f5f8-594a-4c99-bd5f-efd86e16327f"},"vehicle_type_id":"4","last_reported":1685016772,"current_range_meters":12400,"station_id":"ce4bhs92rcd13ifvqi0g","pricing_plan_id":"free"},{"bike_id":"33d64a15-7d9d-4fb0-ae0e-1b1b07ff9aea","system_id":"levelo_inurba_marseille","lat":43.328371,"lon":5.366909,"is_reserved":false,"is_disabled":false,"rental_uris":{"android":"levelo://app?vid=33d64a15-7d9d-4fb0-ae0e-1b1b07ff9aea","ios":"levelo://app?vid=33d64a15-7d9d-4fb0-ae0e-1b1b07ff9aea"},"vehicle_type_id":"4","last_reported":1685016772,"current_range_meters":31200,"station_id":"ce4bhs92rcd13ifvqi0g","pricing_plan_id":"free"},{"bike_id":"beb58a24-32df-4292-805e-75c74c187706","system_id":"levelo_inurba_marseille","lat":43.328371,"lon":5.366912,"is_reserved":false,"is_disabled":false,"rental_uris":{"android":"levelo://app?vid=beb58a24-32df-4292-805e-75c74c187706","ios":"levelo://app?vid=beb58a24-32df-4292-805e-75c74c187706"},"vehicle_type_id":"4","last_reported":1685016772,"current_range_meters":31200,"station_id":"ce4bhs92rcd13ifvqi0g","pricing_plan_id":"free"},{"bike_id":"cd2ff10f-681c-4c0d-b23b-ed356d56ba93","system_id":"levelo_inurba_marseille","lat":43.328371,"lon":5.366912,"is_reserved":false,"is_disabled":false,"rental_uris":{"android":"levelo://app?vid=cd2ff10f-681c-4c0d-b23b-ed356d56ba93","ios":"levelo://app?vid=cd2ff10f-681c-4c0d-b23b-ed356d56ba93"},"vehicle_type_id":"4","last_reported":1685016772,"current_range_meters":28800,"station_id":"ce4bhs92rcd13ifvqi0g","pricing_plan_id":"free"},{"bike_id":"4fe812b5-a152-4f6f-a5e4-5b2d482ba70f","system_id":"levelo_inurba_marseille","lat":43.328371,"lon":5.366912,"is_reserved":false,"is_disabled":false,"rental_uris":{"android":"levelo://app?vid=4fe812b5-a152-4f6f-a5e4-5b2d482ba70f","ios":"levelo://app?vid=4fe812b5-a152-4f6f-a5e4-5b2d482ba70f"},"vehicle_type_id":"4","last_reported":1685016772,"current_range_meters":19200,"station_id":"ce4bhs92rcd13ifvqi0g","pricing_plan_id":"free"},{"bike_id":"df1880ac-d231-4326-8b39-c3d013dbb8ca","system_id":"levelo_inurba_marseille","lat":43.3151,"lon":5.38914,"is_reserved":false,"is_disabled":false,"rental_uris":{"android":"levelo://app?vid=df1880ac-d231-4326-8b39-c3d013dbb8ca","ios":"levelo://app?vid=df1880ac-d231-4326-8b39-c3d013dbb8ca"},"vehicle_type_id":"4","last_reported":1685016772,"current_range_meters":23200,"station_id":"","pricing_plan_id":"free"},{"bike_id":"92fadbdb-9716-4248-b4fd-da22619cd86b","system_id":"levelo_inurba_marseille","lat":43.29573,"lon":5.367355,"is_reserved":false,"is_disabled":false,"rental_uris":{"android":"levelo://app?vid=92fadbdb-9716-4248-b4fd-da22619cd86b","ios":"levelo://app?vid=92fadbdb-9716-4248-b4fd-da22619cd86b"},"vehicle_type_id":"4","last_reported":1685016772,"current_range_meters":24400,"station_id":"ce4bgph2rcd13ifvqc2g","pricing_plan_id":"free"},{"bike_id":"c8933602-e6eb-41e7-bbcb-7ffaae6f822e","system_id":"levelo_inurba_marseille","lat":43.308012,"lon":5.381511,"is_reserved":false,"is_disabled":false,"rental_uris":{"android":"levelo://app?vid=c8933602-e6eb-41e7-bbcb-7ffaae6f822e","ios":"levelo://app?vid=c8933602-e6eb-41e7-bbcb-7ffaae6f822e"},"vehicle_type_id":"4","last_reported":1685016772,"current_range_meters":12000,"station_id":"ce4bgt12rcd13ifvqce0","pricing_plan_id":"free"},{"bike_id":"0c53a217-de0c-443c-ad61-1d2ef57d9bd3","system_id":"levelo_inurba_marseille","lat":43.296023,"lon":5.367708,"is_reserved":false,"is_disabled":false,"rental_uris":{"android":"levelo://app?vid=0c53a217-de0c-443c-ad61-1d2ef57d9bd3","ios":"levelo://app?vid=0c53a217-de0c-443c-ad61-1d2ef57d9bd3"},"vehicle_type_id":"4","last_reported":1685016772,"current_range_meters":2400,"station_id":"","pricing_plan_id":"free"},{"bike_id":"287908f5-73bb-4505-98c0-048d3cd90521","system_id":"levelo_inurba_marseille","lat":43.296129,"lon":5.370777,"is_reserved":false,"is_disabled":false,"rental_uris":{"android":"levelo://app?vid=287908f5-73bb-4505-98c0-048d3cd90521","ios":"levelo://app?vid=287908f5-73bb-4505-98c0-048d3cd90521"},"vehicle_type_id":"4","last_reported":1685016772,"current_range_meters":31600,"station_id":"ce4bgnh2rcd13ifvqc0g","pricing_plan_id":"free"},{"bike_id":"c1ec7047-1e6d-4c8b-ad64-5755a04afd61","system_id":"levelo_inurba_marseille","lat":43.296131,"lon":5.370773,"is_reserved":false,"is_disabled":false,"rental_uris":{"android":"levelo://app?vid=c1ec7047-1e6d-4c8b-ad64-5755a04afd61","ios":"levelo://app?vid=c1ec7047-1e6d-4c8b-ad64-5755a04afd61"},"vehicle_type_id":"4","last_reported":1685016772,"current_range_meters":31200,"station_id":"ce4bgnh2rcd13ifvqc0g","pricing_plan_id":"free"},{"bike_id":"46c30e7f-fb95-443a-ad04-fcf0dbc18e7b","system_id":"levelo_inurba_marseille","lat":43.29622,"lon":5.37153,"is_reserved":false,"is_disabled":false,"rental_uris":{"android":"levelo://app?vid=46c30e7f-fb95-443a-ad04-fcf0dbc18e7b","ios":"levelo://app?vid=46c30e7f-fb95-443a-ad04-fcf0dbc18e7b"},"vehicle_type_id":"4","last_reported":1685016772,"current_range_meters":28000,"station_id":"ce4bgk12rcd13ifvqbj0","pricing_plan_id":"free"},{"bike_id":"848e8dc3-aaff-45b3-a6a8-7611a32dac89","system_id":"levelo_inurba_marseille","lat":43.296131,"lon":5.370791,"is_reserved":false,"is_disabled":false,"rental_uris":{"android":"levelo://app?vid=848e8dc3-aaff-45b3-a6a8-7611a32dac89","ios":"levelo://app?vid=848e8dc3-aaff-45b3-a6a8-7611a32dac89"},"vehicle_type_id":"4","last_reported":1685016772,"current_range_meters":31200,"station_id":"ce4bgnh2rcd13ifvqc0g","pricing_plan_id":"free"},{"bike_id":"ed34c371-6696-4a01-a67e-dcbb404d59a3","system_id":"levelo_inurba_marseille","lat":43.296131,"lon":5.370791,"is_reserved":false,"is_disabled":false,"rental_uris":{"android":"levelo://app?vid=ed34c371-6696-4a01-a67e-dcbb404d59a3","ios":"levelo://app?vid=ed34c371-6696-4a01-a67e-dcbb404d59a3"},"vehicle_type_id":"4","last_reported":1685016772,"current_range_meters":30800,"station_id":"ce4bgnh2rcd13ifvqc0g","pricing_plan_id":"free"},{"bike_id":"c1deb0c2-b281-40c1-9849-5cc7814987e5","system_id":"levelo_inurba_marseille","lat":43.296131,"lon":5.370773,"is_reserved":false,"is_disabled":false,"rental_uris":{"android":"levelo://app?vid=c1deb0c2-b281-40c1-9849-5cc7814987e5","ios":"levelo://app?vid=c1deb0c2-b281-40c1-9849-5cc7814987e5"},"vehicle_type_id":"4","last_reported":1685016772,"current_range_meters":30800,"station_id":"ce4bgnh2rcd13ifvqc0g","pricing_plan_id":"free"},{"bike_id":"8d2a68ab-a795-457d-8046-b1268d68d348","system_id":"levelo_inurba_marseille","lat":43.296131,"lon":5.370791,"is_reserved":false,"is_disabled":false,"rental_uris":{"android":"levelo://app?vid=8d2a68ab-a795-457d-8046-b1268d68d348","ios":"levelo://app?vid=8d2a68ab-a795-457d-8046-b1268d68d348"},"vehicle_type_id":"4","last_reported":1685016772,"current_range_meters":28800,"station_id":"ce4bgnh2rcd13ifvqc0g","pricing_plan_id":"free"},{"bike_id":"276e8684-5df0-487d-a846-8933fb6a8ad0","system_id":"levelo_inurba_marseille","lat":43.296129,"lon":5.370777,"is_reserved":false,"is_disabled":false,"rental_uris":{"android":"levelo://app?vid=276e8684-5df0-487d-a846-8933fb6a8ad0","ios":"levelo://app?vid=276e8684-5df0-487d-a846-8933fb6a8ad0"},"vehicle_type_id":"4","last_reported":1685016772,"current_range_meters":31200,"station_id":"ce4bgnh2rcd13ifvqc0g","pricing_plan_id":"free"},{"bike_id":"ab3d2a27-8557-4913-b72d-52cd747a45fe","system_id":"levelo_inurba_marseille","lat":43.296129,"lon":5.370777,"is_reserved":false,"is_disabled":false,"rental_uris":{"android":"levelo://app?vid=ab3d2a27-8557-4913-b72d-52cd747a45fe","ios":"levelo://app?vid=ab3d2a27-8557-4913-b72d-52cd747a45fe"},"vehicle_type_id":"4","last_reported":1685016772,"current_range_meters":22800,"station_id":"ce4bgnh2rcd13ifvqc0g","pricing_plan_id":"free"},{"bike_id":"560fb9aa-f551-4b4b-a2e0-cd6add8ef0de","system_id":"levelo_inurba_marseille","lat":43.296131,"lon":5.370791,"is_reserved":false,"is_disabled":false,"rental_uris":{"android":"levelo://app?vid=560fb9aa-f551-4b4b-a2e0-cd6add8ef0de","ios":"levelo://app?vid=560fb9aa-f551-4b4b-a2e0-cd6add8ef0de"},"vehicle_type_id":"4","last_reported":1685016772,"current_range_meters":26000,"station_id":"ce4bgnh2rcd13ifvqc0g","pricing_plan_id":"free"},{"bike_id":"adee18fd-5744-4ac2-a9dd-d2a3788e1da9","system_id":"levelo_inurba_marseille","lat":43.29573,"lon":5.367355,"is_reserved":false,"is_disabled":false,"rental_uris":{"android":"levelo://app?vid=adee18fd-5744-4ac2-a9dd-d2a3788e1da9","ios":"levelo://app?vid=adee18fd-5744-4ac2-a9dd-d2a3788e1da9"},"vehicle_type_id":"4","last_reported":1685016772,"current_range_meters":13200,"station_id":"ce4bgph2rcd13ifvqc2g","pricing_plan_id":"free"},{"bike_id":"35aea008-f538-4863-bf8e-3da6bf2695fc","system_id":"levelo_inurba_marseille","lat":43.296129,"lon":5.370777,"is_reserved":false,"is_disabled":false,"rental_uris":{"android":"levelo://app?vid=35aea008-f538-4863-bf8e-3da6bf2695fc","ios":"levelo://app?vid=35aea008-f538-4863-bf8e-3da6bf2695fc"},"vehicle_type_id":"4","last_reported":1685016772,"current_range_meters":24800,"station_id":"ce4bgnh2rcd13ifvqc0g","pricing_plan_id":"free"},{"bike_id":"2a199159-5e6f-41c6-a296-e425db54d69d","system_id":"levelo_inurba_marseille","lat":43.29573,"lon":5.367355,"is_reserved":false,"is_disabled":false,"rental_uris":{"android":"levelo://app?vid=2a199159-5e6f-41c6-a296-e425db54d69d","ios":"levelo://app?vid=2a199159-5e6f-41c6-a296-e425db54d69d"},"vehicle_type_id":"4","last_reported":1685016772,"current_range_meters":31600,"station_id":"ce4bgph2rcd13ifvqc2g","pricing_plan_id":"free"},{"bike_id":"4ac5b4a2-ef8b-4285-bd1a-5fe47af2af52","system_id":"levelo_inurba_marseille","lat":43.29573,"lon":5.367355,"is_reserved":false,"is_disabled":false,"rental_uris":{"android":"levelo://app?vid=4ac5b4a2-ef8b-4285-bd1a-5fe47af2af52","ios":"levelo://app?vid=4ac5b4a2-ef8b-4285-bd1a-5fe47af2af52"},"vehicle_type_id":"4","last_reported":1685016772,"current_range_meters":32000,"station_id":"ce4bgph2rcd13ifvqc2g","pricing_plan_id":"free"},{"bike_id":"60923f11-e0d6-4472-916b-5765515c631d","system_id":"levelo_inurba_marseille","lat":43.29573,"lon":5.367355,"is_reserved":false,"is_disabled":false,"rental_uris":{"android":"levelo://app?vid=60923f11-e0d6-4472-916b-5765515c631d","ios":"levelo://app?vid=60923f11-e0d6-4472-916b-5765515c631d"},"vehicle_type_id":"4","last_reported":1685016772,"current_range_meters":31600,"station_id":"ce4bgph2rcd13ifvqc2g","pricing_plan_id":"free"},{"bike_id":"672d8576-647b-4056-8c3e-fd07cf042aaa","system_id":"levelo_inurba_marseille","lat":43.29573,"lon":5.367355,"is_reserved":false,"is_disabled":false,"rental_uris":{"android":"levelo://app?vid=672d8576-647b-4056-8c3e-fd07cf042aaa","ios":"levelo://app?vid=672d8576-647b-4056-8c3e-fd07cf042aaa"},"vehicle_type_id":"4","last_reported":1685016772,"current_range_meters":31600,"station_id":"ce4bgph2rcd13ifvqc2g","pricing_plan_id":"free"},{"bike_id":"e651ac55-4e58-4d3b-81c5-23a3f8c801ae","system_id":"levelo_inurba_marseille","lat":43.29573,"lon":5.367355,"is_reserved":false,"is_disabled":false,"rental_uris":{"android":"levelo://app?vid=e651ac55-4e58-4d3b-81c5-23a3f8c801ae","ios":"levelo://app?vid=e651ac55-4e58-4d3b-81c5-23a3f8c801ae"},"vehicle_type_id":"4","last_reported":1685016772,"current_range_meters":15600,"station_id":"ce4bgph2rcd13ifvqc2g","pricing_plan_id":"free"},{"bike_id":"bcce933e-00bc-4274-8e0b-927ac36346e6","system_id":"levelo_inurba_marseille","lat":43.29573,"lon":5.367355,"is_reserved":false,"is_disabled":false,"rental_uris":{"android":"levelo://app?vid=bcce933e-00bc-4274-8e0b-927ac36346e6","ios":"levelo://app?vid=bcce933e-00bc-4274-8e0b-927ac36346e6"},"vehicle_type_id":"4","last_reported":1685016772,"current_range_meters":30400,"station_id":"ce4bgph2rcd13ifvqc2g","pricing_plan_id":"free"},{"bike_id":"7187ccfd-8c7a-4cc5-91e7-248a68a678e4","system_id":"levelo_inurba_marseille","lat":43.31674,"lon":5.38963,"is_reserved":false,"is_disabled":false,"rental_uris":{"android":"levelo://app?vid=7187ccfd-8c7a-4cc5-91e7-248a68a678e4","ios":"levelo://app?vid=7187ccfd-8c7a-4cc5-91e7-248a68a678e4"},"vehicle_type_id":"4","last_reported":1685016772,"current_range_meters":1600,"station_id":"","pricing_plan_id":"free"},{"bike_id":"caa3d85c-a14d-4dc8-bfeb-117847fbe8b3","system_id":"levelo_inurba_marseille","lat":43.29731,"lon":5.37686,"is_reserved":false,"is_disabled":false,"rental_uris":{"android":"levelo://app?vid=caa3d85c-a14d-4dc8-bfeb-117847fbe8b3","ios":"levelo://app?vid=caa3d85c-a14d-4dc8-bfeb-117847fbe8b3"},"vehicle_type_id":"4","last_reported":1685016772,"current_range_meters":28000,"station_id":"ce4bgkh2rcd13ifvqbl0","pricing_plan_id":"free"},{"bike_id":"7536048a-8120-4c15-90e6-bce81906500a","system_id":"levelo_inurba_marseille","lat":43.30952,"lon":5.39023,"is_reserved":false,"is_disabled":false,"rental_uris":{"android":"levelo://app?vid=7536048a-8120-4c15-90e6-bce81906500a","ios":"levelo://app?vid=7536048a-8120-4c15-90e6-bce81906500a"},"vehicle_type_id":"4","last_reported":1685016772,"current_range_meters":26400,"station_id":"ce4bgup2rcd13ifvqco0","pricing_plan_id":"free"},{"bike_id":"1fc83a18-eb73-43d3-a0fd-6bf572f149a9","system_id":"levelo_inurba_marseille","lat":43.299028,"lon":5.381509,"is_reserved":false,"is_disabled":false,"rental_uris":{"android":"levelo://app?vid=1fc83a18-eb73-43d3-a0fd-6bf572f149a9","ios":"levelo://app?vid=1fc83a18-eb73-43d3-a0fd-6bf572f149a9"},"vehicle_type_id":"4","last_reported":1685016772,"current_range_meters":20800,"station_id":"ce4bgj12rcd13ifvqbc0","pricing_plan_id":"free"},{"bike_id":"e843928d-73bf-4400-b394-f8352936d936","system_id":"levelo_inurba_marseille","lat":43.309589,"lon":5.390258,"is_reserved":false,"is_disabled":false,"rental_uris":{"android":"levelo://app?vid=e843928d-73bf-4400-b394-f8352936d936","ios":"levelo://app?vid=e843928d-73bf-4400-b394-f8352936d936"},"vehicle_type_id":"4","last_reported":1685016772,"current_range_meters":19600,"station_id":"ce4bgup2rcd13ifvqco0","pricing_plan_id":"free"},{"bike_id":"999b45ca-38e9-4eb8-a438-b12887b7976d","system_id":"levelo_inurba_marseille","lat":43.299028,"lon":5.381509,"is_reserved":false,"is_disabled":false,"rental_uris":{"android":"levelo://app?vid=999b45ca-38e9-4eb8-a438-b12887b7976d","ios":"levelo://app?vid=999b45ca-38e9-4eb8-a438-b12887b7976d"},"vehicle_type_id":"4","last_reported":1685016772,"current_range_meters":13200,"station_id":"ce4bgj12rcd13ifvqbc0","pricing_plan_id":"free"},{"bike_id":"517c7d4f-fd33-4081-9a0c-3a439801ed6c","system_id":"levelo_inurba_marseille","lat":43.309589,"lon":5.390258,"is_reserved":false,"is_disabled":false,"rental_uris":{"android":"levelo://app?vid=517c7d4f-fd33-4081-9a0c-3a439801ed6c","ios":"levelo://app?vid=517c7d4f-fd33-4081-9a0c-3a439801ed6c"},"vehicle_type_id":"4","last_reported":1685016772,"current_range_meters":31600,"station_id":"ce4bgup2rcd13ifvqco0","pricing_plan_id":"free"},{"bike_id":"87382e5f-8366-4e07-b579-5f834bed06cc","system_id":"levelo_inurba_marseille","lat":43.296921,"lon":5.376579,"is_reserved":false,"is_disabled":false,"rental_uris":{"android":"levelo://app?vid=87382e5f-8366-4e07-b579-5f834bed06cc","ios":"levelo://app?vid=87382e5f-8366-4e07-b579-5f834bed06cc"},"vehicle_type_id":"4","last_reported":1685016772,"current_range_meters":17200,"station_id":"ce4bgkh2rcd13ifvqbl0","pricing_plan_id":"free"},{"bike_id":"0d9f3358-c10d-40b6-917b-b79621359bb9","system_id":"levelo_inurba_marseille","lat":43.309589,"lon":5.390258,"is_reserved":false,"is_disabled":false,"rental_uris":{"android":"levelo://app?vid=0d9f3358-c10d-40b6-917b-b79621359bb9","ios":"levelo://app?vid=0d9f3358-c10d-40b6-917b-b79621359bb9"},"vehicle_type_id":"4","last_reported":1685016772,"current_range_meters":24000,"station_id":"ce4bgup2rcd13ifvqco0","pricing_plan_id":"free"},{"bike_id":"900b6f57-26f5-484f-889f-9847d60c517f","system_id":"levelo_inurba_marseille","lat":43.309589,"lon":5.390258,"is_reserved":false,"is_disabled":false,"rental_uris":{"android":"levelo://app?vid=900b6f57-26f5-484f-889f-9847d60c517f","ios":"levelo://app?vid=900b6f57-26f5-484f-889f-9847d60c517f"},"vehicle_type_id":"4","last_reported":1685016772,"current_range_meters":31600,"station_id":"ce4bgup2rcd13ifvqco0","pricing_plan_id":"free"},{"bike_id":"3fa6f2ef-a688-42ed-845b-3e8f47c1aae7","system_id":"levelo_inurba_marseille","lat":43.309589,"lon":5.390258,"is_reserved":false,"is_disabled":false,"rental_uris":{"android":"levelo://app?vid=3fa6f2ef-a688-42ed-845b-3e8f47c1aae7","ios":"levelo://app?vid=3fa6f2ef-a688-42ed-845b-3e8f47c1aae7"},"vehicle_type_id":"4","last_reported":1685016772,"current_range_meters":31600,"station_id":"ce4bgup2rcd13ifvqco0","pricing_plan_id":"free"},{"bike_id":"b78daf6b-abee-4438-ab54-98e9e135fc37","system_id":"levelo_inurba_marseille","lat":43.30948,"lon":5.39032,"is_reserved":false,"is_disabled":false,"rental_uris":{"android":"levelo://app?vid=b78daf6b-abee-4438-ab54-98e9e135fc37","ios":"levelo://app?vid=b78daf6b-abee-4438-ab54-98e9e135fc37"},"vehicle_type_id":"4","last_reported":1685016772,"current_range_meters":28800,"station_id":"ce4bgup2rcd13ifvqco0","pricing_plan_id":"free"},{"bike_id":"b4e10166-47d2-4221-91d4-cf70fe2dea0d","system_id":"levelo_inurba_marseille","lat":43.309589,"lon":5.390258,"is_reserved":false,"is_disabled":false,"rental_uris":{"android":"levelo://app?vid=b4e10166-47d2-4221-91d4-cf70fe2dea0d","ios":"levelo://app?vid=b4e10166-47d2-4221-91d4-cf70fe2dea0d"},"vehicle_type_id":"4","last_reported":1685016772,"current_range_meters":28800,"station_id":"ce4bgup2rcd13ifvqco0","pricing_plan_id":"free"},{"bike_id":"9e4d1865-ecb4-42ea-b0ed-9a47b7b6efd0","system_id":"levelo_inurba_marseille","lat":43.309589,"lon":5.390258,"is_reserved":false,"is_disabled":false,"rental_uris":{"android":"levelo://app?vid=9e4d1865-ecb4-42ea-b0ed-9a47b7b6efd0","ios":"levelo://app?vid=9e4d1865-ecb4-42ea-b0ed-9a47b7b6efd0"},"vehicle_type_id":"4","last_reported":1685016772,"current_range_meters":30000,"station_id":"ce4bgup2rcd13ifvqco0","pricing_plan_id":"free"},{"bike_id":"287364c3-4106-492d-80f0-1e1e0131f7ce","system_id":"levelo_inurba_marseille","lat":43.30947,"lon":5.39036,"is_reserved":false,"is_disabled":false,"rental_uris":{"android":"levelo://app?vid=287364c3-4106-492d-80f0-1e1e0131f7ce","ios":"levelo://app?vid=287364c3-4106-492d-80f0-1e1e0131f7ce"},"vehicle_type_id":"4","last_reported":1685016772,"current_range_meters":31200,"station_id":"ce4bgup2rcd13ifvqco0","pricing_plan_id":"free"},{"bike_id":"6c811dda-8ade-4eac-a585-d7bb833bc0c1","system_id":"levelo_inurba_marseille","lat":43.309589,"lon":5.390258,"is_reserved":false,"is_disabled":false,"rental_uris":{"android":"levelo://app?vid=6c811dda-8ade-4eac-a585-d7bb833bc0c1","ios":"levelo://app?vid=6c811dda-8ade-4eac-a585-d7bb833bc0c1"},"vehicle_type_id":"4","last_reported":1685016772,"current_range_meters":31200,"station_id":"ce4bgup2rcd13ifvqco0","pricing_plan_id":"free"},{"bike_id":"62daeab9-03ea-4e03-aa2c-9028257d2325","system_id":"levelo_inurba_marseille","lat":43.309589,"lon":5.390258,"is_reserved":false,"is_disabled":false,"rental_uris":{"android":"levelo://app?vid=62daeab9-03ea-4e03-aa2c-9028257d2325","ios":"levelo://app?vid=62daeab9-03ea-4e03-aa2c-9028257d2325"},"vehicle_type_id":"4","last_reported":1685016772,"current_range_meters":30400,"station_id":"ce4bgup2rcd13ifvqco0","pricing_plan_id":"free"},{"bike_id":"d1f7629f-8a6d-4f28-9a7f-7f342df988b9","system_id":"levelo_inurba_marseille","lat":43.309589,"lon":5.390258,"is_reserved":false,"is_disabled":false,"rental_uris":{"android":"levelo://app?vid=d1f7629f-8a6d-4f28-9a7f-7f342df988b9","ios":"levelo://app?vid=d1f7629f-8a6d-4f28-9a7f-7f342df988b9"},"vehicle_type_id":"4","last_reported":1685016772,"current_range_meters":23600,"station_id":"ce4bgup2rcd13ifvqco0","pricing_plan_id":"free"},{"bike_id":"428323dc-8645-43b5-b29f-308454fd9794","system_id":"levelo_inurba_marseille","lat":43.309589,"lon":5.390258,"is_reserved":false,"is_disabled":false,"rental_uris":{"android":"levelo://app?vid=428323dc-8645-43b5-b29f-308454fd9794","ios":"levelo://app?vid=428323dc-8645-43b5-b29f-308454fd9794"},"vehicle_type_id":"4","last_reported":1685016772,"current_range_meters":31200,"station_id":"ce4bgup2rcd13ifvqco0","pricing_plan_id":"free"},{"bike_id":"26065bd1-de86-4cfb-a35a-5c6a5f1676ff","system_id":"levelo_inurba_marseille","lat":43.309589,"lon":5.390258,"is_reserved":false,"is_disabled":false,"rental_uris":{"android":"levelo://app?vid=26065bd1-de86-4cfb-a35a-5c6a5f1676ff","ios":"levelo://app?vid=26065bd1-de86-4cfb-a35a-5c6a5f1676ff"},"vehicle_type_id":"4","last_reported":1685016772,"current_range_meters":30800,"station_id":"ce4bgup2rcd13ifvqco0","pricing_plan_id":"free"},{"bike_id":"995458e1-d667-433d-95d2-51bf20514922","system_id":"levelo_inurba_marseille","lat":43.29632,"lon":5.37511,"is_reserved":false,"is_disabled":false,"rental_uris":{"android":"levelo://app?vid=995458e1-d667-433d-95d2-51bf20514922","ios":"levelo://app?vid=995458e1-d667-433d-95d2-51bf20514922"},"vehicle_type_id":"4","last_reported":1685016772,"current_range_meters":26800,"station_id":"","pricing_plan_id":"free"},{"bike_id":"f157929a-a9ac-43d0-aaf0-f69de9666196","system_id":"levelo_inurba_marseille","lat":43.309589,"lon":5.390258,"is_reserved":false,"is_disabled":false,"rental_uris":{"android":"levelo://app?vid=f157929a-a9ac-43d0-aaf0-f69de9666196","ios":"levelo://app?vid=f157929a-a9ac-43d0-aaf0-f69de9666196"},"vehicle_type_id":"4","last_reported":1685016772,"current_range_meters":28400,"station_id":"ce4bgup2rcd13ifvqco0","pricing_plan_id":"free"},{"bike_id":"05768691-4442-410e-9202-7ecc6291b9a1","system_id":"levelo_inurba_marseille","lat":43.30944,"lon":5.39054,"is_reserved":false,"is_disabled":false,"rental_uris":{"android":"levelo://app?vid=05768691-4442-410e-9202-7ecc6291b9a1","ios":"levelo://app?vid=05768691-4442-410e-9202-7ecc6291b9a1"},"vehicle_type_id":"4","last_reported":1685016772,"current_range_meters":22000,"station_id":"","pricing_plan_id":"free"},{"bike_id":"71a88215-f9b9-47ed-91f8-c9e9805f98ea","system_id":"levelo_inurba_marseille","lat":43.317557,"lon":5.390173,"is_reserved":false,"is_disabled":false,"rental_uris":{"android":"levelo://app?vid=71a88215-f9b9-47ed-91f8-c9e9805f98ea","ios":"levelo://app?vid=71a88215-f9b9-47ed-91f8-c9e9805f98ea"},"vehicle_type_id":"4","last_reported":1685016772,"current_range_meters":12800,"station_id":"ce4bhqp2rcd13ifvqhng","pricing_plan_id":"free"},{"bike_id":"257438b8-7873-4061-ac2c-daa9aac8f4e4","system_id":"levelo_inurba_marseille","lat":43.298037,"lon":5.381066,"is_reserved":false,"is_disabled":false,"rental_uris":{"android":"levelo://app?vid=257438b8-7873-4061-ac2c-daa9aac8f4e4","ios":"levelo://app?vid=257438b8-7873-4061-ac2c-daa9aac8f4e4"},"vehicle_type_id":"4","last_reported":1685016772,"current_range_meters":27200,"station_id":"ce4bgip2rcd13ifvqbb0","pricing_plan_id":"free"},{"bike_id":"2de7a2da-64f8-47d0-9e90-127d1b991a9a","system_id":"levelo_inurba_marseille","lat":43.298037,"lon":5.381066,"is_reserved":false,"is_disabled":false,"rental_uris":{"android":"levelo://app?vid=2de7a2da-64f8-47d0-9e90-127d1b991a9a","ios":"levelo://app?vid=2de7a2da-64f8-47d0-9e90-127d1b991a9a"},"vehicle_type_id":"4","last_reported":1685016772,"current_range_meters":18400,"station_id":"ce4bgip2rcd13ifvqbb0","pricing_plan_id":"free"},{"bike_id":"00ea79cb-ed69-440f-83ee-201b77de5793","system_id":"levelo_inurba_marseille","lat":43.298037,"lon":5.381066,"is_reserved":false,"is_disabled":false,"rental_uris":{"android":"levelo://app?vid=00ea79cb-ed69-440f-83ee-201b77de5793","ios":"levelo://app?vid=00ea79cb-ed69-440f-83ee-201b77de5793"},"vehicle_type_id":"4","last_reported":1685016772,"current_range_meters":22400,"station_id":"ce4bgip2rcd13ifvqbb0","pricing_plan_id":"free"},{"bike_id":"f3cc0edf-47c6-4ad5-a8e6-0c0f5c6f4755","system_id":"levelo_inurba_marseille","lat":43.298037,"lon":5.381066,"is_reserved":false,"is_disabled":false,"rental_uris":{"android":"levelo://app?vid=f3cc0edf-47c6-4ad5-a8e6-0c0f5c6f4755","ios":"levelo://app?vid=f3cc0edf-47c6-4ad5-a8e6-0c0f5c6f4755"},"vehicle_type_id":"4","last_reported":1685016772,"current_range_meters":20400,"station_id":"ce4bgip2rcd13ifvqbb0","pricing_plan_id":"free"},{"bike_id":"f857cfa9-26b6-47b3-9514-e929780cea09","system_id":"levelo_inurba_marseille","lat":43.304274,"lon":5.388873,"is_reserved":false,"is_disabled":false,"rental_uris":{"android":"levelo://app?vid=f857cfa9-26b6-47b3-9514-e929780cea09","ios":"levelo://app?vid=f857cfa9-26b6-47b3-9514-e929780cea09"},"vehicle_type_id":"4","last_reported":1685016772,"current_range_meters":22000,"station_id":"ce4bgk12rcd13ifvqbi0","pricing_plan_id":"free"},{"bike_id":"251dbb5d-b000-40d4-b3eb-6ef11187a618","system_id":"levelo_inurba_marseille","lat":43.298037,"lon":5.381066,"is_reserved":false,"is_disabled":false,"rental_uris":{"android":"levelo://app?vid=251dbb5d-b000-40d4-b3eb-6ef11187a618","ios":"levelo://app?vid=251dbb5d-b000-40d4-b3eb-6ef11187a618"},"vehicle_type_id":"4","last_reported":1685016772,"current_range_meters":22000,"station_id":"ce4bgip2rcd13ifvqbb0","pricing_plan_id":"free"},{"bike_id":"a699324c-ef07-41d4-a867-22673c9f146c","system_id":"levelo_inurba_marseille","lat":43.296263,"lon":5.377094,"is_reserved":false,"is_disabled":false,"rental_uris":{"android":"levelo://app?vid=a699324c-ef07-41d4-a867-22673c9f146c","ios":"levelo://app?vid=a699324c-ef07-41d4-a867-22673c9f146c"},"vehicle_type_id":"4","last_reported":1685016772,"current_range_meters":24400,"station_id":"ce4bgi92rcd13ifvqb90","pricing_plan_id":"free"},{"bike_id":"7a17d864-9d0f-4c40-8a35-10bc40b02630","system_id":"levelo_inurba_marseille","lat":43.296263,"lon":5.377094,"is_reserved":false,"is_disabled":false,"rental_uris":{"android":"levelo://app?vid=7a17d864-9d0f-4c40-8a35-10bc40b02630","ios":"levelo://app?vid=7a17d864-9d0f-4c40-8a35-10bc40b02630"},"vehicle_type_id":"4","last_reported":1685016772,"current_range_meters":14000,"station_id":"ce4bgi92rcd13ifvqb90","pricing_plan_id":"free"},{"bike_id":"0f5b13d8-3c80-4245-a552-a692461354cc","system_id":"levelo_inurba_marseille","lat":43.296263,"lon":5.377094,"is_reserved":false,"is_disabled":false,"rental_uris":{"android":"levelo://app?vid=0f5b13d8-3c80-4245-a552-a692461354cc","ios":"levelo://app?vid=0f5b13d8-3c80-4245-a552-a692461354cc"},"vehicle_type_id":"4","last_reported":1685016772,"current_range_meters":9600,"station_id":"ce4bgi92rcd13ifvqb90","pricing_plan_id":"free"},{"bike_id":"94b7033e-c4d3-4845-85c1-3771669504dc","system_id":"levelo_inurba_marseille","lat":43.299707,"lon":5.384859,"is_reserved":false,"is_disabled":false,"rental_uris":{"android":"levelo://app?vid=94b7033e-c4d3-4845-85c1-3771669504dc","ios":"levelo://app?vid=94b7033e-c4d3-4845-85c1-3771669504dc"},"vehicle_type_id":"4","last_reported":1685016772,"current_range_meters":0,"station_id":"ce4bgj92rcd13ifvqbd0","pricing_plan_id":"free"},{"bike_id":"3f5be396-e893-4f97-a9c0-48f17a82fb11","system_id":"levelo_inurba_marseille","lat":43.32367,"lon":5.388836,"is_reserved":false,"is_disabled":false,"rental_uris":{"android":"levelo://app?vid=3f5be396-e893-4f97-a9c0-48f17a82fb11","ios":"levelo://app?vid=3f5be396-e893-4f97-a9c0-48f17a82fb11"},"vehicle_type_id":"4","last_reported":1685016772,"current_range_meters":30000,"station_id":"ce4bhqp2rcd13ifvqhog","pricing_plan_id":"free"},{"bike_id":"b842a883-baab-4aaa-9c22-726d37235f77","system_id":"levelo_inurba_marseille","lat":43.32367,"lon":5.388836,"is_reserved":false,"is_disabled":false,"rental_uris":{"android":"levelo://app?vid=b842a883-baab-4aaa-9c22-726d37235f77","ios":"levelo://app?vid=b842a883-baab-4aaa-9c22-726d37235f77"},"vehicle_type_id":"4","last_reported":1685016772,"current_range_meters":31200,"station_id":"ce4bhqp2rcd13ifvqhog","pricing_plan_id":"free"},{"bike_id":"f4e460fc-0a1c-43a8-ab7a-6446a09df7d0","system_id":"levelo_inurba_marseille","lat":43.32367,"lon":5.388836,"is_reserved":false,"is_disabled":false,"rental_uris":{"android":"levelo://app?vid=f4e460fc-0a1c-43a8-ab7a-6446a09df7d0","ios":"levelo://app?vid=f4e460fc-0a1c-43a8-ab7a-6446a09df7d0"},"vehicle_type_id":"4","last_reported":1685016772,"current_range_meters":0,"station_id":"ce4bhqp2rcd13ifvqhog","pricing_plan_id":"free"},{"bike_id":"eb919dee-7924-4349-b9ec-b54f7f96aefd","system_id":"levelo_inurba_marseille","lat":43.32367,"lon":5.388836,"is_reserved":false,"is_disabled":false,"rental_uris":{"android":"levelo://app?vid=eb919dee-7924-4349-b9ec-b54f7f96aefd","ios":"levelo://app?vid=eb919dee-7924-4349-b9ec-b54f7f96aefd"},"vehicle_type_id":"4","last_reported":1685016772,"current_range_meters":24000,"station_id":"ce4bhqp2rcd13ifvqhog","pricing_plan_id":"free"},{"bike_id":"3f245026-7545-4924-a951-14be0bedc89e","system_id":"levelo_inurba_marseille","lat":43.31296,"lon":5.39377,"is_reserved":false,"is_disabled":false,"rental_uris":{"android":"levelo://app?vid=3f245026-7545-4924-a951-14be0bedc89e","ios":"levelo://app?vid=3f245026-7545-4924-a951-14be0bedc89e"},"vehicle_type_id":"4","last_reported":1685016772,"current_range_meters":2000,"station_id":"","pricing_plan_id":"free"},{"bike_id":"18d9a020-1811-4a7c-9905-7ac02b5f0670","system_id":"levelo_inurba_marseille","lat":43.29602,"lon":5.381084,"is_reserved":false,"is_disabled":false,"rental_uris":{"android":"levelo://app?vid=18d9a020-1811-4a7c-9905-7ac02b5f0670","ios":"levelo://app?vid=18d9a020-1811-4a7c-9905-7ac02b5f0670"},"vehicle_type_id":"4","last_reported":1685016772,"current_range_meters":16800,"station_id":"ce4bgl12rcd13ifvqbo0","pricing_plan_id":"free"},{"bike_id":"7fe7436e-fda7-4001-bb2a-ef78329f2c18","system_id":"levelo_inurba_marseille","lat":43.29602,"lon":5.381084,"is_reserved":false,"is_disabled":false,"rental_uris":{"android":"levelo://app?vid=7fe7436e-fda7-4001-bb2a-ef78329f2c18","ios":"levelo://app?vid=7fe7436e-fda7-4001-bb2a-ef78329f2c18"},"vehicle_type_id":"4","last_reported":1685016772,"current_range_meters":14800,"station_id":"ce4bgl12rcd13ifvqbo0","pricing_plan_id":"free"},{"bike_id":"89049dab-5372-4754-ac09-f533dbfd1e49","system_id":"levelo_inurba_marseille","lat":43.29317,"lon":5.37186,"is_reserved":false,"is_disabled":false,"rental_uris":{"android":"levelo://app?vid=89049dab-5372-4754-ac09-f533dbfd1e49","ios":"levelo://app?vid=89049dab-5372-4754-ac09-f533dbfd1e49"},"vehicle_type_id":"4","last_reported":1685016772,"current_range_meters":24000,"station_id":"ce4bgh92rcd13ifvqb40","pricing_plan_id":"free"},{"bike_id":"5241bc3c-c36e-4839-87fe-c743a91e2f31","system_id":"levelo_inurba_marseille","lat":43.293249,"lon":5.371578,"is_reserved":false,"is_disabled":false,"rental_uris":{"android":"levelo://app?vid=5241bc3c-c36e-4839-87fe-c743a91e2f31","ios":"levelo://app?vid=5241bc3c-c36e-4839-87fe-c743a91e2f31"},"vehicle_type_id":"4","last_reported":1685016772,"current_range_meters":26400,"station_id":"ce4bgh92rcd13ifvqb40","pricing_plan_id":"free"},{"bike_id":"c80557df-564b-451c-a3a5-258dffcdd86f","system_id":"levelo_inurba_marseille","lat":43.293249,"lon":5.371578,"is_reserved":false,"is_disabled":false,"rental_uris":{"android":"levelo://app?vid=c80557df-564b-451c-a3a5-258dffcdd86f","ios":"levelo://app?vid=c80557df-564b-451c-a3a5-258dffcdd86f"},"vehicle_type_id":"4","last_reported":1685016772,"current_range_meters":31600,"station_id":"ce4bgh92rcd13ifvqb40","pricing_plan_id":"free"},{"bike_id":"55169147-c485-44e1-962c-81f526d60199","system_id":"levelo_inurba_marseille","lat":43.29313,"lon":5.3719,"is_reserved":false,"is_disabled":false,"rental_uris":{"android":"levelo://app?vid=55169147-c485-44e1-962c-81f526d60199","ios":"levelo://app?vid=55169147-c485-44e1-962c-81f526d60199"},"vehicle_type_id":"4","last_reported":1685016772,"current_range_meters":28400,"station_id":"","pricing_plan_id":"free"},{"bike_id":"940187d4-c006-4ba0-bdb1-da5e3d4ac6ff","system_id":"levelo_inurba_marseille","lat":43.293249,"lon":5.371578,"is_reserved":false,"is_disabled":false,"rental_uris":{"android":"levelo://app?vid=940187d4-c006-4ba0-bdb1-da5e3d4ac6ff","ios":"levelo://app?vid=940187d4-c006-4ba0-bdb1-da5e3d4ac6ff"},"vehicle_type_id":"4","last_reported":1685016772,"current_range_meters":26800,"station_id":"ce4bgh92rcd13ifvqb40","pricing_plan_id":"free"},{"bike_id":"f14e98ef-5411-4e82-bde5-c1ae27e7e267","system_id":"levelo_inurba_marseille","lat":43.29279,"lon":5.36843,"is_reserved":false,"is_disabled":false,"rental_uris":{"android":"levelo://app?vid=f14e98ef-5411-4e82-bde5-c1ae27e7e267","ios":"levelo://app?vid=f14e98ef-5411-4e82-bde5-c1ae27e7e267"},"vehicle_type_id":"4","last_reported":1685016772,"current_range_meters":30800,"station_id":"ce4bhbp2rcd13ifvqesg","pricing_plan_id":"free"},{"bike_id":"902d47fe-e37b-423e-99bb-eb73c3fb8832","system_id":"levelo_inurba_marseille","lat":43.29278,"lon":5.36843,"is_reserved":false,"is_disabled":false,"rental_uris":{"android":"levelo://app?vid=902d47fe-e37b-423e-99bb-eb73c3fb8832","ios":"levelo://app?vid=902d47fe-e37b-423e-99bb-eb73c3fb8832"},"vehicle_type_id":"4","last_reported":1685016772,"current_range_meters":27200,"station_id":"ce4bhbp2rcd13ifvqesg","pricing_plan_id":"free"},{"bike_id":"a8b5268e-a459-447a-ab2e-4c643f84bd0d","system_id":"levelo_inurba_marseille","lat":43.29305,"lon":5.37176,"is_reserved":false,"is_disabled":false,"rental_uris":{"android":"levelo://app?vid=a8b5268e-a459-447a-ab2e-4c643f84bd0d","ios":"levelo://app?vid=a8b5268e-a459-447a-ab2e-4c643f84bd0d"},"vehicle_type_id":"4","last_reported":1685016772,"current_range_meters":20000,"station_id":"ce4bgh92rcd13ifvqb40","pricing_plan_id":"free"},{"bike_id":"88533c47-4ebd-46a3-a48c-9d1881477db0","system_id":"levelo_inurba_marseille","lat":43.292749,"lon":5.368398,"is_reserved":false,"is_disabled":false,"rental_uris":{"android":"levelo://app?vid=88533c47-4ebd-46a3-a48c-9d1881477db0","ios":"levelo://app?vid=88533c47-4ebd-46a3-a48c-9d1881477db0"},"vehicle_type_id":"4","last_reported":1685016772,"current_range_meters":15200,"station_id":"ce4bhbp2rcd13ifvqesg","pricing_plan_id":"free"},{"bike_id":"708140c2-57dd-4946-8af0-0a1b8c6a148f","system_id":"levelo_inurba_marseille","lat":43.292749,"lon":5.368398,"is_reserved":false,"is_disabled":false,"rental_uris":{"android":"levelo://app?vid=708140c2-57dd-4946-8af0-0a1b8c6a148f","ios":"levelo://app?vid=708140c2-57dd-4946-8af0-0a1b8c6a148f"},"vehicle_type_id":"4","last_reported":1685016772,"current_range_meters":24800,"station_id":"ce4bhbp2rcd13ifvqesg","pricing_plan_id":"free"},{"bike_id":"a8b8d9b0-4f7e-49af-a272-a862db6d69a8","system_id":"levelo_inurba_marseille","lat":43.292749,"lon":5.368398,"is_reserved":false,"is_disabled":false,"rental_uris":{"android":"levelo://app?vid=a8b8d9b0-4f7e-49af-a272-a862db6d69a8","ios":"levelo://app?vid=a8b8d9b0-4f7e-49af-a272-a862db6d69a8"},"vehicle_type_id":"4","last_reported":1685016772,"current_range_meters":15600,"station_id":"ce4bhbp2rcd13ifvqesg","pricing_plan_id":"free"},{"bike_id":"825f4e2a-d91a-4317-bcaa-609b84d75fe1","system_id":"levelo_inurba_marseille","lat":43.292749,"lon":5.368398,"is_reserved":false,"is_disabled":false,"rental_uris":{"android":"levelo://app?vid=825f4e2a-d91a-4317-bcaa-609b84d75fe1","ios":"levelo://app?vid=825f4e2a-d91a-4317-bcaa-609b84d75fe1"},"vehicle_type_id":"4","last_reported":1685016772,"current_range_meters":24800,"station_id":"ce4bhbp2rcd13ifvqesg","pricing_plan_id":"free"},{"bike_id":"cee19ab4-66eb-4b90-8cbc-715e4ecbeb6f","system_id":"levelo_inurba_marseille","lat":43.29267,"lon":5.3682,"is_reserved":false,"is_disabled":false,"rental_uris":{"android":"levelo://app?vid=cee19ab4-66eb-4b90-8cbc-715e4ecbeb6f","ios":"levelo://app?vid=cee19ab4-66eb-4b90-8cbc-715e4ecbeb6f"},"vehicle_type_id":"4","last_reported":1685016772,"current_range_meters":26800,"station_id":"ce4bhbp2rcd13ifvqesg","pricing_plan_id":"free"},{"bike_id":"e1ede26f-2ff9-4929-9ee3-e5ab2c539c4d","system_id":"levelo_inurba_marseille","lat":43.292749,"lon":5.368398,"is_reserved":false,"is_disabled":false,"rental_uris":{"android":"levelo://app?vid=e1ede26f-2ff9-4929-9ee3-e5ab2c539c4d","ios":"levelo://app?vid=e1ede26f-2ff9-4929-9ee3-e5ab2c539c4d"},"vehicle_type_id":"4","last_reported":1685016772,"current_range_meters":31600,"station_id":"ce4bhbp2rcd13ifvqesg","pricing_plan_id":"free"},{"bike_id":"36949663-1bc3-41a7-92aa-970d51ec3f58","system_id":"levelo_inurba_marseille","lat":43.30594,"lon":5.39353,"is_reserved":false,"is_disabled":false,"rental_uris":{"android":"levelo://app?vid=36949663-1bc3-41a7-92aa-970d51ec3f58","ios":"levelo://app?vid=36949663-1bc3-41a7-92aa-970d51ec3f58"},"vehicle_type_id":"4","last_reported":1685016772,"current_range_meters":27200,"station_id":"ce4bh0p2rcd13ifvqd80","pricing_plan_id":"free"},{"bike_id":"e071d18d-b99e-4bf4-bb90-ffdf3c0ddc9b","system_id":"levelo_inurba_marseille","lat":43.30597,"lon":5.39356,"is_reserved":false,"is_disabled":false,"rental_uris":{"android":"levelo://app?vid=e071d18d-b99e-4bf4-bb90-ffdf3c0ddc9b","ios":"levelo://app?vid=e071d18d-b99e-4bf4-bb90-ffdf3c0ddc9b"},"vehicle_type_id":"4","last_reported":1685016772,"current_range_meters":24000,"station_id":"ce4bh0p2rcd13ifvqd80","pricing_plan_id":"free"},{"bike_id":"184ce7a7-9933-4be2-ba80-50570ef05378","system_id":"levelo_inurba_marseille","lat":43.30583,"lon":5.39351,"is_reserved":false,"is_disabled":false,"rental_uris":{"android":"levelo://app?vid=184ce7a7-9933-4be2-ba80-50570ef05378","ios":"levelo://app?vid=184ce7a7-9933-4be2-ba80-50570ef05378"},"vehicle_type_id":"4","last_reported":1685016772,"current_range_meters":16400,"station_id":"ce4bh0p2rcd13ifvqd80","pricing_plan_id":"free"},{"bike_id":"a8ae94b1-c6f4-4b35-883e-c8645212ebf1","system_id":"levelo_inurba_marseille","lat":43.30596,"lon":5.39359,"is_reserved":false,"is_disabled":false,"rental_uris":{"android":"levelo://app?vid=a8ae94b1-c6f4-4b35-883e-c8645212ebf1","ios":"levelo://app?vid=a8ae94b1-c6f4-4b35-883e-c8645212ebf1"},"vehicle_type_id":"4","last_reported":1685016772,"current_range_meters":23200,"station_id":"ce4bh0p2rcd13ifvqd80","pricing_plan_id":"free"},{"bike_id":"e1c920c8-a249-4f8c-ba40-5f430e6fb837","system_id":"levelo_inurba_marseille","lat":43.289184,"lon":5.366408,"is_reserved":false,"is_disabled":false,"rental_uris":{"android":"levelo://app?vid=e1c920c8-a249-4f8c-ba40-5f430e6fb837","ios":"levelo://app?vid=e1c920c8-a249-4f8c-ba40-5f430e6fb837"},"vehicle_type_id":"4","last_reported":1685016772,"current_range_meters":19200,"station_id":"ce4bhap2rcd13ifvqek0","pricing_plan_id":"free"},{"bike_id":"13dcc581-956c-4292-be64-8c0ffc4b2577","system_id":"levelo_inurba_marseille","lat":43.305994,"lon":5.393687,"is_reserved":false,"is_disabled":false,"rental_uris":{"android":"levelo://app?vid=13dcc581-956c-4292-be64-8c0ffc4b2577","ios":"levelo://app?vid=13dcc581-956c-4292-be64-8c0ffc4b2577"},"vehicle_type_id":"4","last_reported":1685016772,"current_range_meters":15200,"station_id":"ce4bh0p2rcd13ifvqd80","pricing_plan_id":"free"},{"bike_id":"e06f583c-3811-48de-aae2-dd6e2d7dd008","system_id":"levelo_inurba_marseille","lat":43.293009,"lon":5.374584,"is_reserved":false,"is_disabled":false,"rental_uris":{"android":"levelo://app?vid=e06f583c-3811-48de-aae2-dd6e2d7dd008","ios":"levelo://app?vid=e06f583c-3811-48de-aae2-dd6e2d7dd008"},"vehicle_type_id":"4","last_reported":1685016772,"current_range_meters":24800,"station_id":"ce4bgi12rcd13ifvqb70","pricing_plan_id":"free"},{"bike_id":"9b87ec85-05c2-45c8-9974-7c90e0249549","system_id":"levelo_inurba_marseille","lat":43.30592,"lon":5.39364,"is_reserved":false,"is_disabled":false,"rental_uris":{"android":"levelo://app?vid=9b87ec85-05c2-45c8-9974-7c90e0249549","ios":"levelo://app?vid=9b87ec85-05c2-45c8-9974-7c90e0249549"},"vehicle_type_id":"4","last_reported":1685016772,"current_range_meters":22800,"station_id":"ce4bh0p2rcd13ifvqd80","pricing_plan_id":"free"},{"bike_id":"ef8f79d4-531c-4f5c-a826-c762ee09f1e6","system_id":"levelo_inurba_marseille","lat":43.302992,"lon":5.392136,"is_reserved":false,"is_disabled":false,"rental_uris":{"android":"levelo://app?vid=ef8f79d4-531c-4f5c-a826-c762ee09f1e6","ios":"levelo://app?vid=ef8f79d4-531c-4f5c-a826-c762ee09f1e6"},"vehicle_type_id":"4","last_reported":1685016772,"current_range_meters":29200,"station_id":"ce4bgkh2rcd13ifvqbk0","pricing_plan_id":"free"},{"bike_id":"d729998c-5625-47ca-a6a0-eab34370556c","system_id":"levelo_inurba_marseille","lat":43.2936,"lon":5.37835,"is_reserved":false,"is_disabled":false,"rental_uris":{"android":"levelo://app?vid=d729998c-5625-47ca-a6a0-eab34370556c","ios":"levelo://app?vid=d729998c-5625-47ca-a6a0-eab34370556c"},"vehicle_type_id":"4","last_reported":1685016772,"current_range_meters":30400,"station_id":"ce4bgjh2rcd13ifvqbf0","pricing_plan_id":"free"},{"bike_id":"aeca35d5-123c-4a70-bd4c-4e12b5eff5be","system_id":"levelo_inurba_marseille","lat":43.2936,"lon":5.37835,"is_reserved":false,"is_disabled":false,"rental_uris":{"android":"levelo://app?vid=aeca35d5-123c-4a70-bd4c-4e12b5eff5be","ios":"levelo://app?vid=aeca35d5-123c-4a70-bd4c-4e12b5eff5be"},"vehicle_type_id":"4","last_reported":1685016772,"current_range_meters":18000,"station_id":"ce4bgjh2rcd13ifvqbf0","pricing_plan_id":"free"},{"bike_id":"7d960eea-3856-48be-8a74-42efdff9b8f0","system_id":"levelo_inurba_marseille","lat":43.2936,"lon":5.37835,"is_reserved":false,"is_disabled":false,"rental_uris":{"android":"levelo://app?vid=7d960eea-3856-48be-8a74-42efdff9b8f0","ios":"levelo://app?vid=7d960eea-3856-48be-8a74-42efdff9b8f0"},"vehicle_type_id":"4","last_reported":1685016772,"current_range_meters":17600,"station_id":"ce4bgjh2rcd13ifvqbf0","pricing_plan_id":"free"},{"bike_id":"451dbd30-efe2-4b76-8cd2-b26351dce5d5","system_id":"levelo_inurba_marseille","lat":43.29366,"lon":5.37844,"is_reserved":false,"is_disabled":false,"rental_uris":{"android":"levelo://app?vid=451dbd30-efe2-4b76-8cd2-b26351dce5d5","ios":"levelo://app?vid=451dbd30-efe2-4b76-8cd2-b26351dce5d5"},"vehicle_type_id":"4","last_reported":1685016772,"current_range_meters":8400,"station_id":"ce4bgjh2rcd13ifvqbf0","pricing_plan_id":"free"},{"bike_id":"aaa46a31-8f4b-4d17-b291-b92ff1c85b82","system_id":"levelo_inurba_marseille","lat":43.292311,"lon":5.360731,"is_reserved":false,"is_disabled":false,"rental_uris":{"android":"levelo://app?vid=aaa46a31-8f4b-4d17-b291-b92ff1c85b82","ios":"levelo://app?vid=aaa46a31-8f4b-4d17-b291-b92ff1c85b82"},"vehicle_type_id":"4","last_reported":1685016772,"current_range_meters":25600,"station_id":"ce4bhbh2rcd13ifvqeqg","pricing_plan_id":"free"},{"bike_id":"99d38279-e81f-4920-817d-5d82d2f776da","system_id":"levelo_inurba_marseille","lat":43.292311,"lon":5.360731,"is_reserved":false,"is_disabled":false,"rental_uris":{"android":"levelo://app?vid=99d38279-e81f-4920-817d-5d82d2f776da","ios":"levelo://app?vid=99d38279-e81f-4920-817d-5d82d2f776da"},"vehicle_type_id":"4","last_reported":1685016772,"current_range_meters":15600,"station_id":"ce4bhbh2rcd13ifvqeqg","pricing_plan_id":"free"},{"bike_id":"febe24a7-942c-4e4d-8461-a6d60b33cdb7","system_id":"levelo_inurba_marseille","lat":43.292663,"lon":5.376394,"is_reserved":false,"is_disabled":false,"rental_uris":{"android":"levelo://app?vid=febe24a7-942c-4e4d-8461-a6d60b33cdb7","ios":"levelo://app?vid=febe24a7-942c-4e4d-8461-a6d60b33cdb7"},"vehicle_type_id":"4","last_reported":1685016772,"current_range_meters":26800,"station_id":"ce4bgi12rcd13ifvqb80","pricing_plan_id":"free"},{"bike_id":"513f61e6-6da3-4f92-b580-e2e3727235a2","system_id":"levelo_inurba_marseille","lat":43.292663,"lon":5.376389,"is_reserved":false,"is_disabled":false,"rental_uris":{"android":"levelo://app?vid=513f61e6-6da3-4f92-b580-e2e3727235a2","ios":"levelo://app?vid=513f61e6-6da3-4f92-b580-e2e3727235a2"},"vehicle_type_id":"4","last_reported":1685016772,"current_range_meters":18000,"station_id":"ce4bgi12rcd13ifvqb80","pricing_plan_id":"free"},{"bike_id":"40b68277-6f5f-4aac-8216-847d33e7dfd3","system_id":"levelo_inurba_marseille","lat":43.309038,"lon":5.396546,"is_reserved":false,"is_disabled":false,"rental_uris":{"android":"levelo://app?vid=40b68277-6f5f-4aac-8216-847d33e7dfd3","ios":"levelo://app?vid=40b68277-6f5f-4aac-8216-847d33e7dfd3"},"vehicle_type_id":"4","last_reported":1685016772,"current_range_meters":12000,"station_id":"ce4bh012rcd13ifvqcv0","pricing_plan_id":"free"},{"bike_id":"ff70d42b-3d56-42d9-92bb-27236b4b883b","system_id":"levelo_inurba_marseille","lat":43.30891,"lon":5.39638,"is_reserved":false,"is_disabled":false,"rental_uris":{"android":"levelo://app?vid=ff70d42b-3d56-42d9-92bb-27236b4b883b","ios":"levelo://app?vid=ff70d42b-3d56-42d9-92bb-27236b4b883b"},"vehicle_type_id":"4","last_reported":1685016772,"current_range_meters":17600,"station_id":"ce4bh012rcd13ifvqcv0","pricing_plan_id":"free"},