{"last_updated":1687122361,"ttl":30,"version":"2.2","data":{"bikes":[{"bike_id":"e0d8f962-2c89-4362-af94-87bc34386507","system_id":"levelo_inurba_marseille","lat":43.314811,"lon":5.373103,"is_reserved":false,"is_disabled":false,"rental_uris":{"android":"levelo://app?vid=e0d8f962-2c89-4362-af94-87bc34386507","ios":"levelo://app?vid=e0d8f962-2c89-4362-af94-87bc34386507"},"vehicle_type_id":"4","last_reported":1687122362,"current_range_meters":21600,"station_id":"ce4bgt12rcd13ifvqcd0","pricing_plan_id":"free"},{"bike_id":"782097f9-9434-4d2e-b2d0-f6c9828acf42","system_id":"levelo_inurba_marseille","lat":43.314811,"lon":5.373104,"is_reserved":false,"is_disabled":false,"rental_uris":{"android":"levelo://app?vid=782097f9-9434-4d2e-b2d0-f6c9828acf42","ios":"levelo://app?vid=782097f9-9434-4d2e-b2d0-f6c9828acf42"},"vehicle_type_id":"4","last_reported":1687122362,"current_range_meters":8000,"station_id":"ce4bgt12rcd13ifvqcd0","pricing_plan_id":"free"},{"bike_id":"ede9989b-ee63-4746-9a12-7354d19d40fc","system_id":"levelo_inurba_marseille","lat":43.314811,"lon":5.373103,"is_reserved":false,"is_disabled":false,"rental_uris":{"android":"levelo://app?vid=ede9989b-ee63-4746-9a12-7354d19d40fc","ios":"levelo://app?vid=ede9989b-ee63-4746-9a12-7354d19d40fc"},"vehicle_type_id":"4","last_reported":1687122362,"current_range_meters":29600,"station_id":"ce4bgt12rcd13ifvqcd0","pricing_plan_id":"free"},{"bike_id":"3c164d95-37ef-455b-abe3-8a78c1d4024b","system_id":"levelo_inurba_marseille","lat":43.314811,"lon":5.373104,"is_reserved":false,"is_disabled":false,"rental_uris":{"android":"levelo://app?vid=3c164d95-37ef-455b-abe3-8a78c1d4024b","ios":"levelo://app?vid=3c164d95-37ef-455b-abe3-8a78c1d4024b"},"vehicle_type_id":"4","last_reported":1687122362,"current_range_meters":8800,"station_id":"ce4bgt12rcd13ifvqcd0","pricing_plan_id":"free"},{"bike_id":"fff1a752-a0c3-4f30-b86b-9510f7ec9a1b","system_id":"levelo_inurba_marseille","lat":43.31486,"lon":5.37307,"is_reserved":false,"is_disabled":false,"rental_uris":{"android":"levelo://app?vid=fff1a752-a0c3-4f30-b86b-9510f7ec9a1b","ios":"levelo://app?vid=fff1a752-a0c3-4f30-b86b-9510f7ec9a1b"},"vehicle_type_id":"4","last_reported":1687122362,"current_range_meters":4400,"station_id":"ce4bgt12rcd13ifvqcd0","pricing_plan_id":"free"},{"bike_id":"9c010ccd-71df-4eb6-916b-68947abfa074","system_id":"levelo_inurba_marseille","lat":43.314811,"lon":5.373103,"is_reserved":false,"is_disabled":false,"rental_uris":{"android":"levelo://app?vid=9c010ccd-71df-4eb6-916b-68947abfa074","ios":"levelo://app?vid=9c010ccd-71df-4eb6-916b-68947abfa074"},"vehicle_type_id":"4","last_reported":1687122362,"current_range_meters":30000,"station_id":"ce4bgt12rcd13ifvqcd0","pricing_plan_id":"free"},{"bike_id":"595b09ae-ade1-4d40-83eb-548895143d38","system_id":"levelo_inurba_marseille","lat":43.31493,"lon":5.37308,"is_reserved":false,"is_disabled":false,"rental_uris":{"android":"levelo://app?vid=595b09ae-ade1-4d40-83eb-548895143d38","ios":"levelo://app?vid=595b09ae-ade1-4d40-83eb-548895143d38"},"vehicle_type_id":"4","last_reported":1687122362,"current_range_meters":31200,"station_id":"ce4bgt12rcd13ifvqcd0","pricing_plan_id":"free"},{"bike_id":"2a789e9d-4081-470a-a3ac-38a2c46d68fb","system_id":"levelo_inurba_marseille","lat":43.308614,"lon":5.372098,"is_reserved":false,"is_disabled":false,"rental_uris":{"android":"levelo://app?vid=2a789e9d-4081-470a-a3ac-38a2c46d68fb","ios":"levelo://app?vid=2a789e9d-4081-470a-a3ac-38a2c46d68fb"},"vehicle_type_id":"4","last_reported":1687122362,"current_range_meters":10000,"station_id":"ce4bguh2rcd13ifvqckg","pricing_plan_id":"free"},{"bike_id":"47e6996c-d18a-483c-be14-bb4789c5a5d0","system_id":"levelo_inurba_marseille","lat":43.305989,"lon":5.37225,"is_reserved":false,"is_disabled":false,"rental_uris":{"android":"levelo://app?vid=47e6996c-d18a-483c-be14-bb4789c5a5d0","ios":"levelo://app?vid=47e6996c-d18a-483c-be14-bb4789c5a5d0"},"vehicle_type_id":"4","last_reported":1687122362,"current_range_meters":18400,"station_id":"ce4bgqh2rcd13ifvqc4g","pricing_plan_id":"free"},{"bike_id":"e3d8f5da-9d15-4c3c-85e4-c7a5b9e5f706","system_id":"levelo_inurba_marseille","lat":43.305989,"lon":5.37225,"is_reserved":false,"is_disabled":false,"rental_uris":{"android":"levelo://app?vid=e3d8f5da-9d15-4c3c-85e4-c7a5b9e5f706","ios":"levelo://app?vid=e3d8f5da-9d15-4c3c-85e4-c7a5b9e5f706"},"vehicle_type_id":"4","last_reported":1687122362,"current_range_meters":4800,"station_id":"ce4bgqh2rcd13ifvqc4g","pricing_plan_id":"free"},{"bike_id":"59840318-9488-41bd-8c76-6c72347410ec","system_id":"levelo_inurba_marseille","lat":43.305989,"lon":5.37225,"is_reserved":false,"is_disabled":false,"rental_uris":{"android":"levelo://app?vid=59840318-9488-41bd-8c76-6c72347410ec","ios":"levelo://app?vid=59840318-9488-41bd-8c76-6c72347410ec"},"vehicle_type_id":"4","last_reported":1687122362,"current_range_meters":4800,"station_id":"ce4bgqh2rcd13ifvqc4g","pricing_plan_id":"free"},{"bike_id":"d641abf7-d3cb-4aea-b4ff-7755ea2ba3e7","system_id":"levelo_inurba_marseille","lat":43.311125,"lon":5.377624,"is_reserved":false,"is_disabled":false,"rental_uris":{"android":"levelo://app?vid=d641abf7-d3cb-4aea-b4ff-7755ea2ba3e7","ios":"levelo://app?vid=d641abf7-d3cb-4aea-b4ff-7755ea2ba3e7"},"vehicle_type_id":"4","last_reported":1687122362,"current_range_meters":3200,"station_id":"ce4bgt92rcd13ifvqcg0","pricing_plan_id":"free"},{"bike_id":"612ae939-a332-4e78-8447-93e3e426d025","system_id":"levelo_inurba_marseille","lat":43.311125,"lon":5.377624,"is_reserved":false,"is_disabled":false,"rental_uris":{"android":"levelo://app?vid=612ae939-a332-4e78-8447-93e3e426d025","ios":"levelo://app?vid=612ae939-a332-4e78-8447-93e3e426d025"},"vehicle_type_id":"4","last_reported":1687122362,"current_range_meters":30400,"station_id":"ce4bgt92rcd13ifvqcg0","pricing_plan_id":"free"},{"bike_id":"00d67e0c-817d-4e82-9f60-2683d1081085","system_id":"levelo_inurba_marseille","lat":43.311125,"lon":5.377624,"is_reserved":false,"is_disabled":false,"rental_uris":{"android":"levelo://app?vid=00d67e0c-817d-4e82-9f60-2683d1081085","ios":"levelo://app?vid=00d67e0c-817d-4e82-9f60-2683d1081085"},"vehicle_type_id":"4","last_reported":1687122362,"current_range_meters":26000,"station_id":"ce4bgt92rcd13ifvqcg0","pricing_plan_id":"free"},{"bike_id":"2424216c-0462-4ad0-b127-d0366c91b61c","system_id":"levelo_inurba_marseille","lat":43.31697,"lon":5.37667,"is_reserved":false,"is_disabled":false,"rental_uris":{"android":"levelo://app?vid=2424216c-0462-4ad0-b127-d0366c91b61c","ios":"levelo://app?vid=2424216c-0462-4ad0-b127-d0366c91b61c"},"vehicle_type_id":"4","last_reported":1687122362,"current_range_meters":26800,"station_id":"","pricing_plan_id":"free"},{"bike_id":"49a7f0d9-a735-4d48-be3f-0fc21ff0eec7","system_id":"levelo_inurba_marseille","lat":43.301939,"lon":5.366286,"is_reserved":false,"is_disabled":false,"rental_uris":{"android":"levelo://app?vid=49a7f0d9-a735-4d48-be3f-0fc21ff0eec7","ios":"levelo://app?vid=49a7f0d9-a735-4d48-be3f-0fc21ff0eec7"},"vehicle_type_id":"4","last_reported":1687122362,"current_range_meters":0,"station_id":"ce4bgrh2rcd13ifvqc8g","pricing_plan_id":"free"},{"bike_id":"ae33307b-fcd5-479b-9ae1-9002ed226c6e","system_id":"levelo_inurba_marseille","lat":43.308012,"lon":5.381511,"is_reserved":false,"is_disabled":false,"rental_uris":{"android":"levelo://app?vid=ae33307b-fcd5-479b-9ae1-9002ed226c6e","ios":"levelo://app?vid=ae33307b-fcd5-479b-9ae1-9002ed226c6e"},"vehicle_type_id":"4","last_reported":1687122362,"current_range_meters":28400,"station_id":"ce4bgt12rcd13ifvqce0","pricing_plan_id":"free"},{"bike_id":"43fc693e-f2a9-4aec-8fd9-d094bb02cb70","system_id":"levelo_inurba_marseille","lat":43.304606,"lon":5.379026,"is_reserved":false,"is_disabled":false,"rental_uris":{"android":"levelo://app?vid=43fc693e-f2a9-4aec-8fd9-d094bb02cb70","ios":"levelo://app?vid=43fc693e-f2a9-4aec-8fd9-d094bb02cb70"},"vehicle_type_id":"4","last_reported":1687122362,"current_range_meters":16000,"station_id":"ce4bgup2rcd13ifvqcn0","pricing_plan_id":"free"},{"bike_id":"88a5ed08-0ca3-4502-9b71-74eebe842222","system_id":"levelo_inurba_marseille","lat":43.31358,"lon":5.38488,"is_reserved":false,"is_disabled":false,"rental_uris":{"android":"levelo://app?vid=88a5ed08-0ca3-4502-9b71-74eebe842222","ios":"levelo://app?vid=88a5ed08-0ca3-4502-9b71-74eebe842222"},"vehicle_type_id":"4","last_reported":1687122362,"current_range_meters":2400,"station_id":"ce4bgt92rcd13ifvqcf0","pricing_plan_id":"free"},{"bike_id":"54c4cd93-4f19-4287-b17c-af99a21d6bf6","system_id":"levelo_inurba_marseille","lat":43.313571,"lon":5.384829,"is_reserved":false,"is_disabled":false,"rental_uris":{"android":"levelo://app?vid=54c4cd93-4f19-4287-b17c-af99a21d6bf6","ios":"levelo://app?vid=54c4cd93-4f19-4287-b17c-af99a21d6bf6"},"vehicle_type_id":"4","last_reported":1687122362,"current_range_meters":25600,"station_id":"ce4bgt92rcd13ifvqcf0","pricing_plan_id":"free"},{"bike_id":"94ef9b91-9a73-4a36-9ad7-e6ce59db45a8","system_id":"levelo_inurba_marseille","lat":43.313571,"lon":5.384829,"is_reserved":false,"is_disabled":false,"rental_uris":{"android":"levelo://app?vid=94ef9b91-9a73-4a36-9ad7-e6ce59db45a8","ios":"levelo://app?vid=94ef9b91-9a73-4a36-9ad7-e6ce59db45a8"},"vehicle_type_id":"4","last_reported":1687122362,"current_range_meters":3600,"station_id":"ce4bgt92rcd13ifvqcf0","pricing_plan_id":"free"},{"bike_id":"366528a4-b760-4126-a330-010fdc8fb365","system_id":"levelo_inurba_marseille","lat":43.29911,"lon":5.37475,"is_reserved":false,"is_disabled":false,"rental_uris":{"android":"levelo://app?vid=366528a4-b760-4126-a330-010fdc8fb365","ios":"levelo://app?vid=366528a4-b760-4126-a330-010fdc8fb365"},"vehicle_type_id":"4","last_reported":1687122362,"current_range_meters":23200,"station_id":"ce4bgjh2rcd13ifvqbg0","pricing_plan_id":"free"},{"bike_id":"d72ff2df-4704-4078-a7b0-da6c417ba58e","system_id":"levelo_inurba_marseille","lat":43.297774,"lon":5.370875,"is_reserved":false,"is_disabled":false,"rental_uris":{"android":"levelo://app?vid=d72ff2df-4704-4078-a7b0-da6c417ba58e","ios":"levelo://app?vid=d72ff2df-4704-4078-a7b0-da6c417ba58e"},"vehicle_type_id":"4","last_reported":1687122362,"current_range_meters":17600,"station_id":"ce4bgop2rcd13ifvqc1g","pricing_plan_id":"free"},{"bike_id":"6d5ccf33-759a-4c7a-af82-9f67388b4177","system_id":"levelo_inurba_marseille","lat":43.32825,"lon":5.36683,"is_reserved":false,"is_disabled":false,"rental_uris":{"android":"levelo://app?vid=6d5ccf33-759a-4c7a-af82-9f67388b4177","ios":"levelo://app?vid=6d5ccf33-759a-4c7a-af82-9f67388b4177"},"vehicle_type_id":"4","last_reported":1687122362,"current_range_meters":29200,"station_id":"ce4bhs92rcd13ifvqi0g","pricing_plan_id":"free"},{"bike_id":"69bf5c29-7e5d-45c7-b1b2-514d42707ee7","system_id":"levelo_inurba_marseille","lat":43.32825,"lon":5.36682,"is_reserved":false,"is_disabled":false,"rental_uris":{"android":"levelo://app?vid=69bf5c29-7e5d-45c7-b1b2-514d42707ee7","ios":"levelo://app?vid=69bf5c29-7e5d-45c7-b1b2-514d42707ee7"},"vehicle_type_id":"4","last_reported":1687122362,"current_range_meters":29200,"station_id":"ce4bhs92rcd13ifvqi0g","pricing_plan_id":"free"},{"bike_id":"c4c82479-60a6-4390-8970-3229e3eebb9c","system_id":"levelo_inurba_marseille","lat":43.32827,"lon":5.36686,"is_reserved":false,"is_disabled":false,"rental_uris":{"android":"levelo://app?vid=c4c82479-60a6-4390-8970-3229e3eebb9c","ios":"levelo://app?vid=c4c82479-60a6-4390-8970-3229e3eebb9c"},"vehicle_type_id":"4","last_reported":1687122362,"current_range_meters":17600,"station_id":"ce4bhs92rcd13ifvqi0g","pricing_plan_id":"free"},{"bike_id":"27e857a0-6074-435d-85c0-7fc3761f1cbb","system_id":"levelo_inurba_marseille","lat":43.32828,"lon":5.36689,"is_reserved":false,"is_disabled":false,"rental_uris":{"android":"levelo://app?vid=27e857a0-6074-435d-85c0-7fc3761f1cbb","ios":"levelo://app?vid=27e857a0-6074-435d-85c0-7fc3761f1cbb"},"vehicle_type_id":"4","last_reported":1687122362,"current_range_meters":28800,"station_id":"ce4bhs92rcd13ifvqi0g","pricing_plan_id":"free"},{"bike_id":"731cce5d-c725-402d-b941-54910a08f036","system_id":"levelo_inurba_marseille","lat":43.32829,"lon":5.36688,"is_reserved":false,"is_disabled":false,"rental_uris":{"android":"levelo://app?vid=731cce5d-c725-402d-b941-54910a08f036","ios":"levelo://app?vid=731cce5d-c725-402d-b941-54910a08f036"},"vehicle_type_id":"4","last_reported":1687122362,"current_range_meters":28800,"station_id":"ce4bhs92rcd13ifvqi0g","pricing_plan_id":"free"},{"bike_id":"176f4894-d7fc-460e-aa5d-7c8c1e206dc3","system_id":"levelo_inurba_marseille","lat":43.297163,"lon":5.365866,"is_reserved":false,"is_disabled":false,"rental_uris":{"android":"levelo://app?vid=176f4894-d7fc-460e-aa5d-7c8c1e206dc3","ios":"levelo://app?vid=176f4894-d7fc-460e-aa5d-7c8c1e206dc3"},"vehicle_type_id":"4","last_reported":1687122362,"current_range_meters":9200,"station_id":"ce4bgn12rcd13ifvqbt0","pricing_plan_id":"free"},{"bike_id":"78911849-321a-41c5-b67b-eefecdab885b","system_id":"levelo_inurba_marseille","lat":43.32832,"lon":5.36693,"is_reserved":false,"is_disabled":false,"rental_uris":{"android":"levelo://app?vid=78911849-321a-41c5-b67b-eefecdab885b","ios":"levelo://app?vid=78911849-321a-41c5-b67b-eefecdab885b"},"vehicle_type_id":"4","last_reported":1687122362,"current_range_meters":5200,"station_id":"ce4bhs92rcd13ifvqi0g","pricing_plan_id":"free"},{"bike_id":"9e60ff88-fe04-4b70-9af4-05a83fe316c7","system_id":"levelo_inurba_marseille","lat":43.32834,"lon":5.36681,"is_reserved":false,"is_disabled":false,"rental_uris":{"android":"levelo://app?vid=9e60ff88-fe04-4b70-9af4-05a83fe316c7","ios":"levelo://app?vid=9e60ff88-fe04-4b70-9af4-05a83fe316c7"},"vehicle_type_id":"4","last_reported":1687122362,"current_range_meters":27200,"station_id":"ce4bhs92rcd13ifvqi0g","pricing_plan_id":"free"},{"bike_id":"1bd17292-f906-493c-99cd-cfbd1c31e1f1","system_id":"levelo_inurba_marseille","lat":43.297163,"lon":5.365866,"is_reserved":false,"is_disabled":false,"rental_uris":{"android":"levelo://app?vid=1bd17292-f906-493c-99cd-cfbd1c31e1f1","ios":"levelo://app?vid=1bd17292-f906-493c-99cd-cfbd1c31e1f1"},"vehicle_type_id":"4","last_reported":1687122362,"current_range_meters":6400,"station_id":"ce4bgn12rcd13ifvqbt0","pricing_plan_id":"free"},{"bike_id":"88d0330c-5bb0-4a19-9b65-d4683b42e015","system_id":"levelo_inurba_marseille","lat":43.29683,"lon":5.36046,"is_reserved":false,"is_disabled":false,"rental_uris":{"android":"levelo://app?vid=88d0330c-5bb0-4a19-9b65-d4683b42e015","ios":"levelo://app?vid=88d0330c-5bb0-4a19-9b65-d4683b42e015"},"vehicle_type_id":"4","last_reported":1687122362,"current_range_meters":1200,"station_id":"","pricing_plan_id":"free"},{"bike_id":"0616f5fb-75a8-42af-bb68-c6013b6ba12e","system_id":"levelo_inurba_marseille","lat":43.296131,"lon":5.370791,"is_reserved":false,"is_disabled":false,"rental_uris":{"android":"levelo://app?vid=0616f5fb-75a8-42af-bb68-c6013b6ba12e","ios":"levelo://app?vid=0616f5fb-75a8-42af-bb68-c6013b6ba12e"},"vehicle_type_id":"4","last_reported":1687122362,"current_range_meters":800,"station_id":"ce4bgnh2rcd13ifvqc0g","pricing_plan_id":"free"},{"bike_id":"9b2e16e7-4840-488a-a13a-456c6723f759","system_id":"levelo_inurba_marseille","lat":43.296131,"lon":5.370791,"is_reserved":false,"is_disabled":false,"rental_uris":{"android":"levelo://app?vid=9b2e16e7-4840-488a-a13a-456c6723f759","ios":"levelo://app?vid=9b2e16e7-4840-488a-a13a-456c6723f759"},"vehicle_type_id":"4","last_reported":1687122362,"current_range_meters":800,"station_id":"ce4bgnh2rcd13ifvqc0g","pricing_plan_id":"free"},{"bike_id":"24f41ca5-b432-4feb-a0c8-a15026b97306","system_id":"levelo_inurba_marseille","lat":43.296131,"lon":5.370773,"is_reserved":false,"is_disabled":false,"rental_uris":{"android":"levelo://app?vid=24f41ca5-b432-4feb-a0c8-a15026b97306","ios":"levelo://app?vid=24f41ca5-b432-4feb-a0c8-a15026b97306"},"vehicle_type_id":"4","last_reported":1687122362,"current_range_meters":10800,"station_id":"ce4bgnh2rcd13ifvqc0g","pricing_plan_id":"free"},{"bike_id":"2f4ffc9a-a396-4289-8339-052543e2ed97","system_id":"levelo_inurba_marseille","lat":43.29895,"lon":5.38159,"is_reserved":false,"is_disabled":false,"rental_uris":{"android":"levelo://app?vid=2f4ffc9a-a396-4289-8339-052543e2ed97","ios":"levelo://app?vid=2f4ffc9a-a396-4289-8339-052543e2ed97"},"vehicle_type_id":"4","last_reported":1687122362,"current_range_meters":0,"station_id":"ce4bgj12rcd13ifvqbc0","pricing_plan_id":"free"},{"bike_id":"4ce50519-ed96-44ca-a3da-62e854a0721b","system_id":"levelo_inurba_marseille","lat":43.29602,"lon":5.381084,"is_reserved":false,"is_disabled":false,"rental_uris":{"android":"levelo://app?vid=4ce50519-ed96-44ca-a3da-62e854a0721b","ios":"levelo://app?vid=4ce50519-ed96-44ca-a3da-62e854a0721b"},"vehicle_type_id":"4","last_reported":1687122362,"current_range_meters":31200,"station_id":"ce4bgl12rcd13ifvqbo0","pricing_plan_id":"free"},{"bike_id":"2e8bf80d-1b6f-4bf0-807b-6e3c96119011","system_id":"levelo_inurba_marseille","lat":43.295748,"lon":5.37522,"is_reserved":false,"is_disabled":false,"rental_uris":{"android":"levelo://app?vid=2e8bf80d-1b6f-4bf0-807b-6e3c96119011","ios":"levelo://app?vid=2e8bf80d-1b6f-4bf0-807b-6e3c96119011"},"vehicle_type_id":"4","last_reported":1687122362,"current_range_meters":4400,"station_id":"ce4bgh92rcd13ifvqb50","pricing_plan_id":"free"},{"bike_id":"250c8a96-8498-4211-b8f3-1b00a8d1fbaf","system_id":"levelo_inurba_marseille","lat":43.296477,"lon":5.37768,"is_reserved":false,"is_disabled":false,"rental_uris":{"android":"levelo://app?vid=250c8a96-8498-4211-b8f3-1b00a8d1fbaf","ios":"levelo://app?vid=250c8a96-8498-4211-b8f3-1b00a8d1fbaf"},"vehicle_type_id":"4","last_reported":1687122362,"current_range_meters":11600,"station_id":"","pricing_plan_id":"free"},{"bike_id":"f18bac59-ab68-444b-9295-a86eace0c2b3","system_id":"levelo_inurba_marseille","lat":43.299707,"lon":5.384859,"is_reserved":false,"is_disabled":false,"rental_uris":{"android":"levelo://app?vid=f18bac59-ab68-444b-9295-a86eace0c2b3","ios":"levelo://app?vid=f18bac59-ab68-444b-9295-a86eace0c2b3"},"vehicle_type_id":"4","last_reported":1687122362,"current_range_meters":26000,"station_id":"ce4bgj92rcd13ifvqbd0","pricing_plan_id":"free"},{"bike_id":"c7fb44fa-b720-46f3-8dc5-6519f57b6ebe","system_id":"levelo_inurba_marseille","lat":43.299707,"lon":5.384859,"is_reserved":false,"is_disabled":false,"rental_uris":{"android":"levelo://app?vid=c7fb44fa-b720-46f3-8dc5-6519f57b6ebe","ios":"levelo://app?vid=c7fb44fa-b720-46f3-8dc5-6519f57b6ebe"},"vehicle_type_id":"4","last_reported":1687122362,"current_range_meters":24800,"station_id":"ce4bgj92rcd13ifvqbd0","pricing_plan_id":"free"},{"bike_id":"bb335696-9086-470f-9c5f-1244bc2e0b8f","system_id":"levelo_inurba_marseille","lat":43.299717,"lon":5.384845,"is_reserved":false,"is_disabled":false,"rental_uris":{"android":"levelo://app?vid=bb335696-9086-470f-9c5f-1244bc2e0b8f","ios":"levelo://app?vid=bb335696-9086-470f-9c5f-1244bc2e0b8f"},"vehicle_type_id":"4","last_reported":1687122362,"current_range_meters":30400,"station_id":"ce4bgj92rcd13ifvqbd0","pricing_plan_id":"free"},{"bike_id":"272ba1e2-7d06-4092-b039-73092e243ece","system_id":"levelo_inurba_marseille","lat":43.299717,"lon":5.384845,"is_reserved":false,"is_disabled":false,"rental_uris":{"android":"levelo://app?vid=272ba1e2-7d06-4092-b039-73092e243ece","ios":"levelo://app?vid=272ba1e2-7d06-4092-b039-73092e243ece"},"vehicle_type_id":"4","last_reported":1687122362,"current_range_meters":4000,"station_id":"ce4bgj92rcd13ifvqbd0","pricing_plan_id":"free"},{"bike_id":"23318330-7b2f-47fd-9d31-f7541627ccba","system_id":"levelo_inurba_marseille","lat":43.299707,"lon":5.384859,"is_reserved":false,"is_disabled":false,"rental_uris":{"android":"levelo://app?vid=23318330-7b2f-47fd-9d31-f7541627ccba","ios":"levelo://app?vid=23318330-7b2f-47fd-9d31-f7541627ccba"},"vehicle_type_id":"4","last_reported":1687122362,"current_range_meters":800,"station_id":"ce4bgj92rcd13ifvqbd0","pricing_plan_id":"free"},{"bike_id":"eb56f040-d7e3-440c-9d05-82afe187dd21","system_id":"levelo_inurba_marseille","lat":43.299724,"lon":5.384848,"is_reserved":false,"is_disabled":false,"rental_uris":{"android":"levelo://app?vid=eb56f040-d7e3-440c-9d05-82afe187dd21","ios":"levelo://app?vid=eb56f040-d7e3-440c-9d05-82afe187dd21"},"vehicle_type_id":"4","last_reported":1687122362,"current_range_meters":28000,"station_id":"ce4bgj92rcd13ifvqbd0","pricing_plan_id":"free"},{"bike_id":"58f295a5-f1f1-4484-ac4f-fdc1da84269f","system_id":"levelo_inurba_marseille","lat":43.299717,"lon":5.384845,"is_reserved":false,"is_disabled":false,"rental_uris":{"android":"levelo://app?vid=58f295a5-f1f1-4484-ac4f-fdc1da84269f","ios":"levelo://app?vid=58f295a5-f1f1-4484-ac4f-fdc1da84269f"},"vehicle_type_id":"4","last_reported":1687122362,"current_range_meters":0,"station_id":"ce4bgj92rcd13ifvqbd0","pricing_plan_id":"free"},{"bike_id":"0100a688-6eac-43d0-bf90-97c080a6e462","system_id":"levelo_inurba_marseille","lat":43.32367,"lon":5.388836,"is_reserved":false,"is_disabled":false,"rental_uris":{"android":"levelo://app?vid=0100a688-6eac-43d0-bf90-97c080a6e462","ios":"levelo://app?vid=0100a688-6eac-43d0-bf90-97c080a6e462"},"vehicle_type_id":"4","last_reported":1687122362,"current_range_meters":15600,"station_id":"ce4bhqp2rcd13ifvqhog","pricing_plan_id":"free"},{"bike_id":"9ff5e686-c760-4fee-b5de-d5d0394be428","system_id":"levelo_inurba_marseille","lat":43.32367,"lon":5.388836,"is_reserved":false,"is_disabled":false,"rental_uris":{"android":"levelo://app?vid=9ff5e686-c760-4fee-b5de-d5d0394be428","ios":"levelo://app?vid=9ff5e686-c760-4fee-b5de-d5d0394be428"},"vehicle_type_id":"4","last_reported":1687122362,"current_range_meters":10800,"station_id":"ce4bhqp2rcd13ifvqhog","pricing_plan_id":"free"},{"bike_id":"64bf5995-e1cd-400c-b4dd-97956e1f681e","system_id":"levelo_inurba_marseille","lat":43.32367,"lon":5.388836,"is_reserved":false,"is_disabled":false,"rental_uris":{"android":"levelo://app?vid=64bf5995-e1cd-400c-b4dd-97956e1f681e","ios":"levelo://app?vid=64bf5995-e1cd-400c-b4dd-97956e1f681e"},"vehicle_type_id":"4","last_reported":1687122362,"current_range_meters":8000,"station_id":"ce4bhqp2rcd13ifvqhog","pricing_plan_id":"free"},{"bike_id":"d852f6e7-92f3-42a5-90b9-92d33ffa9a5c","system_id":"levelo_inurba_marseille","lat":43.32367,"lon":5.388836,"is_reserved":false,"is_disabled":false,"rental_uris":{"android":"levelo://app?vid=d852f6e7-92f3-42a5-90b9-92d33ffa9a5c","ios":"levelo://app?vid=d852f6e7-92f3-42a5-90b9-92d33ffa9a5c"},"vehicle_type_id":"4","last_reported":1687122362,"current_range_meters":15200,"station_id":"ce4bhqp2rcd13ifvqhog","pricing_plan_id":"free"},{"bike_id":"c25bbca6-334a-48c9-b2aa-c69eb97c9d81","system_id":"levelo_inurba_marseille","lat":43.32367,"lon":5.388836,"is_reserved":false,"is_disabled":false,"rental_uris":{"android":"levelo://app?vid=c25bbca6-334a-48c9-b2aa-c69eb97c9d81","ios":"levelo://app?vid=c25bbca6-334a-48c9-b2aa-c69eb97c9d81"},"vehicle_type_id":"4","last_reported":1687122362,"current_range_meters":28400,"station_id":"ce4bhqp2rcd13ifvqhog","pricing_plan_id":"free"},{"bike_id":"1e11da75-1535-40c4-868f-d72b4ce5af75","system_id":"levelo_inurba_marseille","lat":43.29602,"lon":5.381084,"is_reserved":false,"is_disabled":false,"rental_uris":{"android":"levelo://app?vid=1e11da75-1535-40c4-868f-d72b4ce5af75","ios":"levelo://app?vid=1e11da75-1535-40c4-868f-d72b4ce5af75"},"vehicle_type_id":"4","last_reported":1687122362,"current_range_meters":5600,"station_id":"ce4bgl12rcd13ifvqbo0","pricing_plan_id":"free"},{"bike_id":"a05938ac-e106-4206-9906-51dd2bfecdb3","system_id":"levelo_inurba_marseille","lat":43.29602,"lon":5.381084,"is_reserved":false,"is_disabled":false,"rental_uris":{"android":"levelo://app?vid=a05938ac-e106-4206-9906-51dd2bfecdb3","ios":"levelo://app?vid=a05938ac-e106-4206-9906-51dd2bfecdb3"},"vehicle_type_id":"4","last_reported":1687122362,"current_range_meters":11600,"station_id":"ce4bgl12rcd13ifvqbo0","pricing_plan_id":"free"},{"bike_id":"4e5791cf-dce8-434b-9a59-41812292be16","system_id":"levelo_inurba_marseille","lat":43.29597,"lon":5.38087,"is_reserved":false,"is_disabled":false,"rental_uris":{"android":"levelo://app?vid=4e5791cf-dce8-434b-9a59-41812292be16","ios":"levelo://app?vid=4e5791cf-dce8-434b-9a59-41812292be16"},"vehicle_type_id":"4","last_reported":1687122362,"current_range_meters":31200,"station_id":"ce4bgl12rcd13ifvqbo0","pricing_plan_id":"free"},{"bike_id":"0e73fd36-0f20-4c3d-8a46-87f093ebb88e","system_id":"levelo_inurba_marseille","lat":43.29574,"lon":5.38116,"is_reserved":false,"is_disabled":false,"rental_uris":{"android":"levelo://app?vid=0e73fd36-0f20-4c3d-8a46-87f093ebb88e","ios":"levelo://app?vid=0e73fd36-0f20-4c3d-8a46-87f093ebb88e"},"vehicle_type_id":"4","last_reported":1687122362,"current_range_meters":31200,"station_id":"","pricing_plan_id":"free"},{"bike_id":"3c6da382-aa58-45cb-96da-320ddd52cfe2","system_id":"levelo_inurba_marseille","lat":43.298764,"lon":5.388973,"is_reserved":false,"is_disabled":false,"rental_uris":{"android":"levelo://app?vid=3c6da382-aa58-45cb-96da-320ddd52cfe2","ios":"levelo://app?vid=3c6da382-aa58-45cb-96da-320ddd52cfe2"},"vehicle_type_id":"4","last_reported":1687122362,"current_range_meters":20800,"station_id":"ce4bh392rcd13ifvqdl0","pricing_plan_id":"free"},{"bike_id":"9019e8f1-60d2-4909-a933-186029a9b0e1","system_id":"levelo_inurba_marseille","lat":43.301374,"lon":5.3904,"is_reserved":false,"is_disabled":false,"rental_uris":{"android":"levelo://app?vid=9019e8f1-60d2-4909-a933-186029a9b0e1","ios":"levelo://app?vid=9019e8f1-60d2-4909-a933-186029a9b0e1"},"vehicle_type_id":"4","last_reported":1687122362,"current_range_meters":17600,"station_id":"ce4bhgh2rcd13ifvqfa0","pricing_plan_id":"free"},{"bike_id":"ef3a4ba8-2bf8-42e3-9420-16136fb749a0","system_id":"levelo_inurba_marseille","lat":43.300852,"lon":5.390859,"is_reserved":false,"is_disabled":false,"rental_uris":{"android":"levelo://app?vid=ef3a4ba8-2bf8-42e3-9420-16136fb749a0","ios":"levelo://app?vid=ef3a4ba8-2bf8-42e3-9420-16136fb749a0"},"vehicle_type_id":"4","last_reported":1687122362,"current_range_meters":6400,"station_id":"ce4bh192rcd13ifvqdb0","pricing_plan_id":"free"},{"bike_id":"f566c84e-7972-4f76-9d0f-b6c764ecb224","system_id":"levelo_inurba_marseille","lat":43.30103,"lon":5.39079,"is_reserved":false,"is_disabled":false,"rental_uris":{"android":"levelo://app?vid=f566c84e-7972-4f76-9d0f-b6c764ecb224","ios":"levelo://app?vid=f566c84e-7972-4f76-9d0f-b6c764ecb224"},"vehicle_type_id":"4","last_reported":1687122362,"current_range_meters":31200,"station_id":"ce4bh192rcd13ifvqdb0","pricing_plan_id":"free"},{"bike_id":"c40d2f6a-9a3c-4d8d-ac76-4c297512856c","system_id":"levelo_inurba_marseille","lat":43.300852,"lon":5.390859,"is_reserved":false,"is_disabled":false,"rental_uris":{"android":"levelo://app?vid=c40d2f6a-9a3c-4d8d-ac76-4c297512856c","ios":"levelo://app?vid=c40d2f6a-9a3c-4d8d-ac76-4c297512856c"},"vehicle_type_id":"4","last_reported":1687122362,"current_range_meters":31600,"station_id":"ce4bh192rcd13ifvqdb0","pricing_plan_id":"free"},{"bike_id":"02401813-cfd7-45a7-a153-0e9255cc48d1","system_id":"levelo_inurba_marseille","lat":43.300852,"lon":5.390859,"is_reserved":false,"is_disabled":false,"rental_uris":{"android":"levelo://app?vid=02401813-cfd7-45a7-a153-0e9255cc48d1","ios":"levelo://app?vid=02401813-cfd7-45a7-a153-0e9255cc48d1"},"vehicle_type_id":"4","last_reported":1687122362,"current_range_meters":26800,"station_id":"ce4bh192rcd13ifvqdb0","pricing_plan_id":"free"},{"bike_id":"eaf9320f-08d0-412e-9001-ad5d233332ce","system_id":"levelo_inurba_marseille","lat":43.30085,"lon":5.390856,"is_reserved":false,"is_disabled":false,"rental_uris":{"android":"levelo://app?vid=eaf9320f-08d0-412e-9001-ad5d233332ce","ios":"levelo://app?vid=eaf9320f-08d0-412e-9001-ad5d233332ce"},"vehicle_type_id":"4","last_reported":1687122362,"current_range_meters":26400,"station_id":"ce4bh192rcd13ifvqdb0","pricing_plan_id":"free"},{"bike_id":"bf98c3f1-2cf4-4863-b6fc-1df2b5837e42","system_id":"levelo_inurba_marseille","lat":43.32684,"lon":5.38841,"is_reserved":false,"is_disabled":false,"rental_uris":{"android":"levelo://app?vid=bf98c3f1-2cf4-4863-b6fc-1df2b5837e42","ios":"levelo://app?vid=bf98c3f1-2cf4-4863-b6fc-1df2b5837e42"},"vehicle_type_id":"4","last_reported":1687122362,"current_range_meters":17600,"station_id":"","pricing_plan_id":"free"},{"bike_id":"c0818495-d4c6-4d12-ad92-f8d981e1a031","system_id":"levelo_inurba_marseille","lat":43.300852,"lon":5.390859,"is_reserved":false,"is_disabled":false,"rental_uris":{"android":"levelo://app?vid=c0818495-d4c6-4d12-ad92-f8d981e1a031","ios":"levelo://app?vid=c0818495-d4c6-4d12-ad92-f8d981e1a031"},"vehicle_type_id":"4","last_reported":1687122362,"current_range_meters":19200,"station_id":"ce4bh192rcd13ifvqdb0","pricing_plan_id":"free"},{"bike_id":"18ab3de0-1956-4970-ba3c-4e94ff9719cc","system_id":"levelo_inurba_marseille","lat":43.292663,"lon":5.376394,"is_reserved":false,"is_disabled":false,"rental_uris":{"android":"levelo://app?vid=18ab3de0-1956-4970-ba3c-4e94ff9719cc","ios":"levelo://app?vid=18ab3de0-1956-4970-ba3c-4e94ff9719cc"},"vehicle_type_id":"4","last_reported":1687122362,"current_range_meters":18000,"station_id":"ce4bgi12rcd13ifvqb80","pricing_plan_id":"free"},{"bike_id":"f99e9929-8072-4af1-bf79-5cf6bf4bfb6c","system_id":"levelo_inurba_marseille","lat":43.298764,"lon":5.388973,"is_reserved":false,"is_disabled":false,"rental_uris":{"android":"levelo://app?vid=f99e9929-8072-4af1-bf79-5cf6bf4bfb6c","ios":"levelo://app?vid=f99e9929-8072-4af1-bf79-5cf6bf4bfb6c"},"vehicle_type_id":"4","last_reported":1687122362,"current_range_meters":23600,"station_id":"ce4bh392rcd13ifvqdl0","pricing_plan_id":"free"},{"bike_id":"313e9307-45da-44e1-ac4f-23150195e0b3","system_id":"levelo_inurba_marseille","lat":43.298764,"lon":5.388973,"is_reserved":false,"is_disabled":false,"rental_uris":{"android":"levelo://app?vid=313e9307-45da-44e1-ac4f-23150195e0b3","ios":"levelo://app?vid=313e9307-45da-44e1-ac4f-23150195e0b3"},"vehicle_type_id":"4","last_reported":1687122362,"current_range_meters":12800,"station_id":"ce4bh392rcd13ifvqdl0","pricing_plan_id":"free"},{"bike_id":"2f58d735-5305-4fee-a21a-a1d9d3a9a68d","system_id":"levelo_inurba_marseille","lat":43.298764,"lon":5.388973,"is_reserved":false,"is_disabled":false,"rental_uris":{"android":"levelo://app?vid=2f58d735-5305-4fee-a21a-a1d9d3a9a68d","ios":"levelo://app?vid=2f58d735-5305-4fee-a21a-a1d9d3a9a68d"},"vehicle_type_id":"4","last_reported":1687122362,"current_range_meters":8800,"station_id":"ce4bh392rcd13ifvqdl0","pricing_plan_id":"free"},{"bike_id":"4dec26a1-4f74-4f2a-9181-3b0c2e00472e","system_id":"levelo_inurba_marseille","lat":43.2923,"lon":5.37655,"is_reserved":false,"is_disabled":false,"rental_uris":{"android":"levelo://app?vid=4dec26a1-4f74-4f2a-9181-3b0c2e00472e","ios":"levelo://app?vid=4dec26a1-4f74-4f2a-9181-3b0c2e00472e"},"vehicle_type_id":"4","last_reported":1687122362,"current_range_meters":24400,"station_id":"ce4bgi12rcd13ifvqb80","pricing_plan_id":"free"},{"bike_id":"744c215c-ceca-4b2d-84c5-ba444d9b7d86","system_id":"levelo_inurba_marseille","lat":43.313291,"lon":5.396838,"is_reserved":false,"is_disabled":false,"rental_uris":{"android":"levelo://app?vid=744c215c-ceca-4b2d-84c5-ba444d9b7d86","ios":"levelo://app?vid=744c215c-ceca-4b2d-84c5-ba444d9b7d86"},"vehicle_type_id":"4","last_reported":1687122362,"current_range_meters":2000,"station_id":"ce4bgvp2rcd13ifvqcu0","pricing_plan_id":"free"},{"bike_id":"915bcf72-ec55-4ea2-afb4-1fc09a4c88f7","system_id":"levelo_inurba_marseille","lat":43.309038,"lon":5.396546,"is_reserved":false,"is_disabled":false,"rental_uris":{"android":"levelo://app?vid=915bcf72-ec55-4ea2-afb4-1fc09a4c88f7","ios":"levelo://app?vid=915bcf72-ec55-4ea2-afb4-1fc09a4c88f7"},"vehicle_type_id":"4","last_reported":1687122362,"current_range_meters":4800,"station_id":"ce4bh012rcd13ifvqcv0","pricing_plan_id":"free"},{"bike_id":"b82419e8-1db5-4f11-9caf-d00fff04d9f9","system_id":"levelo_inurba_marseille","lat":43.309038,"lon":5.396546,"is_reserved":false,"is_disabled":false,"rental_uris":{"android":"levelo://app?vid=b82419e8-1db5-4f11-9caf-d00fff04d9f9","ios":"levelo://app?vid=b82419e8-1db5-4f11-9caf-d00fff04d9f9"},"vehicle_type_id":"4","last_reported":1687122362,"current_range_meters":0,"station_id":"ce4bh012rcd13ifvqcv0","pricing_plan_id":"free"},{"bike_id":"c482e9d6-f98b-4a29-be0c-bc16baebc1a1","system_id":"levelo_inurba_marseille","lat":43.29529,"lon":5.385581,"is_reserved":false,"is_disabled":false,"rental_uris":{"android":"levelo://app?vid=c482e9d6-f98b-4a29-be0c-bc16baebc1a1","ios":"levelo://app?vid=c482e9d6-f98b-4a29-be0c-bc16baebc1a1"},"vehicle_type_id":"4","last_reported":1687122362,"current_range_meters":9600,"station_id":"ce4bgih2rcd13ifvqba0","pricing_plan_id":"free"},{"bike_id":"cc6ba174-ab48-4797-bf34-ece8c1d3a4ce","system_id":"levelo_inurba_marseille","lat":43.29529,"lon":5.385581,"is_reserved":false,"is_disabled":false,"rental_uris":{"android":"levelo://app?vid=cc6ba174-ab48-4797-bf34-ece8c1d3a4ce","ios":"levelo://app?vid=cc6ba174-ab48-4797-bf34-ece8c1d3a4ce"},"vehicle_type_id":"4","last_reported":1687122362,"current_range_meters":5200,"station_id":"ce4bgih2rcd13ifvqba0","pricing_plan_id":"free"},{"bike_id":"1cc67c90-7004-4757-8701-415cbd0d8708","system_id":"levelo_inurba_marseille","lat":43.29529,"lon":5.385581,"is_reserved":false,"is_disabled":false,"rental_uris":{"android":"levelo://app?vid=1cc67c90-7004-4757-8701-415cbd0d8708","ios":"levelo://app?vid=1cc67c90-7004-4757-8701-415cbd0d8708"},"vehicle_type_id":"4","last_reported":1687122362,"current_range_meters":15600,"station_id":"ce4bgih2rcd13ifvqba0","pricing_plan_id":"free"},{"bike_id":"0d866b1d-d5e2-450c-a92b-1becf536470f","system_id":"levelo_inurba_marseille","lat":43.29529,"lon":5.385581,"is_reserved":false,"is_disabled":false,"rental_uris":{"android":"levelo://app?vid=0d866b1d-d5e2-450c-a92b-1becf536470f","ios":"levelo://app?vid=0d866b1d-d5e2-450c-a92b-1becf536470f"},"vehicle_type_id":"4","last_reported":1687122362,"current_range_meters":5200,"station_id":"ce4bgih2rcd13ifvqba0","pricing_plan_id":"free"},{"bike_id":"f90825ef-b2cc-4750-97eb-6f2da5f9dfa8","system_id":"levelo_inurba_marseille","lat":43.29189,"lon":5.35727,"is_reserved":false,"is_disabled":false,"rental_uris":{"android":"levelo://app?vid=f90825ef-b2cc-4750-97eb-6f2da5f9dfa8","ios":"levelo://app?vid=f90825ef-b2cc-4750-97eb-6f2da5f9dfa8"},"vehicle_type_id":"4","last_reported":1687122362,"current_range_meters":22400,"station_id":"","pricing_plan_id":"free"},{"bike_id":"d5eec051-7a98-490a-95a2-acec5a093ee8","system_id":"levelo_inurba_marseille","lat":43.29529,"lon":5.385581,"is_reserved":false,"is_disabled":false,"rental_uris":{"android":"levelo://app?vid=d5eec051-7a98-490a-95a2-acec5a093ee8","ios":"levelo://app?vid=d5eec051-7a98-490a-95a2-acec5a093ee8"},"vehicle_type_id":"4","last_reported":1687122362,"current_range_meters":6000,"station_id":"ce4bgih2rcd13ifvqba0","pricing_plan_id":"free"},{"bike_id":"194217e3-db30-418a-8bd7-aedd37e823c5","system_id":"levelo_inurba_marseille","lat":43.302008,"lon":5.394694,"is_reserved":false,"is_disabled":false,"rental_uris":{"android":"levelo://app?vid=194217e3-db30-418a-8bd7-aedd37e823c5","ios":"levelo://app?vid=194217e3-db30-418a-8bd7-aedd37e823c5"},"vehicle_type_id":"4","last_reported":1687122362,"current_range_meters":13600,"station_id":"ce4bh0p2rcd13ifvqd70","pricing_plan_id":"free"},{"bike_id":"49949f5e-2f9b-4f37-83ab-0e9efafa348e","system_id":"levelo_inurba_marseille","lat":43.2942,"lon":5.38623,"is_reserved":false,"is_disabled":false,"rental_uris":{"android":"levelo://app?vid=49949f5e-2f9b-4f37-83ab-0e9efafa348e","ios":"levelo://app?vid=49949f5e-2f9b-4f37-83ab-0e9efafa348e"},"vehicle_type_id":"4","last_reported":1687122362,"current_range_meters":29200,"station_id":"ce4bh2h2rcd13ifvqdh0","pricing_plan_id":"free"},{"bike_id":"2356aed4-98d7-4f36-87a5-1a4ee073c108","system_id":"levelo_inurba_marseille","lat":43.29418,"lon":5.38622,"is_reserved":false,"is_disabled":false,"rental_uris":{"android":"levelo://app?vid=2356aed4-98d7-4f36-87a5-1a4ee073c108","ios":"levelo://app?vid=2356aed4-98d7-4f36-87a5-1a4ee073c108"},"vehicle_type_id":"4","last_reported":1687122362,"current_range_meters":30400,"station_id":"ce4bh2h2rcd13ifvqdh0","pricing_plan_id":"free"},{"bike_id":"b66cfa2c-495c-4cfe-b100-681ed3f3646c","system_id":"levelo_inurba_marseille","lat":43.294153,"lon":5.386305,"is_reserved":false,"is_disabled":false,"rental_uris":{"android":"levelo://app?vid=b66cfa2c-495c-4cfe-b100-681ed3f3646c","ios":"levelo://app?vid=b66cfa2c-495c-4cfe-b100-681ed3f3646c"},"vehicle_type_id":"4","last_reported":1687122362,"current_range_meters":11200,"station_id":"ce4bh2h2rcd13ifvqdh0","pricing_plan_id":"free"},{"bike_id":"3b6c3b01-e681-4011-aa4a-12fae7ce16ee","system_id":"levelo_inurba_marseille","lat":43.289184,"lon":5.366408,"is_reserved":false,"is_disabled":false,"rental_uris":{"android":"levelo://app?vid=3b6c3b01-e681-4011-aa4a-12fae7ce16ee","ios":"levelo://app?vid=3b6c3b01-e681-4011-aa4a-12fae7ce16ee"},"vehicle_type_id":"4","last_reported":1687122362,"current_range_meters":26000,"station_id":"ce4bhap2rcd13ifvqek0","pricing_plan_id":"free"},{"bike_id":"c9d6c6cf-50bc-4d44-9c79-63dd9b78bed0","system_id":"levelo_inurba_marseille","lat":43.304274,"lon":5.397513,"is_reserved":false,"is_disabled":false,"rental_uris":{"android":"levelo://app?vid=c9d6c6cf-50bc-4d44-9c79-63dd9b78bed0","ios":"levelo://app?vid=c9d6c6cf-50bc-4d44-9c79-63dd9b78bed0"},"vehicle_type_id":"4","last_reported":1687122362,"current_range_meters":800,"station_id":"ce4bh092rcd13ifvqd20","pricing_plan_id":"free"},{"bike_id":"79a2ce63-5aae-46f0-93f6-93532f1c0ebb","system_id":"levelo_inurba_marseille","lat":43.304296,"lon":5.397513,"is_reserved":false,"is_disabled":false,"rental_uris":{"android":"levelo://app?vid=79a2ce63-5aae-46f0-93f6-93532f1c0ebb","ios":"levelo://app?vid=79a2ce63-5aae-46f0-93f6-93532f1c0ebb"},"vehicle_type_id":"4","last_reported":1687122362,"current_range_meters":29200,"station_id":"ce4bh092rcd13ifvqd20","pricing_plan_id":"free"},{"bike_id":"38eb09af-7166-42b9-865e-84246929498f","system_id":"levelo_inurba_marseille","lat":43.29265,"lon":5.38438,"is_reserved":false,"is_disabled":false,"rental_uris":{"android":"levelo://app?vid=38eb09af-7166-42b9-865e-84246929498f","ios":"levelo://app?vid=38eb09af-7166-42b9-865e-84246929498f"},"vehicle_type_id":"4","last_reported":1687122362,"current_range_meters":31200,"station_id":"ce4bh692rcd13ifvqea0","pricing_plan_id":"free"},{"bike_id":"b4e7fc2d-b8f3-4831-b8f6-7dd5a95dae01","system_id":"levelo_inurba_marseille","lat":43.29006,"lon":5.35612,"is_reserved":false,"is_disabled":false,"rental_uris":{"android":"levelo://app?vid=b4e7fc2d-b8f3-4831-b8f6-7dd5a95dae01","ios":"levelo://app?vid=b4e7fc2d-b8f3-4831-b8f6-7dd5a95dae01"},"vehicle_type_id":"4","last_reported":1687122362,"current_range_meters":0,"station_id":"ce4bhb92rcd13ifvqen0","pricing_plan_id":"free"},{"bike_id":"91ab7074-291e-4716-8dc1-e00ab5f1738c","system_id":"levelo_inurba_marseille","lat":43.33046,"lon":5.3892,"is_reserved":false,"is_disabled":false,"rental_uris":{"android":"levelo://app?vid=91ab7074-291e-4716-8dc1-e00ab5f1738c","ios":"levelo://app?vid=91ab7074-291e-4716-8dc1-e00ab5f1738c"},"vehicle_type_id":"4","last_reported":1687122362,"current_range_meters":8800,"station_id":"ce4bhr92rcd13ifvqhrg","pricing_plan_id":"free"},{"bike_id":"a399df8a-bed0-4512-8846-c37e7fb7e326","system_id":"levelo_inurba_marseille","lat":43.290995,"lon":5.381361,"is_reserved":false,"is_disabled":false,"rental_uris":{"android":"levelo://app?vid=a399df8a-bed0-4512-8846-c37e7fb7e326","ios":"levelo://app?vid=a399df8a-bed0-4512-8846-c37e7fb7e326"},"vehicle_type_id":"4","last_reported":1687122362,"current_range_meters":0,"station_id":"ce4bh512rcd13ifvqe2g","pricing_plan_id":"free"},{"bike_id":"b21ba8fc-65c2-4e4c-b506-ad3460c86413","system_id":"levelo_inurba_marseille","lat":43.29012,"lon":5.37864,"is_reserved":false,"is_disabled":false,"rental_uris":{"android":"levelo://app?vid=b21ba8fc-65c2-4e4c-b506-ad3460c86413","ios":"levelo://app?vid=b21ba8fc-65c2-4e4c-b506-ad3460c86413"},"vehicle_type_id":"4","last_reported":1687122362,"current_range_meters":2400,"station_id":"","pricing_plan_id":"free"},{"bike_id":"f91b4a92-2996-47de-99c4-6a99b66acee3","system_id":"levelo_inurba_marseille","lat":43.289741,"lon":5.378306,"is_reserved":false,"is_disabled":false,"rental_uris":{"android":"levelo://app?vid=f91b4a92-2996-47de-99c4-6a99b66acee3","ios":"levelo://app?vid=f91b4a92-2996-47de-99c4-6a99b66acee3"},"vehicle_type_id":"4","last_reported":1687122362,"current_range_meters":24800,"station_id":"ce4bh9p2rcd13ifvqed0","pricing_plan_id":"free"},{"bike_id":"e8e642c8-96a2-43ac-8fc7-b867ff8a8190","system_id":"levelo_inurba_marseille","lat":43.289743,"lon":5.378304,"is_reserved":false,"is_disabled":false,"rental_uris":{"android":"levelo://app?vid=e8e642c8-96a2-43ac-8fc7-b867ff8a8190","ios":"levelo://app?vid=e8e642c8-96a2-43ac-8fc7-b867ff8a8190"},"vehicle_type_id":"4","last_reported":1687122362,"current_range_meters":0,"station_id":"ce4bh9p2rcd13ifvqed0","pricing_plan_id":"free"},{"bike_id":"f31d77c1-9b9f-47de-8958-548f03b79c6d","system_id":"levelo_inurba_marseille","lat":43.295169,"lon":5.390426,"is_reserved":false,"is_disabled":false,"rental_uris":{"android":"levelo://app?vid=f31d77c1-9b9f-47de-8958-548f03b79c6d","ios":"levelo://app?vid=f31d77c1-9b9f-47de-8958-548f03b79c6d"},"vehicle_type_id":"4","last_reported":1687122362,"current_range_meters":16800,"station_id":"ce4bh3p2rcd13ifvqdp0","pricing_plan_id":"free"},{"bike_id":"7ee86436-3364-4bd2-9136-8ed96e76b4ae","system_id":"levelo_inurba_marseille","lat":43.295169,"lon":5.390426,"is_reserved":false,"is_disabled":false,"rental_uris":{"android":"levelo://app?vid=7ee86436-3364-4bd2-9136-8ed96e76b4ae","ios":"levelo://app?vid=7ee86436-3364-4bd2-9136-8ed96e76b4ae"},"vehicle_type_id":"4","last_reported":1687122362,"current_range_meters":13200,"station_id":"ce4bh3p2rcd13ifvqdp0","pricing_plan_id":"free"},{"bike_id":"b9b44b37-7edf-4ab6-8685-17eb58a26dbc","system_id":"levelo_inurba_marseille","lat":43.295169,"lon":5.390426,"is_reserved":false,"is_disabled":false,"rental_uris":{"android":"levelo://app?vid=b9b44b37-7edf-4ab6-8685-17eb58a26dbc","ios":"levelo://app?vid=b9b44b37-7edf-4ab6-8685-17eb58a26dbc"},"vehicle_type_id":"4","last_reported":1687122362,"current_range_meters":31200,"station_id":"ce4bh3p2rcd13ifvqdp0","pricing_plan_id":"free"},{"bike_id":"ad2c077a-e863-4b5c-9593-f12007142eed","system_id":"levelo_inurba_marseille","lat":43.295169,"lon":5.390426,"is_reserved":false,"is_disabled":false,"rental_uris":{"android":"levelo://app?vid=ad2c077a-e863-4b5c-9593-f12007142eed","ios":"levelo://app?vid=ad2c077a-e863-4b5c-9593-f12007142eed"},"vehicle_type_id":"4","last_reported":1687122362,"current_range_meters":5200,"station_id":"ce4bh3p2rcd13ifvqdp0","pricing_plan_id":"free"},{"bike_id":"19df5865-adcd-4051-8b27-2a5909ec7bc5","system_id":"levelo_inurba_marseille","lat":43.289743,"lon":5.378304,"is_reserved":false,"is_disabled":false,"rental_uris":{"android":"levelo://app?vid=19df5865-adcd-4051-8b27-2a5909ec7bc5","ios":"levelo://app?vid=19df5865-adcd-4051-8b27-2a5909ec7bc5"},"vehicle_type_id":"4","last_reported":1687122362,"current_range_meters":24400,"station_id":"ce4bh9p2rcd13ifvqed0","pricing_plan_id":"free"},{"bike_id":"0157d1a5-9bc7-4036-9aab-2c7383c6d16f","system_id":"levelo_inurba_marseille","lat":43.29035,"lon":5.38128,"is_reserved":false,"is_disabled":false,"rental_uris":{"android":"levelo://app?vid=0157d1a5-9bc7-4036-9aab-2c7383c6d16f","ios":"levelo://app?vid=0157d1a5-9bc7-4036-9aab-2c7383c6d16f"},"vehicle_type_id":"4","last_reported":1687122362,"current_range_meters":14000,"station_id":"","pricing_plan_id":"free"},{"bike_id":"b50a3164-7094-4504-896d-676bb406a1c6","system_id":"levelo_inurba_marseille","lat":43.2901,"lon":5.381269,"is_reserved":false,"is_disabled":false,"rental_uris":{"android":"levelo://app?vid=b50a3164-7094-4504-896d-676bb406a1c6","ios":"levelo://app?vid=b50a3164-7094-4504-896d-676bb406a1c6"},"vehicle_type_id":"4","last_reported":1687122362,"current_range_meters":29200,"station_id":"ce4bh4p2rcd13ifvqe1g","pricing_plan_id":"free"},{"bike_id":"c0fb8083-e02d-4dec-b1b9-fa095e6c5b75","system_id":"levelo_inurba_marseille","lat":43.337396,"lon":5.374526,"is_reserved":false,"is_disabled":false,"rental_uris":{"android":"levelo://app?vid=c0fb8083-e02d-4dec-b1b9-fa095e6c5b75","ios":"levelo://app?vid=c0fb8083-e02d-4dec-b1b9-fa095e6c5b75"},"vehicle_type_id":"4","last_reported":1687122362,"current_range_meters":0,"station_id":"ce4bhp92rcd13ifvqhag","pricing_plan_id":"free"},{"bike_id":"a44a73da-5f38-4769-a6bf-9caac270be19","system_id":"levelo_inurba_marseille","lat":43.309371,"lon":5.401449,"is_reserved":false,"is_disabled":false,"rental_uris":{"android":"levelo://app?vid=a44a73da-5f38-4769-a6bf-9caac270be19","ios":"levelo://app?vid=a44a73da-5f38-4769-a6bf-9caac270be19"},"vehicle_type_id":"4","last_reported":1687122362,"current_range_meters":18400,"station_id":"ce4bgvp2rcd13ifvqct0","pricing_plan_id":"free"},{"bike_id":"41a8749b-6d93-4d1b-8e52-c5f60f65ae7c","system_id":"levelo_inurba_marseille","lat":43.33752,"lon":5.37443,"is_reserved":false,"is_disabled":false,"rental_uris":{"android":"levelo://app?vid=41a8749b-6d93-4d1b-8e52-c5f60f65ae7c","ios":"levelo://app?vid=41a8749b-6d93-4d1b-8e52-c5f60f65ae7c"},"vehicle_type_id":"4","last_reported":1687122362,"current_range_meters":25600,"station_id":"","pricing_plan_id":"free"},{"bike_id":"03dc7bc4-0651-47b3-9419-e601814ec75b","system_id":"levelo_inurba_marseille","lat":43.30643,"lon":5.40082,"is_reserved":false,"is_disabled":false,"rental_uris":{"android":"levelo://app?vid=03dc7bc4-0651-47b3-9419-e601814ec75b","ios":"levelo://app?vid=03dc7bc4-0651-47b3-9419-e601814ec75b"},"vehicle_type_id":"4","last_reported":1687122362,"current_range_meters":23600,"station_id":"","pricing_plan_id":"free"},{"bike_id":"cbf85b53-9c02-4930-b0db-6a58ba23aa47","system_id":"levelo_inurba_marseille","lat":43.30641,"lon":5.40091,"is_reserved":false,"is_disabled":false,"rental_uris":{"android":"levelo://app?vid=cbf85b53-9c02-4930-b0db-6a58ba23aa47","ios":"levelo://app?vid=cbf85b53-9c02-4930-b0db-6a58ba23aa47"},"vehicle_type_id":"4","last_reported":1687122362,"current_range_meters":4000,"station_id":"ce4bh112rcd13ifvqda0","pricing_plan_id":"free"},{"bike_id":"7397650f-39d3-438c-ac58-cf41e68c9386","system_id":"levelo_inurba_marseille","lat":43.30641,"lon":5.40091,"is_reserved":false,"is_disabled":false,"rental_uris":{"android":"levelo://app?vid=7397650f-39d3-438c-ac58-cf41e68c9386","ios":"levelo://app?vid=7397650f-39d3-438c-ac58-cf41e68c9386"},"vehicle_type_id":"4","last_reported":1687122362,"current_range_meters":1600,"station_id":"ce4bh112rcd13ifvqda0","pricing_plan_id":"free"},{"bike_id":"a47ed742-21c9-4f54-ad39-8c71bf2b52d7","system_id":"levelo_inurba_marseille","lat":43.301117,"lon":5.398795,"is_reserved":false,"is_disabled":false,"rental_uris":{"android":"levelo://app?vid=a47ed742-21c9-4f54-ad39-8c71bf2b52d7","ios":"levelo://app?vid=a47ed742-21c9-4f54-ad39-8c71bf2b52d7"},"vehicle_type_id":"4","last_reported":1687122362,"current_range_meters":9200,"station_id":"ce4bh0h2rcd13ifvqd40","pricing_plan_id":"free"},{"bike_id":"4f7bb7f8-fd52-4323-8c30-6e7598d4b7d6","system_id":"levelo_inurba_marseille","lat":43.301117,"lon":5.398795,"is_reserved":false,"is_disabled":false,"rental_uris":{"android":"levelo://app?vid=4f7bb7f8-fd52-4323-8c30-6e7598d4b7d6","ios":"levelo://app?vid=4f7bb7f8-fd52-4323-8c30-6e7598d4b7d6"},"vehicle_type_id":"4","last_reported":1687122362,"current_range_meters":2000,"station_id":"ce4bh0h2rcd13ifvqd40","pricing_plan_id":"free"},{"bike_id":"c1e0160c-bba3-425c-ac11-ac6c21c79267","system_id":"levelo_inurba_marseille","lat":43.298681,"lon":5.397225,"is_reserved":false,"is_disabled":false,"rental_uris":{"android":"levelo://app?vid=c1e0160c-bba3-425c-ac11-ac6c21c79267","ios":"levelo://app?vid=c1e0160c-bba3-425c-ac11-ac6c21c79267"},"vehicle_type_id":"4","last_reported":1687122362,"current_range_meters":13200,"station_id":"ce4bh0h2rcd13ifvqd50","pricing_plan_id":"free"},{"bike_id":"6419555d-a5fa-4e58-8ffc-653801ae2719","system_id":"levelo_inurba_marseille","lat":43.28703,"lon":5.37387,"is_reserved":false,"is_disabled":false,"rental_uris":{"android":"levelo://app?vid=6419555d-a5fa-4e58-8ffc-653801ae2719","ios":"levelo://app?vid=6419555d-a5fa-4e58-8ffc-653801ae2719"},"vehicle_type_id":"4","last_reported":1687122362,"current_range_meters":5200,"station_id":"ce4bh3p2rcd13ifvqdq0","pricing_plan_id":"free"},{"bike_id":"2e495cab-1af4-49bf-882c-5bdbd135a45e","system_id":"levelo_inurba_marseille","lat":43.298681,"lon":5.397225,"is_reserved":false,"is_disabled":false,"rental_uris":{"android":"levelo://app?vid=2e495cab-1af4-49bf-882c-5bdbd135a45e","ios":"levelo://app?vid=2e495cab-1af4-49bf-882c-5bdbd135a45e"},"vehicle_type_id":"4","last_reported":1687122362,"current_range_meters":2800,"station_id":"ce4bh0h2rcd13ifvqd50","pricing_plan_id":"free"},{"bike_id":"f72d02bf-ce73-4050-8944-74491eb34ce6","system_id":"levelo_inurba_marseille","lat":43.295196,"lon":5.39397,"is_reserved":false,"is_disabled":false,"rental_uris":{"android":"levelo://app?vid=f72d02bf-ce73-4050-8944-74491eb34ce6","ios":"levelo://app?vid=f72d02bf-ce73-4050-8944-74491eb34ce6"},"vehicle_type_id":"4","last_reported":1687122362,"current_range_meters":0,"station_id":"ce4bh292rcd13ifvqdf0","pricing_plan_id":"free"},{"bike_id":"be9730e2-60c7-4e08-8308-f471fb75fe9f","system_id":"levelo_inurba_marseille","lat":43.295196,"lon":5.39397,"is_reserved":false,"is_disabled":false,"rental_uris":{"android":"levelo://app?vid=be9730e2-60c7-4e08-8308-f471fb75fe9f","ios":"levelo://app?vid=be9730e2-60c7-4e08-8308-f471fb75fe9f"},"vehicle_type_id":"4","last_reported":1687122362,"current_range_meters":0,"station_id":"ce4bh292rcd13ifvqdf0","pricing_plan_id":"free"},{"bike_id":"4990af2e-1302-48a0-9b1b-f5ddaa6f1560","system_id":"levelo_inurba_marseille","lat":43.295196,"lon":5.39397,"is_reserved":false,"is_disabled":false,"rental_uris":{"android":"levelo://app?vid=4990af2e-1302-48a0-9b1b-f5ddaa6f1560","ios":"levelo://app?vid=4990af2e-1302-48a0-9b1b-f5ddaa6f1560"},"vehicle_type_id":"4","last_reported":1687122362,"current_range_meters":14000,"station_id":"ce4bh292rcd13ifvqdf0","pricing_plan_id":"free"},{"bike_id":"66b3d11c-c06d-4d15-93c6-593481dcfc40","system_id":"levelo_inurba_marseille","lat":43.295194,"lon":5.39397,"is_reserved":false,"is_disabled":false,"rental_uris":{"android":"levelo://app?vid=66b3d11c-c06d-4d15-93c6-593481dcfc40","ios":"levelo://app?vid=66b3d11c-c06d-4d15-93c6-593481dcfc40"},"vehicle_type_id":"4","last_reported":1687122362,"current_range_meters":10400,"station_id":"ce4bh292rcd13ifvqdf0","pricing_plan_id":"free"},{"bike_id":"e9a8150e-4ee2-4417-8301-99b38cca70a2","system_id":"levelo_inurba_marseille","lat":43.290345,"lon":5.38646,"is_reserved":false,"is_disabled":false,"rental_uris":{"android":"levelo://app?vid=e9a8150e-4ee2-4417-8301-99b38cca70a2","ios":"levelo://app?vid=e9a8150e-4ee2-4417-8301-99b38cca70a2"},"vehicle_type_id":"4","last_reported":1687122362,"current_range_meters":27600,"station_id":"ce4bh4p2rcd13ifvqe0g","pricing_plan_id":"free"},{"bike_id":"20b6237d-d1e0-4dbc-9b5c-6af9e19a7832","system_id":"levelo_inurba_marseille","lat":43.302759,"lon":5.400793,"is_reserved":false,"is_disabled":false,"rental_uris":{"android":"levelo://app?vid=20b6237d-d1e0-4dbc-9b5c-6af9e19a7832","ios":"levelo://app?vid=20b6237d-d1e0-4dbc-9b5c-6af9e19a7832"},"vehicle_type_id":"4","last_reported":1687122362,"current_range_meters":22000,"station_id":"ce4bgvh2rcd13ifvqcs0","pricing_plan_id":"free"},{"bike_id":"c68f5399-aaf0-40e1-b636-b2672cdc9ea5","system_id":"levelo_inurba_marseille","lat":43.286039,"lon":5.370681,"is_reserved":false,"is_disabled":false,"rental_uris":{"android":"levelo://app?vid=c68f5399-aaf0-40e1-b636-b2672cdc9ea5","ios":"levelo://app?vid=c68f5399-aaf0-40e1-b636-b2672cdc9ea5"},"vehicle_type_id":"4","last_reported":1687122362,"current_range_meters":19200,"station_id":"ce4bht12rcd13ifvqi60","pricing_plan_id":"free"},{"bike_id":"b7e731f4-887b-46ed-ae73-86e7bcffbcb7","system_id":"levelo_inurba_marseille","lat":43.31645,"lon":5.40432,"is_reserved":false,"is_disabled":false,"rental_uris":{"android":"levelo://app?vid=b7e731f4-887b-46ed-ae73-86e7bcffbcb7","ios":"levelo://app?vid=b7e731f4-887b-46ed-ae73-86e7bcffbcb7"},"vehicle_type_id":"4","last_reported":1687122362,"current_range_meters":0,"station_id":"ce4bh012rcd13ifvqd00","pricing_plan_id":"free"},{"bike_id":"6ba32a33-7a5d-40f3-875b-a7bf01d4ea1a","system_id":"levelo_inurba_marseille","lat":43.316523,"lon":5.404367,"is_reserved":false,"is_disabled":false,"rental_uris":{"android":"levelo://app?vid=6ba32a33-7a5d-40f3-875b-a7bf01d4ea1a","ios":"levelo://app?vid=6ba32a33-7a5d-40f3-875b-a7bf01d4ea1a"},"vehicle_type_id":"4","last_reported":1687122362,"current_range_meters":0,"station_id":"ce4bh012rcd13ifvqd00","pricing_plan_id":"free"},{"bike_id":"e0a63683-8694-4db9-82de-94a64980e610","system_id":"levelo_inurba_marseille","lat":43.316517,"lon":5.404375,"is_reserved":false,"is_disabled":false,"rental_uris":{"android":"levelo://app?vid=e0a63683-8694-4db9-82de-94a64980e610","ios":"levelo://app?vid=e0a63683-8694-4db9-82de-94a64980e610"},"vehicle_type_id":"4","last_reported":1687122362,"current_range_meters":24400,"station_id":"ce4bh012rcd13ifvqd00","pricing_plan_id":"free"},{"bike_id":"125b205e-fb1a-4fa4-b869-739ee7ab2002","system_id":"levelo_inurba_marseille","lat":43.316523,"lon":5.404367,"is_reserved":false,"is_disabled":false,"rental_uris":{"android":"levelo://app?vid=125b205e-fb1a-4fa4-b869-739ee7ab2002","ios":"levelo://app?vid=125b205e-fb1a-4fa4-b869-739ee7ab2002"},"vehicle_type_id":"4","last_reported":1687122362,"current_range_meters":18400,"station_id":"ce4bh012rcd13ifvqd00","pricing_plan_id":"free"},{"bike_id":"2b380462-1017-417a-94c4-86f5efe13d70","system_id":"levelo_inurba_marseille","lat":43.291994,"lon":5.392907,"is_reserved":false,"is_disabled":false,"rental_uris":{"android":"levelo://app?vid=2b380462-1017-417a-94c4-86f5efe13d70","ios":"levelo://app?vid=2b380462-1017-417a-94c4-86f5efe13d70"},"vehicle_type_id":"4","last_reported":1687122362,"current_range_meters":29200,"station_id":"ce4bh192rcd13ifvqdd0","pricing_plan_id":"free"},{"bike_id":"31e1f181-7b04-4e60-9c5f-09b84accd525","system_id":"levelo_inurba_marseille","lat":43.291994,"lon":5.392907,"is_reserved":false,"is_disabled":false,"rental_uris":{"android":"levelo://app?vid=31e1f181-7b04-4e60-9c5f-09b84accd525","ios":"levelo://app?vid=31e1f181-7b04-4e60-9c5f-09b84accd525"},"vehicle_type_id":"4","last_reported":1687122362,"current_range_meters":2800,"station_id":"ce4bh192rcd13ifvqdd0","pricing_plan_id":"free"},{"bike_id":"68a5f972-63ea-45b6-9d89-79381f0cf4d4","system_id":"levelo_inurba_marseille","lat":43.294314,"lon":5.397498,"is_reserved":false,"is_disabled":false,"rental_uris":{"android":"levelo://app?vid=68a5f972-63ea-45b6-9d89-79381f0cf4d4","ios":"levelo://app?vid=68a5f972-63ea-45b6-9d89-79381f0cf4d4"},"vehicle_type_id":"4","last_reported":1687122362,"current_range_meters":6800,"station_id":"ce4bh3h2rcd13ifvqdo0","pricing_plan_id":"free"},{"bike_id":"1d9fb367-d523-4684-8fdb-34eb7234c36e","system_id":"levelo_inurba_marseille","lat":43.284534,"lon":5.358662,"is_reserved":false,"is_disabled":false,"rental_uris":{"android":"levelo://app?vid=1d9fb367-d523-4684-8fdb-34eb7234c36e","ios":"levelo://app?vid=1d9fb367-d523-4684-8fdb-34eb7234c36e"},"vehicle_type_id":"4","last_reported":1687122362,"current_range_meters":17200,"station_id":"ce4bhah2rcd13ifvqei0","pricing_plan_id":"free"},{"bike_id":"cdea5217-20e7-4ffb-8774-c428561071f0","system_id":"levelo_inurba_marseille","lat":43.284534,"lon":5.358662,"is_reserved":false,"is_disabled":false,"rental_uris":{"android":"levelo://app?vid=cdea5217-20e7-4ffb-8774-c428561071f0","ios":"levelo://app?vid=cdea5217-20e7-4ffb-8774-c428561071f0"},"vehicle_type_id":"4","last_reported":1687122362,"current_range_meters":0,"station_id":"ce4bhah2rcd13ifvqei0","pricing_plan_id":"free"},{"bike_id":"cfb74004-faba-4031-b764-a6184595f83a","system_id":"levelo_inurba_marseille","lat":43.284534,"lon":5.358662,"is_reserved":false,"is_disabled":false,"rental_uris":{"android":"levelo://app?vid=cfb74004-faba-4031-b764-a6184595f83a","ios":"levelo://app?vid=cfb74004-faba-4031-b764-a6184595f83a"},"vehicle_type_id":"4","last_reported":1687122362,"current_range_meters":4400,"station_id":"ce4bhah2rcd13ifvqei0","pricing_plan_id":"free"},{"bike_id":"c80bf0ed-9521-470a-bda9-dce7ee6fa9b2","system_id":"levelo_inurba_marseille","lat":43.2861,"lon":5.351,"is_reserved":false,"is_disabled":false,"rental_uris":{"android":"levelo://app?vid=c80bf0ed-9521-470a-bda9-dce7ee6fa9b2","ios":"levelo://app?vid=c80bf0ed-9521-470a-bda9-dce7ee6fa9b2"},"vehicle_type_id":"4","last_reported":1687122362,"current_range_meters":17200,"station_id":"ce4bhch2rcd13ifvqeug","pricing_plan_id":"free"},{"bike_id":"6b5fb0a4-aa5e-4150-a74f-308d01fab376","system_id":"levelo_inurba_marseille","lat":43.28431,"lon":5.3752,"is_reserved":false,"is_disabled":false,"rental_uris":{"android":"levelo://app?vid=6b5fb0a4-aa5e-4150-a74f-308d01fab376","ios":"levelo://app?vid=6b5fb0a4-aa5e-4150-a74f-308d01fab376"},"vehicle_type_id":"4","last_reported":1687122362,"current_range_meters":800,"station_id":"","pricing_plan_id":"free"},{"bike_id":"899c7ee9-8c2f-47b9-b79b-ac02987e1d6a","system_id":"levelo_inurba_marseille","lat":43.28424,"lon":5.37511,"is_reserved":false,"is_disabled":false,"rental_uris":{"android":"levelo://app?vid=899c7ee9-8c2f-47b9-b79b-ac02987e1d6a","ios":"levelo://app?vid=899c7ee9-8c2f-47b9-b79b-ac02987e1d6a"},"vehicle_type_id":"4","last_reported":1687122362,"current_range_meters":5200,"station_id":"ce4bh412rcd13ifvqds0","pricing_plan_id":"free"},{"bike_id":"0c622936-96bc-4b82-b074-36b20e288107","system_id":"levelo_inurba_marseille","lat":43.283998,"lon":5.375062,"is_reserved":false,"is_disabled":false,"rental_uris":{"android":"levelo://app?vid=0c622936-96bc-4b82-b074-36b20e288107","ios":"levelo://app?vid=0c622936-96bc-4b82-b074-36b20e288107"},"vehicle_type_id":"4","last_reported":1687122362,"current_range_meters":15200,"station_id":"ce4bh412rcd13ifvqds0","pricing_plan_id":"free"},{"bike_id":"8f9842c2-e20a-4663-a715-2383f33838b8","system_id":"levelo_inurba_marseille","lat":43.295713,"lon":5.399639,"is_reserved":false,"is_disabled":false,"rental_uris":{"android":"levelo://app?vid=8f9842c2-e20a-4663-a715-2383f33838b8","ios":"levelo://app?vid=8f9842c2-e20a-4663-a715-2383f33838b8"},"vehicle_type_id":"4","last_reported":1687122362,"current_range_meters":12800,"station_id":"ce4bh312rcd13ifvqdj0","pricing_plan_id":"free"},{"bike_id":"8cd814d4-c183-474b-86e8-d36240533333","system_id":"levelo_inurba_marseille","lat":43.28676,"lon":5.38655,"is_reserved":false,"is_disabled":false,"rental_uris":{"android":"levelo://app?vid=8cd814d4-c183-474b-86e8-d36240533333","ios":"levelo://app?vid=8cd814d4-c183-474b-86e8-d36240533333"},"vehicle_type_id":"4","last_reported":1687122362,"current_range_meters":29600,"station_id":"","pricing_plan_id":"free"},{"bike_id":"43275ef6-770c-4f0e-926c-1c3aecd7abec","system_id":"levelo_inurba_marseille","lat":43.287909,"lon":5.390554,"is_reserved":false,"is_disabled":false,"rental_uris":{"android":"levelo://app?vid=43275ef6-770c-4f0e-926c-1c3aecd7abec","ios":"levelo://app?vid=43275ef6-770c-4f0e-926c-1c3aecd7abec"},"vehicle_type_id":"4","last_reported":1687122362,"current_range_meters":11200,"station_id":"","pricing_plan_id":"free"},{"bike_id":"536b47a7-25f9-49cb-9608-1b3c49b68cf4","system_id":"levelo_inurba_marseille","lat":43.33725,"lon":5.39188,"is_reserved":false,"is_disabled":false,"rental_uris":{"android":"levelo://app?vid=536b47a7-25f9-49cb-9608-1b3c49b68cf4","ios":"levelo://app?vid=536b47a7-25f9-49cb-9608-1b3c49b68cf4"},"vehicle_type_id":"4","last_reported":1687122362,"current_range_meters":8800,"station_id":"","pricing_plan_id":"free"},{"bike_id":"00b4d942-d645-4a17-a320-9c02b5ecca68","system_id":"levelo_inurba_marseille","lat":43.288501,"lon":5.393087,"is_reserved":false,"is_disabled":false,"rental_uris":{"android":"levelo://app?vid=00b4d942-d645-4a17-a320-9c02b5ecca68","ios":"levelo://app?vid=00b4d942-d645-4a17-a320-9c02b5ecca68"},"vehicle_type_id":"4","last_reported":1687122362,"current_range_meters":20800,"station_id":"ce4bh2p2rcd13ifvqdi0","pricing_plan_id":"free"},{"bike_id":"acf82042-63ab-4173-8ab1-808087a15689","system_id":"levelo_inurba_marseille","lat":43.283498,"lon":5.380948,"is_reserved":false,"is_disabled":false,"rental_uris":{"android":"levelo://app?vid=acf82042-63ab-4173-8ab1-808087a15689","ios":"levelo://app?vid=acf82042-63ab-4173-8ab1-808087a15689"},"vehicle_type_id":"4","last_reported":1687122362,"current_range_meters":12400,"station_id":"ce4bh412rcd13ifvqdr0","pricing_plan_id":"free"},{"bike_id":"16e5fedd-6e86-436a-a0a2-72c7cd60a6ea","system_id":"levelo_inurba_marseille","lat":43.32183,"lon":5.40784,"is_reserved":false,"is_disabled":false,"rental_uris":{"android":"levelo://app?vid=16e5fedd-6e86-436a-a0a2-72c7cd60a6ea","ios":"levelo://app?vid=16e5fedd-6e86-436a-a0a2-72c7cd60a6ea"},"vehicle_type_id":"4","last_reported":1687122362,"current_range_meters":31200,"station_id":"","pricing_plan_id":"free"},{"bike_id":"7dd4fc2f-f3e4-4e5f-a8ca-619e4d6b1e45","system_id":"levelo_inurba_marseille","lat":43.292724,"lon":5.401131,"is_reserved":false,"is_disabled":false,"rental_uris":{"android":"levelo://app?vid=7dd4fc2f-f3e4-4e5f-a8ca-619e4d6b1e45","ios":"levelo://app?vid=7dd4fc2f-f3e4-4e5f-a8ca-619e4d6b1e45"},"vehicle_type_id":"4","last_reported":1687122362,"current_range_meters":2000,"station_id":"ce4bh312rcd13ifvqdk0","pricing_plan_id":"free"},{"bike_id":"7d3abb08-4356-4f5b-b46a-58cca78b3e44","system_id":"levelo_inurba_marseille","lat":43.28272,"lon":5.35077,"is_reserved":false,"is_disabled":false,"rental_uris":{"android":"levelo://app?vid=7d3abb08-4356-4f5b-b46a-58cca78b3e44","ios":"levelo://app?vid=7d3abb08-4356-4f5b-b46a-58cca78b3e44"},"vehicle_type_id":"4","last_reported":1687122362,"current_range_meters":22800,"station_id":"","pricing_plan_id":"free"},{"bike_id":"6ddf60f0-d319-48c5-83e7-5b43c04f110f","system_id":"levelo_inurba_marseille","lat":43.283502,"lon":5.386471,"is_reserved":false,"is_disabled":false,"rental_uris":{"android":"levelo://app?vid=6ddf60f0-d319-48c5-83e7-5b43c04f110f","ios":"levelo://app?vid=6ddf60f0-d319-48c5-83e7-5b43c04f110f"},"vehicle_type_id":"4","last_reported":1687122362,"current_range_meters":28000,"station_id":"ce4bh492rcd13ifvqdvg","pricing_plan_id":"free"},{"bike_id":"4e5e7be5-f4b4-4cfa-ab8e-603c6ade1f6a","system_id":"levelo_inurba_marseille","lat":43.282744,"lon":5.350533,"is_reserved":false,"is_disabled":false,"rental_uris":{"android":"levelo://app?vid=4e5e7be5-f4b4-4cfa-ab8e-603c6ade1f6a","ios":"levelo://app?vid=4e5e7be5-f4b4-4cfa-ab8e-603c6ade1f6a"},"vehicle_type_id":"4","last_reported":1687122362,"current_range_meters":0,"station_id":"ce4bhbp2rcd13ifvqerg","pricing_plan_id":"free"},{"bike_id":"c05612fb-25e0-48b7-9b5b-c1bc0199dee9","system_id":"levelo_inurba_marseille","lat":43.283502,"lon":5.386471,"is_reserved":false,"is_disabled":false,"rental_uris":{"android":"levelo://app?vid=c05612fb-25e0-48b7-9b5b-c1bc0199dee9","ios":"levelo://app?vid=c05612fb-25e0-48b7-9b5b-c1bc0199dee9"},"vehicle_type_id":"4","last_reported":1687122362,"current_range_meters":5200,"station_id":"ce4bh492rcd13ifvqdvg","pricing_plan_id":"free"},{"bike_id":"da6e278f-38ce-4eef-b2d8-21eba0c6ebf8","system_id":"levelo_inurba_marseille","lat":43.283502,"lon":5.386471,"is_reserved":false,"is_disabled":false,"rental_uris":{"android":"levelo://app?vid=da6e278f-38ce-4eef-b2d8-21eba0c6ebf8","ios":"levelo://app?vid=da6e278f-38ce-4eef-b2d8-21eba0c6ebf8"},"vehicle_type_id":"4","last_reported":1687122362,"current_range_meters":400,"station_id":"ce4bh492rcd13ifvqdvg","pricing_plan_id":"free"},{"bike_id":"46eb29ba-ab8d-492f-8f04-16415aa2c203","system_id":"levelo_inurba_marseille","lat":43.28042,"lon":5.36945,"is_reserved":false,"is_disabled":false,"rental_uris":{"android":"levelo://app?vid=46eb29ba-ab8d-492f-8f04-16415aa2c203","ios":"levelo://app?vid=46eb29ba-ab8d-492f-8f04-16415aa2c203"},"vehicle_type_id":"4","last_reported":1687122362,"current_range_meters":8400,"station_id":"ce4bha12rcd13ifvqef0","pricing_plan_id":"free"},{"bike_id":"aff9eaaf-e2a5-4a9b-803a-8af8b6c4403b","system_id":"levelo_inurba_marseille","lat":43.280382,"lon":5.369291,"is_reserved":false,"is_disabled":false,"rental_uris":{"android":"levelo://app?vid=aff9eaaf-e2a5-4a9b-803a-8af8b6c4403b","ios":"levelo://app?vid=aff9eaaf-e2a5-4a9b-803a-8af8b6c4403b"},"vehicle_type_id":"4","last_reported":1687122362,"current_range_meters":18400,"station_id":"ce4bha12rcd13ifvqef0","pricing_plan_id":"free"},{"bike_id":"ec065b0e-a4b8-4ec6-9aa8-3b4006c1fe1d","system_id":"levelo_inurba_marseille","lat":43.280382,"lon":5.369291,"is_reserved":false,"is_disabled":false,"rental_uris":{"android":"levelo://app?vid=ec065b0e-a4b8-4ec6-9aa8-3b4006c1fe1d","ios":"levelo://app?vid=ec065b0e-a4b8-4ec6-9aa8-3b4006c1fe1d"},"vehicle_type_id":"4","last_reported":1687122362,"current_range_meters":9200,"station_id":"ce4bha12rcd13ifvqef0","pricing_plan_id":"free"},{"bike_id":"efc89082-1077-4f17-b65d-07f75a78762c","system_id":"levelo_inurba_marseille","lat":43.281044,"lon":5.378308,"is_reserved":false,"is_disabled":false,"rental_uris":{"android":"levelo://app?vid=efc89082-1077-4f17-b65d-07f75a78762c","ios":"levelo://app?vid=efc89082-1077-4f17-b65d-07f75a78762c"},"vehicle_type_id":"4","last_reported":1687122362,"current_range_meters":31200,"station_id":"ce4bha12rcd13ifvqee0","pricing_plan_id":"free"},{"bike_id":"240560df-b133-4773-b53c-549ba0f1bfde","system_id":"levelo_inurba_marseille","lat":43.281044,"lon":5.378308,"is_reserved":false,"is_disabled":false,"rental_uris":{"android":"levelo://app?vid=240560df-b133-4773-b53c-549ba0f1bfde","ios":"levelo://app?vid=240560df-b133-4773-b53c-549ba0f1bfde"},"vehicle_type_id":"4","last_reported":1687122362,"current_range_meters":31200,"station_id":"ce4bha12rcd13ifvqee0","pricing_plan_id":"free"},{"bike_id":"fc66a99b-e6df-4573-bc0f-9713a4754c16","system_id":"levelo_inurba_marseille","lat":43.281044,"lon":5.378308,"is_reserved":false,"is_disabled":false,"rental_uris":{"android":"levelo://app?vid=fc66a99b-e6df-4573-bc0f-9713a4754c16","ios":"levelo://app?vid=fc66a99b-e6df-4573-bc0f-9713a4754c16"},"vehicle_type_id":"4","last_reported":1687122362,"current_range_meters":31200,"station_id":"ce4bha12rcd13ifvqee0","pricing_plan_id":"free"},{"bike_id":"155d10a7-1330-4aa5-86d3-8629d9bbfe02","system_id":"levelo_inurba_marseille","lat":43.296263,"lon":5.40601,"is_reserved":false,"is_disabled":false,"rental_uris":{"android":"levelo://app?vid=155d10a7-1330-4aa5-86d3-8629d9bbfe02","ios":"levelo://app?vid=155d10a7-1330-4aa5-86d3-8629d9bbfe02"},"vehicle_type_id":"4","last_reported":1687122362,"current_range_meters":6800,"station_id":"ce4bh0h2rcd13ifvqd60","pricing_plan_id":"free"},{"bike_id":"a12d6d7f-87f5-4e69-a83e-efa3ae9b5da4","system_id":"levelo_inurba_marseille","lat":43.281044,"lon":5.378308,"is_reserved":false,"is_disabled":false,"rental_uris":{"android":"levelo://app?vid=a12d6d7f-87f5-4e69-a83e-efa3ae9b5da4","ios":"levelo://app?vid=a12d6d7f-87f5-4e69-a83e-efa3ae9b5da4"},"vehicle_type_id":"4","last_reported":1687122362,"current_range_meters":31200,"station_id":"ce4bha12rcd13ifvqee0","pricing_plan_id":"free"},{"bike_id":"ad457d59-bf5d-435f-83ee-342538b32940","system_id":"levelo_inurba_marseille","lat":43.28104,"lon":5.37835,"is_reserved":false,"is_disabled":false,"rental_uris":{"android":"levelo://app?vid=ad457d59-bf5d-435f-83ee-342538b32940","ios":"levelo://app?vid=ad457d59-bf5d-435f-83ee-342538b32940"},"vehicle_type_id":"4","last_reported":1687122362,"current_range_meters":31200,"station_id":"ce4bha12rcd13ifvqee0","pricing_plan_id":"free"},{"bike_id":"0efde5b2-515d-455b-8c08-9062c8639f64","system_id":"levelo_inurba_marseille","lat":43.281044,"lon":5.378308,"is_reserved":false,"is_disabled":false,"rental_uris":{"android":"levelo://app?vid=0efde5b2-515d-455b-8c08-9062c8639f64","ios":"levelo://app?vid=0efde5b2-515d-455b-8c08-9062c8639f64"},"vehicle_type_id":"4","last_reported":1687122362,"current_range_meters":19200,"station_id":"ce4bha12rcd13ifvqee0","pricing_plan_id":"free"},{"bike_id":"2f37cdab-a426-42c6-8301-ff43998d9e5b","system_id":"levelo_inurba_marseille","lat":43.281044,"lon":5.378308,"is_reserved":false,"is_disabled":false,"rental_uris":{"android":"levelo://app?vid=2f37cdab-a426-42c6-8301-ff43998d9e5b","ios":"levelo://app?vid=2f37cdab-a426-42c6-8301-ff43998d9e5b"},"vehicle_type_id":"4","last_reported":1687122362,"current_range_meters":15200,"station_id":"ce4bha12rcd13ifvqee0","pricing_plan_id":"free"},{"bike_id":"ca2bfd0d-fe20-4a3a-8052-73fe35cdbd57","system_id":"levelo_inurba_marseille","lat":43.281044,"lon":5.378308,"is_reserved":false,"is_disabled":false,"rental_uris":{"android":"levelo://app?vid=ca2bfd0d-fe20-4a3a-8052-73fe35cdbd57","ios":"levelo://app?vid=ca2bfd0d-fe20-4a3a-8052-73fe35cdbd57"},"vehicle_type_id":"4","last_reported":1687122362,"current_range_meters":31200,"station_id":"ce4bha12rcd13ifvqee0","pricing_plan_id":"free"},{"bike_id":"39764aba-65d6-4520-90e1-dc1539ee0adc","system_id":"levelo_inurba_marseille","lat":43.296263,"lon":5.40601,"is_reserved":false,"is_disabled":false,"rental_uris":{"android":"levelo://app?vid=39764aba-65d6-4520-90e1-dc1539ee0adc","ios":"levelo://app?vid=39764aba-65d6-4520-90e1-dc1539ee0adc"},"vehicle_type_id":"4","last_reported":1687122362,"current_range_meters":23600,"station_id":"ce4bh0h2rcd13ifvqd60","pricing_plan_id":"free"},{"bike_id":"c7e4199f-cf79-4df7-a5bf-1f4e146111bc","system_id":"levelo_inurba_marseille","lat":43.296263,"lon":5.40601,"is_reserved":false,"is_disabled":false,"rental_uris":{"android":"levelo://app?vid=c7e4199f-cf79-4df7-a5bf-1f4e146111bc","ios":"levelo://app?vid=c7e4199f-cf79-4df7-a5bf-1f4e146111bc"},"vehicle_type_id":"4","last_reported":1687122362,"current_range_meters":31200,"station_id":"ce4bh0h2rcd13ifvqd60","pricing_plan_id":"free"},{"bike_id":"7013984f-1130-44ba-b810-3f9e93ccf371","system_id":"levelo_inurba_marseille","lat":43.281044,"lon":5.378308,"is_reserved":false,"is_disabled":false,"rental_uris":{"android":"levelo://app?vid=7013984f-1130-44ba-b810-3f9e93ccf371","ios":"levelo://app?vid=7013984f-1130-44ba-b810-3f9e93ccf371"},"vehicle_type_id":"4","last_reported":1687122362,"current_range_meters":31200,"station_id":"ce4bha12rcd13ifvqee0","pricing_plan_id":"free"},{"bike_id":"d5b80876-96c8-4763-9afb-30e0c652831f","system_id":"levelo_inurba_marseille","lat":43.280943,"lon":5.378359,"is_reserved":false,"is_disabled":false,"rental_uris":{"android":"levelo://app?vid=d5b80876-96c8-4763-9afb-30e0c652831f","ios":"levelo://app?vid=d5b80876-96c8-4763-9afb-30e0c652831f"},"vehicle_type_id":"4","last_reported":1687122362,"current_range_meters":31200,"station_id":"ce4bha12rcd13ifvqee0","pricing_plan_id":"free"},{"bike_id":"cd0de0fb-fa7a-4798-a359-6f95a0666225","system_id":"levelo_inurba_marseille","lat":43.280918,"lon":5.3784,"is_reserved":false,"is_disabled":false,"rental_uris":{"android":"levelo://app?vid=cd0de0fb-fa7a-4798-a359-6f95a0666225","ios":"levelo://app?vid=cd0de0fb-fa7a-4798-a359-6f95a0666225"},"vehicle_type_id":"4","last_reported":1687122362,"current_range_meters":25600,"station_id":"ce4bha12rcd13ifvqee0","pricing_plan_id":"free"},{"bike_id":"67d93348-79be-43a6-83c5-1989ce8c59f4","system_id":"levelo_inurba_marseille","lat":43.28573,"lon":5.394992,"is_reserved":false,"is_disabled":false,"rental_uris":{"android":"levelo://app?vid=67d93348-79be-43a6-83c5-1989ce8c59f4","ios":"levelo://app?vid=67d93348-79be-43a6-83c5-1989ce8c59f4"},"vehicle_type_id":"4","last_reported":1687122362,"current_range_meters":10400,"station_id":"ce4bh292rcd13ifvqdg0","pricing_plan_id":"free"},{"bike_id":"d2b3ecfe-0ae3-4066-b081-e363446d152c","system_id":"levelo_inurba_marseille","lat":43.28573,"lon":5.394992,"is_reserved":false,"is_disabled":false,"rental_uris":{"android":"levelo://app?vid=d2b3ecfe-0ae3-4066-b081-e363446d152c","ios":"levelo://app?vid=d2b3ecfe-0ae3-4066-b081-e363446d152c"},"vehicle_type_id":"4","last_reported":1687122362,"current_range_meters":28800,"station_id":"ce4bh292rcd13ifvqdg0","pricing_plan_id":"free"},{"bike_id":"3321b24f-2c43-48aa-bdbf-f2b426c593a4","system_id":"levelo_inurba_marseille","lat":43.28576,"lon":5.39496,"is_reserved":false,"is_disabled":false,"rental_uris":{"android":"levelo://app?vid=3321b24f-2c43-48aa-bdbf-f2b426c593a4","ios":"levelo://app?vid=3321b24f-2c43-48aa-bdbf-f2b426c593a4"},"vehicle_type_id":"4","last_reported":1687122362,"current_range_meters":7600,"station_id":"ce4bh292rcd13ifvqdg0","pricing_plan_id":"free"},{"bike_id":"d5f50fab-c603-43a1-a119-2b2f0dc9e030","system_id":"levelo_inurba_marseille","lat":43.28573,"lon":5.394992,"is_reserved":false,"is_disabled":false,"rental_uris":{"android":"levelo://app?vid=d5f50fab-c603-43a1-a119-2b2f0dc9e030","ios":"levelo://app?vid=d5f50fab-c603-43a1-a119-2b2f0dc9e030"},"vehicle_type_id":"4","last_reported":1687122362,"current_range_meters":26800,"station_id":"ce4bh292rcd13ifvqdg0","pricing_plan_id":"free"},{"bike_id":"d852f400-3f6d-410c-b0a0-e8cefa552d0b","system_id":"levelo_inurba_marseille","lat":43.28564,"lon":5.39487,"is_reserved":false,"is_disabled":false,"rental_uris":{"android":"levelo://app?vid=d852f400-3f6d-410c-b0a0-e8cefa552d0b","ios":"levelo://app?vid=d852f400-3f6d-410c-b0a0-e8cefa552d0b"},"vehicle_type_id":"4","last_reported":1687122362,"current_range_meters":7600,"station_id":"","pricing_plan_id":"free"},{"bike_id":"e7607c34-2658-48c5-8894-429c92362894","system_id":"levelo_inurba_marseille","lat":43.285742,"lon":5.395004,"is_reserved":false,"is_disabled":false,"rental_uris":{"android":"levelo://app?vid=e7607c34-2658-48c5-8894-429c92362894","ios":"levelo://app?vid=e7607c34-2658-48c5-8894-429c92362894"},"vehicle_type_id":"4","last_reported":1687122362,"current_range_meters":12800,"station_id":"ce4bh292rcd13ifvqdg0","pricing_plan_id":"free"},{"bike_id":"c46f2cfc-3b2b-45a0-b8d8-1ca12a55d16f","system_id":"levelo_inurba_marseille","lat":43.287154,"lon":5.399979,"is_reserved":false,"is_disabled":false,"rental_uris":{"android":"levelo://app?vid=c46f2cfc-3b2b-45a0-b8d8-1ca12a55d16f","ios":"levelo://app?vid=c46f2cfc-3b2b-45a0-b8d8-1ca12a55d16f"},"vehicle_type_id":"4","last_reported":1687122362,"current_range_meters":13600,"station_id":"ce4bho92rcd13ifvqh3g","pricing_plan_id":"free"},{"bike_id":"214fb53e-7031-4d46-b929-7d529fc2f64e","system_id":"levelo_inurba_marseille","lat":43.287154,"lon":5.399979,"is_reserved":false,"is_disabled":false,"rental_uris":{"android":"levelo://app?vid=214fb53e-7031-4d46-b929-7d529fc2f64e","ios":"levelo://app?vid=214fb53e-7031-4d46-b929-7d529fc2f64e"},"vehicle_type_id":"4","last_reported":1687122362,"current_range_meters":22000,"station_id":"ce4bho92rcd13ifvqh3g","pricing_plan_id":"free"},{"bike_id":"d63647e4-0f3d-4512-9113-fab0d5c53abf","system_id":"levelo_inurba_marseille","lat":43.287154,"lon":5.399979,"is_reserved":false,"is_disabled":false,"rental_uris":{"android":"levelo://app?vid=d63647e4-0f3d-4512-9113-fab0d5c53abf","ios":"levelo://app?vid=d63647e4-0f3d-4512-9113-fab0d5c53abf"},"vehicle_type_id":"4","last_reported":1687122362,"current_range_meters":19600,"station_id":"ce4bho92rcd13ifvqh3g","pricing_plan_id":"free"},{"bike_id":"4129891f-036f-47e8-9c1f-e27a65eeaa01","system_id":"levelo_inurba_marseille","lat":43.287154,"lon":5.399979,"is_reserved":false,"is_disabled":false,"rental_uris":{"android":"levelo://app?vid=4129891f-036f-47e8-9c1f-e27a65eeaa01","ios":"levelo://app?vid=4129891f-036f-47e8-9c1f-e27a65eeaa01"},"vehicle_type_id":"4","last_reported":1687122362,"current_range_meters":12000,"station_id":"ce4bho92rcd13ifvqh3g","pricing_plan_id":"free"},{"bike_id":"92dc1495-34b5-4657-a5d4-73d7f3b7312c","system_id":"levelo_inurba_marseille","lat":43.320045,"lon":5.415046,"is_reserved":false,"is_disabled":false,"rental_uris":{"android":"levelo://app?vid=92dc1495-34b5-4657-a5d4-73d7f3b7312c","ios":"levelo://app?vid=92dc1495-34b5-4657-a5d4-73d7f3b7312c"},"vehicle_type_id":"4","last_reported":1687122362,"current_range_meters":30000,"station_id":"ce4bhq92rcd13ifvqhkg","pricing_plan_id":"free"},{"bike_id":"b20e5c5b-6a97-4d3d-af24-21cbe781fc37","system_id":"levelo_inurba_marseille","lat":43.292571,"lon":5.409107,"is_reserved":false,"is_disabled":false,"rental_uris":{"android":"levelo://app?vid=b20e5c5b-6a97-4d3d-af24-21cbe781fc37","ios":"levelo://app?vid=b20e5c5b-6a97-4d3d-af24-21cbe781fc37"},"vehicle_type_id":"4","last_reported":1687122362,"current_range_meters":19600,"station_id":"ce4bh192rcd13ifvqdc0","pricing_plan_id":"free"},{"bike_id":"7f4b9f15-758f-41ee-810a-63fa853eaeff","system_id":"levelo_inurba_marseille","lat":43.292571,"lon":5.409107,"is_reserved":false,"is_disabled":false,"rental_uris":{"android":"levelo://app?vid=7f4b9f15-758f-41ee-810a-63fa853eaeff","ios":"levelo://app?vid=7f4b9f15-758f-41ee-810a-63fa853eaeff"},"vehicle_type_id":"4","last_reported":1687122362,"current_range_meters":12400,"station_id":"ce4bh192rcd13ifvqdc0","pricing_plan_id":"free"},{"bike_id":"6d26c081-5660-490c-a887-8d1558936460","system_id":"levelo_inurba_marseille","lat":43.292571,"lon":5.409107,"is_reserved":false,"is_disabled":false,"rental_uris":{"android":"levelo://app?vid=6d26c081-5660-490c-a887-8d1558936460","ios":"levelo://app?vid=6d26c081-5660-490c-a887-8d1558936460"},"vehicle_type_id":"4","last_reported":1687122362,"current_range_meters":9600,"station_id":"ce4bh192rcd13ifvqdc0","pricing_plan_id":"free"},{"bike_id":"04ef5f9c-5bf2-4cd6-b6b5-bca1ed57454c","system_id":"levelo_inurba_marseille","lat":43.29257,"lon":5.40908,"is_reserved":false,"is_disabled":false,"rental_uris":{"android":"levelo://app?vid=04ef5f9c-5bf2-4cd6-b6b5-bca1ed57454c","ios":"levelo://app?vid=04ef5f9c-5bf2-4cd6-b6b5-bca1ed57454c"},"vehicle_type_id":"4","last_reported":1687122362,"current_range_meters":800,"station_id":"ce4bh192rcd13ifvqdc0","pricing_plan_id":"free"},{"bike_id":"24d3400b-0cbf-4513-8e62-481bc2c24d3d","system_id":"levelo_inurba_marseille","lat":43.29255,"lon":5.40907,"is_reserved":false,"is_disabled":false,"rental_uris":{"android":"levelo://app?vid=24d3400b-0cbf-4513-8e62-481bc2c24d3d","ios":"levelo://app?vid=24d3400b-0cbf-4513-8e62-481bc2c24d3d"},"vehicle_type_id":"4","last_reported":1687122362,"current_range_meters":1200,"station_id":"ce4bh192rcd13ifvqdc0","pricing_plan_id":"free"},{"bike_id":"ee58c7e6-f031-4e15-a6ee-b6ccdccfbce0","system_id":"levelo_inurba_marseille","lat":43.29255,"lon":5.40908,"is_reserved":false,"is_disabled":false,"rental_uris":{"android":"levelo://app?vid=ee58c7e6-f031-4e15-a6ee-b6ccdccfbce0","ios":"levelo://app?vid=ee58c7e6-f031-4e15-a6ee-b6ccdccfbce0"},"vehicle_type_id":"4","last_reported":1687122362,"current_range_meters":4800,"station_id":"ce4bh192rcd13ifvqdc0","pricing_plan_id":"free"},{"bike_id":"c5700ada-6505-4afb-9e19-1b128c240c5c","system_id":"levelo_inurba_marseille","lat":43.292571,"lon":5.409107,"is_reserved":false,"is_disabled":false,"rental_uris":{"android":"levelo://app?vid=c5700ada-6505-4afb-9e19-1b128c240c5c","ios":"levelo://app?vid=c5700ada-6505-4afb-9e19-1b128c240c5c"},"vehicle_type_id":"4","last_reported":1687122362,"current_range_meters":6000,"station_id":"ce4bh192rcd13ifvqdc0","pricing_plan_id":"free"},{"bike_id":"ba3f2c90-22e9-4162-8a5a-4158ae860368","system_id":"levelo_inurba_marseille","lat":43.292571,"lon":5.409107,"is_reserved":false,"is_disabled":false,"rental_uris":{"android":"levelo://app?vid=ba3f2c90-22e9-4162-8a5a-4158ae860368","ios":"levelo://app?vid=ba3f2c90-22e9-4162-8a5a-4158ae860368"},"vehicle_type_id":"4","last_reported":1687122362,"current_range_meters":0,"station_id":"ce4bh192rcd13ifvqdc0","pricing_plan_id":"free"},{"bike_id":"b958466e-0be6-4bcf-a497-f0d758006821","system_id":"levelo_inurba_marseille","lat":43.303837,"lon":5.418724,"is_reserved":false,"is_disabled":false,"rental_uris":{"android":"levelo://app?vid=b958466e-0be6-4bcf-a497-f0d758006821","ios":"levelo://app?vid=b958466e-0be6-4bcf-a497-f0d758006821"},"vehicle_type_id":"4","last_reported":1687122362,"current_range_meters":0,"station_id":"ce4bhop2rcd13ifvqh7g","pricing_plan_id":"free"},{"bike_id":"f3d3d494-dd84-46b6-b736-41786a351a74","system_id":"levelo_inurba_marseille","lat":43.275625,"lon":5.384392,"is_reserved":false,"is_disabled":false,"rental_uris":{"android":"levelo://app?vid=f3d3d494-dd84-46b6-b736-41786a351a74","ios":"levelo://app?vid=f3d3d494-dd84-46b6-b736-41786a351a74"},"vehicle_type_id":"4","last_reported":1687122362,"current_range_meters":26800,"station_id":"ce4bhh92rcd13ifvqfi0","pricing_plan_id":"free"},{"bike_id":"6275aaca-a354-407f-be44-df40f2969d44","system_id":"levelo_inurba_marseille","lat":43.273613,"lon":5.362705,"is_reserved":false,"is_disabled":false,"rental_uris":{"android":"levelo://app?vid=6275aaca-a354-407f-be44-df40f2969d44","ios":"levelo://app?vid=6275aaca-a354-407f-be44-df40f2969d44"},"vehicle_type_id":"4","last_reported":1687122362,"current_range_meters":31200,"station_id":"ce4bhbh2rcd13ifvqeo0","pricing_plan_id":"free"},{"bike_id":"d38235f9-6659-42dc-98c2-f4d719a21ec0","system_id":"levelo_inurba_marseille","lat":43.27372,"lon":5.36259,"is_reserved":false,"is_disabled":false,"rental_uris":{"android":"levelo://app?vid=d38235f9-6659-42dc-98c2-f4d719a21ec0","ios":"levelo://app?vid=d38235f9-6659-42dc-98c2-f4d719a21ec0"},"vehicle_type_id":"4","last_reported":1687122362,"current_range_meters":1200,"station_id":"ce4bhbh2rcd13ifvqeo0","pricing_plan_id":"free"},{"bike_id":"d9287918-0cf3-4b07-b36d-edd5a13dd73d","system_id":"levelo_inurba_marseille","lat":43.273609,"lon":5.362708,"is_reserved":false,"is_disabled":false,"rental_uris":{"android":"levelo://app?vid=d9287918-0cf3-4b07-b36d-edd5a13dd73d","ios":"levelo://app?vid=d9287918-0cf3-4b07-b36d-edd5a13dd73d"},"vehicle_type_id":"4","last_reported":1687122362,"current_range_meters":0,"station_id":"ce4bhbh2rcd13ifvqeo0","pricing_plan_id":"free"},{"bike_id":"a94f539c-7341-447d-b28a-2048ba9a0a55","system_id":"levelo_inurba_marseille","lat":43.336134,"lon":5.410341,"is_reserved":false,"is_disabled":false,"rental_uris":{"android":"levelo://app?vid=a94f539c-7341-447d-b28a-2048ba9a0a55","ios":"levelo://app?vid=a94f539c-7341-447d-b28a-2048ba9a0a55"},"vehicle_type_id":"4","last_reported":1687122362,"current_range_meters":7200,"station_id":"ce4bhqh2rcd13ifvqhmg","pricing_plan_id":"free"},{"bike_id":"07fac463-d5b2-4a18-99f6-ea12eecc8c99","system_id":"levelo_inurba_marseille","lat":43.275625,"lon":5.384392,"is_reserved":false,"is_disabled":false,"rental_uris":{"android":"levelo://app?vid=07fac463-d5b2-4a18-99f6-ea12eecc8c99","ios":"levelo://app?vid=07fac463-d5b2-4a18-99f6-ea12eecc8c99"},"vehicle_type_id":"4","last_reported":1687122362,"current_range_meters":5600,"station_id":"ce4bhh92rcd13ifvqfi0","pricing_plan_id":"free"},{"bike_id":"251255f6-640d-4cc2-999e-d8d6e3132830","system_id":"levelo_inurba_marseille","lat":43.275625,"lon":5.384392,"is_reserved":false,"is_disabled":false,"rental_uris":{"android":"levelo://app?vid=251255f6-640d-4cc2-999e-d8d6e3132830","ios":"levelo://app?vid=251255f6-640d-4cc2-999e-d8d6e3132830"},"vehicle_type_id":"4","last_reported":1687122362,"current_range_meters":12800,"station_id":"ce4bhh92rcd13ifvqfi0","pricing_plan_id":"free"},{"bike_id":"813cea3e-ab33-42bf-acb5-e4e9a30c73ae","system_id":"levelo_inurba_marseille","lat":43.31727,"lon":5.42394,"is_reserved":false,"is_disabled":false,"rental_uris":{"android":"levelo://app?vid=813cea3e-ab33-42bf-acb5-e4e9a30c73ae","ios":"levelo://app?vid=813cea3e-ab33-42bf-acb5-e4e9a30c73ae"},"vehicle_type_id":"4","last_reported":1687122362,"current_range_meters":30000,"station_id":"ce4bhp92rcd13ifvqhbg","pricing_plan_id":"free"},{"bike_id":"20e8f190-4e19-4145-b845-ce40c9c38835","system_id":"levelo_inurba_marseille","lat":43.310785,"lon":5.424305,"is_reserved":false,"is_disabled":false,"rental_uris":{"android":"levelo://app?vid=20e8f190-4e19-4145-b845-ce40c9c38835","ios":"levelo://app?vid=20e8f190-4e19-4145-b845-ce40c9c38835"},"vehicle_type_id":"4","last_reported":1687122362,"current_range_meters":17600,"station_id":"ce4bhp92rcd13ifvqhag","pricing_plan_id":"free"},{"bike_id":"c9118ee2-e487-41b2-adb4-b8e2b83b57d2","system_id":"levelo_inurba_marseille","lat":43.310785,"lon":5.424305,"is_reserved":false,"is_disabled":false,"rental_uris":{"android":"levelo://app?vid=c9118ee2-e487-41b2-adb4-b8e2b83b57d2","ios":"levelo://app?vid=c9118ee2-e487-41b2-adb4-b8e2b83b57d2"},"vehicle_type_id":"4","last_reported":1687122362,"current_range_meters":31600,"station_id":"ce4bhp92rcd13ifvqhag","pricing_plan_id":"free"},{"bike_id":"dd1774f0-ce1e-44f3-94ef-21ddb21305d6","system_id":"levelo_inurba_marseille","lat":43.284534,"lon":5.358662,"is_reserved":false,"is_disabled":false,"rental_uris":{"android":"levelo://app?vid=dd1774f0-ce1e-44f3-94ef-21ddb21305d6","ios":"levelo://app?vid=dd1774f0-ce1e-44f3-94ef-21ddb21305d6"},"vehicle_type_id":"4","last_reported":1687122362,"current_range_meters":6400,"station_id":"ce4bhah2rcd13ifvqei0","pricing_plan_id":"free"},{"bike_id":"f82c4e0b-ce86-4de4-962b-f266d6ba506e","system_id":"levelo_inurba_marseille","lat":43.273129,"lon":5.390725,"is_reserved":false,"is_disabled":false,"rental_uris":{"android":"levelo://app?vid=f82c4e0b-ce86-4de4-962b-f266d6ba506e","ios":"levelo://app?vid=f82c4e0b-ce86-4de4-962b-f266d6ba506e"},"vehicle_type_id":"4","last_reported":1687122362,"current_range_meters":28000,"station_id":"ce4bhgp2rcd13ifvqfe0","pricing_plan_id":"free"},{"bike_id":"a670ef55-fa28-46ef-be87-f2b252cb9a4f","system_id":"levelo_inurba_marseille","lat":43.27422,"lon":5.39408,"is_reserved":false,"is_disabled":false,"rental_uris":{"android":"levelo://app?vid=a670ef55-fa28-46ef-be87-f2b252cb9a4f","ios":"levelo://app?vid=a670ef55-fa28-46ef-be87-f2b252cb9a4f"},"vehicle_type_id":"4","last_reported":1687122362,"current_range_meters":2400,"station_id":"","pricing_plan_id":"free"},{"bike_id":"0d1dab6f-24cd-4058-ac25-f587ea616740","system_id":"levelo_inurba_marseille","lat":43.295511,"lon":5.422926,"is_reserved":false,"is_disabled":false,"rental_uris":{"android":"levelo://app?vid=0d1dab6f-24cd-4058-ac25-f587ea616740","ios":"levelo://app?vid=0d1dab6f-24cd-4058-ac25-f587ea616740"},"vehicle_type_id":"4","last_reported":1687122362,"current_range_meters":26800,"station_id":"ce4bhph2rcd13ifvqhdg","pricing_plan_id":"free"},{"bike_id":"debbeb75-aff7-42bb-ac04-e4172ddd1d81","system_id":"levelo_inurba_marseille","lat":43.272242,"lon":5.391692,"is_reserved":false,"is_disabled":false,"rental_uris":{"android":"levelo://app?vid=debbeb75-aff7-42bb-ac04-e4172ddd1d81","ios":"levelo://app?vid=debbeb75-aff7-42bb-ac04-e4172ddd1d81"},"vehicle_type_id":"4","last_reported":1687122362,"current_range_meters":31200,"station_id":"ce4bhhp2rcd13ifvqfm0","pricing_plan_id":"free"},{"bike_id":"5471a57c-f7eb-4d39-a24e-ca40dd877a72","system_id":"levelo_inurba_marseille","lat":43.278128,"lon":5.407195,"is_reserved":false,"is_disabled":false,"rental_uris":{"android":"levelo://app?vid=5471a57c-f7eb-4d39-a24e-ca40dd877a72","ios":"levelo://app?vid=5471a57c-f7eb-4d39-a24e-ca40dd877a72"},"vehicle_type_id":"4","last_reported":1687122362,"current_range_meters":6400,"station_id":"ce4bhnh2rcd13ifvqgtg","pricing_plan_id":"free"},{"bike_id":"c0eb1fd9-f42f-4c8b-ba57-ddf8a7ab4550","system_id":"levelo_inurba_marseille","lat":43.26681,"lon":5.382694,"is_reserved":false,"is_disabled":false,"rental_uris":{"android":"levelo://app?vid=c0eb1fd9-f42f-4c8b-ba57-ddf8a7ab4550","ios":"levelo://app?vid=c0eb1fd9-f42f-4c8b-ba57-ddf8a7ab4550"},"vehicle_type_id":"4","last_reported":1687122362,"current_range_meters":23600,"station_id":"ce4bhg92rcd13ifvqf90","pricing_plan_id":"free"},{"bike_id":"e76d87c2-2b9e-49fa-9da1-67a2f138a5b4","system_id":"levelo_inurba_marseille","lat":43.26685,"lon":5.38268,"is_reserved":false,"is_disabled":false,"rental_uris":{"android":"levelo://app?vid=e76d87c2-2b9e-49fa-9da1-67a2f138a5b4","ios":"levelo://app?vid=e76d87c2-2b9e-49fa-9da1-67a2f138a5b4"},"vehicle_type_id":"4","last_reported":1687122362,"current_range_meters":29600,"station_id":"ce4bhg92rcd13ifvqf90","pricing_plan_id":"free"},{"bike_id":"2cc79cf9-bec1-4444-9b4d-dd5c0ec59b62","system_id":"levelo_inurba_marseille","lat":43.26681,"lon":5.382694,"is_reserved":false,"is_disabled":false,"rental_uris":{"android":"levelo://app?vid=2cc79cf9-bec1-4444-9b4d-dd5c0ec59b62","ios":"levelo://app?vid=2cc79cf9-bec1-4444-9b4d-dd5c0ec59b62"},"vehicle_type_id":"4","last_reported":1687122362,"current_range_meters":13200,"station_id":"ce4bhg92rcd13ifvqf90","pricing_plan_id":"free"},{"bike_id":"777f4b71-b492-4bc1-a6e9-1d4f74aa6180","system_id":"levelo_inurba_marseille","lat":43.26681,"lon":5.38268,"is_reserved":false,"is_disabled":false,"rental_uris":{"android":"levelo://app?vid=777f4b71-b492-4bc1-a6e9-1d4f74aa6180","ios":"levelo://app?vid=777f4b71-b492-4bc1-a6e9-1d4f74aa6180"},"vehicle_type_id":"4","last_reported":1687122362,"current_range_meters":29200,"station_id":"ce4bhg92rcd13ifvqf90","pricing_plan_id":"free"},{"bike_id":"3fb25529-8b2f-4757-a92d-b51c6ebb175d","system_id":"levelo_inurba_marseille","lat":43.26432,"lon":5.37376,"is_reserved":false,"is_disabled":false,"rental_uris":{"android":"levelo://app?vid=3fb25529-8b2f-4757-a92d-b51c6ebb175d","ios":"levelo://app?vid=3fb25529-8b2f-4757-a92d-b51c6ebb175d"},"vehicle_type_id":"4","last_reported":1687122362,"current_range_meters":30800,"station_id":"","pricing_plan_id":"free"},{"bike_id":"090565ab-ff31-4e8c-b18e-f59a41382894","system_id":"levelo_inurba_marseille","lat":43.27996,"lon":5.416624,"is_reserved":false,"is_disabled":false,"rental_uris":{"android":"levelo://app?vid=090565ab-ff31-4e8c-b18e-f59a41382894","ios":"levelo://app?vid=090565ab-ff31-4e8c-b18e-f59a41382894"},"vehicle_type_id":"4","last_reported":1687122362,"current_range_meters":7600,"station_id":"ce4bho12rcd13ifvqh1g","pricing_plan_id":"free"},{"bike_id":"86a14e2e-58d2-4985-b111-862d81a669e0","system_id":"levelo_inurba_marseille","lat":43.27996,"lon":5.416624,"is_reserved":false,"is_disabled":false,"rental_uris":{"android":"levelo://app?vid=86a14e2e-58d2-4985-b111-862d81a669e0","ios":"levelo://app?vid=86a14e2e-58d2-4985-b111-862d81a669e0"},"vehicle_type_id":"4","last_reported":1687122362,"current_range_meters":23600,"station_id":"ce4bho12rcd13ifvqh1g","pricing_plan_id":"free"},{"bike_id":"8c0bad50-8973-41a0-8b02-e36109a1b27a","system_id":"levelo_inurba_marseille","lat":43.27996,"lon":5.416624,"is_reserved":false,"is_disabled":false,"rental_uris":{"android":"levelo://app?vid=8c0bad50-8973-41a0-8b02-e36109a1b27a","ios":"levelo://app?vid=8c0bad50-8973-41a0-8b02-e36109a1b27a"},"vehicle_type_id":"4","last_reported":1687122362,"current_range_meters":31200,"station_id":"ce4bho12rcd13ifvqh1g","pricing_plan_id":"free"},{"bike_id":"28ede2e2-6921-41f8-82cf-8146c27e2335","system_id":"levelo_inurba_marseille","lat":43.27996,"lon":5.416624,"is_reserved":false,"is_disabled":false,"rental_uris":{"android":"levelo://app?vid=28ede2e2-6921-41f8-82cf-8146c27e2335","ios":"levelo://app?vid=28ede2e2-6921-41f8-82cf-8146c27e2335"},"vehicle_type_id":"4","last_reported":1687122362,"current_range_meters":4000,"station_id":"ce4bho12rcd13ifvqh1g","pricing_plan_id":"free"},{"bike_id":"cfba2fbe-9ed5-423f-b411-8d6c38451715","system_id":"levelo_inurba_marseille","lat":43.27996,"lon":5.41666,"is_reserved":false,"is_disabled":false,"rental_uris":{"android":"levelo://app?vid=cfba2fbe-9ed5-423f-b411-8d6c38451715","ios":"levelo://app?vid=cfba2fbe-9ed5-423f-b411-8d6c38451715"},"vehicle_type_id":"4","last_reported":1687122362,"current_range_meters":20400,"station_id":"ce4bho12rcd13ifvqh1g","pricing_plan_id":"free"},{"bike_id":"3987290e-fd4b-4f2b-81c0-57fca98f9cde","system_id":"levelo_inurba_marseille","lat":43.267966,"lon":5.393976,"is_reserved":false,"is_disabled":false,"rental_uris":{"android":"levelo://app?vid=3987290e-fd4b-4f2b-81c0-57fca98f9cde","ios":"levelo://app?vid=3987290e-fd4b-4f2b-81c0-57fca98f9cde"},"vehicle_type_id":"4","last_reported":1687122362,"current_range_meters":30000,"station_id":"ce4bhh12rcd13ifvqfg0","pricing_plan_id":"free"},{"bike_id":"e09ee2df-5eb5-400b-b4e8-a2efdba018fe","system_id":"levelo_inurba_marseille","lat":43.308,"lon":5.43518,"is_reserved":false,"is_disabled":false,"rental_uris":{"android":"levelo://app?vid=e09ee2df-5eb5-400b-b4e8-a2efdba018fe","ios":"levelo://app?vid=e09ee2df-5eb5-400b-b4e8-a2efdba018fe"},"vehicle_type_id":"4","last_reported":1687122362,"current_range_meters":2400,"station_id":"ce4bhph2rcd13ifvqheg","pricing_plan_id":"free"},{"bike_id":"935a4aec-1547-4073-a330-9bf4a8e0fb00","system_id":"levelo_inurba_marseille","lat":43.30798,"lon":5.43525,"is_reserved":false,"is_disabled":false,"rental_uris":{"android":"levelo://app?vid=935a4aec-1547-4073-a330-9bf4a8e0fb00","ios":"levelo://app?vid=935a4aec-1547-4073-a330-9bf4a8e0fb00"},"vehicle_type_id":"4","last_reported":1687122362,"current_range_meters":22000,"station_id":"ce4bhph2rcd13ifvqheg","pricing_plan_id":"free"},{"bike_id":"30f3c3bb-1777-451f-9eb7-7ebc60ee38f1","system_id":"levelo_inurba_marseille","lat":43.265571,"lon":5.390032,"is_reserved":false,"is_disabled":false,"rental_uris":{"android":"levelo://app?vid=30f3c3bb-1777-451f-9eb7-7ebc60ee38f1","ios":"levelo://app?vid=30f3c3bb-1777-451f-9eb7-7ebc60ee38f1"},"vehicle_type_id":"4","last_reported":1687122362,"current_range_meters":26800,"station_id":"ce4bhe12rcd13ifvqf30","pricing_plan_id":"free"},{"bike_id":"cda28a23-f977-444e-be81-0c35c0e3524a","system_id":"levelo_inurba_marseille","lat":43.30828,"lon":5.43556,"is_reserved":false,"is_disabled":false,"rental_uris":{"android":"levelo://app?vid=cda28a23-f977-444e-be81-0c35c0e3524a","ios":"levelo://app?vid=cda28a23-f977-444e-be81-0c35c0e3524a"},"vehicle_type_id":"4","last_reported":1687122362,"current_range_meters":0,"station_id":"","pricing_plan_id":"free"},{"bike_id":"b1683eb0-a935-4a4e-a4c3-2815b54b46f6","system_id":"levelo_inurba_marseille","lat":43.33358,"lon":5.42995,"is_reserved":false,"is_disabled":false,"rental_uris":{"android":"levelo://app?vid=b1683eb0-a935-4a4e-a4c3-2815b54b46f6","ios":"levelo://app?vid=b1683eb0-a935-4a4e-a4c3-2815b54b46f6"},"vehicle_type_id":"4","last_reported":1687122362,"current_range_meters":16800,"station_id":"","pricing_plan_id":"free"},{"bike_id":"a22e5cdd-17c8-4f21-853c-03ca220d8771","system_id":"levelo_inurba_marseille","lat":43.26196,"lon":5.37438,"is_reserved":false,"is_disabled":false,"rental_uris":{"android":"levelo://app?vid=a22e5cdd-17c8-4f21-853c-03ca220d8771","ios":"levelo://app?vid=a22e5cdd-17c8-4f21-853c-03ca220d8771"},"vehicle_type_id":"4","last_reported":1687122362,"current_range_meters":31200,"station_id":"ce4bhgp2rcd13ifvqfc0","pricing_plan_id":"free"},{"bike_id":"a1b5a146-3a4a-440a-b283-0db12e556015","system_id":"levelo_inurba_marseille","lat":43.317104,"lon":5.436818,"is_reserved":false,"is_disabled":false,"rental_uris":{"android":"levelo://app?vid=a1b5a146-3a4a-440a-b283-0db12e556015","ios":"levelo://app?vid=a1b5a146-3a4a-440a-b283-0db12e556015"},"vehicle_type_id":"4","last_reported":1687122362,"current_range_meters":11200,"station_id":"ce4bhp92rcd13ifvqhcg","pricing_plan_id":"free"},{"bike_id":"72c93a2b-9eaf-4635-82fd-ea94f8300d5c","system_id":"levelo_inurba_marseille","lat":43.31711,"lon":5.43705,"is_reserved":false,"is_disabled":false,"rental_uris":{"android":"levelo://app?vid=72c93a2b-9eaf-4635-82fd-ea94f8300d5c","ios":"levelo://app?vid=72c93a2b-9eaf-4635-82fd-ea94f8300d5c"},"vehicle_type_id":"4","last_reported":1687122362,"current_range_meters":22000,"station_id":"ce4bhp92rcd13ifvqhcg","pricing_plan_id":"free"},{"bike_id":"9bf905c2-7b41-48ec-bfc6-155ec656c7ee","system_id":"levelo_inurba_marseille","lat":43.317104,"lon":5.436818,"is_reserved":false,"is_disabled":false,"rental_uris":{"android":"levelo://app?vid=9bf905c2-7b41-48ec-bfc6-155ec656c7ee","ios":"levelo://app?vid=9bf905c2-7b41-48ec-bfc6-155ec656c7ee"},"vehicle_type_id":"4","last_reported":1687122362,"current_range_meters":31600,"station_id":"ce4bhp92rcd13ifvqhcg","pricing_plan_id":"free"},{"bike_id":"54129b2c-244f-4a91-8890-f12b5f0e7a95","system_id":"levelo_inurba_marseille","lat":43.317104,"lon":5.436818,"is_reserved":false,"is_disabled":false,"rental_uris":{"android":"levelo://app?vid=54129b2c-244f-4a91-8890-f12b5f0e7a95","ios":"levelo://app?vid=54129b2c-244f-4a91-8890-f12b5f0e7a95"},"vehicle_type_id":"4","last_reported":1687122362,"current_range_meters":15600,"station_id":"ce4bhp92rcd13ifvqhcg","pricing_plan_id":"free"},{"bike_id":"fc7bd63b-73f7-401f-8c62-5b0338652175","system_id":"levelo_inurba_marseille","lat":43.26214,"lon":5.37919,"is_reserved":false,"is_disabled":false,"rental_uris":{"android":"levelo://app?vid=fc7bd63b-73f7-401f-8c62-5b0338652175","ios":"levelo://app?vid=fc7bd63b-73f7-401f-8c62-5b0338652175"},"vehicle_type_id":"4","last_reported":1687122362,"current_range_meters":12400,"station_id":"ce4bhjp2rcd13ifvqg90","pricing_plan_id":"free"},{"bike_id":"a54af24d-a858-4cb3-a9ca-12031b140a4a","system_id":"levelo_inurba_marseille","lat":43.26213,"lon":5.37922,"is_reserved":false,"is_disabled":false,"rental_uris":{"android":"levelo://app?vid=a54af24d-a858-4cb3-a9ca-12031b140a4a","ios":"levelo://app?vid=a54af24d-a858-4cb3-a9ca-12031b140a4a"},"vehicle_type_id":"4","last_reported":1687122362,"current_range_meters":28800,"station_id":"ce4bhjp2rcd13ifvqg90","pricing_plan_id":"free"},{"bike_id":"df937aa2-e5ca-492d-b726-b96bea986152","system_id":"levelo_inurba_marseille","lat":43.26213,"lon":5.37922,"is_reserved":false,"is_disabled":false,"rental_uris":{"android":"levelo://app?vid=df937aa2-e5ca-492d-b726-b96bea986152","ios":"levelo://app?vid=df937aa2-e5ca-492d-b726-b96bea986152"},"vehicle_type_id":"4","last_reported":1687122362,"current_range_meters":11600,"station_id":"ce4bhjp2rcd13ifvqg90","pricing_plan_id":"free"},{"bike_id":"c946daf2-5581-4b50-94b3-ad69d30f204d","system_id":"levelo_inurba_marseille","lat":43.262135,"lon":5.379262,"is_reserved":false,"is_disabled":false,"rental_uris":{"android":"levelo://app?vid=c946daf2-5581-4b50-94b3-ad69d30f204d","ios":"levelo://app?vid=c946daf2-5581-4b50-94b3-ad69d30f204d"},"vehicle_type_id":"4","last_reported":1687122362,"current_range_meters":11600,"station_id":"ce4bhjp2rcd13ifvqg90","pricing_plan_id":"free"},{"bike_id":"b353b798-e889-4861-a62e-7f8dce0c4b66","system_id":"levelo_inurba_marseille","lat":43.26212,"lon":5.37916,"is_reserved":false,"is_disabled":false,"rental_uris":{"android":"levelo://app?vid=b353b798-e889-4861-a62e-7f8dce0c4b66","ios":"levelo://app?vid=b353b798-e889-4861-a62e-7f8dce0c4b66"},"vehicle_type_id":"4","last_reported":1687122362,"current_range_meters":23600,"station_id":"ce4bhjp2rcd13ifvqg90","pricing_plan_id":"free"},{"bike_id":"4f3865cb-5c93-4b02-af96-405243cc878a","system_id":"levelo_inurba_marseille","lat":43.26212,"lon":5.37919,"is_reserved":false,"is_disabled":false,"rental_uris":{"android":"levelo://app?vid=4f3865cb-5c93-4b02-af96-405243cc878a","ios":"levelo://app?vid=4f3865cb-5c93-4b02-af96-405243cc878a"},"vehicle_type_id":"4","last_reported":1687122362,"current_range_meters":25200,"station_id":"ce4bhjp2rcd13ifvqg90","pricing_plan_id":"free"},{"bike_id":"e96a64f3-07cb-45e5-a9e2-76966b0746f5","system_id":"levelo_inurba_marseille","lat":43.26211,"lon":5.37919,"is_reserved":false,"is_disabled":false,"rental_uris":{"android":"levelo://app?vid=e96a64f3-07cb-45e5-a9e2-76966b0746f5","ios":"levelo://app?vid=e96a64f3-07cb-45e5-a9e2-76966b0746f5"},"vehicle_type_id":"4","last_reported":1687122362,"current_range_meters":25200,"station_id":"ce4bhjp2rcd13ifvqg90","pricing_plan_id":"free"},{"bike_id":"a5e999ca-5f3c-4ad6-a4ca-02aa81b8247f","system_id":"levelo_inurba_marseille","lat":43.26211,"lon":5.3792,"is_reserved":false,"is_disabled":false,"rental_uris":{"android":"levelo://app?vid=a5e999ca-5f3c-4ad6-a4ca-02aa81b8247f","ios":"levelo://app?vid=a5e999ca-5f3c-4ad6-a4ca-02aa81b8247f"},"vehicle_type_id":"4","last_reported":1687122362,"current_range_meters":14400,"station_id":"ce4bhjp2rcd13ifvqg90","pricing_plan_id":"free"},