{"last_updated":1751271386,"ttl":60,"version":"2.2","data":{"bikes":[{"bike_id":"3da29fb8-fc97-44c6-b9ac-31dd456b2fd4","system_id":"levelo_inurba_marseille","lat":43.33771,"lon":5.37424,"is_reserved":false,"is_disabled":true,"rental_uris":{"android":"levelo://app?vid=3da29fb8-fc97-44c6-b9ac-31dd456b2fd4","ios":"levelo://app?vid=3da29fb8-fc97-44c6-b9ac-31dd456b2fd4"},"vehicle_type_id":"4","last_reported":1751271386,"current_range_meters":0,"station_id":"","pricing_plan_id":"cebpf4jnsgd1na2vs0mg"},{"bike_id":"01861ad8-a8d7-4be6-816e-651927c87584","system_id":"levelo_inurba_marseille","lat":43.33751,"lon":5.37456,"is_reserved":false,"is_disabled":true,"rental_uris":{"android":"levelo://app?vid=01861ad8-a8d7-4be6-816e-651927c87584","ios":"levelo://app?vid=01861ad8-a8d7-4be6-816e-651927c87584"},"vehicle_type_id":"4","last_reported":1751271386,"current_range_meters":0,"station_id":"","pricing_plan_id":"cebpf4jnsgd1na2vs0mg"},{"bike_id":"c189c64a-a9eb-4c27-8d9d-989757fb1cca","system_id":"levelo_inurba_marseille","lat":43.247649,"lon":5.375756,"is_reserved":false,"is_disabled":false,"rental_uris":{"android":"levelo://app?vid=c189c64a-a9eb-4c27-8d9d-989757fb1cca","ios":"levelo://app?vid=c189c64a-a9eb-4c27-8d9d-989757fb1cca"},"vehicle_type_id":"4","last_reported":1751271386,"current_range_meters":0,"station_id":"","pricing_plan_id":"cebpf4jnsgd1na2vs0mg"},{"bike_id":"e83d088b-72a0-4ba6-a73e-716a311dec4d","system_id":"levelo_inurba_marseille","lat":43.24514,"lon":5.37315,"is_reserved":false,"is_disabled":true,"rental_uris":{"android":"levelo://app?vid=e83d088b-72a0-4ba6-a73e-716a311dec4d","ios":"levelo://app?vid=e83d088b-72a0-4ba6-a73e-716a311dec4d"},"vehicle_type_id":"4","last_reported":1751271386,"current_range_meters":0,"station_id":"","pricing_plan_id":"cebpf4jnsgd1na2vs0mg"},{"bike_id":"7aac647a-260b-423f-ae41-874b82472ad9","system_id":"levelo_inurba_marseille","lat":43.23197,"lon":5.35082,"is_reserved":false,"is_disabled":true,"rental_uris":{"android":"levelo://app?vid=7aac647a-260b-423f-ae41-874b82472ad9","ios":"levelo://app?vid=7aac647a-260b-423f-ae41-874b82472ad9"},"vehicle_type_id":"4","last_reported":1751271386,"current_range_meters":0,"station_id":"","pricing_plan_id":"cebpf4jnsgd1na2vs0mg"},{"bike_id":"f1483ff6-ae8a-4286-a635-7d40887e3e92","system_id":"levelo_inurba_marseille","lat":43.26958,"lon":5.3666,"is_reserved":false,"is_disabled":true,"rental_uris":{"android":"levelo://app?vid=f1483ff6-ae8a-4286-a635-7d40887e3e92","ios":"levelo://app?vid=f1483ff6-ae8a-4286-a635-7d40887e3e92"},"vehicle_type_id":"4","last_reported":1751271386,"current_range_meters":0,"station_id":"","pricing_plan_id":"cebpf4jnsgd1na2vs0mg"},{"bike_id":"d72c4377-e465-4f63-add4-52e06f429353","system_id":"levelo_inurba_marseille","lat":43.31093,"lon":5.386388,"is_reserved":false,"is_disabled":true,"rental_uris":{"android":"levelo://app?vid=d72c4377-e465-4f63-add4-52e06f429353","ios":"levelo://app?vid=d72c4377-e465-4f63-add4-52e06f429353"},"vehicle_type_id":"4","last_reported":1751271386,"current_range_meters":0,"station_id":"","pricing_plan_id":"cebpf4jnsgd1na2vs0mg"},{"bike_id":"80955d0f-8669-4c02-b90f-c6fe20790c37","system_id":"levelo_inurba_marseille","lat":43.2321,"lon":5.35166,"is_reserved":false,"is_disabled":true,"rental_uris":{"android":"levelo://app?vid=80955d0f-8669-4c02-b90f-c6fe20790c37","ios":"levelo://app?vid=80955d0f-8669-4c02-b90f-c6fe20790c37"},"vehicle_type_id":"4","last_reported":1751271386,"current_range_meters":0,"station_id":"","pricing_plan_id":"cebpf4jnsgd1na2vs0mg"},{"bike_id":"6000c399-f13b-4295-bb92-4850a98945bc","system_id":"levelo_inurba_marseille","lat":43.243837,"lon":5.401053,"is_reserved":false,"is_disabled":true,"rental_uris":{"android":"levelo://app?vid=6000c399-f13b-4295-bb92-4850a98945bc","ios":"levelo://app?vid=6000c399-f13b-4295-bb92-4850a98945bc"},"vehicle_type_id":"4","last_reported":1751271386,"current_range_meters":0,"station_id":"","pricing_plan_id":"cebpf4jnsgd1na2vs0mg"},{"bike_id":"d59eb2c6-0aa8-47a3-9f58-9782c4d9293a","system_id":"levelo_inurba_marseille","lat":43.29184,"lon":5.39329,"is_reserved":false,"is_disabled":true,"rental_uris":{"android":"levelo://app?vid=d59eb2c6-0aa8-47a3-9f58-9782c4d9293a","ios":"levelo://app?vid=d59eb2c6-0aa8-47a3-9f58-9782c4d9293a"},"vehicle_type_id":"4","last_reported":1751271386,"current_range_meters":0,"station_id":"ce4bh192rcd13ifvqdd0","pricing_plan_id":"cebpf4jnsgd1na2vs0mg"},{"bike_id":"9ec8ee7a-70d2-4127-90a3-ff19e9cd7645","system_id":"levelo_inurba_marseille","lat":43.2905,"lon":5.39948,"is_reserved":false,"is_disabled":true,"rental_uris":{"android":"levelo://app?vid=9ec8ee7a-70d2-4127-90a3-ff19e9cd7645","ios":"levelo://app?vid=9ec8ee7a-70d2-4127-90a3-ff19e9cd7645"},"vehicle_type_id":"4","last_reported":1751271386,"current_range_meters":0,"station_id":"ce4bh392rcd13ifvqdm0","pricing_plan_id":"cebpf4jnsgd1na2vs0mg"},{"bike_id":"0ab05822-fe15-4e6b-9c1b-4dcee29f1b8d","system_id":"levelo_inurba_marseille","lat":43.28423,"lon":5.34985,"is_reserved":false,"is_disabled":true,"rental_uris":{"android":"levelo://app?vid=0ab05822-fe15-4e6b-9c1b-4dcee29f1b8d","ios":"levelo://app?vid=0ab05822-fe15-4e6b-9c1b-4dcee29f1b8d"},"vehicle_type_id":"4","last_reported":1751271386,"current_range_meters":0,"station_id":"ce4bhbh2rcd13ifvqepg","pricing_plan_id":"cebpf4jnsgd1na2vs0mg"},{"bike_id":"b7d0d8a1-c5dd-4278-8b3b-f5786872fe32","system_id":"levelo_inurba_marseille","lat":43.32103,"lon":5.36753,"is_reserved":false,"is_disabled":true,"rental_uris":{"android":"levelo://app?vid=b7d0d8a1-c5dd-4278-8b3b-f5786872fe32","ios":"levelo://app?vid=b7d0d8a1-c5dd-4278-8b3b-f5786872fe32"},"vehicle_type_id":"4","last_reported":1751271386,"current_range_meters":0,"station_id":"ce4bhrh2rcd13ifvqhug","pricing_plan_id":"cebpf4jnsgd1na2vs0mg"},{"bike_id":"cb562e81-18e4-4e68-8044-00b42132ffb9","system_id":"levelo_inurba_marseille","lat":43.324841,"lon":5.365657,"is_reserved":false,"is_disabled":true,"rental_uris":{"android":"levelo://app?vid=cb562e81-18e4-4e68-8044-00b42132ffb9","ios":"levelo://app?vid=cb562e81-18e4-4e68-8044-00b42132ffb9"},"vehicle_type_id":"4","last_reported":1751271386,"current_range_meters":0,"station_id":"ce4bhs12rcd13ifvqhvg","pricing_plan_id":"cebpf4jnsgd1na2vs0mg"},{"bike_id":"a7efee83-97cf-42c6-80ef-3679a328d089","system_id":"levelo_inurba_marseille","lat":43.23059,"lon":5.354872,"is_reserved":false,"is_disabled":true,"rental_uris":{"android":"levelo://app?vid=a7efee83-97cf-42c6-80ef-3679a328d089","ios":"levelo://app?vid=a7efee83-97cf-42c6-80ef-3679a328d089"},"vehicle_type_id":"4","last_reported":1751271386,"current_range_meters":0,"station_id":"cpo3342slgdg3j2ifvpg","pricing_plan_id":"cebpf4jnsgd1na2vs0mg"},{"bike_id":"139b16ef-4f8c-42cc-82b4-72106a345d6b","system_id":"levelo_inurba_marseille","lat":43.21736,"lon":5.346007,"is_reserved":false,"is_disabled":true,"rental_uris":{"android":"levelo://app?vid=139b16ef-4f8c-42cc-82b4-72106a345d6b","ios":"levelo://app?vid=139b16ef-4f8c-42cc-82b4-72106a345d6b"},"vehicle_type_id":"4","last_reported":1751271386,"current_range_meters":0,"station_id":"st_cvj6r9ubvosntc0bgbag","pricing_plan_id":"cebpf4jnsgd1na2vs0mg"},{"bike_id":"ce992139-b465-482c-8ef7-7f1636b3d518","system_id":"levelo_inurba_marseille","lat":43.2119,"lon":5.35066,"is_reserved":false,"is_disabled":true,"rental_uris":{"android":"levelo://app?vid=ce992139-b465-482c-8ef7-7f1636b3d518","ios":"levelo://app?vid=ce992139-b465-482c-8ef7-7f1636b3d518"},"vehicle_type_id":"4","last_reported":1751271386,"current_range_meters":0,"station_id":"st_cvj6sg6p6f1abm77japg","pricing_plan_id":"cebpf4jnsgd1na2vs0mg"},{"bike_id":"c86138f4-ede4-48a8-ac82-70fc4befb32d","system_id":"levelo_inurba_marseille","lat":43.28621,"lon":5.35108,"is_reserved":false,"is_disabled":true,"rental_uris":{"android":"levelo://app?vid=c86138f4-ede4-48a8-ac82-70fc4befb32d","ios":"levelo://app?vid=c86138f4-ede4-48a8-ac82-70fc4befb32d"},"vehicle_type_id":"4","last_reported":1751271386,"current_range_meters":400,"station_id":"ce4bhch2rcd13ifvqeug","pricing_plan_id":"cebpf4jnsgd1na2vs0mg"},{"bike_id":"4bc930cb-40d7-4bb7-9e22-a742b1d78aa2","system_id":"levelo_inurba_marseille","lat":43.28668,"lon":5.38662,"is_reserved":false,"is_disabled":true,"rental_uris":{"android":"levelo://app?vid=4bc930cb-40d7-4bb7-9e22-a742b1d78aa2","ios":"levelo://app?vid=4bc930cb-40d7-4bb7-9e22-a742b1d78aa2"},"vehicle_type_id":"4","last_reported":1751271386,"current_range_meters":800,"station_id":"ce4bh492rcd13ifvqdug","pricing_plan_id":"cebpf4jnsgd1na2vs0mg"},{"bike_id":"30d17e57-9827-4709-9d66-3fe2ea7e0ea0","system_id":"levelo_inurba_marseille","lat":43.28362,"lon":5.38634,"is_reserved":false,"is_disabled":true,"rental_uris":{"android":"levelo://app?vid=30d17e57-9827-4709-9d66-3fe2ea7e0ea0","ios":"levelo://app?vid=30d17e57-9827-4709-9d66-3fe2ea7e0ea0"},"vehicle_type_id":"4","last_reported":1751271386,"current_range_meters":1200,"station_id":"ce4bh492rcd13ifvqdvg","pricing_plan_id":"cebpf4jnsgd1na2vs0mg"},{"bike_id":"eb3dfaa6-8aa2-4441-ac13-2784b1d48cd2","system_id":"levelo_inurba_marseille","lat":43.25733,"lon":5.41093,"is_reserved":false,"is_disabled":true,"rental_uris":{"android":"levelo://app?vid=eb3dfaa6-8aa2-4441-ac13-2784b1d48cd2","ios":"levelo://app?vid=eb3dfaa6-8aa2-4441-ac13-2784b1d48cd2"},"vehicle_type_id":"4","last_reported":1751271386,"current_range_meters":1200,"station_id":"ce4bhkp2rcd13ifvqgd0","pricing_plan_id":"cebpf4jnsgd1na2vs0mg"},{"bike_id":"2b462f4b-bcde-4381-b4ff-5526e78ee72d","system_id":"levelo_inurba_marseille","lat":43.24079,"lon":5.37748,"is_reserved":false,"is_disabled":true,"rental_uris":{"android":"levelo://app?vid=2b462f4b-bcde-4381-b4ff-5526e78ee72d","ios":"levelo://app?vid=2b462f4b-bcde-4381-b4ff-5526e78ee72d"},"vehicle_type_id":"4","last_reported":1751271386,"current_range_meters":1200,"station_id":"ce4bhnp2rcd13ifvqgvg","pricing_plan_id":"cebpf4jnsgd1na2vs0mg"},{"bike_id":"29e697ca-26a6-4412-8107-f2c74b259edc","system_id":"levelo_inurba_marseille","lat":43.24196,"lon":5.38376,"is_reserved":false,"is_disabled":true,"rental_uris":{"android":"levelo://app?vid=29e697ca-26a6-4412-8107-f2c74b259edc","ios":"levelo://app?vid=29e697ca-26a6-4412-8107-f2c74b259edc"},"vehicle_type_id":"4","last_reported":1751271386,"current_range_meters":1600,"station_id":"","pricing_plan_id":"cebpf4jnsgd1na2vs0mg"},{"bike_id":"85eb80f1-fdf8-4910-9983-416402de22ff","system_id":"levelo_inurba_marseille","lat":43.276994,"lon":5.415405,"is_reserved":false,"is_disabled":true,"rental_uris":{"android":"levelo://app?vid=85eb80f1-fdf8-4910-9983-416402de22ff","ios":"levelo://app?vid=85eb80f1-fdf8-4910-9983-416402de22ff"},"vehicle_type_id":"4","last_reported":1751271386,"current_range_meters":1600,"station_id":"","pricing_plan_id":"cebpf4jnsgd1na2vs0mg"},{"bike_id":"3c238033-30be-4f05-9275-ca45f5916276","system_id":"levelo_inurba_marseille","lat":43.29605,"lon":5.37726,"is_reserved":false,"is_disabled":true,"rental_uris":{"android":"levelo://app?vid=3c238033-30be-4f05-9275-ca45f5916276","ios":"levelo://app?vid=3c238033-30be-4f05-9275-ca45f5916276"},"vehicle_type_id":"4","last_reported":1751271386,"current_range_meters":1600,"station_id":"ce4bgi92rcd13ifvqb90","pricing_plan_id":"cebpf4jnsgd1na2vs0mg"},{"bike_id":"c4a0137e-a333-4bf2-be2c-dc9d4d53e9f7","system_id":"levelo_inurba_marseille","lat":43.2118,"lon":5.35065,"is_reserved":false,"is_disabled":true,"rental_uris":{"android":"levelo://app?vid=c4a0137e-a333-4bf2-be2c-dc9d4d53e9f7","ios":"levelo://app?vid=c4a0137e-a333-4bf2-be2c-dc9d4d53e9f7"},"vehicle_type_id":"4","last_reported":1751271386,"current_range_meters":1600,"station_id":"st_cvj6sg6p6f1abm77japg","pricing_plan_id":"cebpf4jnsgd1na2vs0mg"},{"bike_id":"4bb4a733-a9bd-4772-9320-a8c7885ff73b","system_id":"levelo_inurba_marseille","lat":43.2778,"lon":5.35558,"is_reserved":false,"is_disabled":true,"rental_uris":{"android":"levelo://app?vid=4bb4a733-a9bd-4772-9320-a8c7885ff73b","ios":"levelo://app?vid=4bb4a733-a9bd-4772-9320-a8c7885ff73b"},"vehicle_type_id":"4","last_reported":1751271386,"current_range_meters":2000,"station_id":"","pricing_plan_id":"cebpf4jnsgd1na2vs0mg"},{"bike_id":"ef86cf90-ed40-40bc-a142-9ce3591cc46b","system_id":"levelo_inurba_marseille","lat":43.31489,"lon":5.37282,"is_reserved":false,"is_disabled":true,"rental_uris":{"android":"levelo://app?vid=ef86cf90-ed40-40bc-a142-9ce3591cc46b","ios":"levelo://app?vid=ef86cf90-ed40-40bc-a142-9ce3591cc46b"},"vehicle_type_id":"4","last_reported":1751271386,"current_range_meters":2000,"station_id":"ce4bgt12rcd13ifvqcd0","pricing_plan_id":"cebpf4jnsgd1na2vs0mg"},{"bike_id":"679767e0-962b-4585-b9c2-6f164fca398d","system_id":"levelo_inurba_marseille","lat":43.29176,"lon":5.37178,"is_reserved":false,"is_disabled":true,"rental_uris":{"android":"levelo://app?vid=679767e0-962b-4585-b9c2-6f164fca398d","ios":"levelo://app?vid=679767e0-962b-4585-b9c2-6f164fca398d"},"vehicle_type_id":"4","last_reported":1751271386,"current_range_meters":2000,"station_id":"ce4bha92rcd13ifvqeh0","pricing_plan_id":"cebpf4jnsgd1na2vs0mg"},{"bike_id":"e660b1b0-8ece-479d-a4ca-0100ec937934","system_id":"levelo_inurba_marseille","lat":43.25005,"lon":5.3893,"is_reserved":false,"is_disabled":true,"rental_uris":{"android":"levelo://app?vid=e660b1b0-8ece-479d-a4ca-0100ec937934","ios":"levelo://app?vid=e660b1b0-8ece-479d-a4ca-0100ec937934"},"vehicle_type_id":"4","last_reported":1751271386,"current_range_meters":2000,"station_id":"ce4bhgp2rcd13ifvqfd0","pricing_plan_id":"cebpf4jnsgd1na2vs0mg"},{"bike_id":"ddb07b6a-230f-4bb2-a07b-8d06bcbb8c16","system_id":"levelo_inurba_marseille","lat":43.24535,"lon":5.39525,"is_reserved":false,"is_disabled":false,"rental_uris":{"android":"levelo://app?vid=ddb07b6a-230f-4bb2-a07b-8d06bcbb8c16","ios":"levelo://app?vid=ddb07b6a-230f-4bb2-a07b-8d06bcbb8c16"},"vehicle_type_id":"4","last_reported":1751271386,"current_range_meters":3200,"station_id":"ce4bhlp2rcd13ifvqgjg","pricing_plan_id":"cebpf4jnsgd1na2vs0mg"},{"bike_id":"9e163c86-36ef-4269-bcd8-6c9e6f4075a0","system_id":"levelo_inurba_marseille","lat":43.3029,"lon":5.37142,"is_reserved":false,"is_disabled":false,"rental_uris":{"android":"levelo://app?vid=9e163c86-36ef-4269-bcd8-6c9e6f4075a0","ios":"levelo://app?vid=9e163c86-36ef-4269-bcd8-6c9e6f4075a0"},"vehicle_type_id":"4","last_reported":1751271386,"current_range_meters":3600,"station_id":"","pricing_plan_id":"cebpf4jnsgd1na2vs0mg"},{"bike_id":"d7785f19-0f3d-45d5-b5c3-ddcc929e43ce","system_id":"levelo_inurba_marseille","lat":43.31355,"lon":5.38492,"is_reserved":false,"is_disabled":false,"rental_uris":{"android":"levelo://app?vid=d7785f19-0f3d-45d5-b5c3-ddcc929e43ce","ios":"levelo://app?vid=d7785f19-0f3d-45d5-b5c3-ddcc929e43ce"},"vehicle_type_id":"4","last_reported":1751271386,"current_range_meters":3600,"station_id":"ce4bgt92rcd13ifvqcf0","pricing_plan_id":"cebpf4jnsgd1na2vs0mg"},{"bike_id":"0c377e6d-fe98-491d-9dfe-c506eb872d1b","system_id":"levelo_inurba_marseille","lat":43.29257,"lon":5.40904,"is_reserved":false,"is_disabled":false,"rental_uris":{"android":"levelo://app?vid=0c377e6d-fe98-491d-9dfe-c506eb872d1b","ios":"levelo://app?vid=0c377e6d-fe98-491d-9dfe-c506eb872d1b"},"vehicle_type_id":"4","last_reported":1751271386,"current_range_meters":4000,"station_id":"ce4bh192rcd13ifvqdc0","pricing_plan_id":"cebpf4jnsgd1na2vs0mg"},{"bike_id":"3f395be3-cfeb-4076-a7c5-084bc46b69d0","system_id":"levelo_inurba_marseille","lat":43.25941,"lon":5.40886,"is_reserved":false,"is_disabled":false,"rental_uris":{"android":"levelo://app?vid=3f395be3-cfeb-4076-a7c5-084bc46b69d0","ios":"levelo://app?vid=3f395be3-cfeb-4076-a7c5-084bc46b69d0"},"vehicle_type_id":"4","last_reported":1751271386,"current_range_meters":4000,"station_id":"ce4bhm92rcd13ifvqglg","pricing_plan_id":"cebpf4jnsgd1na2vs0mg"},{"bike_id":"85119c35-f47a-4ff4-87f7-bca83d41d38a","system_id":"levelo_inurba_marseille","lat":43.28609,"lon":5.3706,"is_reserved":false,"is_disabled":false,"rental_uris":{"android":"levelo://app?vid=85119c35-f47a-4ff4-87f7-bca83d41d38a","ios":"levelo://app?vid=85119c35-f47a-4ff4-87f7-bca83d41d38a"},"vehicle_type_id":"4","last_reported":1751271386,"current_range_meters":4000,"station_id":"ce4bht12rcd13ifvqi60","pricing_plan_id":"cebpf4jnsgd1na2vs0mg"},{"bike_id":"c9097ea6-b8a8-4d27-a43b-0fc88579bde1","system_id":"levelo_inurba_marseille","lat":43.21192,"lon":5.35082,"is_reserved":false,"is_disabled":false,"rental_uris":{"android":"levelo://app?vid=c9097ea6-b8a8-4d27-a43b-0fc88579bde1","ios":"levelo://app?vid=c9097ea6-b8a8-4d27-a43b-0fc88579bde1"},"vehicle_type_id":"4","last_reported":1751271386,"current_range_meters":4000,"station_id":"st_cvj6sg6p6f1abm77japg","pricing_plan_id":"cebpf4jnsgd1na2vs0mg"},{"bike_id":"23a29269-2136-41c7-8cfc-ceefe4e74a66","system_id":"levelo_inurba_marseille","lat":43.29896,"lon":5.38214,"is_reserved":false,"is_disabled":true,"rental_uris":{"android":"levelo://app?vid=23a29269-2136-41c7-8cfc-ceefe4e74a66","ios":"levelo://app?vid=23a29269-2136-41c7-8cfc-ceefe4e74a66"},"vehicle_type_id":"4","last_reported":1751271386,"current_range_meters":4400,"station_id":"","pricing_plan_id":"cebpf4jnsgd1na2vs0mg"},{"bike_id":"db20132f-ee0b-439e-a36b-712770fe9cbc","system_id":"levelo_inurba_marseille","lat":43.25494,"lon":5.37652,"is_reserved":false,"is_disabled":false,"rental_uris":{"android":"levelo://app?vid=db20132f-ee0b-439e-a36b-712770fe9cbc","ios":"levelo://app?vid=db20132f-ee0b-439e-a36b-712770fe9cbc"},"vehicle_type_id":"4","last_reported":1751271386,"current_range_meters":4400,"station_id":"ce4bhh12rcd13ifvqff0","pricing_plan_id":"cebpf4jnsgd1na2vs0mg"},{"bike_id":"6eb63e15-815b-4ec4-99df-c60aa1b15c1e","system_id":"levelo_inurba_marseille","lat":43.321005,"lon":5.367814,"is_reserved":false,"is_disabled":false,"rental_uris":{"android":"levelo://app?vid=6eb63e15-815b-4ec4-99df-c60aa1b15c1e","ios":"levelo://app?vid=6eb63e15-815b-4ec4-99df-c60aa1b15c1e"},"vehicle_type_id":"4","last_reported":1751271386,"current_range_meters":4400,"station_id":"ce4bhrh2rcd13ifvqhug","pricing_plan_id":"cebpf4jnsgd1na2vs0mg"},{"bike_id":"e449aa29-cae1-4432-9aec-dedc13360b20","system_id":"levelo_inurba_marseille","lat":43.211849,"lon":5.350806,"is_reserved":false,"is_disabled":false,"rental_uris":{"android":"levelo://app?vid=e449aa29-cae1-4432-9aec-dedc13360b20","ios":"levelo://app?vid=e449aa29-cae1-4432-9aec-dedc13360b20"},"vehicle_type_id":"4","last_reported":1751271386,"current_range_meters":4400,"station_id":"st_cvj6sg6p6f1abm77japg","pricing_plan_id":"cebpf4jnsgd1na2vs0mg"},{"bike_id":"d5b5bc74-aaeb-40c0-b979-fb1a262527de","system_id":"levelo_inurba_marseille","lat":43.33249,"lon":5.35861,"is_reserved":false,"is_disabled":false,"rental_uris":{"android":"levelo://app?vid=d5b5bc74-aaeb-40c0-b979-fb1a262527de","ios":"levelo://app?vid=d5b5bc74-aaeb-40c0-b979-fb1a262527de"},"vehicle_type_id":"4","last_reported":1751271386,"current_range_meters":4800,"station_id":"","pricing_plan_id":"cebpf4jnsgd1na2vs0mg"},{"bike_id":"94127dfc-7c99-4afc-9ec3-e1f076b9b074","system_id":"levelo_inurba_marseille","lat":43.23179,"lon":5.3999,"is_reserved":false,"is_disabled":false,"rental_uris":{"android":"levelo://app?vid=94127dfc-7c99-4afc-9ec3-e1f076b9b074","ios":"levelo://app?vid=94127dfc-7c99-4afc-9ec3-e1f076b9b074"},"vehicle_type_id":"4","last_reported":1751271386,"current_range_meters":4800,"station_id":"ce4bhn12rcd13ifvqgqg","pricing_plan_id":"cebpf4jnsgd1na2vs0mg"},{"bike_id":"5cb79064-9d1f-4030-9a7b-620db9dd350e","system_id":"levelo_inurba_marseille","lat":43.30138,"lon":5.38067,"is_reserved":false,"is_disabled":false,"rental_uris":{"android":"levelo://app?vid=5cb79064-9d1f-4030-9a7b-620db9dd350e","ios":"levelo://app?vid=5cb79064-9d1f-4030-9a7b-620db9dd350e"},"vehicle_type_id":"4","last_reported":1751271386,"current_range_meters":5600,"station_id":"ce4bgjp2rcd13ifvqbh0","pricing_plan_id":"cebpf4jnsgd1na2vs0mg"},{"bike_id":"daad9c7c-ef36-46f1-94e5-896ac219d4b1","system_id":"levelo_inurba_marseille","lat":43.29166,"lon":5.37155,"is_reserved":false,"is_disabled":false,"rental_uris":{"android":"levelo://app?vid=daad9c7c-ef36-46f1-94e5-896ac219d4b1","ios":"levelo://app?vid=daad9c7c-ef36-46f1-94e5-896ac219d4b1"},"vehicle_type_id":"4","last_reported":1751271386,"current_range_meters":5600,"station_id":"ce4bha92rcd13ifvqeh0","pricing_plan_id":"cebpf4jnsgd1na2vs0mg"},{"bike_id":"0e5b7c8f-cfcd-48d4-a4f7-bfcaf3603c87","system_id":"levelo_inurba_marseille","lat":43.28264,"lon":5.35064,"is_reserved":false,"is_disabled":false,"rental_uris":{"android":"levelo://app?vid=0e5b7c8f-cfcd-48d4-a4f7-bfcaf3603c87","ios":"levelo://app?vid=0e5b7c8f-cfcd-48d4-a4f7-bfcaf3603c87"},"vehicle_type_id":"4","last_reported":1751271386,"current_range_meters":5600,"station_id":"ce4bhbp2rcd13ifvqerg","pricing_plan_id":"cebpf4jnsgd1na2vs0mg"},{"bike_id":"6445cc03-f0ad-4833-bf37-aec5b859b6be","system_id":"levelo_inurba_marseille","lat":43.26335,"lon":5.40117,"is_reserved":false,"is_disabled":false,"rental_uris":{"android":"levelo://app?vid=6445cc03-f0ad-4833-bf37-aec5b859b6be","ios":"levelo://app?vid=6445cc03-f0ad-4833-bf37-aec5b859b6be"},"vehicle_type_id":"4","last_reported":1751271386,"current_range_meters":6000,"station_id":"","pricing_plan_id":"cebpf4jnsgd1na2vs0mg"},{"bike_id":"db977208-31e5-4269-929a-f5f84452186a","system_id":"levelo_inurba_marseille","lat":43.31387,"lon":5.36705,"is_reserved":false,"is_disabled":false,"rental_uris":{"android":"levelo://app?vid=db977208-31e5-4269-929a-f5f84452186a","ios":"levelo://app?vid=db977208-31e5-4269-929a-f5f84452186a"},"vehicle_type_id":"4","last_reported":1751271386,"current_range_meters":6000,"station_id":"","pricing_plan_id":"cebpf4jnsgd1na2vs0mg"},{"bike_id":"721165c1-ef6f-40cc-8d33-af3a7999864b","system_id":"levelo_inurba_marseille","lat":43.32601,"lon":5.37874,"is_reserved":false,"is_disabled":false,"rental_uris":{"android":"levelo://app?vid=721165c1-ef6f-40cc-8d33-af3a7999864b","ios":"levelo://app?vid=721165c1-ef6f-40cc-8d33-af3a7999864b"},"vehicle_type_id":"4","last_reported":1751271386,"current_range_meters":6000,"station_id":"","pricing_plan_id":"cebpf4jnsgd1na2vs0mg"},{"bike_id":"43b1e241-2d3b-41d5-ba60-5778dd1a83e0","system_id":"levelo_inurba_marseille","lat":43.31342,"lon":5.36721,"is_reserved":false,"is_disabled":false,"rental_uris":{"android":"levelo://app?vid=43b1e241-2d3b-41d5-ba60-5778dd1a83e0","ios":"levelo://app?vid=43b1e241-2d3b-41d5-ba60-5778dd1a83e0"},"vehicle_type_id":"4","last_reported":1751271386,"current_range_meters":6000,"station_id":"ce4bgr92rcd13ifvqc6g","pricing_plan_id":"cebpf4jnsgd1na2vs0mg"},{"bike_id":"5a6c8d9d-1e5c-4a93-aefb-b50f02b339ca","system_id":"levelo_inurba_marseille","lat":43.28854,"lon":5.35863,"is_reserved":false,"is_disabled":false,"rental_uris":{"android":"levelo://app?vid=5a6c8d9d-1e5c-4a93-aefb-b50f02b339ca","ios":"levelo://app?vid=5a6c8d9d-1e5c-4a93-aefb-b50f02b339ca"},"vehicle_type_id":"4","last_reported":1751271386,"current_range_meters":6000,"station_id":"ce4bhb12rcd13ifvqem0","pricing_plan_id":"cebpf4jnsgd1na2vs0mg"},{"bike_id":"c69093fb-b35c-421d-b363-4077bc8bfb01","system_id":"levelo_inurba_marseille","lat":43.29268,"lon":5.36848,"is_reserved":false,"is_disabled":false,"rental_uris":{"android":"levelo://app?vid=c69093fb-b35c-421d-b363-4077bc8bfb01","ios":"levelo://app?vid=c69093fb-b35c-421d-b363-4077bc8bfb01"},"vehicle_type_id":"4","last_reported":1751271386,"current_range_meters":6000,"station_id":"ce4bhbp2rcd13ifvqesg","pricing_plan_id":"cebpf4jnsgd1na2vs0mg"},{"bike_id":"071d9ad8-79e9-447b-b25c-0a0463116df8","system_id":"levelo_inurba_marseille","lat":43.23843,"lon":5.36526,"is_reserved":false,"is_disabled":false,"rental_uris":{"android":"levelo://app?vid=071d9ad8-79e9-447b-b25c-0a0463116df8","ios":"levelo://app?vid=071d9ad8-79e9-447b-b25c-0a0463116df8"},"vehicle_type_id":"4","last_reported":1751271386,"current_range_meters":6800,"station_id":"","pricing_plan_id":"cebpf4jnsgd1na2vs0mg"},{"bike_id":"735fb3ec-51d3-42a0-b0e0-35a6ef148211","system_id":"levelo_inurba_marseille","lat":43.31293,"lon":5.37294,"is_reserved":false,"is_disabled":false,"rental_uris":{"android":"levelo://app?vid=735fb3ec-51d3-42a0-b0e0-35a6ef148211","ios":"levelo://app?vid=735fb3ec-51d3-42a0-b0e0-35a6ef148211"},"vehicle_type_id":"4","last_reported":1751271386,"current_range_meters":6800,"station_id":"","pricing_plan_id":"cebpf4jnsgd1na2vs0mg"},{"bike_id":"25f26fe8-d80e-4a96-bfce-8535e86dc5ba","system_id":"levelo_inurba_marseille","lat":43.30537,"lon":5.36533,"is_reserved":false,"is_disabled":false,"rental_uris":{"android":"levelo://app?vid=25f26fe8-d80e-4a96-bfce-8535e86dc5ba","ios":"levelo://app?vid=25f26fe8-d80e-4a96-bfce-8535e86dc5ba"},"vehicle_type_id":"4","last_reported":1751271386,"current_range_meters":6800,"station_id":"ce4bgs12rcd13ifvqcag","pricing_plan_id":"cebpf4jnsgd1na2vs0mg"},{"bike_id":"cf6b073f-af72-42fc-b9e3-9e7bf050d408","system_id":"levelo_inurba_marseille","lat":43.29093,"lon":5.38116,"is_reserved":false,"is_disabled":false,"rental_uris":{"android":"levelo://app?vid=cf6b073f-af72-42fc-b9e3-9e7bf050d408","ios":"levelo://app?vid=cf6b073f-af72-42fc-b9e3-9e7bf050d408"},"vehicle_type_id":"4","last_reported":1751271386,"current_range_meters":6800,"station_id":"ce4bh512rcd13ifvqe2g","pricing_plan_id":"cebpf4jnsgd1na2vs0mg"},{"bike_id":"033a09f5-ae17-4a3e-8db3-110d81477f8c","system_id":"levelo_inurba_marseille","lat":43.25591,"lon":5.3825,"is_reserved":false,"is_disabled":false,"rental_uris":{"android":"levelo://app?vid=033a09f5-ae17-4a3e-8db3-110d81477f8c","ios":"levelo://app?vid=033a09f5-ae17-4a3e-8db3-110d81477f8c"},"vehicle_type_id":"4","last_reported":1751271386,"current_range_meters":6800,"station_id":"ce4bhih2rcd13ifvqfs0","pricing_plan_id":"cebpf4jnsgd1na2vs0mg"},{"bike_id":"98b8d127-f303-4f7e-8444-3a27b3ae7a78","system_id":"levelo_inurba_marseille","lat":43.23139,"lon":5.4372,"is_reserved":false,"is_disabled":false,"rental_uris":{"android":"levelo://app?vid=98b8d127-f303-4f7e-8444-3a27b3ae7a78","ios":"levelo://app?vid=98b8d127-f303-4f7e-8444-3a27b3ae7a78"},"vehicle_type_id":"4","last_reported":1751271386,"current_range_meters":6800,"station_id":"ce4bhmp2rcd13ifvqgog","pricing_plan_id":"cebpf4jnsgd1na2vs0mg"},{"bike_id":"762acdc5-9b99-47a0-bda1-ee8060271245","system_id":"levelo_inurba_marseille","lat":43.21195,"lon":5.35071,"is_reserved":false,"is_disabled":false,"rental_uris":{"android":"levelo://app?vid=762acdc5-9b99-47a0-bda1-ee8060271245","ios":"levelo://app?vid=762acdc5-9b99-47a0-bda1-ee8060271245"},"vehicle_type_id":"4","last_reported":1751271386,"current_range_meters":6800,"station_id":"st_cvj6sg6p6f1abm77japg","pricing_plan_id":"cebpf4jnsgd1na2vs0mg"},{"bike_id":"4a3dd7ca-63d5-4e60-bf62-e31e8167c107","system_id":"levelo_inurba_marseille","lat":43.29625,"lon":5.37722,"is_reserved":false,"is_disabled":false,"rental_uris":{"android":"levelo://app?vid=4a3dd7ca-63d5-4e60-bf62-e31e8167c107","ios":"levelo://app?vid=4a3dd7ca-63d5-4e60-bf62-e31e8167c107"},"vehicle_type_id":"4","last_reported":1751271386,"current_range_meters":7200,"station_id":"ce4bgi92rcd13ifvqb90","pricing_plan_id":"cebpf4jnsgd1na2vs0mg"},{"bike_id":"3cc78f9c-82e0-4494-a4f5-e0818813f5e1","system_id":"levelo_inurba_marseille","lat":43.29514,"lon":5.37496,"is_reserved":false,"is_disabled":false,"rental_uris":{"android":"levelo://app?vid=3cc78f9c-82e0-4494-a4f5-e0818813f5e1","ios":"levelo://app?vid=3cc78f9c-82e0-4494-a4f5-e0818813f5e1"},"vehicle_type_id":"4","last_reported":1751271386,"current_range_meters":7200,"station_id":"ce4bgkp2rcd13ifvqbmg","pricing_plan_id":"cebpf4jnsgd1na2vs0mg"},{"bike_id":"a4eb3746-0984-40f7-8f86-521d73968a2d","system_id":"levelo_inurba_marseille","lat":43.31222,"lon":5.36863,"is_reserved":false,"is_disabled":false,"rental_uris":{"android":"levelo://app?vid=a4eb3746-0984-40f7-8f86-521d73968a2d","ios":"levelo://app?vid=a4eb3746-0984-40f7-8f86-521d73968a2d"},"vehicle_type_id":"4","last_reported":1751271386,"current_range_meters":7200,"station_id":"ce4bgl92rcd13ifvqbq0","pricing_plan_id":"cebpf4jnsgd1na2vs0mg"},{"bike_id":"983a43e6-41cb-4ffe-9fc3-9cd6d96bdd2a","system_id":"levelo_inurba_marseille","lat":43.31231,"lon":5.36892,"is_reserved":false,"is_disabled":false,"rental_uris":{"android":"levelo://app?vid=983a43e6-41cb-4ffe-9fc3-9cd6d96bdd2a","ios":"levelo://app?vid=983a43e6-41cb-4ffe-9fc3-9cd6d96bdd2a"},"vehicle_type_id":"4","last_reported":1751271386,"current_range_meters":7200,"station_id":"ce4bgl92rcd13ifvqbq0","pricing_plan_id":"cebpf4jnsgd1na2vs0mg"},{"bike_id":"61aa2b4d-cc53-434e-b01c-246aaf8bac4f","system_id":"levelo_inurba_marseille","lat":43.2987,"lon":5.39721,"is_reserved":false,"is_disabled":false,"rental_uris":{"android":"levelo://app?vid=61aa2b4d-cc53-434e-b01c-246aaf8bac4f","ios":"levelo://app?vid=61aa2b4d-cc53-434e-b01c-246aaf8bac4f"},"vehicle_type_id":"4","last_reported":1751271386,"current_range_meters":7200,"station_id":"ce4bh0h2rcd13ifvqd50","pricing_plan_id":"cebpf4jnsgd1na2vs0mg"},{"bike_id":"6ad0376a-a288-4e3c-8d2c-9b0745c54221","system_id":"levelo_inurba_marseille","lat":43.24813,"lon":5.37461,"is_reserved":false,"is_disabled":false,"rental_uris":{"android":"levelo://app?vid=6ad0376a-a288-4e3c-8d2c-9b0745c54221","ios":"levelo://app?vid=6ad0376a-a288-4e3c-8d2c-9b0745c54221"},"vehicle_type_id":"4","last_reported":1751271386,"current_range_meters":7200,"station_id":"ce4bhgh2rcd13ifvqfb0","pricing_plan_id":"cebpf4jnsgd1na2vs0mg"},{"bike_id":"69612c88-c479-48b5-a037-049c78d67bda","system_id":"levelo_inurba_marseille","lat":43.26212,"lon":5.37438,"is_reserved":false,"is_disabled":false,"rental_uris":{"android":"levelo://app?vid=69612c88-c479-48b5-a037-049c78d67bda","ios":"levelo://app?vid=69612c88-c479-48b5-a037-049c78d67bda"},"vehicle_type_id":"4","last_reported":1751271386,"current_range_meters":7200,"station_id":"ce4bhgp2rcd13ifvqfc0","pricing_plan_id":"cebpf4jnsgd1na2vs0mg"},{"bike_id":"404c5dea-cf22-48f3-ad44-8b252fa4f599","system_id":"levelo_inurba_marseille","lat":43.25478,"lon":5.37672,"is_reserved":false,"is_disabled":false,"rental_uris":{"android":"levelo://app?vid=404c5dea-cf22-48f3-ad44-8b252fa4f599","ios":"levelo://app?vid=404c5dea-cf22-48f3-ad44-8b252fa4f599"},"vehicle_type_id":"4","last_reported":1751271386,"current_range_meters":7200,"station_id":"ce4bhh12rcd13ifvqff0","pricing_plan_id":"cebpf4jnsgd1na2vs0mg"},{"bike_id":"99f281eb-44dd-4a50-b8f7-afecd19c12a4","system_id":"levelo_inurba_marseille","lat":43.31213,"lon":5.3687,"is_reserved":false,"is_disabled":false,"rental_uris":{"android":"levelo://app?vid=99f281eb-44dd-4a50-b8f7-afecd19c12a4","ios":"levelo://app?vid=99f281eb-44dd-4a50-b8f7-afecd19c12a4"},"vehicle_type_id":"4","last_reported":1751271386,"current_range_meters":8000,"station_id":"ce4bgl92rcd13ifvqbq0","pricing_plan_id":"cebpf4jnsgd1na2vs0mg"},{"bike_id":"73f4bbcc-4723-4d69-a710-d3fc45c80749","system_id":"levelo_inurba_marseille","lat":43.31371,"lon":5.36697,"is_reserved":false,"is_disabled":false,"rental_uris":{"android":"levelo://app?vid=73f4bbcc-4723-4d69-a710-d3fc45c80749","ios":"levelo://app?vid=73f4bbcc-4723-4d69-a710-d3fc45c80749"},"vehicle_type_id":"4","last_reported":1751271386,"current_range_meters":8000,"station_id":"ce4bgr92rcd13ifvqc6g","pricing_plan_id":"cebpf4jnsgd1na2vs0mg"},{"bike_id":"779979fb-af16-428c-ad59-6b3d6835c2c8","system_id":"levelo_inurba_marseille","lat":43.26678,"lon":5.38272,"is_reserved":false,"is_disabled":false,"rental_uris":{"android":"levelo://app?vid=779979fb-af16-428c-ad59-6b3d6835c2c8","ios":"levelo://app?vid=779979fb-af16-428c-ad59-6b3d6835c2c8"},"vehicle_type_id":"4","last_reported":1751271386,"current_range_meters":8000,"station_id":"ce4bhg92rcd13ifvqf90","pricing_plan_id":"cebpf4jnsgd1na2vs0mg"},{"bike_id":"4fa57d96-2248-4f46-a1de-c1d178fbcb90","system_id":"levelo_inurba_marseille","lat":43.33607,"lon":5.41034,"is_reserved":false,"is_disabled":false,"rental_uris":{"android":"levelo://app?vid=4fa57d96-2248-4f46-a1de-c1d178fbcb90","ios":"levelo://app?vid=4fa57d96-2248-4f46-a1de-c1d178fbcb90"},"vehicle_type_id":"4","last_reported":1751271386,"current_range_meters":8000,"station_id":"ce4bhqh2rcd13ifvqhmg","pricing_plan_id":"cebpf4jnsgd1na2vs0mg"},{"bike_id":"8bf0d992-d2a0-428e-940a-091ee9b7c2a4","system_id":"levelo_inurba_marseille","lat":43.21127,"lon":5.35013,"is_reserved":false,"is_disabled":false,"rental_uris":{"android":"levelo://app?vid=8bf0d992-d2a0-428e-940a-091ee9b7c2a4","ios":"levelo://app?vid=8bf0d992-d2a0-428e-940a-091ee9b7c2a4"},"vehicle_type_id":"4","last_reported":1751271386,"current_range_meters":8000,"station_id":"st_cvj6sg6p6f1abm77japg","pricing_plan_id":"cebpf4jnsgd1na2vs0mg"},{"bike_id":"7b28ebac-3c6a-43aa-aca9-7bd954b07205","system_id":"levelo_inurba_marseille","lat":43.29662,"lon":5.37927,"is_reserved":false,"is_disabled":false,"rental_uris":{"android":"levelo://app?vid=7b28ebac-3c6a-43aa-aca9-7bd954b07205","ios":"levelo://app?vid=7b28ebac-3c6a-43aa-aca9-7bd954b07205"},"vehicle_type_id":"4","last_reported":1751271386,"current_range_meters":8400,"station_id":"","pricing_plan_id":"cebpf4jnsgd1na2vs0mg"},{"bike_id":"b09d1339-8c32-4bb9-918d-c3e3f9c1ec5a","system_id":"levelo_inurba_marseille","lat":43.30531,"lon":5.36532,"is_reserved":false,"is_disabled":false,"rental_uris":{"android":"levelo://app?vid=b09d1339-8c32-4bb9-918d-c3e3f9c1ec5a","ios":"levelo://app?vid=b09d1339-8c32-4bb9-918d-c3e3f9c1ec5a"},"vehicle_type_id":"4","last_reported":1751271386,"current_range_meters":8400,"station_id":"ce4bgs12rcd13ifvqcag","pricing_plan_id":"cebpf4jnsgd1na2vs0mg"},{"bike_id":"6765dee0-770a-4bfd-a80a-3fa36da7ede5","system_id":"levelo_inurba_marseille","lat":43.30946,"lon":5.39037,"is_reserved":false,"is_disabled":false,"rental_uris":{"android":"levelo://app?vid=6765dee0-770a-4bfd-a80a-3fa36da7ede5","ios":"levelo://app?vid=6765dee0-770a-4bfd-a80a-3fa36da7ede5"},"vehicle_type_id":"4","last_reported":1751271386,"current_range_meters":8400,"station_id":"ce4bgup2rcd13ifvqco0","pricing_plan_id":"cebpf4jnsgd1na2vs0mg"},{"bike_id":"0304ecc6-252c-4ab0-b54e-b017141415b0","system_id":"levelo_inurba_marseille","lat":43.29138,"lon":5.38165,"is_reserved":false,"is_disabled":false,"rental_uris":{"android":"levelo://app?vid=0304ecc6-252c-4ab0-b54e-b017141415b0","ios":"levelo://app?vid=0304ecc6-252c-4ab0-b54e-b017141415b0"},"vehicle_type_id":"4","last_reported":1751271386,"current_range_meters":8400,"station_id":"ce4bh512rcd13ifvqe2g","pricing_plan_id":"cebpf4jnsgd1na2vs0mg"},{"bike_id":"b636965d-7db1-47cd-adbf-cfced905006a","system_id":"levelo_inurba_marseille","lat":43.21198,"lon":5.35077,"is_reserved":false,"is_disabled":false,"rental_uris":{"android":"levelo://app?vid=b636965d-7db1-47cd-adbf-cfced905006a","ios":"levelo://app?vid=b636965d-7db1-47cd-adbf-cfced905006a"},"vehicle_type_id":"4","last_reported":1751271386,"current_range_meters":8400,"station_id":"st_cvj6sg6p6f1abm77japg","pricing_plan_id":"cebpf4jnsgd1na2vs0mg"},{"bike_id":"cbe8cf16-ee4d-44dc-af26-2dea0d93d494","system_id":"levelo_inurba_marseille","lat":43.337444,"lon":5.374475,"is_reserved":false,"is_disabled":false,"rental_uris":{"android":"levelo://app?vid=cbe8cf16-ee4d-44dc-af26-2dea0d93d494","ios":"levelo://app?vid=cbe8cf16-ee4d-44dc-af26-2dea0d93d494"},"vehicle_type_id":"4","last_reported":1751271386,"current_range_meters":8800,"station_id":"","pricing_plan_id":"cebpf4jnsgd1na2vs0mg"},{"bike_id":"d7d64aa7-3f1c-401a-afb1-2a560f7861c0","system_id":"levelo_inurba_marseille","lat":43.27371,"lon":5.36239,"is_reserved":false,"is_disabled":false,"rental_uris":{"android":"levelo://app?vid=d7d64aa7-3f1c-401a-afb1-2a560f7861c0","ios":"levelo://app?vid=d7d64aa7-3f1c-401a-afb1-2a560f7861c0"},"vehicle_type_id":"4","last_reported":1751271386,"current_range_meters":8800,"station_id":"ce4bhbh2rcd13ifvqeo0","pricing_plan_id":"cebpf4jnsgd1na2vs0mg"},{"bike_id":"bc9cd19a-4171-46af-9727-30eb29b38883","system_id":"levelo_inurba_marseille","lat":43.33603,"lon":5.4103,"is_reserved":false,"is_disabled":false,"rental_uris":{"android":"levelo://app?vid=bc9cd19a-4171-46af-9727-30eb29b38883","ios":"levelo://app?vid=bc9cd19a-4171-46af-9727-30eb29b38883"},"vehicle_type_id":"4","last_reported":1751271386,"current_range_meters":8800,"station_id":"ce4bhqh2rcd13ifvqhmg","pricing_plan_id":"cebpf4jnsgd1na2vs0mg"},{"bike_id":"5581fd5d-9a65-40a4-aa90-7dc253033d26","system_id":"levelo_inurba_marseille","lat":43.22496,"lon":5.34781,"is_reserved":false,"is_disabled":false,"rental_uris":{"android":"levelo://app?vid=5581fd5d-9a65-40a4-aa90-7dc253033d26","ios":"levelo://app?vid=5581fd5d-9a65-40a4-aa90-7dc253033d26"},"vehicle_type_id":"4","last_reported":1751271386,"current_range_meters":8800,"station_id":"st_cvj5dfep6f1abm77gieg","pricing_plan_id":"cebpf4jnsgd1na2vs0mg"},{"bike_id":"9fc6b39a-5532-40ac-8f58-975bced56a19","system_id":"levelo_inurba_marseille","lat":43.325825,"lon":5.40456,"is_reserved":false,"is_disabled":false,"rental_uris":{"android":"levelo://app?vid=9fc6b39a-5532-40ac-8f58-975bced56a19","ios":"levelo://app?vid=9fc6b39a-5532-40ac-8f58-975bced56a19"},"vehicle_type_id":"4","last_reported":1751271386,"current_range_meters":9200,"station_id":"","pricing_plan_id":"cebpf4jnsgd1na2vs0mg"},{"bike_id":"d308c658-b19c-49c0-8014-5506ff26f69a","system_id":"levelo_inurba_marseille","lat":43.23085,"lon":5.40507,"is_reserved":false,"is_disabled":false,"rental_uris":{"android":"levelo://app?vid=d308c658-b19c-49c0-8014-5506ff26f69a","ios":"levelo://app?vid=d308c658-b19c-49c0-8014-5506ff26f69a"},"vehicle_type_id":"4","last_reported":1751271386,"current_range_meters":9200,"station_id":"","pricing_plan_id":"cebpf4jnsgd1na2vs0mg"},{"bike_id":"e219543a-880e-4c38-aff0-63dd83878c8b","system_id":"levelo_inurba_marseille","lat":43.32099,"lon":5.36758,"is_reserved":false,"is_disabled":false,"rental_uris":{"android":"levelo://app?vid=e219543a-880e-4c38-aff0-63dd83878c8b","ios":"levelo://app?vid=e219543a-880e-4c38-aff0-63dd83878c8b"},"vehicle_type_id":"4","last_reported":1751271386,"current_range_meters":9200,"station_id":"ce4bhrh2rcd13ifvqhug","pricing_plan_id":"cebpf4jnsgd1na2vs0mg"},{"bike_id":"940c8448-39b7-4d8b-b4cc-9918765a5bbc","system_id":"levelo_inurba_marseille","lat":43.21173,"lon":5.35066,"is_reserved":false,"is_disabled":false,"rental_uris":{"android":"levelo://app?vid=940c8448-39b7-4d8b-b4cc-9918765a5bbc","ios":"levelo://app?vid=940c8448-39b7-4d8b-b4cc-9918765a5bbc"},"vehicle_type_id":"4","last_reported":1751271386,"current_range_meters":9200,"station_id":"st_cvj6sg6p6f1abm77japg","pricing_plan_id":"cebpf4jnsgd1na2vs0mg"},{"bike_id":"c595d0e1-c778-4abe-9c79-a9dd74f54e27","system_id":"levelo_inurba_marseille","lat":43.24448,"lon":5.3722,"is_reserved":false,"is_disabled":false,"rental_uris":{"android":"levelo://app?vid=c595d0e1-c778-4abe-9c79-a9dd74f54e27","ios":"levelo://app?vid=c595d0e1-c778-4abe-9c79-a9dd74f54e27"},"vehicle_type_id":"4","last_reported":1751271386,"current_range_meters":9600,"station_id":"","pricing_plan_id":"cebpf4jnsgd1na2vs0mg"},{"bike_id":"566a3d0f-1747-4a3f-8180-65816a3d316f","system_id":"levelo_inurba_marseille","lat":43.305389,"lon":5.36723,"is_reserved":false,"is_disabled":false,"rental_uris":{"android":"levelo://app?vid=566a3d0f-1747-4a3f-8180-65816a3d316f","ios":"levelo://app?vid=566a3d0f-1747-4a3f-8180-65816a3d316f"},"vehicle_type_id":"4","last_reported":1751271386,"current_range_meters":9600,"station_id":"ce4bgrp2rcd13ifvqc9g","pricing_plan_id":"cebpf4jnsgd1na2vs0mg"},{"bike_id":"2630b0d7-8518-44a1-b41d-4305f5c2b588","system_id":"levelo_inurba_marseille","lat":43.288553,"lon":5.393204,"is_reserved":false,"is_disabled":false,"rental_uris":{"android":"levelo://app?vid=2630b0d7-8518-44a1-b41d-4305f5c2b588","ios":"levelo://app?vid=2630b0d7-8518-44a1-b41d-4305f5c2b588"},"vehicle_type_id":"4","last_reported":1751271386,"current_range_meters":9600,"station_id":"ce4bh492rcd13ifvqdug","pricing_plan_id":"cebpf4jnsgd1na2vs0mg"},{"bike_id":"cc435fa6-16b3-4dce-a11a-36f677e6660f","system_id":"levelo_inurba_marseille","lat":43.28712,"lon":5.37937,"is_reserved":false,"is_disabled":false,"rental_uris":{"android":"levelo://app?vid=cc435fa6-16b3-4dce-a11a-36f677e6660f","ios":"levelo://app?vid=cc435fa6-16b3-4dce-a11a-36f677e6660f"},"vehicle_type_id":"4","last_reported":1751271386,"current_range_meters":9600,"station_id":"ce4bh9p2rcd13ifvqec0","pricing_plan_id":"cebpf4jnsgd1na2vs0mg"},{"bike_id":"d51d0aed-06ad-4182-9f1a-717c90c1ee70","system_id":"levelo_inurba_marseille","lat":43.25818,"lon":5.39435,"is_reserved":false,"is_disabled":false,"rental_uris":{"android":"levelo://app?vid=d51d0aed-06ad-4182-9f1a-717c90c1ee70","ios":"levelo://app?vid=d51d0aed-06ad-4182-9f1a-717c90c1ee70"},"vehicle_type_id":"4","last_reported":1751271386,"current_range_meters":9600,"station_id":"ce4bhip2rcd13ifvqft0","pricing_plan_id":"cebpf4jnsgd1na2vs0mg"},{"bike_id":"b879504e-c85b-45ea-ab13-dce989cb130f","system_id":"levelo_inurba_marseille","lat":43.32351,"lon":5.36743,"is_reserved":false,"is_disabled":false,"rental_uris":{"android":"levelo://app?vid=b879504e-c85b-45ea-ab13-dce989cb130f","ios":"levelo://app?vid=b879504e-c85b-45ea-ab13-dce989cb130f"},"vehicle_type_id":"4","last_reported":1751271386,"current_range_meters":9600,"station_id":"ce4bhsh2rcd13ifvqi2g","pricing_plan_id":"cebpf4jnsgd1na2vs0mg"},{"bike_id":"05d3d448-235e-4ac7-88df-050f15d5a616","system_id":"levelo_inurba_marseille","lat":43.27911,"lon":5.42221,"is_reserved":false,"is_disabled":false,"rental_uris":{"android":"levelo://app?vid=05d3d448-235e-4ac7-88df-050f15d5a616","ios":"levelo://app?vid=05d3d448-235e-4ac7-88df-050f15d5a616"},"vehicle_type_id":"4","last_reported":1751271386,"current_range_meters":10000,"station_id":"","pricing_plan_id":"cebpf4jnsgd1na2vs0mg"},{"bike_id":"3408ff0d-b731-4fc5-a65c-51c0c6d5a5e4","system_id":"levelo_inurba_marseille","lat":43.2958,"lon":5.36744,"is_reserved":false,"is_disabled":false,"rental_uris":{"android":"levelo://app?vid=3408ff0d-b731-4fc5-a65c-51c0c6d5a5e4","ios":"levelo://app?vid=3408ff0d-b731-4fc5-a65c-51c0c6d5a5e4"},"vehicle_type_id":"4","last_reported":1751271386,"current_range_meters":10000,"station_id":"ce4bgph2rcd13ifvqc2g","pricing_plan_id":"cebpf4jnsgd1na2vs0mg"},{"bike_id":"29224259-329f-4f67-ac68-32eed89b18a1","system_id":"levelo_inurba_marseille","lat":43.21176,"lon":5.35088,"is_reserved":false,"is_disabled":false,"rental_uris":{"android":"levelo://app?vid=29224259-329f-4f67-ac68-32eed89b18a1","ios":"levelo://app?vid=29224259-329f-4f67-ac68-32eed89b18a1"},"vehicle_type_id":"4","last_reported":1751271386,"current_range_meters":10000,"station_id":"st_cvj6sg6p6f1abm77japg","pricing_plan_id":"cebpf4jnsgd1na2vs0mg"},{"bike_id":"120036e1-945c-4ddf-ba61-047361af53a6","system_id":"levelo_inurba_marseille","lat":43.21198,"lon":5.35057,"is_reserved":false,"is_disabled":false,"rental_uris":{"android":"levelo://app?vid=120036e1-945c-4ddf-ba61-047361af53a6","ios":"levelo://app?vid=120036e1-945c-4ddf-ba61-047361af53a6"},"vehicle_type_id":"4","last_reported":1751271386,"current_range_meters":10000,"station_id":"st_cvj6sg6p6f1abm77japg","pricing_plan_id":"cebpf4jnsgd1na2vs0mg"},{"bike_id":"7b47b272-fbf3-4098-ac79-c3a56cb95ee9","system_id":"levelo_inurba_marseille","lat":43.244727,"lon":5.37262,"is_reserved":false,"is_disabled":false,"rental_uris":{"android":"levelo://app?vid=7b47b272-fbf3-4098-ac79-c3a56cb95ee9","ios":"levelo://app?vid=7b47b272-fbf3-4098-ac79-c3a56cb95ee9"},"vehicle_type_id":"4","last_reported":1751271386,"current_range_meters":10800,"station_id":"","pricing_plan_id":"cebpf4jnsgd1na2vs0mg"},{"bike_id":"cb7cc1d4-a220-497f-83a8-daf77c9fd783","system_id":"levelo_inurba_marseille","lat":43.26681,"lon":5.38265,"is_reserved":false,"is_disabled":false,"rental_uris":{"android":"levelo://app?vid=cb7cc1d4-a220-497f-83a8-daf77c9fd783","ios":"levelo://app?vid=cb7cc1d4-a220-497f-83a8-daf77c9fd783"},"vehicle_type_id":"4","last_reported":1751271386,"current_range_meters":10800,"station_id":"ce4bhg92rcd13ifvqf90","pricing_plan_id":"cebpf4jnsgd1na2vs0mg"},{"bike_id":"78621625-9034-4586-9ea3-4cacfcec4505","system_id":"levelo_inurba_marseille","lat":43.25708,"lon":5.41098,"is_reserved":false,"is_disabled":false,"rental_uris":{"android":"levelo://app?vid=78621625-9034-4586-9ea3-4cacfcec4505","ios":"levelo://app?vid=78621625-9034-4586-9ea3-4cacfcec4505"},"vehicle_type_id":"4","last_reported":1751271386,"current_range_meters":10800,"station_id":"ce4bhkp2rcd13ifvqgd0","pricing_plan_id":"cebpf4jnsgd1na2vs0mg"},{"bike_id":"eab52660-9b10-45fa-ab53-31f8266abce3","system_id":"levelo_inurba_marseille","lat":43.24174,"lon":5.397028,"is_reserved":false,"is_disabled":false,"rental_uris":{"android":"levelo://app?vid=eab52660-9b10-45fa-ab53-31f8266abce3","ios":"levelo://app?vid=eab52660-9b10-45fa-ab53-31f8266abce3"},"vehicle_type_id":"4","last_reported":1751271386,"current_range_meters":10800,"station_id":"ce4bhn12rcd13ifvqgpg","pricing_plan_id":"cebpf4jnsgd1na2vs0mg"},{"bike_id":"761f7a97-5f6f-4f61-92c5-de6e9123cf16","system_id":"levelo_inurba_marseille","lat":43.299077,"lon":5.436777,"is_reserved":false,"is_disabled":false,"rental_uris":{"android":"levelo://app?vid=761f7a97-5f6f-4f61-92c5-de6e9123cf16","ios":"levelo://app?vid=761f7a97-5f6f-4f61-92c5-de6e9123cf16"},"vehicle_type_id":"4","last_reported":1751271386,"current_range_meters":10800,"station_id":"ce4bhpp2rcd13ifvqhfg","pricing_plan_id":"cebpf4jnsgd1na2vs0mg"},{"bike_id":"3035be0e-7c3d-4f7d-a1cb-7a1af59e497b","system_id":"levelo_inurba_marseille","lat":43.29644,"lon":5.36007,"is_reserved":false,"is_disabled":false,"rental_uris":{"android":"levelo://app?vid=3035be0e-7c3d-4f7d-a1cb-7a1af59e497b","ios":"levelo://app?vid=3035be0e-7c3d-4f7d-a1cb-7a1af59e497b"},"vehicle_type_id":"4","last_reported":1751271386,"current_range_meters":11200,"station_id":"","pricing_plan_id":"cebpf4jnsgd1na2vs0mg"},{"bike_id":"9ba2576a-891c-4d89-ae8d-6e49977eea3f","system_id":"levelo_inurba_marseille","lat":43.30533,"lon":5.36705,"is_reserved":false,"is_disabled":false,"rental_uris":{"android":"levelo://app?vid=9ba2576a-891c-4d89-ae8d-6e49977eea3f","ios":"levelo://app?vid=9ba2576a-891c-4d89-ae8d-6e49977eea3f"},"vehicle_type_id":"4","last_reported":1751271386,"current_range_meters":11200,"station_id":"ce4bgrp2rcd13ifvqc9g","pricing_plan_id":"cebpf4jnsgd1na2vs0mg"},{"bike_id":"221aa6a4-1358-49bc-8650-d584efc1651b","system_id":"levelo_inurba_marseille","lat":43.30011,"lon":5.38699,"is_reserved":false,"is_disabled":false,"rental_uris":{"android":"levelo://app?vid=221aa6a4-1358-49bc-8650-d584efc1651b","ios":"levelo://app?vid=221aa6a4-1358-49bc-8650-d584efc1651b"},"vehicle_type_id":"4","last_reported":1751271386,"current_range_meters":11600,"station_id":"","pricing_plan_id":"cebpf4jnsgd1na2vs0mg"},{"bike_id":"78284af2-bf69-4fd5-b7d0-bf87d4b01869","system_id":"levelo_inurba_marseille","lat":43.31235,"lon":5.36858,"is_reserved":false,"is_disabled":false,"rental_uris":{"android":"levelo://app?vid=78284af2-bf69-4fd5-b7d0-bf87d4b01869","ios":"levelo://app?vid=78284af2-bf69-4fd5-b7d0-bf87d4b01869"},"vehicle_type_id":"4","last_reported":1751271386,"current_range_meters":11600,"station_id":"ce4bgl92rcd13ifvqbq0","pricing_plan_id":"cebpf4jnsgd1na2vs0mg"},{"bike_id":"0507b598-4eae-410f-a07c-1b9b906cf382","system_id":"levelo_inurba_marseille","lat":43.275743,"lon":5.383965,"is_reserved":false,"is_disabled":false,"rental_uris":{"android":"levelo://app?vid=0507b598-4eae-410f-a07c-1b9b906cf382","ios":"levelo://app?vid=0507b598-4eae-410f-a07c-1b9b906cf382"},"vehicle_type_id":"4","last_reported":1751271386,"current_range_meters":11600,"station_id":"ce4bhh92rcd13ifvqfi0","pricing_plan_id":"cebpf4jnsgd1na2vs0mg"},{"bike_id":"d03eec7b-097f-4720-9e49-962f2a4897f6","system_id":"levelo_inurba_marseille","lat":43.231906,"lon":5.399856,"is_reserved":false,"is_disabled":false,"rental_uris":{"android":"levelo://app?vid=d03eec7b-097f-4720-9e49-962f2a4897f6","ios":"levelo://app?vid=d03eec7b-097f-4720-9e49-962f2a4897f6"},"vehicle_type_id":"4","last_reported":1751271386,"current_range_meters":11600,"station_id":"ce4bhn12rcd13ifvqgqg","pricing_plan_id":"cebpf4jnsgd1na2vs0mg"},{"bike_id":"4d55d283-e702-4450-976e-18449a371b6b","system_id":"levelo_inurba_marseille","lat":43.28151,"lon":5.42639,"is_reserved":false,"is_disabled":false,"rental_uris":{"android":"levelo://app?vid=4d55d283-e702-4450-976e-18449a371b6b","ios":"levelo://app?vid=4d55d283-e702-4450-976e-18449a371b6b"},"vehicle_type_id":"4","last_reported":1751271386,"current_range_meters":11600,"station_id":"ce4bhnh2rcd13ifvqgug","pricing_plan_id":"cebpf4jnsgd1na2vs0mg"},{"bike_id":"acca692d-8d39-459c-a574-7087df4141fc","system_id":"levelo_inurba_marseille","lat":43.31498,"lon":5.373,"is_reserved":false,"is_disabled":false,"rental_uris":{"android":"levelo://app?vid=acca692d-8d39-459c-a574-7087df4141fc","ios":"levelo://app?vid=acca692d-8d39-459c-a574-7087df4141fc"},"vehicle_type_id":"4","last_reported":1751271386,"current_range_meters":12000,"station_id":"ce4bgt12rcd13ifvqcd0","pricing_plan_id":"cebpf4jnsgd1na2vs0mg"},{"bike_id":"05ef3f4f-8684-4455-832e-232ced61a8fd","system_id":"levelo_inurba_marseille","lat":43.28997,"lon":5.35607,"is_reserved":false,"is_disabled":false,"rental_uris":{"android":"levelo://app?vid=05ef3f4f-8684-4455-832e-232ced61a8fd","ios":"levelo://app?vid=05ef3f4f-8684-4455-832e-232ced61a8fd"},"vehicle_type_id":"4","last_reported":1751271386,"current_range_meters":12000,"station_id":"ce4bhb92rcd13ifvqen0","pricing_plan_id":"cebpf4jnsgd1na2vs0mg"},{"bike_id":"dea7145e-0dd5-4e2b-b19c-8c39cb24e35c","system_id":"levelo_inurba_marseille","lat":43.27181,"lon":5.39165,"is_reserved":false,"is_disabled":false,"rental_uris":{"android":"levelo://app?vid=dea7145e-0dd5-4e2b-b19c-8c39cb24e35c","ios":"levelo://app?vid=dea7145e-0dd5-4e2b-b19c-8c39cb24e35c"},"vehicle_type_id":"4","last_reported":1751271386,"current_range_meters":12000,"station_id":"ce4bhhp2rcd13ifvqfm0","pricing_plan_id":"cebpf4jnsgd1na2vs0mg"},{"bike_id":"e7641e58-176f-485d-9342-129003cdc52b","system_id":"levelo_inurba_marseille","lat":43.321056,"lon":5.367754,"is_reserved":false,"is_disabled":false,"rental_uris":{"android":"levelo://app?vid=e7641e58-176f-485d-9342-129003cdc52b","ios":"levelo://app?vid=e7641e58-176f-485d-9342-129003cdc52b"},"vehicle_type_id":"4","last_reported":1751271386,"current_range_meters":12000,"station_id":"ce4bhrh2rcd13ifvqhug","pricing_plan_id":"cebpf4jnsgd1na2vs0mg"},{"bike_id":"bf24b26e-7f51-4120-9a48-54c87edaa2f7","system_id":"levelo_inurba_marseille","lat":43.21184,"lon":5.3507,"is_reserved":false,"is_disabled":false,"rental_uris":{"android":"levelo://app?vid=bf24b26e-7f51-4120-9a48-54c87edaa2f7","ios":"levelo://app?vid=bf24b26e-7f51-4120-9a48-54c87edaa2f7"},"vehicle_type_id":"4","last_reported":1751271386,"current_range_meters":12000,"station_id":"st_cvj6sg6p6f1abm77japg","pricing_plan_id":"cebpf4jnsgd1na2vs0mg"},{"bike_id":"786f230b-598f-4e58-bbc2-1e0a419e9de2","system_id":"levelo_inurba_marseille","lat":43.264723,"lon":5.39239,"is_reserved":false,"is_disabled":false,"rental_uris":{"android":"levelo://app?vid=786f230b-598f-4e58-bbc2-1e0a419e9de2","ios":"levelo://app?vid=786f230b-598f-4e58-bbc2-1e0a419e9de2"},"vehicle_type_id":"4","last_reported":1751271386,"current_range_meters":12400,"station_id":"","pricing_plan_id":"cebpf4jnsgd1na2vs0mg"},{"bike_id":"7cd73daf-6410-4b72-a872-e5224e9d29ff","system_id":"levelo_inurba_marseille","lat":43.27419,"lon":5.41155,"is_reserved":false,"is_disabled":false,"rental_uris":{"android":"levelo://app?vid=7cd73daf-6410-4b72-a872-e5224e9d29ff","ios":"levelo://app?vid=7cd73daf-6410-4b72-a872-e5224e9d29ff"},"vehicle_type_id":"4","last_reported":1751271386,"current_range_meters":12400,"station_id":"","pricing_plan_id":"cebpf4jnsgd1na2vs0mg"},{"bike_id":"b05ac08d-847b-4f20-ac36-038a0d69d167","system_id":"levelo_inurba_marseille","lat":43.28138,"lon":5.35857,"is_reserved":false,"is_disabled":false,"rental_uris":{"android":"levelo://app?vid=b05ac08d-847b-4f20-ac36-038a0d69d167","ios":"levelo://app?vid=b05ac08d-847b-4f20-ac36-038a0d69d167"},"vehicle_type_id":"4","last_reported":1751271386,"current_range_meters":12400,"station_id":"","pricing_plan_id":"cebpf4jnsgd1na2vs0mg"},{"bike_id":"f5c16f07-bc6f-4121-91a7-5ad90eec4f34","system_id":"levelo_inurba_marseille","lat":43.312015,"lon":5.373408,"is_reserved":false,"is_disabled":false,"rental_uris":{"android":"levelo://app?vid=f5c16f07-bc6f-4121-91a7-5ad90eec4f34","ios":"levelo://app?vid=f5c16f07-bc6f-4121-91a7-5ad90eec4f34"},"vehicle_type_id":"4","last_reported":1751271386,"current_range_meters":12400,"station_id":"","pricing_plan_id":"cebpf4jnsgd1na2vs0mg"},{"bike_id":"d2e7cf40-24ec-4a8e-964c-faccda35141b","system_id":"levelo_inurba_marseille","lat":43.29168,"lon":5.37161,"is_reserved":false,"is_disabled":false,"rental_uris":{"android":"levelo://app?vid=d2e7cf40-24ec-4a8e-964c-faccda35141b","ios":"levelo://app?vid=d2e7cf40-24ec-4a8e-964c-faccda35141b"},"vehicle_type_id":"4","last_reported":1751271386,"current_range_meters":12400,"station_id":"ce4bha92rcd13ifvqeh0","pricing_plan_id":"cebpf4jnsgd1na2vs0mg"},{"bike_id":"0f6fc5c7-2516-476c-9abc-465c0f659ec4","system_id":"levelo_inurba_marseille","lat":43.24999,"lon":5.38929,"is_reserved":false,"is_disabled":false,"rental_uris":{"android":"levelo://app?vid=0f6fc5c7-2516-476c-9abc-465c0f659ec4","ios":"levelo://app?vid=0f6fc5c7-2516-476c-9abc-465c0f659ec4"},"vehicle_type_id":"4","last_reported":1751271386,"current_range_meters":12400,"station_id":"ce4bhgp2rcd13ifvqfd0","pricing_plan_id":"cebpf4jnsgd1na2vs0mg"},{"bike_id":"9eae0021-35c2-4b62-8be4-ca85ffe2a4dd","system_id":"levelo_inurba_marseille","lat":43.26057,"lon":5.39398,"is_reserved":false,"is_disabled":false,"rental_uris":{"android":"levelo://app?vid=9eae0021-35c2-4b62-8be4-ca85ffe2a4dd","ios":"levelo://app?vid=9eae0021-35c2-4b62-8be4-ca85ffe2a4dd"},"vehicle_type_id":"4","last_reported":1751271386,"current_range_meters":12400,"station_id":"ce4bhh92rcd13ifvqfj0","pricing_plan_id":"cebpf4jnsgd1na2vs0mg"},{"bike_id":"fc92e15b-dbbd-4c08-862e-67528212cf8c","system_id":"levelo_inurba_marseille","lat":43.24177,"lon":5.39734,"is_reserved":false,"is_disabled":false,"rental_uris":{"android":"levelo://app?vid=fc92e15b-dbbd-4c08-862e-67528212cf8c","ios":"levelo://app?vid=fc92e15b-dbbd-4c08-862e-67528212cf8c"},"vehicle_type_id":"4","last_reported":1751271386,"current_range_meters":12400,"station_id":"ce4bhn12rcd13ifvqgpg","pricing_plan_id":"cebpf4jnsgd1na2vs0mg"},{"bike_id":"61e91bdf-ff85-4388-95f6-8debd4920448","system_id":"levelo_inurba_marseille","lat":43.2319,"lon":5.35553,"is_reserved":false,"is_disabled":false,"rental_uris":{"android":"levelo://app?vid=61e91bdf-ff85-4388-95f6-8debd4920448","ios":"levelo://app?vid=61e91bdf-ff85-4388-95f6-8debd4920448"},"vehicle_type_id":"4","last_reported":1751271386,"current_range_meters":12400,"station_id":"ce4bhu92rcd13ifvqi70","pricing_plan_id":"cebpf4jnsgd1na2vs0mg"},{"bike_id":"5eb8c461-02bb-4c09-9bbd-745d7554882b","system_id":"levelo_inurba_marseille","lat":43.30424,"lon":5.38885,"is_reserved":false,"is_disabled":false,"rental_uris":{"android":"levelo://app?vid=5eb8c461-02bb-4c09-9bbd-745d7554882b","ios":"levelo://app?vid=5eb8c461-02bb-4c09-9bbd-745d7554882b"},"vehicle_type_id":"4","last_reported":1751271386,"current_range_meters":12800,"station_id":"ce4bgk12rcd13ifvqbi0","pricing_plan_id":"cebpf4jnsgd1na2vs0mg"},{"bike_id":"7a8237fd-7d9a-4854-ab9e-72ad004de862","system_id":"levelo_inurba_marseille","lat":43.3013,"lon":5.37405,"is_reserved":false,"is_disabled":false,"rental_uris":{"android":"levelo://app?vid=7a8237fd-7d9a-4854-ab9e-72ad004de862","ios":"levelo://app?vid=7a8237fd-7d9a-4854-ab9e-72ad004de862"},"vehicle_type_id":"4","last_reported":1751271386,"current_range_meters":12800,"station_id":"ce4bgs92rcd13ifvqcc0","pricing_plan_id":"cebpf4jnsgd1na2vs0mg"},{"bike_id":"e3034539-756f-43f1-b753-6b47a51b639f","system_id":"levelo_inurba_marseille","lat":43.26028,"lon":5.37552,"is_reserved":false,"is_disabled":false,"rental_uris":{"android":"levelo://app?vid=e3034539-756f-43f1-b753-6b47a51b639f","ios":"levelo://app?vid=e3034539-756f-43f1-b753-6b47a51b639f"},"vehicle_type_id":"4","last_reported":1751271386,"current_range_meters":12800,"station_id":"ce4bhgh2rcd13ifvqfa0","pricing_plan_id":"cebpf4jnsgd1na2vs0mg"},{"bike_id":"0574b8ad-8689-4fa6-9257-d48dff7d91ff","system_id":"levelo_inurba_marseille","lat":43.26784,"lon":5.39403,"is_reserved":false,"is_disabled":false,"rental_uris":{"android":"levelo://app?vid=0574b8ad-8689-4fa6-9257-d48dff7d91ff","ios":"levelo://app?vid=0574b8ad-8689-4fa6-9257-d48dff7d91ff"},"vehicle_type_id":"4","last_reported":1751271386,"current_range_meters":12800,"station_id":"ce4bhh12rcd13ifvqfg0","pricing_plan_id":"cebpf4jnsgd1na2vs0mg"},{"bike_id":"7f071c7d-3984-4e8e-a6e3-b4116a4673de","system_id":"levelo_inurba_marseille","lat":43.24387,"lon":5.37058,"is_reserved":false,"is_disabled":false,"rental_uris":{"android":"levelo://app?vid=7f071c7d-3984-4e8e-a6e3-b4116a4673de","ios":"levelo://app?vid=7f071c7d-3984-4e8e-a6e3-b4116a4673de"},"vehicle_type_id":"4","last_reported":1751271386,"current_range_meters":12800,"station_id":"ce4bhhh2rcd13ifvqfk0","pricing_plan_id":"cebpf4jnsgd1na2vs0mg"},{"bike_id":"be31c774-7e82-4ba5-a865-9e5eca957a7d","system_id":"levelo_inurba_marseille","lat":43.28768,"lon":5.37946,"is_reserved":false,"is_disabled":false,"rental_uris":{"android":"levelo://app?vid=be31c774-7e82-4ba5-a865-9e5eca957a7d","ios":"levelo://app?vid=be31c774-7e82-4ba5-a865-9e5eca957a7d"},"vehicle_type_id":"4","last_reported":1751271386,"current_range_meters":13600,"station_id":"","pricing_plan_id":"cebpf4jnsgd1na2vs0mg"},{"bike_id":"5243cf43-ff06-4c10-bea4-8ea1926bb053","system_id":"levelo_inurba_marseille","lat":43.30881,"lon":5.37191,"is_reserved":false,"is_disabled":false,"rental_uris":{"android":"levelo://app?vid=5243cf43-ff06-4c10-bea4-8ea1926bb053","ios":"levelo://app?vid=5243cf43-ff06-4c10-bea4-8ea1926bb053"},"vehicle_type_id":"4","last_reported":1751271386,"current_range_meters":13600,"station_id":"ce4bguh2rcd13ifvqckg","pricing_plan_id":"cebpf4jnsgd1na2vs0mg"},{"bike_id":"fddf0154-c977-4406-8011-7a7c1f5e0eb0","system_id":"levelo_inurba_marseille","lat":43.284198,"lon":5.349964,"is_reserved":false,"is_disabled":false,"rental_uris":{"android":"levelo://app?vid=fddf0154-c977-4406-8011-7a7c1f5e0eb0","ios":"levelo://app?vid=fddf0154-c977-4406-8011-7a7c1f5e0eb0"},"vehicle_type_id":"4","last_reported":1751271386,"current_range_meters":13600,"station_id":"ce4bhbh2rcd13ifvqepg","pricing_plan_id":"cebpf4jnsgd1na2vs0mg"},{"bike_id":"6b6a646f-e1ae-4138-9055-a2e578c870cb","system_id":"levelo_inurba_marseille","lat":43.21737,"lon":5.34603,"is_reserved":false,"is_disabled":false,"rental_uris":{"android":"levelo://app?vid=6b6a646f-e1ae-4138-9055-a2e578c870cb","ios":"levelo://app?vid=6b6a646f-e1ae-4138-9055-a2e578c870cb"},"vehicle_type_id":"4","last_reported":1751271386,"current_range_meters":13600,"station_id":"st_cvj6r9ubvosntc0bgbag","pricing_plan_id":"cebpf4jnsgd1na2vs0mg"},{"bike_id":"2a7d4522-b0dd-48c1-8653-7a6d0e58cc43","system_id":"levelo_inurba_marseille","lat":43.32086,"lon":5.4011,"is_reserved":false,"is_disabled":false,"rental_uris":{"android":"levelo://app?vid=2a7d4522-b0dd-48c1-8653-7a6d0e58cc43","ios":"levelo://app?vid=2a7d4522-b0dd-48c1-8653-7a6d0e58cc43"},"vehicle_type_id":"4","last_reported":1751271386,"current_range_meters":14000,"station_id":"","pricing_plan_id":"cebpf4jnsgd1na2vs0mg"},{"bike_id":"7dc148e5-fd7e-4677-bce3-55c94c6ee080","system_id":"levelo_inurba_marseille","lat":43.30684,"lon":5.40909,"is_reserved":false,"is_disabled":false,"rental_uris":{"android":"levelo://app?vid=7dc148e5-fd7e-4677-bce3-55c94c6ee080","ios":"levelo://app?vid=7dc148e5-fd7e-4677-bce3-55c94c6ee080"},"vehicle_type_id":"4","last_reported":1751271386,"current_range_meters":14000,"station_id":"","pricing_plan_id":"cebpf4jnsgd1na2vs0mg"},{"bike_id":"0b5cda5b-6f81-4549-a623-4ee2c6a2f04a","system_id":"levelo_inurba_marseille","lat":43.31217,"lon":5.36848,"is_reserved":false,"is_disabled":false,"rental_uris":{"android":"levelo://app?vid=0b5cda5b-6f81-4549-a623-4ee2c6a2f04a","ios":"levelo://app?vid=0b5cda5b-6f81-4549-a623-4ee2c6a2f04a"},"vehicle_type_id":"4","last_reported":1751271386,"current_range_meters":14000,"station_id":"ce4bgl92rcd13ifvqbq0","pricing_plan_id":"cebpf4jnsgd1na2vs0mg"},{"bike_id":"50d869e6-7fbb-4182-9936-2cbd2e0ba23a","system_id":"levelo_inurba_marseille","lat":43.28609,"lon":5.37073,"is_reserved":false,"is_disabled":false,"rental_uris":{"android":"levelo://app?vid=50d869e6-7fbb-4182-9936-2cbd2e0ba23a","ios":"levelo://app?vid=50d869e6-7fbb-4182-9936-2cbd2e0ba23a"},"vehicle_type_id":"4","last_reported":1751271386,"current_range_meters":14000,"station_id":"ce4bht12rcd13ifvqi60","pricing_plan_id":"cebpf4jnsgd1na2vs0mg"},{"bike_id":"ba926bfc-9632-4680-b0ed-32a040d6fb83","system_id":"levelo_inurba_marseille","lat":43.211908,"lon":5.350754,"is_reserved":false,"is_disabled":false,"rental_uris":{"android":"levelo://app?vid=ba926bfc-9632-4680-b0ed-32a040d6fb83","ios":"levelo://app?vid=ba926bfc-9632-4680-b0ed-32a040d6fb83"},"vehicle_type_id":"4","last_reported":1751271386,"current_range_meters":14000,"station_id":"st_cvj6sg6p6f1abm77japg","pricing_plan_id":"cebpf4jnsgd1na2vs0mg"},{"bike_id":"452e8211-4f44-45d0-814a-3e9e25b8c44e","system_id":"levelo_inurba_marseille","lat":43.211916,"lon":5.350742,"is_reserved":false,"is_disabled":false,"rental_uris":{"android":"levelo://app?vid=452e8211-4f44-45d0-814a-3e9e25b8c44e","ios":"levelo://app?vid=452e8211-4f44-45d0-814a-3e9e25b8c44e"},"vehicle_type_id":"4","last_reported":1751271386,"current_range_meters":14000,"station_id":"st_cvj6sg6p6f1abm77japg","pricing_plan_id":"cebpf4jnsgd1na2vs0mg"},{"bike_id":"5be1a4b5-3e1e-4bcd-9477-5aee0b89f062","system_id":"levelo_inurba_marseille","lat":43.278437,"lon":5.354549,"is_reserved":false,"is_disabled":false,"rental_uris":{"android":"levelo://app?vid=5be1a4b5-3e1e-4bcd-9477-5aee0b89f062","ios":"levelo://app?vid=5be1a4b5-3e1e-4bcd-9477-5aee0b89f062"},"vehicle_type_id":"4","last_reported":1751271386,"current_range_meters":14400,"station_id":"","pricing_plan_id":"cebpf4jnsgd1na2vs0mg"},{"bike_id":"653b9a12-7809-4678-b984-60ff8e76f4c1","system_id":"levelo_inurba_marseille","lat":43.29271,"lon":5.36852,"is_reserved":false,"is_disabled":false,"rental_uris":{"android":"levelo://app?vid=653b9a12-7809-4678-b984-60ff8e76f4c1","ios":"levelo://app?vid=653b9a12-7809-4678-b984-60ff8e76f4c1"},"vehicle_type_id":"4","last_reported":1751271386,"current_range_meters":14400,"station_id":"ce4bhbp2rcd13ifvqesg","pricing_plan_id":"cebpf4jnsgd1na2vs0mg"},{"bike_id":"eceb2c3c-f0b2-40bb-b79f-4349c99410a1","system_id":"levelo_inurba_marseille","lat":43.25721,"lon":5.41063,"is_reserved":false,"is_disabled":false,"rental_uris":{"android":"levelo://app?vid=eceb2c3c-f0b2-40bb-b79f-4349c99410a1","ios":"levelo://app?vid=eceb2c3c-f0b2-40bb-b79f-4349c99410a1"},"vehicle_type_id":"4","last_reported":1751271386,"current_range_meters":14400,"station_id":"ce4bhkp2rcd13ifvqgd0","pricing_plan_id":"cebpf4jnsgd1na2vs0mg"},{"bike_id":"ceb818d5-6a0e-45de-8d40-c9c1b19d5e60","system_id":"levelo_inurba_marseille","lat":43.32352,"lon":5.36752,"is_reserved":false,"is_disabled":false,"rental_uris":{"android":"levelo://app?vid=ceb818d5-6a0e-45de-8d40-c9c1b19d5e60","ios":"levelo://app?vid=ceb818d5-6a0e-45de-8d40-c9c1b19d5e60"},"vehicle_type_id":"4","last_reported":1751271386,"current_range_meters":14400,"station_id":"ce4bhsh2rcd13ifvqi2g","pricing_plan_id":"cebpf4jnsgd1na2vs0mg"},{"bike_id":"6b352fdb-4980-452d-9441-954a1a4f7cc1","system_id":"levelo_inurba_marseille","lat":43.295765,"lon":5.374973,"is_reserved":false,"is_disabled":false,"rental_uris":{"android":"levelo://app?vid=6b352fdb-4980-452d-9441-954a1a4f7cc1","ios":"levelo://app?vid=6b352fdb-4980-452d-9441-954a1a4f7cc1"},"vehicle_type_id":"4","last_reported":1751271386,"current_range_meters":14800,"station_id":"ce4bgh92rcd13ifvqb50","pricing_plan_id":"cebpf4jnsgd1na2vs0mg"},{"bike_id":"f5a5daea-23a6-4634-b172-55ba97a9bbfb","system_id":"levelo_inurba_marseille","lat":43.26556,"lon":5.372872,"is_reserved":false,"is_disabled":false,"rental_uris":{"android":"levelo://app?vid=f5a5daea-23a6-4634-b172-55ba97a9bbfb","ios":"levelo://app?vid=f5a5daea-23a6-4634-b172-55ba97a9bbfb"},"vehicle_type_id":"4","last_reported":1751271386,"current_range_meters":14800,"station_id":"ce4bhg12rcd13ifvqf70","pricing_plan_id":"cebpf4jnsgd1na2vs0mg"},{"bike_id":"37b84a38-055a-4a6e-a56a-8ff3d0c1b2ec","system_id":"levelo_inurba_marseille","lat":43.21197,"lon":5.35065,"is_reserved":false,"is_disabled":false,"rental_uris":{"android":"levelo://app?vid=37b84a38-055a-4a6e-a56a-8ff3d0c1b2ec","ios":"levelo://app?vid=37b84a38-055a-4a6e-a56a-8ff3d0c1b2ec"},"vehicle_type_id":"4","last_reported":1751271386,"current_range_meters":14800,"station_id":"st_cvj6sg6p6f1abm77japg","pricing_plan_id":"cebpf4jnsgd1na2vs0mg"},{"bike_id":"5f470112-8139-4343-b082-08a74e0b7074","system_id":"levelo_inurba_marseille","lat":43.211911,"lon":5.350767,"is_reserved":false,"is_disabled":false,"rental_uris":{"android":"levelo://app?vid=5f470112-8139-4343-b082-08a74e0b7074","ios":"levelo://app?vid=5f470112-8139-4343-b082-08a74e0b7074"},"vehicle_type_id":"4","last_reported":1751271386,"current_range_meters":14800,"station_id":"st_cvj6sg6p6f1abm77japg","pricing_plan_id":"cebpf4jnsgd1na2vs0mg"},{"bike_id":"1ac664aa-f2a4-4b75-879f-dcb93272d133","system_id":"levelo_inurba_marseille","lat":43.32037,"lon":5.40936,"is_reserved":false,"is_disabled":false,"rental_uris":{"android":"levelo://app?vid=1ac664aa-f2a4-4b75-879f-dcb93272d133","ios":"levelo://app?vid=1ac664aa-f2a4-4b75-879f-dcb93272d133"},"vehicle_type_id":"4","last_reported":1751271386,"current_range_meters":15200,"station_id":"","pricing_plan_id":"cebpf4jnsgd1na2vs0mg"},{"bike_id":"b3cff59b-38b6-4818-ad8e-77767419cac1","system_id":"levelo_inurba_marseille","lat":43.29908,"lon":5.37461,"is_reserved":false,"is_disabled":false,"rental_uris":{"android":"levelo://app?vid=b3cff59b-38b6-4818-ad8e-77767419cac1","ios":"levelo://app?vid=b3cff59b-38b6-4818-ad8e-77767419cac1"},"vehicle_type_id":"4","last_reported":1751271386,"current_range_meters":15200,"station_id":"ce4bgjh2rcd13ifvqbg0","pricing_plan_id":"cebpf4jnsgd1na2vs0mg"},{"bike_id":"f8fc5d63-f764-4639-9a1f-5b55ff2bc363","system_id":"levelo_inurba_marseille","lat":43.31883,"lon":5.40728,"is_reserved":false,"is_disabled":false,"rental_uris":{"android":"levelo://app?vid=f8fc5d63-f764-4639-9a1f-5b55ff2bc363","ios":"levelo://app?vid=f8fc5d63-f764-4639-9a1f-5b55ff2bc363"},"vehicle_type_id":"4","last_reported":1751271386,"current_range_meters":15200,"station_id":"ce4bhq12rcd13ifvqhig","pricing_plan_id":"cebpf4jnsgd1na2vs0mg"},{"bike_id":"3eabe1e2-f9f5-41cb-a4ed-73ca7f909c5c","system_id":"levelo_inurba_marseille","lat":43.21191,"lon":5.35074,"is_reserved":false,"is_disabled":false,"rental_uris":{"android":"levelo://app?vid=3eabe1e2-f9f5-41cb-a4ed-73ca7f909c5c","ios":"levelo://app?vid=3eabe1e2-f9f5-41cb-a4ed-73ca7f909c5c"},"vehicle_type_id":"4","last_reported":1751271386,"current_range_meters":15200,"station_id":"st_cvj6sg6p6f1abm77japg","pricing_plan_id":"cebpf4jnsgd1na2vs0mg"},{"bike_id":"1522008c-40da-486d-bdf7-c9e216fa39c2","system_id":"levelo_inurba_marseille","lat":43.29295,"lon":5.37461,"is_reserved":false,"is_disabled":false,"rental_uris":{"android":"levelo://app?vid=1522008c-40da-486d-bdf7-c9e216fa39c2","ios":"levelo://app?vid=1522008c-40da-486d-bdf7-c9e216fa39c2"},"vehicle_type_id":"4","last_reported":1751271386,"current_range_meters":16000,"station_id":"ce4bgi12rcd13ifvqb70","pricing_plan_id":"cebpf4jnsgd1na2vs0mg"},{"bike_id":"e2b4f3b4-fe0a-4fac-840d-7e400d81f457","system_id":"levelo_inurba_marseille","lat":43.29795,"lon":5.38109,"is_reserved":false,"is_disabled":false,"rental_uris":{"android":"levelo://app?vid=e2b4f3b4-fe0a-4fac-840d-7e400d81f457","ios":"levelo://app?vid=e2b4f3b4-fe0a-4fac-840d-7e400d81f457"},"vehicle_type_id":"4","last_reported":1751271386,"current_range_meters":16000,"station_id":"ce4bgip2rcd13ifvqbb0","pricing_plan_id":"cebpf4jnsgd1na2vs0mg"},{"bike_id":"b6941871-17ec-4dc8-9dbe-bf1e08f324ad","system_id":"levelo_inurba_marseille","lat":43.31227,"lon":5.36885,"is_reserved":false,"is_disabled":false,"rental_uris":{"android":"levelo://app?vid=b6941871-17ec-4dc8-9dbe-bf1e08f324ad","ios":"levelo://app?vid=b6941871-17ec-4dc8-9dbe-bf1e08f324ad"},"vehicle_type_id":"4","last_reported":1751271386,"current_range_meters":16000,"station_id":"ce4bgl92rcd13ifvqbq0","pricing_plan_id":"cebpf4jnsgd1na2vs0mg"},{"bike_id":"e90e79d8-6995-450b-b953-7485053e37f8","system_id":"levelo_inurba_marseille","lat":43.30096,"lon":5.39048,"is_reserved":false,"is_disabled":false,"rental_uris":{"android":"levelo://app?vid=e90e79d8-6995-450b-b953-7485053e37f8","ios":"levelo://app?vid=e90e79d8-6995-450b-b953-7485053e37f8"},"vehicle_type_id":"4","last_reported":1751271386,"current_range_meters":16000,"station_id":"ce4bh192rcd13ifvqdb0","pricing_plan_id":"cebpf4jnsgd1na2vs0mg"},{"bike_id":"5fc966ad-f2b0-4cb3-9040-e099a74518a5","system_id":"levelo_inurba_marseille","lat":43.25,"lon":5.3893,"is_reserved":false,"is_disabled":false,"rental_uris":{"android":"levelo://app?vid=5fc966ad-f2b0-4cb3-9040-e099a74518a5","ios":"levelo://app?vid=5fc966ad-f2b0-4cb3-9040-e099a74518a5"},"vehicle_type_id":"4","last_reported":1751271386,"current_range_meters":16000,"station_id":"ce4bhgp2rcd13ifvqfd0","pricing_plan_id":"cebpf4jnsgd1na2vs0mg"},{"bike_id":"439b060c-1ed3-4dc0-aba8-51e0b7ea3d34","system_id":"levelo_inurba_marseille","lat":43.2593,"lon":5.40909,"is_reserved":false,"is_disabled":false,"rental_uris":{"android":"levelo://app?vid=439b060c-1ed3-4dc0-aba8-51e0b7ea3d34","ios":"levelo://app?vid=439b060c-1ed3-4dc0-aba8-51e0b7ea3d34"},"vehicle_type_id":"4","last_reported":1751271386,"current_range_meters":16000,"station_id":"ce4bhm92rcd13ifvqglg","pricing_plan_id":"cebpf4jnsgd1na2vs0mg"},{"bike_id":"6b04a8db-f012-4ea9-88f5-d59ff3f24fd9","system_id":"levelo_inurba_marseille","lat":43.299019,"lon":5.436649,"is_reserved":false,"is_disabled":false,"rental_uris":{"android":"levelo://app?vid=6b04a8db-f012-4ea9-88f5-d59ff3f24fd9","ios":"levelo://app?vid=6b04a8db-f012-4ea9-88f5-d59ff3f24fd9"},"vehicle_type_id":"4","last_reported":1751271386,"current_range_meters":16000,"station_id":"ce4bhpp2rcd13ifvqhfg","pricing_plan_id":"cebpf4jnsgd1na2vs0mg"},{"bike_id":"4e47abe4-6598-4756-807d-26ba558e3c39","system_id":"levelo_inurba_marseille","lat":43.299054,"lon":5.436691,"is_reserved":false,"is_disabled":false,"rental_uris":{"android":"levelo://app?vid=4e47abe4-6598-4756-807d-26ba558e3c39","ios":"levelo://app?vid=4e47abe4-6598-4756-807d-26ba558e3c39"},"vehicle_type_id":"4","last_reported":1751271386,"current_range_meters":16000,"station_id":"ce4bhpp2rcd13ifvqhfg","pricing_plan_id":"cebpf4jnsgd1na2vs0mg"},{"bike_id":"7712491c-e18b-4b09-bb79-30880b357c07","system_id":"levelo_inurba_marseille","lat":43.21193,"lon":5.35085,"is_reserved":false,"is_disabled":false,"rental_uris":{"android":"levelo://app?vid=7712491c-e18b-4b09-bb79-30880b357c07","ios":"levelo://app?vid=7712491c-e18b-4b09-bb79-30880b357c07"},"vehicle_type_id":"4","last_reported":1751271386,"current_range_meters":16000,"station_id":"st_cvj6sg6p6f1abm77japg","pricing_plan_id":"cebpf4jnsgd1na2vs0mg"},{"bike_id":"cc04118e-9312-4bf8-9106-d64e829afbaa","system_id":"levelo_inurba_marseille","lat":43.21182,"lon":5.35082,"is_reserved":false,"is_disabled":false,"rental_uris":{"android":"levelo://app?vid=cc04118e-9312-4bf8-9106-d64e829afbaa","ios":"levelo://app?vid=cc04118e-9312-4bf8-9106-d64e829afbaa"},"vehicle_type_id":"4","last_reported":1751271386,"current_range_meters":16000,"station_id":"st_cvj6sg6p6f1abm77japg","pricing_plan_id":"cebpf4jnsgd1na2vs0mg"},{"bike_id":"ad9a1bf3-7423-4a3f-b7d3-23958e3dbc15","system_id":"levelo_inurba_marseille","lat":43.30888,"lon":5.37835,"is_reserved":false,"is_disabled":false,"rental_uris":{"android":"levelo://app?vid=ad9a1bf3-7423-4a3f-b7d3-23958e3dbc15","ios":"levelo://app?vid=ad9a1bf3-7423-4a3f-b7d3-23958e3dbc15"},"vehicle_type_id":"4","last_reported":1751271386,"current_range_meters":16400,"station_id":"","pricing_plan_id":"cebpf4jnsgd1na2vs0mg"},{"bike_id":"036d89bb-7350-4239-99d4-2504abc8fb7a","system_id":"levelo_inurba_marseille","lat":43.2985,"lon":5.36285,"is_reserved":false,"is_disabled":false,"rental_uris":{"android":"levelo://app?vid=036d89bb-7350-4239-99d4-2504abc8fb7a","ios":"levelo://app?vid=036d89bb-7350-4239-99d4-2504abc8fb7a"},"vehicle_type_id":"4","last_reported":1751271386,"current_range_meters":16400,"station_id":"ce4bgpp2rcd13ifvqc3g","pricing_plan_id":"cebpf4jnsgd1na2vs0mg"},{"bike_id":"3d96250f-2c61-499a-9bd3-9a4e19d7211d","system_id":"levelo_inurba_marseille","lat":43.30886,"lon":5.37196,"is_reserved":false,"is_disabled":false,"rental_uris":{"android":"levelo://app?vid=3d96250f-2c61-499a-9bd3-9a4e19d7211d","ios":"levelo://app?vid=3d96250f-2c61-499a-9bd3-9a4e19d7211d"},"vehicle_type_id":"4","last_reported":1751271386,"current_range_meters":16400,"station_id":"ce4bguh2rcd13ifvqckg","pricing_plan_id":"cebpf4jnsgd1na2vs0mg"},{"bike_id":"f3be07ba-976c-4bda-93f8-676628a8db2e","system_id":"levelo_inurba_marseille","lat":43.25716,"lon":5.41107,"is_reserved":false,"is_disabled":false,"rental_uris":{"android":"levelo://app?vid=f3be07ba-976c-4bda-93f8-676628a8db2e","ios":"levelo://app?vid=f3be07ba-976c-4bda-93f8-676628a8db2e"},"vehicle_type_id":"4","last_reported":1751271386,"current_range_meters":16400,"station_id":"ce4bhkp2rcd13ifvqgd0","pricing_plan_id":"cebpf4jnsgd1na2vs0mg"},{"bike_id":"8a7be870-6bc9-4d10-9ce0-b10af3e6fa04","system_id":"levelo_inurba_marseille","lat":43.262344,"lon":5.404687,"is_reserved":false,"is_disabled":false,"rental_uris":{"android":"levelo://app?vid=8a7be870-6bc9-4d10-9ce0-b10af3e6fa04","ios":"levelo://app?vid=8a7be870-6bc9-4d10-9ce0-b10af3e6fa04"},"vehicle_type_id":"4","last_reported":1751271386,"current_range_meters":16400,"station_id":"ce4bhmh2rcd13ifvqgmg","pricing_plan_id":"cebpf4jnsgd1na2vs0mg"},{"bike_id":"4f97e136-2006-43b5-84b8-8ce28f4647e9","system_id":"levelo_inurba_marseille","lat":43.211868,"lon":5.350696,"is_reserved":false,"is_disabled":false,"rental_uris":{"android":"levelo://app?vid=4f97e136-2006-43b5-84b8-8ce28f4647e9","ios":"levelo://app?vid=4f97e136-2006-43b5-84b8-8ce28f4647e9"},"vehicle_type_id":"4","last_reported":1751271386,"current_range_meters":16400,"station_id":"st_cvj6sg6p6f1abm77japg","pricing_plan_id":"cebpf4jnsgd1na2vs0mg"},{"bike_id":"8ceb2860-ca09-420a-8aab-fcf0c529a0d3","system_id":"levelo_inurba_marseille","lat":43.21184,"lon":5.35075,"is_reserved":false,"is_disabled":false,"rental_uris":{"android":"levelo://app?vid=8ceb2860-ca09-420a-8aab-fcf0c529a0d3","ios":"levelo://app?vid=8ceb2860-ca09-420a-8aab-fcf0c529a0d3"},"vehicle_type_id":"4","last_reported":1751271386,"current_range_meters":16400,"station_id":"st_cvj6sg6p6f1abm77japg","pricing_plan_id":"cebpf4jnsgd1na2vs0mg"},{"bike_id":"fb51f881-f33f-4e2d-8477-3806506721b2","system_id":"levelo_inurba_marseille","lat":43.29849,"lon":5.36279,"is_reserved":false,"is_disabled":false,"rental_uris":{"android":"levelo://app?vid=fb51f881-f33f-4e2d-8477-3806506721b2","ios":"levelo://app?vid=fb51f881-f33f-4e2d-8477-3806506721b2"},"vehicle_type_id":"4","last_reported":1751271386,"current_range_meters":16800,"station_id":"ce4bgpp2rcd13ifvqc3g","pricing_plan_id":"cebpf4jnsgd1na2vs0mg"},{"bike_id":"33a1daad-7d8a-4a8c-b0a8-8a2c01de4502","system_id":"levelo_inurba_marseille","lat":43.244685,"lon":5.372497,"is_reserved":false,"is_disabled":false,"rental_uris":{"android":"levelo://app?vid=33a1daad-7d8a-4a8c-b0a8-8a2c01de4502","ios":"levelo://app?vid=33a1daad-7d8a-4a8c-b0a8-8a2c01de4502"},"vehicle_type_id":"4","last_reported":1751271386,"current_range_meters":16800,"station_id":"ce4bhhh2rcd13ifvqfk0","pricing_plan_id":"cebpf4jnsgd1na2vs0mg"},{"bike_id":"9f1a592c-1096-463e-9f87-57aa94f7d4de","system_id":"levelo_inurba_marseille","lat":43.23189,"lon":5.39993,"is_reserved":false,"is_disabled":false,"rental_uris":{"android":"levelo://app?vid=9f1a592c-1096-463e-9f87-57aa94f7d4de","ios":"levelo://app?vid=9f1a592c-1096-463e-9f87-57aa94f7d4de"},"vehicle_type_id":"4","last_reported":1751271386,"current_range_meters":16800,"station_id":"ce4bhn12rcd13ifvqgqg","pricing_plan_id":"cebpf4jnsgd1na2vs0mg"},{"bike_id":"d8facb10-b967-4a32-9b5c-8cfed4bbd05b","system_id":"levelo_inurba_marseille","lat":43.321146,"lon":5.36754,"is_reserved":false,"is_disabled":false,"rental_uris":{"android":"levelo://app?vid=d8facb10-b967-4a32-9b5c-8cfed4bbd05b","ios":"levelo://app?vid=d8facb10-b967-4a32-9b5c-8cfed4bbd05b"},"vehicle_type_id":"4","last_reported":1751271386,"current_range_meters":16800,"station_id":"ce4bhrh2rcd13ifvqhug","pricing_plan_id":"cebpf4jnsgd1na2vs0mg"},{"bike_id":"501c76d6-1184-4721-aab9-b1f3c28ea9ee","system_id":"levelo_inurba_marseille","lat":43.28488,"lon":5.38417,"is_reserved":false,"is_disabled":false,"rental_uris":{"android":"levelo://app?vid=501c76d6-1184-4721-aab9-b1f3c28ea9ee","ios":"levelo://app?vid=501c76d6-1184-4721-aab9-b1f3c28ea9ee"},"vehicle_type_id":"4","last_reported":1751271386,"current_range_meters":17200,"station_id":"ce4bh512rcd13ifvqe3g","pricing_plan_id":"cebpf4jnsgd1na2vs0mg"},{"bike_id":"0e3ddcf3-e9b4-45a2-aa46-0646d9302202","system_id":"levelo_inurba_marseille","lat":43.27303,"lon":5.39092,"is_reserved":false,"is_disabled":false,"rental_uris":{"android":"levelo://app?vid=0e3ddcf3-e9b4-45a2-aa46-0646d9302202","ios":"levelo://app?vid=0e3ddcf3-e9b4-45a2-aa46-0646d9302202"},"vehicle_type_id":"4","last_reported":1751271386,"current_range_meters":17200,"station_id":"ce4bhgp2rcd13ifvqfe0","pricing_plan_id":"cebpf4jnsgd1na2vs0mg"},{"bike_id":"fd54897a-1f5c-4a96-ad59-c1fd52549dda","system_id":"levelo_inurba_marseille","lat":43.23187,"lon":5.39998,"is_reserved":false,"is_disabled":false,"rental_uris":{"android":"levelo://app?vid=fd54897a-1f5c-4a96-ad59-c1fd52549dda","ios":"levelo://app?vid=fd54897a-1f5c-4a96-ad59-c1fd52549dda"},"vehicle_type_id":"4","last_reported":1751271386,"current_range_meters":17200,"station_id":"ce4bhn12rcd13ifvqgqg","pricing_plan_id":"cebpf4jnsgd1na2vs0mg"},{"bike_id":"6248a3ef-766e-45da-9351-45f0df09d787","system_id":"levelo_inurba_marseille","lat":43.33727,"lon":5.39184,"is_reserved":false,"is_disabled":false,"rental_uris":{"android":"levelo://app?vid=6248a3ef-766e-45da-9351-45f0df09d787","ios":"levelo://app?vid=6248a3ef-766e-45da-9351-45f0df09d787"},"vehicle_type_id":"4","last_reported":1751271386,"current_range_meters":17200,"station_id":"ce4bhr92rcd13ifvqhsg","pricing_plan_id":"cebpf4jnsgd1na2vs0mg"},{"bike_id":"27de128b-79d6-4ae4-99ba-8537bd95d5a2","system_id":"levelo_inurba_marseille","lat":43.325026,"lon":5.365512,"is_reserved":false,"is_disabled":false,"rental_uris":{"android":"levelo://app?vid=27de128b-79d6-4ae4-99ba-8537bd95d5a2","ios":"levelo://app?vid=27de128b-79d6-4ae4-99ba-8537bd95d5a2"},"vehicle_type_id":"4","last_reported":1751271386,"current_range_meters":17200,"station_id":"ce4bhs12rcd13ifvqhvg","pricing_plan_id":"cebpf4jnsgd1na2vs0mg"},{"bike_id":"f543a401-db68-42b3-bedf-89a51f8b31f5","system_id":"levelo_inurba_marseille","lat":43.22923,"lon":5.35376,"is_reserved":false,"is_disabled":false,"rental_uris":{"android":"levelo://app?vid=f543a401-db68-42b3-bedf-89a51f8b31f5","ios":"levelo://app?vid=f543a401-db68-42b3-bedf-89a51f8b31f5"},"vehicle_type_id":"4","last_reported":1751271386,"current_range_meters":17200,"station_id":"cpo3532slgdg3j2ikp40","pricing_plan_id":"cebpf4jnsgd1na2vs0mg"},{"bike_id":"dac5eb1b-678e-44b8-b2b0-141283970fe1","system_id":"levelo_inurba_marseille","lat":43.21186,"lon":5.35058,"is_reserved":false,"is_disabled":false,"rental_uris":{"android":"levelo://app?vid=dac5eb1b-678e-44b8-b2b0-141283970fe1","ios":"levelo://app?vid=dac5eb1b-678e-44b8-b2b0-141283970fe1"},"vehicle_type_id":"4","last_reported":1751271386,"current_range_meters":17200,"station_id":"st_cvj6sg6p6f1abm77japg","pricing_plan_id":"cebpf4jnsgd1na2vs0mg"},{"bike_id":"046e6bd8-7988-486f-affb-0a726c6f703f","system_id":"levelo_inurba_marseille","lat":43.31791,"lon":5.3807,"is_reserved":false,"is_disabled":false,"rental_uris":{"android":"levelo://app?vid=046e6bd8-7988-486f-affb-0a726c6f703f","ios":"levelo://app?vid=046e6bd8-7988-486f-affb-0a726c6f703f"},"vehicle_type_id":"4","last_reported":1751271386,"current_range_meters":17600,"station_id":"","pricing_plan_id":"cebpf4jnsgd1na2vs0mg"},{"bike_id":"87c67b74-c5de-4f4d-b2ee-8fb12e46a4fb","system_id":"levelo_inurba_marseille","lat":43.30524,"lon":5.36716,"is_reserved":false,"is_disabled":false,"rental_uris":{"android":"levelo://app?vid=87c67b74-c5de-4f4d-b2ee-8fb12e46a4fb","ios":"levelo://app?vid=87c67b74-c5de-4f4d-b2ee-8fb12e46a4fb"},"vehicle_type_id":"4","last_reported":1751271386,"current_range_meters":17600,"station_id":"ce4bgrp2rcd13ifvqc9g","pricing_plan_id":"cebpf4jnsgd1na2vs0mg"},{"bike_id":"aee25695-8f12-43d6-bcad-5d9da6bbc9ce","system_id":"levelo_inurba_marseille","lat":43.3078,"lon":5.37641,"is_reserved":false,"is_disabled":false,"rental_uris":{"android":"levelo://app?vid=aee25695-8f12-43d6-bcad-5d9da6bbc9ce","ios":"levelo://app?vid=aee25695-8f12-43d6-bcad-5d9da6bbc9ce"},"vehicle_type_id":"4","last_reported":1751271386,"current_range_meters":17600,"station_id":"ce4bgv92rcd13ifvqcq0","pricing_plan_id":"cebpf4jnsgd1na2vs0mg"},{"bike_id":"d91d2633-472c-4a81-ac98-20118462d9aa","system_id":"levelo_inurba_marseille","lat":43.25933,"lon":5.40904,"is_reserved":false,"is_disabled":false,"rental_uris":{"android":"levelo://app?vid=d91d2633-472c-4a81-ac98-20118462d9aa","ios":"levelo://app?vid=d91d2633-472c-4a81-ac98-20118462d9aa"},"vehicle_type_id":"4","last_reported":1751271386,"current_range_meters":17600,"station_id":"ce4bhm92rcd13ifvqglg","pricing_plan_id":"cebpf4jnsgd1na2vs0mg"},{"bike_id":"d90daeb2-baa5-4f84-8ba2-ffc1dcd4b96b","system_id":"levelo_inurba_marseille","lat":43.241637,"lon":5.364107,"is_reserved":false,"is_disabled":false,"rental_uris":{"android":"levelo://app?vid=d90daeb2-baa5-4f84-8ba2-ffc1dcd4b96b","ios":"levelo://app?vid=d90daeb2-baa5-4f84-8ba2-ffc1dcd4b96b"},"vehicle_type_id":"4","last_reported":1751271386,"current_range_meters":17600,"station_id":"cpo36qri1sfpv3e86is0","pricing_plan_id":"cebpf4jnsgd1na2vs0mg"},{"bike_id":"048ec6e9-5fd9-4256-ae6a-a72856ab2acf","system_id":"levelo_inurba_marseille","lat":43.21189,"lon":5.35062,"is_reserved":false,"is_disabled":false,"rental_uris":{"android":"levelo://app?vid=048ec6e9-5fd9-4256-ae6a-a72856ab2acf","ios":"levelo://app?vid=048ec6e9-5fd9-4256-ae6a-a72856ab2acf"},"vehicle_type_id":"4","last_reported":1751271386,"current_range_meters":17600,"station_id":"st_cvj6sg6p6f1abm77japg","pricing_plan_id":"cebpf4jnsgd1na2vs0mg"},{"bike_id":"d5da5bd9-7c2a-48e5-92aa-fa21076cad13","system_id":"levelo_inurba_marseille","lat":43.21187,"lon":5.3507,"is_reserved":false,"is_disabled":false,"rental_uris":{"android":"levelo://app?vid=d5da5bd9-7c2a-48e5-92aa-fa21076cad13","ios":"levelo://app?vid=d5da5bd9-7c2a-48e5-92aa-fa21076cad13"},"vehicle_type_id":"4","last_reported":1751271386,"current_range_meters":17600,"station_id":"st_cvj6sg6p6f1abm77japg","pricing_plan_id":"cebpf4jnsgd1na2vs0mg"},{"bike_id":"0b74b13f-88d0-4271-8f98-47ddd075598f","system_id":"levelo_inurba_marseille","lat":43.29615,"lon":5.37724,"is_reserved":false,"is_disabled":false,"rental_uris":{"android":"levelo://app?vid=0b74b13f-88d0-4271-8f98-47ddd075598f","ios":"levelo://app?vid=0b74b13f-88d0-4271-8f98-47ddd075598f"},"vehicle_type_id":"4","last_reported":1751271386,"current_range_meters":18000,"station_id":"ce4bgi92rcd13ifvqb90","pricing_plan_id":"cebpf4jnsgd1na2vs0mg"},{"bike_id":"0b452987-a6aa-4ff4-b4a4-b451a9fb5ae0","system_id":"levelo_inurba_marseille","lat":43.29909,"lon":5.37457,"is_reserved":false,"is_disabled":false,"rental_uris":{"android":"levelo://app?vid=0b452987-a6aa-4ff4-b4a4-b451a9fb5ae0","ios":"levelo://app?vid=0b452987-a6aa-4ff4-b4a4-b451a9fb5ae0"},"vehicle_type_id":"4","last_reported":1751271386,"current_range_meters":18000,"station_id":"ce4bgjh2rcd13ifvqbg0","pricing_plan_id":"cebpf4jnsgd1na2vs0mg"},{"bike_id":"984988a7-62d5-45ae-ae68-8b3176904aa7","system_id":"levelo_inurba_marseille","lat":43.28476,"lon":5.38413,"is_reserved":false,"is_disabled":false,"rental_uris":{"android":"levelo://app?vid=984988a7-62d5-45ae-ae68-8b3176904aa7","ios":"levelo://app?vid=984988a7-62d5-45ae-ae68-8b3176904aa7"},"vehicle_type_id":"4","last_reported":1751271386,"current_range_meters":18000,"station_id":"ce4bh512rcd13ifvqe3g","pricing_plan_id":"cebpf4jnsgd1na2vs0mg"},{"bike_id":"2c880aee-b10e-4adf-8eee-ee4a0d9b80d5","system_id":"levelo_inurba_marseille","lat":43.28486,"lon":5.3855,"is_reserved":false,"is_disabled":false,"rental_uris":{"android":"levelo://app?vid=2c880aee-b10e-4adf-8eee-ee4a0d9b80d5","ios":"levelo://app?vid=2c880aee-b10e-4adf-8eee-ee4a0d9b80d5"},"vehicle_type_id":"4","last_reported":1751271386,"current_range_meters":18000,"station_id":"ce4bh8p2rcd13ifvqeb0","pricing_plan_id":"cebpf4jnsgd1na2vs0mg"},{"bike_id":"714e81cc-0a88-4f76-a904-b1c3a28974fe","system_id":"levelo_inurba_marseille","lat":43.28614,"lon":5.35108,"is_reserved":false,"is_disabled":false,"rental_uris":{"android":"levelo://app?vid=714e81cc-0a88-4f76-a904-b1c3a28974fe","ios":"levelo://app?vid=714e81cc-0a88-4f76-a904-b1c3a28974fe"},"vehicle_type_id":"4","last_reported":1751271386,"current_range_meters":18000,"station_id":"ce4bhch2rcd13ifvqeug","pricing_plan_id":"cebpf4jnsgd1na2vs0mg"},{"bike_id":"a2a4e9be-d718-443e-b7e7-99d0ee465cba","system_id":"levelo_inurba_marseille","lat":43.26932,"lon":5.38932,"is_reserved":false,"is_disabled":false,"rental_uris":{"android":"levelo://app?vid=a2a4e9be-d718-443e-b7e7-99d0ee465cba","ios":"levelo://app?vid=a2a4e9be-d718-443e-b7e7-99d0ee465cba"},"vehicle_type_id":"4","last_reported":1751271386,"current_range_meters":18000,"station_id":"ce4bhhh2rcd13ifvqfl0","pricing_plan_id":"cebpf4jnsgd1na2vs0mg"},{"bike_id":"7def622c-1243-44da-af36-4c505b4f00ba","system_id":"levelo_inurba_marseille","lat":43.24164,"lon":5.39717,"is_reserved":false,"is_disabled":false,"rental_uris":{"android":"levelo://app?vid=7def622c-1243-44da-af36-4c505b4f00ba","ios":"levelo://app?vid=7def622c-1243-44da-af36-4c505b4f00ba"},"vehicle_type_id":"4","last_reported":1751271386,"current_range_meters":18000,"station_id":"ce4bhn12rcd13ifvqgpg","pricing_plan_id":"cebpf4jnsgd1na2vs0mg"},{"bike_id":"e552832c-7ca2-4106-b0f9-92bbabda27d1","system_id":"levelo_inurba_marseille","lat":43.21176,"lon":5.35069,"is_reserved":false,"is_disabled":false,"rental_uris":{"android":"levelo://app?vid=e552832c-7ca2-4106-b0f9-92bbabda27d1","ios":"levelo://app?vid=e552832c-7ca2-4106-b0f9-92bbabda27d1"},"vehicle_type_id":"4","last_reported":1751271386,"current_range_meters":18000,"station_id":"st_cvj6sg6p6f1abm77japg","pricing_plan_id":"cebpf4jnsgd1na2vs0mg"},{"bike_id":"b13877a6-4825-4d82-b46b-67fa8ad66c5d","system_id":"levelo_inurba_marseille","lat":43.211947,"lon":5.350709,"is_reserved":false,"is_disabled":false,"rental_uris":{"android":"levelo://app?vid=b13877a6-4825-4d82-b46b-67fa8ad66c5d","ios":"levelo://app?vid=b13877a6-4825-4d82-b46b-67fa8ad66c5d"},"vehicle_type_id":"4","last_reported":1751271386,"current_range_meters":18000,"station_id":"st_cvj6sg6p6f1abm77japg","pricing_plan_id":"cebpf4jnsgd1na2vs0mg"},{"bike_id":"fa16bbec-3211-49bd-a8b0-90a3ace4afe6","system_id":"levelo_inurba_marseille","lat":43.316181,"lon":5.384696,"is_reserved":false,"is_disabled":false,"rental_uris":{"android":"levelo://app?vid=fa16bbec-3211-49bd-a8b0-90a3ace4afe6","ios":"levelo://app?vid=fa16bbec-3211-49bd-a8b0-90a3ace4afe6"},"vehicle_type_id":"4","last_reported":1751271386,"current_range_meters":18800,"station_id":"","pricing_plan_id":"cebpf4jnsgd1na2vs0mg"},{"bike_id":"5522e2b8-7895-4449-a179-7bb9699a30a4","system_id":"levelo_inurba_marseille","lat":43.3376,"lon":5.3745,"is_reserved":false,"is_disabled":false,"rental_uris":{"android":"levelo://app?vid=5522e2b8-7895-4449-a179-7bb9699a30a4","ios":"levelo://app?vid=5522e2b8-7895-4449-a179-7bb9699a30a4"},"vehicle_type_id":"4","last_reported":1751271386,"current_range_meters":18800,"station_id":"","pricing_plan_id":"cebpf4jnsgd1na2vs0mg"},{"bike_id":"e891d413-f511-44d4-9ddd-90f57509289b","system_id":"levelo_inurba_marseille","lat":43.31704,"lon":5.36763,"is_reserved":false,"is_disabled":false,"rental_uris":{"android":"levelo://app?vid=e891d413-f511-44d4-9ddd-90f57509289b","ios":"levelo://app?vid=e891d413-f511-44d4-9ddd-90f57509289b"},"vehicle_type_id":"4","last_reported":1751271386,"current_range_meters":18800,"station_id":"","pricing_plan_id":"cebpf4jnsgd1na2vs0mg"},{"bike_id":"0da97725-d656-430e-82c0-80aeb7c9f8a2","system_id":"levelo_inurba_marseille","lat":43.3123,"lon":5.36879,"is_reserved":false,"is_disabled":false,"rental_uris":{"android":"levelo://app?vid=0da97725-d656-430e-82c0-80aeb7c9f8a2","ios":"levelo://app?vid=0da97725-d656-430e-82c0-80aeb7c9f8a2"},"vehicle_type_id":"4","last_reported":1751271386,"current_range_meters":18800,"station_id":"ce4bgl92rcd13ifvqbq0","pricing_plan_id":"cebpf4jnsgd1na2vs0mg"},{"bike_id":"1c1e0436-c990-4c38-b11e-d6968f287975","system_id":"levelo_inurba_marseille","lat":43.29593,"lon":5.36744,"is_reserved":false,"is_disabled":false,"rental_uris":{"android":"levelo://app?vid=1c1e0436-c990-4c38-b11e-d6968f287975","ios":"levelo://app?vid=1c1e0436-c990-4c38-b11e-d6968f287975"},"vehicle_type_id":"4","last_reported":1751271386,"current_range_meters":18800,"station_id":"ce4bgph2rcd13ifvqc2g","pricing_plan_id":"cebpf4jnsgd1na2vs0mg"},{"bike_id":"6aa1f292-abac-4014-82a8-0f7a46987b36","system_id":"levelo_inurba_marseille","lat":43.30272,"lon":5.37711,"is_reserved":false,"is_disabled":false,"rental_uris":{"android":"levelo://app?vid=6aa1f292-abac-4014-82a8-0f7a46987b36","ios":"levelo://app?vid=6aa1f292-abac-4014-82a8-0f7a46987b36"},"vehicle_type_id":"4","last_reported":1751271386,"current_range_meters":18800,"station_id":"ce4bguh2rcd13ifvqcj0","pricing_plan_id":"cebpf4jnsgd1na2vs0mg"},{"bike_id":"e5d3d4ac-f533-499e-8910-bb8c63247b52","system_id":"levelo_inurba_marseille","lat":43.2667,"lon":5.38286,"is_reserved":false,"is_disabled":false,"rental_uris":{"android":"levelo://app?vid=e5d3d4ac-f533-499e-8910-bb8c63247b52","ios":"levelo://app?vid=e5d3d4ac-f533-499e-8910-bb8c63247b52"},"vehicle_type_id":"4","last_reported":1751271386,"current_range_meters":18800,"station_id":"ce4bhg92rcd13ifvqf90","pricing_plan_id":"cebpf4jnsgd1na2vs0mg"},{"bike_id":"538b2f0d-81d8-4aa5-a3bd-54a001cc82bf","system_id":"levelo_inurba_marseille","lat":43.26783,"lon":5.39415,"is_reserved":false,"is_disabled":false,"rental_uris":{"android":"levelo://app?vid=538b2f0d-81d8-4aa5-a3bd-54a001cc82bf","ios":"levelo://app?vid=538b2f0d-81d8-4aa5-a3bd-54a001cc82bf"},"vehicle_type_id":"4","last_reported":1751271386,"current_range_meters":18800,"station_id":"ce4bhh12rcd13ifvqfg0","pricing_plan_id":"cebpf4jnsgd1na2vs0mg"},{"bike_id":"ed5a027f-b281-4146-9db6-85c49b5093ae","system_id":"levelo_inurba_marseille","lat":43.25934,"lon":5.40903,"is_reserved":false,"is_disabled":false,"rental_uris":{"android":"levelo://app?vid=ed5a027f-b281-4146-9db6-85c49b5093ae","ios":"levelo://app?vid=ed5a027f-b281-4146-9db6-85c49b5093ae"},"vehicle_type_id":"4","last_reported":1751271386,"current_range_meters":18800,"station_id":"ce4bhm92rcd13ifvqglg","pricing_plan_id":"cebpf4jnsgd1na2vs0mg"},{"bike_id":"36369eab-9cca-4a5b-b4f6-3ac55dcc9073","system_id":"levelo_inurba_marseille","lat":43.286051,"lon":5.370531,"is_reserved":false,"is_disabled":false,"rental_uris":{"android":"levelo://app?vid=36369eab-9cca-4a5b-b4f6-3ac55dcc9073","ios":"levelo://app?vid=36369eab-9cca-4a5b-b4f6-3ac55dcc9073"},"vehicle_type_id":"4","last_reported":1751271386,"current_range_meters":18800,"station_id":"ce4bht12rcd13ifvqi60","pricing_plan_id":"cebpf4jnsgd1na2vs0mg"},{"bike_id":"0d839b5e-baaf-4b32-8658-bb0d20744629","system_id":"levelo_inurba_marseille","lat":43.21191,"lon":5.35074,"is_reserved":false,"is_disabled":false,"rental_uris":{"android":"levelo://app?vid=0d839b5e-baaf-4b32-8658-bb0d20744629","ios":"levelo://app?vid=0d839b5e-baaf-4b32-8658-bb0d20744629"},"vehicle_type_id":"4","last_reported":1751271386,"current_range_meters":18800,"station_id":"st_cvj6sg6p6f1abm77japg","pricing_plan_id":"cebpf4jnsgd1na2vs0mg"},{"bike_id":"210a3b0b-d6d6-4ec2-8daa-52db58415f3c","system_id":"levelo_inurba_marseille","lat":43.30142,"lon":5.39094,"is_reserved":false,"is_disabled":false,"rental_uris":{"android":"levelo://app?vid=210a3b0b-d6d6-4ec2-8daa-52db58415f3c","ios":"levelo://app?vid=210a3b0b-d6d6-4ec2-8daa-52db58415f3c"},"vehicle_type_id":"4","last_reported":1751271386,"current_range_meters":19200,"station_id":"","pricing_plan_id":"cebpf4jnsgd1na2vs0mg"},{"bike_id":"8c5d6661-7565-4379-b33f-435e865f84b0","system_id":"levelo_inurba_marseille","lat":43.31701,"lon":5.37674,"is_reserved":false,"is_disabled":false,"rental_uris":{"android":"levelo://app?vid=8c5d6661-7565-4379-b33f-435e865f84b0","ios":"levelo://app?vid=8c5d6661-7565-4379-b33f-435e865f84b0"},"vehicle_type_id":"4","last_reported":1751271386,"current_range_meters":19200,"station_id":"","pricing_plan_id":"cebpf4jnsgd1na2vs0mg"},{"bike_id":"88b79898-7c73-4459-993f-68e8b933bde9","system_id":"levelo_inurba_marseille","lat":43.305515,"lon":5.365514,"is_reserved":false,"is_disabled":false,"rental_uris":{"android":"levelo://app?vid=88b79898-7c73-4459-993f-68e8b933bde9","ios":"levelo://app?vid=88b79898-7c73-4459-993f-68e8b933bde9"},"vehicle_type_id":"4","last_reported":1751271386,"current_range_meters":19200,"station_id":"ce4bgs12rcd13ifvqcag","pricing_plan_id":"cebpf4jnsgd1na2vs0mg"},{"bike_id":"c2b72fe0-bae6-4c7b-ad48-9e771b203dc8","system_id":"levelo_inurba_marseille","lat":43.31357,"lon":5.384573,"is_reserved":false,"is_disabled":false,"rental_uris":{"android":"levelo://app?vid=c2b72fe0-bae6-4c7b-ad48-9e771b203dc8","ios":"levelo://app?vid=c2b72fe0-bae6-4c7b-ad48-9e771b203dc8"},"vehicle_type_id":"4","last_reported":1751271386,"current_range_meters":19200,"station_id":"ce4bgt92rcd13ifvqcf0","pricing_plan_id":"cebpf4jnsgd1na2vs0mg"},{"bike_id":"e25ba395-2bc9-44d2-8b95-073fe9e7fe66","system_id":"levelo_inurba_marseille","lat":43.28613,"lon":5.35106,"is_reserved":false,"is_disabled":false,"rental_uris":{"android":"levelo://app?vid=e25ba395-2bc9-44d2-8b95-073fe9e7fe66","ios":"levelo://app?vid=e25ba395-2bc9-44d2-8b95-073fe9e7fe66"},"vehicle_type_id":"4","last_reported":1751271386,"current_range_meters":19200,"station_id":"ce4bhch2rcd13ifvqeug","pricing_plan_id":"cebpf4jnsgd1na2vs0mg"},{"bike_id":"8963e95a-d002-4536-ae22-48ad9969a805","system_id":"levelo_inurba_marseille","lat":43.26675,"lon":5.38265,"is_reserved":false,"is_disabled":false,"rental_uris":{"android":"levelo://app?vid=8963e95a-d002-4536-ae22-48ad9969a805","ios":"levelo://app?vid=8963e95a-d002-4536-ae22-48ad9969a805"},"vehicle_type_id":"4","last_reported":1751271386,"current_range_meters":19200,"station_id":"ce4bhg92rcd13ifvqf90","pricing_plan_id":"cebpf4jnsgd1na2vs0mg"},{"bike_id":"e01419d7-8f44-4040-82d4-ead02b262976","system_id":"levelo_inurba_marseille","lat":43.26191,"lon":5.37456,"is_reserved":false,"is_disabled":false,"rental_uris":{"android":"levelo://app?vid=e01419d7-8f44-4040-82d4-ead02b262976","ios":"levelo://app?vid=e01419d7-8f44-4040-82d4-ead02b262976"},"vehicle_type_id":"4","last_reported":1751271386,"current_range_meters":19200,"station_id":"ce4bhgp2rcd13ifvqfc0","pricing_plan_id":"cebpf4jnsgd1na2vs0mg"},{"bike_id":"f4523c00-7a65-4c29-a35b-1362af7dae31","system_id":"levelo_inurba_marseille","lat":43.245466,"lon":5.395199,"is_reserved":false,"is_disabled":false,"rental_uris":{"android":"levelo://app?vid=f4523c00-7a65-4c29-a35b-1362af7dae31","ios":"levelo://app?vid=f4523c00-7a65-4c29-a35b-1362af7dae31"},"vehicle_type_id":"4","last_reported":1751271386,"current_range_meters":19200,"station_id":"ce4bhlp2rcd13ifvqgjg","pricing_plan_id":"cebpf4jnsgd1na2vs0mg"},{"bike_id":"352380ee-ad43-4641-b75a-8ca6767ae9f1","system_id":"levelo_inurba_marseille","lat":43.29891,"lon":5.43662,"is_reserved":false,"is_disabled":false,"rental_uris":{"android":"levelo://app?vid=352380ee-ad43-4641-b75a-8ca6767ae9f1","ios":"levelo://app?vid=352380ee-ad43-4641-b75a-8ca6767ae9f1"},"vehicle_type_id":"4","last_reported":1751271386,"current_range_meters":19200,"station_id":"ce4bhpp2rcd13ifvqhfg","pricing_plan_id":"cebpf4jnsgd1na2vs0mg"},{"bike_id":"ec59dc73-efec-49fb-a623-8c210bcd8f9c","system_id":"levelo_inurba_marseille","lat":43.217508,"lon":5.346045,"is_reserved":false,"is_disabled":false,"rental_uris":{"android":"levelo://app?vid=ec59dc73-efec-49fb-a623-8c210bcd8f9c","ios":"levelo://app?vid=ec59dc73-efec-49fb-a623-8c210bcd8f9c"},"vehicle_type_id":"4","last_reported":1751271386,"current_range_meters":19200,"station_id":"st_cvj6r9ubvosntc0bgbag","pricing_plan_id":"cebpf4jnsgd1na2vs0mg"},{"bike_id":"f603f3aa-5bf7-4a19-a8a1-b47909f854c7","system_id":"levelo_inurba_marseille","lat":43.211923,"lon":5.350739,"is_reserved":false,"is_disabled":false,"rental_uris":{"android":"levelo://app?vid=f603f3aa-5bf7-4a19-a8a1-b47909f854c7","ios":"levelo://app?vid=f603f3aa-5bf7-4a19-a8a1-b47909f854c7"},"vehicle_type_id":"4","last_reported":1751271386,"current_range_meters":19200,"station_id":"st_cvj6sg6p6f1abm77japg","pricing_plan_id":"cebpf4jnsgd1na2vs0mg"},{"bike_id":"096920b6-7772-44a2-a247-be6396dbfa37","system_id":"levelo_inurba_marseille","lat":43.29622,"lon":5.37706,"is_reserved":false,"is_disabled":false,"rental_uris":{"android":"levelo://app?vid=096920b6-7772-44a2-a247-be6396dbfa37","ios":"levelo://app?vid=096920b6-7772-44a2-a247-be6396dbfa37"},"vehicle_type_id":"4","last_reported":1751271386,"current_range_meters":19600,"station_id":"ce4bgi92rcd13ifvqb90","pricing_plan_id":"cebpf4jnsgd1na2vs0mg"},{"bike_id":"0bee8496-de04-444f-924d-eff6f1b842d3","system_id":"levelo_inurba_marseille","lat":43.30538,"lon":5.36705,"is_reserved":false,"is_disabled":false,"rental_uris":{"android":"levelo://app?vid=0bee8496-de04-444f-924d-eff6f1b842d3","ios":"levelo://app?vid=0bee8496-de04-444f-924d-eff6f1b842d3"},"vehicle_type_id":"4","last_reported":1751271386,"current_range_meters":19600,"station_id":"ce4bgrp2rcd13ifvqc9g","pricing_plan_id":"cebpf4jnsgd1na2vs0mg"},{"bike_id":"d4ea308a-c800-484d-bab5-aecdad31c5d5","system_id":"levelo_inurba_marseille","lat":43.28268,"lon":5.35058,"is_reserved":false,"is_disabled":false,"rental_uris":{"android":"levelo://app?vid=d4ea308a-c800-484d-bab5-aecdad31c5d5","ios":"levelo://app?vid=d4ea308a-c800-484d-bab5-aecdad31c5d5"},"vehicle_type_id":"4","last_reported":1751271386,"current_range_meters":19600,"station_id":"ce4bhbp2rcd13ifvqerg","pricing_plan_id":"cebpf4jnsgd1na2vs0mg"},{"bike_id":"ea40031a-1dd9-4c64-a6f8-b7eca4034072","system_id":"levelo_inurba_marseille","lat":43.25577,"lon":5.38239,"is_reserved":false,"is_disabled":false,"rental_uris":{"android":"levelo://app?vid=ea40031a-1dd9-4c64-a6f8-b7eca4034072","ios":"levelo://app?vid=ea40031a-1dd9-4c64-a6f8-b7eca4034072"},"vehicle_type_id":"4","last_reported":1751271386,"current_range_meters":19600,"station_id":"ce4bhih2rcd13ifvqfs0","pricing_plan_id":"cebpf4jnsgd1na2vs0mg"},{"bike_id":"0a24663d-7c62-458e-8d52-c21c6564ba2b","system_id":"levelo_inurba_marseille","lat":43.29219,"lon":5.36059,"is_reserved":false,"is_disabled":false,"rental_uris":{"android":"levelo://app?vid=0a24663d-7c62-458e-8d52-c21c6564ba2b","ios":"levelo://app?vid=0a24663d-7c62-458e-8d52-c21c6564ba2b"},"vehicle_type_id":"4","last_reported":1751271386,"current_range_meters":20000,"station_id":"ce4bhbh2rcd13ifvqeqg","pricing_plan_id":"cebpf4jnsgd1na2vs0mg"},{"bike_id":"62356331-a304-4ae1-ae69-10136cbd3f1d","system_id":"levelo_inurba_marseille","lat":43.320937,"lon":5.36773,"is_reserved":false,"is_disabled":false,"rental_uris":{"android":"levelo://app?vid=62356331-a304-4ae1-ae69-10136cbd3f1d","ios":"levelo://app?vid=62356331-a304-4ae1-ae69-10136cbd3f1d"},"vehicle_type_id":"4","last_reported":1751271386,"current_range_meters":20000,"station_id":"ce4bhrh2rcd13ifvqhug","pricing_plan_id":"cebpf4jnsgd1na2vs0mg"},{"bike_id":"2ab6c2c8-16b7-45c1-83b8-180c92e8ca44","system_id":"levelo_inurba_marseille","lat":43.29569,"lon":5.37504,"is_reserved":false,"is_disabled":false,"rental_uris":{"android":"levelo://app?vid=2ab6c2c8-16b7-45c1-83b8-180c92e8ca44","ios":"levelo://app?vid=2ab6c2c8-16b7-45c1-83b8-180c92e8ca44"},