{"last_updated":1753305085,"ttl":60,"version":"2.2","data":{"bikes":[{"bike_id":"77f0e1d1-4bb6-4906-9b7c-e9d4127a1d10","system_id":"levelo_inurba_marseille","lat":43.29498,"lon":5.3818,"is_reserved":false,"is_disabled":false,"rental_uris":{"android":"levelo://app?vid=77f0e1d1-4bb6-4906-9b7c-e9d4127a1d10","ios":"levelo://app?vid=77f0e1d1-4bb6-4906-9b7c-e9d4127a1d10"},"vehicle_type_id":"4","last_reported":1753305085,"current_range_meters":3200,"station_id":"","pricing_plan_id":"cebpf4jnsgd1na2vs0mg"},{"bike_id":"3ff5b9cb-60a0-442f-9536-1018b658675d","system_id":"levelo_inurba_marseille","lat":43.29021,"lon":5.3814,"is_reserved":false,"is_disabled":false,"rental_uris":{"android":"levelo://app?vid=3ff5b9cb-60a0-442f-9536-1018b658675d","ios":"levelo://app?vid=3ff5b9cb-60a0-442f-9536-1018b658675d"},"vehicle_type_id":"4","last_reported":1753305085,"current_range_meters":3200,"station_id":"ce4bh4p2rcd13ifvqe1g","pricing_plan_id":"cebpf4jnsgd1na2vs0mg"},{"bike_id":"fda570e9-e4c8-4f9b-ab9e-b9d14604cb0a","system_id":"levelo_inurba_marseille","lat":43.29034,"lon":5.38648,"is_reserved":false,"is_disabled":false,"rental_uris":{"android":"levelo://app?vid=fda570e9-e4c8-4f9b-ab9e-b9d14604cb0a","ios":"levelo://app?vid=fda570e9-e4c8-4f9b-ab9e-b9d14604cb0a"},"vehicle_type_id":"4","last_reported":1753305085,"current_range_meters":3200,"station_id":"ce4bh4p2rcd13ifvqe0g","pricing_plan_id":"cebpf4jnsgd1na2vs0mg"},{"bike_id":"2f28d329-119a-4e57-a5e3-b62d730c55ed","system_id":"levelo_inurba_marseille","lat":43.28563,"lon":5.395,"is_reserved":false,"is_disabled":false,"rental_uris":{"android":"levelo://app?vid=2f28d329-119a-4e57-a5e3-b62d730c55ed","ios":"levelo://app?vid=2f28d329-119a-4e57-a5e3-b62d730c55ed"},"vehicle_type_id":"4","last_reported":1753305085,"current_range_meters":3600,"station_id":"ce4bh292rcd13ifvqdg0","pricing_plan_id":"cebpf4jnsgd1na2vs0mg"},{"bike_id":"5cccb452-224d-486f-8f55-ab6f9fb0d289","system_id":"levelo_inurba_marseille","lat":43.30095,"lon":5.39762,"is_reserved":false,"is_disabled":false,"rental_uris":{"android":"levelo://app?vid=5cccb452-224d-486f-8f55-ab6f9fb0d289","ios":"levelo://app?vid=5cccb452-224d-486f-8f55-ab6f9fb0d289"},"vehicle_type_id":"4","last_reported":1753305085,"current_range_meters":3600,"station_id":"","pricing_plan_id":"cebpf4jnsgd1na2vs0mg"},{"bike_id":"fc76364d-f5f2-4ddd-9102-6da09898708b","system_id":"levelo_inurba_marseille","lat":43.25106,"lon":5.40326,"is_reserved":false,"is_disabled":false,"rental_uris":{"android":"levelo://app?vid=fc76364d-f5f2-4ddd-9102-6da09898708b","ios":"levelo://app?vid=fc76364d-f5f2-4ddd-9102-6da09898708b"},"vehicle_type_id":"4","last_reported":1753305085,"current_range_meters":3600,"station_id":"ce4bhlh2rcd13ifvqgig","pricing_plan_id":"cebpf4jnsgd1na2vs0mg"},{"bike_id":"33442a73-4bba-41df-b590-d990fcc1d088","system_id":"levelo_inurba_marseille","lat":43.31327,"lon":5.39693,"is_reserved":false,"is_disabled":false,"rental_uris":{"android":"levelo://app?vid=33442a73-4bba-41df-b590-d990fcc1d088","ios":"levelo://app?vid=33442a73-4bba-41df-b590-d990fcc1d088"},"vehicle_type_id":"4","last_reported":1753305085,"current_range_meters":4000,"station_id":"ce4bgvp2rcd13ifvqcu0","pricing_plan_id":"cebpf4jnsgd1na2vs0mg"},{"bike_id":"dd4ee137-0323-4a01-ad86-c4a4e32dbc14","system_id":"levelo_inurba_marseille","lat":43.2886,"lon":5.39322,"is_reserved":false,"is_disabled":false,"rental_uris":{"android":"levelo://app?vid=dd4ee137-0323-4a01-ad86-c4a4e32dbc14","ios":"levelo://app?vid=dd4ee137-0323-4a01-ad86-c4a4e32dbc14"},"vehicle_type_id":"4","last_reported":1753305085,"current_range_meters":4000,"station_id":"ce4bh2p2rcd13ifvqdi0","pricing_plan_id":"cebpf4jnsgd1na2vs0mg"},{"bike_id":"6d21db84-7e75-4dee-b180-ee14c7111160","system_id":"levelo_inurba_marseille","lat":43.28407,"lon":5.37531,"is_reserved":false,"is_disabled":false,"rental_uris":{"android":"levelo://app?vid=6d21db84-7e75-4dee-b180-ee14c7111160","ios":"levelo://app?vid=6d21db84-7e75-4dee-b180-ee14c7111160"},"vehicle_type_id":"4","last_reported":1753305085,"current_range_meters":4000,"station_id":"ce4bh412rcd13ifvqds0","pricing_plan_id":"cebpf4jnsgd1na2vs0mg"},{"bike_id":"be805312-f49e-49b0-93bc-0efe335a0a91","system_id":"levelo_inurba_marseille","lat":43.28697,"lon":5.39989,"is_reserved":false,"is_disabled":false,"rental_uris":{"android":"levelo://app?vid=be805312-f49e-49b0-93bc-0efe335a0a91","ios":"levelo://app?vid=be805312-f49e-49b0-93bc-0efe335a0a91"},"vehicle_type_id":"4","last_reported":1753305085,"current_range_meters":4000,"station_id":"ce4bho92rcd13ifvqh3g","pricing_plan_id":"cebpf4jnsgd1na2vs0mg"},{"bike_id":"ff533ad4-dad0-4595-bee5-b9f5c15a5b64","system_id":"levelo_inurba_marseille","lat":43.28942,"lon":5.36389,"is_reserved":false,"is_disabled":false,"rental_uris":{"android":"levelo://app?vid=ff533ad4-dad0-4595-bee5-b9f5c15a5b64","ios":"levelo://app?vid=ff533ad4-dad0-4595-bee5-b9f5c15a5b64"},"vehicle_type_id":"4","last_reported":1753305085,"current_range_meters":4400,"station_id":"ce4bhc92rcd13ifvqetg","pricing_plan_id":"cebpf4jnsgd1na2vs0mg"},{"bike_id":"bb89306d-f948-4e3c-b597-0b7d45d98d96","system_id":"levelo_inurba_marseille","lat":43.31482,"lon":5.3731,"is_reserved":false,"is_disabled":false,"rental_uris":{"android":"levelo://app?vid=bb89306d-f948-4e3c-b597-0b7d45d98d96","ios":"levelo://app?vid=bb89306d-f948-4e3c-b597-0b7d45d98d96"},"vehicle_type_id":"4","last_reported":1753305085,"current_range_meters":4400,"station_id":"ce4bgt12rcd13ifvqcd0","pricing_plan_id":"cebpf4jnsgd1na2vs0mg"},{"bike_id":"3e672a12-a06c-421d-8d90-001874a4fd84","system_id":"levelo_inurba_marseille","lat":43.302027,"lon":5.39452,"is_reserved":false,"is_disabled":true,"rental_uris":{"android":"levelo://app?vid=3e672a12-a06c-421d-8d90-001874a4fd84","ios":"levelo://app?vid=3e672a12-a06c-421d-8d90-001874a4fd84"},"vehicle_type_id":"4","last_reported":1753305085,"current_range_meters":4800,"station_id":"ce4bh0p2rcd13ifvqd70","pricing_plan_id":"cebpf4jnsgd1na2vs0mg"},{"bike_id":"235238f4-3003-4e86-9719-3f4bf00ef55a","system_id":"levelo_inurba_marseille","lat":43.24076,"lon":5.377439,"is_reserved":false,"is_disabled":false,"rental_uris":{"android":"levelo://app?vid=235238f4-3003-4e86-9719-3f4bf00ef55a","ios":"levelo://app?vid=235238f4-3003-4e86-9719-3f4bf00ef55a"},"vehicle_type_id":"4","last_reported":1753305085,"current_range_meters":4800,"station_id":"ce4bhnp2rcd13ifvqgvg","pricing_plan_id":"cebpf4jnsgd1na2vs0mg"},{"bike_id":"a7abbd16-7464-47d6-bce3-b9d619de3c6f","system_id":"levelo_inurba_marseille","lat":43.29641,"lon":5.38137,"is_reserved":false,"is_disabled":false,"rental_uris":{"android":"levelo://app?vid=a7abbd16-7464-47d6-bce3-b9d619de3c6f","ios":"levelo://app?vid=a7abbd16-7464-47d6-bce3-b9d619de3c6f"},"vehicle_type_id":"4","last_reported":1753305085,"current_range_meters":4800,"station_id":"","pricing_plan_id":"cebpf4jnsgd1na2vs0mg"},{"bike_id":"83766871-d64f-4fc8-9d3b-2ceaf03b1036","system_id":"levelo_inurba_marseille","lat":43.21184,"lon":5.35089,"is_reserved":false,"is_disabled":false,"rental_uris":{"android":"levelo://app?vid=83766871-d64f-4fc8-9d3b-2ceaf03b1036","ios":"levelo://app?vid=83766871-d64f-4fc8-9d3b-2ceaf03b1036"},"vehicle_type_id":"4","last_reported":1753305085,"current_range_meters":5600,"station_id":"st_cvj6sg6p6f1abm77japg","pricing_plan_id":"cebpf4jnsgd1na2vs0mg"},{"bike_id":"8016eb9d-146d-4075-aee1-9cc73700c51f","system_id":"levelo_inurba_marseille","lat":43.30424,"lon":5.39742,"is_reserved":false,"is_disabled":false,"rental_uris":{"android":"levelo://app?vid=8016eb9d-146d-4075-aee1-9cc73700c51f","ios":"levelo://app?vid=8016eb9d-146d-4075-aee1-9cc73700c51f"},"vehicle_type_id":"4","last_reported":1753305085,"current_range_meters":5600,"station_id":"ce4bh092rcd13ifvqd20","pricing_plan_id":"cebpf4jnsgd1na2vs0mg"},{"bike_id":"6c9a7f47-7098-4f35-80a8-3d29ffb0d9e7","system_id":"levelo_inurba_marseille","lat":43.28357,"lon":5.38642,"is_reserved":false,"is_disabled":false,"rental_uris":{"android":"levelo://app?vid=6c9a7f47-7098-4f35-80a8-3d29ffb0d9e7","ios":"levelo://app?vid=6c9a7f47-7098-4f35-80a8-3d29ffb0d9e7"},"vehicle_type_id":"4","last_reported":1753305085,"current_range_meters":4800,"station_id":"ce4bh492rcd13ifvqdvg","pricing_plan_id":"cebpf4jnsgd1na2vs0mg"},{"bike_id":"e51a3d09-c308-41c9-8a11-14c22ffe582f","system_id":"levelo_inurba_marseille","lat":43.27964,"lon":5.38746,"is_reserved":false,"is_disabled":false,"rental_uris":{"android":"levelo://app?vid=e51a3d09-c308-41c9-8a11-14c22ffe582f","ios":"levelo://app?vid=e51a3d09-c308-41c9-8a11-14c22ffe582f"},"vehicle_type_id":"4","last_reported":1753305085,"current_range_meters":6000,"station_id":"ce4bhg12rcd13ifvqf80","pricing_plan_id":"cebpf4jnsgd1na2vs0mg"},{"bike_id":"e677ac93-9c99-4f4e-9633-957dc0091b79","system_id":"levelo_inurba_marseille","lat":43.28701,"lon":5.39994,"is_reserved":false,"is_disabled":false,"rental_uris":{"android":"levelo://app?vid=e677ac93-9c99-4f4e-9633-957dc0091b79","ios":"levelo://app?vid=e677ac93-9c99-4f4e-9633-957dc0091b79"},"vehicle_type_id":"4","last_reported":1753305085,"current_range_meters":6000,"station_id":"ce4bho92rcd13ifvqh3g","pricing_plan_id":"cebpf4jnsgd1na2vs0mg"},{"bike_id":"6340f1a5-b933-4fda-b434-fed361aa93b3","system_id":"levelo_inurba_marseille","lat":43.30649,"lon":5.40091,"is_reserved":false,"is_disabled":false,"rental_uris":{"android":"levelo://app?vid=6340f1a5-b933-4fda-b434-fed361aa93b3","ios":"levelo://app?vid=6340f1a5-b933-4fda-b434-fed361aa93b3"},"vehicle_type_id":"4","last_reported":1753305085,"current_range_meters":6000,"station_id":"ce4bh112rcd13ifvqda0","pricing_plan_id":"cebpf4jnsgd1na2vs0mg"},{"bike_id":"28eb733d-89fe-47f6-8089-f4c5a30dd6ab","system_id":"levelo_inurba_marseille","lat":43.267792,"lon":5.394174,"is_reserved":false,"is_disabled":false,"rental_uris":{"android":"levelo://app?vid=28eb733d-89fe-47f6-8089-f4c5a30dd6ab","ios":"levelo://app?vid=28eb733d-89fe-47f6-8089-f4c5a30dd6ab"},"vehicle_type_id":"4","last_reported":1753305085,"current_range_meters":6400,"station_id":"ce4bhh12rcd13ifvqfg0","pricing_plan_id":"cebpf4jnsgd1na2vs0mg"},{"bike_id":"562938d1-4755-49a3-b8d1-d6f824158c23","system_id":"levelo_inurba_marseille","lat":43.28408,"lon":5.37509,"is_reserved":false,"is_disabled":false,"rental_uris":{"android":"levelo://app?vid=562938d1-4755-49a3-b8d1-d6f824158c23","ios":"levelo://app?vid=562938d1-4755-49a3-b8d1-d6f824158c23"},"vehicle_type_id":"4","last_reported":1753305085,"current_range_meters":6400,"station_id":"ce4bh412rcd13ifvqds0","pricing_plan_id":"cebpf4jnsgd1na2vs0mg"},{"bike_id":"dc00dd8a-48c2-4cb6-860e-2f7bdf85c4ea","system_id":"levelo_inurba_marseille","lat":43.298459,"lon":5.362741,"is_reserved":false,"is_disabled":false,"rental_uris":{"android":"levelo://app?vid=dc00dd8a-48c2-4cb6-860e-2f7bdf85c4ea","ios":"levelo://app?vid=dc00dd8a-48c2-4cb6-860e-2f7bdf85c4ea"},"vehicle_type_id":"4","last_reported":1753305085,"current_range_meters":6400,"station_id":"","pricing_plan_id":"cebpf4jnsgd1na2vs0mg"},{"bike_id":"ec0adf83-6184-4d63-a8bd-8a4c46331101","system_id":"levelo_inurba_marseille","lat":43.260644,"lon":5.393881,"is_reserved":false,"is_disabled":true,"rental_uris":{"android":"levelo://app?vid=ec0adf83-6184-4d63-a8bd-8a4c46331101","ios":"levelo://app?vid=ec0adf83-6184-4d63-a8bd-8a4c46331101"},"vehicle_type_id":"4","last_reported":1753305085,"current_range_meters":6400,"station_id":"ce4bhh92rcd13ifvqfj0","pricing_plan_id":"cebpf4jnsgd1na2vs0mg"},{"bike_id":"c46e89c1-efe8-4cd4-b5f9-3188e5d71203","system_id":"levelo_inurba_marseille","lat":43.29184,"lon":5.39331,"is_reserved":false,"is_disabled":false,"rental_uris":{"android":"levelo://app?vid=c46e89c1-efe8-4cd4-b5f9-3188e5d71203","ios":"levelo://app?vid=c46e89c1-efe8-4cd4-b5f9-3188e5d71203"},"vehicle_type_id":"4","last_reported":1753305085,"current_range_meters":6800,"station_id":"ce4bh192rcd13ifvqdd0","pricing_plan_id":"cebpf4jnsgd1na2vs0mg"},{"bike_id":"6664b110-6024-4d10-904c-70f0e732d65e","system_id":"levelo_inurba_marseille","lat":43.26214,"lon":5.37458,"is_reserved":false,"is_disabled":true,"rental_uris":{"android":"levelo://app?vid=6664b110-6024-4d10-904c-70f0e732d65e","ios":"levelo://app?vid=6664b110-6024-4d10-904c-70f0e732d65e"},"vehicle_type_id":"4","last_reported":1753305085,"current_range_meters":6800,"station_id":"ce4bhgp2rcd13ifvqfc0","pricing_plan_id":"cebpf4jnsgd1na2vs0mg"},{"bike_id":"f65cd5bb-e956-46b9-b5c9-958c608e9ff6","system_id":"levelo_inurba_marseille","lat":43.28926,"lon":5.3665,"is_reserved":false,"is_disabled":false,"rental_uris":{"android":"levelo://app?vid=f65cd5bb-e956-46b9-b5c9-958c608e9ff6","ios":"levelo://app?vid=f65cd5bb-e956-46b9-b5c9-958c608e9ff6"},"vehicle_type_id":"4","last_reported":1753305085,"current_range_meters":6800,"station_id":"ce4bhap2rcd13ifvqek0","pricing_plan_id":"cebpf4jnsgd1na2vs0mg"},{"bike_id":"23c62162-df94-469d-9b88-2295b4362052","system_id":"levelo_inurba_marseille","lat":43.295266,"lon":5.390401,"is_reserved":false,"is_disabled":false,"rental_uris":{"android":"levelo://app?vid=23c62162-df94-469d-9b88-2295b4362052","ios":"levelo://app?vid=23c62162-df94-469d-9b88-2295b4362052"},"vehicle_type_id":"4","last_reported":1753305085,"current_range_meters":6800,"station_id":"ce4bh3p2rcd13ifvqdp0","pricing_plan_id":"cebpf4jnsgd1na2vs0mg"},{"bike_id":"d07f0755-aca6-4050-807e-9c5aaf0dd619","system_id":"levelo_inurba_marseille","lat":43.296823,"lon":5.372723,"is_reserved":false,"is_disabled":true,"rental_uris":{"android":"levelo://app?vid=d07f0755-aca6-4050-807e-9c5aaf0dd619","ios":"levelo://app?vid=d07f0755-aca6-4050-807e-9c5aaf0dd619"},"vehicle_type_id":"4","last_reported":1753305085,"current_range_meters":7200,"station_id":"ce4bgk12rcd13ifvqbj0","pricing_plan_id":"cebpf4jnsgd1na2vs0mg"},{"bike_id":"9ae7d50c-a3ea-4136-8080-315c191e000a","system_id":"levelo_inurba_marseille","lat":43.28763,"lon":5.38424,"is_reserved":false,"is_disabled":false,"rental_uris":{"android":"levelo://app?vid=9ae7d50c-a3ea-4136-8080-315c191e000a","ios":"levelo://app?vid=9ae7d50c-a3ea-4136-8080-315c191e000a"},"vehicle_type_id":"4","last_reported":1753305085,"current_range_meters":7200,"station_id":"","pricing_plan_id":"cebpf4jnsgd1na2vs0mg"},{"bike_id":"cec54183-4175-4e4a-8f8a-f4fafb6e7dc0","system_id":"levelo_inurba_marseille","lat":43.27956,"lon":5.38984,"is_reserved":false,"is_disabled":false,"rental_uris":{"android":"levelo://app?vid=cec54183-4175-4e4a-8f8a-f4fafb6e7dc0","ios":"levelo://app?vid=cec54183-4175-4e4a-8f8a-f4fafb6e7dc0"},"vehicle_type_id":"4","last_reported":1753305085,"current_range_meters":7200,"station_id":"","pricing_plan_id":"cebpf4jnsgd1na2vs0mg"},{"bike_id":"2f83b8a3-4128-46a7-b66f-1e08787ffdfd","system_id":"levelo_inurba_marseille","lat":43.30428,"lon":5.39754,"is_reserved":false,"is_disabled":false,"rental_uris":{"android":"levelo://app?vid=2f83b8a3-4128-46a7-b66f-1e08787ffdfd","ios":"levelo://app?vid=2f83b8a3-4128-46a7-b66f-1e08787ffdfd"},"vehicle_type_id":"4","last_reported":1753305085,"current_range_meters":6800,"station_id":"ce4bh092rcd13ifvqd20","pricing_plan_id":"cebpf4jnsgd1na2vs0mg"},{"bike_id":"f614a5fa-3e20-4276-97a0-7c5f2dfcabb0","system_id":"levelo_inurba_marseille","lat":43.26563,"lon":5.39011,"is_reserved":false,"is_disabled":false,"rental_uris":{"android":"levelo://app?vid=f614a5fa-3e20-4276-97a0-7c5f2dfcabb0","ios":"levelo://app?vid=f614a5fa-3e20-4276-97a0-7c5f2dfcabb0"},"vehicle_type_id":"4","last_reported":1753305085,"current_range_meters":7200,"station_id":"ce4bhe12rcd13ifvqf30","pricing_plan_id":"cebpf4jnsgd1na2vs0mg"},{"bike_id":"4a2539c6-a1f3-484c-8913-bfa1761459f5","system_id":"levelo_inurba_marseille","lat":43.29633,"lon":5.40599,"is_reserved":false,"is_disabled":false,"rental_uris":{"android":"levelo://app?vid=4a2539c6-a1f3-484c-8913-bfa1761459f5","ios":"levelo://app?vid=4a2539c6-a1f3-484c-8913-bfa1761459f5"},"vehicle_type_id":"4","last_reported":1753305085,"current_range_meters":7200,"station_id":"ce4bh0h2rcd13ifvqd60","pricing_plan_id":"cebpf4jnsgd1na2vs0mg"},{"bike_id":"7696c9f9-ef6c-4a9d-9721-a45eb9f77f6f","system_id":"levelo_inurba_marseille","lat":43.3024,"lon":5.40051,"is_reserved":false,"is_disabled":false,"rental_uris":{"android":"levelo://app?vid=7696c9f9-ef6c-4a9d-9721-a45eb9f77f6f","ios":"levelo://app?vid=7696c9f9-ef6c-4a9d-9721-a45eb9f77f6f"},"vehicle_type_id":"4","last_reported":1753305085,"current_range_meters":8000,"station_id":"ce4bgvh2rcd13ifvqcs0","pricing_plan_id":"cebpf4jnsgd1na2vs0mg"},{"bike_id":"846538d0-e796-454f-89ab-7343700ac6bf","system_id":"levelo_inurba_marseille","lat":43.292636,"lon":5.384395,"is_reserved":false,"is_disabled":false,"rental_uris":{"android":"levelo://app?vid=846538d0-e796-454f-89ab-7343700ac6bf","ios":"levelo://app?vid=846538d0-e796-454f-89ab-7343700ac6bf"},"vehicle_type_id":"4","last_reported":1753305085,"current_range_meters":8000,"station_id":"ce4bh692rcd13ifvqea0","pricing_plan_id":"cebpf4jnsgd1na2vs0mg"},{"bike_id":"2de0dc63-c0f7-45c0-9915-ac256941e32d","system_id":"levelo_inurba_marseille","lat":43.2846,"lon":5.35866,"is_reserved":false,"is_disabled":false,"rental_uris":{"android":"levelo://app?vid=2de0dc63-c0f7-45c0-9915-ac256941e32d","ios":"levelo://app?vid=2de0dc63-c0f7-45c0-9915-ac256941e32d"},"vehicle_type_id":"4","last_reported":1753305085,"current_range_meters":8000,"station_id":"ce4bhah2rcd13ifvqei0","pricing_plan_id":"cebpf4jnsgd1na2vs0mg"},{"bike_id":"56d6580e-bce0-49f8-83c1-c1c86d82a0a6","system_id":"levelo_inurba_marseille","lat":43.30807,"lon":5.381455,"is_reserved":false,"is_disabled":true,"rental_uris":{"android":"levelo://app?vid=56d6580e-bce0-49f8-83c1-c1c86d82a0a6","ios":"levelo://app?vid=56d6580e-bce0-49f8-83c1-c1c86d82a0a6"},"vehicle_type_id":"4","last_reported":1753305085,"current_range_meters":8400,"station_id":"ce4bgt12rcd13ifvqce0","pricing_plan_id":"cebpf4jnsgd1na2vs0mg"},{"bike_id":"0454ad79-6ad7-4db8-ae23-b52e6a54a65d","system_id":"levelo_inurba_marseille","lat":43.248043,"lon":5.374572,"is_reserved":false,"is_disabled":false,"rental_uris":{"android":"levelo://app?vid=0454ad79-6ad7-4db8-ae23-b52e6a54a65d","ios":"levelo://app?vid=0454ad79-6ad7-4db8-ae23-b52e6a54a65d"},"vehicle_type_id":"4","last_reported":1753305085,"current_range_meters":8400,"station_id":"ce4bhgh2rcd13ifvqfb0","pricing_plan_id":"cebpf4jnsgd1na2vs0mg"},{"bike_id":"26be4685-15bc-435c-b307-7febbc485157","system_id":"levelo_inurba_marseille","lat":43.29243,"lon":5.40924,"is_reserved":false,"is_disabled":false,"rental_uris":{"android":"levelo://app?vid=26be4685-15bc-435c-b307-7febbc485157","ios":"levelo://app?vid=26be4685-15bc-435c-b307-7febbc485157"},"vehicle_type_id":"4","last_reported":1753305085,"current_range_meters":8400,"station_id":"ce4bh192rcd13ifvqdc0","pricing_plan_id":"cebpf4jnsgd1na2vs0mg"},{"bike_id":"7634156a-368b-429c-9ace-14ee2370e3ab","system_id":"levelo_inurba_marseille","lat":43.29267,"lon":5.38437,"is_reserved":false,"is_disabled":false,"rental_uris":{"android":"levelo://app?vid=7634156a-368b-429c-9ace-14ee2370e3ab","ios":"levelo://app?vid=7634156a-368b-429c-9ace-14ee2370e3ab"},"vehicle_type_id":"4","last_reported":1753305085,"current_range_meters":8400,"station_id":"ce4bh692rcd13ifvqea0","pricing_plan_id":"cebpf4jnsgd1na2vs0mg"},{"bike_id":"a5f1f0d6-c678-45f4-9b29-96eaa29a3e36","system_id":"levelo_inurba_marseille","lat":43.251633,"lon":5.373377,"is_reserved":false,"is_disabled":true,"rental_uris":{"android":"levelo://app?vid=a5f1f0d6-c678-45f4-9b29-96eaa29a3e36","ios":"levelo://app?vid=a5f1f0d6-c678-45f4-9b29-96eaa29a3e36"},"vehicle_type_id":"4","last_reported":1753305085,"current_range_meters":8400,"station_id":"","pricing_plan_id":"cebpf4jnsgd1na2vs0mg"},{"bike_id":"e4761578-ae86-4dfa-b146-0428e5d8cca7","system_id":"levelo_inurba_marseille","lat":43.24179,"lon":5.3639,"is_reserved":false,"is_disabled":true,"rental_uris":{"android":"levelo://app?vid=e4761578-ae86-4dfa-b146-0428e5d8cca7","ios":"levelo://app?vid=e4761578-ae86-4dfa-b146-0428e5d8cca7"},"vehicle_type_id":"4","last_reported":1753305085,"current_range_meters":8800,"station_id":"cpo36qri1sfpv3e86is0","pricing_plan_id":"cebpf4jnsgd1na2vs0mg"},{"bike_id":"99c992ad-718b-4ac7-afb7-39da79c6c83b","system_id":"levelo_inurba_marseille","lat":43.281575,"lon":5.426544,"is_reserved":false,"is_disabled":false,"rental_uris":{"android":"levelo://app?vid=99c992ad-718b-4ac7-afb7-39da79c6c83b","ios":"levelo://app?vid=99c992ad-718b-4ac7-afb7-39da79c6c83b"},"vehicle_type_id":"4","last_reported":1753305085,"current_range_meters":8800,"station_id":"ce4bhnh2rcd13ifvqgug","pricing_plan_id":"cebpf4jnsgd1na2vs0mg"},{"bike_id":"cc90d8b1-c5a5-4868-b902-1a8ca8c3d09b","system_id":"levelo_inurba_marseille","lat":43.29579,"lon":5.36765,"is_reserved":false,"is_disabled":false,"rental_uris":{"android":"levelo://app?vid=cc90d8b1-c5a5-4868-b902-1a8ca8c3d09b","ios":"levelo://app?vid=cc90d8b1-c5a5-4868-b902-1a8ca8c3d09b"},"vehicle_type_id":"4","last_reported":1753305085,"current_range_meters":8800,"station_id":"ce4bgph2rcd13ifvqc2g","pricing_plan_id":"cebpf4jnsgd1na2vs0mg"},{"bike_id":"3c21b9e1-b296-4844-a6d5-b8d19c7f36c9","system_id":"levelo_inurba_marseille","lat":43.29192,"lon":5.38456,"is_reserved":false,"is_disabled":false,"rental_uris":{"android":"levelo://app?vid=3c21b9e1-b296-4844-a6d5-b8d19c7f36c9","ios":"levelo://app?vid=3c21b9e1-b296-4844-a6d5-b8d19c7f36c9"},"vehicle_type_id":"4","last_reported":1753305085,"current_range_meters":8800,"station_id":"","pricing_plan_id":"cebpf4jnsgd1na2vs0mg"},{"bike_id":"8e98eab0-66ab-41cb-865f-913b58891b39","system_id":"levelo_inurba_marseille","lat":43.22493,"lon":5.34772,"is_reserved":false,"is_disabled":false,"rental_uris":{"android":"levelo://app?vid=8e98eab0-66ab-41cb-865f-913b58891b39","ios":"levelo://app?vid=8e98eab0-66ab-41cb-865f-913b58891b39"},"vehicle_type_id":"4","last_reported":1753305085,"current_range_meters":8800,"station_id":"st_cvj5dfep6f1abm77gieg","pricing_plan_id":"cebpf4jnsgd1na2vs0mg"},{"bike_id":"aa5097b6-6968-4aec-b711-e7780938924b","system_id":"levelo_inurba_marseille","lat":43.32954,"lon":5.35913,"is_reserved":false,"is_disabled":false,"rental_uris":{"android":"levelo://app?vid=aa5097b6-6968-4aec-b711-e7780938924b","ios":"levelo://app?vid=aa5097b6-6968-4aec-b711-e7780938924b"},"vehicle_type_id":"4","last_reported":1753305085,"current_range_meters":8800,"station_id":"","pricing_plan_id":"cebpf4jnsgd1na2vs0mg"},{"bike_id":"d4ecb26b-d4d9-42a2-98cb-c28ce33b061e","system_id":"levelo_inurba_marseille","lat":43.29845,"lon":5.36269,"is_reserved":false,"is_disabled":false,"rental_uris":{"android":"levelo://app?vid=d4ecb26b-d4d9-42a2-98cb-c28ce33b061e","ios":"levelo://app?vid=d4ecb26b-d4d9-42a2-98cb-c28ce33b061e"},"vehicle_type_id":"4","last_reported":1753305085,"current_range_meters":9200,"station_id":"ce4bgpp2rcd13ifvqc3g","pricing_plan_id":"cebpf4jnsgd1na2vs0mg"},{"bike_id":"f00b7f19-d5c3-4f36-abc0-816c54d280ee","system_id":"levelo_inurba_marseille","lat":43.290374,"lon":5.381902,"is_reserved":false,"is_disabled":false,"rental_uris":{"android":"levelo://app?vid=f00b7f19-d5c3-4f36-abc0-816c54d280ee","ios":"levelo://app?vid=f00b7f19-d5c3-4f36-abc0-816c54d280ee"},"vehicle_type_id":"4","last_reported":1753305085,"current_range_meters":9200,"station_id":"ce4bh512rcd13ifvqe2g","pricing_plan_id":"cebpf4jnsgd1na2vs0mg"},{"bike_id":"c9dbd36b-479c-4a5c-b200-3aa7673340d9","system_id":"levelo_inurba_marseille","lat":43.241448,"lon":5.363743,"is_reserved":false,"is_disabled":true,"rental_uris":{"android":"levelo://app?vid=c9dbd36b-479c-4a5c-b200-3aa7673340d9","ios":"levelo://app?vid=c9dbd36b-479c-4a5c-b200-3aa7673340d9"},"vehicle_type_id":"4","last_reported":1753305085,"current_range_meters":9200,"station_id":"","pricing_plan_id":"cebpf4jnsgd1na2vs0mg"},{"bike_id":"cb25c367-865e-45d0-8861-2e857632a947","system_id":"levelo_inurba_marseille","lat":43.293897,"lon":5.374269,"is_reserved":false,"is_disabled":false,"rental_uris":{"android":"levelo://app?vid=cb25c367-865e-45d0-8861-2e857632a947","ios":"levelo://app?vid=cb25c367-865e-45d0-8861-2e857632a947"},"vehicle_type_id":"4","last_reported":1753305085,"current_range_meters":9200,"station_id":"ce4bgh92rcd13ifvqb40","pricing_plan_id":"cebpf4jnsgd1na2vs0mg"},{"bike_id":"265012ac-1301-4b91-8401-42847d4fcdb9","system_id":"levelo_inurba_marseille","lat":43.29575,"lon":5.36744,"is_reserved":false,"is_disabled":false,"rental_uris":{"android":"levelo://app?vid=265012ac-1301-4b91-8401-42847d4fcdb9","ios":"levelo://app?vid=265012ac-1301-4b91-8401-42847d4fcdb9"},"vehicle_type_id":"4","last_reported":1753305085,"current_range_meters":9200,"station_id":"ce4bgph2rcd13ifvqc2g","pricing_plan_id":"cebpf4jnsgd1na2vs0mg"},{"bike_id":"7a1ef1c2-c058-45b6-b788-86d261e4f088","system_id":"levelo_inurba_marseille","lat":43.29206,"lon":5.3931,"is_reserved":false,"is_disabled":true,"rental_uris":{"android":"levelo://app?vid=7a1ef1c2-c058-45b6-b788-86d261e4f088","ios":"levelo://app?vid=7a1ef1c2-c058-45b6-b788-86d261e4f088"},"vehicle_type_id":"4","last_reported":1753305085,"current_range_meters":9200,"station_id":"ce4bh192rcd13ifvqdd0","pricing_plan_id":"cebpf4jnsgd1na2vs0mg"},{"bike_id":"d4d239ed-eba5-48b9-adcd-01e84bd32770","system_id":"levelo_inurba_marseille","lat":43.2866,"lon":5.36354,"is_reserved":false,"is_disabled":false,"rental_uris":{"android":"levelo://app?vid=d4d239ed-eba5-48b9-adcd-01e84bd32770","ios":"levelo://app?vid=d4d239ed-eba5-48b9-adcd-01e84bd32770"},"vehicle_type_id":"4","last_reported":1753305085,"current_range_meters":9600,"station_id":"ce4bhah2rcd13ifvqej0","pricing_plan_id":"cebpf4jnsgd1na2vs0mg"},{"bike_id":"da053e6a-15f2-492e-8bc1-42b1d66cc329","system_id":"levelo_inurba_marseille","lat":43.2833,"lon":5.43265,"is_reserved":false,"is_disabled":false,"rental_uris":{"android":"levelo://app?vid=da053e6a-15f2-492e-8bc1-42b1d66cc329","ios":"levelo://app?vid=da053e6a-15f2-492e-8bc1-42b1d66cc329"},"vehicle_type_id":"4","last_reported":1753305085,"current_range_meters":9600,"station_id":"","pricing_plan_id":"cebpf4jnsgd1na2vs0mg"},{"bike_id":"b6928ad5-21c7-4158-883c-cc5d54c79910","system_id":"levelo_inurba_marseille","lat":43.298431,"lon":5.362674,"is_reserved":false,"is_disabled":false,"rental_uris":{"android":"levelo://app?vid=b6928ad5-21c7-4158-883c-cc5d54c79910","ios":"levelo://app?vid=b6928ad5-21c7-4158-883c-cc5d54c79910"},"vehicle_type_id":"4","last_reported":1753305085,"current_range_meters":9600,"station_id":"","pricing_plan_id":"cebpf4jnsgd1na2vs0mg"},{"bike_id":"2c11cc8d-cbc9-4f36-8f09-70b22b944181","system_id":"levelo_inurba_marseille","lat":43.29247,"lon":5.38445,"is_reserved":false,"is_disabled":false,"rental_uris":{"android":"levelo://app?vid=2c11cc8d-cbc9-4f36-8f09-70b22b944181","ios":"levelo://app?vid=2c11cc8d-cbc9-4f36-8f09-70b22b944181"},"vehicle_type_id":"4","last_reported":1753305085,"current_range_meters":9600,"station_id":"ce4bh692rcd13ifvqea0","pricing_plan_id":"cebpf4jnsgd1na2vs0mg"},{"bike_id":"71883e3a-ecc9-49e8-81d2-45700188f7a5","system_id":"levelo_inurba_marseille","lat":43.29586,"lon":5.36745,"is_reserved":false,"is_disabled":false,"rental_uris":{"android":"levelo://app?vid=71883e3a-ecc9-49e8-81d2-45700188f7a5","ios":"levelo://app?vid=71883e3a-ecc9-49e8-81d2-45700188f7a5"},"vehicle_type_id":"4","last_reported":1753305085,"current_range_meters":9600,"station_id":"ce4bgph2rcd13ifvqc2g","pricing_plan_id":"cebpf4jnsgd1na2vs0mg"},{"bike_id":"0b5f8c56-de36-465c-8d76-97cbd012e3a4","system_id":"levelo_inurba_marseille","lat":43.30312,"lon":5.36909,"is_reserved":false,"is_disabled":false,"rental_uris":{"android":"levelo://app?vid=0b5f8c56-de36-465c-8d76-97cbd012e3a4","ios":"levelo://app?vid=0b5f8c56-de36-465c-8d76-97cbd012e3a4"},"vehicle_type_id":"4","last_reported":1753305085,"current_range_meters":9600,"station_id":"ce4bgqh2rcd13ifvqc5g","pricing_plan_id":"cebpf4jnsgd1na2vs0mg"},{"bike_id":"2be76c49-bf80-4198-a3fe-a2ac76a15694","system_id":"levelo_inurba_marseille","lat":43.2999,"lon":5.371863,"is_reserved":false,"is_disabled":false,"rental_uris":{"android":"levelo://app?vid=2be76c49-bf80-4198-a3fe-a2ac76a15694","ios":"levelo://app?vid=2be76c49-bf80-4198-a3fe-a2ac76a15694"},"vehicle_type_id":"4","last_reported":1753305085,"current_range_meters":9600,"station_id":"ce4bgr92rcd13ifvqc7g","pricing_plan_id":"cebpf4jnsgd1na2vs0mg"},{"bike_id":"f20b4cc0-d1a1-4852-93b7-7fda4062e267","system_id":"levelo_inurba_marseille","lat":43.29852,"lon":5.36289,"is_reserved":false,"is_disabled":false,"rental_uris":{"android":"levelo://app?vid=f20b4cc0-d1a1-4852-93b7-7fda4062e267","ios":"levelo://app?vid=f20b4cc0-d1a1-4852-93b7-7fda4062e267"},"vehicle_type_id":"4","last_reported":1753305085,"current_range_meters":10000,"station_id":"ce4bgpp2rcd13ifvqc3g","pricing_plan_id":"cebpf4jnsgd1na2vs0mg"},{"bike_id":"5584f004-a932-4bd5-8ad7-b43d2eea8e5c","system_id":"levelo_inurba_marseille","lat":43.29575,"lon":5.36757,"is_reserved":false,"is_disabled":false,"rental_uris":{"android":"levelo://app?vid=5584f004-a932-4bd5-8ad7-b43d2eea8e5c","ios":"levelo://app?vid=5584f004-a932-4bd5-8ad7-b43d2eea8e5c"},"vehicle_type_id":"4","last_reported":1753305085,"current_range_meters":10000,"station_id":"ce4bgph2rcd13ifvqc2g","pricing_plan_id":"cebpf4jnsgd1na2vs0mg"},{"bike_id":"9db4aec4-3c9e-4ae6-b2c9-69703c9a136a","system_id":"levelo_inurba_marseille","lat":43.29514,"lon":5.39401,"is_reserved":false,"is_disabled":false,"rental_uris":{"android":"levelo://app?vid=9db4aec4-3c9e-4ae6-b2c9-69703c9a136a","ios":"levelo://app?vid=9db4aec4-3c9e-4ae6-b2c9-69703c9a136a"},"vehicle_type_id":"4","last_reported":1753305085,"current_range_meters":10000,"station_id":"ce4bh292rcd13ifvqdf0","pricing_plan_id":"cebpf4jnsgd1na2vs0mg"},{"bike_id":"9ed76ab7-815b-4fb8-a57f-76527b5432a9","system_id":"levelo_inurba_marseille","lat":43.29855,"lon":5.36283,"is_reserved":false,"is_disabled":false,"rental_uris":{"android":"levelo://app?vid=9ed76ab7-815b-4fb8-a57f-76527b5432a9","ios":"levelo://app?vid=9ed76ab7-815b-4fb8-a57f-76527b5432a9"},"vehicle_type_id":"4","last_reported":1753305085,"current_range_meters":10000,"station_id":"ce4bgpp2rcd13ifvqc3g","pricing_plan_id":"cebpf4jnsgd1na2vs0mg"},{"bike_id":"ab93d559-534a-4c68-9580-26c92521bf7c","system_id":"levelo_inurba_marseille","lat":43.305404,"lon":5.367252,"is_reserved":false,"is_disabled":false,"rental_uris":{"android":"levelo://app?vid=ab93d559-534a-4c68-9580-26c92521bf7c","ios":"levelo://app?vid=ab93d559-534a-4c68-9580-26c92521bf7c"},"vehicle_type_id":"4","last_reported":1753305085,"current_range_meters":10000,"station_id":"ce4bgrp2rcd13ifvqc9g","pricing_plan_id":"cebpf4jnsgd1na2vs0mg"},{"bike_id":"55b0bb95-5671-4d0f-bcd0-8b61b16fe14c","system_id":"levelo_inurba_marseille","lat":43.2693,"lon":5.38915,"is_reserved":false,"is_disabled":false,"rental_uris":{"android":"levelo://app?vid=55b0bb95-5671-4d0f-bcd0-8b61b16fe14c","ios":"levelo://app?vid=55b0bb95-5671-4d0f-bcd0-8b61b16fe14c"},"vehicle_type_id":"4","last_reported":1753305085,"current_range_meters":10000,"station_id":"ce4bhhh2rcd13ifvqfl0","pricing_plan_id":"cebpf4jnsgd1na2vs0mg"},{"bike_id":"b8150cbd-91af-4a95-8683-cea08eb061bb","system_id":"levelo_inurba_marseille","lat":43.27056,"lon":5.40258,"is_reserved":false,"is_disabled":false,"rental_uris":{"android":"levelo://app?vid=b8150cbd-91af-4a95-8683-cea08eb061bb","ios":"levelo://app?vid=b8150cbd-91af-4a95-8683-cea08eb061bb"},"vehicle_type_id":"4","last_reported":1753305085,"current_range_meters":10800,"station_id":"ce4bhk92rcd13ifvqgc0","pricing_plan_id":"cebpf4jnsgd1na2vs0mg"},{"bike_id":"a7b6cee9-09e9-4e52-971e-80c0559cd318","system_id":"levelo_inurba_marseille","lat":43.28469,"lon":5.3588,"is_reserved":false,"is_disabled":false,"rental_uris":{"android":"levelo://app?vid=a7b6cee9-09e9-4e52-971e-80c0559cd318","ios":"levelo://app?vid=a7b6cee9-09e9-4e52-971e-80c0559cd318"},"vehicle_type_id":"4","last_reported":1753305085,"current_range_meters":10800,"station_id":"ce4bhah2rcd13ifvqei0","pricing_plan_id":"cebpf4jnsgd1na2vs0mg"},{"bike_id":"c3b4c842-89f1-49ff-abb9-fc4b30df4519","system_id":"levelo_inurba_marseille","lat":43.25573,"lon":5.38235,"is_reserved":false,"is_disabled":true,"rental_uris":{"android":"levelo://app?vid=c3b4c842-89f1-49ff-abb9-fc4b30df4519","ios":"levelo://app?vid=c3b4c842-89f1-49ff-abb9-fc4b30df4519"},"vehicle_type_id":"4","last_reported":1753305085,"current_range_meters":10800,"station_id":"ce4bhih2rcd13ifvqfs0","pricing_plan_id":"cebpf4jnsgd1na2vs0mg"},{"bike_id":"c4ab8b6f-b9e7-4d47-91c0-82fcf9196b75","system_id":"levelo_inurba_marseille","lat":43.30248,"lon":5.4005,"is_reserved":false,"is_disabled":true,"rental_uris":{"android":"levelo://app?vid=c4ab8b6f-b9e7-4d47-91c0-82fcf9196b75","ios":"levelo://app?vid=c4ab8b6f-b9e7-4d47-91c0-82fcf9196b75"},"vehicle_type_id":"4","last_reported":1753305085,"current_range_meters":10800,"station_id":"ce4bgvh2rcd13ifvqcs0","pricing_plan_id":"cebpf4jnsgd1na2vs0mg"},{"bike_id":"56069e2e-0638-44dd-97e3-d34ae1708b48","system_id":"levelo_inurba_marseille","lat":43.29844,"lon":5.36275,"is_reserved":false,"is_disabled":false,"rental_uris":{"android":"levelo://app?vid=56069e2e-0638-44dd-97e3-d34ae1708b48","ios":"levelo://app?vid=56069e2e-0638-44dd-97e3-d34ae1708b48"},"vehicle_type_id":"4","last_reported":1753305085,"current_range_meters":10800,"station_id":"ce4bgpp2rcd13ifvqc3g","pricing_plan_id":"cebpf4jnsgd1na2vs0mg"},{"bike_id":"6dcf082e-1c3d-4c99-bf6f-b47cdb34e4dd","system_id":"levelo_inurba_marseille","lat":43.29582,"lon":5.36752,"is_reserved":false,"is_disabled":false,"rental_uris":{"android":"levelo://app?vid=6dcf082e-1c3d-4c99-bf6f-b47cdb34e4dd","ios":"levelo://app?vid=6dcf082e-1c3d-4c99-bf6f-b47cdb34e4dd"},"vehicle_type_id":"4","last_reported":1753305085,"current_range_meters":10800,"station_id":"ce4bgph2rcd13ifvqc2g","pricing_plan_id":"cebpf4jnsgd1na2vs0mg"},{"bike_id":"0ca25330-30cf-456c-9049-a65fa2b37e8d","system_id":"levelo_inurba_marseille","lat":43.303922,"lon":5.41848,"is_reserved":false,"is_disabled":false,"rental_uris":{"android":"levelo://app?vid=0ca25330-30cf-456c-9049-a65fa2b37e8d","ios":"levelo://app?vid=0ca25330-30cf-456c-9049-a65fa2b37e8d"},"vehicle_type_id":"4","last_reported":1753305085,"current_range_meters":10000,"station_id":"ce4bhop2rcd13ifvqh7g","pricing_plan_id":"cebpf4jnsgd1na2vs0mg"},{"bike_id":"deaf59a6-0ab0-401d-be58-d4dbcd342c19","system_id":"levelo_inurba_marseille","lat":43.31885,"lon":5.4073,"is_reserved":false,"is_disabled":false,"rental_uris":{"android":"levelo://app?vid=deaf59a6-0ab0-401d-be58-d4dbcd342c19","ios":"levelo://app?vid=deaf59a6-0ab0-401d-be58-d4dbcd342c19"},"vehicle_type_id":"4","last_reported":1753305085,"current_range_meters":11200,"station_id":"ce4bhq12rcd13ifvqhig","pricing_plan_id":"cebpf4jnsgd1na2vs0mg"},{"bike_id":"f9062784-0417-4840-bb15-81c56a64826f","system_id":"levelo_inurba_marseille","lat":43.22504,"lon":5.3478,"is_reserved":false,"is_disabled":false,"rental_uris":{"android":"levelo://app?vid=f9062784-0417-4840-bb15-81c56a64826f","ios":"levelo://app?vid=f9062784-0417-4840-bb15-81c56a64826f"},"vehicle_type_id":"4","last_reported":1753305085,"current_range_meters":11200,"station_id":"","pricing_plan_id":"cebpf4jnsgd1na2vs0mg"},{"bike_id":"47aefd95-dc05-4ec5-a29d-70cfe4b4a4b6","system_id":"levelo_inurba_marseille","lat":43.30306,"lon":5.39214,"is_reserved":false,"is_disabled":false,"rental_uris":{"android":"levelo://app?vid=47aefd95-dc05-4ec5-a29d-70cfe4b4a4b6","ios":"levelo://app?vid=47aefd95-dc05-4ec5-a29d-70cfe4b4a4b6"},"vehicle_type_id":"4","last_reported":1753305085,"current_range_meters":11200,"station_id":"","pricing_plan_id":"cebpf4jnsgd1na2vs0mg"},{"bike_id":"649a6524-8390-4653-8bcf-9537fff11e28","system_id":"levelo_inurba_marseille","lat":43.28462,"lon":5.35885,"is_reserved":false,"is_disabled":false,"rental_uris":{"android":"levelo://app?vid=649a6524-8390-4653-8bcf-9537fff11e28","ios":"levelo://app?vid=649a6524-8390-4653-8bcf-9537fff11e28"},"vehicle_type_id":"4","last_reported":1753305085,"current_range_meters":11200,"station_id":"ce4bhah2rcd13ifvqei0","pricing_plan_id":"cebpf4jnsgd1na2vs0mg"},{"bike_id":"5110c428-49c8-4321-80d3-645f9bfd8112","system_id":"levelo_inurba_marseille","lat":43.295845,"lon":5.367579,"is_reserved":false,"is_disabled":false,"rental_uris":{"android":"levelo://app?vid=5110c428-49c8-4321-80d3-645f9bfd8112","ios":"levelo://app?vid=5110c428-49c8-4321-80d3-645f9bfd8112"},"vehicle_type_id":"4","last_reported":1753305085,"current_range_meters":11200,"station_id":"ce4bgph2rcd13ifvqc2g","pricing_plan_id":"cebpf4jnsgd1na2vs0mg"},{"bike_id":"075306be-da07-44c1-ae71-40de217e9a24","system_id":"levelo_inurba_marseille","lat":43.28442,"lon":5.39205,"is_reserved":false,"is_disabled":false,"rental_uris":{"android":"levelo://app?vid=075306be-da07-44c1-ae71-40de217e9a24","ios":"levelo://app?vid=075306be-da07-44c1-ae71-40de217e9a24"},"vehicle_type_id":"4","last_reported":1753305085,"current_range_meters":11200,"station_id":"ce4bhoh2rcd13ifvqh5g","pricing_plan_id":"cebpf4jnsgd1na2vs0mg"},{"bike_id":"cc926983-7496-48df-9677-b8723ddc96b9","system_id":"levelo_inurba_marseille","lat":43.22928,"lon":5.354,"is_reserved":false,"is_disabled":false,"rental_uris":{"android":"levelo://app?vid=cc926983-7496-48df-9677-b8723ddc96b9","ios":"levelo://app?vid=cc926983-7496-48df-9677-b8723ddc96b9"},"vehicle_type_id":"4","last_reported":1753305085,"current_range_meters":11600,"station_id":"cpo3532slgdg3j2ikp40","pricing_plan_id":"cebpf4jnsgd1na2vs0mg"},{"bike_id":"6cbd5bb8-ece6-4a6e-9708-07d298472fb3","system_id":"levelo_inurba_marseille","lat":43.28349,"lon":5.38114,"is_reserved":false,"is_disabled":false,"rental_uris":{"android":"levelo://app?vid=6cbd5bb8-ece6-4a6e-9708-07d298472fb3","ios":"levelo://app?vid=6cbd5bb8-ece6-4a6e-9708-07d298472fb3"},"vehicle_type_id":"4","last_reported":1753305085,"current_range_meters":11600,"station_id":"ce4bh412rcd13ifvqdr0","pricing_plan_id":"cebpf4jnsgd1na2vs0mg"},{"bike_id":"836c0b14-b37d-4fb0-b55e-68694fdbdd96","system_id":"levelo_inurba_marseille","lat":43.25588,"lon":5.38198,"is_reserved":false,"is_disabled":false,"rental_uris":{"android":"levelo://app?vid=836c0b14-b37d-4fb0-b55e-68694fdbdd96","ios":"levelo://app?vid=836c0b14-b37d-4fb0-b55e-68694fdbdd96"},"vehicle_type_id":"4","last_reported":1753305085,"current_range_meters":11600,"station_id":"ce4bhih2rcd13ifvqfs0","pricing_plan_id":"cebpf4jnsgd1na2vs0mg"},{"bike_id":"04f9f10b-bbc9-478e-8f97-8baebb19ca0b","system_id":"levelo_inurba_marseille","lat":43.2886,"lon":5.39311,"is_reserved":false,"is_disabled":false,"rental_uris":{"android":"levelo://app?vid=04f9f10b-bbc9-478e-8f97-8baebb19ca0b","ios":"levelo://app?vid=04f9f10b-bbc9-478e-8f97-8baebb19ca0b"},"vehicle_type_id":"4","last_reported":1753305085,"current_range_meters":11600,"station_id":"ce4bh2p2rcd13ifvqdi0","pricing_plan_id":"cebpf4jnsgd1na2vs0mg"},{"bike_id":"eb954183-4e28-47d1-a5c2-d40cd268372d","system_id":"levelo_inurba_marseille","lat":43.28844,"lon":5.35846,"is_reserved":false,"is_disabled":true,"rental_uris":{"android":"levelo://app?vid=eb954183-4e28-47d1-a5c2-d40cd268372d","ios":"levelo://app?vid=eb954183-4e28-47d1-a5c2-d40cd268372d"},"vehicle_type_id":"4","last_reported":1753305085,"current_range_meters":11600,"station_id":"ce4bhb12rcd13ifvqem0","pricing_plan_id":"cebpf4jnsgd1na2vs0mg"},{"bike_id":"bdcb8fef-4f0e-4894-bfdf-01748a3012ce","system_id":"levelo_inurba_marseille","lat":43.25577,"lon":5.3824,"is_reserved":false,"is_disabled":false,"rental_uris":{"android":"levelo://app?vid=bdcb8fef-4f0e-4894-bfdf-01748a3012ce","ios":"levelo://app?vid=bdcb8fef-4f0e-4894-bfdf-01748a3012ce"},"vehicle_type_id":"4","last_reported":1753305085,"current_range_meters":11600,"station_id":"ce4bhih2rcd13ifvqfs0","pricing_plan_id":"cebpf4jnsgd1na2vs0mg"},{"bike_id":"2278f481-f3fc-4488-a179-f9bf6bc16f38","system_id":"levelo_inurba_marseille","lat":43.30138,"lon":5.37428,"is_reserved":false,"is_disabled":false,"rental_uris":{"android":"levelo://app?vid=2278f481-f3fc-4488-a179-f9bf6bc16f38","ios":"levelo://app?vid=2278f481-f3fc-4488-a179-f9bf6bc16f38"},"vehicle_type_id":"4","last_reported":1753305085,"current_range_meters":11600,"station_id":"ce4bgs92rcd13ifvqcc0","pricing_plan_id":"cebpf4jnsgd1na2vs0mg"},{"bike_id":"a4f5aa19-c47c-430a-abc4-49aef34b58f3","system_id":"levelo_inurba_marseille","lat":43.29834,"lon":5.36278,"is_reserved":false,"is_disabled":false,"rental_uris":{"android":"levelo://app?vid=a4f5aa19-c47c-430a-abc4-49aef34b58f3","ios":"levelo://app?vid=a4f5aa19-c47c-430a-abc4-49aef34b58f3"},"vehicle_type_id":"4","last_reported":1753305085,"current_range_meters":11600,"station_id":"ce4bgpp2rcd13ifvqc3g","pricing_plan_id":"cebpf4jnsgd1na2vs0mg"},{"bike_id":"81e6a598-2006-4ff1-b255-f2a2b36c4fb5","system_id":"levelo_inurba_marseille","lat":43.28721,"lon":5.36085,"is_reserved":false,"is_disabled":false,"rental_uris":{"android":"levelo://app?vid=81e6a598-2006-4ff1-b255-f2a2b36c4fb5","ios":"levelo://app?vid=81e6a598-2006-4ff1-b255-f2a2b36c4fb5"},"vehicle_type_id":"4","last_reported":1753305085,"current_range_meters":11600,"station_id":"cki0cbj6b192h4jlfktg","pricing_plan_id":"cebpf4jnsgd1na2vs0mg"},{"bike_id":"2c369b09-856a-461f-acef-8a5959d82f6c","system_id":"levelo_inurba_marseille","lat":43.29822,"lon":5.36309,"is_reserved":false,"is_disabled":false,"rental_uris":{"android":"levelo://app?vid=2c369b09-856a-461f-acef-8a5959d82f6c","ios":"levelo://app?vid=2c369b09-856a-461f-acef-8a5959d82f6c"},"vehicle_type_id":"4","last_reported":1753305085,"current_range_meters":12000,"station_id":"ce4bgpp2rcd13ifvqc3g","pricing_plan_id":"cebpf4jnsgd1na2vs0mg"},{"bike_id":"d45a61ac-268e-4099-802f-11612c01e6df","system_id":"levelo_inurba_marseille","lat":43.33606,"lon":5.41038,"is_reserved":false,"is_disabled":false,"rental_uris":{"android":"levelo://app?vid=d45a61ac-268e-4099-802f-11612c01e6df","ios":"levelo://app?vid=d45a61ac-268e-4099-802f-11612c01e6df"},"vehicle_type_id":"4","last_reported":1753305085,"current_range_meters":12000,"station_id":"ce4bhqh2rcd13ifvqhmg","pricing_plan_id":"cebpf4jnsgd1na2vs0mg"},{"bike_id":"1e7d27be-23af-4c7f-9a5e-514152b69086","system_id":"levelo_inurba_marseille","lat":43.29385,"lon":5.40969,"is_reserved":false,"is_disabled":false,"rental_uris":{"android":"levelo://app?vid=1e7d27be-23af-4c7f-9a5e-514152b69086","ios":"levelo://app?vid=1e7d27be-23af-4c7f-9a5e-514152b69086"},"vehicle_type_id":"4","last_reported":1753305085,"current_range_meters":12000,"station_id":"","pricing_plan_id":"cebpf4jnsgd1na2vs0mg"},{"bike_id":"9414fea0-7c6e-4c39-95f1-457a63a631b4","system_id":"levelo_inurba_marseille","lat":43.22498,"lon":5.34791,"is_reserved":false,"is_disabled":true,"rental_uris":{"android":"levelo://app?vid=9414fea0-7c6e-4c39-95f1-457a63a631b4","ios":"levelo://app?vid=9414fea0-7c6e-4c39-95f1-457a63a631b4"},"vehicle_type_id":"4","last_reported":1753305085,"current_range_meters":12000,"station_id":"st_cvj5dfep6f1abm77gieg","pricing_plan_id":"cebpf4jnsgd1na2vs0mg"},{"bike_id":"e89db906-d3d7-45ca-b6f4-d6f259830162","system_id":"levelo_inurba_marseille","lat":43.31705,"lon":5.37738,"is_reserved":false,"is_disabled":false,"rental_uris":{"android":"levelo://app?vid=e89db906-d3d7-45ca-b6f4-d6f259830162","ios":"levelo://app?vid=e89db906-d3d7-45ca-b6f4-d6f259830162"},"vehicle_type_id":"4","last_reported":1753305085,"current_range_meters":12000,"station_id":"ce4bgth2rcd13ifvqch0","pricing_plan_id":"cebpf4jnsgd1na2vs0mg"},{"bike_id":"9f3ed220-9e9e-4bc8-a5f6-aeb6066011ca","system_id":"levelo_inurba_marseille","lat":43.26223,"lon":5.3746,"is_reserved":false,"is_disabled":false,"rental_uris":{"android":"levelo://app?vid=9f3ed220-9e9e-4bc8-a5f6-aeb6066011ca","ios":"levelo://app?vid=9f3ed220-9e9e-4bc8-a5f6-aeb6066011ca"},"vehicle_type_id":"4","last_reported":1753305085,"current_range_meters":12000,"station_id":"","pricing_plan_id":"cebpf4jnsgd1na2vs0mg"},{"bike_id":"bbc2b271-396f-4875-9f1d-0fcc163d87b6","system_id":"levelo_inurba_marseille","lat":43.290955,"lon":5.398893,"is_reserved":false,"is_disabled":false,"rental_uris":{"android":"levelo://app?vid=bbc2b271-396f-4875-9f1d-0fcc163d87b6","ios":"levelo://app?vid=bbc2b271-396f-4875-9f1d-0fcc163d87b6"},"vehicle_type_id":"4","last_reported":1753305085,"current_range_meters":12400,"station_id":"","pricing_plan_id":"cebpf4jnsgd1na2vs0mg"},{"bike_id":"8aeb6c61-f5c3-4738-9680-41cc4aacbb8f","system_id":"levelo_inurba_marseille","lat":43.295917,"lon":5.367455,"is_reserved":false,"is_disabled":false,"rental_uris":{"android":"levelo://app?vid=8aeb6c61-f5c3-4738-9680-41cc4aacbb8f","ios":"levelo://app?vid=8aeb6c61-f5c3-4738-9680-41cc4aacbb8f"},"vehicle_type_id":"4","last_reported":1753305085,"current_range_meters":12400,"station_id":"ce4bgph2rcd13ifvqc2g","pricing_plan_id":"cebpf4jnsgd1na2vs0mg"},{"bike_id":"2f61fd6c-d657-4c53-bdf7-4cb4dc022375","system_id":"levelo_inurba_marseille","lat":43.29592,"lon":5.36748,"is_reserved":false,"is_disabled":false,"rental_uris":{"android":"levelo://app?vid=2f61fd6c-d657-4c53-bdf7-4cb4dc022375","ios":"levelo://app?vid=2f61fd6c-d657-4c53-bdf7-4cb4dc022375"},"vehicle_type_id":"4","last_reported":1753305085,"current_range_meters":12400,"station_id":"ce4bgph2rcd13ifvqc2g","pricing_plan_id":"cebpf4jnsgd1na2vs0mg"},{"bike_id":"84399bb9-dbab-4af5-9d70-b11f1f23cad9","system_id":"levelo_inurba_marseille","lat":43.28723,"lon":5.36085,"is_reserved":false,"is_disabled":false,"rental_uris":{"android":"levelo://app?vid=84399bb9-dbab-4af5-9d70-b11f1f23cad9","ios":"levelo://app?vid=84399bb9-dbab-4af5-9d70-b11f1f23cad9"},"vehicle_type_id":"4","last_reported":1753305085,"current_range_meters":12400,"station_id":"cki0cbj6b192h4jlfktg","pricing_plan_id":"cebpf4jnsgd1na2vs0mg"},{"bike_id":"d8a0268f-6498-4805-a637-cf019792b1df","system_id":"levelo_inurba_marseille","lat":43.2893,"lon":5.36639,"is_reserved":false,"is_disabled":false,"rental_uris":{"android":"levelo://app?vid=d8a0268f-6498-4805-a637-cf019792b1df","ios":"levelo://app?vid=d8a0268f-6498-4805-a637-cf019792b1df"},"vehicle_type_id":"4","last_reported":1753305085,"current_range_meters":12400,"station_id":"ce4bhap2rcd13ifvqek0","pricing_plan_id":"cebpf4jnsgd1na2vs0mg"},{"bike_id":"ed0f9f65-5585-461d-be08-dcb83dc5f2bc","system_id":"levelo_inurba_marseille","lat":43.28102,"lon":5.37837,"is_reserved":false,"is_disabled":false,"rental_uris":{"android":"levelo://app?vid=ed0f9f65-5585-461d-be08-dcb83dc5f2bc","ios":"levelo://app?vid=ed0f9f65-5585-461d-be08-dcb83dc5f2bc"},"vehicle_type_id":"4","last_reported":1753305085,"current_range_meters":12800,"station_id":"ce4bha12rcd13ifvqee0","pricing_plan_id":"cebpf4jnsgd1na2vs0mg"},{"bike_id":"c48cb9fd-b3a6-4a4a-8cc7-9df8cdffb8d8","system_id":"levelo_inurba_marseille","lat":43.30884,"lon":5.3966,"is_reserved":false,"is_disabled":false,"rental_uris":{"android":"levelo://app?vid=c48cb9fd-b3a6-4a4a-8cc7-9df8cdffb8d8","ios":"levelo://app?vid=c48cb9fd-b3a6-4a4a-8cc7-9df8cdffb8d8"},"vehicle_type_id":"4","last_reported":1753305085,"current_range_meters":12800,"station_id":"ce4bh012rcd13ifvqcv0","pricing_plan_id":"cebpf4jnsgd1na2vs0mg"},{"bike_id":"70c1e380-1d75-4f59-829f-bd9ae4eb213d","system_id":"levelo_inurba_marseille","lat":43.304626,"lon":5.397737,"is_reserved":false,"is_disabled":false,"rental_uris":{"android":"levelo://app?vid=70c1e380-1d75-4f59-829f-bd9ae4eb213d","ios":"levelo://app?vid=70c1e380-1d75-4f59-829f-bd9ae4eb213d"},"vehicle_type_id":"4","last_reported":1753305085,"current_range_meters":12800,"station_id":"ce4bh092rcd13ifvqd20","pricing_plan_id":"cebpf4jnsgd1na2vs0mg"},{"bike_id":"c5874319-1e45-4e22-a54c-04be75c296ae","system_id":"levelo_inurba_marseille","lat":43.28972,"lon":5.37847,"is_reserved":false,"is_disabled":false,"rental_uris":{"android":"levelo://app?vid=c5874319-1e45-4e22-a54c-04be75c296ae","ios":"levelo://app?vid=c5874319-1e45-4e22-a54c-04be75c296ae"},"vehicle_type_id":"4","last_reported":1753305085,"current_range_meters":12800,"station_id":"ce4bh9p2rcd13ifvqed0","pricing_plan_id":"cebpf4jnsgd1na2vs0mg"},{"bike_id":"396dbd6b-bd12-4fba-a413-85741f08daa2","system_id":"levelo_inurba_marseille","lat":43.23064,"lon":5.35516,"is_reserved":false,"is_disabled":false,"rental_uris":{"android":"levelo://app?vid=396dbd6b-bd12-4fba-a413-85741f08daa2","ios":"levelo://app?vid=396dbd6b-bd12-4fba-a413-85741f08daa2"},"vehicle_type_id":"4","last_reported":1753305085,"current_range_meters":12800,"station_id":"cpo3342slgdg3j2ifvpg","pricing_plan_id":"cebpf4jnsgd1na2vs0mg"},{"bike_id":"8da3d95a-d78a-40f7-9fbd-61199f841286","system_id":"levelo_inurba_marseille","lat":43.289404,"lon":5.366401,"is_reserved":false,"is_disabled":false,"rental_uris":{"android":"levelo://app?vid=8da3d95a-d78a-40f7-9fbd-61199f841286","ios":"levelo://app?vid=8da3d95a-d78a-40f7-9fbd-61199f841286"},"vehicle_type_id":"4","last_reported":1753305085,"current_range_meters":13600,"station_id":"","pricing_plan_id":"cebpf4jnsgd1na2vs0mg"},{"bike_id":"38a28b1f-e48d-4fb2-93dc-e80e1ec8bb1d","system_id":"levelo_inurba_marseille","lat":43.29855,"lon":5.36294,"is_reserved":false,"is_disabled":false,"rental_uris":{"android":"levelo://app?vid=38a28b1f-e48d-4fb2-93dc-e80e1ec8bb1d","ios":"levelo://app?vid=38a28b1f-e48d-4fb2-93dc-e80e1ec8bb1d"},"vehicle_type_id":"4","last_reported":1753305085,"current_range_meters":13600,"station_id":"ce4bgpp2rcd13ifvqc3g","pricing_plan_id":"cebpf4jnsgd1na2vs0mg"},{"bike_id":"ce48a911-4507-4b74-976c-1633ca96f1c2","system_id":"levelo_inurba_marseille","lat":43.29588,"lon":5.36783,"is_reserved":false,"is_disabled":false,"rental_uris":{"android":"levelo://app?vid=ce48a911-4507-4b74-976c-1633ca96f1c2","ios":"levelo://app?vid=ce48a911-4507-4b74-976c-1633ca96f1c2"},"vehicle_type_id":"4","last_reported":1753305085,"current_range_meters":13600,"station_id":"ce4bgph2rcd13ifvqc2g","pricing_plan_id":"cebpf4jnsgd1na2vs0mg"},{"bike_id":"f9c9ff83-8548-4acb-a33b-495af4adeef4","system_id":"levelo_inurba_marseille","lat":43.323588,"lon":5.367584,"is_reserved":false,"is_disabled":false,"rental_uris":{"android":"levelo://app?vid=f9c9ff83-8548-4acb-a33b-495af4adeef4","ios":"levelo://app?vid=f9c9ff83-8548-4acb-a33b-495af4adeef4"},"vehicle_type_id":"4","last_reported":1753305085,"current_range_meters":13600,"station_id":"","pricing_plan_id":"cebpf4jnsgd1na2vs0mg"},{"bike_id":"fec3b07e-037a-4fea-a191-679ee2b99950","system_id":"levelo_inurba_marseille","lat":43.24182,"lon":5.36386,"is_reserved":false,"is_disabled":false,"rental_uris":{"android":"levelo://app?vid=fec3b07e-037a-4fea-a191-679ee2b99950","ios":"levelo://app?vid=fec3b07e-037a-4fea-a191-679ee2b99950"},"vehicle_type_id":"4","last_reported":1753305085,"current_range_meters":13600,"station_id":"cpo36qri1sfpv3e86is0","pricing_plan_id":"cebpf4jnsgd1na2vs0mg"},{"bike_id":"b982e5a3-88f5-4403-a53a-38d90073ed80","system_id":"levelo_inurba_marseille","lat":43.29441,"lon":5.39748,"is_reserved":false,"is_disabled":false,"rental_uris":{"android":"levelo://app?vid=b982e5a3-88f5-4403-a53a-38d90073ed80","ios":"levelo://app?vid=b982e5a3-88f5-4403-a53a-38d90073ed80"},"vehicle_type_id":"4","last_reported":1753305085,"current_range_meters":12800,"station_id":"ce4bh3h2rcd13ifvqdo0","pricing_plan_id":"cebpf4jnsgd1na2vs0mg"},{"bike_id":"5620e2ff-eef8-4f85-af60-10ff729b62c5","system_id":"levelo_inurba_marseille","lat":43.29014,"lon":5.38136,"is_reserved":false,"is_disabled":false,"rental_uris":{"android":"levelo://app?vid=5620e2ff-eef8-4f85-af60-10ff729b62c5","ios":"levelo://app?vid=5620e2ff-eef8-4f85-af60-10ff729b62c5"},"vehicle_type_id":"4","last_reported":1753305085,"current_range_meters":12800,"station_id":"ce4bh4p2rcd13ifvqe1g","pricing_plan_id":"cebpf4jnsgd1na2vs0mg"},{"bike_id":"be73e0c3-1fcd-4852-b65a-d69995cb5cc9","system_id":"levelo_inurba_marseille","lat":43.3233,"lon":5.4064,"is_reserved":false,"is_disabled":true,"rental_uris":{"android":"levelo://app?vid=be73e0c3-1fcd-4852-b65a-d69995cb5cc9","ios":"levelo://app?vid=be73e0c3-1fcd-4852-b65a-d69995cb5cc9"},"vehicle_type_id":"4","last_reported":1753305085,"current_range_meters":13600,"station_id":"ce4bhq92rcd13ifvqhjg","pricing_plan_id":"cebpf4jnsgd1na2vs0mg"},{"bike_id":"04dea465-cac6-4b1a-a57a-2481fe7e7de5","system_id":"levelo_inurba_marseille","lat":43.28675,"lon":5.38663,"is_reserved":false,"is_disabled":false,"rental_uris":{"android":"levelo://app?vid=04dea465-cac6-4b1a-a57a-2481fe7e7de5","ios":"levelo://app?vid=04dea465-cac6-4b1a-a57a-2481fe7e7de5"},"vehicle_type_id":"4","last_reported":1753305085,"current_range_meters":13600,"station_id":"ce4bh492rcd13ifvqdug","pricing_plan_id":"cebpf4jnsgd1na2vs0mg"},{"bike_id":"88a9f625-7de7-4de5-aa62-8abe9be22433","system_id":"levelo_inurba_marseille","lat":43.29028,"lon":5.38652,"is_reserved":false,"is_disabled":false,"rental_uris":{"android":"levelo://app?vid=88a9f625-7de7-4de5-aa62-8abe9be22433","ios":"levelo://app?vid=88a9f625-7de7-4de5-aa62-8abe9be22433"},"vehicle_type_id":"4","last_reported":1753305085,"current_range_meters":13600,"station_id":"ce4bh4p2rcd13ifvqe0g","pricing_plan_id":"cebpf4jnsgd1na2vs0mg"},{"bike_id":"6ba8bf23-faf4-4e7f-a0da-6f0984da5df1","system_id":"levelo_inurba_marseille","lat":43.26224,"lon":5.37447,"is_reserved":false,"is_disabled":false,"rental_uris":{"android":"levelo://app?vid=6ba8bf23-faf4-4e7f-a0da-6f0984da5df1","ios":"levelo://app?vid=6ba8bf23-faf4-4e7f-a0da-6f0984da5df1"},"vehicle_type_id":"4","last_reported":1753305085,"current_range_meters":13600,"station_id":"ce4bhgp2rcd13ifvqfc0","pricing_plan_id":"cebpf4jnsgd1na2vs0mg"},{"bike_id":"f1cce97c-a87d-40c8-9fc0-12fac9d6c197","system_id":"levelo_inurba_marseille","lat":43.31491,"lon":5.37308,"is_reserved":false,"is_disabled":false,"rental_uris":{"android":"levelo://app?vid=f1cce97c-a87d-40c8-9fc0-12fac9d6c197","ios":"levelo://app?vid=f1cce97c-a87d-40c8-9fc0-12fac9d6c197"},"vehicle_type_id":"4","last_reported":1753305085,"current_range_meters":14000,"station_id":"ce4bgt12rcd13ifvqcd0","pricing_plan_id":"cebpf4jnsgd1na2vs0mg"},{"bike_id":"bbd16db7-d82b-4de1-8c69-f183ff4f975d","system_id":"levelo_inurba_marseille","lat":43.29569,"lon":5.3675,"is_reserved":false,"is_disabled":false,"rental_uris":{"android":"levelo://app?vid=bbd16db7-d82b-4de1-8c69-f183ff4f975d","ios":"levelo://app?vid=bbd16db7-d82b-4de1-8c69-f183ff4f975d"},"vehicle_type_id":"4","last_reported":1753305085,"current_range_meters":14000,"station_id":"ce4bgph2rcd13ifvqc2g","pricing_plan_id":"cebpf4jnsgd1na2vs0mg"},{"bike_id":"b5ce8d93-17c0-45a5-b2b1-eefce45c2d79","system_id":"levelo_inurba_marseille","lat":43.31807,"lon":5.43528,"is_reserved":false,"is_disabled":false,"rental_uris":{"android":"levelo://app?vid=b5ce8d93-17c0-45a5-b2b1-eefce45c2d79","ios":"levelo://app?vid=b5ce8d93-17c0-45a5-b2b1-eefce45c2d79"},"vehicle_type_id":"4","last_reported":1753305085,"current_range_meters":14000,"station_id":"","pricing_plan_id":"cebpf4jnsgd1na2vs0mg"},{"bike_id":"f01e414c-b427-4592-8575-1dbbdc0a685f","system_id":"levelo_inurba_marseille","lat":43.291271,"lon":5.392262,"is_reserved":false,"is_disabled":false,"rental_uris":{"android":"levelo://app?vid=f01e414c-b427-4592-8575-1dbbdc0a685f","ios":"levelo://app?vid=f01e414c-b427-4592-8575-1dbbdc0a685f"},"vehicle_type_id":"4","last_reported":1753305085,"current_range_meters":14000,"station_id":"ce4bh192rcd13ifvqdd0","pricing_plan_id":"cebpf4jnsgd1na2vs0mg"},{"bike_id":"8006020a-6cfe-4131-82ca-a6c8f07671d2","system_id":"levelo_inurba_marseille","lat":43.31183,"lon":5.37727,"is_reserved":false,"is_disabled":false,"rental_uris":{"android":"levelo://app?vid=8006020a-6cfe-4131-82ca-a6c8f07671d2","ios":"levelo://app?vid=8006020a-6cfe-4131-82ca-a6c8f07671d2"},"vehicle_type_id":"4","last_reported":1753305085,"current_range_meters":14000,"station_id":"","pricing_plan_id":"cebpf4jnsgd1na2vs0mg"},{"bike_id":"8c88448a-fb33-41bd-ae09-f0aac6cee4c1","system_id":"levelo_inurba_marseille","lat":43.26202,"lon":5.37445,"is_reserved":false,"is_disabled":false,"rental_uris":{"android":"levelo://app?vid=8c88448a-fb33-41bd-ae09-f0aac6cee4c1","ios":"levelo://app?vid=8c88448a-fb33-41bd-ae09-f0aac6cee4c1"},"vehicle_type_id":"4","last_reported":1753305085,"current_range_meters":14000,"station_id":"ce4bhgp2rcd13ifvqfc0","pricing_plan_id":"cebpf4jnsgd1na2vs0mg"},{"bike_id":"541e3f7a-640b-4d8c-977d-949ca2a087ab","system_id":"levelo_inurba_marseille","lat":43.30796,"lon":5.379577,"is_reserved":false,"is_disabled":true,"rental_uris":{"android":"levelo://app?vid=541e3f7a-640b-4d8c-977d-949ca2a087ab","ios":"levelo://app?vid=541e3f7a-640b-4d8c-977d-949ca2a087ab"},"vehicle_type_id":"4","last_reported":1753305085,"current_range_meters":14000,"station_id":"ce4bgt12rcd13ifvqce0","pricing_plan_id":"cebpf4jnsgd1na2vs0mg"},{"bike_id":"a0de01aa-cd68-4a4d-8bab-65fa167b8610","system_id":"levelo_inurba_marseille","lat":43.23179,"lon":5.3558,"is_reserved":false,"is_disabled":false,"rental_uris":{"android":"levelo://app?vid=a0de01aa-cd68-4a4d-8bab-65fa167b8610","ios":"levelo://app?vid=a0de01aa-cd68-4a4d-8bab-65fa167b8610"},"vehicle_type_id":"4","last_reported":1753305085,"current_range_meters":14000,"station_id":"ce4bhu92rcd13ifvqi70","pricing_plan_id":"cebpf4jnsgd1na2vs0mg"},{"bike_id":"77062733-ffc3-4b24-b733-1116c031dbb0","system_id":"levelo_inurba_marseille","lat":43.29849,"lon":5.36281,"is_reserved":false,"is_disabled":false,"rental_uris":{"android":"levelo://app?vid=77062733-ffc3-4b24-b733-1116c031dbb0","ios":"levelo://app?vid=77062733-ffc3-4b24-b733-1116c031dbb0"},"vehicle_type_id":"4","last_reported":1753305085,"current_range_meters":14000,"station_id":"ce4bgpp2rcd13ifvqc3g","pricing_plan_id":"cebpf4jnsgd1na2vs0mg"},{"bike_id":"9ce312f1-cb07-4159-91d6-c11a68a5ee71","system_id":"levelo_inurba_marseille","lat":43.21183,"lon":5.35106,"is_reserved":false,"is_disabled":false,"rental_uris":{"android":"levelo://app?vid=9ce312f1-cb07-4159-91d6-c11a68a5ee71","ios":"levelo://app?vid=9ce312f1-cb07-4159-91d6-c11a68a5ee71"},"vehicle_type_id":"4","last_reported":1753305085,"current_range_meters":14000,"station_id":"st_cvj6sg6p6f1abm77japg","pricing_plan_id":"cebpf4jnsgd1na2vs0mg"},{"bike_id":"f3217e35-0bb5-43ab-beb0-dd5e233a7114","system_id":"levelo_inurba_marseille","lat":43.25568,"lon":5.38251,"is_reserved":false,"is_disabled":false,"rental_uris":{"android":"levelo://app?vid=f3217e35-0bb5-43ab-beb0-dd5e233a7114","ios":"levelo://app?vid=f3217e35-0bb5-43ab-beb0-dd5e233a7114"},"vehicle_type_id":"4","last_reported":1753305085,"current_range_meters":14400,"station_id":"ce4bhih2rcd13ifvqfs0","pricing_plan_id":"cebpf4jnsgd1na2vs0mg"},{"bike_id":"b8d738d9-a006-4f85-9da8-a7f3edbaa544","system_id":"levelo_inurba_marseille","lat":43.26182,"lon":5.40406,"is_reserved":false,"is_disabled":false,"rental_uris":{"android":"levelo://app?vid=b8d738d9-a006-4f85-9da8-a7f3edbaa544","ios":"levelo://app?vid=b8d738d9-a006-4f85-9da8-a7f3edbaa544"},"vehicle_type_id":"4","last_reported":1753305085,"current_range_meters":14400,"station_id":"ce4bhmh2rcd13ifvqgmg","pricing_plan_id":"cebpf4jnsgd1na2vs0mg"},{"bike_id":"b2b6a3f3-1a05-41ca-a833-63ec0e350362","system_id":"levelo_inurba_marseille","lat":43.29851,"lon":5.36268,"is_reserved":false,"is_disabled":false,"rental_uris":{"android":"levelo://app?vid=b2b6a3f3-1a05-41ca-a833-63ec0e350362","ios":"levelo://app?vid=b2b6a3f3-1a05-41ca-a833-63ec0e350362"},"vehicle_type_id":"4","last_reported":1753305085,"current_range_meters":14400,"station_id":"ce4bgpp2rcd13ifvqc3g","pricing_plan_id":"cebpf4jnsgd1na2vs0mg"},{"bike_id":"c9bb4e79-ea5a-4386-8c29-49544f15502f","system_id":"levelo_inurba_marseille","lat":43.27566,"lon":5.38432,"is_reserved":false,"is_disabled":false,"rental_uris":{"android":"levelo://app?vid=c9bb4e79-ea5a-4386-8c29-49544f15502f","ios":"levelo://app?vid=c9bb4e79-ea5a-4386-8c29-49544f15502f"},"vehicle_type_id":"4","last_reported":1753305085,"current_range_meters":14000,"station_id":"ce4bhh92rcd13ifvqfi0","pricing_plan_id":"cebpf4jnsgd1na2vs0mg"},{"bike_id":"01c80940-d2e4-4353-8024-faa7d2339e80","system_id":"levelo_inurba_marseille","lat":43.29529,"lon":5.38537,"is_reserved":false,"is_disabled":false,"rental_uris":{"android":"levelo://app?vid=01c80940-d2e4-4353-8024-faa7d2339e80","ios":"levelo://app?vid=01c80940-d2e4-4353-8024-faa7d2339e80"},"vehicle_type_id":"4","last_reported":1753305085,"current_range_meters":14400,"station_id":"ce4bgih2rcd13ifvqba0","pricing_plan_id":"cebpf4jnsgd1na2vs0mg"},{"bike_id":"4073e908-17e9-409a-99c4-8e643d9710b4","system_id":"levelo_inurba_marseille","lat":43.29529,"lon":5.38549,"is_reserved":false,"is_disabled":false,"rental_uris":{"android":"levelo://app?vid=4073e908-17e9-409a-99c4-8e643d9710b4","ios":"levelo://app?vid=4073e908-17e9-409a-99c4-8e643d9710b4"},"vehicle_type_id":"4","last_reported":1753305085,"current_range_meters":14400,"station_id":"ce4bgih2rcd13ifvqba0","pricing_plan_id":"cebpf4jnsgd1na2vs0mg"},{"bike_id":"a3640f8d-e562-4f12-8803-79ea76a806b7","system_id":"levelo_inurba_marseille","lat":43.26535,"lon":5.37296,"is_reserved":false,"is_disabled":false,"rental_uris":{"android":"levelo://app?vid=a3640f8d-e562-4f12-8803-79ea76a806b7","ios":"levelo://app?vid=a3640f8d-e562-4f12-8803-79ea76a806b7"},"vehicle_type_id":"4","last_reported":1753305085,"current_range_meters":14400,"station_id":"ce4bhg12rcd13ifvqf70","pricing_plan_id":"cebpf4jnsgd1na2vs0mg"},{"bike_id":"7ca0bf5e-2993-45c9-866f-452888c9c143","system_id":"levelo_inurba_marseille","lat":43.28464,"lon":5.35887,"is_reserved":false,"is_disabled":false,"rental_uris":{"android":"levelo://app?vid=7ca0bf5e-2993-45c9-866f-452888c9c143","ios":"levelo://app?vid=7ca0bf5e-2993-45c9-866f-452888c9c143"},"vehicle_type_id":"4","last_reported":1753305085,"current_range_meters":14400,"station_id":"ce4bhah2rcd13ifvqei0","pricing_plan_id":"cebpf4jnsgd1na2vs0mg"},{"bike_id":"f8232130-db52-4ff5-b354-f78033a04c00","system_id":"levelo_inurba_marseille","lat":43.27946,"lon":5.41072,"is_reserved":false,"is_disabled":false,"rental_uris":{"android":"levelo://app?vid=f8232130-db52-4ff5-b354-f78033a04c00","ios":"levelo://app?vid=f8232130-db52-4ff5-b354-f78033a04c00"},"vehicle_type_id":"4","last_reported":1753305085,"current_range_meters":14400,"station_id":"ce4bhnp2rcd13ifvqh0g","pricing_plan_id":"cebpf4jnsgd1na2vs0mg"},{"bike_id":"d4e5dd79-2b52-4d97-8cab-d2aa23e54cd3","system_id":"levelo_inurba_marseille","lat":43.29255,"lon":5.3843,"is_reserved":false,"is_disabled":false,"rental_uris":{"android":"levelo://app?vid=d4e5dd79-2b52-4d97-8cab-d2aa23e54cd3","ios":"levelo://app?vid=d4e5dd79-2b52-4d97-8cab-d2aa23e54cd3"},"vehicle_type_id":"4","last_reported":1753305085,"current_range_meters":14800,"station_id":"ce4bh692rcd13ifvqea0","pricing_plan_id":"cebpf4jnsgd1na2vs0mg"},{"bike_id":"6628d4e6-7699-4848-9c52-17cefd00d3c2","system_id":"levelo_inurba_marseille","lat":43.2967,"lon":5.36614,"is_reserved":false,"is_disabled":false,"rental_uris":{"android":"levelo://app?vid=6628d4e6-7699-4848-9c52-17cefd00d3c2","ios":"levelo://app?vid=6628d4e6-7699-4848-9c52-17cefd00d3c2"},"vehicle_type_id":"4","last_reported":1753305085,"current_range_meters":14800,"station_id":"ce4bgn12rcd13ifvqbt0","pricing_plan_id":"cebpf4jnsgd1na2vs0mg"},{"bike_id":"0d989bd3-3a2a-48ca-a6d7-77c5e7fc1d2e","system_id":"levelo_inurba_marseille","lat":43.23181,"lon":5.39994,"is_reserved":false,"is_disabled":false,"rental_uris":{"android":"levelo://app?vid=0d989bd3-3a2a-48ca-a6d7-77c5e7fc1d2e","ios":"levelo://app?vid=0d989bd3-3a2a-48ca-a6d7-77c5e7fc1d2e"},"vehicle_type_id":"4","last_reported":1753305085,"current_range_meters":14800,"station_id":"ce4bhn12rcd13ifvqgqg","pricing_plan_id":"cebpf4jnsgd1na2vs0mg"},{"bike_id":"028b05be-ec4c-43ca-adc8-d551502182de","system_id":"levelo_inurba_marseille","lat":43.255805,"lon":5.382353,"is_reserved":false,"is_disabled":false,"rental_uris":{"android":"levelo://app?vid=028b05be-ec4c-43ca-adc8-d551502182de","ios":"levelo://app?vid=028b05be-ec4c-43ca-adc8-d551502182de"},"vehicle_type_id":"4","last_reported":1753305085,"current_range_meters":14800,"station_id":"ce4bhih2rcd13ifvqfs0","pricing_plan_id":"cebpf4jnsgd1na2vs0mg"},{"bike_id":"a8b6b608-9ecc-4a96-b91d-e88ce53d3625","system_id":"levelo_inurba_marseille","lat":43.29839,"lon":5.3629,"is_reserved":false,"is_disabled":false,"rental_uris":{"android":"levelo://app?vid=a8b6b608-9ecc-4a96-b91d-e88ce53d3625","ios":"levelo://app?vid=a8b6b608-9ecc-4a96-b91d-e88ce53d3625"},"vehicle_type_id":"4","last_reported":1753305085,"current_range_meters":14800,"station_id":"ce4bgpp2rcd13ifvqc3g","pricing_plan_id":"cebpf4jnsgd1na2vs0mg"},{"bike_id":"e1563fd2-2cb4-43d1-91ff-12ef546ab072","system_id":"levelo_inurba_marseille","lat":43.28033,"lon":5.36947,"is_reserved":false,"is_disabled":false,"rental_uris":{"android":"levelo://app?vid=e1563fd2-2cb4-43d1-91ff-12ef546ab072","ios":"levelo://app?vid=e1563fd2-2cb4-43d1-91ff-12ef546ab072"},"vehicle_type_id":"4","last_reported":1753305085,"current_range_meters":14800,"station_id":"ce4bha12rcd13ifvqef0","pricing_plan_id":"cebpf4jnsgd1na2vs0mg"},{"bike_id":"6a454c54-bc92-4248-a7ae-643f6c211647","system_id":"levelo_inurba_marseille","lat":43.305917,"lon":5.393563,"is_reserved":false,"is_disabled":false,"rental_uris":{"android":"levelo://app?vid=6a454c54-bc92-4248-a7ae-643f6c211647","ios":"levelo://app?vid=6a454c54-bc92-4248-a7ae-643f6c211647"},"vehicle_type_id":"4","last_reported":1753305085,"current_range_meters":14800,"station_id":"ce4bh0p2rcd13ifvqd80","pricing_plan_id":"cebpf4jnsgd1na2vs0mg"},{"bike_id":"317f83a0-1911-4307-96e8-e57f5489b39c","system_id":"levelo_inurba_marseille","lat":43.287028,"lon":5.373641,"is_reserved":false,"is_disabled":false,"rental_uris":{"android":"levelo://app?vid=317f83a0-1911-4307-96e8-e57f5489b39c","ios":"levelo://app?vid=317f83a0-1911-4307-96e8-e57f5489b39c"},"vehicle_type_id":"4","last_reported":1753305085,"current_range_meters":14800,"station_id":"ce4bh3p2rcd13ifvqdq0","pricing_plan_id":"cebpf4jnsgd1na2vs0mg"},{"bike_id":"9095f841-ff3c-4727-9cf6-58c68d18a308","system_id":"levelo_inurba_marseille","lat":43.28659,"lon":5.36351,"is_reserved":false,"is_disabled":false,"rental_uris":{"android":"levelo://app?vid=9095f841-ff3c-4727-9cf6-58c68d18a308","ios":"levelo://app?vid=9095f841-ff3c-4727-9cf6-58c68d18a308"},"vehicle_type_id":"4","last_reported":1753305085,"current_range_meters":14800,"station_id":"ce4bhah2rcd13ifvqej0","pricing_plan_id":"cebpf4jnsgd1na2vs0mg"},{"bike_id":"74667481-5f03-4636-8b5a-495e4f40157d","system_id":"levelo_inurba_marseille","lat":43.2974,"lon":5.37941,"is_reserved":false,"is_disabled":false,"rental_uris":{"android":"levelo://app?vid=74667481-5f03-4636-8b5a-495e4f40157d","ios":"levelo://app?vid=74667481-5f03-4636-8b5a-495e4f40157d"},"vehicle_type_id":"4","last_reported":1753305085,"current_range_meters":15200,"station_id":"","pricing_plan_id":"cebpf4jnsgd1na2vs0mg"},{"bike_id":"d07ee339-8c41-4efe-b793-4b67c5a85bf8","system_id":"levelo_inurba_marseille","lat":43.280381,"lon":5.36947,"is_reserved":false,"is_disabled":false,"rental_uris":{"android":"levelo://app?vid=d07ee339-8c41-4efe-b793-4b67c5a85bf8","ios":"levelo://app?vid=d07ee339-8c41-4efe-b793-4b67c5a85bf8"},"vehicle_type_id":"4","last_reported":1753305085,"current_range_meters":15200,"station_id":"ce4bha12rcd13ifvqef0","pricing_plan_id":"cebpf4jnsgd1na2vs0mg"},{"bike_id":"d9d3254b-557d-4def-8feb-ef7b406b766f","system_id":"levelo_inurba_marseille","lat":43.29855,"lon":5.36274,"is_reserved":false,"is_disabled":false,"rental_uris":{"android":"levelo://app?vid=d9d3254b-557d-4def-8feb-ef7b406b766f","ios":"levelo://app?vid=d9d3254b-557d-4def-8feb-ef7b406b766f"},"vehicle_type_id":"4","last_reported":1753305085,"current_range_meters":15200,"station_id":"ce4bgpp2rcd13ifvqc3g","pricing_plan_id":"cebpf4jnsgd1na2vs0mg"},{"bike_id":"0b038d1a-2e18-49ed-bfd0-db9b0c826118","system_id":"levelo_inurba_marseille","lat":43.28682,"lon":5.39996,"is_reserved":false,"is_disabled":false,"rental_uris":{"android":"levelo://app?vid=0b038d1a-2e18-49ed-bfd0-db9b0c826118","ios":"levelo://app?vid=0b038d1a-2e18-49ed-bfd0-db9b0c826118"},"vehicle_type_id":"4","last_reported":1753305085,"current_range_meters":15200,"station_id":"ce4bho92rcd13ifvqh3g","pricing_plan_id":"cebpf4jnsgd1na2vs0mg"},{"bike_id":"b89d6267-55af-48a1-8887-3f0adc5ff195","system_id":"levelo_inurba_marseille","lat":43.301319,"lon":5.39874,"is_reserved":false,"is_disabled":false,"rental_uris":{"android":"levelo://app?vid=b89d6267-55af-48a1-8887-3f0adc5ff195","ios":"levelo://app?vid=b89d6267-55af-48a1-8887-3f0adc5ff195"},"vehicle_type_id":"4","last_reported":1753305085,"current_range_meters":15200,"station_id":"","pricing_plan_id":"cebpf4jnsgd1na2vs0mg"},{"bike_id":"fd806929-766b-4e70-9fda-08bb1966d1c7","system_id":"levelo_inurba_marseille","lat":43.28846,"lon":5.39306,"is_reserved":false,"is_disabled":false,"rental_uris":{"android":"levelo://app?vid=fd806929-766b-4e70-9fda-08bb1966d1c7","ios":"levelo://app?vid=fd806929-766b-4e70-9fda-08bb1966d1c7"},"vehicle_type_id":"4","last_reported":1753305085,"current_range_meters":15200,"station_id":"ce4bh2p2rcd13ifvqdi0","pricing_plan_id":"cebpf4jnsgd1na2vs0mg"},{"bike_id":"007097ba-b90a-4b69-831c-9a8dce4a9466","system_id":"levelo_inurba_marseille","lat":43.2315,"lon":5.43724,"is_reserved":false,"is_disabled":false,"rental_uris":{"android":"levelo://app?vid=007097ba-b90a-4b69-831c-9a8dce4a9466","ios":"levelo://app?vid=007097ba-b90a-4b69-831c-9a8dce4a9466"},"vehicle_type_id":"4","last_reported":1753305085,"current_range_meters":15200,"station_id":"ce4bhmp2rcd13ifvqgog","pricing_plan_id":"cebpf4jnsgd1na2vs0mg"},{"bike_id":"f8b60c6f-2759-49d2-9eb1-cf1dd4817401","system_id":"levelo_inurba_marseille","lat":43.28351,"lon":5.38635,"is_reserved":false,"is_disabled":false,"rental_uris":{"android":"levelo://app?vid=f8b60c6f-2759-49d2-9eb1-cf1dd4817401","ios":"levelo://app?vid=f8b60c6f-2759-49d2-9eb1-cf1dd4817401"},"vehicle_type_id":"4","last_reported":1753305085,"current_range_meters":15200,"station_id":"ce4bh492rcd13ifvqdvg","pricing_plan_id":"cebpf4jnsgd1na2vs0mg"},{"bike_id":"e480bd8b-ab3b-474e-85dc-cd917472d2ed","system_id":"levelo_inurba_marseille","lat":43.23962,"lon":5.36633,"is_reserved":false,"is_disabled":false,"rental_uris":{"android":"levelo://app?vid=e480bd8b-ab3b-474e-85dc-cd917472d2ed","ios":"levelo://app?vid=e480bd8b-ab3b-474e-85dc-cd917472d2ed"},"vehicle_type_id":"4","last_reported":1753305085,"current_range_meters":15200,"station_id":"ce4bhi12rcd13ifvqfp0","pricing_plan_id":"cebpf4jnsgd1na2vs0mg"},{"bike_id":"072249e0-6b31-4d65-814c-3886177b7a41","system_id":"levelo_inurba_marseille","lat":43.31754,"lon":5.39013,"is_reserved":false,"is_disabled":false,"rental_uris":{"android":"levelo://app?vid=072249e0-6b31-4d65-814c-3886177b7a41","ios":"levelo://app?vid=072249e0-6b31-4d65-814c-3886177b7a41"},"vehicle_type_id":"4","last_reported":1753305085,"current_range_meters":15200,"station_id":"ce4bhqp2rcd13ifvqhng","pricing_plan_id":"cebpf4jnsgd1na2vs0mg"},{"bike_id":"8da50daa-01e3-4f17-ab0c-8f1f061fcf2c","system_id":"levelo_inurba_marseille","lat":43.26243,"lon":5.37471,"is_reserved":false,"is_disabled":false,"rental_uris":{"android":"levelo://app?vid=8da50daa-01e3-4f17-ab0c-8f1f061fcf2c","ios":"levelo://app?vid=8da50daa-01e3-4f17-ab0c-8f1f061fcf2c"},"vehicle_type_id":"4","last_reported":1753305085,"current_range_meters":15200,"station_id":"","pricing_plan_id":"cebpf4jnsgd1na2vs0mg"},{"bike_id":"75921511-23bf-408f-9470-1062209789d6","system_id":"levelo_inurba_marseille","lat":43.2557,"lon":5.3824,"is_reserved":false,"is_disabled":false,"rental_uris":{"android":"levelo://app?vid=75921511-23bf-408f-9470-1062209789d6","ios":"levelo://app?vid=75921511-23bf-408f-9470-1062209789d6"},"vehicle_type_id":"4","last_reported":1753305085,"current_range_meters":16000,"station_id":"ce4bhih2rcd13ifvqfs0","pricing_plan_id":"cebpf4jnsgd1na2vs0mg"},{"bike_id":"0bc3f237-b88a-46f0-8d05-cf18e190c453","system_id":"levelo_inurba_marseille","lat":43.29029,"lon":5.38663,"is_reserved":false,"is_disabled":false,"rental_uris":{"android":"levelo://app?vid=0bc3f237-b88a-46f0-8d05-cf18e190c453","ios":"levelo://app?vid=0bc3f237-b88a-46f0-8d05-cf18e190c453"},"vehicle_type_id":"4","last_reported":1753305085,"current_range_meters":16000,"station_id":"ce4bh4p2rcd13ifvqe0g","pricing_plan_id":"cebpf4jnsgd1na2vs0mg"},{"bike_id":"496cac02-0e91-4f64-97b9-cb34cf0ab931","system_id":"levelo_inurba_marseille","lat":43.22503,"lon":5.34788,"is_reserved":false,"is_disabled":false,"rental_uris":{"android":"levelo://app?vid=496cac02-0e91-4f64-97b9-cb34cf0ab931","ios":"levelo://app?vid=496cac02-0e91-4f64-97b9-cb34cf0ab931"},"vehicle_type_id":"4","last_reported":1753305085,"current_range_meters":16000,"station_id":"st_cvj5dfep6f1abm77gieg","pricing_plan_id":"cebpf4jnsgd1na2vs0mg"},{"bike_id":"70737bad-8214-4681-8a7d-fa98042cf105","system_id":"levelo_inurba_marseille","lat":43.29056,"lon":5.39945,"is_reserved":false,"is_disabled":false,"rental_uris":{"android":"levelo://app?vid=70737bad-8214-4681-8a7d-fa98042cf105","ios":"levelo://app?vid=70737bad-8214-4681-8a7d-fa98042cf105"},"vehicle_type_id":"4","last_reported":1753305085,"current_range_meters":16000,"station_id":"ce4bh392rcd13ifvqdm0","pricing_plan_id":"cebpf4jnsgd1na2vs0mg"},{"bike_id":"ae131367-d818-44a0-9e1d-4aa65dcdb16a","system_id":"levelo_inurba_marseille","lat":43.275,"lon":5.39641,"is_reserved":false,"is_disabled":false,"rental_uris":{"android":"levelo://app?vid=ae131367-d818-44a0-9e1d-4aa65dcdb16a","ios":"levelo://app?vid=ae131367-d818-44a0-9e1d-4aa65dcdb16a"},"vehicle_type_id":"4","last_reported":1753305085,"current_range_meters":16000,"station_id":"","pricing_plan_id":"cebpf4jnsgd1na2vs0mg"},{"bike_id":"0648eb3b-38dc-45ba-994e-ffad74a620d8","system_id":"levelo_inurba_marseille","lat":43.29008,"lon":5.38652,"is_reserved":false,"is_disabled":true,"rental_uris":{"android":"levelo://app?vid=0648eb3b-38dc-45ba-994e-ffad74a620d8","ios":"levelo://app?vid=0648eb3b-38dc-45ba-994e-ffad74a620d8"},"vehicle_type_id":"4","last_reported":1753305085,"current_range_meters":16000,"station_id":"ce4bh4p2rcd13ifvqe0g","pricing_plan_id":"cebpf4jnsgd1na2vs0mg"},{"bike_id":"3cd09fc8-9554-4236-8496-0931a7be09d1","system_id":"levelo_inurba_marseille","lat":43.21198,"lon":5.35096,"is_reserved":false,"is_disabled":false,"rental_uris":{"android":"levelo://app?vid=3cd09fc8-9554-4236-8496-0931a7be09d1","ios":"levelo://app?vid=3cd09fc8-9554-4236-8496-0931a7be09d1"},"vehicle_type_id":"4","last_reported":1753305085,"current_range_meters":16000,"station_id":"st_cvj6sg6p6f1abm77japg","pricing_plan_id":"cebpf4jnsgd1na2vs0mg"},{"bike_id":"a65b4433-54ed-474c-b641-00b9b56242b8","system_id":"levelo_inurba_marseille","lat":43.28615,"lon":5.35105,"is_reserved":false,"is_disabled":false,"rental_uris":{"android":"levelo://app?vid=a65b4433-54ed-474c-b641-00b9b56242b8","ios":"levelo://app?vid=a65b4433-54ed-474c-b641-00b9b56242b8"},"vehicle_type_id":"4","last_reported":1753305085,"current_range_meters":16000,"station_id":"ce4bhch2rcd13ifvqeug","pricing_plan_id":"cebpf4jnsgd1na2vs0mg"},{"bike_id":"6bb1f31c-9335-4f39-9585-31374a4775f9","system_id":"levelo_inurba_marseille","lat":43.325583,"lon":5.379059,"is_reserved":false,"is_disabled":false,"rental_uris":{"android":"levelo://app?vid=6bb1f31c-9335-4f39-9585-31374a4775f9","ios":"levelo://app?vid=6bb1f31c-9335-4f39-9585-31374a4775f9"},"vehicle_type_id":"4","last_reported":1753305085,"current_range_meters":16000,"station_id":"","pricing_plan_id":"cebpf4jnsgd1na2vs0mg"},{"bike_id":"e09c7a24-0d1f-4a6c-9e83-0c5a75ec3ecb","system_id":"levelo_inurba_marseille","lat":43.29852,"lon":5.36275,"is_reserved":false,"is_disabled":false,"rental_uris":{"android":"levelo://app?vid=e09c7a24-0d1f-4a6c-9e83-0c5a75ec3ecb","ios":"levelo://app?vid=e09c7a24-0d1f-4a6c-9e83-0c5a75ec3ecb"},"vehicle_type_id":"4","last_reported":1753305085,"current_range_meters":16000,"station_id":"ce4bgpp2rcd13ifvqc3g","pricing_plan_id":"cebpf4jnsgd1na2vs0mg"},{"bike_id":"24174566-09fc-40e5-b0a6-7352cec24e58","system_id":"levelo_inurba_marseille","lat":43.24384,"lon":5.37057,"is_reserved":false,"is_disabled":false,"rental_uris":{"android":"levelo://app?vid=24174566-09fc-40e5-b0a6-7352cec24e58","ios":"levelo://app?vid=24174566-09fc-40e5-b0a6-7352cec24e58"},"vehicle_type_id":"4","last_reported":1753305085,"current_range_meters":16000,"station_id":"ce4bhhh2rcd13ifvqfk0","pricing_plan_id":"cebpf4jnsgd1na2vs0mg"},{"bike_id":"6fc8fc40-c38b-4780-9720-ea88c39bb86e","system_id":"levelo_inurba_marseille","lat":43.2928,"lon":5.40124,"is_reserved":false,"is_disabled":false,"rental_uris":{"android":"levelo://app?vid=6fc8fc40-c38b-4780-9720-ea88c39bb86e","ios":"levelo://app?vid=6fc8fc40-c38b-4780-9720-ea88c39bb86e"},"vehicle_type_id":"4","last_reported":1753305085,"current_range_meters":16000,"station_id":"ce4bh312rcd13ifvqdk0","pricing_plan_id":"cebpf4jnsgd1na2vs0mg"},{"bike_id":"ba41c70d-58da-4ac8-b646-54004092a48b","system_id":"levelo_inurba_marseille","lat":43.29584,"lon":5.36744,"is_reserved":false,"is_disabled":false,"rental_uris":{"android":"levelo://app?vid=ba41c70d-58da-4ac8-b646-54004092a48b","ios":"levelo://app?vid=ba41c70d-58da-4ac8-b646-54004092a48b"},"vehicle_type_id":"4","last_reported":1753305085,"current_range_meters":16000,"station_id":"ce4bgph2rcd13ifvqc2g","pricing_plan_id":"cebpf4jnsgd1na2vs0mg"},{"bike_id":"f77e2119-efdf-4f97-ae6a-f4423c6f3a21","system_id":"levelo_inurba_marseille","lat":43.29583,"lon":5.36754,"is_reserved":false,"is_disabled":false,"rental_uris":{"android":"levelo://app?vid=f77e2119-efdf-4f97-ae6a-f4423c6f3a21","ios":"levelo://app?vid=f77e2119-efdf-4f97-ae6a-f4423c6f3a21"},"vehicle_type_id":"4","last_reported":1753305085,"current_range_meters":16000,"station_id":"ce4bgph2rcd13ifvqc2g","pricing_plan_id":"cebpf4jnsgd1na2vs0mg"},{"bike_id":"da02e45a-a7af-4ba3-a013-1f386c6cc032","system_id":"levelo_inurba_marseille","lat":43.29588,"lon":5.36752,"is_reserved":false,"is_disabled":false,"rental_uris":{"android":"levelo://app?vid=da02e45a-a7af-4ba3-a013-1f386c6cc032","ios":"levelo://app?vid=da02e45a-a7af-4ba3-a013-1f386c6cc032"},"vehicle_type_id":"4","last_reported":1753305085,"current_range_meters":16000,"station_id":"ce4bgph2rcd13ifvqc2g","pricing_plan_id":"cebpf4jnsgd1na2vs0mg"},{"bike_id":"9066b036-de04-4785-9c66-53ad8e53c475","system_id":"levelo_inurba_marseille","lat":43.29567,"lon":5.39965,"is_reserved":false,"is_disabled":false,"rental_uris":{"android":"levelo://app?vid=9066b036-de04-4785-9c66-53ad8e53c475","ios":"levelo://app?vid=9066b036-de04-4785-9c66-53ad8e53c475"},"vehicle_type_id":"4","last_reported":1753305085,"current_range_meters":16000,"station_id":"ce4bh312rcd13ifvqdj0","pricing_plan_id":"cebpf4jnsgd1na2vs0mg"},{"bike_id":"f9003d10-d9c2-4f36-aaab-0b06e5143ac9","system_id":"levelo_inurba_marseille","lat":43.29901,"lon":5.37436,"is_reserved":false,"is_disabled":true,"rental_uris":{"android":"levelo://app?vid=f9003d10-d9c2-4f36-aaab-0b06e5143ac9","ios":"levelo://app?vid=f9003d10-d9c2-4f36-aaab-0b06e5143ac9"},"vehicle_type_id":"4","last_reported":1753305085,"current_range_meters":16400,"station_id":"ce4bgjh2rcd13ifvqbg0","pricing_plan_id":"cebpf4jnsgd1na2vs0mg"},{"bike_id":"b1611388-74da-4bd8-aa35-2fd1ff7cb76e","system_id":"levelo_inurba_marseille","lat":43.27063,"lon":5.42316,"is_reserved":false,"is_disabled":false,"rental_uris":{"android":"levelo://app?vid=b1611388-74da-4bd8-aa35-2fd1ff7cb76e","ios":"levelo://app?vid=b1611388-74da-4bd8-aa35-2fd1ff7cb76e"},"vehicle_type_id":"4","last_reported":1753305085,"current_range_meters":16400,"station_id":"ce4bhk92rcd13ifvqgb0","pricing_plan_id":"cebpf4jnsgd1na2vs0mg"},{"bike_id":"efce9bd7-0f84-4c4c-8629-017c0e0428bd","system_id":"levelo_inurba_marseille","lat":43.25574,"lon":5.38242,"is_reserved":false,"is_disabled":false,"rental_uris":{"android":"levelo://app?vid=efce9bd7-0f84-4c4c-8629-017c0e0428bd","ios":"levelo://app?vid=efce9bd7-0f84-4c4c-8629-017c0e0428bd"},"vehicle_type_id":"4","last_reported":1753305085,"current_range_meters":16400,"station_id":"ce4bhih2rcd13ifvqfs0","pricing_plan_id":"cebpf4jnsgd1na2vs0mg"},{"bike_id":"bb94d34e-06b8-4e73-a21d-aba490a1a514","system_id":"levelo_inurba_marseille","lat":43.31118,"lon":5.37767,"is_reserved":false,"is_disabled":false,"rental_uris":{"android":"levelo://app?vid=bb94d34e-06b8-4e73-a21d-aba490a1a514","ios":"levelo://app?vid=bb94d34e-06b8-4e73-a21d-aba490a1a514"},"vehicle_type_id":"4","last_reported":1753305085,"current_range_meters":16400,"station_id":"ce4bgt92rcd13ifvqcg0","pricing_plan_id":"cebpf4jnsgd1na2vs0mg"},{"bike_id":"24d41707-0aa6-41f4-a142-43a8857ed779","system_id":"levelo_inurba_marseille","lat":43.29828,"lon":5.36269,"is_reserved":false,"is_disabled":false,"rental_uris":{"android":"levelo://app?vid=24d41707-0aa6-41f4-a142-43a8857ed779","ios":"levelo://app?vid=24d41707-0aa6-41f4-a142-43a8857ed779"},"vehicle_type_id":"4","last_reported":1753305085,"current_range_meters":16400,"station_id":"ce4bgpp2rcd13ifvqc3g","pricing_plan_id":"cebpf4jnsgd1na2vs0mg"},{"bike_id":"5ac85406-65d0-4336-aa89-4b04b2e6689e","system_id":"levelo_inurba_marseille","lat":43.332761,"lon":5.419835,"is_reserved":false,"is_disabled":false,"rental_uris":{"android":"levelo://app?vid=5ac85406-65d0-4336-aa89-4b04b2e6689e","ios":"levelo://app?vid=5ac85406-65d0-4336-aa89-4b04b2e6689e"},"vehicle_type_id":"4","last_reported":1753305085,"current_range_meters":16400,"station_id":"","pricing_plan_id":"cebpf4jnsgd1na2vs0mg"},{"bike_id":"c056311f-78c9-4e18-8685-91c659ddb125","system_id":"levelo_inurba_marseille","lat":43.31607,"lon":5.38979,"is_reserved":false,"is_disabled":false,"rental_uris":{"android":"levelo://app?vid=c056311f-78c9-4e18-8685-91c659ddb125","ios":"levelo://app?vid=c056311f-78c9-4e18-8685-91c659ddb125"},"vehicle_type_id":"4","last_reported":1753305085,"current_range_meters":16400,"station_id":"","pricing_plan_id":"cebpf4jnsgd1na2vs0mg"},{"bike_id":"68b23df6-72cc-481a-a09a-6413f815ff4e","system_id":"levelo_inurba_marseille","lat":43.25479,"lon":5.37666,"is_reserved":false,"is_disabled":true,"rental_uris":{"android":"levelo://app?vid=68b23df6-72cc-481a-a09a-6413f815ff4e","ios":"levelo://app?vid=68b23df6-72cc-481a-a09a-6413f815ff4e"},"vehicle_type_id":"4","last_reported":1753305085,"current_range_meters":16400,"station_id":"ce4bhh12rcd13ifvqff0","pricing_plan_id":"cebpf4jnsgd1na2vs0mg"},{"bike_id":"2de56c36-fc14-49a8-9ba0-5a35d4423f35","system_id":"levelo_inurba_marseille","lat":43.28702,"lon":5.39989,"is_reserved":false,"is_disabled":false,"rental_uris":{"android":"levelo://app?vid=2de56c36-fc14-49a8-9ba0-5a35d4423f35","ios":"levelo://app?vid=2de56c36-fc14-49a8-9ba0-5a35d4423f35"},"vehicle_type_id":"4","last_reported":1753305085,"current_range_meters":16400,"station_id":"ce4bho92rcd13ifvqh3g","pricing_plan_id":"cebpf4jnsgd1na2vs0mg"},{"bike_id":"f6419716-c272-46b5-b908-d91a04b2b53d","system_id":"levelo_inurba_marseille","lat":43.28032,"lon":5.36946,"is_reserved":false,"is_disabled":false,"rental_uris":{"android":"levelo://app?vid=f6419716-c272-46b5-b908-d91a04b2b53d","ios":"levelo://app?vid=f6419716-c272-46b5-b908-d91a04b2b53d"},"vehicle_type_id":"4","last_reported":1753305085,"current_range_meters":16400,"station_id":"ce4bha12rcd13ifvqef0","pricing_plan_id":"cebpf4jnsgd1na2vs0mg"},{"bike_id":"5771bc00-065d-4aca-9a53-c03e85646abb","system_id":"levelo_inurba_marseille","lat":43.29833,"lon":5.36289,"is_reserved":false,"is_disabled":false,"rental_uris":{"android":"levelo://app?vid=5771bc00-065d-4aca-9a53-c03e85646abb","ios":"levelo://app?vid=5771bc00-065d-4aca-9a53-c03e85646abb"},"vehicle_type_id":"4","last_reported":1753305085,"current_range_meters":16400,"station_id":"ce4bgpp2rcd13ifvqc3g","pricing_plan_id":"cebpf4jnsgd1na2vs0mg"},{"bike_id":"0044f8c1-5a70-4840-a7ed-db0b05f30513","system_id":"levelo_inurba_marseille","lat":43.28941,"lon":5.36641,"is_reserved":false,"is_disabled":false,"rental_uris":{"android":"levelo://app?vid=0044f8c1-5a70-4840-a7ed-db0b05f30513","ios":"levelo://app?vid=0044f8c1-5a70-4840-a7ed-db0b05f30513"},"vehicle_type_id":"4","last_reported":1753305085,"current_range_meters":16400,"station_id":"ce4bhap2rcd13ifvqek0","pricing_plan_id":"cebpf4jnsgd1na2vs0mg"},{"bike_id":"6a79a396-2f47-4b1c-9dce-b0d5464f72e4","system_id":"levelo_inurba_marseille","lat":43.22927,"lon":5.35402,"is_reserved":false,"is_disabled":false,"rental_uris":{"android":"levelo://app?vid=6a79a396-2f47-4b1c-9dce-b0d5464f72e4","ios":"levelo://app?vid=6a79a396-2f47-4b1c-9dce-b0d5464f72e4"},"vehicle_type_id":"4","last_reported":1753305085,"current_range_meters":16400,"station_id":"cpo3532slgdg3j2ikp40","pricing_plan_id":"cebpf4jnsgd1na2vs0mg"},{"bike_id":"f15b72c6-17b2-473f-8e47-d11a9c96dc36","system_id":"levelo_inurba_marseille","lat":43.28698,"lon":5.37397,"is_reserved":false,"is_disabled":false,"rental_uris":{"android":"levelo://app?vid=f15b72c6-17b2-473f-8e47-d11a9c96dc36","ios":"levelo://app?vid=f15b72c6-17b2-473f-8e47-d11a9c96dc36"},"vehicle_type_id":"4","last_reported":1753305085,"current_range_meters":16400,"station_id":"ce4bh3p2rcd13ifvqdq0","pricing_plan_id":"cebpf4jnsgd1na2vs0mg"},{"bike_id":"54943e91-61ee-496b-9667-a7c6c3a25bb5","system_id":"levelo_inurba_marseille","lat":43.26233,"lon":5.37469,"is_reserved":false,"is_disabled":false,"rental_uris":{"android":"levelo://app?vid=54943e91-61ee-496b-9667-a7c6c3a25bb5","ios":"levelo://app?vid=54943e91-61ee-496b-9667-a7c6c3a25bb5"},"vehicle_type_id":"4","last_reported":1753305085,"current_range_meters":16400,"station_id":"ce4bhgp2rcd13ifvqfc0","pricing_plan_id":"cebpf4jnsgd1na2vs0mg"},{"bike_id":"d33a195d-1aba-4725-a7a9-74d21f9597a0","system_id":"levelo_inurba_marseille","lat":43.26208,"lon":5.37466,"is_reserved":false,"is_disabled":false,"rental_uris":{"android":"levelo://app?vid=d33a195d-1aba-4725-a7a9-74d21f9597a0","ios":"levelo://app?vid=d33a195d-1aba-4725-a7a9-74d21f9597a0"},"vehicle_type_id":"4","last_reported":1753305085,"current_range_meters":16800,"station_id":"ce4bhgp2rcd13ifvqfc0","pricing_plan_id":"cebpf4jnsgd1na2vs0mg"},{"bike_id":"8653745e-84f9-4064-b6e8-6e4e8bfce0ff","system_id":"levelo_inurba_marseille","lat":43.23962,"lon":5.36628,"is_reserved":false,"is_disabled":false,"rental_uris":{"android":"levelo://app?vid=8653745e-84f9-4064-b6e8-6e4e8bfce0ff","ios":"levelo://app?vid=8653745e-84f9-4064-b6e8-6e4e8bfce0ff"},"vehicle_type_id":"4","last_reported":1753305085,"current_range_meters":16800,"station_id":"ce4bhi12rcd13ifvqfp0","pricing_plan_id":"cebpf4jnsgd1na2vs0mg"},{"bike_id":"e1b51a81-d796-418d-95b5-e07ff541f307","system_id":"levelo_inurba_marseille","lat":43.29579,"lon":5.3678,"is_reserved":false,"is_disabled":false,"rental_uris":{"android":"levelo://app?vid=e1b51a81-d796-418d-95b5-e07ff541f307","ios":"levelo://app?vid=e1b51a81-d796-418d-95b5-e07ff541f307"},"vehicle_type_id":"4","last_reported":1753305085,"current_range_meters":16800,"station_id":"ce4bgph2rcd13ifvqc2g","pricing_plan_id":"cebpf4jnsgd1na2vs0mg"},{"bike_id":"47d1496a-6e8d-41d0-8bbb-c5d8610b6e79","system_id":"levelo_inurba_marseille","lat":43.30426,"lon":5.38888,"is_reserved":false,"is_disabled":false,"rental_uris":{"android":"levelo://app?vid=47d1496a-6e8d-41d0-8bbb-c5d8610b6e79","ios":"levelo://app?vid=47d1496a-6e8d-41d0-8bbb-c5d8610b6e79"},"vehicle_type_id":"4","last_reported":1753305085,"current_range_meters":16800,"station_id":"ce4bgk12rcd13ifvqbi0","pricing_plan_id":"cebpf4jnsgd1na2vs0mg"},{"bike_id":"1699da3b-157a-4d07-ba4d-8fe9df7d93c7","system_id":"levelo_inurba_marseille","lat":43.30375,"lon":5.41931,"is_reserved":false,"is_disabled":false,"rental_uris":{"android":"levelo://app?vid=1699da3b-157a-4d07-ba4d-8fe9df7d93c7","ios":"levelo://app?vid=1699da3b-157a-4d07-ba4d-8fe9df7d93c7"},"vehicle_type_id":"4","last_reported":1753305085,"current_range_meters":16800,"station_id":"","pricing_plan_id":"cebpf4jnsgd1na2vs0mg"},{"bike_id":"35c14987-3d71-4187-8b70-199e8ffb58d7","system_id":"levelo_inurba_marseille","lat":43.29587,"lon":5.36734,"is_reserved":false,"is_disabled":false,"rental_uris":{"android":"levelo://app?vid=35c14987-3d71-4187-8b70-199e8ffb58d7","ios":"levelo://app?vid=35c14987-3d71-4187-8b70-199e8ffb58d7"},"vehicle_type_id":"4","last_reported":1753305085,"current_range_meters":16800,"station_id":"ce4bgph2rcd13ifvqc2g","pricing_plan_id":"cebpf4jnsgd1na2vs0mg"},{"bike_id":"8cb533f0-6034-460b-90e0-0fbfd987312f","system_id":"levelo_inurba_marseille","lat":43.29836,"lon":5.36284,"is_reserved":false,"is_disabled":false,"rental_uris":{"android":"levelo://app?vid=8cb533f0-6034-460b-90e0-0fbfd987312f","ios":"levelo://app?vid=8cb533f0-6034-460b-90e0-0fbfd987312f"},"vehicle_type_id":"4","last_reported":1753305085,"current_range_meters":16800,"station_id":"ce4bgpp2rcd13ifvqc3g","pricing_plan_id":"cebpf4jnsgd1na2vs0mg"},{"bike_id":"ce59a62d-17ec-416f-b54d-751bd3f6f3dd","system_id":"levelo_inurba_marseille","lat":43.27054,"lon":5.42273,"is_reserved":false,"is_disabled":false,"rental_uris":{"android":"levelo://app?vid=ce59a62d-17ec-416f-b54d-751bd3f6f3dd","ios":"levelo://app?vid=ce59a62d-17ec-416f-b54d-751bd3f6f3dd"},"vehicle_type_id":"4","last_reported":1753305085,"current_range_meters":16800,"station_id":"ce4bhk92rcd13ifvqgb0","pricing_plan_id":"cebpf4jnsgd1na2vs0mg"},{"bike_id":"18b86593-4f21-41ed-81b3-f3a5b378dc91","system_id":"levelo_inurba_marseille","lat":43.312339,"lon":5.381309,"is_reserved":false,"is_disabled":false,"rental_uris":{"android":"levelo://app?vid=18b86593-4f21-41ed-81b3-f3a5b378dc91","ios":"levelo://app?vid=18b86593-4f21-41ed-81b3-f3a5b378dc91"},"vehicle_type_id":"4","last_reported":1753305085,"current_range_meters":16800,"station_id":"","pricing_plan_id":"cebpf4jnsgd1na2vs0mg"},{"bike_id":"09ec6e44-f03d-48e7-8f34-0c837fd4c8a4","system_id":"levelo_inurba_marseille","lat":43.29648,"lon":5.37888,"is_reserved":false,"is_disabled":false,"rental_uris":{"android":"levelo://app?vid=09ec6e44-f03d-48e7-8f34-0c837fd4c8a4","ios":"levelo://app?vid=09ec6e44-f03d-48e7-8f34-0c837fd4c8a4"},"vehicle_type_id":"4","last_reported":1753305085,"current_range_meters":16800,"station_id":"","pricing_plan_id":"cebpf4jnsgd1na2vs0mg"},{"bike_id":"c4403314-b5a1-46da-92b4-ea9f98b119fd","system_id":"levelo_inurba_marseille","lat":43.31219,"lon":5.36848,"is_reserved":false,"is_disabled":false,"rental_uris":{"android":"levelo://app?vid=c4403314-b5a1-46da-92b4-ea9f98b119fd","ios":"levelo://app?vid=c4403314-b5a1-46da-92b4-ea9f98b119fd"},"vehicle_type_id":"4","last_reported":1753305085,"current_range_meters":16800,"station_id":"ce4bgl92rcd13ifvqbq0","pricing_plan_id":"cebpf4jnsgd1na2vs0mg"},{"bike_id":"2ee732fb-16c6-4794-9a8e-0c60df4bd4d8","system_id":"levelo_inurba_marseille","lat":43.2175,"lon":5.34603,"is_reserved":false,"is_disabled":false,"rental_uris":{"android":"levelo://app?vid=2ee732fb-16c6-4794-9a8e-0c60df4bd4d8","ios":"levelo://app?vid=2ee732fb-16c6-4794-9a8e-0c60df4bd4d8"},"vehicle_type_id":"4","last_reported":1753305085,"current_range_meters":16800,"station_id":"","pricing_plan_id":"cebpf4jnsgd1na2vs0mg"},{"bike_id":"0f015389-098c-449f-91dd-7f77c61d6819","system_id":"levelo_inurba_marseille","lat":43.29265,"lon":5.38435,"is_reserved":false,"is_disabled":false,"rental_uris":{"android":"levelo://app?vid=0f015389-098c-449f-91dd-7f77c61d6819","ios":"levelo://app?vid=0f015389-098c-449f-91dd-7f77c61d6819"},"vehicle_type_id":"4","last_reported":1753305085,"current_range_meters":16800,"station_id":"ce4bh692rcd13ifvqea0","pricing_plan_id":"cebpf4jnsgd1na2vs0mg"},{"bike_id":"e75808ef-f535-4b18-a3df-0dc0f0f71d2d","system_id":"levelo_inurba_marseille","lat":43.29678,"lon":5.36633,"is_reserved":false,"is_disabled":false,"rental_uris":{"android":"levelo://app?vid=e75808ef-f535-4b18-a3df-0dc0f0f71d2d","ios":"levelo://app?vid=e75808ef-f535-4b18-a3df-0dc0f0f71d2d"},"vehicle_type_id":"4","last_reported":1753305085,"current_range_meters":16800,"station_id":"ce4bgn12rcd13ifvqbt0","pricing_plan_id":"cebpf4jnsgd1na2vs0mg"},{"bike_id":"1ad257b5-7f83-42c1-867f-92635ff1abbf","system_id":"levelo_inurba_marseille","lat":43.229322,"lon":5.353826,"is_reserved":false,"is_disabled":false,"rental_uris":{"android":"levelo://app?vid=1ad257b5-7f83-42c1-867f-92635ff1abbf","ios":"levelo://app?vid=1ad257b5-7f83-42c1-867f-92635ff1abbf"},"vehicle_type_id":"4","last_reported":1753305085,"current_range_meters":16800,"station_id":"cpo3532slgdg3j2ikp40","pricing_plan_id":"cebpf4jnsgd1na2vs0mg"},{"bike_id":"27b5acbc-b1fd-4385-9be5-bae49e9e4f6a","system_id":"levelo_inurba_marseille","lat":43.24802,"lon":5.37456,"is_reserved":false,"is_disabled":false,"rental_uris":{"android":"levelo://app?vid=27b5acbc-b1fd-4385-9be5-bae49e9e4f6a","ios":"levelo://app?vid=27b5acbc-b1fd-4385-9be5-bae49e9e4f6a"},"vehicle_type_id":"4","last_reported":1753305085,"current_range_meters":16800,"station_id":"ce4bhgh2rcd13ifvqfb0","pricing_plan_id":"cebpf4jnsgd1na2vs0mg"},{"bike_id":"88951e3a-63fb-4d5d-b85a-e51e07231f7f","system_id":"levelo_inurba_marseille","lat":43.30584,"lon":5.39348,"is_reserved":false,"is_disabled":false,"rental_uris":{"android":"levelo://app?vid=88951e3a-63fb-4d5d-b85a-e51e07231f7f","ios":"levelo://app?vid=88951e3a-63fb-4d5d-b85a-e51e07231f7f"},"vehicle_type_id":"4","last_reported":1753305085,"current_range_meters":17200,"station_id":"ce4bh0p2rcd13ifvqd80","pricing_plan_id":"cebpf4jnsgd1na2vs0mg"},{"bike_id":"c3b7093a-c6fc-4872-a465-95918521be48","system_id":"levelo_inurba_marseille","lat":43.31485,"lon":5.37302,"is_reserved":false,"is_disabled":false,"rental_uris":{"android":"levelo://app?vid=c3b7093a-c6fc-4872-a465-95918521be48","ios":"levelo://app?vid=c3b7093a-c6fc-4872-a465-95918521be48"},"vehicle_type_id":"4","last_reported":1753305085,"current_range_meters":17200,"station_id":"ce4bgt12rcd13ifvqcd0","pricing_plan_id":"cebpf4jnsgd1na2vs0mg"},{"bike_id":"af9cff29-1130-40dd-9664-c8f79b21baa9","system_id":"levelo_inurba_marseille","lat":43.27556,"lon":5.38432,"is_reserved":false,"is_disabled":false,"rental_uris":{"android":"levelo://app?vid=af9cff29-1130-40dd-9664-c8f79b21baa9","ios":"levelo://app?vid=af9cff29-1130-40dd-9664-c8f79b21baa9"},"vehicle_type_id":"4","last_reported":1753305085,"current_range_meters":17200,"station_id":"ce4bhh92rcd13ifvqfi0","pricing_plan_id":"cebpf4jnsgd1na2vs0mg"},{"bike_id":"57029f94-93e0-4ac2-b0d6-521631bfafc8","system_id":"levelo_inurba_marseille","lat":43.30883,"lon":5.37205,"is_reserved":false,"is_disabled":false,"rental_uris":{"android":"levelo://app?vid=57029f94-93e0-4ac2-b0d6-521631bfafc8","ios":"levelo://app?vid=57029f94-93e0-4ac2-b0d6-521631bfafc8"},"vehicle_type_id":"4","last_reported":1753305085,"current_range_meters":17200,"station_id":"ce4bguh2rcd13ifvqckg","pricing_plan_id":"cebpf4jnsgd1na2vs0mg"},{"bike_id":"61cb5b9a-9cee-4d3f-8bba-365148ee2e42","system_id":"levelo_inurba_marseille","lat":43.25891,"lon":5.39893,"is_reserved":false,"is_disabled":false,"rental_uris":{"android":"levelo://app?vid=61cb5b9a-9cee-4d3f-8bba-365148ee2e42","ios":"levelo://app?vid=61cb5b9a-9cee-4d3f-8bba-365148ee2e42"},"vehicle_type_id":"4","last_reported":1753305085,"current_range_meters":17200,"station_id":"ce4bhl92rcd13ifvqghg","pricing_plan_id":"cebpf4jnsgd1na2vs0mg"},{"bike_id":"67911e6a-1ddb-4fb2-b0eb-b87b39e6fdd1","system_id":"levelo_inurba_marseille","lat":43.29587,"lon":5.36764,"is_reserved":false,"is_disabled":false,"rental_uris":{"android":"levelo://app?vid=67911e6a-1ddb-4fb2-b0eb-b87b39e6fdd1","ios":"levelo://app?vid=67911e6a-1ddb-4fb2-b0eb-b87b39e6fdd1"},"vehicle_type_id":"4","last_reported":1753305085,"current_range_meters":17200,"station_id":"ce4bgph2rcd13ifvqc2g","pricing_plan_id":"cebpf4jnsgd1na2vs0mg"},{"bike_id":"9a249df4-0b1c-4649-a324-c7cf734338a9","system_id":"levelo_inurba_marseille","lat":43.29044,"lon":5.35926,"is_reserved":false,"is_disabled":false,"rental_uris":{"android":"levelo://app?vid=9a249df4-0b1c-4649-a324-c7cf734338a9","ios":"levelo://app?vid=9a249df4-0b1c-4649-a324-c7cf734338a9"},"vehicle_type_id":"4","last_reported":1753305085,"current_range_meters":17200,"station_id":"ce4bha92rcd13ifvqeg0","pricing_plan_id":"cebpf4jnsgd1na2vs0mg"},{"bike_id":"f0f73c71-7331-4628-b623-754b73a8546a","system_id":"levelo_inurba_marseille","lat":43.30139,"lon":5.39901,"is_reserved":false,"is_disabled":true,"rental_uris":{"android":"levelo://app?vid=f0f73c71-7331-4628-b623-754b73a8546a","ios":"levelo://app?vid=f0f73c71-7331-4628-b623-754b73a8546a"},"vehicle_type_id":"4","last_reported":1753305085,"current_range_meters":17200,"station_id":"ce4bh0h2rcd13ifvqd40","pricing_plan_id":"cebpf4jnsgd1na2vs0mg"},{"bike_id":"2bff3cfe-615b-4364-af0e-db5494f53aca","system_id":"levelo_inurba_marseille","lat":43.30593,"lon":5.3724,"is_reserved":false,"is_disabled":false,"rental_uris":{"android":"levelo://app?vid=2bff3cfe-615b-4364-af0e-db5494f53aca","ios":"levelo://app?vid=2bff3cfe-615b-4364-af0e-db5494f53aca"},"vehicle_type_id":"4","last_reported":1753305085,"current_range_meters":17200,"station_id":"ce4bgqh2rcd13ifvqc4g","pricing_plan_id":"cebpf4jnsgd1na2vs0mg"},{"bike_id":"76c65f84-3b49-4269-890c-8259fe6ade74","system_id":"levelo_inurba_marseille","lat":43.32354,"lon":5.36767,"is_reserved":false,"is_disabled":false,"rental_uris":{"android":"levelo://app?vid=76c65f84-3b49-4269-890c-8259fe6ade74","ios":"levelo://app?vid=76c65f84-3b49-4269-890c-8259fe6ade74"},"vehicle_type_id":"4","last_reported":1753305085,"current_range_meters":17200,"station_id":"ce4bhsh2rcd13ifvqi2g","pricing_plan_id":"cebpf4jnsgd1na2vs0mg"},{"bike_id":"335ff819-dffc-48b7-a16c-b181638c15e6","system_id":"levelo_inurba_marseille","lat":43.30421,"lon":5.38882,"is_reserved":false,"is_disabled":false,"rental_uris":{"android":"levelo://app?vid=335ff819-dffc-48b7-a16c-b181638c15e6","ios":"levelo://app?vid=335ff819-dffc-48b7-a16c-b181638c15e6"},"vehicle_type_id":"4","last_reported":1753305085,"current_range_meters":17200,"station_id":"ce4bgk12rcd13ifvqbi0","pricing_plan_id":"cebpf4jnsgd1na2vs0mg"},{"bike_id":"ec170b1e-871a-423f-a35c-a5fb89392e96","system_id":"levelo_inurba_marseille","lat":43.27973,"lon":5.38773,"is_reserved":false,"is_disabled":false,"rental_uris":{"android":"levelo://app?vid=ec170b1e-871a-423f-a35c-a5fb89392e96","ios":"levelo://app?vid=ec170b1e-871a-423f-a35c-a5fb89392e96"},"vehicle_type_id":"4","last_reported":1753305085,"current_range_meters":17600,"station_id":"ce4bhg12rcd13ifvqf80","pricing_plan_id":"cebpf4jnsgd1na2vs0mg"},{"bike_id":"393a5779-e29d-44a1-ad82-7ab182f856d2","system_id":"levelo_inurba_marseille","lat":43.29785,"lon":5.3935,"is_reserved":false,"is_disabled":false,"rental_uris":{"android":"levelo://app?vid=393a5779-e29d-44a1-ad82-7ab182f856d2","ios":"levelo://app?vid=393a5779-e29d-44a1-ad82-7ab182f856d2"},"vehicle_type_id":"4","last_reported":1753305085,"current_range_meters":17600,"station_id":"chh1huq6cuj3fo74tm60","pricing_plan_id":"cebpf4jnsgd1na2vs0mg"},{"bike_id":"5bf271e9-b85e-4ede-9d32-02d7c28374e7","system_id":"levelo_inurba_marseille","lat":43.32486,"lon":5.36575,"is_reserved":false,"is_disabled":false,"rental_uris":{"android":"levelo://app?vid=5bf271e9-b85e-4ede-9d32-02d7c28374e7","ios":"levelo://app?vid=5bf271e9-b85e-4ede-9d32-02d7c28374e7"},"vehicle_type_id":"4","last_reported":1753305085,"current_range_meters":17600,"station_id":"ce4bhs12rcd13ifvqhvg","pricing_plan_id":"cebpf4jnsgd1na2vs0mg"},{"bike_id":"36b11bc2-274c-447a-801b-8dc010996610","system_id":"levelo_inurba_marseille","lat":43.28569,"lon":5.39493,"is_reserved":false,"is_disabled":false,"rental_uris":{"android":"levelo://app?vid=36b11bc2-274c-447a-801b-8dc010996610","ios":"levelo://app?vid=36b11bc2-274c-447a-801b-8dc010996610"},"vehicle_type_id":"4","last_reported":1753305085,"current_range_meters":17200,"station_id":"ce4bh292rcd13ifvqdg0","pricing_plan_id":"cebpf4jnsgd1na2vs0mg"},{"bike_id":"5f824980-27aa-4ef2-856d-b766bebead8a","system_id":"levelo_inurba_marseille","lat":43.22521,"lon":5.34793,"is_reserved":false,"is_disabled":false,"rental_uris":{"android":"levelo://app?vid=5f824980-27aa-4ef2-856d-b766bebead8a","ios":"levelo://app?vid=5f824980-27aa-4ef2-856d-b766bebead8a"},"vehicle_type_id":"4","last_reported":1753305085,"current_range_meters":17600,"station_id":"st_cvj5dfep6f1abm77gieg","pricing_plan_id":"cebpf4jnsgd1na2vs0mg"},{"bike_id":"e9f5eb0b-095e-4dc2-b77c-57c16ce50130","system_id":"levelo_inurba_marseille","lat":43.29596,"lon":5.36765,"is_reserved":false,"is_disabled":false,"rental_uris":{"android":"levelo://app?vid=e9f5eb0b-095e-4dc2-b77c-57c16ce50130","ios":"levelo://app?vid=e9f5eb0b-095e-4dc2-b77c-57c16ce50130"},"vehicle_type_id":"4","last_reported":1753305085,"current_range_meters":17600,"station_id":"ce4bgph2rcd13ifvqc2g","pricing_plan_id":"cebpf4jnsgd1na2vs0mg"},