{"last_updated":1730729327,"ttl":60,"version":"2.2","data":{"bikes":[{"bike_id":"1a3b96cf-391a-4373-9298-3534921eecf0","system_id":"levelo_inurba_marseille","lat":43.2991,"lon":5.38141,"is_reserved":false,"is_disabled":false,"rental_uris":{"android":"levelo://app?vid=1a3b96cf-391a-4373-9298-3534921eecf0","ios":"levelo://app?vid=1a3b96cf-391a-4373-9298-3534921eecf0"},"vehicle_type_id":"4","last_reported":1730729328,"current_range_meters":33600,"station_id":"ce4bgj12rcd13ifvqbc0","pricing_plan_id":"cebpf4jnsgd1na2vs0mg"},{"bike_id":"29e7a763-4495-4418-a0e0-eccf8574280f","system_id":"levelo_inurba_marseille","lat":43.23148,"lon":5.43705,"is_reserved":false,"is_disabled":false,"rental_uris":{"android":"levelo://app?vid=29e7a763-4495-4418-a0e0-eccf8574280f","ios":"levelo://app?vid=29e7a763-4495-4418-a0e0-eccf8574280f"},"vehicle_type_id":"4","last_reported":1730729328,"current_range_meters":14400,"station_id":"ce4bhmp2rcd13ifvqgog","pricing_plan_id":"cebpf4jnsgd1na2vs0mg"},{"bike_id":"8e0969d6-36c2-4231-afad-4d97acc45912","system_id":"levelo_inurba_marseille","lat":43.24809,"lon":5.37459,"is_reserved":false,"is_disabled":false,"rental_uris":{"android":"levelo://app?vid=8e0969d6-36c2-4231-afad-4d97acc45912","ios":"levelo://app?vid=8e0969d6-36c2-4231-afad-4d97acc45912"},"vehicle_type_id":"4","last_reported":1730729328,"current_range_meters":39200,"station_id":"ce4bhgh2rcd13ifvqfb0","pricing_plan_id":"cebpf4jnsgd1na2vs0mg"},{"bike_id":"c1252cb6-909d-433d-bc1b-d9ae41df5c2b","system_id":"levelo_inurba_marseille","lat":43.28666,"lon":5.36351,"is_reserved":false,"is_disabled":false,"rental_uris":{"android":"levelo://app?vid=c1252cb6-909d-433d-bc1b-d9ae41df5c2b","ios":"levelo://app?vid=c1252cb6-909d-433d-bc1b-d9ae41df5c2b"},"vehicle_type_id":"4","last_reported":1730729328,"current_range_meters":34000,"station_id":"ce4bhah2rcd13ifvqej0","pricing_plan_id":"cebpf4jnsgd1na2vs0mg"},{"bike_id":"40e1bdd4-0926-4a09-afcc-c29c0c095a4c","system_id":"levelo_inurba_marseille","lat":43.29709,"lon":5.37698,"is_reserved":false,"is_disabled":false,"rental_uris":{"android":"levelo://app?vid=40e1bdd4-0926-4a09-afcc-c29c0c095a4c","ios":"levelo://app?vid=40e1bdd4-0926-4a09-afcc-c29c0c095a4c"},"vehicle_type_id":"4","last_reported":1730729328,"current_range_meters":12000,"station_id":"ce4bgkh2rcd13ifvqbl0","pricing_plan_id":"cebpf4jnsgd1na2vs0mg"},{"bike_id":"c5e90cd5-c105-4b5d-bc2e-734410f05189","system_id":"levelo_inurba_marseille","lat":43.30325,"lon":5.40433,"is_reserved":false,"is_disabled":false,"rental_uris":{"android":"levelo://app?vid=c5e90cd5-c105-4b5d-bc2e-734410f05189","ios":"levelo://app?vid=c5e90cd5-c105-4b5d-bc2e-734410f05189"},"vehicle_type_id":"4","last_reported":1730729328,"current_range_meters":9600,"station_id":"ce4bh012rcd13ifvqd10","pricing_plan_id":"cebpf4jnsgd1na2vs0mg"},{"bike_id":"b18fbf1e-20d4-43fd-9392-f50824a59e76","system_id":"levelo_inurba_marseille","lat":43.311246,"lon":5.37775,"is_reserved":false,"is_disabled":false,"rental_uris":{"android":"levelo://app?vid=b18fbf1e-20d4-43fd-9392-f50824a59e76","ios":"levelo://app?vid=b18fbf1e-20d4-43fd-9392-f50824a59e76"},"vehicle_type_id":"4","last_reported":1730729328,"current_range_meters":12800,"station_id":"ce4bgup2rcd13ifvqco0","pricing_plan_id":"cebpf4jnsgd1na2vs0mg"},{"bike_id":"d458e245-edbc-494d-a84e-0cd740e6144f","system_id":"levelo_inurba_marseille","lat":43.25943,"lon":5.40904,"is_reserved":false,"is_disabled":false,"rental_uris":{"android":"levelo://app?vid=d458e245-edbc-494d-a84e-0cd740e6144f","ios":"levelo://app?vid=d458e245-edbc-494d-a84e-0cd740e6144f"},"vehicle_type_id":"4","last_reported":1730729328,"current_range_meters":22800,"station_id":"ce4bhm92rcd13ifvqglg","pricing_plan_id":"cebpf4jnsgd1na2vs0mg"},{"bike_id":"b45d93e2-137e-40d9-b8b9-f9ceab009d23","system_id":"levelo_inurba_marseille","lat":43.2417,"lon":5.39735,"is_reserved":false,"is_disabled":false,"rental_uris":{"android":"levelo://app?vid=b45d93e2-137e-40d9-b8b9-f9ceab009d23","ios":"levelo://app?vid=b45d93e2-137e-40d9-b8b9-f9ceab009d23"},"vehicle_type_id":"4","last_reported":1730729328,"current_range_meters":39200,"station_id":"ce4bhn12rcd13ifvqgpg","pricing_plan_id":"cebpf4jnsgd1na2vs0mg"},{"bike_id":"52340d74-270c-47a3-b3a7-f0ce31a16824","system_id":"levelo_inurba_marseille","lat":43.2649,"lon":5.39556,"is_reserved":false,"is_disabled":false,"rental_uris":{"android":"levelo://app?vid=52340d74-270c-47a3-b3a7-f0ce31a16824","ios":"levelo://app?vid=52340d74-270c-47a3-b3a7-f0ce31a16824"},"vehicle_type_id":"4","last_reported":1730729328,"current_range_meters":38800,"station_id":"ce4bhi12rcd13ifvqfq0","pricing_plan_id":"cebpf4jnsgd1na2vs0mg"},{"bike_id":"601de3e7-c621-461e-921f-ec8dbdf105c4","system_id":"levelo_inurba_marseille","lat":43.284119,"lon":5.349837,"is_reserved":false,"is_disabled":false,"rental_uris":{"android":"levelo://app?vid=601de3e7-c621-461e-921f-ec8dbdf105c4","ios":"levelo://app?vid=601de3e7-c621-461e-921f-ec8dbdf105c4"},"vehicle_type_id":"4","last_reported":1730729328,"current_range_meters":24000,"station_id":"ce4bhbh2rcd13ifvqepg","pricing_plan_id":"cebpf4jnsgd1na2vs0mg"},{"bike_id":"657922bf-48a9-4cc4-a302-b5458947a0f1","system_id":"levelo_inurba_marseille","lat":43.2408,"lon":5.37752,"is_reserved":false,"is_disabled":false,"rental_uris":{"android":"levelo://app?vid=657922bf-48a9-4cc4-a302-b5458947a0f1","ios":"levelo://app?vid=657922bf-48a9-4cc4-a302-b5458947a0f1"},"vehicle_type_id":"4","last_reported":1730729328,"current_range_meters":24400,"station_id":"ce4bhnp2rcd13ifvqgvg","pricing_plan_id":"cebpf4jnsgd1na2vs0mg"},{"bike_id":"b5b11d17-3f3b-46cf-8294-274ab7243e65","system_id":"levelo_inurba_marseille","lat":43.336,"lon":5.41023,"is_reserved":false,"is_disabled":false,"rental_uris":{"android":"levelo://app?vid=b5b11d17-3f3b-46cf-8294-274ab7243e65","ios":"levelo://app?vid=b5b11d17-3f3b-46cf-8294-274ab7243e65"},"vehicle_type_id":"4","last_reported":1730729328,"current_range_meters":38800,"station_id":"ce4bhqh2rcd13ifvqhmg","pricing_plan_id":"cebpf4jnsgd1na2vs0mg"},{"bike_id":"2a39fee9-2e1a-4506-90a5-52fa3c1e7f62","system_id":"levelo_inurba_marseille","lat":43.24081,"lon":5.3776,"is_reserved":false,"is_disabled":false,"rental_uris":{"android":"levelo://app?vid=2a39fee9-2e1a-4506-90a5-52fa3c1e7f62","ios":"levelo://app?vid=2a39fee9-2e1a-4506-90a5-52fa3c1e7f62"},"vehicle_type_id":"4","last_reported":1730729328,"current_range_meters":39200,"station_id":"ce4bhnp2rcd13ifvqgvg","pricing_plan_id":"cebpf4jnsgd1na2vs0mg"},{"bike_id":"7ef03a1c-b439-4b32-b42e-7ad7ea22a075","system_id":"levelo_inurba_marseille","lat":43.32529,"lon":5.41439,"is_reserved":false,"is_disabled":false,"rental_uris":{"android":"levelo://app?vid=7ef03a1c-b439-4b32-b42e-7ad7ea22a075","ios":"levelo://app?vid=7ef03a1c-b439-4b32-b42e-7ad7ea22a075"},"vehicle_type_id":"4","last_reported":1730729328,"current_range_meters":17200,"station_id":"ce4bhq12rcd13ifvqhhg","pricing_plan_id":"cebpf4jnsgd1na2vs0mg"},{"bike_id":"4147bbfb-4b14-4aca-b782-8ec6c0473609","system_id":"levelo_inurba_marseille","lat":43.23602,"lon":5.40349,"is_reserved":false,"is_disabled":false,"rental_uris":{"android":"levelo://app?vid=4147bbfb-4b14-4aca-b782-8ec6c0473609","ios":"levelo://app?vid=4147bbfb-4b14-4aca-b782-8ec6c0473609"},"vehicle_type_id":"4","last_reported":1730729328,"current_range_meters":14400,"station_id":"","pricing_plan_id":"cebpf4jnsgd1na2vs0mg"},{"bike_id":"862c176c-dd7b-45ba-a8b8-3dc61591d878","system_id":"levelo_inurba_marseille","lat":43.3056,"lon":5.36545,"is_reserved":false,"is_disabled":false,"rental_uris":{"android":"levelo://app?vid=862c176c-dd7b-45ba-a8b8-3dc61591d878","ios":"levelo://app?vid=862c176c-dd7b-45ba-a8b8-3dc61591d878"},"vehicle_type_id":"4","last_reported":1730729328,"current_range_meters":36400,"station_id":"ce4bgs12rcd13ifvqcag","pricing_plan_id":"cebpf4jnsgd1na2vs0mg"},{"bike_id":"60188e7c-41b8-413d-9179-e9013c688863","system_id":"levelo_inurba_marseille","lat":43.26575,"lon":5.39015,"is_reserved":false,"is_disabled":false,"rental_uris":{"android":"levelo://app?vid=60188e7c-41b8-413d-9179-e9013c688863","ios":"levelo://app?vid=60188e7c-41b8-413d-9179-e9013c688863"},"vehicle_type_id":"4","last_reported":1730729328,"current_range_meters":10800,"station_id":"ce4bhe12rcd13ifvqf30","pricing_plan_id":"cebpf4jnsgd1na2vs0mg"},{"bike_id":"9f410113-da45-46ac-b90d-c25805adb157","system_id":"levelo_inurba_marseille","lat":43.28007,"lon":5.40007,"is_reserved":false,"is_disabled":false,"rental_uris":{"android":"levelo://app?vid=9f410113-da45-46ac-b90d-c25805adb157","ios":"levelo://app?vid=9f410113-da45-46ac-b90d-c25805adb157"},"vehicle_type_id":"4","last_reported":1730729328,"current_range_meters":3200,"station_id":"ce4bho92rcd13ifvqh4g","pricing_plan_id":"cebpf4jnsgd1na2vs0mg"},{"bike_id":"c3c4d41d-7148-4370-b749-aace2892e397","system_id":"levelo_inurba_marseille","lat":43.23147,"lon":5.43713,"is_reserved":false,"is_disabled":false,"rental_uris":{"android":"levelo://app?vid=c3c4d41d-7148-4370-b749-aace2892e397","ios":"levelo://app?vid=c3c4d41d-7148-4370-b749-aace2892e397"},"vehicle_type_id":"4","last_reported":1730729328,"current_range_meters":23200,"station_id":"ce4bhmp2rcd13ifvqgog","pricing_plan_id":"cebpf4jnsgd1na2vs0mg"},{"bike_id":"f004bb40-0c97-4961-ae2c-b0211cfc0184","system_id":"levelo_inurba_marseille","lat":43.31231,"lon":5.36855,"is_reserved":false,"is_disabled":false,"rental_uris":{"android":"levelo://app?vid=f004bb40-0c97-4961-ae2c-b0211cfc0184","ios":"levelo://app?vid=f004bb40-0c97-4961-ae2c-b0211cfc0184"},"vehicle_type_id":"4","last_reported":1730729328,"current_range_meters":38800,"station_id":"ce4bgl92rcd13ifvqbq0","pricing_plan_id":"cebpf4jnsgd1na2vs0mg"},{"bike_id":"e1d2badc-e64f-4379-a242-ffbfb288b0c5","system_id":"levelo_inurba_marseille","lat":43.30426,"lon":5.38896,"is_reserved":false,"is_disabled":false,"rental_uris":{"android":"levelo://app?vid=e1d2badc-e64f-4379-a242-ffbfb288b0c5","ios":"levelo://app?vid=e1d2badc-e64f-4379-a242-ffbfb288b0c5"},"vehicle_type_id":"4","last_reported":1730729328,"current_range_meters":38800,"station_id":"ce4bgk12rcd13ifvqbi0","pricing_plan_id":"cebpf4jnsgd1na2vs0mg"},{"bike_id":"76b8d797-d314-4451-a891-341320b006ff","system_id":"levelo_inurba_marseille","lat":43.2994,"lon":5.36551,"is_reserved":false,"is_disabled":false,"rental_uris":{"android":"levelo://app?vid=76b8d797-d314-4451-a891-341320b006ff","ios":"levelo://app?vid=76b8d797-d314-4451-a891-341320b006ff"},"vehicle_type_id":"4","last_reported":1730729328,"current_range_meters":23200,"station_id":"ce4bgm92rcd13ifvqbr0","pricing_plan_id":"cebpf4jnsgd1na2vs0mg"},{"bike_id":"13a31c8b-3468-43f9-84ec-7699d1c25b60","system_id":"levelo_inurba_marseille","lat":43.32538,"lon":5.41432,"is_reserved":false,"is_disabled":false,"rental_uris":{"android":"levelo://app?vid=13a31c8b-3468-43f9-84ec-7699d1c25b60","ios":"levelo://app?vid=13a31c8b-3468-43f9-84ec-7699d1c25b60"},"vehicle_type_id":"4","last_reported":1730729328,"current_range_meters":38800,"station_id":"ce4bhq12rcd13ifvqhhg","pricing_plan_id":"cebpf4jnsgd1na2vs0mg"},{"bike_id":"1f30c897-5b08-4f4b-abbe-5b42dc92e709","system_id":"levelo_inurba_marseille","lat":43.292328,"lon":5.365328,"is_reserved":false,"is_disabled":false,"rental_uris":{"android":"levelo://app?vid=1f30c897-5b08-4f4b-abbe-5b42dc92e709","ios":"levelo://app?vid=1f30c897-5b08-4f4b-abbe-5b42dc92e709"},"vehicle_type_id":"4","last_reported":1730729328,"current_range_meters":15200,"station_id":"","pricing_plan_id":"cebpf4jnsgd1na2vs0mg"},{"bike_id":"4457c172-acf7-466f-bf1d-ad3069f6ef15","system_id":"levelo_inurba_marseille","lat":43.29928,"lon":5.36547,"is_reserved":false,"is_disabled":false,"rental_uris":{"android":"levelo://app?vid=4457c172-acf7-466f-bf1d-ad3069f6ef15","ios":"levelo://app?vid=4457c172-acf7-466f-bf1d-ad3069f6ef15"},"vehicle_type_id":"4","last_reported":1730729328,"current_range_meters":12000,"station_id":"ce4bgm92rcd13ifvqbr0","pricing_plan_id":"cebpf4jnsgd1na2vs0mg"},{"bike_id":"66476298-0009-4fac-b78a-95c0c35e5163","system_id":"levelo_inurba_marseille","lat":43.27068,"lon":5.42283,"is_reserved":false,"is_disabled":false,"rental_uris":{"android":"levelo://app?vid=66476298-0009-4fac-b78a-95c0c35e5163","ios":"levelo://app?vid=66476298-0009-4fac-b78a-95c0c35e5163"},"vehicle_type_id":"4","last_reported":1730729328,"current_range_meters":34800,"station_id":"ce4bhk92rcd13ifvqgb0","pricing_plan_id":"cebpf4jnsgd1na2vs0mg"},{"bike_id":"2378f453-72a7-4eb2-ab3b-946285d406fd","system_id":"levelo_inurba_marseille","lat":43.29234,"lon":5.37733,"is_reserved":false,"is_disabled":false,"rental_uris":{"android":"levelo://app?vid=2378f453-72a7-4eb2-ab3b-946285d406fd","ios":"levelo://app?vid=2378f453-72a7-4eb2-ab3b-946285d406fd"},"vehicle_type_id":"4","last_reported":1730729328,"current_range_meters":8400,"station_id":"","pricing_plan_id":"cebpf4jnsgd1na2vs0mg"},{"bike_id":"6b0dd3f3-039e-407c-a864-81f04971a376","system_id":"levelo_inurba_marseille","lat":43.24388,"lon":5.37063,"is_reserved":false,"is_disabled":false,"rental_uris":{"android":"levelo://app?vid=6b0dd3f3-039e-407c-a864-81f04971a376","ios":"levelo://app?vid=6b0dd3f3-039e-407c-a864-81f04971a376"},"vehicle_type_id":"4","last_reported":1730729328,"current_range_meters":11200,"station_id":"ce4bhhh2rcd13ifvqfk0","pricing_plan_id":"cebpf4jnsgd1na2vs0mg"},{"bike_id":"d119e2e3-ec45-4df0-bab9-07dd924421ec","system_id":"levelo_inurba_marseille","lat":43.24071,"lon":5.37766,"is_reserved":false,"is_disabled":false,"rental_uris":{"android":"levelo://app?vid=d119e2e3-ec45-4df0-bab9-07dd924421ec","ios":"levelo://app?vid=d119e2e3-ec45-4df0-bab9-07dd924421ec"},"vehicle_type_id":"4","last_reported":1730729328,"current_range_meters":22400,"station_id":"ce4bhnp2rcd13ifvqgvg","pricing_plan_id":"cebpf4jnsgd1na2vs0mg"},{"bike_id":"a4a29049-1b2f-46ff-9356-620e99ce16af","system_id":"levelo_inurba_marseille","lat":43.2928,"lon":5.36848,"is_reserved":false,"is_disabled":false,"rental_uris":{"android":"levelo://app?vid=a4a29049-1b2f-46ff-9356-620e99ce16af","ios":"levelo://app?vid=a4a29049-1b2f-46ff-9356-620e99ce16af"},"vehicle_type_id":"4","last_reported":1730729328,"current_range_meters":28800,"station_id":"ce4bhbp2rcd13ifvqesg","pricing_plan_id":"cebpf4jnsgd1na2vs0mg"},{"bike_id":"1cd85e6a-540e-4343-83a3-ca6c4b27d331","system_id":"levelo_inurba_marseille","lat":43.24074,"lon":5.37761,"is_reserved":false,"is_disabled":false,"rental_uris":{"android":"levelo://app?vid=1cd85e6a-540e-4343-83a3-ca6c4b27d331","ios":"levelo://app?vid=1cd85e6a-540e-4343-83a3-ca6c4b27d331"},"vehicle_type_id":"4","last_reported":1730729328,"current_range_meters":38000,"station_id":"ce4bhnp2rcd13ifvqgvg","pricing_plan_id":"cebpf4jnsgd1na2vs0mg"},{"bike_id":"61dbaa79-fb29-4ce6-ad78-01486dfbbfff","system_id":"levelo_inurba_marseille","lat":43.23968,"lon":5.36627,"is_reserved":false,"is_disabled":false,"rental_uris":{"android":"levelo://app?vid=61dbaa79-fb29-4ce6-ad78-01486dfbbfff","ios":"levelo://app?vid=61dbaa79-fb29-4ce6-ad78-01486dfbbfff"},"vehicle_type_id":"4","last_reported":1730729328,"current_range_meters":40000,"station_id":"ce4bhi12rcd13ifvqfp0","pricing_plan_id":"cebpf4jnsgd1na2vs0mg"},{"bike_id":"8e29533a-993a-4d42-8622-a40bd075b12c","system_id":"levelo_inurba_marseille","lat":43.29163,"lon":5.37152,"is_reserved":false,"is_disabled":false,"rental_uris":{"android":"levelo://app?vid=8e29533a-993a-4d42-8622-a40bd075b12c","ios":"levelo://app?vid=8e29533a-993a-4d42-8622-a40bd075b12c"},"vehicle_type_id":"4","last_reported":1730729328,"current_range_meters":38800,"station_id":"ce4bha92rcd13ifvqeh0","pricing_plan_id":"cebpf4jnsgd1na2vs0mg"},{"bike_id":"51157311-8aef-483f-9f25-9f25b3ef268a","system_id":"levelo_inurba_marseille","lat":43.29039,"lon":5.37557,"is_reserved":false,"is_disabled":false,"rental_uris":{"android":"levelo://app?vid=51157311-8aef-483f-9f25-9f25b3ef268a","ios":"levelo://app?vid=51157311-8aef-483f-9f25-9f25b3ef268a"},"vehicle_type_id":"4","last_reported":1730729328,"current_range_meters":11200,"station_id":"ce4bh692rcd13ifvqe90","pricing_plan_id":"cebpf4jnsgd1na2vs0mg"},{"bike_id":"02403e47-9327-4e49-8dc2-c5b82c02fcc5","system_id":"levelo_inurba_marseille","lat":43.30471,"lon":5.37914,"is_reserved":false,"is_disabled":false,"rental_uris":{"android":"levelo://app?vid=02403e47-9327-4e49-8dc2-c5b82c02fcc5","ios":"levelo://app?vid=02403e47-9327-4e49-8dc2-c5b82c02fcc5"},"vehicle_type_id":"4","last_reported":1730729328,"current_range_meters":36400,"station_id":"ce4bgup2rcd13ifvqcn0","pricing_plan_id":"cebpf4jnsgd1na2vs0mg"},{"bike_id":"3bd62d41-958b-4c0c-872c-6a72b57371ab","system_id":"levelo_inurba_marseille","lat":43.24073,"lon":5.37764,"is_reserved":false,"is_disabled":false,"rental_uris":{"android":"levelo://app?vid=3bd62d41-958b-4c0c-872c-6a72b57371ab","ios":"levelo://app?vid=3bd62d41-958b-4c0c-872c-6a72b57371ab"},"vehicle_type_id":"4","last_reported":1730729328,"current_range_meters":24800,"station_id":"ce4bhnp2rcd13ifvqgvg","pricing_plan_id":"cebpf4jnsgd1na2vs0mg"},{"bike_id":"5f182c0f-58e8-4d44-8169-760b9016320b","system_id":"levelo_inurba_marseille","lat":43.28153,"lon":5.42643,"is_reserved":false,"is_disabled":false,"rental_uris":{"android":"levelo://app?vid=5f182c0f-58e8-4d44-8169-760b9016320b","ios":"levelo://app?vid=5f182c0f-58e8-4d44-8169-760b9016320b"},"vehicle_type_id":"4","last_reported":1730729328,"current_range_meters":29600,"station_id":"ce4bhnh2rcd13ifvqgug","pricing_plan_id":"cebpf4jnsgd1na2vs0mg"},{"bike_id":"729ed762-2084-40cb-ba5b-e8d2d89903cd","system_id":"levelo_inurba_marseille","lat":43.25935,"lon":5.40914,"is_reserved":false,"is_disabled":false,"rental_uris":{"android":"levelo://app?vid=729ed762-2084-40cb-ba5b-e8d2d89903cd","ios":"levelo://app?vid=729ed762-2084-40cb-ba5b-e8d2d89903cd"},"vehicle_type_id":"4","last_reported":1730729328,"current_range_meters":16800,"station_id":"ce4bhm92rcd13ifvqglg","pricing_plan_id":"cebpf4jnsgd1na2vs0mg"},{"bike_id":"365b297d-5996-4ae4-9f10-d5b5694a2e48","system_id":"levelo_inurba_marseille","lat":43.29968,"lon":5.385,"is_reserved":false,"is_disabled":false,"rental_uris":{"android":"levelo://app?vid=365b297d-5996-4ae4-9f10-d5b5694a2e48","ios":"levelo://app?vid=365b297d-5996-4ae4-9f10-d5b5694a2e48"},"vehicle_type_id":"4","last_reported":1730729328,"current_range_meters":33600,"station_id":"ce4bgj92rcd13ifvqbd0","pricing_plan_id":"cebpf4jnsgd1na2vs0mg"},{"bike_id":"953aa1b9-2139-49f3-be75-7bd3f89a3c6e","system_id":"levelo_inurba_marseille","lat":43.3117,"lon":5.38718,"is_reserved":false,"is_disabled":false,"rental_uris":{"android":"levelo://app?vid=953aa1b9-2139-49f3-be75-7bd3f89a3c6e","ios":"levelo://app?vid=953aa1b9-2139-49f3-be75-7bd3f89a3c6e"},"vehicle_type_id":"4","last_reported":1730729328,"current_range_meters":16800,"station_id":"ce4bgv12rcd13ifvqcp0","pricing_plan_id":"cebpf4jnsgd1na2vs0mg"},{"bike_id":"ad50ee3b-6a75-4b44-9968-4a01a2f3163e","system_id":"levelo_inurba_marseille","lat":43.29708,"lon":5.36621,"is_reserved":false,"is_disabled":false,"rental_uris":{"android":"levelo://app?vid=ad50ee3b-6a75-4b44-9968-4a01a2f3163e","ios":"levelo://app?vid=ad50ee3b-6a75-4b44-9968-4a01a2f3163e"},"vehicle_type_id":"4","last_reported":1730729328,"current_range_meters":37600,"station_id":"ce4bgn12rcd13ifvqbt0","pricing_plan_id":"cebpf4jnsgd1na2vs0mg"},{"bike_id":"4e368622-7023-49a2-9a57-e9d62de5198a","system_id":"levelo_inurba_marseille","lat":43.29196,"lon":5.35799,"is_reserved":false,"is_disabled":false,"rental_uris":{"android":"levelo://app?vid=4e368622-7023-49a2-9a57-e9d62de5198a","ios":"levelo://app?vid=4e368622-7023-49a2-9a57-e9d62de5198a"},"vehicle_type_id":"4","last_reported":1730729328,"current_range_meters":36800,"station_id":"ce4bhb12rcd13ifvqel0","pricing_plan_id":"cebpf4jnsgd1na2vs0mg"},{"bike_id":"c5f8c5e3-de80-41eb-8a1b-32becacf2d96","system_id":"levelo_inurba_marseille","lat":43.30562,"lon":5.36539,"is_reserved":false,"is_disabled":false,"rental_uris":{"android":"levelo://app?vid=c5f8c5e3-de80-41eb-8a1b-32becacf2d96","ios":"levelo://app?vid=c5f8c5e3-de80-41eb-8a1b-32becacf2d96"},"vehicle_type_id":"4","last_reported":1730729328,"current_range_meters":30000,"station_id":"ce4bgs12rcd13ifvqcag","pricing_plan_id":"cebpf4jnsgd1na2vs0mg"},{"bike_id":"b0bfcf34-cfb5-4cf2-baa8-a2e99ed5e769","system_id":"levelo_inurba_marseille","lat":43.30544,"lon":5.36539,"is_reserved":false,"is_disabled":false,"rental_uris":{"android":"levelo://app?vid=b0bfcf34-cfb5-4cf2-baa8-a2e99ed5e769","ios":"levelo://app?vid=b0bfcf34-cfb5-4cf2-baa8-a2e99ed5e769"},"vehicle_type_id":"4","last_reported":1730729328,"current_range_meters":22000,"station_id":"ce4bgs12rcd13ifvqcag","pricing_plan_id":"cebpf4jnsgd1na2vs0mg"},{"bike_id":"09e169b1-a434-44e0-9933-6ea7636f916a","system_id":"levelo_inurba_marseille","lat":43.28431,"lon":5.39188,"is_reserved":false,"is_disabled":false,"rental_uris":{"android":"levelo://app?vid=09e169b1-a434-44e0-9933-6ea7636f916a","ios":"levelo://app?vid=09e169b1-a434-44e0-9933-6ea7636f916a"},"vehicle_type_id":"4","last_reported":1730729328,"current_range_meters":36400,"station_id":"ce4bhoh2rcd13ifvqh5g","pricing_plan_id":"cebpf4jnsgd1na2vs0mg"},{"bike_id":"c2d4133c-888e-4c9d-854a-1df6dc6b0ea8","system_id":"levelo_inurba_marseille","lat":43.27622,"lon":5.3612,"is_reserved":false,"is_disabled":false,"rental_uris":{"android":"levelo://app?vid=c2d4133c-888e-4c9d-854a-1df6dc6b0ea8","ios":"levelo://app?vid=c2d4133c-888e-4c9d-854a-1df6dc6b0ea8"},"vehicle_type_id":"4","last_reported":1730729328,"current_range_meters":38400,"station_id":"ce4bgj92rcd13ifvqbe0","pricing_plan_id":"cebpf4jnsgd1na2vs0mg"},{"bike_id":"6eb77e50-bdb4-4349-bcc8-ce6f43b78dcb","system_id":"levelo_inurba_marseille","lat":43.28154,"lon":5.42639,"is_reserved":false,"is_disabled":false,"rental_uris":{"android":"levelo://app?vid=6eb77e50-bdb4-4349-bcc8-ce6f43b78dcb","ios":"levelo://app?vid=6eb77e50-bdb4-4349-bcc8-ce6f43b78dcb"},"vehicle_type_id":"4","last_reported":1730729328,"current_range_meters":10000,"station_id":"ce4bhnh2rcd13ifvqgug","pricing_plan_id":"cebpf4jnsgd1na2vs0mg"},{"bike_id":"71a43f5e-2279-41cc-a44a-d92ed6068338","system_id":"levelo_inurba_marseille","lat":43.26944,"lon":5.38638,"is_reserved":false,"is_disabled":false,"rental_uris":{"android":"levelo://app?vid=71a43f5e-2279-41cc-a44a-d92ed6068338","ios":"levelo://app?vid=71a43f5e-2279-41cc-a44a-d92ed6068338"},"vehicle_type_id":"4","last_reported":1730729328,"current_range_meters":27600,"station_id":"ce4bhh92rcd13ifvqfh0","pricing_plan_id":"cebpf4jnsgd1na2vs0mg"},{"bike_id":"b32b7556-10cc-4d3a-8c12-df987a6243de","system_id":"levelo_inurba_marseille","lat":43.28422,"lon":5.34995,"is_reserved":false,"is_disabled":false,"rental_uris":{"android":"levelo://app?vid=b32b7556-10cc-4d3a-8c12-df987a6243de","ios":"levelo://app?vid=b32b7556-10cc-4d3a-8c12-df987a6243de"},"vehicle_type_id":"4","last_reported":1730729328,"current_range_meters":38800,"station_id":"ce4bhbh2rcd13ifvqepg","pricing_plan_id":"cebpf4jnsgd1na2vs0mg"},{"bike_id":"bfb4e9f1-502b-4eee-ad84-0c905afe5629","system_id":"levelo_inurba_marseille","lat":43.32481,"lon":5.36568,"is_reserved":false,"is_disabled":false,"rental_uris":{"android":"levelo://app?vid=bfb4e9f1-502b-4eee-ad84-0c905afe5629","ios":"levelo://app?vid=bfb4e9f1-502b-4eee-ad84-0c905afe5629"},"vehicle_type_id":"4","last_reported":1730729328,"current_range_meters":28800,"station_id":"ce4bhs12rcd13ifvqhvg","pricing_plan_id":"cebpf4jnsgd1na2vs0mg"},{"bike_id":"512ddf6d-33d9-4932-9b37-b059ab20f67d","system_id":"levelo_inurba_marseille","lat":43.31337,"lon":5.36723,"is_reserved":false,"is_disabled":false,"rental_uris":{"android":"levelo://app?vid=512ddf6d-33d9-4932-9b37-b059ab20f67d","ios":"levelo://app?vid=512ddf6d-33d9-4932-9b37-b059ab20f67d"},"vehicle_type_id":"4","last_reported":1730729328,"current_range_meters":25600,"station_id":"ce4bgr92rcd13ifvqc6g","pricing_plan_id":"cebpf4jnsgd1na2vs0mg"},{"bike_id":"8356ce50-23d9-4fb8-aba6-e129906a127d","system_id":"levelo_inurba_marseille","lat":43.29421,"lon":5.38613,"is_reserved":false,"is_disabled":false,"rental_uris":{"android":"levelo://app?vid=8356ce50-23d9-4fb8-aba6-e129906a127d","ios":"levelo://app?vid=8356ce50-23d9-4fb8-aba6-e129906a127d"},"vehicle_type_id":"4","last_reported":1730729328,"current_range_meters":39200,"station_id":"ce4bh2h2rcd13ifvqdh0","pricing_plan_id":"cebpf4jnsgd1na2vs0mg"},{"bike_id":"e376af00-43e0-486a-b96b-7261e4be8220","system_id":"levelo_inurba_marseille","lat":43.26677,"lon":5.38256,"is_reserved":false,"is_disabled":false,"rental_uris":{"android":"levelo://app?vid=e376af00-43e0-486a-b96b-7261e4be8220","ios":"levelo://app?vid=e376af00-43e0-486a-b96b-7261e4be8220"},"vehicle_type_id":"4","last_reported":1730729328,"current_range_meters":39200,"station_id":"ce4bhg92rcd13ifvqf90","pricing_plan_id":"cebpf4jnsgd1na2vs0mg"},{"bike_id":"6af9b4ef-84ae-4501-a87e-181c281be810","system_id":"levelo_inurba_marseille","lat":43.28352,"lon":5.38104,"is_reserved":false,"is_disabled":false,"rental_uris":{"android":"levelo://app?vid=6af9b4ef-84ae-4501-a87e-181c281be810","ios":"levelo://app?vid=6af9b4ef-84ae-4501-a87e-181c281be810"},"vehicle_type_id":"4","last_reported":1730729328,"current_range_meters":39200,"station_id":"ce4bh412rcd13ifvqdr0","pricing_plan_id":"cebpf4jnsgd1na2vs0mg"},{"bike_id":"4f79a197-9829-41c5-a99c-0f5c294ebc79","system_id":"levelo_inurba_marseille","lat":43.29905,"lon":5.38131,"is_reserved":false,"is_disabled":false,"rental_uris":{"android":"levelo://app?vid=4f79a197-9829-41c5-a99c-0f5c294ebc79","ios":"levelo://app?vid=4f79a197-9829-41c5-a99c-0f5c294ebc79"},"vehicle_type_id":"4","last_reported":1730729328,"current_range_meters":28000,"station_id":"ce4bgj12rcd13ifvqbc0","pricing_plan_id":"cebpf4jnsgd1na2vs0mg"},{"bike_id":"9e1b127e-97a6-4b04-9949-1c7114e2b827","system_id":"levelo_inurba_marseille","lat":43.26564,"lon":5.3901,"is_reserved":false,"is_disabled":false,"rental_uris":{"android":"levelo://app?vid=9e1b127e-97a6-4b04-9949-1c7114e2b827","ios":"levelo://app?vid=9e1b127e-97a6-4b04-9949-1c7114e2b827"},"vehicle_type_id":"4","last_reported":1730729328,"current_range_meters":22000,"station_id":"ce4bhe12rcd13ifvqf30","pricing_plan_id":"cebpf4jnsgd1na2vs0mg"},{"bike_id":"426650bd-2c26-48a3-904a-6bad66a95624","system_id":"levelo_inurba_marseille","lat":43.29795,"lon":5.38094,"is_reserved":false,"is_disabled":false,"rental_uris":{"android":"levelo://app?vid=426650bd-2c26-48a3-904a-6bad66a95624","ios":"levelo://app?vid=426650bd-2c26-48a3-904a-6bad66a95624"},"vehicle_type_id":"4","last_reported":1730729328,"current_range_meters":38800,"station_id":"ce4bgip2rcd13ifvqbb0","pricing_plan_id":"cebpf4jnsgd1na2vs0mg"},{"bike_id":"5dc3c221-4aa4-4640-b6a8-8b07d8b6d2e2","system_id":"levelo_inurba_marseille","lat":43.309525,"lon":5.390229,"is_reserved":false,"is_disabled":false,"rental_uris":{"android":"levelo://app?vid=5dc3c221-4aa4-4640-b6a8-8b07d8b6d2e2","ios":"levelo://app?vid=5dc3c221-4aa4-4640-b6a8-8b07d8b6d2e2"},"vehicle_type_id":"4","last_reported":1730729328,"current_range_meters":38800,"station_id":"ce4bgup2rcd13ifvqco0","pricing_plan_id":"cebpf4jnsgd1na2vs0mg"},{"bike_id":"589bd2b8-9799-4d5d-a4f3-b0f27fef0139","system_id":"levelo_inurba_marseille","lat":43.30882,"lon":5.39642,"is_reserved":false,"is_disabled":false,"rental_uris":{"android":"levelo://app?vid=589bd2b8-9799-4d5d-a4f3-b0f27fef0139","ios":"levelo://app?vid=589bd2b8-9799-4d5d-a4f3-b0f27fef0139"},"vehicle_type_id":"4","last_reported":1730729328,"current_range_meters":26000,"station_id":"ce4bh012rcd13ifvqcv0","pricing_plan_id":"cebpf4jnsgd1na2vs0mg"},{"bike_id":"9bb6fb59-5ece-4a00-b762-a31acbc6eceb","system_id":"levelo_inurba_marseille","lat":43.29419,"lon":5.38624,"is_reserved":false,"is_disabled":false,"rental_uris":{"android":"levelo://app?vid=9bb6fb59-5ece-4a00-b762-a31acbc6eceb","ios":"levelo://app?vid=9bb6fb59-5ece-4a00-b762-a31acbc6eceb"},"vehicle_type_id":"4","last_reported":1730729328,"current_range_meters":6400,"station_id":"ce4bh2h2rcd13ifvqdh0","pricing_plan_id":"cebpf4jnsgd1na2vs0mg"},{"bike_id":"550c56d4-1a6b-4fa9-a0b5-e649a5dcda66","system_id":"levelo_inurba_marseille","lat":43.24188,"lon":5.39739,"is_reserved":false,"is_disabled":false,"rental_uris":{"android":"levelo://app?vid=550c56d4-1a6b-4fa9-a0b5-e649a5dcda66","ios":"levelo://app?vid=550c56d4-1a6b-4fa9-a0b5-e649a5dcda66"},"vehicle_type_id":"4","last_reported":1730729328,"current_range_meters":14000,"station_id":"ce4bhn12rcd13ifvqgpg","pricing_plan_id":"cebpf4jnsgd1na2vs0mg"},{"bike_id":"68e6e4ba-53d1-4494-b1e0-e4bd8e29fea2","system_id":"levelo_inurba_marseille","lat":43.23153,"lon":5.4371,"is_reserved":false,"is_disabled":false,"rental_uris":{"android":"levelo://app?vid=68e6e4ba-53d1-4494-b1e0-e4bd8e29fea2","ios":"levelo://app?vid=68e6e4ba-53d1-4494-b1e0-e4bd8e29fea2"},"vehicle_type_id":"4","last_reported":1730729328,"current_range_meters":36800,"station_id":"ce4bhmp2rcd13ifvqgog","pricing_plan_id":"cebpf4jnsgd1na2vs0mg"},{"bike_id":"7ce77be2-28e6-467f-9494-16f057502bba","system_id":"levelo_inurba_marseille","lat":43.28148,"lon":5.42641,"is_reserved":false,"is_disabled":false,"rental_uris":{"android":"levelo://app?vid=7ce77be2-28e6-467f-9494-16f057502bba","ios":"levelo://app?vid=7ce77be2-28e6-467f-9494-16f057502bba"},"vehicle_type_id":"4","last_reported":1730729328,"current_range_meters":28400,"station_id":"ce4bhnh2rcd13ifvqgug","pricing_plan_id":"cebpf4jnsgd1na2vs0mg"},{"bike_id":"f63dafc9-8402-4cec-b685-af517b1923d7","system_id":"levelo_inurba_marseille","lat":43.29916,"lon":5.37472,"is_reserved":false,"is_disabled":false,"rental_uris":{"android":"levelo://app?vid=f63dafc9-8402-4cec-b685-af517b1923d7","ios":"levelo://app?vid=f63dafc9-8402-4cec-b685-af517b1923d7"},"vehicle_type_id":"4","last_reported":1730729328,"current_range_meters":38800,"station_id":"ce4bgjh2rcd13ifvqbg0","pricing_plan_id":"cebpf4jnsgd1na2vs0mg"},{"bike_id":"7fe8eaae-ce5c-4e7e-af02-ade980561c06","system_id":"levelo_inurba_marseille","lat":43.29036,"lon":5.38651,"is_reserved":false,"is_disabled":false,"rental_uris":{"android":"levelo://app?vid=7fe8eaae-ce5c-4e7e-af02-ade980561c06","ios":"levelo://app?vid=7fe8eaae-ce5c-4e7e-af02-ade980561c06"},"vehicle_type_id":"4","last_reported":1730729328,"current_range_meters":32000,"station_id":"ce4bh4p2rcd13ifvqe0g","pricing_plan_id":"cebpf4jnsgd1na2vs0mg"},{"bike_id":"496d1592-f444-4219-9dc2-55373938e639","system_id":"levelo_inurba_marseille","lat":43.28155,"lon":5.42637,"is_reserved":false,"is_disabled":false,"rental_uris":{"android":"levelo://app?vid=496d1592-f444-4219-9dc2-55373938e639","ios":"levelo://app?vid=496d1592-f444-4219-9dc2-55373938e639"},"vehicle_type_id":"4","last_reported":1730729328,"current_range_meters":35200,"station_id":"ce4bhnh2rcd13ifvqgug","pricing_plan_id":"cebpf4jnsgd1na2vs0mg"},{"bike_id":"14232ff8-21e4-4bc1-a726-757f951f7500","system_id":"levelo_inurba_marseille","lat":43.25498,"lon":5.37649,"is_reserved":false,"is_disabled":false,"rental_uris":{"android":"levelo://app?vid=14232ff8-21e4-4bc1-a726-757f951f7500","ios":"levelo://app?vid=14232ff8-21e4-4bc1-a726-757f951f7500"},"vehicle_type_id":"4","last_reported":1730729328,"current_range_meters":33600,"station_id":"ce4bhh12rcd13ifvqff0","pricing_plan_id":"cebpf4jnsgd1na2vs0mg"},{"bike_id":"9dc3374b-0b85-4a8b-88a8-db8ad8f687c8","system_id":"levelo_inurba_marseille","lat":43.24081,"lon":5.37748,"is_reserved":false,"is_disabled":false,"rental_uris":{"android":"levelo://app?vid=9dc3374b-0b85-4a8b-88a8-db8ad8f687c8","ios":"levelo://app?vid=9dc3374b-0b85-4a8b-88a8-db8ad8f687c8"},"vehicle_type_id":"4","last_reported":1730729328,"current_range_meters":11200,"station_id":"ce4bhnp2rcd13ifvqgvg","pricing_plan_id":"cebpf4jnsgd1na2vs0mg"},{"bike_id":"6414fd4c-b378-4cd7-b752-83c0fdd6da8d","system_id":"levelo_inurba_marseille","lat":43.29572,"lon":5.37523,"is_reserved":false,"is_disabled":false,"rental_uris":{"android":"levelo://app?vid=6414fd4c-b378-4cd7-b752-83c0fdd6da8d","ios":"levelo://app?vid=6414fd4c-b378-4cd7-b752-83c0fdd6da8d"},"vehicle_type_id":"4","last_reported":1730729328,"current_range_meters":22400,"station_id":"ce4bgh92rcd13ifvqb50","pricing_plan_id":"cebpf4jnsgd1na2vs0mg"},{"bike_id":"1e9b88ab-5dad-4500-ab23-bfc24d806cd1","system_id":"levelo_inurba_marseille","lat":43.27661,"lon":5.38883,"is_reserved":false,"is_disabled":false,"rental_uris":{"android":"levelo://app?vid=1e9b88ab-5dad-4500-ab23-bfc24d806cd1","ios":"levelo://app?vid=1e9b88ab-5dad-4500-ab23-bfc24d806cd1"},"vehicle_type_id":"4","last_reported":1730729328,"current_range_meters":4000,"station_id":"ce4bhi12rcd13ifvqfo0","pricing_plan_id":"cebpf4jnsgd1na2vs0mg"},{"bike_id":"57f7d510-d3b8-4ac1-8400-7af55059ac9b","system_id":"levelo_inurba_marseille","lat":43.24079,"lon":5.37752,"is_reserved":false,"is_disabled":false,"rental_uris":{"android":"levelo://app?vid=57f7d510-d3b8-4ac1-8400-7af55059ac9b","ios":"levelo://app?vid=57f7d510-d3b8-4ac1-8400-7af55059ac9b"},"vehicle_type_id":"4","last_reported":1730729328,"current_range_meters":32000,"station_id":"ce4bhnp2rcd13ifvqgvg","pricing_plan_id":"cebpf4jnsgd1na2vs0mg"},{"bike_id":"fe7b3c50-5c5b-49a6-9c89-66c69684130b","system_id":"levelo_inurba_marseille","lat":43.29414,"lon":5.38625,"is_reserved":false,"is_disabled":false,"rental_uris":{"android":"levelo://app?vid=fe7b3c50-5c5b-49a6-9c89-66c69684130b","ios":"levelo://app?vid=fe7b3c50-5c5b-49a6-9c89-66c69684130b"},"vehicle_type_id":"4","last_reported":1730729328,"current_range_meters":17200,"station_id":"ce4bh2h2rcd13ifvqdh0","pricing_plan_id":"cebpf4jnsgd1na2vs0mg"},{"bike_id":"4b1ca1a3-c54a-4606-bab2-8ed49e2fcba7","system_id":"levelo_inurba_marseille","lat":43.3015,"lon":5.38081,"is_reserved":false,"is_disabled":false,"rental_uris":{"android":"levelo://app?vid=4b1ca1a3-c54a-4606-bab2-8ed49e2fcba7","ios":"levelo://app?vid=4b1ca1a3-c54a-4606-bab2-8ed49e2fcba7"},"vehicle_type_id":"4","last_reported":1730729328,"current_range_meters":24800,"station_id":"ce4bgjp2rcd13ifvqbh0","pricing_plan_id":"cebpf4jnsgd1na2vs0mg"},{"bike_id":"ae1d3dee-6f8b-491f-9ccd-fa32ad3b9f31","system_id":"levelo_inurba_marseille","lat":43.27373,"lon":5.36264,"is_reserved":false,"is_disabled":false,"rental_uris":{"android":"levelo://app?vid=ae1d3dee-6f8b-491f-9ccd-fa32ad3b9f31","ios":"levelo://app?vid=ae1d3dee-6f8b-491f-9ccd-fa32ad3b9f31"},"vehicle_type_id":"4","last_reported":1730729328,"current_range_meters":38800,"station_id":"ce4bhbh2rcd13ifvqeo0","pricing_plan_id":"cebpf4jnsgd1na2vs0mg"},{"bike_id":"660c87cf-708e-4dbe-be46-090aab6c79d5","system_id":"levelo_inurba_marseille","lat":43.29806,"lon":5.38099,"is_reserved":false,"is_disabled":false,"rental_uris":{"android":"levelo://app?vid=660c87cf-708e-4dbe-be46-090aab6c79d5","ios":"levelo://app?vid=660c87cf-708e-4dbe-be46-090aab6c79d5"},"vehicle_type_id":"4","last_reported":1730729328,"current_range_meters":9200,"station_id":"ce4bgip2rcd13ifvqbb0","pricing_plan_id":"cebpf4jnsgd1na2vs0mg"},{"bike_id":"778e839f-a43f-40d4-be5c-9f8db47e5925","system_id":"levelo_inurba_marseille","lat":43.27566,"lon":5.38421,"is_reserved":false,"is_disabled":false,"rental_uris":{"android":"levelo://app?vid=778e839f-a43f-40d4-be5c-9f8db47e5925","ios":"levelo://app?vid=778e839f-a43f-40d4-be5c-9f8db47e5925"},"vehicle_type_id":"4","last_reported":1730729328,"current_range_meters":19200,"station_id":"ce4bhh92rcd13ifvqfi0","pricing_plan_id":"cebpf4jnsgd1na2vs0mg"},{"bike_id":"60147ccd-b133-48a9-a6d5-d5c28a43669e","system_id":"levelo_inurba_marseille","lat":43.31456,"lon":5.366,"is_reserved":false,"is_disabled":false,"rental_uris":{"android":"levelo://app?vid=60147ccd-b133-48a9-a6d5-d5c28a43669e","ios":"levelo://app?vid=60147ccd-b133-48a9-a6d5-d5c28a43669e"},"vehicle_type_id":"4","last_reported":1730729328,"current_range_meters":37600,"station_id":"","pricing_plan_id":"cebpf4jnsgd1na2vs0mg"},{"bike_id":"1aaef29a-ad10-4708-89cc-8b32da1905fa","system_id":"levelo_inurba_marseille","lat":43.27996,"lon":5.40017,"is_reserved":false,"is_disabled":false,"rental_uris":{"android":"levelo://app?vid=1aaef29a-ad10-4708-89cc-8b32da1905fa","ios":"levelo://app?vid=1aaef29a-ad10-4708-89cc-8b32da1905fa"},"vehicle_type_id":"4","last_reported":1730729328,"current_range_meters":24400,"station_id":"ce4bho92rcd13ifvqh4g","pricing_plan_id":"cebpf4jnsgd1na2vs0mg"},{"bike_id":"f4520195-bb64-41aa-a417-a30b55020a47","system_id":"levelo_inurba_marseille","lat":43.29269,"lon":5.36852,"is_reserved":false,"is_disabled":false,"rental_uris":{"android":"levelo://app?vid=f4520195-bb64-41aa-a417-a30b55020a47","ios":"levelo://app?vid=f4520195-bb64-41aa-a417-a30b55020a47"},"vehicle_type_id":"4","last_reported":1730729328,"current_range_meters":23200,"station_id":"ce4bhbp2rcd13ifvqesg","pricing_plan_id":"cebpf4jnsgd1na2vs0mg"},{"bike_id":"f335246e-3bff-4003-8d5f-f30408bb5a38","system_id":"levelo_inurba_marseille","lat":43.27069,"lon":5.42277,"is_reserved":false,"is_disabled":false,"rental_uris":{"android":"levelo://app?vid=f335246e-3bff-4003-8d5f-f30408bb5a38","ios":"levelo://app?vid=f335246e-3bff-4003-8d5f-f30408bb5a38"},"vehicle_type_id":"4","last_reported":1730729328,"current_range_meters":32800,"station_id":"ce4bhk92rcd13ifvqgb0","pricing_plan_id":"cebpf4jnsgd1na2vs0mg"},{"bike_id":"623e531d-6577-4856-a89c-453eed77ce59","system_id":"levelo_inurba_marseille","lat":43.25501,"lon":5.37652,"is_reserved":false,"is_disabled":false,"rental_uris":{"android":"levelo://app?vid=623e531d-6577-4856-a89c-453eed77ce59","ios":"levelo://app?vid=623e531d-6577-4856-a89c-453eed77ce59"},"vehicle_type_id":"4","last_reported":1730729328,"current_range_meters":25600,"station_id":"ce4bhh12rcd13ifvqff0","pricing_plan_id":"cebpf4jnsgd1na2vs0mg"},{"bike_id":"d4472d20-9c4b-4c70-ad00-3a005519a429","system_id":"levelo_inurba_marseille","lat":43.35368,"lon":5.35732,"is_reserved":false,"is_disabled":false,"rental_uris":{"android":"levelo://app?vid=d4472d20-9c4b-4c70-ad00-3a005519a429","ios":"levelo://app?vid=d4472d20-9c4b-4c70-ad00-3a005519a429"},"vehicle_type_id":"4","last_reported":1730729328,"current_range_meters":9600,"station_id":"","pricing_plan_id":"cebpf4jnsgd1na2vs0mg"},{"bike_id":"284081bc-bd83-4053-9d35-ec8856e18276","system_id":"levelo_inurba_marseille","lat":43.24385,"lon":5.3706,"is_reserved":false,"is_disabled":false,"rental_uris":{"android":"levelo://app?vid=284081bc-bd83-4053-9d35-ec8856e18276","ios":"levelo://app?vid=284081bc-bd83-4053-9d35-ec8856e18276"},"vehicle_type_id":"4","last_reported":1730729328,"current_range_meters":23200,"station_id":"ce4bhhh2rcd13ifvqfk0","pricing_plan_id":"cebpf4jnsgd1na2vs0mg"},{"bike_id":"f64626f0-e8bc-4974-8471-44e4931e663a","system_id":"levelo_inurba_marseille","lat":43.27676,"lon":5.38855,"is_reserved":false,"is_disabled":false,"rental_uris":{"android":"levelo://app?vid=f64626f0-e8bc-4974-8471-44e4931e663a","ios":"levelo://app?vid=f64626f0-e8bc-4974-8471-44e4931e663a"},"vehicle_type_id":"4","last_reported":1730729328,"current_range_meters":14800,"station_id":"ce4bhi12rcd13ifvqfo0","pricing_plan_id":"cebpf4jnsgd1na2vs0mg"},{"bike_id":"0ae56270-f9b6-4423-8e4d-e8545c7b1186","system_id":"levelo_inurba_marseille","lat":43.29521,"lon":5.39041,"is_reserved":false,"is_disabled":false,"rental_uris":{"android":"levelo://app?vid=0ae56270-f9b6-4423-8e4d-e8545c7b1186","ios":"levelo://app?vid=0ae56270-f9b6-4423-8e4d-e8545c7b1186"},"vehicle_type_id":"4","last_reported":1730729328,"current_range_meters":36800,"station_id":"ce4bh3p2rcd13ifvqdp0","pricing_plan_id":"cebpf4jnsgd1na2vs0mg"},{"bike_id":"950661e8-0595-470a-9ddd-41f041c4f5e5","system_id":"levelo_inurba_marseille","lat":43.32291,"lon":5.38264,"is_reserved":false,"is_disabled":false,"rental_uris":{"android":"levelo://app?vid=950661e8-0595-470a-9ddd-41f041c4f5e5","ios":"levelo://app?vid=950661e8-0595-470a-9ddd-41f041c4f5e5"},"vehicle_type_id":"4","last_reported":1730729328,"current_range_meters":18000,"station_id":"ce4bhr12rcd13ifvqhqg","pricing_plan_id":"cebpf4jnsgd1na2vs0mg"},{"bike_id":"cd774888-43f1-48a5-aa4b-07f054c97ab4","system_id":"levelo_inurba_marseille","lat":43.29919,"lon":5.37474,"is_reserved":false,"is_disabled":false,"rental_uris":{"android":"levelo://app?vid=cd774888-43f1-48a5-aa4b-07f054c97ab4","ios":"levelo://app?vid=cd774888-43f1-48a5-aa4b-07f054c97ab4"},"vehicle_type_id":"4","last_reported":1730729328,"current_range_meters":38800,"station_id":"ce4bgjh2rcd13ifvqbg0","pricing_plan_id":"cebpf4jnsgd1na2vs0mg"},{"bike_id":"1f7dcee0-6c3e-4c04-b1c7-eca931fb163d","system_id":"levelo_inurba_marseille","lat":43.23156,"lon":5.43722,"is_reserved":false,"is_disabled":false,"rental_uris":{"android":"levelo://app?vid=1f7dcee0-6c3e-4c04-b1c7-eca931fb163d","ios":"levelo://app?vid=1f7dcee0-6c3e-4c04-b1c7-eca931fb163d"},"vehicle_type_id":"4","last_reported":1730729328,"current_range_meters":7200,"station_id":"ce4bhmp2rcd13ifvqgog","pricing_plan_id":"cebpf4jnsgd1na2vs0mg"},{"bike_id":"255a3061-1362-41f1-8c13-ee9fca9da59e","system_id":"levelo_inurba_marseille","lat":43.23055,"lon":5.35502,"is_reserved":false,"is_disabled":false,"rental_uris":{"android":"levelo://app?vid=255a3061-1362-41f1-8c13-ee9fca9da59e","ios":"levelo://app?vid=255a3061-1362-41f1-8c13-ee9fca9da59e"},"vehicle_type_id":"4","last_reported":1730729328,"current_range_meters":26000,"station_id":"cpo3342slgdg3j2ifvpg","pricing_plan_id":"cebpf4jnsgd1na2vs0mg"},{"bike_id":"d34b56cd-97d4-42d1-8eae-e0f42cf8266f","system_id":"levelo_inurba_marseille","lat":43.30469,"lon":5.37905,"is_reserved":false,"is_disabled":false,"rental_uris":{"android":"levelo://app?vid=d34b56cd-97d4-42d1-8eae-e0f42cf8266f","ios":"levelo://app?vid=d34b56cd-97d4-42d1-8eae-e0f42cf8266f"},"vehicle_type_id":"4","last_reported":1730729328,"current_range_meters":38400,"station_id":"ce4bgup2rcd13ifvqcn0","pricing_plan_id":"cebpf4jnsgd1na2vs0mg"},{"bike_id":"8692c708-6749-4cff-a161-ad26fb2f62aa","system_id":"levelo_inurba_marseille","lat":43.30606,"lon":5.37222,"is_reserved":false,"is_disabled":false,"rental_uris":{"android":"levelo://app?vid=8692c708-6749-4cff-a161-ad26fb2f62aa","ios":"levelo://app?vid=8692c708-6749-4cff-a161-ad26fb2f62aa"},"vehicle_type_id":"4","last_reported":1730729328,"current_range_meters":39200,"station_id":"ce4bgqh2rcd13ifvqc4g","pricing_plan_id":"cebpf4jnsgd1na2vs0mg"},{"bike_id":"b14cb5d2-a3a0-4560-ac96-25061beacbf8","system_id":"levelo_inurba_marseille","lat":43.26032,"lon":5.37545,"is_reserved":false,"is_disabled":false,"rental_uris":{"android":"levelo://app?vid=b14cb5d2-a3a0-4560-ac96-25061beacbf8","ios":"levelo://app?vid=b14cb5d2-a3a0-4560-ac96-25061beacbf8"},"vehicle_type_id":"4","last_reported":1730729328,"current_range_meters":20800,"station_id":"ce4bhgh2rcd13ifvqfa0","pricing_plan_id":"cebpf4jnsgd1na2vs0mg"},{"bike_id":"2124c56b-1fd7-4a13-9a53-8080bda8ff85","system_id":"levelo_inurba_marseille","lat":43.26939,"lon":5.40255,"is_reserved":false,"is_disabled":false,"rental_uris":{"android":"levelo://app?vid=2124c56b-1fd7-4a13-9a53-8080bda8ff85","ios":"levelo://app?vid=2124c56b-1fd7-4a13-9a53-8080bda8ff85"},"vehicle_type_id":"4","last_reported":1730729328,"current_range_meters":36000,"station_id":"cjm6bp8fraef2m0cb0m0","pricing_plan_id":"cebpf4jnsgd1na2vs0mg"},{"bike_id":"10450a3d-3115-4b2e-a887-ddb45e478d7a","system_id":"levelo_inurba_marseille","lat":43.28107,"lon":5.37846,"is_reserved":false,"is_disabled":false,"rental_uris":{"android":"levelo://app?vid=10450a3d-3115-4b2e-a887-ddb45e478d7a","ios":"levelo://app?vid=10450a3d-3115-4b2e-a887-ddb45e478d7a"},"vehicle_type_id":"4","last_reported":1730729328,"current_range_meters":28800,"station_id":"ce4bha12rcd13ifvqee0","pricing_plan_id":"cebpf4jnsgd1na2vs0mg"},{"bike_id":"e20b044a-569c-44a1-90cf-80306a150e1e","system_id":"levelo_inurba_marseille","lat":43.26567,"lon":5.39017,"is_reserved":false,"is_disabled":false,"rental_uris":{"android":"levelo://app?vid=e20b044a-569c-44a1-90cf-80306a150e1e","ios":"levelo://app?vid=e20b044a-569c-44a1-90cf-80306a150e1e"},"vehicle_type_id":"4","last_reported":1730729328,"current_range_meters":37600,"station_id":"ce4bhe12rcd13ifvqf30","pricing_plan_id":"cebpf4jnsgd1na2vs0mg"},{"bike_id":"575820e0-f183-4408-be6c-ff75a4e3a4aa","system_id":"levelo_inurba_marseille","lat":43.26783,"lon":5.39415,"is_reserved":false,"is_disabled":false,"rental_uris":{"android":"levelo://app?vid=575820e0-f183-4408-be6c-ff75a4e3a4aa","ios":"levelo://app?vid=575820e0-f183-4408-be6c-ff75a4e3a4aa"},"vehicle_type_id":"4","last_reported":1730729328,"current_range_meters":16800,"station_id":"ce4bhh12rcd13ifvqfg0","pricing_plan_id":"cebpf4jnsgd1na2vs0mg"},{"bike_id":"9bc24b66-bab8-4bde-8a3d-62c30a087231","system_id":"levelo_inurba_marseille","lat":43.29195,"lon":5.39323,"is_reserved":false,"is_disabled":false,"rental_uris":{"android":"levelo://app?vid=9bc24b66-bab8-4bde-8a3d-62c30a087231","ios":"levelo://app?vid=9bc24b66-bab8-4bde-8a3d-62c30a087231"},"vehicle_type_id":"4","last_reported":1730729328,"current_range_meters":37600,"station_id":"ce4bh192rcd13ifvqdd0","pricing_plan_id":"cebpf4jnsgd1na2vs0mg"},{"bike_id":"0a68f0a0-9379-4ac8-ad51-530c7af84091","system_id":"levelo_inurba_marseille","lat":43.30536,"lon":5.3843,"is_reserved":false,"is_disabled":false,"rental_uris":{"android":"levelo://app?vid=0a68f0a0-9379-4ac8-ad51-530c7af84091","ios":"levelo://app?vid=0a68f0a0-9379-4ac8-ad51-530c7af84091"},"vehicle_type_id":"4","last_reported":1730729328,"current_range_meters":8400,"station_id":"ce4bgg92rcd13ifvqb30","pricing_plan_id":"cebpf4jnsgd1na2vs0mg"},{"bike_id":"d54850f9-d1d4-4161-9426-e52c4814fa53","system_id":"levelo_inurba_marseille","lat":43.28463,"lon":5.35887,"is_reserved":false,"is_disabled":false,"rental_uris":{"android":"levelo://app?vid=d54850f9-d1d4-4161-9426-e52c4814fa53","ios":"levelo://app?vid=d54850f9-d1d4-4161-9426-e52c4814fa53"},"vehicle_type_id":"4","last_reported":1730729328,"current_range_meters":34000,"station_id":"ce4bhah2rcd13ifvqei0","pricing_plan_id":"cebpf4jnsgd1na2vs0mg"},{"bike_id":"cfceb85a-8c7b-4241-b2ee-fb768a9758e3","system_id":"levelo_inurba_marseille","lat":43.27995,"lon":5.41658,"is_reserved":false,"is_disabled":false,"rental_uris":{"android":"levelo://app?vid=cfceb85a-8c7b-4241-b2ee-fb768a9758e3","ios":"levelo://app?vid=cfceb85a-8c7b-4241-b2ee-fb768a9758e3"},"vehicle_type_id":"4","last_reported":1730729328,"current_range_meters":36400,"station_id":"ce4bho12rcd13ifvqh1g","pricing_plan_id":"cebpf4jnsgd1na2vs0mg"},{"bike_id":"b3f5fc73-e540-4e2a-8db2-e520d8671de5","system_id":"levelo_inurba_marseille","lat":43.29621,"lon":5.37717,"is_reserved":false,"is_disabled":false,"rental_uris":{"android":"levelo://app?vid=b3f5fc73-e540-4e2a-8db2-e520d8671de5","ios":"levelo://app?vid=b3f5fc73-e540-4e2a-8db2-e520d8671de5"},"vehicle_type_id":"4","last_reported":1730729328,"current_range_meters":14800,"station_id":"ce4bgi92rcd13ifvqb90","pricing_plan_id":"cebpf4jnsgd1na2vs0mg"},{"bike_id":"73fb1140-716f-4f1e-afa0-497e1d5a4b0e","system_id":"levelo_inurba_marseille","lat":43.31754,"lon":5.39021,"is_reserved":false,"is_disabled":false,"rental_uris":{"android":"levelo://app?vid=73fb1140-716f-4f1e-afa0-497e1d5a4b0e","ios":"levelo://app?vid=73fb1140-716f-4f1e-afa0-497e1d5a4b0e"},"vehicle_type_id":"4","last_reported":1730729328,"current_range_meters":4400,"station_id":"ce4bhqp2rcd13ifvqhng","pricing_plan_id":"cebpf4jnsgd1na2vs0mg"},{"bike_id":"0fb3a1bf-8d60-4830-a342-91a11563480e","system_id":"levelo_inurba_marseille","lat":43.33613,"lon":5.41027,"is_reserved":false,"is_disabled":false,"rental_uris":{"android":"levelo://app?vid=0fb3a1bf-8d60-4830-a342-91a11563480e","ios":"levelo://app?vid=0fb3a1bf-8d60-4830-a342-91a11563480e"},"vehicle_type_id":"4","last_reported":1730729328,"current_range_meters":12400,"station_id":"ce4bhqh2rcd13ifvqhmg","pricing_plan_id":"cebpf4jnsgd1na2vs0mg"},{"bike_id":"5908bc81-a7f9-48ff-a0cb-2e9155342915","system_id":"levelo_inurba_marseille","lat":43.31076,"lon":5.38344,"is_reserved":false,"is_disabled":false,"rental_uris":{"android":"levelo://app?vid=5908bc81-a7f9-48ff-a0cb-2e9155342915","ios":"levelo://app?vid=5908bc81-a7f9-48ff-a0cb-2e9155342915"},"vehicle_type_id":"4","last_reported":1730729328,"current_range_meters":24000,"station_id":"ce4bgv92rcd13ifvqcr0","pricing_plan_id":"cebpf4jnsgd1na2vs0mg"},{"bike_id":"4adb7e65-e18e-4ef1-be00-3ea3c7f6dd44","system_id":"levelo_inurba_marseille","lat":43.24076,"lon":5.37732,"is_reserved":false,"is_disabled":false,"rental_uris":{"android":"levelo://app?vid=4adb7e65-e18e-4ef1-be00-3ea3c7f6dd44","ios":"levelo://app?vid=4adb7e65-e18e-4ef1-be00-3ea3c7f6dd44"},"vehicle_type_id":"4","last_reported":1730729328,"current_range_meters":27200,"station_id":"ce4bhnp2rcd13ifvqgvg","pricing_plan_id":"cebpf4jnsgd1na2vs0mg"},{"bike_id":"98296e3d-4091-4ff0-b3df-e96994bd43fd","system_id":"levelo_inurba_marseille","lat":43.30966,"lon":5.39008,"is_reserved":false,"is_disabled":false,"rental_uris":{"android":"levelo://app?vid=98296e3d-4091-4ff0-b3df-e96994bd43fd","ios":"levelo://app?vid=98296e3d-4091-4ff0-b3df-e96994bd43fd"},"vehicle_type_id":"4","last_reported":1730729328,"current_range_meters":9200,"station_id":"ce4bgup2rcd13ifvqco0","pricing_plan_id":"cebpf4jnsgd1na2vs0mg"},{"bike_id":"b32a8dd4-b6d2-4624-a41c-cd47a9fc52d4","system_id":"levelo_inurba_marseille","lat":43.30931,"lon":5.40148,"is_reserved":false,"is_disabled":false,"rental_uris":{"android":"levelo://app?vid=b32a8dd4-b6d2-4624-a41c-cd47a9fc52d4","ios":"levelo://app?vid=b32a8dd4-b6d2-4624-a41c-cd47a9fc52d4"},"vehicle_type_id":"4","last_reported":1730729328,"current_range_meters":28800,"station_id":"ce4bgvp2rcd13ifvqct0","pricing_plan_id":"cebpf4jnsgd1na2vs0mg"},{"bike_id":"ee3dccf9-22bf-4760-8927-68d482635c84","system_id":"levelo_inurba_marseille","lat":43.30548,"lon":5.36544,"is_reserved":false,"is_disabled":false,"rental_uris":{"android":"levelo://app?vid=ee3dccf9-22bf-4760-8927-68d482635c84","ios":"levelo://app?vid=ee3dccf9-22bf-4760-8927-68d482635c84"},"vehicle_type_id":"4","last_reported":1730729328,"current_range_meters":38800,"station_id":"ce4bgs12rcd13ifvqcag","pricing_plan_id":"cebpf4jnsgd1na2vs0mg"},{"bike_id":"ba8f5d9a-4861-4465-b828-23e2245ef053","system_id":"levelo_inurba_marseille","lat":43.23191,"lon":5.39984,"is_reserved":false,"is_disabled":false,"rental_uris":{"android":"levelo://app?vid=ba8f5d9a-4861-4465-b828-23e2245ef053","ios":"levelo://app?vid=ba8f5d9a-4861-4465-b828-23e2245ef053"},"vehicle_type_id":"4","last_reported":1730729328,"current_range_meters":22400,"station_id":"ce4bhn12rcd13ifvqgqg","pricing_plan_id":"cebpf4jnsgd1na2vs0mg"},{"bike_id":"717e8a48-40bc-4c1e-9067-b64ea8a81389","system_id":"levelo_inurba_marseille","lat":43.31757,"lon":5.39021,"is_reserved":false,"is_disabled":false,"rental_uris":{"android":"levelo://app?vid=717e8a48-40bc-4c1e-9067-b64ea8a81389","ios":"levelo://app?vid=717e8a48-40bc-4c1e-9067-b64ea8a81389"},"vehicle_type_id":"4","last_reported":1730729328,"current_range_meters":38800,"station_id":"ce4bhqp2rcd13ifvqhng","pricing_plan_id":"cebpf4jnsgd1na2vs0mg"},{"bike_id":"1b80601b-8be3-4b0b-bcc4-eebb89de1629","system_id":"levelo_inurba_marseille","lat":43.25824,"lon":5.39433,"is_reserved":false,"is_disabled":false,"rental_uris":{"android":"levelo://app?vid=1b80601b-8be3-4b0b-bcc4-eebb89de1629","ios":"levelo://app?vid=1b80601b-8be3-4b0b-bcc4-eebb89de1629"},"vehicle_type_id":"4","last_reported":1730729328,"current_range_meters":29600,"station_id":"ce4bhip2rcd13ifvqft0","pricing_plan_id":"cebpf4jnsgd1na2vs0mg"},{"bike_id":"b22fc8a8-32a4-43b7-b65e-504387286a24","system_id":"levelo_inurba_marseille","lat":43.2781,"lon":5.40702,"is_reserved":false,"is_disabled":false,"rental_uris":{"android":"levelo://app?vid=b22fc8a8-32a4-43b7-b65e-504387286a24","ios":"levelo://app?vid=b22fc8a8-32a4-43b7-b65e-504387286a24"},"vehicle_type_id":"4","last_reported":1730729328,"current_range_meters":38800,"station_id":"ce4bhnh2rcd13ifvqgtg","pricing_plan_id":"cebpf4jnsgd1na2vs0mg"},{"bike_id":"a33cac87-c321-4bba-9c8f-f53ebb3f98c3","system_id":"levelo_inurba_marseille","lat":43.27992,"lon":5.41672,"is_reserved":false,"is_disabled":false,"rental_uris":{"android":"levelo://app?vid=a33cac87-c321-4bba-9c8f-f53ebb3f98c3","ios":"levelo://app?vid=a33cac87-c321-4bba-9c8f-f53ebb3f98c3"},"vehicle_type_id":"4","last_reported":1730729328,"current_range_meters":2000,"station_id":"ce4bho12rcd13ifvqh1g","pricing_plan_id":"cebpf4jnsgd1na2vs0mg"},{"bike_id":"c13bcaf9-2d3b-49eb-a9ad-daa0a887e242","system_id":"levelo_inurba_marseille","lat":43.28476,"lon":5.38412,"is_reserved":false,"is_disabled":false,"rental_uris":{"android":"levelo://app?vid=c13bcaf9-2d3b-49eb-a9ad-daa0a887e242","ios":"levelo://app?vid=c13bcaf9-2d3b-49eb-a9ad-daa0a887e242"},"vehicle_type_id":"4","last_reported":1730729328,"current_range_meters":15200,"station_id":"ce4bh512rcd13ifvqe3g","pricing_plan_id":"cebpf4jnsgd1na2vs0mg"},{"bike_id":"84ed053e-810d-496c-b269-9084b5bd5e29","system_id":"levelo_inurba_marseille","lat":43.28454,"lon":5.35889,"is_reserved":false,"is_disabled":false,"rental_uris":{"android":"levelo://app?vid=84ed053e-810d-496c-b269-9084b5bd5e29","ios":"levelo://app?vid=84ed053e-810d-496c-b269-9084b5bd5e29"},"vehicle_type_id":"4","last_reported":1730729328,"current_range_meters":4800,"station_id":"ce4bhah2rcd13ifvqei0","pricing_plan_id":"cebpf4jnsgd1na2vs0mg"},{"bike_id":"baf851ac-00dd-4c86-9518-708d1216aed1","system_id":"levelo_inurba_marseille","lat":43.28472,"lon":5.38415,"is_reserved":false,"is_disabled":false,"rental_uris":{"android":"levelo://app?vid=baf851ac-00dd-4c86-9518-708d1216aed1","ios":"levelo://app?vid=baf851ac-00dd-4c86-9518-708d1216aed1"},"vehicle_type_id":"4","last_reported":1730729328,"current_range_meters":37600,"station_id":"ce4bh512rcd13ifvqe3g","pricing_plan_id":"cebpf4jnsgd1na2vs0mg"},{"bike_id":"0193d657-b114-4566-8330-6c6dad291e21","system_id":"levelo_inurba_marseille","lat":43.308878,"lon":5.398479,"is_reserved":false,"is_disabled":false,"rental_uris":{"android":"levelo://app?vid=0193d657-b114-4566-8330-6c6dad291e21","ios":"levelo://app?vid=0193d657-b114-4566-8330-6c6dad291e21"},"vehicle_type_id":"4","last_reported":1730729328,"current_range_meters":35200,"station_id":"ce4bhop2rcd13ifvqh7g","pricing_plan_id":"cebpf4jnsgd1na2vs0mg"},{"bike_id":"beeef4e4-0d45-4dfa-9ccc-aedb2ce31115","system_id":"levelo_inurba_marseille","lat":43.321,"lon":5.36778,"is_reserved":false,"is_disabled":false,"rental_uris":{"android":"levelo://app?vid=beeef4e4-0d45-4dfa-9ccc-aedb2ce31115","ios":"levelo://app?vid=beeef4e4-0d45-4dfa-9ccc-aedb2ce31115"},"vehicle_type_id":"4","last_reported":1730729328,"current_range_meters":30400,"station_id":"ce4bhrh2rcd13ifvqhug","pricing_plan_id":"cebpf4jnsgd1na2vs0mg"},{"bike_id":"c4b4de27-f4f3-4ed4-a1df-62e4207ff633","system_id":"levelo_inurba_marseille","lat":43.26558,"lon":5.39007,"is_reserved":false,"is_disabled":false,"rental_uris":{"android":"levelo://app?vid=c4b4de27-f4f3-4ed4-a1df-62e4207ff633","ios":"levelo://app?vid=c4b4de27-f4f3-4ed4-a1df-62e4207ff633"},"vehicle_type_id":"4","last_reported":1730729328,"current_range_meters":20000,"station_id":"ce4bhe12rcd13ifvqf30","pricing_plan_id":"cebpf4jnsgd1na2vs0mg"},{"bike_id":"c33b7d4d-7e36-4040-b20d-f1b38bbae3b7","system_id":"levelo_inurba_marseille","lat":43.25117,"lon":5.40317,"is_reserved":false,"is_disabled":false,"rental_uris":{"android":"levelo://app?vid=c33b7d4d-7e36-4040-b20d-f1b38bbae3b7","ios":"levelo://app?vid=c33b7d4d-7e36-4040-b20d-f1b38bbae3b7"},"vehicle_type_id":"4","last_reported":1730729328,"current_range_meters":31200,"station_id":"ce4bhlh2rcd13ifvqgig","pricing_plan_id":"cebpf4jnsgd1na2vs0mg"},{"bike_id":"fdca0ea7-9633-41c1-87c6-a89cd4c54b91","system_id":"levelo_inurba_marseille","lat":43.30796,"lon":5.43535,"is_reserved":false,"is_disabled":false,"rental_uris":{"android":"levelo://app?vid=fdca0ea7-9633-41c1-87c6-a89cd4c54b91","ios":"levelo://app?vid=fdca0ea7-9633-41c1-87c6-a89cd4c54b91"},"vehicle_type_id":"4","last_reported":1730729328,"current_range_meters":24400,"station_id":"ce4bhph2rcd13ifvqheg","pricing_plan_id":"cebpf4jnsgd1na2vs0mg"},{"bike_id":"2e1d0cd1-8441-4ba8-b68e-cd7faa70a2e3","system_id":"levelo_inurba_marseille","lat":43.30554,"lon":5.3655,"is_reserved":false,"is_disabled":false,"rental_uris":{"android":"levelo://app?vid=2e1d0cd1-8441-4ba8-b68e-cd7faa70a2e3","ios":"levelo://app?vid=2e1d0cd1-8441-4ba8-b68e-cd7faa70a2e3"},"vehicle_type_id":"4","last_reported":1730729328,"current_range_meters":34000,"station_id":"ce4bgs12rcd13ifvqcag","pricing_plan_id":"cebpf4jnsgd1na2vs0mg"},{"bike_id":"ce75ef74-3cb7-4ecb-b0a7-fe0da4142d66","system_id":"levelo_inurba_marseille","lat":43.28105,"lon":5.37838,"is_reserved":false,"is_disabled":false,"rental_uris":{"android":"levelo://app?vid=ce75ef74-3cb7-4ecb-b0a7-fe0da4142d66","ios":"levelo://app?vid=ce75ef74-3cb7-4ecb-b0a7-fe0da4142d66"},"vehicle_type_id":"4","last_reported":1730729328,"current_range_meters":20800,"station_id":"ce4bha12rcd13ifvqee0","pricing_plan_id":"cebpf4jnsgd1na2vs0mg"},{"bike_id":"71721fe2-35d7-41f2-9225-983e1943836f","system_id":"levelo_inurba_marseille","lat":43.337444,"lon":5.374475,"is_reserved":false,"is_disabled":false,"rental_uris":{"android":"levelo://app?vid=71721fe2-35d7-41f2-9225-983e1943836f","ios":"levelo://app?vid=71721fe2-35d7-41f2-9225-983e1943836f"},"vehicle_type_id":"4","last_reported":1730729328,"current_range_meters":38000,"station_id":"","pricing_plan_id":"cebpf4jnsgd1na2vs0mg"},{"bike_id":"aedeb29d-462a-4096-be19-58bc79cbbc12","system_id":"levelo_inurba_marseille","lat":43.28406,"lon":5.3498,"is_reserved":false,"is_disabled":false,"rental_uris":{"android":"levelo://app?vid=aedeb29d-462a-4096-be19-58bc79cbbc12","ios":"levelo://app?vid=aedeb29d-462a-4096-be19-58bc79cbbc12"},"vehicle_type_id":"4","last_reported":1730729328,"current_range_meters":36400,"station_id":"ce4bhbh2rcd13ifvqepg","pricing_plan_id":"cebpf4jnsgd1na2vs0mg"},{"bike_id":"45bd7c32-693f-4a27-b9e6-26c93ef6d66c","system_id":"levelo_inurba_marseille","lat":43.2991,"lon":5.38143,"is_reserved":false,"is_disabled":false,"rental_uris":{"android":"levelo://app?vid=45bd7c32-693f-4a27-b9e6-26c93ef6d66c","ios":"levelo://app?vid=45bd7c32-693f-4a27-b9e6-26c93ef6d66c"},"vehicle_type_id":"4","last_reported":1730729328,"current_range_meters":33200,"station_id":"ce4bgj12rcd13ifvqbc0","pricing_plan_id":"cebpf4jnsgd1na2vs0mg"},{"bike_id":"a8cd8421-a9a9-4281-9bc0-c39509e8e248","system_id":"levelo_inurba_marseille","lat":43.29806,"lon":5.38102,"is_reserved":false,"is_disabled":false,"rental_uris":{"android":"levelo://app?vid=a8cd8421-a9a9-4281-9bc0-c39509e8e248","ios":"levelo://app?vid=a8cd8421-a9a9-4281-9bc0-c39509e8e248"},"vehicle_type_id":"4","last_reported":1730729328,"current_range_meters":36000,"station_id":"ce4bgip2rcd13ifvqbb0","pricing_plan_id":"cebpf4jnsgd1na2vs0mg"},{"bike_id":"697dd118-268c-406e-bad8-371dfe74ed47","system_id":"levelo_inurba_marseille","lat":43.31755,"lon":5.39015,"is_reserved":false,"is_disabled":false,"rental_uris":{"android":"levelo://app?vid=697dd118-268c-406e-bad8-371dfe74ed47","ios":"levelo://app?vid=697dd118-268c-406e-bad8-371dfe74ed47"},"vehicle_type_id":"4","last_reported":1730729328,"current_range_meters":36400,"station_id":"ce4bhqp2rcd13ifvqhng","pricing_plan_id":"cebpf4jnsgd1na2vs0mg"},{"bike_id":"37afa254-05de-4b52-9540-a94a97e744ca","system_id":"levelo_inurba_marseille","lat":43.28659,"lon":5.36345,"is_reserved":false,"is_disabled":false,"rental_uris":{"android":"levelo://app?vid=37afa254-05de-4b52-9540-a94a97e744ca","ios":"levelo://app?vid=37afa254-05de-4b52-9540-a94a97e744ca"},"vehicle_type_id":"4","last_reported":1730729328,"current_range_meters":17600,"station_id":"ce4bhah2rcd13ifvqej0","pricing_plan_id":"cebpf4jnsgd1na2vs0mg"},{"bike_id":"64a09596-b72a-4c2c-b2d4-4d18f2310608","system_id":"levelo_inurba_marseille","lat":43.30912,"lon":5.36859,"is_reserved":false,"is_disabled":false,"rental_uris":{"android":"levelo://app?vid=64a09596-b72a-4c2c-b2d4-4d18f2310608","ios":"levelo://app?vid=64a09596-b72a-4c2c-b2d4-4d18f2310608"},"vehicle_type_id":"4","last_reported":1730729328,"current_range_meters":28400,"station_id":"ce4bgn92rcd13ifvqbvg","pricing_plan_id":"cebpf4jnsgd1na2vs0mg"},{"bike_id":"1d0c1a03-93c1-4257-b323-e77db08c503f","system_id":"levelo_inurba_marseille","lat":43.29004,"lon":5.35612,"is_reserved":false,"is_disabled":false,"rental_uris":{"android":"levelo://app?vid=1d0c1a03-93c1-4257-b323-e77db08c503f","ios":"levelo://app?vid=1d0c1a03-93c1-4257-b323-e77db08c503f"},"vehicle_type_id":"4","last_reported":1730729328,"current_range_meters":38800,"station_id":"ce4bhb92rcd13ifvqen0","pricing_plan_id":"cebpf4jnsgd1na2vs0mg"},{"bike_id":"ad0b1c47-3b42-4ef4-b760-c7106501c60b","system_id":"levelo_inurba_marseille","lat":43.29796,"lon":5.38088,"is_reserved":false,"is_disabled":false,"rental_uris":{"android":"levelo://app?vid=ad0b1c47-3b42-4ef4-b760-c7106501c60b","ios":"levelo://app?vid=ad0b1c47-3b42-4ef4-b760-c7106501c60b"},"vehicle_type_id":"4","last_reported":1730729328,"current_range_meters":30800,"station_id":"ce4bgip2rcd13ifvqbb0","pricing_plan_id":"cebpf4jnsgd1na2vs0mg"},{"bike_id":"4e6cf579-66af-49fe-a2c0-c8a6798e5fa3","system_id":"levelo_inurba_marseille","lat":43.29802,"lon":5.38075,"is_reserved":false,"is_disabled":false,"rental_uris":{"android":"levelo://app?vid=4e6cf579-66af-49fe-a2c0-c8a6798e5fa3","ios":"levelo://app?vid=4e6cf579-66af-49fe-a2c0-c8a6798e5fa3"},"vehicle_type_id":"4","last_reported":1730729328,"current_range_meters":25600,"station_id":"ce4bgip2rcd13ifvqbb0","pricing_plan_id":"cebpf4jnsgd1na2vs0mg"},{"bike_id":"fe823c7d-054d-4087-a4ba-7742bc127e93","system_id":"levelo_inurba_marseille","lat":43.27489,"lon":5.42458,"is_reserved":false,"is_disabled":false,"rental_uris":{"android":"levelo://app?vid=fe823c7d-054d-4087-a4ba-7742bc127e93","ios":"levelo://app?vid=fe823c7d-054d-4087-a4ba-7742bc127e93"},"vehicle_type_id":"4","last_reported":1730729328,"current_range_meters":6000,"station_id":"ce4bhn92rcd13ifvqgrg","pricing_plan_id":"cebpf4jnsgd1na2vs0mg"},{"bike_id":"651a9232-63ac-410e-ad27-7a29ae3c534c","system_id":"levelo_inurba_marseille","lat":43.27072,"lon":5.42279,"is_reserved":false,"is_disabled":false,"rental_uris":{"android":"levelo://app?vid=651a9232-63ac-410e-ad27-7a29ae3c534c","ios":"levelo://app?vid=651a9232-63ac-410e-ad27-7a29ae3c534c"},"vehicle_type_id":"4","last_reported":1730729328,"current_range_meters":30400,"station_id":"ce4bhk92rcd13ifvqgb0","pricing_plan_id":"cebpf4jnsgd1na2vs0mg"},{"bike_id":"ba21ef20-5e7b-41b5-b91d-bece39556bba","system_id":"levelo_inurba_marseille","lat":43.23193,"lon":5.35556,"is_reserved":false,"is_disabled":false,"rental_uris":{"android":"levelo://app?vid=ba21ef20-5e7b-41b5-b91d-bece39556bba","ios":"levelo://app?vid=ba21ef20-5e7b-41b5-b91d-bece39556bba"},"vehicle_type_id":"4","last_reported":1730729328,"current_range_meters":8800,"station_id":"ce4bhu92rcd13ifvqi70","pricing_plan_id":"cebpf4jnsgd1na2vs0mg"},{"bike_id":"55113c86-91c3-4ed3-949b-b10f7dcf0c17","system_id":"levelo_inurba_marseille","lat":43.30466,"lon":5.37907,"is_reserved":false,"is_disabled":false,"rental_uris":{"android":"levelo://app?vid=55113c86-91c3-4ed3-949b-b10f7dcf0c17","ios":"levelo://app?vid=55113c86-91c3-4ed3-949b-b10f7dcf0c17"},"vehicle_type_id":"4","last_reported":1730729328,"current_range_meters":28800,"station_id":"ce4bgup2rcd13ifvqcn0","pricing_plan_id":"cebpf4jnsgd1na2vs0mg"},{"bike_id":"7580d83e-3d7c-46be-82b1-25f013a114af","system_id":"levelo_inurba_marseille","lat":43.31081,"lon":5.40081,"is_reserved":false,"is_disabled":false,"rental_uris":{"android":"levelo://app?vid=7580d83e-3d7c-46be-82b1-25f013a114af","ios":"levelo://app?vid=7580d83e-3d7c-46be-82b1-25f013a114af"},"vehicle_type_id":"4","last_reported":1730729328,"current_range_meters":22000,"station_id":"","pricing_plan_id":"cebpf4jnsgd1na2vs0mg"},{"bike_id":"0beee424-e81f-4821-93f8-913a6e29e82e","system_id":"levelo_inurba_marseille","lat":43.2306,"lon":5.35489,"is_reserved":false,"is_disabled":false,"rental_uris":{"android":"levelo://app?vid=0beee424-e81f-4821-93f8-913a6e29e82e","ios":"levelo://app?vid=0beee424-e81f-4821-93f8-913a6e29e82e"},"vehicle_type_id":"4","last_reported":1730729328,"current_range_meters":16000,"station_id":"cpo3342slgdg3j2ifvpg","pricing_plan_id":"cebpf4jnsgd1na2vs0mg"},{"bike_id":"cbd992d8-d7a7-48b2-95a9-f4fd11352bba","system_id":"levelo_inurba_marseille","lat":43.28267,"lon":5.3507,"is_reserved":false,"is_disabled":false,"rental_uris":{"android":"levelo://app?vid=cbd992d8-d7a7-48b2-95a9-f4fd11352bba","ios":"levelo://app?vid=cbd992d8-d7a7-48b2-95a9-f4fd11352bba"},"vehicle_type_id":"4","last_reported":1730729328,"current_range_meters":31200,"station_id":"ce4bhbp2rcd13ifvqerg","pricing_plan_id":"cebpf4jnsgd1na2vs0mg"},{"bike_id":"20776b46-775c-4274-b1bb-17617b49f6ee","system_id":"levelo_inurba_marseille","lat":43.29268,"lon":5.36858,"is_reserved":false,"is_disabled":false,"rental_uris":{"android":"levelo://app?vid=20776b46-775c-4274-b1bb-17617b49f6ee","ios":"levelo://app?vid=20776b46-775c-4274-b1bb-17617b49f6ee"},"vehicle_type_id":"4","last_reported":1730729328,"current_range_meters":27600,"station_id":"ce4bhbp2rcd13ifvqesg","pricing_plan_id":"cebpf4jnsgd1na2vs0mg"},{"bike_id":"e4646c1b-3291-4da5-8c23-aca19f81a89a","system_id":"levelo_inurba_marseille","lat":43.30155,"lon":5.38086,"is_reserved":false,"is_disabled":false,"rental_uris":{"android":"levelo://app?vid=e4646c1b-3291-4da5-8c23-aca19f81a89a","ios":"levelo://app?vid=e4646c1b-3291-4da5-8c23-aca19f81a89a"},"vehicle_type_id":"4","last_reported":1730729328,"current_range_meters":18800,"station_id":"ce4bgjp2rcd13ifvqbh0","pricing_plan_id":"cebpf4jnsgd1na2vs0mg"},{"bike_id":"c268f8a8-c8a2-4a9d-9297-31e089741b69","system_id":"levelo_inurba_marseille","lat":43.30187,"lon":5.36611,"is_reserved":false,"is_disabled":false,"rental_uris":{"android":"levelo://app?vid=c268f8a8-c8a2-4a9d-9297-31e089741b69","ios":"levelo://app?vid=c268f8a8-c8a2-4a9d-9297-31e089741b69"},"vehicle_type_id":"4","last_reported":1730729328,"current_range_meters":39200,"station_id":"ce4bgrh2rcd13ifvqc8g","pricing_plan_id":"cebpf4jnsgd1na2vs0mg"},{"bike_id":"a938ad26-c31c-4cc6-9b4f-a3e0f58e10a8","system_id":"levelo_inurba_marseille","lat":43.24167,"lon":5.36404,"is_reserved":false,"is_disabled":false,"rental_uris":{"android":"levelo://app?vid=a938ad26-c31c-4cc6-9b4f-a3e0f58e10a8","ios":"levelo://app?vid=a938ad26-c31c-4cc6-9b4f-a3e0f58e10a8"},"vehicle_type_id":"4","last_reported":1730729328,"current_range_meters":38800,"station_id":"cpo36qri1sfpv3e86is0","pricing_plan_id":"cebpf4jnsgd1na2vs0mg"},{"bike_id":"89549fb5-98d9-4611-ad87-48575e4e75fe","system_id":"levelo_inurba_marseille","lat":43.31713,"lon":5.43711,"is_reserved":false,"is_disabled":false,"rental_uris":{"android":"levelo://app?vid=89549fb5-98d9-4611-ad87-48575e4e75fe","ios":"levelo://app?vid=89549fb5-98d9-4611-ad87-48575e4e75fe"},"vehicle_type_id":"4","last_reported":1730729328,"current_range_meters":32800,"station_id":"ce4bhp92rcd13ifvqhcg","pricing_plan_id":"cebpf4jnsgd1na2vs0mg"},{"bike_id":"e7585f34-eb61-4983-876b-a626916d37c3","system_id":"levelo_inurba_marseille","lat":43.27071,"lon":5.42276,"is_reserved":false,"is_disabled":false,"rental_uris":{"android":"levelo://app?vid=e7585f34-eb61-4983-876b-a626916d37c3","ios":"levelo://app?vid=e7585f34-eb61-4983-876b-a626916d37c3"},"vehicle_type_id":"4","last_reported":1730729328,"current_range_meters":34800,"station_id":"ce4bhk92rcd13ifvqgb0","pricing_plan_id":"cebpf4jnsgd1na2vs0mg"},{"bike_id":"7b1e9bda-ec43-4be7-96ea-eb33edd44f28","system_id":"levelo_inurba_marseille","lat":43.27493,"lon":5.42456,"is_reserved":false,"is_disabled":false,"rental_uris":{"android":"levelo://app?vid=7b1e9bda-ec43-4be7-96ea-eb33edd44f28","ios":"levelo://app?vid=7b1e9bda-ec43-4be7-96ea-eb33edd44f28"},"vehicle_type_id":"4","last_reported":1730729328,"current_range_meters":19200,"station_id":"ce4bhn92rcd13ifvqgrg","pricing_plan_id":"cebpf4jnsgd1na2vs0mg"},{"bike_id":"84826187-31ec-4949-bd9b-654531a44675","system_id":"levelo_inurba_marseille","lat":43.231551,"lon":5.436991,"is_reserved":false,"is_disabled":false,"rental_uris":{"android":"levelo://app?vid=84826187-31ec-4949-bd9b-654531a44675","ios":"levelo://app?vid=84826187-31ec-4949-bd9b-654531a44675"},"vehicle_type_id":"4","last_reported":1730729328,"current_range_meters":23200,"station_id":"ce4bhmp2rcd13ifvqgog","pricing_plan_id":"cebpf4jnsgd1na2vs0mg"},{"bike_id":"00cfba8d-c12d-4c96-889d-6e07a2141dda","system_id":"levelo_inurba_marseille","lat":43.30879,"lon":5.39655,"is_reserved":false,"is_disabled":false,"rental_uris":{"android":"levelo://app?vid=00cfba8d-c12d-4c96-889d-6e07a2141dda","ios":"levelo://app?vid=00cfba8d-c12d-4c96-889d-6e07a2141dda"},"vehicle_type_id":"4","last_reported":1730729328,"current_range_meters":39200,"station_id":"ce4bh012rcd13ifvqcv0","pricing_plan_id":"cebpf4jnsgd1na2vs0mg"},{"bike_id":"ab6df043-ebc4-44f7-b30c-025fab146c57","system_id":"levelo_inurba_marseille","lat":43.29781,"lon":5.37093,"is_reserved":false,"is_disabled":false,"rental_uris":{"android":"levelo://app?vid=ab6df043-ebc4-44f7-b30c-025fab146c57","ios":"levelo://app?vid=ab6df043-ebc4-44f7-b30c-025fab146c57"},"vehicle_type_id":"4","last_reported":1730729328,"current_range_meters":34000,"station_id":"ce4bgop2rcd13ifvqc1g","pricing_plan_id":"cebpf4jnsgd1na2vs0mg"},{"bike_id":"481de83c-1a42-446e-b046-256facab3691","system_id":"levelo_inurba_marseille","lat":43.27677,"lon":5.38864,"is_reserved":false,"is_disabled":false,"rental_uris":{"android":"levelo://app?vid=481de83c-1a42-446e-b046-256facab3691","ios":"levelo://app?vid=481de83c-1a42-446e-b046-256facab3691"},"vehicle_type_id":"4","last_reported":1730729328,"current_range_meters":12400,"station_id":"ce4bhi12rcd13ifvqfo0","pricing_plan_id":"cebpf4jnsgd1na2vs0mg"},{"bike_id":"dc95cb76-e093-4d96-b931-136ca659f89b","system_id":"levelo_inurba_marseille","lat":43.25933,"lon":5.4091,"is_reserved":false,"is_disabled":false,"rental_uris":{"android":"levelo://app?vid=dc95cb76-e093-4d96-b931-136ca659f89b","ios":"levelo://app?vid=dc95cb76-e093-4d96-b931-136ca659f89b"},"vehicle_type_id":"4","last_reported":1730729328,"current_range_meters":8800,"station_id":"ce4bhm92rcd13ifvqglg","pricing_plan_id":"cebpf4jnsgd1na2vs0mg"},{"bike_id":"ad08be64-ca8f-4cb0-8633-ce77488ae902","system_id":"levelo_inurba_marseille","lat":43.29007,"lon":5.356119,"is_reserved":false,"is_disabled":false,"rental_uris":{"android":"levelo://app?vid=ad08be64-ca8f-4cb0-8633-ce77488ae902","ios":"levelo://app?vid=ad08be64-ca8f-4cb0-8633-ce77488ae902"},"vehicle_type_id":"4","last_reported":1730729328,"current_range_meters":27600,"station_id":"ce4bhb92rcd13ifvqen0","pricing_plan_id":"cebpf4jnsgd1na2vs0mg"},{"bike_id":"909fd824-d8fe-4d38-b958-5046d8c9169b","system_id":"levelo_inurba_marseille","lat":43.324797,"lon":5.365546,"is_reserved":false,"is_disabled":false,"rental_uris":{"android":"levelo://app?vid=909fd824-d8fe-4d38-b958-5046d8c9169b","ios":"levelo://app?vid=909fd824-d8fe-4d38-b958-5046d8c9169b"},"vehicle_type_id":"4","last_reported":1730729328,"current_range_meters":38800,"station_id":"ce4bhs12rcd13ifvqhvg","pricing_plan_id":"cebpf4jnsgd1na2vs0mg"},{"bike_id":"62586ee7-732e-4ef4-a2d4-24dec49e55b5","system_id":"levelo_inurba_marseille","lat":43.29795,"lon":5.38098,"is_reserved":false,"is_disabled":false,"rental_uris":{"android":"levelo://app?vid=62586ee7-732e-4ef4-a2d4-24dec49e55b5","ios":"levelo://app?vid=62586ee7-732e-4ef4-a2d4-24dec49e55b5"},"vehicle_type_id":"4","last_reported":1730729328,"current_range_meters":24400,"station_id":"ce4bgip2rcd13ifvqbb0","pricing_plan_id":"cebpf4jnsgd1na2vs0mg"},{"bike_id":"a4b7a6b3-9bc0-424b-95ee-126f0957c57f","system_id":"levelo_inurba_marseille","lat":43.29841,"lon":5.36267,"is_reserved":false,"is_disabled":false,"rental_uris":{"android":"levelo://app?vid=a4b7a6b3-9bc0-424b-95ee-126f0957c57f","ios":"levelo://app?vid=a4b7a6b3-9bc0-424b-95ee-126f0957c57f"},"vehicle_type_id":"4","last_reported":1730729328,"current_range_meters":38800,"station_id":"ce4bgpp2rcd13ifvqc3g","pricing_plan_id":"cebpf4jnsgd1na2vs0mg"},{"bike_id":"0bf56120-2dc8-491c-8eae-97c1ea3bfa51","system_id":"levelo_inurba_marseille","lat":43.24807,"lon":5.37461,"is_reserved":false,"is_disabled":false,"rental_uris":{"android":"levelo://app?vid=0bf56120-2dc8-491c-8eae-97c1ea3bfa51","ios":"levelo://app?vid=0bf56120-2dc8-491c-8eae-97c1ea3bfa51"},"vehicle_type_id":"4","last_reported":1730729328,"current_range_meters":38000,"station_id":"ce4bhgh2rcd13ifvqfb0","pricing_plan_id":"cebpf4jnsgd1na2vs0mg"},{"bike_id":"0574c6f2-0d14-44ce-b627-9816e0d263f2","system_id":"levelo_inurba_marseille","lat":43.22932,"lon":5.35375,"is_reserved":false,"is_disabled":false,"rental_uris":{"android":"levelo://app?vid=0574c6f2-0d14-44ce-b627-9816e0d263f2","ios":"levelo://app?vid=0574c6f2-0d14-44ce-b627-9816e0d263f2"},"vehicle_type_id":"4","last_reported":1730729328,"current_range_meters":14000,"station_id":"cpo3532slgdg3j2ikp40","pricing_plan_id":"cebpf4jnsgd1na2vs0mg"},{"bike_id":"00fa663e-ca43-453d-afb5-fe8b2d7b7459","system_id":"levelo_inurba_marseille","lat":43.3054,"lon":5.36534,"is_reserved":false,"is_disabled":false,"rental_uris":{"android":"levelo://app?vid=00fa663e-ca43-453d-afb5-fe8b2d7b7459","ios":"levelo://app?vid=00fa663e-ca43-453d-afb5-fe8b2d7b7459"},"vehicle_type_id":"4","last_reported":1730729328,"current_range_meters":38800,"station_id":"ce4bgs12rcd13ifvqcag","pricing_plan_id":"cebpf4jnsgd1na2vs0mg"},{"bike_id":"2bfd22d7-a685-4f08-b1ba-16e1ddc4d13e","system_id":"levelo_inurba_marseille","lat":43.28359,"lon":5.3811,"is_reserved":false,"is_disabled":false,"rental_uris":{"android":"levelo://app?vid=2bfd22d7-a685-4f08-b1ba-16e1ddc4d13e","ios":"levelo://app?vid=2bfd22d7-a685-4f08-b1ba-16e1ddc4d13e"},"vehicle_type_id":"4","last_reported":1730729328,"current_range_meters":17200,"station_id":"ce4bh412rcd13ifvqdr0","pricing_plan_id":"cebpf4jnsgd1na2vs0mg"},{"bike_id":"f8683198-60d0-4d42-8053-dfc9a270b8b9","system_id":"levelo_inurba_marseille","lat":43.26787,"lon":5.39416,"is_reserved":false,"is_disabled":false,"rental_uris":{"android":"levelo://app?vid=f8683198-60d0-4d42-8053-dfc9a270b8b9","ios":"levelo://app?vid=f8683198-60d0-4d42-8053-dfc9a270b8b9"},"vehicle_type_id":"4","last_reported":1730729328,"current_range_meters":12800,"station_id":"ce4bhh12rcd13ifvqfg0","pricing_plan_id":"cebpf4jnsgd1na2vs0mg"},{"bike_id":"7b026c2c-af94-48bb-8e64-355014faf4cc","system_id":"levelo_inurba_marseille","lat":43.31312,"lon":5.36725,"is_reserved":false,"is_disabled":false,"rental_uris":{"android":"levelo://app?vid=7b026c2c-af94-48bb-8e64-355014faf4cc","ios":"levelo://app?vid=7b026c2c-af94-48bb-8e64-355014faf4cc"},"vehicle_type_id":"4","last_reported":1730729328,"current_range_meters":35600,"station_id":"ce4bgr92rcd13ifvqc6g","pricing_plan_id":"cebpf4jnsgd1na2vs0mg"},{"bike_id":"b82137a2-6bdc-4bae-b8fe-e6428b933190","system_id":"levelo_inurba_marseille","lat":43.31312,"lon":5.3672,"is_reserved":false,"is_disabled":false,"rental_uris":{"android":"levelo://app?vid=b82137a2-6bdc-4bae-b8fe-e6428b933190","ios":"levelo://app?vid=b82137a2-6bdc-4bae-b8fe-e6428b933190"},"vehicle_type_id":"4","last_reported":1730729328,"current_range_meters":38800,"station_id":"ce4bgr92rcd13ifvqc6g","pricing_plan_id":"cebpf4jnsgd1na2vs0mg"},{"bike_id":"1228cbd5-3123-402f-b38f-4cbd1c53149d","system_id":"levelo_inurba_marseille","lat":43.29234,"lon":5.3607,"is_reserved":false,"is_disabled":false,"rental_uris":{"android":"levelo://app?vid=1228cbd5-3123-402f-b38f-4cbd1c53149d","ios":"levelo://app?vid=1228cbd5-3123-402f-b38f-4cbd1c53149d"},"vehicle_type_id":"4","last_reported":1730729328,"current_range_meters":24400,"station_id":"ce4bhbh2rcd13ifvqeqg","pricing_plan_id":"cebpf4jnsgd1na2vs0mg"},{"bike_id":"a62d9f9b-8c15-400e-9700-88059c205327","system_id":"levelo_inurba_marseille","lat":43.29801,"lon":5.38087,"is_reserved":false,"is_disabled":false,"rental_uris":{"android":"levelo://app?vid=a62d9f9b-8c15-400e-9700-88059c205327","ios":"levelo://app?vid=a62d9f9b-8c15-400e-9700-88059c205327"},"vehicle_type_id":"4","last_reported":1730729328,"current_range_meters":28400,"station_id":"ce4bgip2rcd13ifvqbb0","pricing_plan_id":"cebpf4jnsgd1na2vs0mg"},{"bike_id":"638fcdb1-a749-4044-98d1-45677e36b272","system_id":"levelo_inurba_marseille","lat":43.30212,"lon":5.3946,"is_reserved":false,"is_disabled":false,"rental_uris":{"android":"levelo://app?vid=638fcdb1-a749-4044-98d1-45677e36b272","ios":"levelo://app?vid=638fcdb1-a749-4044-98d1-45677e36b272"},"vehicle_type_id":"4","last_reported":1730729328,"current_range_meters":30000,"station_id":"ce4bh0p2rcd13ifvqd70","pricing_plan_id":"cebpf4jnsgd1na2vs0mg"},{"bike_id":"bbc4afbc-13e4-40b2-8eeb-b8c01dbe8875","system_id":"levelo_inurba_marseille","lat":43.3014,"lon":5.37422,"is_reserved":false,"is_disabled":false,"rental_uris":{"android":"levelo://app?vid=bbc4afbc-13e4-40b2-8eeb-b8c01dbe8875","ios":"levelo://app?vid=bbc4afbc-13e4-40b2-8eeb-b8c01dbe8875"},"vehicle_type_id":"4","last_reported":1730729328,"current_range_meters":38800,"station_id":"ce4bgs92rcd13ifvqcc0","pricing_plan_id":"cebpf4jnsgd1na2vs0mg"},{"bike_id":"bb0c69be-e14a-4329-93ae-9436a18fc426","system_id":"levelo_inurba_marseille","lat":43.29013,"lon":5.35626,"is_reserved":false,"is_disabled":false,"rental_uris":{"android":"levelo://app?vid=bb0c69be-e14a-4329-93ae-9436a18fc426","ios":"levelo://app?vid=bb0c69be-e14a-4329-93ae-9436a18fc426"},"vehicle_type_id":"4","last_reported":1730729328,"current_range_meters":3200,"station_id":"ce4bhb92rcd13ifvqen0","pricing_plan_id":"cebpf4jnsgd1na2vs0mg"},{"bike_id":"ed3cc475-9352-4500-9e2a-f8144dc4b6f1","system_id":"levelo_inurba_marseille","lat":43.3302,"lon":5.39043,"is_reserved":false,"is_disabled":false,"rental_uris":{"android":"levelo://app?vid=ed3cc475-9352-4500-9e2a-f8144dc4b6f1","ios":"levelo://app?vid=ed3cc475-9352-4500-9e2a-f8144dc4b6f1"},"vehicle_type_id":"4","last_reported":1730729328,"current_range_meters":32000,"station_id":"ce4bhr92rcd13ifvqhrg","pricing_plan_id":"cebpf4jnsgd1na2vs0mg"},{"bike_id":"20ba62ee-2151-4dc9-8a72-2d3c7b78e768","system_id":"levelo_inurba_marseille","lat":43.2594,"lon":5.40902,"is_reserved":false,"is_disabled":false,"rental_uris":{"android":"levelo://app?vid=20ba62ee-2151-4dc9-8a72-2d3c7b78e768","ios":"levelo://app?vid=20ba62ee-2151-4dc9-8a72-2d3c7b78e768"},"vehicle_type_id":"4","last_reported":1730729328,"current_range_meters":33200,"station_id":"ce4bhm92rcd13ifvqglg","pricing_plan_id":"cebpf4jnsgd1na2vs0mg"},{"bike_id":"fe144177-327f-48aa-98bf-b0d3318680db","system_id":"levelo_inurba_marseille","lat":43.2407,"lon":5.37754,"is_reserved":false,"is_disabled":false,"rental_uris":{"android":"levelo://app?vid=fe144177-327f-48aa-98bf-b0d3318680db","ios":"levelo://app?vid=fe144177-327f-48aa-98bf-b0d3318680db"},"vehicle_type_id":"4","last_reported":1730729328,"current_range_meters":10000,"station_id":"ce4bhnp2rcd13ifvqgvg","pricing_plan_id":"cebpf4jnsgd1na2vs0mg"},{"bike_id":"3044ab8e-3335-40b2-9308-f3d6604164a9","system_id":"levelo_inurba_marseille","lat":43.30556,"lon":5.3654,"is_reserved":false,"is_disabled":false,"rental_uris":{"android":"levelo://app?vid=3044ab8e-3335-40b2-9308-f3d6604164a9","ios":"levelo://app?vid=3044ab8e-3335-40b2-9308-f3d6604164a9"},"vehicle_type_id":"4","last_reported":1730729328,"current_range_meters":38800,"station_id":"ce4bgs12rcd13ifvqcag","pricing_plan_id":"cebpf4jnsgd1na2vs0mg"},{"bike_id":"7e1ee2f9-dc8e-4d45-a825-28addf6dfb4f","system_id":"levelo_inurba_marseille","lat":43.26777,"lon":5.39418,"is_reserved":false,"is_disabled":false,"rental_uris":{"android":"levelo://app?vid=7e1ee2f9-dc8e-4d45-a825-28addf6dfb4f","ios":"levelo://app?vid=7e1ee2f9-dc8e-4d45-a825-28addf6dfb4f"},"vehicle_type_id":"4","last_reported":1730729328,"current_range_meters":14800,"station_id":"ce4bhh12rcd13ifvqfg0","pricing_plan_id":"cebpf4jnsgd1na2vs0mg"},{"bike_id":"baca3296-5fa4-4e3f-bb70-eeb3d800275d","system_id":"levelo_inurba_marseille","lat":43.3031,"lon":5.36898,"is_reserved":false,"is_disabled":false,"rental_uris":{"android":"levelo://app?vid=baca3296-5fa4-4e3f-bb70-eeb3d800275d","ios":"levelo://app?vid=baca3296-5fa4-4e3f-bb70-eeb3d800275d"},"vehicle_type_id":"4","last_reported":1730729328,"current_range_meters":27600,"station_id":"ce4bgqh2rcd13ifvqc5g","pricing_plan_id":"cebpf4jnsgd1na2vs0mg"},{"bike_id":"7a58136c-3165-4313-8fac-2c364b399752","system_id":"levelo_inurba_marseille","lat":43.33725,"lon":5.3918,"is_reserved":false,"is_disabled":false,"rental_uris":{"android":"levelo://app?vid=7a58136c-3165-4313-8fac-2c364b399752","ios":"levelo://app?vid=7a58136c-3165-4313-8fac-2c364b399752"},"vehicle_type_id":"4","last_reported":1730729328,"current_range_meters":28000,"station_id":"ce4bhr92rcd13ifvqhsg","pricing_plan_id":"cebpf4jnsgd1na2vs0mg"},{"bike_id":"ef6c598b-12f7-4d6c-97fa-13e183c4e772","system_id":"levelo_inurba_marseille","lat":43.24807,"lon":5.37459,"is_reserved":false,"is_disabled":false,"rental_uris":{"android":"levelo://app?vid=ef6c598b-12f7-4d6c-97fa-13e183c4e772","ios":"levelo://app?vid=ef6c598b-12f7-4d6c-97fa-13e183c4e772"},"vehicle_type_id":"4","last_reported":1730729328,"current_range_meters":19600,"station_id":"ce4bhgh2rcd13ifvqfb0","pricing_plan_id":"cebpf4jnsgd1na2vs0mg"},{"bike_id":"5c68b205-12f8-4a5e-aa9f-80019e3fe69b","system_id":"levelo_inurba_marseille","lat":43.29042,"lon":5.38656,"is_reserved":false,"is_disabled":false,"rental_uris":{"android":"levelo://app?vid=5c68b205-12f8-4a5e-aa9f-80019e3fe69b","ios":"levelo://app?vid=5c68b205-12f8-4a5e-aa9f-80019e3fe69b"},"vehicle_type_id":"4","last_reported":1730729328,"current_range_meters":18800,"station_id":"ce4bh4p2rcd13ifvqe0g","pricing_plan_id":"cebpf4jnsgd1na2vs0mg"},{"bike_id":"c0c1144b-55a3-4c12-934a-b6ac7a3ad5e6","system_id":"levelo_inurba_marseille","lat":43.26954,"lon":5.3863,"is_reserved":false,"is_disabled":false,"rental_uris":{"android":"levelo://app?vid=c0c1144b-55a3-4c12-934a-b6ac7a3ad5e6","ios":"levelo://app?vid=c0c1144b-55a3-4c12-934a-b6ac7a3ad5e6"},"vehicle_type_id":"4","last_reported":1730729328,"current_range_meters":26000,"station_id":"ce4bhh92rcd13ifvqfh0","pricing_plan_id":"cebpf4jnsgd1na2vs0mg"},{"bike_id":"a3ae4c1b-8ed3-43f0-95b2-9f60ca274476","system_id":"levelo_inurba_marseille","lat":43.32475,"lon":5.36565,"is_reserved":false,"is_disabled":false,"rental_uris":{"android":"levelo://app?vid=a3ae4c1b-8ed3-43f0-95b2-9f60ca274476","ios":"levelo://app?vid=a3ae4c1b-8ed3-43f0-95b2-9f60ca274476"},"vehicle_type_id":"4","last_reported":1730729328,"current_range_meters":39200,"station_id":"ce4bhs12rcd13ifvqhvg","pricing_plan_id":"cebpf4jnsgd1na2vs0mg"},{"bike_id":"8a46c949-ee43-49c1-b2c9-e24858ba0e3c","system_id":"levelo_inurba_marseille","lat":43.30792,"lon":5.38154,"is_reserved":false,"is_disabled":false,"rental_uris":{"android":"levelo://app?vid=8a46c949-ee43-49c1-b2c9-e24858ba0e3c","ios":"levelo://app?vid=8a46c949-ee43-49c1-b2c9-e24858ba0e3c"},"vehicle_type_id":"4","last_reported":1730729328,"current_range_meters":17600,"station_id":"ce4bgt12rcd13ifvqce0","pricing_plan_id":"cebpf4jnsgd1na2vs0mg"},{"bike_id":"34a23a4a-08df-4347-9ded-96d2e9692733","system_id":"levelo_inurba_marseille","lat":43.3112,"lon":5.37767,"is_reserved":false,"is_disabled":false,"rental_uris":{"android":"levelo://app?vid=34a23a4a-08df-4347-9ded-96d2e9692733","ios":"levelo://app?vid=34a23a4a-08df-4347-9ded-96d2e9692733"},"vehicle_type_id":"4","last_reported":1730729328,"current_range_meters":22800,"station_id":"ce4bgt92rcd13ifvqcg0","pricing_plan_id":"cebpf4jnsgd1na2vs0mg"},{"bike_id":"287d660f-98b6-46fc-807a-3d0421b9fc22","system_id":"levelo_inurba_marseille","lat":43.26788,"lon":5.39419,"is_reserved":false,"is_disabled":false,"rental_uris":{"android":"levelo://app?vid=287d660f-98b6-46fc-807a-3d0421b9fc22","ios":"levelo://app?vid=287d660f-98b6-46fc-807a-3d0421b9fc22"},"vehicle_type_id":"4","last_reported":1730729328,"current_range_meters":38800,"station_id":"ce4bhh12rcd13ifvqfg0","pricing_plan_id":"cebpf4jnsgd1na2vs0mg"},{"bike_id":"5d14ffc3-3770-493f-af10-c5936b534fc1","system_id":"levelo_inurba_marseille","lat":43.2923,"lon":5.36065,"is_reserved":false,"is_disabled":false,"rental_uris":{"android":"levelo://app?vid=5d14ffc3-3770-493f-af10-c5936b534fc1","ios":"levelo://app?vid=5d14ffc3-3770-493f-af10-c5936b534fc1"},"vehicle_type_id":"4","last_reported":1730729328,"current_range_meters":12400,"station_id":"ce4bhbh2rcd13ifvqeqg","pricing_plan_id":"cebpf4jnsgd1na2vs0mg"},{"bike_id":"b372a836-0a50-4bb1-85e3-4c957a730431","system_id":"levelo_inurba_marseille","lat":43.28715,"lon":5.36092,"is_reserved":false,"is_disabled":false,"rental_uris":{"android":"levelo://app?vid=b372a836-0a50-4bb1-85e3-4c957a730431","ios":"levelo://app?vid=b372a836-0a50-4bb1-85e3-4c957a730431"},"vehicle_type_id":"4","last_reported":1730729328,"current_range_meters":38800,"station_id":"cki0cbj6b192h4jlfktg","pricing_plan_id":"cebpf4jnsgd1na2vs0mg"},{"bike_id":"ad6b9979-2833-497c-ae59-5afeb88a87ce","system_id":"levelo_inurba_marseille","lat":43.32359,"lon":5.36756,"is_reserved":false,"is_disabled":false,"rental_uris":{"android":"levelo://app?vid=ad6b9979-2833-497c-ae59-5afeb88a87ce","ios":"levelo://app?vid=ad6b9979-2833-497c-ae59-5afeb88a87ce"},"vehicle_type_id":"4","last_reported":1730729328,"current_range_meters":36800,"station_id":"ce4bhsh2rcd13ifvqi2g","pricing_plan_id":"cebpf4jnsgd1na2vs0mg"},{"bike_id":"21047ea7-1217-4889-9524-4350d2e53afa","system_id":"levelo_inurba_marseille","lat":43.29913,"lon":5.37474,"is_reserved":false,"is_disabled":false,"rental_uris":{"android":"levelo://app?vid=21047ea7-1217-4889-9524-4350d2e53afa","ios":"levelo://app?vid=21047ea7-1217-4889-9524-4350d2e53afa"},"vehicle_type_id":"4","last_reported":1730729328,"current_range_meters":38800,"station_id":"ce4bgjh2rcd13ifvqbg0","pricing_plan_id":"cebpf4jnsgd1na2vs0mg"},{"bike_id":"d4986669-7915-4670-b6a2-ebbac77a12b0","system_id":"levelo_inurba_marseille","lat":43.309601,"lon":5.400608,"is_reserved":false,"is_disabled":false,"rental_uris":{"android":"levelo://app?vid=d4986669-7915-4670-b6a2-ebbac77a12b0","ios":"levelo://app?vid=d4986669-7915-4670-b6a2-ebbac77a12b0"},"vehicle_type_id":"4","last_reported":1730729328,"current_range_meters":27600,"station_id":"ce4bgvp2rcd13ifvqct0","pricing_plan_id":"cebpf4jnsgd1na2vs0mg"},{"bike_id":"52d83f9a-c94d-483f-a129-78a637dbe7cd","system_id":"levelo_inurba_marseille","lat":43.28103,"lon":5.3784,"is_reserved":false,"is_disabled":false,"rental_uris":{"android":"levelo://app?vid=52d83f9a-c94d-483f-a129-78a637dbe7cd","ios":"levelo://app?vid=52d83f9a-c94d-483f-a129-78a637dbe7cd"},"vehicle_type_id":"4","last_reported":1730729328,"current_range_meters":36800,"station_id":"ce4bha12rcd13ifvqee0","pricing_plan_id":"cebpf4jnsgd1na2vs0mg"},{"bike_id":"abd75d09-f854-48dd-9f00-3787c6bd6f8f","system_id":"levelo_inurba_marseille","lat":43.31266,"lon":5.40171,"is_reserved":false,"is_disabled":false,"rental_uris":{"android":"levelo://app?vid=abd75d09-f854-48dd-9f00-3787c6bd6f8f","ios":"levelo://app?vid=abd75d09-f854-48dd-9f00-3787c6bd6f8f"},"vehicle_type_id":"4","last_reported":1730729328,"current_range_meters":20400,"station_id":"ce4bh092rcd13ifvqd30","pricing_plan_id":"cebpf4jnsgd1na2vs0mg"},{"bike_id":"9d01e6c0-f97c-47a1-b364-f40e25bb2614","system_id":"levelo_inurba_marseille","lat":43.24078,"lon":5.37753,"is_reserved":false,"is_disabled":false,"rental_uris":{"android":"levelo://app?vid=9d01e6c0-f97c-47a1-b364-f40e25bb2614","ios":"levelo://app?vid=9d01e6c0-f97c-47a1-b364-f40e25bb2614"},"vehicle_type_id":"4","last_reported":1730729328,"current_range_meters":32400,"station_id":"ce4bhnp2rcd13ifvqgvg","pricing_plan_id":"cebpf4jnsgd1na2vs0mg"},{"bike_id":"d2738cce-314b-4cee-88e4-e667009c47fa","system_id":"levelo_inurba_marseille","lat":43.25944,"lon":5.40914,"is_reserved":false,"is_disabled":false,"rental_uris":{"android":"levelo://app?vid=d2738cce-314b-4cee-88e4-e667009c47fa","ios":"levelo://app?vid=d2738cce-314b-4cee-88e4-e667009c47fa"},"vehicle_type_id":"4","last_reported":1730729328,"current_range_meters":6800,"station_id":"ce4bhm92rcd13ifvqglg","pricing_plan_id":"cebpf4jnsgd1na2vs0mg"},{"bike_id":"29bc6180-a326-437a-a82e-133190ee6ec6","system_id":"levelo_inurba_marseille","lat":43.26789,"lon":5.39415,"is_reserved":false,"is_disabled":false,"rental_uris":{"android":"levelo://app?vid=29bc6180-a326-437a-a82e-133190ee6ec6","ios":"levelo://app?vid=29bc6180-a326-437a-a82e-133190ee6ec6"},"vehicle_type_id":"4","last_reported":1730729328,"current_range_meters":38400,"station_id":"ce4bhh12rcd13ifvqfg0","pricing_plan_id":"cebpf4jnsgd1na2vs0mg"},{"bike_id":"7a034b6b-d0b0-4c8d-89a2-797578978eb0","system_id":"levelo_inurba_marseille","lat":43.295837,"lon":5.375175,"is_reserved":false,"is_disabled":false,"rental_uris":{"android":"levelo://app?vid=7a034b6b-d0b0-4c8d-89a2-797578978eb0","ios":"levelo://app?vid=7a034b6b-d0b0-4c8d-89a2-797578978eb0"},"vehicle_type_id":"4","last_reported":1730729328,"current_range_meters":21600,"station_id":"ce4bgh92rcd13ifvqb50","pricing_plan_id":"cebpf4jnsgd1na2vs0mg"},{"bike_id":"dcfc3314-3fae-4653-8172-afb46edd1ad2","system_id":"levelo_inurba_marseille","lat":43.30544,"lon":5.36542,"is_reserved":false,"is_disabled":false,"rental_uris":{"android":"levelo://app?vid=dcfc3314-3fae-4653-8172-afb46edd1ad2","ios":"levelo://app?vid=dcfc3314-3fae-4653-8172-afb46edd1ad2"},"vehicle_type_id":"4","last_reported":1730729328,"current_range_meters":29600,"station_id":"ce4bgs12rcd13ifvqcag","pricing_plan_id":"cebpf4jnsgd1na2vs0mg"},{"bike_id":"853b27ea-e5f4-4c2e-a7da-3181274b83f8","system_id":"levelo_inurba_marseille","lat":43.29054,"lon":5.35921,"is_reserved":false,"is_disabled":false,"rental_uris":{"android":"levelo://app?vid=853b27ea-e5f4-4c2e-a7da-3181274b83f8","ios":"levelo://app?vid=853b27ea-e5f4-4c2e-a7da-3181274b83f8"},"vehicle_type_id":"4","last_reported":1730729328,"current_range_meters":24800,"station_id":"ce4bha92rcd13ifvqeg0","pricing_plan_id":"cebpf4jnsgd1na2vs0mg"},{"bike_id":"d1d75a46-49e0-4f3b-acbe-49b92e64d384","system_id":"levelo_inurba_marseille","lat":43.29603,"lon":5.38111,"is_reserved":false,"is_disabled":false,"rental_uris":{"android":"levelo://app?vid=d1d75a46-49e0-4f3b-acbe-49b92e64d384","ios":"levelo://app?vid=d1d75a46-49e0-4f3b-acbe-49b92e64d384"},"vehicle_type_id":"4","last_reported":1730729328,"current_range_meters":37600,"station_id":"ce4bgl12rcd13ifvqbo0","pricing_plan_id":"cebpf4jnsgd1na2vs0mg"},{"bike_id":"7caae66d-bc9c-458c-a817-19bb07d47995","system_id":"levelo_inurba_marseille","lat":43.29916,"lon":5.37475,"is_reserved":false,"is_disabled":false,"rental_uris":{"android":"levelo://app?vid=7caae66d-bc9c-458c-a817-19bb07d47995","ios":"levelo://app?vid=7caae66d-bc9c-458c-a817-19bb07d47995"},"vehicle_type_id":"4","last_reported":1730729328,"current_range_meters":39200,"station_id":"ce4bgjh2rcd13ifvqbg0","pricing_plan_id":"cebpf4jnsgd1na2vs0mg"},{"bike_id":"5a1f6623-1ee7-47ed-b333-eda22bb3b163","system_id":"levelo_inurba_marseille","lat":43.29936,"lon":5.3655,"is_reserved":false,"is_disabled":false,"rental_uris":{"android":"levelo://app?vid=5a1f6623-1ee7-47ed-b333-eda22bb3b163","ios":"levelo://app?vid=5a1f6623-1ee7-47ed-b333-eda22bb3b163"},"vehicle_type_id":"4","last_reported":1730729328,"current_range_meters":10800,"station_id":"ce4bgm92rcd13ifvqbr0","pricing_plan_id":"cebpf4jnsgd1na2vs0mg"},{"bike_id":"0816021a-d791-40b8-a0bc-3a861b847ef1","system_id":"levelo_inurba_marseille","lat":43.30468,"lon":5.37913,"is_reserved":false,"is_disabled":false,"rental_uris":{"android":"levelo://app?vid=0816021a-d791-40b8-a0bc-3a861b847ef1","ios":"levelo://app?vid=0816021a-d791-40b8-a0bc-3a861b847ef1"},"vehicle_type_id":"4","last_reported":1730729328,"current_range_meters":39200,"station_id":"ce4bgup2rcd13ifvqcn0","pricing_plan_id":"cebpf4jnsgd1na2vs0mg"},{"bike_id":"f18d76b3-aff3-44f0-97ce-80dd35e5f78d","system_id":"levelo_inurba_marseille","lat":43.31349,"lon":5.36713,"is_reserved":false,"is_disabled":false,"rental_uris":{"android":"levelo://app?vid=f18d76b3-aff3-44f0-97ce-80dd35e5f78d","ios":"levelo://app?vid=f18d76b3-aff3-44f0-97ce-80dd35e5f78d"},"vehicle_type_id":"4","last_reported":1730729328,"current_range_meters":28800,"station_id":"ce4bgr92rcd13ifvqc6g","pricing_plan_id":"cebpf4jnsgd1na2vs0mg"},{"bike_id":"7ff0acce-06b8-4c84-9632-ef83fcc6939b","system_id":"levelo_inurba_marseille","lat":43.2738,"lon":5.36263,"is_reserved":false,"is_disabled":false,"rental_uris":{"android":"levelo://app?vid=7ff0acce-06b8-4c84-9632-ef83fcc6939b","ios":"levelo://app?vid=7ff0acce-06b8-4c84-9632-ef83fcc6939b"},"vehicle_type_id":"4","last_reported":1730729328,"current_range_meters":29600,"station_id":"ce4bhbh2rcd13ifvqeo0","pricing_plan_id":"cebpf4jnsgd1na2vs0mg"},{"bike_id":"c40abc68-e49d-4eda-a8bf-5081fe0f73d2","system_id":"levelo_inurba_marseille","lat":43.30147,"lon":5.38076,"is_reserved":false,"is_disabled":false,"rental_uris":{"android":"levelo://app?vid=c40abc68-e49d-4eda-a8bf-5081fe0f73d2","ios":"levelo://app?vid=c40abc68-e49d-4eda-a8bf-5081fe0f73d2"},"vehicle_type_id":"4","last_reported":1730729328,"current_range_meters":6000,"station_id":"ce4bgjp2rcd13ifvqbh0","pricing_plan_id":"cebpf4jnsgd1na2vs0mg"},{"bike_id":"baef9837-9362-4b9e-8378-e964f8208509","system_id":"levelo_inurba_marseille","lat":43.25498,"lon":5.3765,"is_reserved":false,"is_disabled":false,"rental_uris":{"android":"levelo://app?vid=baef9837-9362-4b9e-8378-e964f8208509","ios":"levelo://app?vid=baef9837-9362-4b9e-8378-e964f8208509"},"vehicle_type_id":"4","last_reported":1730729328,"current_range_meters":26000,"station_id":"ce4bhh12rcd13ifvqff0","pricing_plan_id":"cebpf4jnsgd1na2vs0mg"},{"bike_id":"7d9ee8ba-656e-46e2-afbf-5eed9f48fbad","system_id":"levelo_inurba_marseille","lat":43.31228,"lon":5.36892,"is_reserved":false,"is_disabled":false,"rental_uris":{"android":"levelo://app?vid=7d9ee8ba-656e-46e2-afbf-5eed9f48fbad","ios":"levelo://app?vid=7d9ee8ba-656e-46e2-afbf-5eed9f48fbad"},"vehicle_type_id":"4","last_reported":1730729328,"current_range_meters":38800,"station_id":"ce4bgl92rcd13ifvqbq0","pricing_plan_id":"cebpf4jnsgd1na2vs0mg"},{"bike_id":"4e72ee59-bdfc-4fc6-9bd8-4ee90be7da9c","system_id":"levelo_inurba_marseille","lat":43.2511,"lon":5.40318,"is_reserved":false,"is_disabled":false,"rental_uris":{"android":"levelo://app?vid=4e72ee59-bdfc-4fc6-9bd8-4ee90be7da9c","ios":"levelo://app?vid=4e72ee59-bdfc-4fc6-9bd8-4ee90be7da9c"},"vehicle_type_id":"4","last_reported":1730729328,"current_range_meters":11600,"station_id":"ce4bhlh2rcd13ifvqgig","pricing_plan_id":"cebpf4jnsgd1na2vs0mg"},{"bike_id":"98de4fa1-6f5a-4498-86b0-139854ba57ab","system_id":"levelo_inurba_marseille","lat":43.29565,"lon":5.37521,"is_reserved":false,"is_disabled":false,"rental_uris":{"android":"levelo://app?vid=98de4fa1-6f5a-4498-86b0-139854ba57ab","ios":"levelo://app?vid=98de4fa1-6f5a-4498-86b0-139854ba57ab"},"vehicle_type_id":"4","last_reported":1730729328,"current_range_meters":28400,"station_id":"ce4bgh92rcd13ifvqb50","pricing_plan_id":"cebpf4jnsgd1na2vs0mg"},{"bike_id":"8637c130-49b0-4b3d-91c9-cc85ccf0119f","system_id":"levelo_inurba_marseille","lat":43.26026,"lon":5.37548,"is_reserved":false,"is_disabled":false,"rental_uris":{"android":"levelo://app?vid=8637c130-49b0-4b3d-91c9-cc85ccf0119f","ios":"levelo://app?vid=8637c130-49b0-4b3d-91c9-cc85ccf0119f"},"vehicle_type_id":"4","last_reported":1730729328,"current_range_meters":36800,"station_id":"ce4bhgh2rcd13ifvqfa0","pricing_plan_id":"cebpf4jnsgd1na2vs0mg"},{"bike_id":"cb81e8a1-f5c2-4c95-bfcd-076f7f535ffd","system_id":"levelo_inurba_marseille","lat":43.2973,"lon":5.37165,"is_reserved":false,"is_disabled":false,"rental_uris":{"android":"levelo://app?vid=cb81e8a1-f5c2-4c95-bfcd-076f7f535ffd","ios":"levelo://app?vid=cb81e8a1-f5c2-4c95-bfcd-076f7f535ffd"},"vehicle_type_id":"4","last_reported":1730729328,"current_range_meters":18800,"station_id":"","pricing_plan_id":"cebpf4jnsgd1na2vs0mg"},{"bike_id":"b002bdad-c1af-41c6-891d-1723b6bdf0d4","system_id":"levelo_inurba_marseille","lat":43.30951,"lon":5.39033,"is_reserved":false,"is_disabled":false,"rental_uris":{"android":"levelo://app?vid=b002bdad-c1af-41c6-891d-1723b6bdf0d4","ios":"levelo://app?vid=b002bdad-c1af-41c6-891d-1723b6bdf0d4"},"vehicle_type_id":"4","last_reported":1730729328,"current_range_meters":18000,"station_id":"ce4bgup2rcd13ifvqco0","pricing_plan_id":"cebpf4jnsgd1na2vs0mg"},{"bike_id":"5a5ca637-4a18-4597-b859-7ab9a6b224f3","system_id":"levelo_inurba_marseille","lat":43.2315,"lon":5.43727,"is_reserved":false,"is_disabled":false,"rental_uris":{"android":"levelo://app?vid=5a5ca637-4a18-4597-b859-7ab9a6b224f3","ios":"levelo://app?vid=5a5ca637-4a18-4597-b859-7ab9a6b224f3"},"vehicle_type_id":"4","last_reported":1730729328,"current_range_meters":8800,"station_id":"ce4bhmp2rcd13ifvqgog","pricing_plan_id":"cebpf4jnsgd1na2vs0mg"},{"bike_id":"3ebd69e1-4536-4fb7-9a65-ac352147a962","system_id":"levelo_inurba_marseille","lat":43.29711,"lon":5.37729,"is_reserved":false,"is_disabled":false,"rental_uris":{"android":"levelo://app?vid=3ebd69e1-4536-4fb7-9a65-ac352147a962","ios":"levelo://app?vid=3ebd69e1-4536-4fb7-9a65-ac352147a962"},"vehicle_type_id":"4","last_reported":1730729328,"current_range_meters":12800,"station_id":"ce4bgkh2rcd13ifvqbl0","pricing_plan_id":"cebpf4jnsgd1na2vs0mg"},{"bike_id":"b702005a-a075-4b19-920d-35f33b2ab811","system_id":"levelo_inurba_marseille","lat":43.29576,"lon":5.3751,"is_reserved":false,"is_disabled":false,"rental_uris":{"android":"levelo://app?vid=b702005a-a075-4b19-920d-35f33b2ab811","ios":"levelo://app?vid=b702005a-a075-4b19-920d-35f33b2ab811"},"vehicle_type_id":"4","last_reported":1730729328,"current_range_meters":30400,"station_id":"ce4bgh92rcd13ifvqb50","pricing_plan_id":"cebpf4jnsgd1na2vs0mg"},{"bike_id":"fb563d07-c5f5-4d92-a5df-ef52f6607393","system_id":"levelo_inurba_marseille","lat":43.30151,"lon":5.38075,"is_reserved":false,"is_disabled":false,"rental_uris":{"android":"levelo://app?vid=fb563d07-c5f5-4d92-a5df-ef52f6607393","ios":"levelo://app?vid=fb563d07-c5f5-4d92-a5df-ef52f6607393"},"vehicle_type_id":"4","last_reported":1730729328,"current_range_meters":22000,"station_id":"ce4bgjp2rcd13ifvqbh0","pricing_plan_id":"cebpf4jnsgd1na2vs0mg"},{"bike_id":"335ca9fd-967d-414d-ae4f-f9703d0e8f09","system_id":"levelo_inurba_marseille","lat":43.28002,"lon":5.41667,"is_reserved":false,"is_disabled":false,"rental_uris":{"android":"levelo://app?vid=335ca9fd-967d-414d-ae4f-f9703d0e8f09","ios":"levelo://app?vid=335ca9fd-967d-414d-ae4f-f9703d0e8f09"},"vehicle_type_id":"4","last_reported":1730729328,"current_range_meters":27200,"station_id":"ce4bho12rcd13ifvqh1g","pricing_plan_id":"cebpf4jnsgd1na2vs0mg"},{"bike_id":"c2e5ff9a-9dd4-479a-9dd6-52948c6f960c","system_id":"levelo_inurba_marseille","lat":43.33745,"lon":5.37458,"is_reserved":false,"is_disabled":false,"rental_uris":{"android":"levelo://app?vid=c2e5ff9a-9dd4-479a-9dd6-52948c6f960c","ios":"levelo://app?vid=c2e5ff9a-9dd4-479a-9dd6-52948c6f960c"},"vehicle_type_id":"4","last_reported":1730729328,"current_range_meters":29600,"station_id":"","pricing_plan_id":"cebpf4jnsgd1na2vs0mg"},{"bike_id":"e517e444-219d-4b66-9484-eb2ced9a385a","system_id":"levelo_inurba_marseille","lat":43.29805,"lon":5.38101,"is_reserved":false,"is_disabled":false,"rental_uris":{"android":"levelo://app?vid=e517e444-219d-4b66-9484-eb2ced9a385a","ios":"levelo://app?vid=e517e444-219d-4b66-9484-eb2ced9a385a"},"vehicle_type_id":"4","last_reported":1730729328,"current_range_meters":30000,"station_id":"ce4bgip2rcd13ifvqbb0","pricing_plan_id":"cebpf4jnsgd1na2vs0mg"},{"bike_id":"3fbf5c81-dcdc-4c20-923a-90928d09973c","system_id":"levelo_inurba_marseille","lat":43.29916,"lon":5.37474,"is_reserved":false,"is_disabled":false,"rental_uris":{"android":"levelo://app?vid=3fbf5c81-dcdc-4c20-923a-90928d09973c","ios":"levelo://app?vid=3fbf5c81-dcdc-4c20-923a-90928d09973c"},"vehicle_type_id":"4","last_reported":1730729328,"current_range_meters":38800,"station_id":"ce4bgjh2rcd13ifvqbg0","pricing_plan_id":"cebpf4jnsgd1na2vs0mg"},{"bike_id":"b1078aa1-07c9-43e0-baad-b05bfd4fd1d1","system_id":"levelo_inurba_marseille","lat":43.30529,"lon":5.36534,"is_reserved":false,"is_disabled":false,"rental_uris":{"android":"levelo://app?vid=b1078aa1-07c9-43e0-baad-b05bfd4fd1d1","ios":"levelo://app?vid=b1078aa1-07c9-43e0-baad-b05bfd4fd1d1"},"vehicle_type_id":"4","last_reported":1730729328,"current_range_meters":18000,"station_id":"ce4bgs12rcd13ifvqcag","pricing_plan_id":"cebpf4jnsgd1na2vs0mg"},