{"last_updated":1687882199,"ttl":30,"version":"2.2","data":{"bikes":[{"bike_id":"62c6c877-405a-4c9a-9063-f272a6326243","system_id":"levelo_inurba_marseille","lat":43.31222,"lon":5.368585,"is_reserved":false,"is_disabled":false,"rental_uris":{"android":"levelo://app?vid=62c6c877-405a-4c9a-9063-f272a6326243","ios":"levelo://app?vid=62c6c877-405a-4c9a-9063-f272a6326243"},"vehicle_type_id":"4","last_reported":1687882202,"current_range_meters":19200,"station_id":"","pricing_plan_id":"free"},{"bike_id":"3f8e85ec-37e9-4dd5-baa5-80597b826f73","system_id":"levelo_inurba_marseille","lat":43.31233,"lon":5.36876,"is_reserved":false,"is_disabled":false,"rental_uris":{"android":"levelo://app?vid=3f8e85ec-37e9-4dd5-baa5-80597b826f73","ios":"levelo://app?vid=3f8e85ec-37e9-4dd5-baa5-80597b826f73"},"vehicle_type_id":"4","last_reported":1687882202,"current_range_meters":18800,"station_id":"ce4bgl92rcd13ifvqbq0","pricing_plan_id":"free"},{"bike_id":"1c29efa2-2703-4872-9d97-7dcc2dc0c0a4","system_id":"levelo_inurba_marseille","lat":43.31229,"lon":5.36877,"is_reserved":false,"is_disabled":false,"rental_uris":{"android":"levelo://app?vid=1c29efa2-2703-4872-9d97-7dcc2dc0c0a4","ios":"levelo://app?vid=1c29efa2-2703-4872-9d97-7dcc2dc0c0a4"},"vehicle_type_id":"4","last_reported":1687882202,"current_range_meters":26800,"station_id":"ce4bgl92rcd13ifvqbq0","pricing_plan_id":"free"},{"bike_id":"74e0e4e6-1658-41ef-9968-e14bac6f47a7","system_id":"levelo_inurba_marseille","lat":43.31229,"lon":5.36882,"is_reserved":false,"is_disabled":false,"rental_uris":{"android":"levelo://app?vid=74e0e4e6-1658-41ef-9968-e14bac6f47a7","ios":"levelo://app?vid=74e0e4e6-1658-41ef-9968-e14bac6f47a7"},"vehicle_type_id":"4","last_reported":1687882202,"current_range_meters":13600,"station_id":"ce4bgl92rcd13ifvqbq0","pricing_plan_id":"free"},{"bike_id":"2152d5b8-5efd-40f8-8ae0-a9e7821b8162","system_id":"levelo_inurba_marseille","lat":43.31237,"lon":5.36888,"is_reserved":false,"is_disabled":false,"rental_uris":{"android":"levelo://app?vid=2152d5b8-5efd-40f8-8ae0-a9e7821b8162","ios":"levelo://app?vid=2152d5b8-5efd-40f8-8ae0-a9e7821b8162"},"vehicle_type_id":"4","last_reported":1687882202,"current_range_meters":29600,"station_id":"ce4bgl92rcd13ifvqbq0","pricing_plan_id":"free"},{"bike_id":"c9b70a45-abd3-40fa-bfd6-f83ad41f88aa","system_id":"levelo_inurba_marseille","lat":43.31234,"lon":5.36888,"is_reserved":false,"is_disabled":false,"rental_uris":{"android":"levelo://app?vid=c9b70a45-abd3-40fa-bfd6-f83ad41f88aa","ios":"levelo://app?vid=c9b70a45-abd3-40fa-bfd6-f83ad41f88aa"},"vehicle_type_id":"4","last_reported":1687882202,"current_range_meters":19600,"station_id":"ce4bgl92rcd13ifvqbq0","pricing_plan_id":"free"},{"bike_id":"72cf0a00-d7e6-4bee-b4be-78d3dd4add64","system_id":"levelo_inurba_marseille","lat":43.31239,"lon":5.3689,"is_reserved":false,"is_disabled":false,"rental_uris":{"android":"levelo://app?vid=72cf0a00-d7e6-4bee-b4be-78d3dd4add64","ios":"levelo://app?vid=72cf0a00-d7e6-4bee-b4be-78d3dd4add64"},"vehicle_type_id":"4","last_reported":1687882202,"current_range_meters":14000,"station_id":"","pricing_plan_id":"free"},{"bike_id":"4a5e5c67-be15-41f9-a109-c2266e6d9308","system_id":"levelo_inurba_marseille","lat":43.309076,"lon":5.368465,"is_reserved":false,"is_disabled":false,"rental_uris":{"android":"levelo://app?vid=4a5e5c67-be15-41f9-a109-c2266e6d9308","ios":"levelo://app?vid=4a5e5c67-be15-41f9-a109-c2266e6d9308"},"vehicle_type_id":"4","last_reported":1687882202,"current_range_meters":31200,"station_id":"ce4bgn92rcd13ifvqbvg","pricing_plan_id":"free"},{"bike_id":"d3ce5917-8c92-4163-b06b-16e0953f082c","system_id":"levelo_inurba_marseille","lat":43.309076,"lon":5.368465,"is_reserved":false,"is_disabled":false,"rental_uris":{"android":"levelo://app?vid=d3ce5917-8c92-4163-b06b-16e0953f082c","ios":"levelo://app?vid=d3ce5917-8c92-4163-b06b-16e0953f082c"},"vehicle_type_id":"4","last_reported":1687882202,"current_range_meters":31200,"station_id":"ce4bgn92rcd13ifvqbvg","pricing_plan_id":"free"},{"bike_id":"8b0ee3c4-0a20-42df-bece-fdf1a0d89cd4","system_id":"levelo_inurba_marseille","lat":43.309076,"lon":5.368465,"is_reserved":false,"is_disabled":false,"rental_uris":{"android":"levelo://app?vid=8b0ee3c4-0a20-42df-bece-fdf1a0d89cd4","ios":"levelo://app?vid=8b0ee3c4-0a20-42df-bece-fdf1a0d89cd4"},"vehicle_type_id":"4","last_reported":1687882202,"current_range_meters":31200,"station_id":"ce4bgn92rcd13ifvqbvg","pricing_plan_id":"free"},{"bike_id":"681c02b0-47ee-4822-abc0-eab962cc6138","system_id":"levelo_inurba_marseille","lat":43.30914,"lon":5.3686,"is_reserved":false,"is_disabled":false,"rental_uris":{"android":"levelo://app?vid=681c02b0-47ee-4822-abc0-eab962cc6138","ios":"levelo://app?vid=681c02b0-47ee-4822-abc0-eab962cc6138"},"vehicle_type_id":"4","last_reported":1687882202,"current_range_meters":26800,"station_id":"ce4bgn92rcd13ifvqbvg","pricing_plan_id":"free"},{"bike_id":"211dab25-581f-42fe-8854-4d47c0a02eab","system_id":"levelo_inurba_marseille","lat":43.309076,"lon":5.368465,"is_reserved":false,"is_disabled":false,"rental_uris":{"android":"levelo://app?vid=211dab25-581f-42fe-8854-4d47c0a02eab","ios":"levelo://app?vid=211dab25-581f-42fe-8854-4d47c0a02eab"},"vehicle_type_id":"4","last_reported":1687882202,"current_range_meters":31200,"station_id":"ce4bgn92rcd13ifvqbvg","pricing_plan_id":"free"},{"bike_id":"643765c6-387b-4325-a954-59814151142c","system_id":"levelo_inurba_marseille","lat":43.309076,"lon":5.368465,"is_reserved":false,"is_disabled":false,"rental_uris":{"android":"levelo://app?vid=643765c6-387b-4325-a954-59814151142c","ios":"levelo://app?vid=643765c6-387b-4325-a954-59814151142c"},"vehicle_type_id":"4","last_reported":1687882202,"current_range_meters":31200,"station_id":"ce4bgn92rcd13ifvqbvg","pricing_plan_id":"free"},{"bike_id":"a9b13579-8e58-41ca-9a7a-eb40c39f97eb","system_id":"levelo_inurba_marseille","lat":43.309076,"lon":5.368465,"is_reserved":false,"is_disabled":false,"rental_uris":{"android":"levelo://app?vid=a9b13579-8e58-41ca-9a7a-eb40c39f97eb","ios":"levelo://app?vid=a9b13579-8e58-41ca-9a7a-eb40c39f97eb"},"vehicle_type_id":"4","last_reported":1687882202,"current_range_meters":30800,"station_id":"ce4bgn92rcd13ifvqbvg","pricing_plan_id":"free"},{"bike_id":"37d2c0f3-6cf8-4279-bd5a-f1a294a9f419","system_id":"levelo_inurba_marseille","lat":43.30907,"lon":5.36859,"is_reserved":false,"is_disabled":false,"rental_uris":{"android":"levelo://app?vid=37d2c0f3-6cf8-4279-bd5a-f1a294a9f419","ios":"levelo://app?vid=37d2c0f3-6cf8-4279-bd5a-f1a294a9f419"},"vehicle_type_id":"4","last_reported":1687882202,"current_range_meters":25200,"station_id":"ce4bgn92rcd13ifvqbvg","pricing_plan_id":"free"},{"bike_id":"87d6c055-29ac-4ff7-b1f8-4e702c33f1b9","system_id":"levelo_inurba_marseille","lat":43.30904,"lon":5.36862,"is_reserved":false,"is_disabled":false,"rental_uris":{"android":"levelo://app?vid=87d6c055-29ac-4ff7-b1f8-4e702c33f1b9","ios":"levelo://app?vid=87d6c055-29ac-4ff7-b1f8-4e702c33f1b9"},"vehicle_type_id":"4","last_reported":1687882202,"current_range_meters":4800,"station_id":"ce4bgn92rcd13ifvqbvg","pricing_plan_id":"free"},{"bike_id":"953bc70b-cf31-4f4a-a32f-fb5c4f6d82fe","system_id":"levelo_inurba_marseille","lat":43.31561,"lon":5.37204,"is_reserved":false,"is_disabled":false,"rental_uris":{"android":"levelo://app?vid=953bc70b-cf31-4f4a-a32f-fb5c4f6d82fe","ios":"levelo://app?vid=953bc70b-cf31-4f4a-a32f-fb5c4f6d82fe"},"vehicle_type_id":"4","last_reported":1687882202,"current_range_meters":20000,"station_id":"","pricing_plan_id":"free"},{"bike_id":"947fcf84-c636-4007-8607-690fa191dc37","system_id":"levelo_inurba_marseille","lat":43.31418,"lon":5.37351,"is_reserved":false,"is_disabled":false,"rental_uris":{"android":"levelo://app?vid=947fcf84-c636-4007-8607-690fa191dc37","ios":"levelo://app?vid=947fcf84-c636-4007-8607-690fa191dc37"},"vehicle_type_id":"4","last_reported":1687882202,"current_range_meters":26400,"station_id":"","pricing_plan_id":"free"},{"bike_id":"05354642-bfda-4909-841f-26ebeaa0f2f6","system_id":"levelo_inurba_marseille","lat":43.314811,"lon":5.373104,"is_reserved":false,"is_disabled":false,"rental_uris":{"android":"levelo://app?vid=05354642-bfda-4909-841f-26ebeaa0f2f6","ios":"levelo://app?vid=05354642-bfda-4909-841f-26ebeaa0f2f6"},"vehicle_type_id":"4","last_reported":1687882202,"current_range_meters":26800,"station_id":"ce4bgt12rcd13ifvqcd0","pricing_plan_id":"free"},{"bike_id":"b251664b-ab63-4ee9-bc1a-0bf39f3acc03","system_id":"levelo_inurba_marseille","lat":43.308606,"lon":5.372099,"is_reserved":false,"is_disabled":false,"rental_uris":{"android":"levelo://app?vid=b251664b-ab63-4ee9-bc1a-0bf39f3acc03","ios":"levelo://app?vid=b251664b-ab63-4ee9-bc1a-0bf39f3acc03"},"vehicle_type_id":"4","last_reported":1687882202,"current_range_meters":27600,"station_id":"ce4bguh2rcd13ifvqckg","pricing_plan_id":"free"},{"bike_id":"bb5fe72b-09a4-4aa8-97b2-f70e9845ba09","system_id":"levelo_inurba_marseille","lat":43.305368,"lon":5.367343,"is_reserved":false,"is_disabled":false,"rental_uris":{"android":"levelo://app?vid=bb5fe72b-09a4-4aa8-97b2-f70e9845ba09","ios":"levelo://app?vid=bb5fe72b-09a4-4aa8-97b2-f70e9845ba09"},"vehicle_type_id":"4","last_reported":1687882202,"current_range_meters":19200,"station_id":"ce4bgrp2rcd13ifvqc9g","pricing_plan_id":"free"},{"bike_id":"63c9ed36-025d-4b31-ab22-32c0bf6062f7","system_id":"levelo_inurba_marseille","lat":43.311125,"lon":5.377624,"is_reserved":false,"is_disabled":false,"rental_uris":{"android":"levelo://app?vid=63c9ed36-025d-4b31-ab22-32c0bf6062f7","ios":"levelo://app?vid=63c9ed36-025d-4b31-ab22-32c0bf6062f7"},"vehicle_type_id":"4","last_reported":1687882202,"current_range_meters":0,"station_id":"ce4bgt92rcd13ifvqcg0","pricing_plan_id":"free"},{"bike_id":"9d2bcb7e-aaa9-4c7b-9ff2-c892a16e3a67","system_id":"levelo_inurba_marseille","lat":43.317075,"lon":5.377367,"is_reserved":false,"is_disabled":false,"rental_uris":{"android":"levelo://app?vid=9d2bcb7e-aaa9-4c7b-9ff2-c892a16e3a67","ios":"levelo://app?vid=9d2bcb7e-aaa9-4c7b-9ff2-c892a16e3a67"},"vehicle_type_id":"4","last_reported":1687882202,"current_range_meters":22800,"station_id":"ce4bgth2rcd13ifvqch0","pricing_plan_id":"free"},{"bike_id":"0a5a1e3d-7804-41b6-906b-efcebb6a3e23","system_id":"levelo_inurba_marseille","lat":43.31713,"lon":5.37754,"is_reserved":false,"is_disabled":false,"rental_uris":{"android":"levelo://app?vid=0a5a1e3d-7804-41b6-906b-efcebb6a3e23","ios":"levelo://app?vid=0a5a1e3d-7804-41b6-906b-efcebb6a3e23"},"vehicle_type_id":"4","last_reported":1687882202,"current_range_meters":6800,"station_id":"ce4bgth2rcd13ifvqch0","pricing_plan_id":"free"},{"bike_id":"417a2d52-d210-4c91-9e49-7834b2e9884e","system_id":"levelo_inurba_marseille","lat":43.3031,"lon":5.36903,"is_reserved":false,"is_disabled":false,"rental_uris":{"android":"levelo://app?vid=417a2d52-d210-4c91-9e49-7834b2e9884e","ios":"levelo://app?vid=417a2d52-d210-4c91-9e49-7834b2e9884e"},"vehicle_type_id":"4","last_reported":1687882202,"current_range_meters":13600,"station_id":"ce4bgqh2rcd13ifvqc5g","pricing_plan_id":"free"},{"bike_id":"2ee73c35-8e34-47b2-aa1a-19d62b370192","system_id":"levelo_inurba_marseille","lat":43.302,"lon":5.36622,"is_reserved":false,"is_disabled":false,"rental_uris":{"android":"levelo://app?vid=2ee73c35-8e34-47b2-aa1a-19d62b370192","ios":"levelo://app?vid=2ee73c35-8e34-47b2-aa1a-19d62b370192"},"vehicle_type_id":"4","last_reported":1687882202,"current_range_meters":20000,"station_id":"ce4bgrh2rcd13ifvqc8g","pricing_plan_id":"free"},{"bike_id":"e770f357-060f-446f-a012-03afaa347203","system_id":"levelo_inurba_marseille","lat":43.301663,"lon":5.366097,"is_reserved":false,"is_disabled":false,"rental_uris":{"android":"levelo://app?vid=e770f357-060f-446f-a012-03afaa347203","ios":"levelo://app?vid=e770f357-060f-446f-a012-03afaa347203"},"vehicle_type_id":"4","last_reported":1687882202,"current_range_meters":25200,"station_id":"ce4bgrh2rcd13ifvqc8g","pricing_plan_id":"free"},{"bike_id":"aebf74db-cb5e-42d1-9371-ef88b092523c","system_id":"levelo_inurba_marseille","lat":43.308012,"lon":5.381511,"is_reserved":false,"is_disabled":false,"rental_uris":{"android":"levelo://app?vid=aebf74db-cb5e-42d1-9371-ef88b092523c","ios":"levelo://app?vid=aebf74db-cb5e-42d1-9371-ef88b092523c"},"vehicle_type_id":"4","last_reported":1687882202,"current_range_meters":31200,"station_id":"ce4bgt12rcd13ifvqce0","pricing_plan_id":"free"},{"bike_id":"58417191-6cb1-4558-a295-7ebf0eb96cc3","system_id":"levelo_inurba_marseille","lat":43.304606,"lon":5.379026,"is_reserved":false,"is_disabled":false,"rental_uris":{"android":"levelo://app?vid=58417191-6cb1-4558-a295-7ebf0eb96cc3","ios":"levelo://app?vid=58417191-6cb1-4558-a295-7ebf0eb96cc3"},"vehicle_type_id":"4","last_reported":1687882202,"current_range_meters":14000,"station_id":"ce4bgup2rcd13ifvqcn0","pricing_plan_id":"free"},{"bike_id":"9a99453c-d325-45d8-b4b2-803d8015eacb","system_id":"levelo_inurba_marseille","lat":43.302784,"lon":5.377158,"is_reserved":false,"is_disabled":false,"rental_uris":{"android":"levelo://app?vid=9a99453c-d325-45d8-b4b2-803d8015eacb","ios":"levelo://app?vid=9a99453c-d325-45d8-b4b2-803d8015eacb"},"vehicle_type_id":"4","last_reported":1687882202,"current_range_meters":28800,"station_id":"ce4bguh2rcd13ifvqcj0","pricing_plan_id":"free"},{"bike_id":"ff2674b5-8725-4878-b5d3-488c50f2698c","system_id":"levelo_inurba_marseille","lat":43.319935,"lon":5.381699,"is_reserved":false,"is_disabled":false,"rental_uris":{"android":"levelo://app?vid=ff2674b5-8725-4878-b5d3-488c50f2698c","ios":"levelo://app?vid=ff2674b5-8725-4878-b5d3-488c50f2698c"},"vehicle_type_id":"4","last_reported":1687882202,"current_range_meters":18000,"station_id":"ce4bhr12rcd13ifvqhpg","pricing_plan_id":"free"},{"bike_id":"65ccc38d-8cad-4743-9a48-6ebd369b3197","system_id":"levelo_inurba_marseille","lat":43.29858,"lon":5.36303,"is_reserved":false,"is_disabled":false,"rental_uris":{"android":"levelo://app?vid=65ccc38d-8cad-4743-9a48-6ebd369b3197","ios":"levelo://app?vid=65ccc38d-8cad-4743-9a48-6ebd369b3197"},"vehicle_type_id":"4","last_reported":1687882202,"current_range_meters":7200,"station_id":"ce4bgpp2rcd13ifvqc3g","pricing_plan_id":"free"},{"bike_id":"d3adc6d4-e3f6-4851-8000-2355b12147a6","system_id":"levelo_inurba_marseille","lat":43.29856,"lon":5.36288,"is_reserved":false,"is_disabled":false,"rental_uris":{"android":"levelo://app?vid=d3adc6d4-e3f6-4851-8000-2355b12147a6","ios":"levelo://app?vid=d3adc6d4-e3f6-4851-8000-2355b12147a6"},"vehicle_type_id":"4","last_reported":1687882202,"current_range_meters":27600,"station_id":"ce4bgpp2rcd13ifvqc3g","pricing_plan_id":"free"},{"bike_id":"64396404-cfb3-4a55-9260-aa37143df741","system_id":"levelo_inurba_marseille","lat":43.29852,"lon":5.36287,"is_reserved":false,"is_disabled":false,"rental_uris":{"android":"levelo://app?vid=64396404-cfb3-4a55-9260-aa37143df741","ios":"levelo://app?vid=64396404-cfb3-4a55-9260-aa37143df741"},"vehicle_type_id":"4","last_reported":1687882202,"current_range_meters":20400,"station_id":"ce4bgpp2rcd13ifvqc3g","pricing_plan_id":"free"},{"bike_id":"e71b7906-42df-4e87-9f38-1638630136dd","system_id":"levelo_inurba_marseille","lat":43.298433,"lon":5.362774,"is_reserved":false,"is_disabled":false,"rental_uris":{"android":"levelo://app?vid=e71b7906-42df-4e87-9f38-1638630136dd","ios":"levelo://app?vid=e71b7906-42df-4e87-9f38-1638630136dd"},"vehicle_type_id":"4","last_reported":1687882202,"current_range_meters":30000,"station_id":"ce4bgpp2rcd13ifvqc3g","pricing_plan_id":"free"},{"bike_id":"9afbdd57-3242-4f65-a54b-61c21d5f7902","system_id":"levelo_inurba_marseille","lat":43.298433,"lon":5.362774,"is_reserved":false,"is_disabled":false,"rental_uris":{"android":"levelo://app?vid=9afbdd57-3242-4f65-a54b-61c21d5f7902","ios":"levelo://app?vid=9afbdd57-3242-4f65-a54b-61c21d5f7902"},"vehicle_type_id":"4","last_reported":1687882202,"current_range_meters":17600,"station_id":"ce4bgpp2rcd13ifvqc3g","pricing_plan_id":"free"},{"bike_id":"eb8aa32a-63a2-4033-a015-47ebabcdf5a3","system_id":"levelo_inurba_marseille","lat":43.298433,"lon":5.362774,"is_reserved":false,"is_disabled":false,"rental_uris":{"android":"levelo://app?vid=eb8aa32a-63a2-4033-a015-47ebabcdf5a3","ios":"levelo://app?vid=eb8aa32a-63a2-4033-a015-47ebabcdf5a3"},"vehicle_type_id":"4","last_reported":1687882202,"current_range_meters":31600,"station_id":"ce4bgpp2rcd13ifvqc3g","pricing_plan_id":"free"},{"bike_id":"66faa134-3aa8-4c86-bbc6-3c4e47dbd16d","system_id":"levelo_inurba_marseille","lat":43.298433,"lon":5.362774,"is_reserved":false,"is_disabled":false,"rental_uris":{"android":"levelo://app?vid=66faa134-3aa8-4c86-bbc6-3c4e47dbd16d","ios":"levelo://app?vid=66faa134-3aa8-4c86-bbc6-3c4e47dbd16d"},"vehicle_type_id":"4","last_reported":1687882202,"current_range_meters":14400,"station_id":"ce4bgpp2rcd13ifvqc3g","pricing_plan_id":"free"},{"bike_id":"65eb1ef8-fb5f-40aa-909d-0ee50484bf02","system_id":"levelo_inurba_marseille","lat":43.298433,"lon":5.362774,"is_reserved":false,"is_disabled":false,"rental_uris":{"android":"levelo://app?vid=65eb1ef8-fb5f-40aa-909d-0ee50484bf02","ios":"levelo://app?vid=65eb1ef8-fb5f-40aa-909d-0ee50484bf02"},"vehicle_type_id":"4","last_reported":1687882202,"current_range_meters":32000,"station_id":"ce4bgpp2rcd13ifvqc3g","pricing_plan_id":"free"},{"bike_id":"68b76d3d-8fa5-4600-8136-2b0bb8bef278","system_id":"levelo_inurba_marseille","lat":43.298433,"lon":5.362774,"is_reserved":false,"is_disabled":false,"rental_uris":{"android":"levelo://app?vid=68b76d3d-8fa5-4600-8136-2b0bb8bef278","ios":"levelo://app?vid=68b76d3d-8fa5-4600-8136-2b0bb8bef278"},"vehicle_type_id":"4","last_reported":1687882202,"current_range_meters":31600,"station_id":"ce4bgpp2rcd13ifvqc3g","pricing_plan_id":"free"},{"bike_id":"3a79b807-4307-4536-9af6-e9f93905b5da","system_id":"levelo_inurba_marseille","lat":43.29918,"lon":5.37456,"is_reserved":false,"is_disabled":false,"rental_uris":{"android":"levelo://app?vid=3a79b807-4307-4536-9af6-e9f93905b5da","ios":"levelo://app?vid=3a79b807-4307-4536-9af6-e9f93905b5da"},"vehicle_type_id":"4","last_reported":1687882202,"current_range_meters":12000,"station_id":"ce4bgjh2rcd13ifvqbg0","pricing_plan_id":"free"},{"bike_id":"6d77277b-9213-4ae0-9be5-aeb44c0154b7","system_id":"levelo_inurba_marseille","lat":43.298433,"lon":5.362774,"is_reserved":false,"is_disabled":false,"rental_uris":{"android":"levelo://app?vid=6d77277b-9213-4ae0-9be5-aeb44c0154b7","ios":"levelo://app?vid=6d77277b-9213-4ae0-9be5-aeb44c0154b7"},"vehicle_type_id":"4","last_reported":1687882202,"current_range_meters":2400,"station_id":"ce4bgpp2rcd13ifvqc3g","pricing_plan_id":"free"},{"bike_id":"3e719455-5131-4a60-a3d7-dd6f9f0745c1","system_id":"levelo_inurba_marseille","lat":43.298433,"lon":5.362774,"is_reserved":false,"is_disabled":false,"rental_uris":{"android":"levelo://app?vid=3e719455-5131-4a60-a3d7-dd6f9f0745c1","ios":"levelo://app?vid=3e719455-5131-4a60-a3d7-dd6f9f0745c1"},"vehicle_type_id":"4","last_reported":1687882202,"current_range_meters":6000,"station_id":"ce4bgpp2rcd13ifvqc3g","pricing_plan_id":"free"},{"bike_id":"e6a57fd7-004c-436f-8b40-afd1039f2aa0","system_id":"levelo_inurba_marseille","lat":43.311722,"lon":5.387247,"is_reserved":false,"is_disabled":false,"rental_uris":{"android":"levelo://app?vid=e6a57fd7-004c-436f-8b40-afd1039f2aa0","ios":"levelo://app?vid=e6a57fd7-004c-436f-8b40-afd1039f2aa0"},"vehicle_type_id":"4","last_reported":1687882202,"current_range_meters":28800,"station_id":"ce4bgv12rcd13ifvqcp0","pricing_plan_id":"free"},{"bike_id":"e0eedb54-2360-4ea4-ae29-831cf7a8cc98","system_id":"levelo_inurba_marseille","lat":43.297794,"lon":5.370888,"is_reserved":false,"is_disabled":false,"rental_uris":{"android":"levelo://app?vid=e0eedb54-2360-4ea4-ae29-831cf7a8cc98","ios":"levelo://app?vid=e0eedb54-2360-4ea4-ae29-831cf7a8cc98"},"vehicle_type_id":"4","last_reported":1687882202,"current_range_meters":5600,"station_id":"ce4bgop2rcd13ifvqc1g","pricing_plan_id":"free"},{"bike_id":"4795882f-4abb-47f6-80c9-b293ac2678a1","system_id":"levelo_inurba_marseille","lat":43.29963,"lon":5.37815,"is_reserved":false,"is_disabled":false,"rental_uris":{"android":"levelo://app?vid=4795882f-4abb-47f6-80c9-b293ac2678a1","ios":"levelo://app?vid=4795882f-4abb-47f6-80c9-b293ac2678a1"},"vehicle_type_id":"4","last_reported":1687882202,"current_range_meters":22400,"station_id":"","pricing_plan_id":"free"},{"bike_id":"a8537d49-534e-49b1-8ad8-f46da1b5ef6b","system_id":"levelo_inurba_marseille","lat":43.328371,"lon":5.366909,"is_reserved":false,"is_disabled":false,"rental_uris":{"android":"levelo://app?vid=a8537d49-534e-49b1-8ad8-f46da1b5ef6b","ios":"levelo://app?vid=a8537d49-534e-49b1-8ad8-f46da1b5ef6b"},"vehicle_type_id":"4","last_reported":1687882202,"current_range_meters":20400,"station_id":"ce4bhs92rcd13ifvqi0g","pricing_plan_id":"free"},{"bike_id":"5108659d-1431-4d89-a11a-e27336cba391","system_id":"levelo_inurba_marseille","lat":43.328371,"lon":5.366909,"is_reserved":false,"is_disabled":false,"rental_uris":{"android":"levelo://app?vid=5108659d-1431-4d89-a11a-e27336cba391","ios":"levelo://app?vid=5108659d-1431-4d89-a11a-e27336cba391"},"vehicle_type_id":"4","last_reported":1687882202,"current_range_meters":21200,"station_id":"ce4bhs92rcd13ifvqi0g","pricing_plan_id":"free"},{"bike_id":"c0ba4054-03d2-4233-93b4-0461723bc0b5","system_id":"levelo_inurba_marseille","lat":43.328371,"lon":5.366909,"is_reserved":false,"is_disabled":false,"rental_uris":{"android":"levelo://app?vid=c0ba4054-03d2-4233-93b4-0461723bc0b5","ios":"levelo://app?vid=c0ba4054-03d2-4233-93b4-0461723bc0b5"},"vehicle_type_id":"4","last_reported":1687882202,"current_range_meters":24000,"station_id":"ce4bhs92rcd13ifvqi0g","pricing_plan_id":"free"},{"bike_id":"4ad0820a-b4f0-4687-9297-85e68595ea74","system_id":"levelo_inurba_marseille","lat":43.3284,"lon":5.36688,"is_reserved":false,"is_disabled":false,"rental_uris":{"android":"levelo://app?vid=4ad0820a-b4f0-4687-9297-85e68595ea74","ios":"levelo://app?vid=4ad0820a-b4f0-4687-9297-85e68595ea74"},"vehicle_type_id":"4","last_reported":1687882202,"current_range_meters":20800,"station_id":"ce4bhs92rcd13ifvqi0g","pricing_plan_id":"free"},{"bike_id":"8de52fe0-fc3d-47c2-bfb6-e77d10d2a43b","system_id":"levelo_inurba_marseille","lat":43.297163,"lon":5.365866,"is_reserved":false,"is_disabled":false,"rental_uris":{"android":"levelo://app?vid=8de52fe0-fc3d-47c2-bfb6-e77d10d2a43b","ios":"levelo://app?vid=8de52fe0-fc3d-47c2-bfb6-e77d10d2a43b"},"vehicle_type_id":"4","last_reported":1687882202,"current_range_meters":11200,"station_id":"ce4bgn12rcd13ifvqbt0","pricing_plan_id":"free"},{"bike_id":"8d98417a-cbe4-4269-8bc9-598373a7d5de","system_id":"levelo_inurba_marseille","lat":43.32874,"lon":5.36302,"is_reserved":false,"is_disabled":false,"rental_uris":{"android":"levelo://app?vid=8d98417a-cbe4-4269-8bc9-598373a7d5de","ios":"levelo://app?vid=8d98417a-cbe4-4269-8bc9-598373a7d5de"},"vehicle_type_id":"4","last_reported":1687882202,"current_range_meters":7200,"station_id":"","pricing_plan_id":"free"},{"bike_id":"b2fade94-5970-4d79-add1-cca15394c4f2","system_id":"levelo_inurba_marseille","lat":43.2968,"lon":5.37291,"is_reserved":false,"is_disabled":false,"rental_uris":{"android":"levelo://app?vid=b2fade94-5970-4d79-add1-cca15394c4f2","ios":"levelo://app?vid=b2fade94-5970-4d79-add1-cca15394c4f2"},"vehicle_type_id":"4","last_reported":1687882202,"current_range_meters":29600,"station_id":"ce4bgk12rcd13ifvqbj0","pricing_plan_id":"free"},{"bike_id":"89b479e4-419e-4068-a6ae-9d8d6da3c6a9","system_id":"levelo_inurba_marseille","lat":43.296129,"lon":5.370777,"is_reserved":false,"is_disabled":false,"rental_uris":{"android":"levelo://app?vid=89b479e4-419e-4068-a6ae-9d8d6da3c6a9","ios":"levelo://app?vid=89b479e4-419e-4068-a6ae-9d8d6da3c6a9"},"vehicle_type_id":"4","last_reported":1687882202,"current_range_meters":15200,"station_id":"ce4bgnh2rcd13ifvqc0g","pricing_plan_id":"free"},{"bike_id":"881edcbd-210c-440f-8a21-cca3fb589b09","system_id":"levelo_inurba_marseille","lat":43.296131,"lon":5.370773,"is_reserved":false,"is_disabled":false,"rental_uris":{"android":"levelo://app?vid=881edcbd-210c-440f-8a21-cca3fb589b09","ios":"levelo://app?vid=881edcbd-210c-440f-8a21-cca3fb589b09"},"vehicle_type_id":"4","last_reported":1687882202,"current_range_meters":12800,"station_id":"ce4bgnh2rcd13ifvqc0g","pricing_plan_id":"free"},{"bike_id":"82a4a9db-b288-4056-a6b4-3b8dcf45843b","system_id":"levelo_inurba_marseille","lat":43.296921,"lon":5.376579,"is_reserved":false,"is_disabled":false,"rental_uris":{"android":"levelo://app?vid=82a4a9db-b288-4056-a6b4-3b8dcf45843b","ios":"levelo://app?vid=82a4a9db-b288-4056-a6b4-3b8dcf45843b"},"vehicle_type_id":"4","last_reported":1687882202,"current_range_meters":0,"station_id":"ce4bgkh2rcd13ifvqbl0","pricing_plan_id":"free"},{"bike_id":"12a0a542-e476-4e5f-b32f-57556e21bd2b","system_id":"levelo_inurba_marseille","lat":43.296921,"lon":5.376579,"is_reserved":false,"is_disabled":false,"rental_uris":{"android":"levelo://app?vid=12a0a542-e476-4e5f-b32f-57556e21bd2b","ios":"levelo://app?vid=12a0a542-e476-4e5f-b32f-57556e21bd2b"},"vehicle_type_id":"4","last_reported":1687882202,"current_range_meters":2400,"station_id":"ce4bgkh2rcd13ifvqbl0","pricing_plan_id":"free"},{"bike_id":"2baffbfe-7d26-4109-b9f8-025868f5bf57","system_id":"levelo_inurba_marseille","lat":43.31747,"lon":5.39015,"is_reserved":false,"is_disabled":false,"rental_uris":{"android":"levelo://app?vid=2baffbfe-7d26-4109-b9f8-025868f5bf57","ios":"levelo://app?vid=2baffbfe-7d26-4109-b9f8-025868f5bf57"},"vehicle_type_id":"4","last_reported":1687882202,"current_range_meters":14800,"station_id":"ce4bhqp2rcd13ifvqhng","pricing_plan_id":"free"},{"bike_id":"a91c097f-6f84-4ef0-9777-0e290c47da61","system_id":"levelo_inurba_marseille","lat":43.317557,"lon":5.390173,"is_reserved":false,"is_disabled":false,"rental_uris":{"android":"levelo://app?vid=a91c097f-6f84-4ef0-9777-0e290c47da61","ios":"levelo://app?vid=a91c097f-6f84-4ef0-9777-0e290c47da61"},"vehicle_type_id":"4","last_reported":1687882202,"current_range_meters":22800,"station_id":"ce4bhqp2rcd13ifvqhng","pricing_plan_id":"free"},{"bike_id":"c29211db-0376-4b5b-89a7-6f3440e7034e","system_id":"levelo_inurba_marseille","lat":43.317557,"lon":5.390173,"is_reserved":false,"is_disabled":false,"rental_uris":{"android":"levelo://app?vid=c29211db-0376-4b5b-89a7-6f3440e7034e","ios":"levelo://app?vid=c29211db-0376-4b5b-89a7-6f3440e7034e"},"vehicle_type_id":"4","last_reported":1687882202,"current_range_meters":28800,"station_id":"ce4bhqp2rcd13ifvqhng","pricing_plan_id":"free"},{"bike_id":"686f6eec-d3d4-47e8-94af-9dabe4f59a3a","system_id":"levelo_inurba_marseille","lat":43.298058,"lon":5.380964,"is_reserved":false,"is_disabled":false,"rental_uris":{"android":"levelo://app?vid=686f6eec-d3d4-47e8-94af-9dabe4f59a3a","ios":"levelo://app?vid=686f6eec-d3d4-47e8-94af-9dabe4f59a3a"},"vehicle_type_id":"4","last_reported":1687882202,"current_range_meters":1600,"station_id":"ce4bgip2rcd13ifvqbb0","pricing_plan_id":"free"},{"bike_id":"a3acfae7-93d7-4d7e-96c7-63b019f07709","system_id":"levelo_inurba_marseille","lat":43.30433,"lon":5.38898,"is_reserved":false,"is_disabled":false,"rental_uris":{"android":"levelo://app?vid=a3acfae7-93d7-4d7e-96c7-63b019f07709","ios":"levelo://app?vid=a3acfae7-93d7-4d7e-96c7-63b019f07709"},"vehicle_type_id":"4","last_reported":1687882202,"current_range_meters":22800,"station_id":"ce4bgk12rcd13ifvqbi0","pricing_plan_id":"free"},{"bike_id":"9a7813b1-5ceb-4159-b58a-f24e417fbbcc","system_id":"levelo_inurba_marseille","lat":43.29512,"lon":5.3751,"is_reserved":false,"is_disabled":false,"rental_uris":{"android":"levelo://app?vid=9a7813b1-5ceb-4159-b58a-f24e417fbbcc","ios":"levelo://app?vid=9a7813b1-5ceb-4159-b58a-f24e417fbbcc"},"vehicle_type_id":"4","last_reported":1687882202,"current_range_meters":27200,"station_id":"ce4bgkp2rcd13ifvqbmg","pricing_plan_id":"free"},{"bike_id":"8bc05d9c-64a9-42a7-b375-dd82b089d867","system_id":"levelo_inurba_marseille","lat":43.32359,"lon":5.38874,"is_reserved":false,"is_disabled":false,"rental_uris":{"android":"levelo://app?vid=8bc05d9c-64a9-42a7-b375-dd82b089d867","ios":"levelo://app?vid=8bc05d9c-64a9-42a7-b375-dd82b089d867"},"vehicle_type_id":"4","last_reported":1687882202,"current_range_meters":22000,"station_id":"ce4bhqp2rcd13ifvqhog","pricing_plan_id":"free"},{"bike_id":"800f3d47-66bf-488d-a165-a5a88406d6e7","system_id":"levelo_inurba_marseille","lat":43.32366,"lon":5.38879,"is_reserved":false,"is_disabled":false,"rental_uris":{"android":"levelo://app?vid=800f3d47-66bf-488d-a165-a5a88406d6e7","ios":"levelo://app?vid=800f3d47-66bf-488d-a165-a5a88406d6e7"},"vehicle_type_id":"4","last_reported":1687882202,"current_range_meters":12000,"station_id":"","pricing_plan_id":"free"},{"bike_id":"85e7b6b7-d8a7-476d-a9f3-928ca2139af3","system_id":"levelo_inurba_marseille","lat":43.293249,"lon":5.371578,"is_reserved":false,"is_disabled":false,"rental_uris":{"android":"levelo://app?vid=85e7b6b7-d8a7-476d-a9f3-928ca2139af3","ios":"levelo://app?vid=85e7b6b7-d8a7-476d-a9f3-928ca2139af3"},"vehicle_type_id":"4","last_reported":1687882202,"current_range_meters":30800,"station_id":"ce4bgh92rcd13ifvqb40","pricing_plan_id":"free"},{"bike_id":"f2862b2c-e1e9-4e80-b992-02ca2f0e61b6","system_id":"levelo_inurba_marseille","lat":43.292749,"lon":5.368402,"is_reserved":false,"is_disabled":false,"rental_uris":{"android":"levelo://app?vid=f2862b2c-e1e9-4e80-b992-02ca2f0e61b6","ios":"levelo://app?vid=f2862b2c-e1e9-4e80-b992-02ca2f0e61b6"},"vehicle_type_id":"4","last_reported":1687882202,"current_range_meters":21200,"station_id":"ce4bhbp2rcd13ifvqesg","pricing_plan_id":"free"},{"bike_id":"150a5b1a-7824-4dec-a17f-97ca6e2755ba","system_id":"levelo_inurba_marseille","lat":43.32326,"lon":5.39058,"is_reserved":false,"is_disabled":false,"rental_uris":{"android":"levelo://app?vid=150a5b1a-7824-4dec-a17f-97ca6e2755ba","ios":"levelo://app?vid=150a5b1a-7824-4dec-a17f-97ca6e2755ba"},"vehicle_type_id":"4","last_reported":1687882202,"current_range_meters":7600,"station_id":"","pricing_plan_id":"free"},{"bike_id":"ea112b7a-e24d-46a9-8219-409699f9f1c2","system_id":"levelo_inurba_marseille","lat":43.29299,"lon":5.37457,"is_reserved":false,"is_disabled":false,"rental_uris":{"android":"levelo://app?vid=ea112b7a-e24d-46a9-8219-409699f9f1c2","ios":"levelo://app?vid=ea112b7a-e24d-46a9-8219-409699f9f1c2"},"vehicle_type_id":"4","last_reported":1687882202,"current_range_meters":0,"station_id":"ce4bgi12rcd13ifvqb70","pricing_plan_id":"free"},{"bike_id":"c7bb894c-8275-4c9d-ad9a-1b8deeeccf82","system_id":"levelo_inurba_marseille","lat":43.300852,"lon":5.390859,"is_reserved":false,"is_disabled":false,"rental_uris":{"android":"levelo://app?vid=c7bb894c-8275-4c9d-ad9a-1b8deeeccf82","ios":"levelo://app?vid=c7bb894c-8275-4c9d-ad9a-1b8deeeccf82"},"vehicle_type_id":"4","last_reported":1687882202,"current_range_meters":30400,"station_id":"ce4bh192rcd13ifvqdb0","pricing_plan_id":"free"},{"bike_id":"a4dda460-8605-4892-9751-fb2640e268b6","system_id":"levelo_inurba_marseille","lat":43.29214,"lon":5.36055,"is_reserved":false,"is_disabled":false,"rental_uris":{"android":"levelo://app?vid=a4dda460-8605-4892-9751-fb2640e268b6","ios":"levelo://app?vid=a4dda460-8605-4892-9751-fb2640e268b6"},"vehicle_type_id":"4","last_reported":1687882202,"current_range_meters":22400,"station_id":"","pricing_plan_id":"free"},{"bike_id":"4b8171f7-f474-485f-9ab5-0cf12e8241af","system_id":"levelo_inurba_marseille","lat":43.298764,"lon":5.388973,"is_reserved":false,"is_disabled":false,"rental_uris":{"android":"levelo://app?vid=4b8171f7-f474-485f-9ab5-0cf12e8241af","ios":"levelo://app?vid=4b8171f7-f474-485f-9ab5-0cf12e8241af"},"vehicle_type_id":"4","last_reported":1687882202,"current_range_meters":14000,"station_id":"ce4bh392rcd13ifvqdl0","pricing_plan_id":"free"},{"bike_id":"ce6c6fb8-382c-4382-8442-1440126fb704","system_id":"levelo_inurba_marseille","lat":43.298764,"lon":5.388973,"is_reserved":false,"is_disabled":false,"rental_uris":{"android":"levelo://app?vid=ce6c6fb8-382c-4382-8442-1440126fb704","ios":"levelo://app?vid=ce6c6fb8-382c-4382-8442-1440126fb704"},"vehicle_type_id":"4","last_reported":1687882202,"current_range_meters":16000,"station_id":"ce4bh392rcd13ifvqdl0","pricing_plan_id":"free"},{"bike_id":"b137f2c3-d04b-4f64-8c4b-93728f2387e5","system_id":"levelo_inurba_marseille","lat":43.298764,"lon":5.388973,"is_reserved":false,"is_disabled":false,"rental_uris":{"android":"levelo://app?vid=b137f2c3-d04b-4f64-8c4b-93728f2387e5","ios":"levelo://app?vid=b137f2c3-d04b-4f64-8c4b-93728f2387e5"},"vehicle_type_id":"4","last_reported":1687882202,"current_range_meters":18000,"station_id":"ce4bh392rcd13ifvqdl0","pricing_plan_id":"free"},{"bike_id":"f57b1e90-9ef8-452f-8cb5-4243f68b3694","system_id":"levelo_inurba_marseille","lat":43.291675,"lon":5.371583,"is_reserved":false,"is_disabled":false,"rental_uris":{"android":"levelo://app?vid=f57b1e90-9ef8-452f-8cb5-4243f68b3694","ios":"levelo://app?vid=f57b1e90-9ef8-452f-8cb5-4243f68b3694"},"vehicle_type_id":"4","last_reported":1687882202,"current_range_meters":14000,"station_id":"ce4bha92rcd13ifvqeh0","pricing_plan_id":"free"},{"bike_id":"c72f4a63-bf2b-445c-8162-f036eb029c6f","system_id":"levelo_inurba_marseille","lat":43.294162,"lon":5.386292,"is_reserved":false,"is_disabled":false,"rental_uris":{"android":"levelo://app?vid=c72f4a63-bf2b-445c-8162-f036eb029c6f","ios":"levelo://app?vid=c72f4a63-bf2b-445c-8162-f036eb029c6f"},"vehicle_type_id":"4","last_reported":1687882202,"current_range_meters":16400,"station_id":"ce4bh2h2rcd13ifvqdh0","pricing_plan_id":"free"},{"bike_id":"44095e62-dfdf-4f38-a3eb-cdf1dc516263","system_id":"levelo_inurba_marseille","lat":43.291994,"lon":5.357886,"is_reserved":false,"is_disabled":false,"rental_uris":{"android":"levelo://app?vid=44095e62-dfdf-4f38-a3eb-cdf1dc516263","ios":"levelo://app?vid=44095e62-dfdf-4f38-a3eb-cdf1dc516263"},"vehicle_type_id":"4","last_reported":1687882202,"current_range_meters":31200,"station_id":"ce4bhb12rcd13ifvqel0","pricing_plan_id":"free"},{"bike_id":"628bd21c-a88b-49c9-9cf6-b97cd7243f3f","system_id":"levelo_inurba_marseille","lat":43.29529,"lon":5.385581,"is_reserved":false,"is_disabled":false,"rental_uris":{"android":"levelo://app?vid=628bd21c-a88b-49c9-9cf6-b97cd7243f3f","ios":"levelo://app?vid=628bd21c-a88b-49c9-9cf6-b97cd7243f3f"},"vehicle_type_id":"4","last_reported":1687882202,"current_range_meters":13600,"station_id":"ce4bgih2rcd13ifvqba0","pricing_plan_id":"free"},{"bike_id":"8a46445e-da52-449f-8dd8-c27db9643567","system_id":"levelo_inurba_marseille","lat":43.29529,"lon":5.385581,"is_reserved":false,"is_disabled":false,"rental_uris":{"android":"levelo://app?vid=8a46445e-da52-449f-8dd8-c27db9643567","ios":"levelo://app?vid=8a46445e-da52-449f-8dd8-c27db9643567"},"vehicle_type_id":"4","last_reported":1687882202,"current_range_meters":21200,"station_id":"ce4bgih2rcd13ifvqba0","pricing_plan_id":"free"},{"bike_id":"2e6b019f-627f-445f-aaa1-aed69f271867","system_id":"levelo_inurba_marseille","lat":43.29529,"lon":5.385581,"is_reserved":false,"is_disabled":false,"rental_uris":{"android":"levelo://app?vid=2e6b019f-627f-445f-aaa1-aed69f271867","ios":"levelo://app?vid=2e6b019f-627f-445f-aaa1-aed69f271867"},"vehicle_type_id":"4","last_reported":1687882202,"current_range_meters":22800,"station_id":"ce4bgih2rcd13ifvqba0","pricing_plan_id":"free"},{"bike_id":"7d6a9cd2-ed5f-477a-81c9-4e262861c862","system_id":"levelo_inurba_marseille","lat":43.309038,"lon":5.396546,"is_reserved":false,"is_disabled":false,"rental_uris":{"android":"levelo://app?vid=7d6a9cd2-ed5f-477a-81c9-4e262861c862","ios":"levelo://app?vid=7d6a9cd2-ed5f-477a-81c9-4e262861c862"},"vehicle_type_id":"4","last_reported":1687882202,"current_range_meters":14800,"station_id":"ce4bh012rcd13ifvqcv0","pricing_plan_id":"free"},{"bike_id":"38d3af94-feba-4859-ba89-0e88d8594ad5","system_id":"levelo_inurba_marseille","lat":43.29537,"lon":5.38544,"is_reserved":false,"is_disabled":false,"rental_uris":{"android":"levelo://app?vid=38d3af94-feba-4859-ba89-0e88d8594ad5","ios":"levelo://app?vid=38d3af94-feba-4859-ba89-0e88d8594ad5"},"vehicle_type_id":"4","last_reported":1687882202,"current_range_meters":31200,"station_id":"ce4bgih2rcd13ifvqba0","pricing_plan_id":"free"},{"bike_id":"a061c22f-12e5-4e97-827f-bf09a45ce4ec","system_id":"levelo_inurba_marseille","lat":43.29529,"lon":5.385581,"is_reserved":false,"is_disabled":false,"rental_uris":{"android":"levelo://app?vid=a061c22f-12e5-4e97-827f-bf09a45ce4ec","ios":"levelo://app?vid=a061c22f-12e5-4e97-827f-bf09a45ce4ec"},"vehicle_type_id":"4","last_reported":1687882202,"current_range_meters":21200,"station_id":"ce4bgih2rcd13ifvqba0","pricing_plan_id":"free"},{"bike_id":"1c732586-a990-461f-99bc-d57cd421cff9","system_id":"levelo_inurba_marseille","lat":43.29535,"lon":5.38545,"is_reserved":false,"is_disabled":false,"rental_uris":{"android":"levelo://app?vid=1c732586-a990-461f-99bc-d57cd421cff9","ios":"levelo://app?vid=1c732586-a990-461f-99bc-d57cd421cff9"},"vehicle_type_id":"4","last_reported":1687882202,"current_range_meters":12000,"station_id":"ce4bgih2rcd13ifvqba0","pricing_plan_id":"free"},{"bike_id":"fd6de859-b7c2-4881-8796-e996ffc390ce","system_id":"levelo_inurba_marseille","lat":43.29533,"lon":5.38548,"is_reserved":false,"is_disabled":false,"rental_uris":{"android":"levelo://app?vid=fd6de859-b7c2-4881-8796-e996ffc390ce","ios":"levelo://app?vid=fd6de859-b7c2-4881-8796-e996ffc390ce"},"vehicle_type_id":"4","last_reported":1687882202,"current_range_meters":25600,"station_id":"ce4bgih2rcd13ifvqba0","pricing_plan_id":"free"},{"bike_id":"11658ded-5ef6-4342-90b2-37e988019311","system_id":"levelo_inurba_marseille","lat":43.29533,"lon":5.3855,"is_reserved":false,"is_disabled":false,"rental_uris":{"android":"levelo://app?vid=11658ded-5ef6-4342-90b2-37e988019311","ios":"levelo://app?vid=11658ded-5ef6-4342-90b2-37e988019311"},"vehicle_type_id":"4","last_reported":1687882202,"current_range_meters":12000,"station_id":"ce4bgih2rcd13ifvqba0","pricing_plan_id":"free"},{"bike_id":"24d4c044-80f0-45b4-9c8f-5ba3ff6d5843","system_id":"levelo_inurba_marseille","lat":43.302008,"lon":5.394694,"is_reserved":false,"is_disabled":false,"rental_uris":{"android":"levelo://app?vid=24d4c044-80f0-45b4-9c8f-5ba3ff6d5843","ios":"levelo://app?vid=24d4c044-80f0-45b4-9c8f-5ba3ff6d5843"},"vehicle_type_id":"4","last_reported":1687882202,"current_range_meters":15200,"station_id":"ce4bh0p2rcd13ifvqd70","pricing_plan_id":"free"},{"bike_id":"21e394b7-495a-45ac-9701-f851d3516a87","system_id":"levelo_inurba_marseille","lat":43.302008,"lon":5.394694,"is_reserved":false,"is_disabled":false,"rental_uris":{"android":"levelo://app?vid=21e394b7-495a-45ac-9701-f851d3516a87","ios":"levelo://app?vid=21e394b7-495a-45ac-9701-f851d3516a87"},"vehicle_type_id":"4","last_reported":1687882202,"current_range_meters":26800,"station_id":"ce4bh0p2rcd13ifvqd70","pricing_plan_id":"free"},{"bike_id":"c7384207-a022-465b-8f86-13c47b1eea0a","system_id":"levelo_inurba_marseille","lat":43.29055,"lon":5.3591,"is_reserved":false,"is_disabled":false,"rental_uris":{"android":"levelo://app?vid=c7384207-a022-465b-8f86-13c47b1eea0a","ios":"levelo://app?vid=c7384207-a022-465b-8f86-13c47b1eea0a"},"vehicle_type_id":"4","last_reported":1687882202,"current_range_meters":14400,"station_id":"ce4bha92rcd13ifvqeg0","pricing_plan_id":"free"},{"bike_id":"99ac8dfc-fbe4-436e-a79d-e3a939273ae2","system_id":"levelo_inurba_marseille","lat":43.29044,"lon":5.35918,"is_reserved":false,"is_disabled":false,"rental_uris":{"android":"levelo://app?vid=99ac8dfc-fbe4-436e-a79d-e3a939273ae2","ios":"levelo://app?vid=99ac8dfc-fbe4-436e-a79d-e3a939273ae2"},"vehicle_type_id":"4","last_reported":1687882202,"current_range_meters":27600,"station_id":"ce4bha92rcd13ifvqeg0","pricing_plan_id":"free"},{"bike_id":"1ce0a91a-e0c9-4602-a9a2-bf482c9d75a2","system_id":"levelo_inurba_marseille","lat":43.29043,"lon":5.35921,"is_reserved":false,"is_disabled":false,"rental_uris":{"android":"levelo://app?vid=1ce0a91a-e0c9-4602-a9a2-bf482c9d75a2","ios":"levelo://app?vid=1ce0a91a-e0c9-4602-a9a2-bf482c9d75a2"},"vehicle_type_id":"4","last_reported":1687882202,"current_range_meters":16800,"station_id":"ce4bha92rcd13ifvqeg0","pricing_plan_id":"free"},{"bike_id":"dc9df13d-8447-4eed-b516-2b39fb77ccd4","system_id":"levelo_inurba_marseille","lat":43.290624,"lon":5.359245,"is_reserved":false,"is_disabled":false,"rental_uris":{"android":"levelo://app?vid=dc9df13d-8447-4eed-b516-2b39fb77ccd4","ios":"levelo://app?vid=dc9df13d-8447-4eed-b516-2b39fb77ccd4"},"vehicle_type_id":"4","last_reported":1687882202,"current_range_meters":7600,"station_id":"ce4bha92rcd13ifvqeg0","pricing_plan_id":"free"},{"bike_id":"2b9838e4-5357-4f46-a1ac-810055a5016b","system_id":"levelo_inurba_marseille","lat":43.294153,"lon":5.386305,"is_reserved":false,"is_disabled":false,"rental_uris":{"android":"levelo://app?vid=2b9838e4-5357-4f46-a1ac-810055a5016b","ios":"levelo://app?vid=2b9838e4-5357-4f46-a1ac-810055a5016b"},"vehicle_type_id":"4","last_reported":1687882202,"current_range_meters":21600,"station_id":"ce4bh2h2rcd13ifvqdh0","pricing_plan_id":"free"},{"bike_id":"ae4e65e6-95b1-4902-8ccc-f3d3cec7c7a3","system_id":"levelo_inurba_marseille","lat":43.29421,"lon":5.3862,"is_reserved":false,"is_disabled":false,"rental_uris":{"android":"levelo://app?vid=ae4e65e6-95b1-4902-8ccc-f3d3cec7c7a3","ios":"levelo://app?vid=ae4e65e6-95b1-4902-8ccc-f3d3cec7c7a3"},"vehicle_type_id":"4","last_reported":1687882202,"current_range_meters":22400,"station_id":"ce4bh2h2rcd13ifvqdh0","pricing_plan_id":"free"},{"bike_id":"845d81b9-b3c8-44cf-a897-0c401999b283","system_id":"levelo_inurba_marseille","lat":43.2942,"lon":5.38621,"is_reserved":false,"is_disabled":false,"rental_uris":{"android":"levelo://app?vid=845d81b9-b3c8-44cf-a897-0c401999b283","ios":"levelo://app?vid=845d81b9-b3c8-44cf-a897-0c401999b283"},"vehicle_type_id":"4","last_reported":1687882202,"current_range_meters":5600,"station_id":"ce4bh2h2rcd13ifvqdh0","pricing_plan_id":"free"},{"bike_id":"6867df42-30dd-4825-b7fe-404564247748","system_id":"levelo_inurba_marseille","lat":43.294174,"lon":5.386231,"is_reserved":false,"is_disabled":false,"rental_uris":{"android":"levelo://app?vid=6867df42-30dd-4825-b7fe-404564247748","ios":"levelo://app?vid=6867df42-30dd-4825-b7fe-404564247748"},"vehicle_type_id":"4","last_reported":1687882202,"current_range_meters":14000,"station_id":"","pricing_plan_id":"free"},{"bike_id":"aef02d35-58dc-4784-9823-bb859fc906ef","system_id":"levelo_inurba_marseille","lat":43.29422,"lon":5.38632,"is_reserved":false,"is_disabled":false,"rental_uris":{"android":"levelo://app?vid=aef02d35-58dc-4784-9823-bb859fc906ef","ios":"levelo://app?vid=aef02d35-58dc-4784-9823-bb859fc906ef"},"vehicle_type_id":"4","last_reported":1687882202,"current_range_meters":11200,"station_id":"ce4bh2h2rcd13ifvqdh0","pricing_plan_id":"free"},{"bike_id":"399ef6b6-bd49-40a3-a085-0dfa050cfb9f","system_id":"levelo_inurba_marseille","lat":43.29411,"lon":5.38614,"is_reserved":false,"is_disabled":false,"rental_uris":{"android":"levelo://app?vid=399ef6b6-bd49-40a3-a085-0dfa050cfb9f","ios":"levelo://app?vid=399ef6b6-bd49-40a3-a085-0dfa050cfb9f"},"vehicle_type_id":"4","last_reported":1687882202,"current_range_meters":7200,"station_id":"","pricing_plan_id":"free"},{"bike_id":"da23b53f-6190-4f5f-b5d7-d3de1ab6e294","system_id":"levelo_inurba_marseille","lat":43.289184,"lon":5.366408,"is_reserved":false,"is_disabled":false,"rental_uris":{"android":"levelo://app?vid=da23b53f-6190-4f5f-b5d7-d3de1ab6e294","ios":"levelo://app?vid=da23b53f-6190-4f5f-b5d7-d3de1ab6e294"},"vehicle_type_id":"4","last_reported":1687882202,"current_range_meters":1600,"station_id":"ce4bhap2rcd13ifvqek0","pricing_plan_id":"free"},{"bike_id":"66d25b50-08bf-424d-a9f1-030bd0019616","system_id":"levelo_inurba_marseille","lat":43.289468,"lon":5.363719,"is_reserved":false,"is_disabled":false,"rental_uris":{"android":"levelo://app?vid=66d25b50-08bf-424d-a9f1-030bd0019616","ios":"levelo://app?vid=66d25b50-08bf-424d-a9f1-030bd0019616"},"vehicle_type_id":"4","last_reported":1687882202,"current_range_meters":28800,"station_id":"ce4bhc92rcd13ifvqetg","pricing_plan_id":"free"},{"bike_id":"13eb15e1-c3b4-495b-a486-48cf3ca77d58","system_id":"levelo_inurba_marseille","lat":43.289468,"lon":5.363719,"is_reserved":false,"is_disabled":false,"rental_uris":{"android":"levelo://app?vid=13eb15e1-c3b4-495b-a486-48cf3ca77d58","ios":"levelo://app?vid=13eb15e1-c3b4-495b-a486-48cf3ca77d58"},"vehicle_type_id":"4","last_reported":1687882202,"current_range_meters":4800,"station_id":"ce4bhc92rcd13ifvqetg","pricing_plan_id":"free"},{"bike_id":"c71e7bdd-1b32-4f7d-a21e-e3ca28a191fe","system_id":"levelo_inurba_marseille","lat":43.28909,"lon":5.36672,"is_reserved":false,"is_disabled":false,"rental_uris":{"android":"levelo://app?vid=c71e7bdd-1b32-4f7d-a21e-e3ca28a191fe","ios":"levelo://app?vid=c71e7bdd-1b32-4f7d-a21e-e3ca28a191fe"},"vehicle_type_id":"4","last_reported":1687882202,"current_range_meters":10000,"station_id":"","pricing_plan_id":"free"},{"bike_id":"ba14439e-3f4c-4152-9949-6f99437ec6f1","system_id":"levelo_inurba_marseille","lat":43.30293,"lon":5.39698,"is_reserved":false,"is_disabled":false,"rental_uris":{"android":"levelo://app?vid=ba14439e-3f4c-4152-9949-6f99437ec6f1","ios":"levelo://app?vid=ba14439e-3f4c-4152-9949-6f99437ec6f1"},"vehicle_type_id":"4","last_reported":1687882202,"current_range_meters":4000,"station_id":"ce4bh092rcd13ifvqd20","pricing_plan_id":"free"},{"bike_id":"a25d64ab-950b-434c-b88b-3d4e99d56b5c","system_id":"levelo_inurba_marseille","lat":43.33046,"lon":5.3892,"is_reserved":false,"is_disabled":false,"rental_uris":{"android":"levelo://app?vid=a25d64ab-950b-434c-b88b-3d4e99d56b5c","ios":"levelo://app?vid=a25d64ab-950b-434c-b88b-3d4e99d56b5c"},"vehicle_type_id":"4","last_reported":1687882202,"current_range_meters":26800,"station_id":"ce4bhr92rcd13ifvqhrg","pricing_plan_id":"free"},{"bike_id":"4214d56d-9d6c-4b0b-aced-bf51aaa23489","system_id":"levelo_inurba_marseille","lat":43.33052,"lon":5.38914,"is_reserved":false,"is_disabled":false,"rental_uris":{"android":"levelo://app?vid=4214d56d-9d6c-4b0b-aced-bf51aaa23489","ios":"levelo://app?vid=4214d56d-9d6c-4b0b-aced-bf51aaa23489"},"vehicle_type_id":"4","last_reported":1687882202,"current_range_meters":25600,"station_id":"ce4bhr92rcd13ifvqhrg","pricing_plan_id":"free"},{"bike_id":"7e604a9e-c6e0-4b17-94a5-0b1aa4860100","system_id":"levelo_inurba_marseille","lat":43.28999,"lon":5.35618,"is_reserved":false,"is_disabled":false,"rental_uris":{"android":"levelo://app?vid=7e604a9e-c6e0-4b17-94a5-0b1aa4860100","ios":"levelo://app?vid=7e604a9e-c6e0-4b17-94a5-0b1aa4860100"},"vehicle_type_id":"4","last_reported":1687882202,"current_range_meters":20000,"station_id":"ce4bhb92rcd13ifvqen0","pricing_plan_id":"free"},{"bike_id":"83bfb7f9-7e39-457f-9166-6ecf71321acb","system_id":"levelo_inurba_marseille","lat":43.289743,"lon":5.378304,"is_reserved":false,"is_disabled":false,"rental_uris":{"android":"levelo://app?vid=83bfb7f9-7e39-457f-9166-6ecf71321acb","ios":"levelo://app?vid=83bfb7f9-7e39-457f-9166-6ecf71321acb"},"vehicle_type_id":"4","last_reported":1687882202,"current_range_meters":17200,"station_id":"ce4bh9p2rcd13ifvqed0","pricing_plan_id":"free"},{"bike_id":"48aedfa0-5033-41ee-8e66-d8c58307929a","system_id":"levelo_inurba_marseille","lat":43.297815,"lon":5.393548,"is_reserved":false,"is_disabled":false,"rental_uris":{"android":"levelo://app?vid=48aedfa0-5033-41ee-8e66-d8c58307929a","ios":"levelo://app?vid=48aedfa0-5033-41ee-8e66-d8c58307929a"},"vehicle_type_id":"4","last_reported":1687882202,"current_range_meters":19200,"station_id":"chh1huq6cuj3fo74tm60","pricing_plan_id":"free"},{"bike_id":"bb6b6474-df86-409f-898f-0aee19d81afe","system_id":"levelo_inurba_marseille","lat":43.28856,"lon":5.358371,"is_reserved":false,"is_disabled":false,"rental_uris":{"android":"levelo://app?vid=bb6b6474-df86-409f-898f-0aee19d81afe","ios":"levelo://app?vid=bb6b6474-df86-409f-898f-0aee19d81afe"},"vehicle_type_id":"4","last_reported":1687882202,"current_range_meters":7200,"station_id":"ce4bhb12rcd13ifvqem0","pricing_plan_id":"free"},{"bike_id":"b152602a-aaa7-4eed-93ba-89050d9c58ba","system_id":"levelo_inurba_marseille","lat":43.3067,"lon":5.40078,"is_reserved":false,"is_disabled":false,"rental_uris":{"android":"levelo://app?vid=b152602a-aaa7-4eed-93ba-89050d9c58ba","ios":"levelo://app?vid=b152602a-aaa7-4eed-93ba-89050d9c58ba"},"vehicle_type_id":"4","last_reported":1687882202,"current_range_meters":26800,"station_id":"","pricing_plan_id":"free"},{"bike_id":"5af38245-b6ae-4473-8471-889fe765b165","system_id":"levelo_inurba_marseille","lat":43.30642,"lon":5.401031,"is_reserved":false,"is_disabled":false,"rental_uris":{"android":"levelo://app?vid=5af38245-b6ae-4473-8471-889fe765b165","ios":"levelo://app?vid=5af38245-b6ae-4473-8471-889fe765b165"},"vehicle_type_id":"4","last_reported":1687882202,"current_range_meters":6800,"station_id":"ce4bh112rcd13ifvqda0","pricing_plan_id":"free"},{"bike_id":"a79a602c-8306-4935-afbb-988c1d8a1cb2","system_id":"levelo_inurba_marseille","lat":43.306412,"lon":5.401035,"is_reserved":false,"is_disabled":false,"rental_uris":{"android":"levelo://app?vid=a79a602c-8306-4935-afbb-988c1d8a1cb2","ios":"levelo://app?vid=a79a602c-8306-4935-afbb-988c1d8a1cb2"},"vehicle_type_id":"4","last_reported":1687882202,"current_range_meters":22400,"station_id":"ce4bh112rcd13ifvqda0","pricing_plan_id":"free"},{"bike_id":"e9ac3d20-7387-4396-8632-3a4b6040e8e9","system_id":"levelo_inurba_marseille","lat":43.30648,"lon":5.401,"is_reserved":false,"is_disabled":false,"rental_uris":{"android":"levelo://app?vid=e9ac3d20-7387-4396-8632-3a4b6040e8e9","ios":"levelo://app?vid=e9ac3d20-7387-4396-8632-3a4b6040e8e9"},"vehicle_type_id":"4","last_reported":1687882202,"current_range_meters":11600,"station_id":"ce4bh112rcd13ifvqda0","pricing_plan_id":"free"},{"bike_id":"11f20658-d645-4992-8062-ad3d911fbe80","system_id":"levelo_inurba_marseille","lat":43.286591,"lon":5.363346,"is_reserved":false,"is_disabled":false,"rental_uris":{"android":"levelo://app?vid=11f20658-d645-4992-8062-ad3d911fbe80","ios":"levelo://app?vid=11f20658-d645-4992-8062-ad3d911fbe80"},"vehicle_type_id":"4","last_reported":1687882202,"current_range_meters":19600,"station_id":"ce4bhah2rcd13ifvqej0","pricing_plan_id":"free"},{"bike_id":"52ac06a3-8061-489b-95ca-b03580a9c9c3","system_id":"levelo_inurba_marseille","lat":43.286593,"lon":5.363346,"is_reserved":false,"is_disabled":false,"rental_uris":{"android":"levelo://app?vid=52ac06a3-8061-489b-95ca-b03580a9c9c3","ios":"levelo://app?vid=52ac06a3-8061-489b-95ca-b03580a9c9c3"},"vehicle_type_id":"4","last_reported":1687882202,"current_range_meters":21200,"station_id":"ce4bhah2rcd13ifvqej0","pricing_plan_id":"free"},{"bike_id":"3de1f068-fc53-4fce-bbe5-be88deb5630a","system_id":"levelo_inurba_marseille","lat":43.286961,"lon":5.373785,"is_reserved":false,"is_disabled":false,"rental_uris":{"android":"levelo://app?vid=3de1f068-fc53-4fce-bbe5-be88deb5630a","ios":"levelo://app?vid=3de1f068-fc53-4fce-bbe5-be88deb5630a"},"vehicle_type_id":"4","last_reported":1687882202,"current_range_meters":5600,"station_id":"ce4bh3p2rcd13ifvqdq0","pricing_plan_id":"free"},{"bike_id":"16784f42-63a6-4e21-999f-24c632868152","system_id":"levelo_inurba_marseille","lat":43.28664,"lon":5.36351,"is_reserved":false,"is_disabled":false,"rental_uris":{"android":"levelo://app?vid=16784f42-63a6-4e21-999f-24c632868152","ios":"levelo://app?vid=16784f42-63a6-4e21-999f-24c632868152"},"vehicle_type_id":"4","last_reported":1687882202,"current_range_meters":16800,"station_id":"ce4bhah2rcd13ifvqej0","pricing_plan_id":"free"},{"bike_id":"20b4e1ab-3b91-4fea-b4f7-280c312541e5","system_id":"levelo_inurba_marseille","lat":43.298681,"lon":5.397225,"is_reserved":false,"is_disabled":false,"rental_uris":{"android":"levelo://app?vid=20b4e1ab-3b91-4fea-b4f7-280c312541e5","ios":"levelo://app?vid=20b4e1ab-3b91-4fea-b4f7-280c312541e5"},"vehicle_type_id":"4","last_reported":1687882202,"current_range_meters":6000,"station_id":"ce4bh0h2rcd13ifvqd50","pricing_plan_id":"free"},{"bike_id":"a314622d-a2db-4610-9965-c3fd58dcf1b3","system_id":"levelo_inurba_marseille","lat":43.298681,"lon":5.397225,"is_reserved":false,"is_disabled":false,"rental_uris":{"android":"levelo://app?vid=a314622d-a2db-4610-9965-c3fd58dcf1b3","ios":"levelo://app?vid=a314622d-a2db-4610-9965-c3fd58dcf1b3"},"vehicle_type_id":"4","last_reported":1687882202,"current_range_meters":20400,"station_id":"ce4bh0h2rcd13ifvqd50","pricing_plan_id":"free"},{"bike_id":"ea52c7bb-b9c5-43ed-b6f4-9408b03bbe15","system_id":"levelo_inurba_marseille","lat":43.295194,"lon":5.39397,"is_reserved":false,"is_disabled":false,"rental_uris":{"android":"levelo://app?vid=ea52c7bb-b9c5-43ed-b6f4-9408b03bbe15","ios":"levelo://app?vid=ea52c7bb-b9c5-43ed-b6f4-9408b03bbe15"},"vehicle_type_id":"4","last_reported":1687882202,"current_range_meters":0,"station_id":"ce4bh292rcd13ifvqdf0","pricing_plan_id":"free"},{"bike_id":"6cd951f9-4dfe-41a3-b7ec-9cb801e22d5b","system_id":"levelo_inurba_marseille","lat":43.29526,"lon":5.39406,"is_reserved":false,"is_disabled":false,"rental_uris":{"android":"levelo://app?vid=6cd951f9-4dfe-41a3-b7ec-9cb801e22d5b","ios":"levelo://app?vid=6cd951f9-4dfe-41a3-b7ec-9cb801e22d5b"},"vehicle_type_id":"4","last_reported":1687882202,"current_range_meters":28000,"station_id":"ce4bh292rcd13ifvqdf0","pricing_plan_id":"free"},{"bike_id":"7055ca7a-cb71-4b3f-aa10-da27730e3f53","system_id":"levelo_inurba_marseille","lat":43.295194,"lon":5.39397,"is_reserved":false,"is_disabled":false,"rental_uris":{"android":"levelo://app?vid=7055ca7a-cb71-4b3f-aa10-da27730e3f53","ios":"levelo://app?vid=7055ca7a-cb71-4b3f-aa10-da27730e3f53"},"vehicle_type_id":"4","last_reported":1687882202,"current_range_meters":13200,"station_id":"ce4bh292rcd13ifvqdf0","pricing_plan_id":"free"},{"bike_id":"21cd2404-10e8-4f6f-ab37-90c29a8ece84","system_id":"levelo_inurba_marseille","lat":43.302759,"lon":5.400793,"is_reserved":false,"is_disabled":false,"rental_uris":{"android":"levelo://app?vid=21cd2404-10e8-4f6f-ab37-90c29a8ece84","ios":"levelo://app?vid=21cd2404-10e8-4f6f-ab37-90c29a8ece84"},"vehicle_type_id":"4","last_reported":1687882202,"current_range_meters":1600,"station_id":"ce4bgvh2rcd13ifvqcs0","pricing_plan_id":"free"},{"bike_id":"3ee766c0-f0a9-474c-923d-1d2a19a962e8","system_id":"levelo_inurba_marseille","lat":43.302759,"lon":5.400793,"is_reserved":false,"is_disabled":false,"rental_uris":{"android":"levelo://app?vid=3ee766c0-f0a9-474c-923d-1d2a19a962e8","ios":"levelo://app?vid=3ee766c0-f0a9-474c-923d-1d2a19a962e8"},"vehicle_type_id":"4","last_reported":1687882202,"current_range_meters":28400,"station_id":"ce4bgvh2rcd13ifvqcs0","pricing_plan_id":"free"},{"bike_id":"5b506658-92ea-4f70-a1d5-c6a7e8e1a353","system_id":"levelo_inurba_marseille","lat":43.30259,"lon":5.40072,"is_reserved":false,"is_disabled":false,"rental_uris":{"android":"levelo://app?vid=5b506658-92ea-4f70-a1d5-c6a7e8e1a353","ios":"levelo://app?vid=5b506658-92ea-4f70-a1d5-c6a7e8e1a353"},"vehicle_type_id":"4","last_reported":1687882202,"current_range_meters":26400,"station_id":"ce4bgvh2rcd13ifvqcs0","pricing_plan_id":"free"},{"bike_id":"2dc682f6-7462-4442-ae81-64143ae2ab03","system_id":"levelo_inurba_marseille","lat":43.302759,"lon":5.400793,"is_reserved":false,"is_disabled":false,"rental_uris":{"android":"levelo://app?vid=2dc682f6-7462-4442-ae81-64143ae2ab03","ios":"levelo://app?vid=2dc682f6-7462-4442-ae81-64143ae2ab03"},"vehicle_type_id":"4","last_reported":1687882202,"current_range_meters":11200,"station_id":"ce4bgvh2rcd13ifvqcs0","pricing_plan_id":"free"},{"bike_id":"babb65a8-2e35-4c3d-8de2-c69ae6c3cf5b","system_id":"levelo_inurba_marseille","lat":43.28621,"lon":5.37062,"is_reserved":false,"is_disabled":false,"rental_uris":{"android":"levelo://app?vid=babb65a8-2e35-4c3d-8de2-c69ae6c3cf5b","ios":"levelo://app?vid=babb65a8-2e35-4c3d-8de2-c69ae6c3cf5b"},"vehicle_type_id":"4","last_reported":1687882202,"current_range_meters":0,"station_id":"ce4bht12rcd13ifvqi60","pricing_plan_id":"free"},{"bike_id":"524fe432-f480-4a5d-917e-957ca87f6043","system_id":"levelo_inurba_marseille","lat":43.28618,"lon":5.37065,"is_reserved":false,"is_disabled":false,"rental_uris":{"android":"levelo://app?vid=524fe432-f480-4a5d-917e-957ca87f6043","ios":"levelo://app?vid=524fe432-f480-4a5d-917e-957ca87f6043"},"vehicle_type_id":"4","last_reported":1687882202,"current_range_meters":3600,"station_id":"ce4bht12rcd13ifvqi60","pricing_plan_id":"free"},{"bike_id":"58bf6b23-2505-4b35-bd86-8324a86a09fe","system_id":"levelo_inurba_marseille","lat":43.28618,"lon":5.3707,"is_reserved":false,"is_disabled":false,"rental_uris":{"android":"levelo://app?vid=58bf6b23-2505-4b35-bd86-8324a86a09fe","ios":"levelo://app?vid=58bf6b23-2505-4b35-bd86-8324a86a09fe"},"vehicle_type_id":"4","last_reported":1687882202,"current_range_meters":30400,"station_id":"ce4bht12rcd13ifvqi60","pricing_plan_id":"free"},{"bike_id":"efa8d892-c15e-4fda-8426-489254cabd9e","system_id":"levelo_inurba_marseille","lat":43.28613,"lon":5.37057,"is_reserved":false,"is_disabled":false,"rental_uris":{"android":"levelo://app?vid=efa8d892-c15e-4fda-8426-489254cabd9e","ios":"levelo://app?vid=efa8d892-c15e-4fda-8426-489254cabd9e"},"vehicle_type_id":"4","last_reported":1687882202,"current_range_meters":28400,"station_id":"ce4bht12rcd13ifvqi60","pricing_plan_id":"free"},{"bike_id":"f40a6c82-a37d-4a74-8009-8a15c47a52f0","system_id":"levelo_inurba_marseille","lat":43.28614,"lon":5.37072,"is_reserved":false,"is_disabled":false,"rental_uris":{"android":"levelo://app?vid=f40a6c82-a37d-4a74-8009-8a15c47a52f0","ios":"levelo://app?vid=f40a6c82-a37d-4a74-8009-8a15c47a52f0"},"vehicle_type_id":"4","last_reported":1687882202,"current_range_meters":1600,"station_id":"ce4bht12rcd13ifvqi60","pricing_plan_id":"free"},{"bike_id":"576633da-83b6-4a74-a17f-81403a54db03","system_id":"levelo_inurba_marseille","lat":43.28612,"lon":5.37067,"is_reserved":false,"is_disabled":false,"rental_uris":{"android":"levelo://app?vid=576633da-83b6-4a74-a17f-81403a54db03","ios":"levelo://app?vid=576633da-83b6-4a74-a17f-81403a54db03"},"vehicle_type_id":"4","last_reported":1687882202,"current_range_meters":13200,"station_id":"ce4bht12rcd13ifvqi60","pricing_plan_id":"free"},{"bike_id":"a923f3c7-29d2-46e7-b33a-af42f3910463","system_id":"levelo_inurba_marseille","lat":43.28612,"lon":5.3707,"is_reserved":false,"is_disabled":false,"rental_uris":{"android":"levelo://app?vid=a923f3c7-29d2-46e7-b33a-af42f3910463","ios":"levelo://app?vid=a923f3c7-29d2-46e7-b33a-af42f3910463"},"vehicle_type_id":"4","last_reported":1687882202,"current_range_meters":6400,"station_id":"ce4bht12rcd13ifvqi60","pricing_plan_id":"free"},{"bike_id":"8918271b-0352-4d8b-a641-0b18b8a31dcd","system_id":"levelo_inurba_marseille","lat":43.28611,"lon":5.37074,"is_reserved":false,"is_disabled":false,"rental_uris":{"android":"levelo://app?vid=8918271b-0352-4d8b-a641-0b18b8a31dcd","ios":"levelo://app?vid=8918271b-0352-4d8b-a641-0b18b8a31dcd"},"vehicle_type_id":"4","last_reported":1687882202,"current_range_meters":14400,"station_id":"ce4bht12rcd13ifvqi60","pricing_plan_id":"free"},{"bike_id":"f7e975db-7a88-42fb-ac2d-a4c7f87f1039","system_id":"levelo_inurba_marseille","lat":43.31612,"lon":5.40406,"is_reserved":false,"is_disabled":false,"rental_uris":{"android":"levelo://app?vid=f7e975db-7a88-42fb-ac2d-a4c7f87f1039","ios":"levelo://app?vid=f7e975db-7a88-42fb-ac2d-a4c7f87f1039"},"vehicle_type_id":"4","last_reported":1687882202,"current_range_meters":14800,"station_id":"ce4bh012rcd13ifvqd00","pricing_plan_id":"free"},{"bike_id":"47943c21-edf0-448f-b827-2f1e3acd2056","system_id":"levelo_inurba_marseille","lat":43.31649,"lon":5.40437,"is_reserved":false,"is_disabled":false,"rental_uris":{"android":"levelo://app?vid=47943c21-edf0-448f-b827-2f1e3acd2056","ios":"levelo://app?vid=47943c21-edf0-448f-b827-2f1e3acd2056"},"vehicle_type_id":"4","last_reported":1687882202,"current_range_meters":0,"station_id":"","pricing_plan_id":"free"},{"bike_id":"ef4ae60f-9d1c-4ea5-bf18-df75905fa7ae","system_id":"levelo_inurba_marseille","lat":43.31652,"lon":5.40437,"is_reserved":false,"is_disabled":false,"rental_uris":{"android":"levelo://app?vid=ef4ae60f-9d1c-4ea5-bf18-df75905fa7ae","ios":"levelo://app?vid=ef4ae60f-9d1c-4ea5-bf18-df75905fa7ae"},"vehicle_type_id":"4","last_reported":1687882202,"current_range_meters":15600,"station_id":"","pricing_plan_id":"free"},{"bike_id":"d69fed3a-efe9-46fb-b1dc-1240b8978d3e","system_id":"levelo_inurba_marseille","lat":43.316517,"lon":5.404375,"is_reserved":false,"is_disabled":false,"rental_uris":{"android":"levelo://app?vid=d69fed3a-efe9-46fb-b1dc-1240b8978d3e","ios":"levelo://app?vid=d69fed3a-efe9-46fb-b1dc-1240b8978d3e"},"vehicle_type_id":"4","last_reported":1687882202,"current_range_meters":30000,"station_id":"ce4bh012rcd13ifvqd00","pricing_plan_id":"free"},{"bike_id":"f35e0aa5-8ad5-429a-863d-400c3a8e5332","system_id":"levelo_inurba_marseille","lat":43.29199,"lon":5.39313,"is_reserved":false,"is_disabled":false,"rental_uris":{"android":"levelo://app?vid=f35e0aa5-8ad5-429a-863d-400c3a8e5332","ios":"levelo://app?vid=f35e0aa5-8ad5-429a-863d-400c3a8e5332"},"vehicle_type_id":"4","last_reported":1687882202,"current_range_meters":17200,"station_id":"ce4bh192rcd13ifvqdd0","pricing_plan_id":"free"},{"bike_id":"33c944a8-0a96-4ccc-95a2-78d6978114df","system_id":"levelo_inurba_marseille","lat":43.284534,"lon":5.358662,"is_reserved":false,"is_disabled":false,"rental_uris":{"android":"levelo://app?vid=33c944a8-0a96-4ccc-95a2-78d6978114df","ios":"levelo://app?vid=33c944a8-0a96-4ccc-95a2-78d6978114df"},"vehicle_type_id":"4","last_reported":1687882202,"current_range_meters":0,"station_id":"ce4bhah2rcd13ifvqei0","pricing_plan_id":"free"},{"bike_id":"d5de21bc-63df-473c-8af8-68370cff30ce","system_id":"levelo_inurba_marseille","lat":43.284534,"lon":5.358662,"is_reserved":false,"is_disabled":false,"rental_uris":{"android":"levelo://app?vid=d5de21bc-63df-473c-8af8-68370cff30ce","ios":"levelo://app?vid=d5de21bc-63df-473c-8af8-68370cff30ce"},"vehicle_type_id":"4","last_reported":1687882202,"current_range_meters":4400,"station_id":"ce4bhah2rcd13ifvqei0","pricing_plan_id":"free"},{"bike_id":"5d2dfbc6-92e6-49e3-aa2a-968a6b886fd0","system_id":"levelo_inurba_marseille","lat":43.284534,"lon":5.358662,"is_reserved":false,"is_disabled":false,"rental_uris":{"android":"levelo://app?vid=5d2dfbc6-92e6-49e3-aa2a-968a6b886fd0","ios":"levelo://app?vid=5d2dfbc6-92e6-49e3-aa2a-968a6b886fd0"},"vehicle_type_id":"4","last_reported":1687882202,"current_range_meters":0,"station_id":"ce4bhah2rcd13ifvqei0","pricing_plan_id":"free"},{"bike_id":"f73c3814-7c8c-4ac1-9d87-94303a0da7b5","system_id":"levelo_inurba_marseille","lat":43.284534,"lon":5.358662,"is_reserved":false,"is_disabled":false,"rental_uris":{"android":"levelo://app?vid=f73c3814-7c8c-4ac1-9d87-94303a0da7b5","ios":"levelo://app?vid=f73c3814-7c8c-4ac1-9d87-94303a0da7b5"},"vehicle_type_id":"4","last_reported":1687882202,"current_range_meters":16000,"station_id":"ce4bhah2rcd13ifvqei0","pricing_plan_id":"free"},{"bike_id":"bd82db9e-754e-422a-b897-bbd434a889e2","system_id":"levelo_inurba_marseille","lat":43.28626,"lon":5.35097,"is_reserved":false,"is_disabled":false,"rental_uris":{"android":"levelo://app?vid=bd82db9e-754e-422a-b897-bbd434a889e2","ios":"levelo://app?vid=bd82db9e-754e-422a-b897-bbd434a889e2"},"vehicle_type_id":"4","last_reported":1687882202,"current_range_meters":23200,"station_id":"ce4bhch2rcd13ifvqeug","pricing_plan_id":"free"},{"bike_id":"01b1e4e0-6429-4cf2-a865-433e1dfae1de","system_id":"levelo_inurba_marseille","lat":43.285856,"lon":5.350771,"is_reserved":false,"is_disabled":false,"rental_uris":{"android":"levelo://app?vid=01b1e4e0-6429-4cf2-a865-433e1dfae1de","ios":"levelo://app?vid=01b1e4e0-6429-4cf2-a865-433e1dfae1de"},"vehicle_type_id":"4","last_reported":1687882202,"current_range_meters":30800,"station_id":"ce4bhch2rcd13ifvqeug","pricing_plan_id":"free"},{"bike_id":"551031f4-398a-4fd0-92f0-22e37bd11805","system_id":"levelo_inurba_marseille","lat":43.285856,"lon":5.350771,"is_reserved":false,"is_disabled":false,"rental_uris":{"android":"levelo://app?vid=551031f4-398a-4fd0-92f0-22e37bd11805","ios":"levelo://app?vid=551031f4-398a-4fd0-92f0-22e37bd11805"},"vehicle_type_id":"4","last_reported":1687882202,"current_range_meters":14000,"station_id":"ce4bhch2rcd13ifvqeug","pricing_plan_id":"free"},{"bike_id":"147f7b25-fb72-41d4-89f5-bad93557dd22","system_id":"levelo_inurba_marseille","lat":43.285856,"lon":5.350771,"is_reserved":false,"is_disabled":false,"rental_uris":{"android":"levelo://app?vid=147f7b25-fb72-41d4-89f5-bad93557dd22","ios":"levelo://app?vid=147f7b25-fb72-41d4-89f5-bad93557dd22"},"vehicle_type_id":"4","last_reported":1687882202,"current_range_meters":30400,"station_id":"ce4bhch2rcd13ifvqeug","pricing_plan_id":"free"},{"bike_id":"9cf00204-d67a-4e80-83d1-05d808cdd73b","system_id":"levelo_inurba_marseille","lat":43.285856,"lon":5.350771,"is_reserved":false,"is_disabled":false,"rental_uris":{"android":"levelo://app?vid=9cf00204-d67a-4e80-83d1-05d808cdd73b","ios":"levelo://app?vid=9cf00204-d67a-4e80-83d1-05d808cdd73b"},"vehicle_type_id":"4","last_reported":1687882202,"current_range_meters":13200,"station_id":"ce4bhch2rcd13ifvqeug","pricing_plan_id":"free"},{"bike_id":"fdfa481e-7d06-4e17-9aba-0754c874174a","system_id":"levelo_inurba_marseille","lat":43.283998,"lon":5.375062,"is_reserved":false,"is_disabled":false,"rental_uris":{"android":"levelo://app?vid=fdfa481e-7d06-4e17-9aba-0754c874174a","ios":"levelo://app?vid=fdfa481e-7d06-4e17-9aba-0754c874174a"},"vehicle_type_id":"4","last_reported":1687882202,"current_range_meters":24400,"station_id":"ce4bh412rcd13ifvqds0","pricing_plan_id":"free"},{"bike_id":"ee324f29-88bd-4725-b134-ccd9fb47e8e8","system_id":"levelo_inurba_marseille","lat":43.283998,"lon":5.375062,"is_reserved":false,"is_disabled":false,"rental_uris":{"android":"levelo://app?vid=ee324f29-88bd-4725-b134-ccd9fb47e8e8","ios":"levelo://app?vid=ee324f29-88bd-4725-b134-ccd9fb47e8e8"},"vehicle_type_id":"4","last_reported":1687882202,"current_range_meters":800,"station_id":"ce4bh412rcd13ifvqds0","pricing_plan_id":"free"},{"bike_id":"297fb50d-38d5-453f-a25d-78bead246d10","system_id":"levelo_inurba_marseille","lat":43.302759,"lon":5.400793,"is_reserved":false,"is_disabled":false,"rental_uris":{"android":"levelo://app?vid=297fb50d-38d5-453f-a25d-78bead246d10","ios":"levelo://app?vid=297fb50d-38d5-453f-a25d-78bead246d10"},"vehicle_type_id":"4","last_reported":1687882202,"current_range_meters":26000,"station_id":"ce4bgvh2rcd13ifvqcs0","pricing_plan_id":"free"},{"bike_id":"b26dfe31-e1e5-4ed1-abb3-71309736a1d8","system_id":"levelo_inurba_marseille","lat":43.283998,"lon":5.375062,"is_reserved":false,"is_disabled":false,"rental_uris":{"android":"levelo://app?vid=b26dfe31-e1e5-4ed1-abb3-71309736a1d8","ios":"levelo://app?vid=b26dfe31-e1e5-4ed1-abb3-71309736a1d8"},"vehicle_type_id":"4","last_reported":1687882202,"current_range_meters":14000,"station_id":"ce4bh412rcd13ifvqds0","pricing_plan_id":"free"},{"bike_id":"5dc9296d-2309-460e-a404-05591d4ce59a","system_id":"levelo_inurba_marseille","lat":43.283998,"lon":5.375062,"is_reserved":false,"is_disabled":false,"rental_uris":{"android":"levelo://app?vid=5dc9296d-2309-460e-a404-05591d4ce59a","ios":"levelo://app?vid=5dc9296d-2309-460e-a404-05591d4ce59a"},"vehicle_type_id":"4","last_reported":1687882202,"current_range_meters":7600,"station_id":"ce4bh412rcd13ifvqds0","pricing_plan_id":"free"},{"bike_id":"a7cddd53-4965-4136-9137-e30101531fc4","system_id":"levelo_inurba_marseille","lat":43.283998,"lon":5.375062,"is_reserved":false,"is_disabled":false,"rental_uris":{"android":"levelo://app?vid=a7cddd53-4965-4136-9137-e30101531fc4","ios":"levelo://app?vid=a7cddd53-4965-4136-9137-e30101531fc4"},"vehicle_type_id":"4","last_reported":1687882202,"current_range_meters":18800,"station_id":"ce4bh412rcd13ifvqds0","pricing_plan_id":"free"},{"bike_id":"b3caa462-fdbc-463d-a7a5-f0b3d7ae8cf3","system_id":"levelo_inurba_marseille","lat":43.283998,"lon":5.375062,"is_reserved":false,"is_disabled":false,"rental_uris":{"android":"levelo://app?vid=b3caa462-fdbc-463d-a7a5-f0b3d7ae8cf3","ios":"levelo://app?vid=b3caa462-fdbc-463d-a7a5-f0b3d7ae8cf3"},"vehicle_type_id":"4","last_reported":1687882202,"current_range_meters":29600,"station_id":"ce4bh412rcd13ifvqds0","pricing_plan_id":"free"},{"bike_id":"3d7e19e7-827d-4d3e-a51b-99d81d8c4ee2","system_id":"levelo_inurba_marseille","lat":43.283998,"lon":5.375062,"is_reserved":false,"is_disabled":false,"rental_uris":{"android":"levelo://app?vid=3d7e19e7-827d-4d3e-a51b-99d81d8c4ee2","ios":"levelo://app?vid=3d7e19e7-827d-4d3e-a51b-99d81d8c4ee2"},"vehicle_type_id":"4","last_reported":1687882202,"current_range_meters":800,"station_id":"ce4bh412rcd13ifvqds0","pricing_plan_id":"free"},{"bike_id":"c8ac207d-f48c-4db0-8c29-d4abcc7f4e89","system_id":"levelo_inurba_marseille","lat":43.28362,"lon":5.36071,"is_reserved":false,"is_disabled":false,"rental_uris":{"android":"levelo://app?vid=c8ac207d-f48c-4db0-8c29-d4abcc7f4e89","ios":"levelo://app?vid=c8ac207d-f48c-4db0-8c29-d4abcc7f4e89"},"vehicle_type_id":"4","last_reported":1687882202,"current_range_meters":18000,"station_id":"","pricing_plan_id":"free"},{"bike_id":"b5d588d3-deea-4f00-bee2-f77a2ca0a350","system_id":"levelo_inurba_marseille","lat":43.286595,"lon":5.386795,"is_reserved":false,"is_disabled":false,"rental_uris":{"android":"levelo://app?vid=b5d588d3-deea-4f00-bee2-f77a2ca0a350","ios":"levelo://app?vid=b5d588d3-deea-4f00-bee2-f77a2ca0a350"},"vehicle_type_id":"4","last_reported":1687882202,"current_range_meters":0,"station_id":"ce4bh492rcd13ifvqdug","pricing_plan_id":"free"},{"bike_id":"297186a2-5477-437a-907d-2a06863551bf","system_id":"levelo_inurba_marseille","lat":43.323464,"lon":5.406297,"is_reserved":false,"is_disabled":false,"rental_uris":{"android":"levelo://app?vid=297186a2-5477-437a-907d-2a06863551bf","ios":"levelo://app?vid=297186a2-5477-437a-907d-2a06863551bf"},"vehicle_type_id":"4","last_reported":1687882202,"current_range_meters":23600,"station_id":"ce4bhq92rcd13ifvqhjg","pricing_plan_id":"free"},{"bike_id":"20dcf4c1-f53a-43be-a090-8281e73bc7a5","system_id":"levelo_inurba_marseille","lat":43.323464,"lon":5.406297,"is_reserved":false,"is_disabled":false,"rental_uris":{"android":"levelo://app?vid=20dcf4c1-f53a-43be-a090-8281e73bc7a5","ios":"levelo://app?vid=20dcf4c1-f53a-43be-a090-8281e73bc7a5"},"vehicle_type_id":"4","last_reported":1687882202,"current_range_meters":8000,"station_id":"ce4bhq92rcd13ifvqhjg","pricing_plan_id":"free"},{"bike_id":"f2988b82-daec-4b0e-9d7c-376293e5d54f","system_id":"levelo_inurba_marseille","lat":43.33728,"lon":5.39193,"is_reserved":false,"is_disabled":false,"rental_uris":{"android":"levelo://app?vid=f2988b82-daec-4b0e-9d7c-376293e5d54f","ios":"levelo://app?vid=f2988b82-daec-4b0e-9d7c-376293e5d54f"},"vehicle_type_id":"4","last_reported":1687882202,"current_range_meters":22000,"station_id":"","pricing_plan_id":"free"},{"bike_id":"b4c950db-352f-4a1a-8e3c-c05101a6dad0","system_id":"levelo_inurba_marseille","lat":43.288501,"lon":5.393087,"is_reserved":false,"is_disabled":false,"rental_uris":{"android":"levelo://app?vid=b4c950db-352f-4a1a-8e3c-c05101a6dad0","ios":"levelo://app?vid=b4c950db-352f-4a1a-8e3c-c05101a6dad0"},"vehicle_type_id":"4","last_reported":1687882202,"current_range_meters":31200,"station_id":"ce4bh2p2rcd13ifvqdi0","pricing_plan_id":"free"},{"bike_id":"0b7a3094-8242-448b-a431-77aa112dad09","system_id":"levelo_inurba_marseille","lat":43.28854,"lon":5.39313,"is_reserved":false,"is_disabled":false,"rental_uris":{"android":"levelo://app?vid=0b7a3094-8242-448b-a431-77aa112dad09","ios":"levelo://app?vid=0b7a3094-8242-448b-a431-77aa112dad09"},"vehicle_type_id":"4","last_reported":1687882202,"current_range_meters":16400,"station_id":"ce4bh2p2rcd13ifvqdi0","pricing_plan_id":"free"},{"bike_id":"0f049878-edfc-481c-b274-43e68f86a56e","system_id":"levelo_inurba_marseille","lat":43.283494,"lon":5.380945,"is_reserved":false,"is_disabled":false,"rental_uris":{"android":"levelo://app?vid=0f049878-edfc-481c-b274-43e68f86a56e","ios":"levelo://app?vid=0f049878-edfc-481c-b274-43e68f86a56e"},"vehicle_type_id":"4","last_reported":1687882202,"current_range_meters":0,"station_id":"ce4bh412rcd13ifvqdr0","pricing_plan_id":"free"},{"bike_id":"e750b4f1-8a6d-4a7d-a471-5bc7656da7ea","system_id":"levelo_inurba_marseille","lat":43.284219,"lon":5.3497,"is_reserved":false,"is_disabled":false,"rental_uris":{"android":"levelo://app?vid=e750b4f1-8a6d-4a7d-a471-5bc7656da7ea","ios":"levelo://app?vid=e750b4f1-8a6d-4a7d-a471-5bc7656da7ea"},"vehicle_type_id":"4","last_reported":1687882202,"current_range_meters":30800,"station_id":"ce4bhbh2rcd13ifvqepg","pricing_plan_id":"free"},{"bike_id":"63f910c6-14fd-4c5f-ba09-06710ef87406","system_id":"levelo_inurba_marseille","lat":43.284219,"lon":5.3497,"is_reserved":false,"is_disabled":false,"rental_uris":{"android":"levelo://app?vid=63f910c6-14fd-4c5f-ba09-06710ef87406","ios":"levelo://app?vid=63f910c6-14fd-4c5f-ba09-06710ef87406"},"vehicle_type_id":"4","last_reported":1687882202,"current_range_meters":28800,"station_id":"ce4bhbh2rcd13ifvqepg","pricing_plan_id":"free"},{"bike_id":"7fb98a92-d21d-4110-866e-c69d7cf0024b","system_id":"levelo_inurba_marseille","lat":43.28425,"lon":5.34992,"is_reserved":false,"is_disabled":false,"rental_uris":{"android":"levelo://app?vid=7fb98a92-d21d-4110-866e-c69d7cf0024b","ios":"levelo://app?vid=7fb98a92-d21d-4110-866e-c69d7cf0024b"},"vehicle_type_id":"4","last_reported":1687882202,"current_range_meters":31200,"station_id":"ce4bhbh2rcd13ifvqepg","pricing_plan_id":"free"},{"bike_id":"36b37d35-173c-4740-b8df-9fc51e3a1882","system_id":"levelo_inurba_marseille","lat":43.284219,"lon":5.3497,"is_reserved":false,"is_disabled":false,"rental_uris":{"android":"levelo://app?vid=36b37d35-173c-4740-b8df-9fc51e3a1882","ios":"levelo://app?vid=36b37d35-173c-4740-b8df-9fc51e3a1882"},"vehicle_type_id":"4","last_reported":1687882202,"current_range_meters":30000,"station_id":"ce4bhbh2rcd13ifvqepg","pricing_plan_id":"free"},{"bike_id":"dde3cce7-a16c-406b-b3b3-003d9999144c","system_id":"levelo_inurba_marseille","lat":43.284219,"lon":5.3497,"is_reserved":false,"is_disabled":false,"rental_uris":{"android":"levelo://app?vid=dde3cce7-a16c-406b-b3b3-003d9999144c","ios":"levelo://app?vid=dde3cce7-a16c-406b-b3b3-003d9999144c"},"vehicle_type_id":"4","last_reported":1687882202,"current_range_meters":28400,"station_id":"ce4bhbh2rcd13ifvqepg","pricing_plan_id":"free"},{"bike_id":"17a0812f-4e43-423d-9c58-2bc1fc832a7c","system_id":"levelo_inurba_marseille","lat":43.284217,"lon":5.349697,"is_reserved":false,"is_disabled":false,"rental_uris":{"android":"levelo://app?vid=17a0812f-4e43-423d-9c58-2bc1fc832a7c","ios":"levelo://app?vid=17a0812f-4e43-423d-9c58-2bc1fc832a7c"},"vehicle_type_id":"4","last_reported":1687882202,"current_range_meters":31600,"station_id":"ce4bhbh2rcd13ifvqepg","pricing_plan_id":"free"},{"bike_id":"d2812d6a-138b-41bc-85da-71415f4caa8f","system_id":"levelo_inurba_marseille","lat":43.284217,"lon":5.349697,"is_reserved":false,"is_disabled":false,"rental_uris":{"android":"levelo://app?vid=d2812d6a-138b-41bc-85da-71415f4caa8f","ios":"levelo://app?vid=d2812d6a-138b-41bc-85da-71415f4caa8f"},"vehicle_type_id":"4","last_reported":1687882202,"current_range_meters":20000,"station_id":"ce4bhbh2rcd13ifvqepg","pricing_plan_id":"free"},{"bike_id":"4c556ec1-4f57-474b-93be-3dc1796ee973","system_id":"levelo_inurba_marseille","lat":43.284217,"lon":5.349697,"is_reserved":false,"is_disabled":false,"rental_uris":{"android":"levelo://app?vid=4c556ec1-4f57-474b-93be-3dc1796ee973","ios":"levelo://app?vid=4c556ec1-4f57-474b-93be-3dc1796ee973"},"vehicle_type_id":"4","last_reported":1687882202,"current_range_meters":2000,"station_id":"ce4bhbh2rcd13ifvqepg","pricing_plan_id":"free"},{"bike_id":"68f29a45-e9ce-4e36-8c1f-8dc6aa3661c7","system_id":"levelo_inurba_marseille","lat":43.28418,"lon":5.34989,"is_reserved":false,"is_disabled":false,"rental_uris":{"android":"levelo://app?vid=68f29a45-e9ce-4e36-8c1f-8dc6aa3661c7","ios":"levelo://app?vid=68f29a45-e9ce-4e36-8c1f-8dc6aa3661c7"},"vehicle_type_id":"4","last_reported":1687882202,"current_range_meters":31200,"station_id":"ce4bhbh2rcd13ifvqepg","pricing_plan_id":"free"},{"bike_id":"8e196ddb-1c55-447a-9d4f-e6f8cd0e0352","system_id":"levelo_inurba_marseille","lat":43.284217,"lon":5.349697,"is_reserved":false,"is_disabled":false,"rental_uris":{"android":"levelo://app?vid=8e196ddb-1c55-447a-9d4f-e6f8cd0e0352","ios":"levelo://app?vid=8e196ddb-1c55-447a-9d4f-e6f8cd0e0352"},"vehicle_type_id":"4","last_reported":1687882202,"current_range_meters":15200,"station_id":"ce4bhbh2rcd13ifvqepg","pricing_plan_id":"free"},{"bike_id":"7719c722-0467-46bd-9533-f12be52213bc","system_id":"levelo_inurba_marseille","lat":43.28416,"lon":5.34981,"is_reserved":false,"is_disabled":false,"rental_uris":{"android":"levelo://app?vid=7719c722-0467-46bd-9533-f12be52213bc","ios":"levelo://app?vid=7719c722-0467-46bd-9533-f12be52213bc"},"vehicle_type_id":"4","last_reported":1687882202,"current_range_meters":31200,"station_id":"ce4bhbh2rcd13ifvqepg","pricing_plan_id":"free"},{"bike_id":"8b71e901-7837-4e7b-9d7c-22deb3d59886","system_id":"levelo_inurba_marseille","lat":43.32317,"lon":5.40759,"is_reserved":false,"is_disabled":false,"rental_uris":{"android":"levelo://app?vid=8b71e901-7837-4e7b-9d7c-22deb3d59886","ios":"levelo://app?vid=8b71e901-7837-4e7b-9d7c-22deb3d59886"},"vehicle_type_id":"4","last_reported":1687882202,"current_range_meters":4800,"station_id":"","pricing_plan_id":"free"},{"bike_id":"9e00775d-b7ea-4110-9c38-6b1990aa14ed","system_id":"levelo_inurba_marseille","lat":43.29267,"lon":5.40019,"is_reserved":false,"is_disabled":false,"rental_uris":{"android":"levelo://app?vid=9e00775d-b7ea-4110-9c38-6b1990aa14ed","ios":"levelo://app?vid=9e00775d-b7ea-4110-9c38-6b1990aa14ed"},"vehicle_type_id":"4","last_reported":1687882202,"current_range_meters":2400,"station_id":"","pricing_plan_id":"free"},{"bike_id":"04f66c51-9811-4100-9d5c-38affe76250e","system_id":"levelo_inurba_marseille","lat":43.32086,"lon":5.40891,"is_reserved":false,"is_disabled":false,"rental_uris":{"android":"levelo://app?vid=04f66c51-9811-4100-9d5c-38affe76250e","ios":"levelo://app?vid=04f66c51-9811-4100-9d5c-38affe76250e"},"vehicle_type_id":"4","last_reported":1687882202,"current_range_meters":30000,"station_id":"","pricing_plan_id":"free"},{"bike_id":"cafe7315-5323-49e8-a003-d5af89f6283e","system_id":"levelo_inurba_marseille","lat":43.30933,"lon":5.41081,"is_reserved":false,"is_disabled":false,"rental_uris":{"android":"levelo://app?vid=cafe7315-5323-49e8-a003-d5af89f6283e","ios":"levelo://app?vid=cafe7315-5323-49e8-a003-d5af89f6283e"},"vehicle_type_id":"4","last_reported":1687882202,"current_range_meters":28400,"station_id":"","pricing_plan_id":"free"},{"bike_id":"fca4b55a-caed-4d13-b00b-bb99ae25faea","system_id":"levelo_inurba_marseille","lat":43.2828,"lon":5.35077,"is_reserved":false,"is_disabled":false,"rental_uris":{"android":"levelo://app?vid=fca4b55a-caed-4d13-b00b-bb99ae25faea","ios":"levelo://app?vid=fca4b55a-caed-4d13-b00b-bb99ae25faea"},"vehicle_type_id":"4","last_reported":1687882202,"current_range_meters":31200,"station_id":"ce4bhbp2rcd13ifvqerg","pricing_plan_id":"free"},{"bike_id":"bef9e670-7c3c-42d3-bb41-6f4f7fe41d75","system_id":"levelo_inurba_marseille","lat":43.28271,"lon":5.3508,"is_reserved":false,"is_disabled":false,"rental_uris":{"android":"levelo://app?vid=bef9e670-7c3c-42d3-bb41-6f4f7fe41d75","ios":"levelo://app?vid=bef9e670-7c3c-42d3-bb41-6f4f7fe41d75"},"vehicle_type_id":"4","last_reported":1687882202,"current_range_meters":31200,"station_id":"ce4bhbp2rcd13ifvqerg","pricing_plan_id":"free"},{"bike_id":"0213881e-79a1-4f76-af62-7bd1665da6b6","system_id":"levelo_inurba_marseille","lat":43.282754,"lon":5.350519,"is_reserved":false,"is_disabled":false,"rental_uris":{"android":"levelo://app?vid=0213881e-79a1-4f76-af62-7bd1665da6b6","ios":"levelo://app?vid=0213881e-79a1-4f76-af62-7bd1665da6b6"},"vehicle_type_id":"4","last_reported":1687882202,"current_range_meters":15600,"station_id":"ce4bhbp2rcd13ifvqerg","pricing_plan_id":"free"},{"bike_id":"7e7d0c58-5bc1-428f-af88-a4e48a9641d9","system_id":"levelo_inurba_marseille","lat":43.28369,"lon":5.38636,"is_reserved":false,"is_disabled":false,"rental_uris":{"android":"levelo://app?vid=7e7d0c58-5bc1-428f-af88-a4e48a9641d9","ios":"levelo://app?vid=7e7d0c58-5bc1-428f-af88-a4e48a9641d9"},"vehicle_type_id":"4","last_reported":1687882202,"current_range_meters":3600,"station_id":"ce4bh492rcd13ifvqdvg","pricing_plan_id":"free"},{"bike_id":"87fd066a-d311-4bd7-8f55-8a3e8669fd6d","system_id":"levelo_inurba_marseille","lat":43.29614,"lon":5.40552,"is_reserved":false,"is_disabled":false,"rental_uris":{"android":"levelo://app?vid=87fd066a-d311-4bd7-8f55-8a3e8669fd6d","ios":"levelo://app?vid=87fd066a-d311-4bd7-8f55-8a3e8669fd6d"},"vehicle_type_id":"4","last_reported":1687882202,"current_range_meters":9200,"station_id":"","pricing_plan_id":"free"},{"bike_id":"fd3f6d44-8513-4627-bdac-34ea4a4e7b27","system_id":"levelo_inurba_marseille","lat":43.281044,"lon":5.378308,"is_reserved":false,"is_disabled":false,"rental_uris":{"android":"levelo://app?vid=fd3f6d44-8513-4627-bdac-34ea4a4e7b27","ios":"levelo://app?vid=fd3f6d44-8513-4627-bdac-34ea4a4e7b27"},"vehicle_type_id":"4","last_reported":1687882202,"current_range_meters":6400,"station_id":"ce4bha12rcd13ifvqee0","pricing_plan_id":"free"},{"bike_id":"7d36d46d-fa2a-4821-a62e-65ef374e41fb","system_id":"levelo_inurba_marseille","lat":43.281044,"lon":5.378308,"is_reserved":false,"is_disabled":false,"rental_uris":{"android":"levelo://app?vid=7d36d46d-fa2a-4821-a62e-65ef374e41fb","ios":"levelo://app?vid=7d36d46d-fa2a-4821-a62e-65ef374e41fb"},"vehicle_type_id":"4","last_reported":1687882202,"current_range_meters":17200,"station_id":"ce4bha12rcd13ifvqee0","pricing_plan_id":"free"},{"bike_id":"61b79366-981a-417e-aad1-59b9bdb8c9a6","system_id":"levelo_inurba_marseille","lat":43.33053,"lon":5.40591,"is_reserved":false,"is_disabled":false,"rental_uris":{"android":"levelo://app?vid=61b79366-981a-417e-aad1-59b9bdb8c9a6","ios":"levelo://app?vid=61b79366-981a-417e-aad1-59b9bdb8c9a6"},"vehicle_type_id":"4","last_reported":1687882202,"current_range_meters":29200,"station_id":"","pricing_plan_id":"free"},{"bike_id":"c8e6ce45-f2b5-4772-a564-3c2039eea91a","system_id":"levelo_inurba_marseille","lat":43.33059,"lon":5.406,"is_reserved":false,"is_disabled":false,"rental_uris":{"android":"levelo://app?vid=c8e6ce45-f2b5-4772-a564-3c2039eea91a","ios":"levelo://app?vid=c8e6ce45-f2b5-4772-a564-3c2039eea91a"},"vehicle_type_id":"4","last_reported":1687882202,"current_range_meters":3600,"station_id":"","pricing_plan_id":"free"},{"bike_id":"c0ea3ce6-95c3-4416-92fb-60dacf36d935","system_id":"levelo_inurba_marseille","lat":43.284462,"lon":5.392121,"is_reserved":false,"is_disabled":false,"rental_uris":{"android":"levelo://app?vid=c0ea3ce6-95c3-4416-92fb-60dacf36d935","ios":"levelo://app?vid=c0ea3ce6-95c3-4416-92fb-60dacf36d935"},"vehicle_type_id":"4","last_reported":1687882202,"current_range_meters":29200,"station_id":"ce4bhoh2rcd13ifvqh5g","pricing_plan_id":"free"},{"bike_id":"ca98e9a6-c6cd-4016-81a7-0deb79fb4f94","system_id":"levelo_inurba_marseille","lat":43.28573,"lon":5.394992,"is_reserved":false,"is_disabled":false,"rental_uris":{"android":"levelo://app?vid=ca98e9a6-c6cd-4016-81a7-0deb79fb4f94","ios":"levelo://app?vid=ca98e9a6-c6cd-4016-81a7-0deb79fb4f94"},"vehicle_type_id":"4","last_reported":1687882202,"current_range_meters":16400,"station_id":"ce4bh292rcd13ifvqdg0","pricing_plan_id":"free"},{"bike_id":"8b711f73-5c93-456c-8f4d-a3b1efe64360","system_id":"levelo_inurba_marseille","lat":43.285742,"lon":5.395004,"is_reserved":false,"is_disabled":false,"rental_uris":{"android":"levelo://app?vid=8b711f73-5c93-456c-8f4d-a3b1efe64360","ios":"levelo://app?vid=8b711f73-5c93-456c-8f4d-a3b1efe64360"},"vehicle_type_id":"4","last_reported":1687882202,"current_range_meters":24800,"station_id":"ce4bh292rcd13ifvqdg0","pricing_plan_id":"free"},{"bike_id":"0c9eee73-532e-4f1f-8b23-5a0693e22298","system_id":"levelo_inurba_marseille","lat":43.32659,"lon":5.40998,"is_reserved":false,"is_disabled":false,"rental_uris":{"android":"levelo://app?vid=0c9eee73-532e-4f1f-8b23-5a0693e22298","ios":"levelo://app?vid=0c9eee73-532e-4f1f-8b23-5a0693e22298"},"vehicle_type_id":"4","last_reported":1687882202,"current_range_meters":30800,"station_id":"ce4bhpp2rcd13ifvqhgg","pricing_plan_id":"free"},{"bike_id":"8cb12c35-7fc7-4e0c-84f2-f20d73059b38","system_id":"levelo_inurba_marseille","lat":43.27906,"lon":5.38006,"is_reserved":false,"is_disabled":false,"rental_uris":{"android":"levelo://app?vid=8cb12c35-7fc7-4e0c-84f2-f20d73059b38","ios":"levelo://app?vid=8cb12c35-7fc7-4e0c-84f2-f20d73059b38"},"vehicle_type_id":"4","last_reported":1687882202,"current_range_meters":13200,"station_id":"ce4bhf92rcd13ifvqf50","pricing_plan_id":"free"},{"bike_id":"50fd953c-9754-45f4-aec7-ae52bb9eb6fe","system_id":"levelo_inurba_marseille","lat":43.287154,"lon":5.399979,"is_reserved":false,"is_disabled":false,"rental_uris":{"android":"levelo://app?vid=50fd953c-9754-45f4-aec7-ae52bb9eb6fe","ios":"levelo://app?vid=50fd953c-9754-45f4-aec7-ae52bb9eb6fe"},"vehicle_type_id":"4","last_reported":1687882202,"current_range_meters":31200,"station_id":"ce4bho92rcd13ifvqh3g","pricing_plan_id":"free"},{"bike_id":"d2ae4ae3-d31c-45e6-a4b4-93ef3ce2b0c9","system_id":"levelo_inurba_marseille","lat":43.28709,"lon":5.39997,"is_reserved":false,"is_disabled":false,"rental_uris":{"android":"levelo://app?vid=d2ae4ae3-d31c-45e6-a4b4-93ef3ce2b0c9","ios":"levelo://app?vid=d2ae4ae3-d31c-45e6-a4b4-93ef3ce2b0c9"},"vehicle_type_id":"4","last_reported":1687882202,"current_range_meters":0,"station_id":"ce4bho92rcd13ifvqh3g","pricing_plan_id":"free"},{"bike_id":"d121dca8-2596-4f85-a2a1-3d6410e5eda4","system_id":"levelo_inurba_marseille","lat":43.33116,"lon":5.40818,"is_reserved":false,"is_disabled":false,"rental_uris":{"android":"levelo://app?vid=d121dca8-2596-4f85-a2a1-3d6410e5eda4","ios":"levelo://app?vid=d121dca8-2596-4f85-a2a1-3d6410e5eda4"},"vehicle_type_id":"4","last_reported":1687882202,"current_range_meters":30000,"station_id":"","pricing_plan_id":"free"},{"bike_id":"010303de-9f53-47c9-8014-4eeafc88e3fa","system_id":"levelo_inurba_marseille","lat":43.320045,"lon":5.415048,"is_reserved":false,"is_disabled":false,"rental_uris":{"android":"levelo://app?vid=010303de-9f53-47c9-8014-4eeafc88e3fa","ios":"levelo://app?vid=010303de-9f53-47c9-8014-4eeafc88e3fa"},"vehicle_type_id":"4","last_reported":1687882202,"current_range_meters":27200,"station_id":"ce4bhq92rcd13ifvqhkg","pricing_plan_id":"free"},{"bike_id":"64f90b53-06b2-4f16-bd10-b3bd975f808d","system_id":"levelo_inurba_marseille","lat":43.279742,"lon":5.38744,"is_reserved":false,"is_disabled":false,"rental_uris":{"android":"levelo://app?vid=64f90b53-06b2-4f16-bd10-b3bd975f808d","ios":"levelo://app?vid=64f90b53-06b2-4f16-bd10-b3bd975f808d"},"vehicle_type_id":"4","last_reported":1687882202,"current_range_meters":17600,"station_id":"ce4bhg12rcd13ifvqf80","pricing_plan_id":"free"},{"bike_id":"fc96668a-4c43-4b12-b456-47bdb2174719","system_id":"levelo_inurba_marseille","lat":43.32539,"lon":5.41434,"is_reserved":false,"is_disabled":false,"rental_uris":{"android":"levelo://app?vid=fc96668a-4c43-4b12-b456-47bdb2174719","ios":"levelo://app?vid=fc96668a-4c43-4b12-b456-47bdb2174719"},"vehicle_type_id":"4","last_reported":1687882202,"current_range_meters":31200,"station_id":"ce4bhq12rcd13ifvqhhg","pricing_plan_id":"free"},{"bike_id":"9acf99e3-5bc2-495a-b05e-8250295b3873","system_id":"levelo_inurba_marseille","lat":43.27618,"lon":5.361009,"is_reserved":false,"is_disabled":false,"rental_uris":{"android":"levelo://app?vid=9acf99e3-5bc2-495a-b05e-8250295b3873","ios":"levelo://app?vid=9acf99e3-5bc2-495a-b05e-8250295b3873"},"vehicle_type_id":"4","last_reported":1687882202,"current_range_meters":31200,"station_id":"ce4bgj92rcd13ifvqbe0","pricing_plan_id":"free"},{"bike_id":"841dcea2-6955-4006-836c-1bb8e82923e4","system_id":"levelo_inurba_marseille","lat":43.325233,"lon":5.414318,"is_reserved":false,"is_disabled":false,"rental_uris":{"android":"levelo://app?vid=841dcea2-6955-4006-836c-1bb8e82923e4","ios":"levelo://app?vid=841dcea2-6955-4006-836c-1bb8e82923e4"},"vehicle_type_id":"4","last_reported":1687882202,"current_range_meters":31200,"station_id":"ce4bhq12rcd13ifvqhhg","pricing_plan_id":"free"},{"bike_id":"cdeedbcb-74b0-43ac-8163-d18a816bfdb7","system_id":"levelo_inurba_marseille","lat":43.325233,"lon":5.414318,"is_reserved":false,"is_disabled":false,"rental_uris":{"android":"levelo://app?vid=cdeedbcb-74b0-43ac-8163-d18a816bfdb7","ios":"levelo://app?vid=cdeedbcb-74b0-43ac-8163-d18a816bfdb7"},"vehicle_type_id":"4","last_reported":1687882202,"current_range_meters":25600,"station_id":"ce4bhq12rcd13ifvqhhg","pricing_plan_id":"free"},{"bike_id":"f065fa8b-1590-4551-9344-a945ebce0505","system_id":"levelo_inurba_marseille","lat":43.325233,"lon":5.414318,"is_reserved":false,"is_disabled":false,"rental_uris":{"android":"levelo://app?vid=f065fa8b-1590-4551-9344-a945ebce0505","ios":"levelo://app?vid=f065fa8b-1590-4551-9344-a945ebce0505"},"vehicle_type_id":"4","last_reported":1687882202,"current_range_meters":28800,"station_id":"ce4bhq12rcd13ifvqhhg","pricing_plan_id":"free"},{"bike_id":"1017aa2e-7a59-447b-9f15-e6c37dff3d70","system_id":"levelo_inurba_marseille","lat":43.280784,"lon":5.396622,"is_reserved":false,"is_disabled":false,"rental_uris":{"android":"levelo://app?vid=1017aa2e-7a59-447b-9f15-e6c37dff3d70","ios":"levelo://app?vid=1017aa2e-7a59-447b-9f15-e6c37dff3d70"},"vehicle_type_id":"4","last_reported":1687882202,"current_range_meters":12800,"station_id":"ce4bho12rcd13ifvqh2g","pricing_plan_id":"free"},{"bike_id":"b5544b36-ec19-4a95-9599-253f0272209c","system_id":"levelo_inurba_marseille","lat":43.278399,"lon":5.392139,"is_reserved":false,"is_disabled":false,"rental_uris":{"android":"levelo://app?vid=b5544b36-ec19-4a95-9599-253f0272209c","ios":"levelo://app?vid=b5544b36-ec19-4a95-9599-253f0272209c"},"vehicle_type_id":"4","last_reported":1687882202,"current_range_meters":22800,"station_id":"ce4bhjp2rcd13ifvqga0","pricing_plan_id":"free"},{"bike_id":"037c101b-90f6-4262-8f88-3e5d5e4bbe83","system_id":"levelo_inurba_marseille","lat":43.278399,"lon":5.392139,"is_reserved":false,"is_disabled":false,"rental_uris":{"android":"levelo://app?vid=037c101b-90f6-4262-8f88-3e5d5e4bbe83","ios":"levelo://app?vid=037c101b-90f6-4262-8f88-3e5d5e4bbe83"},"vehicle_type_id":"4","last_reported":1687882202,"current_range_meters":20000,"station_id":"ce4bhjp2rcd13ifvqga0","pricing_plan_id":"free"},{"bike_id":"cd77f18b-c97b-4f0e-aa12-c04262d77224","system_id":"levelo_inurba_marseille","lat":43.278399,"lon":5.392139,"is_reserved":false,"is_disabled":false,"rental_uris":{"android":"levelo://app?vid=cd77f18b-c97b-4f0e-aa12-c04262d77224","ios":"levelo://app?vid=cd77f18b-c97b-4f0e-aa12-c04262d77224"},"vehicle_type_id":"4","last_reported":1687882202,"current_range_meters":7200,"station_id":"ce4bhjp2rcd13ifvqga0","pricing_plan_id":"free"},{"bike_id":"c273a567-865f-4111-a7d0-7ad45eba9d1b","system_id":"levelo_inurba_marseille","lat":43.273613,"lon":5.362705,"is_reserved":false,"is_disabled":false,"rental_uris":{"android":"levelo://app?vid=c273a567-865f-4111-a7d0-7ad45eba9d1b","ios":"levelo://app?vid=c273a567-865f-4111-a7d0-7ad45eba9d1b"},"vehicle_type_id":"4","last_reported":1687882202,"current_range_meters":22000,"station_id":"ce4bhbh2rcd13ifvqeo0","pricing_plan_id":"free"},{"bike_id":"a648aabc-6ae8-4fab-a4a4-609e880b13fe","system_id":"levelo_inurba_marseille","lat":43.27385,"lon":5.36269,"is_reserved":false,"is_disabled":false,"rental_uris":{"android":"levelo://app?vid=a648aabc-6ae8-4fab-a4a4-609e880b13fe","ios":"levelo://app?vid=a648aabc-6ae8-4fab-a4a4-609e880b13fe"},"vehicle_type_id":"4","last_reported":1687882202,"current_range_meters":11200,"station_id":"","pricing_plan_id":"free"},{"bike_id":"36d17140-325c-40c4-afd9-e8266cf0b230","system_id":"levelo_inurba_marseille","lat":43.273613,"lon":5.362705,"is_reserved":false,"is_disabled":false,"rental_uris":{"android":"levelo://app?vid=36d17140-325c-40c4-afd9-e8266cf0b230","ios":"levelo://app?vid=36d17140-325c-40c4-afd9-e8266cf0b230"},"vehicle_type_id":"4","last_reported":1687882202,"current_range_meters":14000,"station_id":"ce4bhbh2rcd13ifvqeo0","pricing_plan_id":"free"},{"bike_id":"21ce0df5-0c9c-407c-beda-a7c75826d31a","system_id":"levelo_inurba_marseille","lat":43.273613,"lon":5.362705,"is_reserved":false,"is_disabled":false,"rental_uris":{"android":"levelo://app?vid=21ce0df5-0c9c-407c-beda-a7c75826d31a","ios":"levelo://app?vid=21ce0df5-0c9c-407c-beda-a7c75826d31a"},"vehicle_type_id":"4","last_reported":1687882202,"current_range_meters":21600,"station_id":"ce4bhbh2rcd13ifvqeo0","pricing_plan_id":"free"},{"bike_id":"48d3c149-4a5a-4986-b714-0432a254b5b2","system_id":"levelo_inurba_marseille","lat":43.27382,"lon":5.36255,"is_reserved":false,"is_disabled":false,"rental_uris":{"android":"levelo://app?vid=48d3c149-4a5a-4986-b714-0432a254b5b2","ios":"levelo://app?vid=48d3c149-4a5a-4986-b714-0432a254b5b2"},"vehicle_type_id":"4","last_reported":1687882202,"current_range_meters":14400,"station_id":"","pricing_plan_id":"free"},{"bike_id":"9865d19d-96ca-48db-bbaa-dcc53937afd5","system_id":"levelo_inurba_marseille","lat":43.27382,"lon":5.36252,"is_reserved":false,"is_disabled":false,"rental_uris":{"android":"levelo://app?vid=9865d19d-96ca-48db-bbaa-dcc53937afd5","ios":"levelo://app?vid=9865d19d-96ca-48db-bbaa-dcc53937afd5"},"vehicle_type_id":"4","last_reported":1687882202,"current_range_meters":31200,"station_id":"ce4bhbh2rcd13ifvqeo0","pricing_plan_id":"free"},{"bike_id":"f4a85512-5090-42e1-b0b4-0de1836c8a80","system_id":"levelo_inurba_marseille","lat":43.273609,"lon":5.362708,"is_reserved":false,"is_disabled":false,"rental_uris":{"android":"levelo://app?vid=f4a85512-5090-42e1-b0b4-0de1836c8a80","ios":"levelo://app?vid=f4a85512-5090-42e1-b0b4-0de1836c8a80"},"vehicle_type_id":"4","last_reported":1687882202,"current_range_meters":21200,"station_id":"ce4bhbh2rcd13ifvqeo0","pricing_plan_id":"free"},{"bike_id":"3b1fe861-7137-47aa-8205-ec95d261a749","system_id":"levelo_inurba_marseille","lat":43.273613,"lon":5.362705,"is_reserved":false,"is_disabled":false,"rental_uris":{"android":"levelo://app?vid=3b1fe861-7137-47aa-8205-ec95d261a749","ios":"levelo://app?vid=3b1fe861-7137-47aa-8205-ec95d261a749"},"vehicle_type_id":"4","last_reported":1687882202,"current_range_meters":29200,"station_id":"ce4bhbh2rcd13ifvqeo0","pricing_plan_id":"free"},{"bike_id":"56a37311-7fd7-4e2a-8422-766012608c44","system_id":"levelo_inurba_marseille","lat":43.27381,"lon":5.36263,"is_reserved":false,"is_disabled":false,"rental_uris":{"android":"levelo://app?vid=56a37311-7fd7-4e2a-8422-766012608c44","ios":"levelo://app?vid=56a37311-7fd7-4e2a-8422-766012608c44"},"vehicle_type_id":"4","last_reported":1687882202,"current_range_meters":31600,"station_id":"ce4bhbh2rcd13ifvqeo0","pricing_plan_id":"free"},{"bike_id":"2484db24-8c6e-4f24-832e-5f2910396ed6","system_id":"levelo_inurba_marseille","lat":43.273609,"lon":5.362708,"is_reserved":false,"is_disabled":false,"rental_uris":{"android":"levelo://app?vid=2484db24-8c6e-4f24-832e-5f2910396ed6","ios":"levelo://app?vid=2484db24-8c6e-4f24-832e-5f2910396ed6"},"vehicle_type_id":"4","last_reported":1687882202,"current_range_meters":11200,"station_id":"ce4bhbh2rcd13ifvqeo0","pricing_plan_id":"free"},{"bike_id":"027ea06f-7870-47ea-864e-d967b6032f25","system_id":"levelo_inurba_marseille","lat":43.273609,"lon":5.362708,"is_reserved":false,"is_disabled":false,"rental_uris":{"android":"levelo://app?vid=027ea06f-7870-47ea-864e-d967b6032f25","ios":"levelo://app?vid=027ea06f-7870-47ea-864e-d967b6032f25"},"vehicle_type_id":"4","last_reported":1687882202,"current_range_meters":20800,"station_id":"ce4bhbh2rcd13ifvqeo0","pricing_plan_id":"free"},{"bike_id":"d03646bb-cf0b-4dfd-aa4b-ac9b2db6333d","system_id":"levelo_inurba_marseille","lat":43.273609,"lon":5.362708,"is_reserved":false,"is_disabled":false,"rental_uris":{"android":"levelo://app?vid=d03646bb-cf0b-4dfd-aa4b-ac9b2db6333d","ios":"levelo://app?vid=d03646bb-cf0b-4dfd-aa4b-ac9b2db6333d"},"vehicle_type_id":"4","last_reported":1687882202,"current_range_meters":28400,"station_id":"ce4bhbh2rcd13ifvqeo0","pricing_plan_id":"free"},{"bike_id":"a1a8ed7d-98cf-4a63-9a8d-5d2fc242e10a","system_id":"levelo_inurba_marseille","lat":43.273613,"lon":5.362705,"is_reserved":false,"is_disabled":false,"rental_uris":{"android":"levelo://app?vid=a1a8ed7d-98cf-4a63-9a8d-5d2fc242e10a","ios":"levelo://app?vid=a1a8ed7d-98cf-4a63-9a8d-5d2fc242e10a"},"vehicle_type_id":"4","last_reported":1687882202,"current_range_meters":19200,"station_id":"ce4bhbh2rcd13ifvqeo0","pricing_plan_id":"free"},{"bike_id":"ba53f29d-1f86-42aa-92c5-f7bb29efd800","system_id":"levelo_inurba_marseille","lat":43.273609,"lon":5.362708,"is_reserved":false,"is_disabled":false,"rental_uris":{"android":"levelo://app?vid=ba53f29d-1f86-42aa-92c5-f7bb29efd800","ios":"levelo://app?vid=ba53f29d-1f86-42aa-92c5-f7bb29efd800"},"vehicle_type_id":"4","last_reported":1687882202,"current_range_meters":21200,"station_id":"ce4bhbh2rcd13ifvqeo0","pricing_plan_id":"free"},{"bike_id":"42ad6764-ffbf-4f7d-b38f-4a739d11aee5","system_id":"levelo_inurba_marseille","lat":43.273613,"lon":5.362705,"is_reserved":false,"is_disabled":false,"rental_uris":{"android":"levelo://app?vid=42ad6764-ffbf-4f7d-b38f-4a739d11aee5","ios":"levelo://app?vid=42ad6764-ffbf-4f7d-b38f-4a739d11aee5"},"vehicle_type_id":"4","last_reported":1687882202,"current_range_meters":22800,"station_id":"ce4bhbh2rcd13ifvqeo0","pricing_plan_id":"free"},{"bike_id":"5c3f2bb4-eb8b-4619-80d7-a3619fe55d8e","system_id":"levelo_inurba_marseille","lat":43.2737,"lon":5.36264,"is_reserved":false,"is_disabled":false,"rental_uris":{"android":"levelo://app?vid=5c3f2bb4-eb8b-4619-80d7-a3619fe55d8e","ios":"levelo://app?vid=5c3f2bb4-eb8b-4619-80d7-a3619fe55d8e"},"vehicle_type_id":"4","last_reported":1687882202,"current_range_meters":30000,"station_id":"ce4bhbh2rcd13ifvqeo0","pricing_plan_id":"free"},{"bike_id":"a769fc32-66bb-4cca-96e3-a886bb792d19","system_id":"levelo_inurba_marseille","lat":43.310785,"lon":5.424305,"is_reserved":false,"is_disabled":false,"rental_uris":{"android":"levelo://app?vid=a769fc32-66bb-4cca-96e3-a886bb792d19","ios":"levelo://app?vid=a769fc32-66bb-4cca-96e3-a886bb792d19"},"vehicle_type_id":"4","last_reported":1687882202,"current_range_meters":18400,"station_id":"ce4bhp92rcd13ifvqhag","pricing_plan_id":"free"},{"bike_id":"91768b3a-36f8-4f55-8b97-be918bdc6903","system_id":"levelo_inurba_marseille","lat":43.30417,"lon":5.42544,"is_reserved":false,"is_disabled":false,"rental_uris":{"android":"levelo://app?vid=91768b3a-36f8-4f55-8b97-be918bdc6903","ios":"levelo://app?vid=91768b3a-36f8-4f55-8b97-be918bdc6903"},"vehicle_type_id":"4","last_reported":1687882202,"current_range_meters":23200,"station_id":"ce4bhoh2rcd13ifvqh6g","pricing_plan_id":"free"},{"bike_id":"627e15a6-b21d-4716-b93f-1cc7d772a5dc","system_id":"levelo_inurba_marseille","lat":43.29554,"lon":5.42294,"is_reserved":false,"is_disabled":false,"rental_uris":{"android":"levelo://app?vid=627e15a6-b21d-4716-b93f-1cc7d772a5dc","ios":"levelo://app?vid=627e15a6-b21d-4716-b93f-1cc7d772a5dc"},"vehicle_type_id":"4","last_reported":1687882202,"current_range_meters":26800,"station_id":"ce4bhph2rcd13ifvqhdg","pricing_plan_id":"free"},{"bike_id":"4fa21102-9c5c-4785-8da0-3d7f957b0c31","system_id":"levelo_inurba_marseille","lat":43.272124,"lon":5.391768,"is_reserved":false,"is_disabled":false,"rental_uris":{"android":"levelo://app?vid=4fa21102-9c5c-4785-8da0-3d7f957b0c31","ios":"levelo://app?vid=4fa21102-9c5c-4785-8da0-3d7f957b0c31"},"vehicle_type_id":"4","last_reported":1687882202,"current_range_meters":31600,"station_id":"ce4bhhp2rcd13ifvqfm0","pricing_plan_id":"free"},