{"last_updated":1752786628,"ttl":60,"version":"2.2","data":{"bikes":[{"bike_id":"53b742a7-31ae-4272-9bba-7740339e2a2f","system_id":"levelo_inurba_marseille","lat":43.33747,"lon":5.37463,"is_reserved":false,"is_disabled":false,"rental_uris":{"android":"levelo://app?vid=53b742a7-31ae-4272-9bba-7740339e2a2f","ios":"levelo://app?vid=53b742a7-31ae-4272-9bba-7740339e2a2f"},"vehicle_type_id":"1","last_reported":1752786628,"current_range_meters":22800,"station_id":"","pricing_plan_id":"cebpf4jnsgd1na2vs0mg"},{"bike_id":"d98ef30e-38a0-41ef-a00a-304afa979a1e","system_id":"levelo_inurba_marseille","lat":43.29877,"lon":5.43674,"is_reserved":false,"is_disabled":false,"rental_uris":{"android":"levelo://app?vid=d98ef30e-38a0-41ef-a00a-304afa979a1e","ios":"levelo://app?vid=d98ef30e-38a0-41ef-a00a-304afa979a1e"},"vehicle_type_id":"4","last_reported":1752786628,"current_range_meters":2800,"station_id":"ce4bhpp2rcd13ifvqhfg","pricing_plan_id":"cebpf4jnsgd1na2vs0mg"},{"bike_id":"387b4414-d0e5-4dc7-8422-7bd309fa574e","system_id":"levelo_inurba_marseille","lat":43.28157,"lon":5.4264,"is_reserved":false,"is_disabled":false,"rental_uris":{"android":"levelo://app?vid=387b4414-d0e5-4dc7-8422-7bd309fa574e","ios":"levelo://app?vid=387b4414-d0e5-4dc7-8422-7bd309fa574e"},"vehicle_type_id":"4","last_reported":1752786628,"current_range_meters":2800,"station_id":"ce4bhnh2rcd13ifvqgug","pricing_plan_id":"cebpf4jnsgd1na2vs0mg"},{"bike_id":"d555cc46-bc21-42fb-90d1-4983139444cc","system_id":"levelo_inurba_marseille","lat":43.292285,"lon":5.360515,"is_reserved":false,"is_disabled":true,"rental_uris":{"android":"levelo://app?vid=d555cc46-bc21-42fb-90d1-4983139444cc","ios":"levelo://app?vid=d555cc46-bc21-42fb-90d1-4983139444cc"},"vehicle_type_id":"4","last_reported":1752786628,"current_range_meters":2800,"station_id":"","pricing_plan_id":"cebpf4jnsgd1na2vs0mg"},{"bike_id":"080b0f22-14dd-4044-a18f-ee7f74366cea","system_id":"levelo_inurba_marseille","lat":43.31991,"lon":5.38157,"is_reserved":false,"is_disabled":true,"rental_uris":{"android":"levelo://app?vid=080b0f22-14dd-4044-a18f-ee7f74366cea","ios":"levelo://app?vid=080b0f22-14dd-4044-a18f-ee7f74366cea"},"vehicle_type_id":"4","last_reported":1752786628,"current_range_meters":2800,"station_id":"ce4bhr12rcd13ifvqhpg","pricing_plan_id":"cebpf4jnsgd1na2vs0mg"},{"bike_id":"3bbe5b56-8f40-4d6b-9d63-bc330bb28679","system_id":"levelo_inurba_marseille","lat":43.29571,"lon":5.39971,"is_reserved":false,"is_disabled":false,"rental_uris":{"android":"levelo://app?vid=3bbe5b56-8f40-4d6b-9d63-bc330bb28679","ios":"levelo://app?vid=3bbe5b56-8f40-4d6b-9d63-bc330bb28679"},"vehicle_type_id":"4","last_reported":1752786628,"current_range_meters":3200,"station_id":"ce4bh312rcd13ifvqdj0","pricing_plan_id":"cebpf4jnsgd1na2vs0mg"},{"bike_id":"f6f236ff-60fd-4194-a6b1-4b305fcc4850","system_id":"levelo_inurba_marseille","lat":43.307837,"lon":5.402132,"is_reserved":false,"is_disabled":false,"rental_uris":{"android":"levelo://app?vid=f6f236ff-60fd-4194-a6b1-4b305fcc4850","ios":"levelo://app?vid=f6f236ff-60fd-4194-a6b1-4b305fcc4850"},"vehicle_type_id":"4","last_reported":1752786628,"current_range_meters":3200,"station_id":"ce4bh092rcd13ifvqd30","pricing_plan_id":"cebpf4jnsgd1na2vs0mg"},{"bike_id":"a923c6c4-87e9-495b-96f2-46085f6a95ae","system_id":"levelo_inurba_marseille","lat":43.31893,"lon":5.40179,"is_reserved":false,"is_disabled":false,"rental_uris":{"android":"levelo://app?vid=a923c6c4-87e9-495b-96f2-46085f6a95ae","ios":"levelo://app?vid=a923c6c4-87e9-495b-96f2-46085f6a95ae"},"vehicle_type_id":"4","last_reported":1752786628,"current_range_meters":3200,"station_id":"","pricing_plan_id":"cebpf4jnsgd1na2vs0mg"},{"bike_id":"a821816b-26c9-49f4-b7df-008c3c79f821","system_id":"levelo_inurba_marseille","lat":43.31281,"lon":5.40165,"is_reserved":false,"is_disabled":false,"rental_uris":{"android":"levelo://app?vid=a821816b-26c9-49f4-b7df-008c3c79f821","ios":"levelo://app?vid=a821816b-26c9-49f4-b7df-008c3c79f821"},"vehicle_type_id":"4","last_reported":1752786628,"current_range_meters":3600,"station_id":"ce4bh092rcd13ifvqd30","pricing_plan_id":"cebpf4jnsgd1na2vs0mg"},{"bike_id":"2df7c0bc-fe2d-47ae-be93-c18681648933","system_id":"levelo_inurba_marseille","lat":43.24545,"lon":5.39527,"is_reserved":false,"is_disabled":false,"rental_uris":{"android":"levelo://app?vid=2df7c0bc-fe2d-47ae-be93-c18681648933","ios":"levelo://app?vid=2df7c0bc-fe2d-47ae-be93-c18681648933"},"vehicle_type_id":"4","last_reported":1752786628,"current_range_meters":4000,"station_id":"ce4bhlp2rcd13ifvqgjg","pricing_plan_id":"cebpf4jnsgd1na2vs0mg"},{"bike_id":"14f6152e-d5b3-447f-bf43-14f4a5a408af","system_id":"levelo_inurba_marseille","lat":43.28718,"lon":5.37936,"is_reserved":false,"is_disabled":false,"rental_uris":{"android":"levelo://app?vid=14f6152e-d5b3-447f-bf43-14f4a5a408af","ios":"levelo://app?vid=14f6152e-d5b3-447f-bf43-14f4a5a408af"},"vehicle_type_id":"4","last_reported":1752786628,"current_range_meters":4000,"station_id":"ce4bh9p2rcd13ifvqec0","pricing_plan_id":"cebpf4jnsgd1na2vs0mg"},{"bike_id":"d186c25a-a206-4051-b968-193e7e13a752","system_id":"levelo_inurba_marseille","lat":43.30129,"lon":5.39862,"is_reserved":false,"is_disabled":false,"rental_uris":{"android":"levelo://app?vid=d186c25a-a206-4051-b968-193e7e13a752","ios":"levelo://app?vid=d186c25a-a206-4051-b968-193e7e13a752"},"vehicle_type_id":"4","last_reported":1752786628,"current_range_meters":4000,"station_id":"ce4bh0h2rcd13ifvqd40","pricing_plan_id":"cebpf4jnsgd1na2vs0mg"},{"bike_id":"ab1e67ec-eb11-46ca-8c27-780361080ed6","system_id":"levelo_inurba_marseille","lat":43.34139,"lon":5.40909,"is_reserved":false,"is_disabled":false,"rental_uris":{"android":"levelo://app?vid=ab1e67ec-eb11-46ca-8c27-780361080ed6","ios":"levelo://app?vid=ab1e67ec-eb11-46ca-8c27-780361080ed6"},"vehicle_type_id":"4","last_reported":1752786628,"current_range_meters":4400,"station_id":"ce4bhqh2rcd13ifvqhlg","pricing_plan_id":"cebpf4jnsgd1na2vs0mg"},{"bike_id":"d7ecf641-175f-472b-9b83-d70711180ddd","system_id":"levelo_inurba_marseille","lat":43.25096,"lon":5.395073,"is_reserved":false,"is_disabled":false,"rental_uris":{"android":"levelo://app?vid=d7ecf641-175f-472b-9b83-d70711180ddd","ios":"levelo://app?vid=d7ecf641-175f-472b-9b83-d70711180ddd"},"vehicle_type_id":"4","last_reported":1752786628,"current_range_meters":4400,"station_id":"ce4bhm12rcd13ifvqgkg","pricing_plan_id":"cebpf4jnsgd1na2vs0mg"},{"bike_id":"980f219a-fe13-4e92-9cdc-08261e1b8c77","system_id":"levelo_inurba_marseille","lat":43.29706,"lon":5.36613,"is_reserved":false,"is_disabled":false,"rental_uris":{"android":"levelo://app?vid=980f219a-fe13-4e92-9cdc-08261e1b8c77","ios":"levelo://app?vid=980f219a-fe13-4e92-9cdc-08261e1b8c77"},"vehicle_type_id":"4","last_reported":1752786628,"current_range_meters":4400,"station_id":"ce4bgn12rcd13ifvqbt0","pricing_plan_id":"cebpf4jnsgd1na2vs0mg"},{"bike_id":"01d8f2b5-bbae-4f78-8bbb-6b38a5132c5e","system_id":"levelo_inurba_marseille","lat":43.30936,"lon":5.40144,"is_reserved":false,"is_disabled":false,"rental_uris":{"android":"levelo://app?vid=01d8f2b5-bbae-4f78-8bbb-6b38a5132c5e","ios":"levelo://app?vid=01d8f2b5-bbae-4f78-8bbb-6b38a5132c5e"},"vehicle_type_id":"4","last_reported":1752786628,"current_range_meters":4800,"station_id":"ce4bgvp2rcd13ifvqct0","pricing_plan_id":"cebpf4jnsgd1na2vs0mg"},{"bike_id":"9eb11d44-370d-464b-b78f-5461a3b04cc3","system_id":"levelo_inurba_marseille","lat":43.3106,"lon":5.3835,"is_reserved":false,"is_disabled":true,"rental_uris":{"android":"levelo://app?vid=9eb11d44-370d-464b-b78f-5461a3b04cc3","ios":"levelo://app?vid=9eb11d44-370d-464b-b78f-5461a3b04cc3"},"vehicle_type_id":"4","last_reported":1752786628,"current_range_meters":5600,"station_id":"ce4bgv92rcd13ifvqcr0","pricing_plan_id":"cebpf4jnsgd1na2vs0mg"},{"bike_id":"b1428d64-fc4b-46a0-b151-0fb69cd1bdbb","system_id":"levelo_inurba_marseille","lat":43.24659,"lon":5.38161,"is_reserved":false,"is_disabled":false,"rental_uris":{"android":"levelo://app?vid=b1428d64-fc4b-46a0-b151-0fb69cd1bdbb","ios":"levelo://app?vid=b1428d64-fc4b-46a0-b151-0fb69cd1bdbb"},"vehicle_type_id":"4","last_reported":1752786628,"current_range_meters":6000,"station_id":"ce4bhih2rcd13ifvqfr0","pricing_plan_id":"cebpf4jnsgd1na2vs0mg"},{"bike_id":"0f2b38d7-092e-4ce6-ab6c-5e5b46007c2d","system_id":"levelo_inurba_marseille","lat":43.2788,"lon":5.3814,"is_reserved":false,"is_disabled":false,"rental_uris":{"android":"levelo://app?vid=0f2b38d7-092e-4ce6-ab6c-5e5b46007c2d","ios":"levelo://app?vid=0f2b38d7-092e-4ce6-ab6c-5e5b46007c2d"},"vehicle_type_id":"4","last_reported":1752786628,"current_range_meters":6000,"station_id":"ce4bhf92rcd13ifvqf50","pricing_plan_id":"cebpf4jnsgd1na2vs0mg"},{"bike_id":"348a2d70-6589-4818-9b58-d20183d9e935","system_id":"levelo_inurba_marseille","lat":43.28461,"lon":5.3588,"is_reserved":false,"is_disabled":false,"rental_uris":{"android":"levelo://app?vid=348a2d70-6589-4818-9b58-d20183d9e935","ios":"levelo://app?vid=348a2d70-6589-4818-9b58-d20183d9e935"},"vehicle_type_id":"4","last_reported":1752786628,"current_range_meters":6000,"station_id":"ce4bhah2rcd13ifvqei0","pricing_plan_id":"cebpf4jnsgd1na2vs0mg"},{"bike_id":"8f14405a-fea8-4b11-887d-54f354875c28","system_id":"levelo_inurba_marseille","lat":43.29672,"lon":5.38587,"is_reserved":false,"is_disabled":false,"rental_uris":{"android":"levelo://app?vid=8f14405a-fea8-4b11-887d-54f354875c28","ios":"levelo://app?vid=8f14405a-fea8-4b11-887d-54f354875c28"},"vehicle_type_id":"4","last_reported":1752786628,"current_range_meters":6400,"station_id":"","pricing_plan_id":"cebpf4jnsgd1na2vs0mg"},{"bike_id":"3051449b-679c-47d5-9495-432a16a18d79","system_id":"levelo_inurba_marseille","lat":43.2841,"lon":5.38491,"is_reserved":false,"is_disabled":false,"rental_uris":{"android":"levelo://app?vid=3051449b-679c-47d5-9495-432a16a18d79","ios":"levelo://app?vid=3051449b-679c-47d5-9495-432a16a18d79"},"vehicle_type_id":"4","last_reported":1752786628,"current_range_meters":6400,"station_id":"","pricing_plan_id":"cebpf4jnsgd1na2vs0mg"},{"bike_id":"48c4c48b-1ebb-4d9b-aac8-5cfac94ef9c9","system_id":"levelo_inurba_marseille","lat":43.30928,"lon":5.40143,"is_reserved":false,"is_disabled":false,"rental_uris":{"android":"levelo://app?vid=48c4c48b-1ebb-4d9b-aac8-5cfac94ef9c9","ios":"levelo://app?vid=48c4c48b-1ebb-4d9b-aac8-5cfac94ef9c9"},"vehicle_type_id":"4","last_reported":1752786628,"current_range_meters":6400,"station_id":"ce4bgvp2rcd13ifvqct0","pricing_plan_id":"cebpf4jnsgd1na2vs0mg"},{"bike_id":"3f0e74c9-9787-419a-bab2-6063492cb597","system_id":"levelo_inurba_marseille","lat":43.24784,"lon":5.374768,"is_reserved":false,"is_disabled":false,"rental_uris":{"android":"levelo://app?vid=3f0e74c9-9787-419a-bab2-6063492cb597","ios":"levelo://app?vid=3f0e74c9-9787-419a-bab2-6063492cb597"},"vehicle_type_id":"4","last_reported":1752786628,"current_range_meters":6800,"station_id":"ce4bhgh2rcd13ifvqfb0","pricing_plan_id":"cebpf4jnsgd1na2vs0mg"},{"bike_id":"6f6f117a-5403-4a85-bb20-fa78176fcd76","system_id":"levelo_inurba_marseille","lat":43.29527,"lon":5.38532,"is_reserved":false,"is_disabled":false,"rental_uris":{"android":"levelo://app?vid=6f6f117a-5403-4a85-bb20-fa78176fcd76","ios":"levelo://app?vid=6f6f117a-5403-4a85-bb20-fa78176fcd76"},"vehicle_type_id":"4","last_reported":1752786628,"current_range_meters":6800,"station_id":"ce4bgih2rcd13ifvqba0","pricing_plan_id":"cebpf4jnsgd1na2vs0mg"},{"bike_id":"7d29dcba-1425-4ec8-a1d3-fb738c6a61bb","system_id":"levelo_inurba_marseille","lat":43.28616,"lon":5.35102,"is_reserved":false,"is_disabled":false,"rental_uris":{"android":"levelo://app?vid=7d29dcba-1425-4ec8-a1d3-fb738c6a61bb","ios":"levelo://app?vid=7d29dcba-1425-4ec8-a1d3-fb738c6a61bb"},"vehicle_type_id":"4","last_reported":1752786628,"current_range_meters":6800,"station_id":"ce4bhch2rcd13ifvqeug","pricing_plan_id":"cebpf4jnsgd1na2vs0mg"},{"bike_id":"09c5b9c5-b5f7-40b8-b50b-8886dbc6f8de","system_id":"levelo_inurba_marseille","lat":43.25107,"lon":5.40329,"is_reserved":false,"is_disabled":false,"rental_uris":{"android":"levelo://app?vid=09c5b9c5-b5f7-40b8-b50b-8886dbc6f8de","ios":"levelo://app?vid=09c5b9c5-b5f7-40b8-b50b-8886dbc6f8de"},"vehicle_type_id":"4","last_reported":1752786628,"current_range_meters":6800,"station_id":"ce4bhlh2rcd13ifvqgig","pricing_plan_id":"cebpf4jnsgd1na2vs0mg"},{"bike_id":"f341744f-1996-449d-98b2-476c2bc06c36","system_id":"levelo_inurba_marseille","lat":43.23193,"lon":5.35556,"is_reserved":false,"is_disabled":false,"rental_uris":{"android":"levelo://app?vid=f341744f-1996-449d-98b2-476c2bc06c36","ios":"levelo://app?vid=f341744f-1996-449d-98b2-476c2bc06c36"},"vehicle_type_id":"4","last_reported":1752786628,"current_range_meters":7200,"station_id":"ce4bhu92rcd13ifvqi70","pricing_plan_id":"cebpf4jnsgd1na2vs0mg"},{"bike_id":"d620a40e-f6d6-4112-8d3c-16fb03e4c2a2","system_id":"levelo_inurba_marseille","lat":43.30895,"lon":5.39656,"is_reserved":false,"is_disabled":false,"rental_uris":{"android":"levelo://app?vid=d620a40e-f6d6-4112-8d3c-16fb03e4c2a2","ios":"levelo://app?vid=d620a40e-f6d6-4112-8d3c-16fb03e4c2a2"},"vehicle_type_id":"4","last_reported":1752786628,"current_range_meters":7200,"station_id":"ce4bh012rcd13ifvqcv0","pricing_plan_id":"cebpf4jnsgd1na2vs0mg"},{"bike_id":"83b3c9b8-d66e-43ea-82d7-ef2eeaff7945","system_id":"levelo_inurba_marseille","lat":43.267786,"lon":5.394172,"is_reserved":false,"is_disabled":true,"rental_uris":{"android":"levelo://app?vid=83b3c9b8-d66e-43ea-82d7-ef2eeaff7945","ios":"levelo://app?vid=83b3c9b8-d66e-43ea-82d7-ef2eeaff7945"},"vehicle_type_id":"4","last_reported":1752786628,"current_range_meters":7200,"station_id":"ce4bhh12rcd13ifvqfg0","pricing_plan_id":"cebpf4jnsgd1na2vs0mg"},{"bike_id":"1d970645-20d1-4bb0-a0ab-6fbce665c466","system_id":"levelo_inurba_marseille","lat":43.24809,"lon":5.37452,"is_reserved":false,"is_disabled":false,"rental_uris":{"android":"levelo://app?vid=1d970645-20d1-4bb0-a0ab-6fbce665c466","ios":"levelo://app?vid=1d970645-20d1-4bb0-a0ab-6fbce665c466"},"vehicle_type_id":"4","last_reported":1752786628,"current_range_meters":7200,"station_id":"ce4bhgh2rcd13ifvqfb0","pricing_plan_id":"cebpf4jnsgd1na2vs0mg"},{"bike_id":"a20440af-628b-4fe2-9392-2c98b3364310","system_id":"levelo_inurba_marseille","lat":43.25116,"lon":5.40322,"is_reserved":false,"is_disabled":false,"rental_uris":{"android":"levelo://app?vid=a20440af-628b-4fe2-9392-2c98b3364310","ios":"levelo://app?vid=a20440af-628b-4fe2-9392-2c98b3364310"},"vehicle_type_id":"4","last_reported":1752786628,"current_range_meters":8000,"station_id":"ce4bhlh2rcd13ifvqgig","pricing_plan_id":"cebpf4jnsgd1na2vs0mg"},{"bike_id":"0205d86f-a7ec-4361-9888-abf339ab1207","system_id":"levelo_inurba_marseille","lat":43.29965,"lon":5.38482,"is_reserved":false,"is_disabled":false,"rental_uris":{"android":"levelo://app?vid=0205d86f-a7ec-4361-9888-abf339ab1207","ios":"levelo://app?vid=0205d86f-a7ec-4361-9888-abf339ab1207"},"vehicle_type_id":"4","last_reported":1752786628,"current_range_meters":8000,"station_id":"ce4bgj92rcd13ifvqbd0","pricing_plan_id":"cebpf4jnsgd1na2vs0mg"},{"bike_id":"8c9218f5-e208-4375-98bd-5c2b3f6fc30d","system_id":"levelo_inurba_marseille","lat":43.297852,"lon":5.393586,"is_reserved":false,"is_disabled":false,"rental_uris":{"android":"levelo://app?vid=8c9218f5-e208-4375-98bd-5c2b3f6fc30d","ios":"levelo://app?vid=8c9218f5-e208-4375-98bd-5c2b3f6fc30d"},"vehicle_type_id":"4","last_reported":1752786628,"current_range_meters":8400,"station_id":"chh1huq6cuj3fo74tm60","pricing_plan_id":"cebpf4jnsgd1na2vs0mg"},{"bike_id":"f3aed444-46ff-440f-bf2f-49fa1d7b8e96","system_id":"levelo_inurba_marseille","lat":43.296849,"lon":5.372991,"is_reserved":false,"is_disabled":false,"rental_uris":{"android":"levelo://app?vid=f3aed444-46ff-440f-bf2f-49fa1d7b8e96","ios":"levelo://app?vid=f3aed444-46ff-440f-bf2f-49fa1d7b8e96"},"vehicle_type_id":"4","last_reported":1752786628,"current_range_meters":8400,"station_id":"ce4bgk12rcd13ifvqbj0","pricing_plan_id":"cebpf4jnsgd1na2vs0mg"},{"bike_id":"8e43c8f7-3379-4524-b224-d1921a730973","system_id":"levelo_inurba_marseille","lat":43.29598,"lon":5.38106,"is_reserved":false,"is_disabled":false,"rental_uris":{"android":"levelo://app?vid=8e43c8f7-3379-4524-b224-d1921a730973","ios":"levelo://app?vid=8e43c8f7-3379-4524-b224-d1921a730973"},"vehicle_type_id":"4","last_reported":1752786628,"current_range_meters":8400,"station_id":"ce4bgl12rcd13ifvqbo0","pricing_plan_id":"cebpf4jnsgd1na2vs0mg"},{"bike_id":"87a687ca-1171-41b7-a877-d6a630108b37","system_id":"levelo_inurba_marseille","lat":43.28474,"lon":5.38541,"is_reserved":false,"is_disabled":false,"rental_uris":{"android":"levelo://app?vid=87a687ca-1171-41b7-a877-d6a630108b37","ios":"levelo://app?vid=87a687ca-1171-41b7-a877-d6a630108b37"},"vehicle_type_id":"4","last_reported":1752786628,"current_range_meters":8400,"station_id":"ce4bh8p2rcd13ifvqeb0","pricing_plan_id":"cebpf4jnsgd1na2vs0mg"},{"bike_id":"a8828ca8-fdac-48cd-8e10-9e410175fdf5","system_id":"levelo_inurba_marseille","lat":43.28403,"lon":5.37552,"is_reserved":false,"is_disabled":false,"rental_uris":{"android":"levelo://app?vid=a8828ca8-fdac-48cd-8e10-9e410175fdf5","ios":"levelo://app?vid=a8828ca8-fdac-48cd-8e10-9e410175fdf5"},"vehicle_type_id":"4","last_reported":1752786628,"current_range_meters":8800,"station_id":"ce4bh412rcd13ifvqds0","pricing_plan_id":"cebpf4jnsgd1na2vs0mg"},{"bike_id":"a4fd652b-34f8-4c68-a6e6-032a5cc5e418","system_id":"levelo_inurba_marseille","lat":43.31235,"lon":5.3688,"is_reserved":false,"is_disabled":true,"rental_uris":{"android":"levelo://app?vid=a4fd652b-34f8-4c68-a6e6-032a5cc5e418","ios":"levelo://app?vid=a4fd652b-34f8-4c68-a6e6-032a5cc5e418"},"vehicle_type_id":"4","last_reported":1752786628,"current_range_meters":8800,"station_id":"ce4bgl92rcd13ifvqbq0","pricing_plan_id":"cebpf4jnsgd1na2vs0mg"},{"bike_id":"87cf7402-0e47-4971-b30a-e1ce3798505b","system_id":"levelo_inurba_marseille","lat":43.312251,"lon":5.368484,"is_reserved":false,"is_disabled":false,"rental_uris":{"android":"levelo://app?vid=87cf7402-0e47-4971-b30a-e1ce3798505b","ios":"levelo://app?vid=87cf7402-0e47-4971-b30a-e1ce3798505b"},"vehicle_type_id":"4","last_reported":1752786628,"current_range_meters":8800,"station_id":"ce4bgl92rcd13ifvqbq0","pricing_plan_id":"cebpf4jnsgd1na2vs0mg"},{"bike_id":"4393469b-a8d3-47ba-9c39-3bf8f29e0784","system_id":"levelo_inurba_marseille","lat":43.27424,"lon":5.39415,"is_reserved":false,"is_disabled":false,"rental_uris":{"android":"levelo://app?vid=4393469b-a8d3-47ba-9c39-3bf8f29e0784","ios":"levelo://app?vid=4393469b-a8d3-47ba-9c39-3bf8f29e0784"},"vehicle_type_id":"4","last_reported":1752786628,"current_range_meters":8800,"station_id":"ce4bhdp2rcd13ifvqf20","pricing_plan_id":"cebpf4jnsgd1na2vs0mg"},{"bike_id":"4f80029f-a575-46cf-aee1-f3be18c555fb","system_id":"levelo_inurba_marseille","lat":43.29418,"lon":5.38611,"is_reserved":false,"is_disabled":false,"rental_uris":{"android":"levelo://app?vid=4f80029f-a575-46cf-aee1-f3be18c555fb","ios":"levelo://app?vid=4f80029f-a575-46cf-aee1-f3be18c555fb"},"vehicle_type_id":"4","last_reported":1752786628,"current_range_meters":9200,"station_id":"ce4bh2h2rcd13ifvqdh0","pricing_plan_id":"cebpf4jnsgd1na2vs0mg"},{"bike_id":"284e77d9-ff07-46f1-8f76-ffd17c0d0ea3","system_id":"levelo_inurba_marseille","lat":43.28671,"lon":5.36348,"is_reserved":false,"is_disabled":false,"rental_uris":{"android":"levelo://app?vid=284e77d9-ff07-46f1-8f76-ffd17c0d0ea3","ios":"levelo://app?vid=284e77d9-ff07-46f1-8f76-ffd17c0d0ea3"},"vehicle_type_id":"4","last_reported":1752786628,"current_range_meters":9200,"station_id":"ce4bhah2rcd13ifvqej0","pricing_plan_id":"cebpf4jnsgd1na2vs0mg"},{"bike_id":"03bfe257-4172-4ae8-b801-3439903953da","system_id":"levelo_inurba_marseille","lat":43.30586,"lon":5.39354,"is_reserved":false,"is_disabled":false,"rental_uris":{"android":"levelo://app?vid=03bfe257-4172-4ae8-b801-3439903953da","ios":"levelo://app?vid=03bfe257-4172-4ae8-b801-3439903953da"},"vehicle_type_id":"4","last_reported":1752786628,"current_range_meters":9200,"station_id":"ce4bh0p2rcd13ifvqd80","pricing_plan_id":"cebpf4jnsgd1na2vs0mg"},{"bike_id":"57239988-9161-49ce-a0a2-4581baf1b159","system_id":"levelo_inurba_marseille","lat":43.337676,"lon":5.374131,"is_reserved":false,"is_disabled":false,"rental_uris":{"android":"levelo://app?vid=57239988-9161-49ce-a0a2-4581baf1b159","ios":"levelo://app?vid=57239988-9161-49ce-a0a2-4581baf1b159"},"vehicle_type_id":"4","last_reported":1752786628,"current_range_meters":9200,"station_id":"","pricing_plan_id":"cebpf4jnsgd1na2vs0mg"},{"bike_id":"a0e81cad-847b-40b0-9a80-10d2d6fbad75","system_id":"levelo_inurba_marseille","lat":43.29527,"lon":5.39407,"is_reserved":false,"is_disabled":false,"rental_uris":{"android":"levelo://app?vid=a0e81cad-847b-40b0-9a80-10d2d6fbad75","ios":"levelo://app?vid=a0e81cad-847b-40b0-9a80-10d2d6fbad75"},"vehicle_type_id":"4","last_reported":1752786628,"current_range_meters":9600,"station_id":"ce4bh292rcd13ifvqdf0","pricing_plan_id":"cebpf4jnsgd1na2vs0mg"},{"bike_id":"139acd6c-d496-466b-a201-601abf871911","system_id":"levelo_inurba_marseille","lat":43.285706,"lon":5.394939,"is_reserved":false,"is_disabled":false,"rental_uris":{"android":"levelo://app?vid=139acd6c-d496-466b-a201-601abf871911","ios":"levelo://app?vid=139acd6c-d496-466b-a201-601abf871911"},"vehicle_type_id":"4","last_reported":1752786628,"current_range_meters":9600,"station_id":"ce4bh292rcd13ifvqdg0","pricing_plan_id":"cebpf4jnsgd1na2vs0mg"},{"bike_id":"2ba78f0b-5701-4f6f-af12-f47ff5f026e7","system_id":"levelo_inurba_marseille","lat":43.31174,"lon":5.3872,"is_reserved":false,"is_disabled":false,"rental_uris":{"android":"levelo://app?vid=2ba78f0b-5701-4f6f-af12-f47ff5f026e7","ios":"levelo://app?vid=2ba78f0b-5701-4f6f-af12-f47ff5f026e7"},"vehicle_type_id":"4","last_reported":1752786628,"current_range_meters":9600,"station_id":"ce4bgv12rcd13ifvqcp0","pricing_plan_id":"cebpf4jnsgd1na2vs0mg"},{"bike_id":"492a419e-7fc3-43b7-b688-aee4d064f5a3","system_id":"levelo_inurba_marseille","lat":43.29319,"lon":5.37172,"is_reserved":false,"is_disabled":true,"rental_uris":{"android":"levelo://app?vid=492a419e-7fc3-43b7-b688-aee4d064f5a3","ios":"levelo://app?vid=492a419e-7fc3-43b7-b688-aee4d064f5a3"},"vehicle_type_id":"4","last_reported":1752786628,"current_range_meters":9600,"station_id":"ce4bgh92rcd13ifvqb40","pricing_plan_id":"cebpf4jnsgd1na2vs0mg"},{"bike_id":"0b4aeec2-26f8-4cc4-b7a9-87e25034d77d","system_id":"levelo_inurba_marseille","lat":43.30372,"lon":5.4248,"is_reserved":false,"is_disabled":true,"rental_uris":{"android":"levelo://app?vid=0b4aeec2-26f8-4cc4-b7a9-87e25034d77d","ios":"levelo://app?vid=0b4aeec2-26f8-4cc4-b7a9-87e25034d77d"},"vehicle_type_id":"4","last_reported":1752786628,"current_range_meters":9600,"station_id":"ce4bhoh2rcd13ifvqh6g","pricing_plan_id":"cebpf4jnsgd1na2vs0mg"},{"bike_id":"90f54ea4-e306-4792-9966-1cc1bc24176c","system_id":"levelo_inurba_marseille","lat":43.264981,"lon":5.395415,"is_reserved":false,"is_disabled":true,"rental_uris":{"android":"levelo://app?vid=90f54ea4-e306-4792-9966-1cc1bc24176c","ios":"levelo://app?vid=90f54ea4-e306-4792-9966-1cc1bc24176c"},"vehicle_type_id":"4","last_reported":1752786628,"current_range_meters":9600,"station_id":"ce4bhi12rcd13ifvqfq0","pricing_plan_id":"cebpf4jnsgd1na2vs0mg"},{"bike_id":"677b38f8-3386-488d-a9e6-5d19cebf559c","system_id":"levelo_inurba_marseille","lat":43.287256,"lon":5.361026,"is_reserved":false,"is_disabled":false,"rental_uris":{"android":"levelo://app?vid=677b38f8-3386-488d-a9e6-5d19cebf559c","ios":"levelo://app?vid=677b38f8-3386-488d-a9e6-5d19cebf559c"},"vehicle_type_id":"4","last_reported":1752786628,"current_range_meters":9200,"station_id":"cki0cbj6b192h4jlfktg","pricing_plan_id":"cebpf4jnsgd1na2vs0mg"},{"bike_id":"81f88721-00d0-431c-83bf-446e11578408","system_id":"levelo_inurba_marseille","lat":43.225044,"lon":5.347758,"is_reserved":false,"is_disabled":false,"rental_uris":{"android":"levelo://app?vid=81f88721-00d0-431c-83bf-446e11578408","ios":"levelo://app?vid=81f88721-00d0-431c-83bf-446e11578408"},"vehicle_type_id":"4","last_reported":1752786628,"current_range_meters":9600,"station_id":"st_cvj5dfep6f1abm77gieg","pricing_plan_id":"cebpf4jnsgd1na2vs0mg"},{"bike_id":"f1db4996-5cb9-43ea-a530-912650134788","system_id":"levelo_inurba_marseille","lat":43.29039,"lon":5.3997,"is_reserved":false,"is_disabled":false,"rental_uris":{"android":"levelo://app?vid=f1db4996-5cb9-43ea-a530-912650134788","ios":"levelo://app?vid=f1db4996-5cb9-43ea-a530-912650134788"},"vehicle_type_id":"4","last_reported":1752786628,"current_range_meters":10000,"station_id":"ce4bh392rcd13ifvqdm0","pricing_plan_id":"cebpf4jnsgd1na2vs0mg"},{"bike_id":"a231b24b-88f5-4125-9430-565759e4ade8","system_id":"levelo_inurba_marseille","lat":43.28462,"lon":5.35881,"is_reserved":false,"is_disabled":false,"rental_uris":{"android":"levelo://app?vid=a231b24b-88f5-4125-9430-565759e4ade8","ios":"levelo://app?vid=a231b24b-88f5-4125-9430-565759e4ade8"},"vehicle_type_id":"4","last_reported":1752786628,"current_range_meters":10000,"station_id":"ce4bhah2rcd13ifvqei0","pricing_plan_id":"cebpf4jnsgd1na2vs0mg"},{"bike_id":"be169f80-61ff-43b6-88e0-d778068efbe9","system_id":"levelo_inurba_marseille","lat":43.29186,"lon":5.39324,"is_reserved":false,"is_disabled":false,"rental_uris":{"android":"levelo://app?vid=be169f80-61ff-43b6-88e0-d778068efbe9","ios":"levelo://app?vid=be169f80-61ff-43b6-88e0-d778068efbe9"},"vehicle_type_id":"4","last_reported":1752786628,"current_range_meters":10000,"station_id":"ce4bh192rcd13ifvqdd0","pricing_plan_id":"cebpf4jnsgd1na2vs0mg"},{"bike_id":"3e46adf7-5b11-4ae4-ac36-89677075a03c","system_id":"levelo_inurba_marseille","lat":43.23191,"lon":5.35553,"is_reserved":false,"is_disabled":false,"rental_uris":{"android":"levelo://app?vid=3e46adf7-5b11-4ae4-ac36-89677075a03c","ios":"levelo://app?vid=3e46adf7-5b11-4ae4-ac36-89677075a03c"},"vehicle_type_id":"4","last_reported":1752786628,"current_range_meters":10000,"station_id":"ce4bhu92rcd13ifvqi70","pricing_plan_id":"cebpf4jnsgd1na2vs0mg"},{"bike_id":"c7312d9a-d1a5-4a56-a429-049e15d2efd8","system_id":"levelo_inurba_marseille","lat":43.28855,"lon":5.39307,"is_reserved":false,"is_disabled":false,"rental_uris":{"android":"levelo://app?vid=c7312d9a-d1a5-4a56-a429-049e15d2efd8","ios":"levelo://app?vid=c7312d9a-d1a5-4a56-a429-049e15d2efd8"},"vehicle_type_id":"4","last_reported":1752786628,"current_range_meters":10000,"station_id":"ce4bh2p2rcd13ifvqdi0","pricing_plan_id":"cebpf4jnsgd1na2vs0mg"},{"bike_id":"a10e333c-b401-47c7-8f7e-ecea5133b020","system_id":"levelo_inurba_marseille","lat":43.28078,"lon":5.39662,"is_reserved":false,"is_disabled":false,"rental_uris":{"android":"levelo://app?vid=a10e333c-b401-47c7-8f7e-ecea5133b020","ios":"levelo://app?vid=a10e333c-b401-47c7-8f7e-ecea5133b020"},"vehicle_type_id":"4","last_reported":1752786628,"current_range_meters":10000,"station_id":"ce4bho12rcd13ifvqh2g","pricing_plan_id":"cebpf4jnsgd1na2vs0mg"},{"bike_id":"555bc53e-5286-4fb6-9154-af42b3fd9792","system_id":"levelo_inurba_marseille","lat":43.3007,"lon":5.37279,"is_reserved":false,"is_disabled":false,"rental_uris":{"android":"levelo://app?vid=555bc53e-5286-4fb6-9154-af42b3fd9792","ios":"levelo://app?vid=555bc53e-5286-4fb6-9154-af42b3fd9792"},"vehicle_type_id":"4","last_reported":1752786628,"current_range_meters":10000,"station_id":"","pricing_plan_id":"cebpf4jnsgd1na2vs0mg"},{"bike_id":"9b328d6e-289f-4d9c-a8c9-ee17aeee3035","system_id":"levelo_inurba_marseille","lat":43.295319,"lon":5.385558,"is_reserved":false,"is_disabled":false,"rental_uris":{"android":"levelo://app?vid=9b328d6e-289f-4d9c-a8c9-ee17aeee3035","ios":"levelo://app?vid=9b328d6e-289f-4d9c-a8c9-ee17aeee3035"},"vehicle_type_id":"4","last_reported":1752786628,"current_range_meters":10000,"station_id":"ce4bgih2rcd13ifvqba0","pricing_plan_id":"cebpf4jnsgd1na2vs0mg"},{"bike_id":"1592ec64-ebd0-4cab-9033-e66c4fe89625","system_id":"levelo_inurba_marseille","lat":43.29027,"lon":5.38647,"is_reserved":false,"is_disabled":false,"rental_uris":{"android":"levelo://app?vid=1592ec64-ebd0-4cab-9033-e66c4fe89625","ios":"levelo://app?vid=1592ec64-ebd0-4cab-9033-e66c4fe89625"},"vehicle_type_id":"4","last_reported":1752786628,"current_range_meters":9600,"station_id":"ce4bh4p2rcd13ifvqe0g","pricing_plan_id":"cebpf4jnsgd1na2vs0mg"},{"bike_id":"b9116b35-96a7-4c82-9bbf-53c9f5bad46f","system_id":"levelo_inurba_marseille","lat":43.27943,"lon":5.38699,"is_reserved":false,"is_disabled":false,"rental_uris":{"android":"levelo://app?vid=b9116b35-96a7-4c82-9bbf-53c9f5bad46f","ios":"levelo://app?vid=b9116b35-96a7-4c82-9bbf-53c9f5bad46f"},"vehicle_type_id":"4","last_reported":1752786628,"current_range_meters":10000,"station_id":"","pricing_plan_id":"cebpf4jnsgd1na2vs0mg"},{"bike_id":"2f7a0e06-666f-46d0-9c4f-c20f9f32c97a","system_id":"levelo_inurba_marseille","lat":43.30125,"lon":5.39856,"is_reserved":false,"is_disabled":false,"rental_uris":{"android":"levelo://app?vid=2f7a0e06-666f-46d0-9c4f-c20f9f32c97a","ios":"levelo://app?vid=2f7a0e06-666f-46d0-9c4f-c20f9f32c97a"},"vehicle_type_id":"4","last_reported":1752786628,"current_range_meters":10000,"station_id":"ce4bh0h2rcd13ifvqd40","pricing_plan_id":"cebpf4jnsgd1na2vs0mg"},{"bike_id":"f917674a-db6e-41d3-a9b6-f8499e0e194f","system_id":"levelo_inurba_marseille","lat":43.29278,"lon":5.38425,"is_reserved":false,"is_disabled":true,"rental_uris":{"android":"levelo://app?vid=f917674a-db6e-41d3-a9b6-f8499e0e194f","ios":"levelo://app?vid=f917674a-db6e-41d3-a9b6-f8499e0e194f"},"vehicle_type_id":"4","last_reported":1752786628,"current_range_meters":10800,"station_id":"ce4bh692rcd13ifvqea0","pricing_plan_id":"cebpf4jnsgd1na2vs0mg"},{"bike_id":"8e6e1ca6-9684-4865-bcc2-4f4c40c74eff","system_id":"levelo_inurba_marseille","lat":43.29656,"lon":5.38767,"is_reserved":false,"is_disabled":false,"rental_uris":{"android":"levelo://app?vid=8e6e1ca6-9684-4865-bcc2-4f4c40c74eff","ios":"levelo://app?vid=8e6e1ca6-9684-4865-bcc2-4f4c40c74eff"},"vehicle_type_id":"4","last_reported":1752786628,"current_range_meters":10800,"station_id":"","pricing_plan_id":"cebpf4jnsgd1na2vs0mg"},{"bike_id":"3db96550-a9ec-4132-b46f-c87c5977f477","system_id":"levelo_inurba_marseille","lat":43.29873,"lon":5.39736,"is_reserved":false,"is_disabled":false,"rental_uris":{"android":"levelo://app?vid=3db96550-a9ec-4132-b46f-c87c5977f477","ios":"levelo://app?vid=3db96550-a9ec-4132-b46f-c87c5977f477"},"vehicle_type_id":"4","last_reported":1752786628,"current_range_meters":10800,"station_id":"ce4bh0h2rcd13ifvqd50","pricing_plan_id":"cebpf4jnsgd1na2vs0mg"},{"bike_id":"3382e63b-05bf-4a60-96a0-d797e65c5add","system_id":"levelo_inurba_marseille","lat":43.28663,"lon":5.38679,"is_reserved":false,"is_disabled":false,"rental_uris":{"android":"levelo://app?vid=3382e63b-05bf-4a60-96a0-d797e65c5add","ios":"levelo://app?vid=3382e63b-05bf-4a60-96a0-d797e65c5add"},"vehicle_type_id":"4","last_reported":1752786628,"current_range_meters":10000,"station_id":"ce4bh492rcd13ifvqdug","pricing_plan_id":"cebpf4jnsgd1na2vs0mg"},{"bike_id":"1dc82fc1-69b4-402b-bfc9-670053d5a08a","system_id":"levelo_inurba_marseille","lat":43.24812,"lon":5.37443,"is_reserved":false,"is_disabled":false,"rental_uris":{"android":"levelo://app?vid=1dc82fc1-69b4-402b-bfc9-670053d5a08a","ios":"levelo://app?vid=1dc82fc1-69b4-402b-bfc9-670053d5a08a"},"vehicle_type_id":"4","last_reported":1752786628,"current_range_meters":10800,"station_id":"ce4bhgh2rcd13ifvqfb0","pricing_plan_id":"cebpf4jnsgd1na2vs0mg"},{"bike_id":"b2a298e9-19e9-4d30-9a09-a4722cdf6a7b","system_id":"levelo_inurba_marseille","lat":43.21179,"lon":5.35096,"is_reserved":false,"is_disabled":false,"rental_uris":{"android":"levelo://app?vid=b2a298e9-19e9-4d30-9a09-a4722cdf6a7b","ios":"levelo://app?vid=b2a298e9-19e9-4d30-9a09-a4722cdf6a7b"},"vehicle_type_id":"4","last_reported":1752786628,"current_range_meters":11200,"station_id":"st_cvj6sg6p6f1abm77japg","pricing_plan_id":"cebpf4jnsgd1na2vs0mg"},{"bike_id":"04d15a50-cb94-495c-969c-c09473f1fcda","system_id":"levelo_inurba_marseille","lat":43.296223,"lon":5.377025,"is_reserved":false,"is_disabled":false,"rental_uris":{"android":"levelo://app?vid=04d15a50-cb94-495c-969c-c09473f1fcda","ios":"levelo://app?vid=04d15a50-cb94-495c-969c-c09473f1fcda"},"vehicle_type_id":"4","last_reported":1752786628,"current_range_meters":11200,"station_id":"","pricing_plan_id":"cebpf4jnsgd1na2vs0mg"},{"bike_id":"6c7dee28-0d94-4295-8cfb-2680987524ce","system_id":"levelo_inurba_marseille","lat":43.29418,"lon":5.38603,"is_reserved":false,"is_disabled":false,"rental_uris":{"android":"levelo://app?vid=6c7dee28-0d94-4295-8cfb-2680987524ce","ios":"levelo://app?vid=6c7dee28-0d94-4295-8cfb-2680987524ce"},"vehicle_type_id":"4","last_reported":1752786628,"current_range_meters":11200,"station_id":"ce4bh2h2rcd13ifvqdh0","pricing_plan_id":"cebpf4jnsgd1na2vs0mg"},{"bike_id":"d5cf9842-badf-4a68-9881-bdc35317cb14","system_id":"levelo_inurba_marseille","lat":43.27983,"lon":5.38742,"is_reserved":false,"is_disabled":false,"rental_uris":{"android":"levelo://app?vid=d5cf9842-badf-4a68-9881-bdc35317cb14","ios":"levelo://app?vid=d5cf9842-badf-4a68-9881-bdc35317cb14"},"vehicle_type_id":"4","last_reported":1752786628,"current_range_meters":11200,"station_id":"ce4bhg12rcd13ifvqf80","pricing_plan_id":"cebpf4jnsgd1na2vs0mg"},{"bike_id":"e5decb8b-8bf5-44fe-a198-a2033d0cdf4c","system_id":"levelo_inurba_marseille","lat":43.2885,"lon":5.39312,"is_reserved":false,"is_disabled":false,"rental_uris":{"android":"levelo://app?vid=e5decb8b-8bf5-44fe-a198-a2033d0cdf4c","ios":"levelo://app?vid=e5decb8b-8bf5-44fe-a198-a2033d0cdf4c"},"vehicle_type_id":"4","last_reported":1752786628,"current_range_meters":11200,"station_id":"ce4bh2p2rcd13ifvqdi0","pricing_plan_id":"cebpf4jnsgd1na2vs0mg"},{"bike_id":"ee8b1c16-dfa5-4da7-858d-9fbf42f821ae","system_id":"levelo_inurba_marseille","lat":43.3414,"lon":5.40906,"is_reserved":false,"is_disabled":false,"rental_uris":{"android":"levelo://app?vid=ee8b1c16-dfa5-4da7-858d-9fbf42f821ae","ios":"levelo://app?vid=ee8b1c16-dfa5-4da7-858d-9fbf42f821ae"},"vehicle_type_id":"4","last_reported":1752786628,"current_range_meters":10800,"station_id":"ce4bhqh2rcd13ifvqhlg","pricing_plan_id":"cebpf4jnsgd1na2vs0mg"},{"bike_id":"ca7bafa5-eb79-4167-8d00-0e43b0981759","system_id":"levelo_inurba_marseille","lat":43.30128,"lon":5.38772,"is_reserved":false,"is_disabled":false,"rental_uris":{"android":"levelo://app?vid=ca7bafa5-eb79-4167-8d00-0e43b0981759","ios":"levelo://app?vid=ca7bafa5-eb79-4167-8d00-0e43b0981759"},"vehicle_type_id":"4","last_reported":1752786628,"current_range_meters":11200,"station_id":"ce4bghh2rcd13ifvqb60","pricing_plan_id":"cebpf4jnsgd1na2vs0mg"},{"bike_id":"7fe4ddf9-47d0-4e2d-affa-d4b91b7cf122","system_id":"levelo_inurba_marseille","lat":43.2991,"lon":5.3816,"is_reserved":false,"is_disabled":false,"rental_uris":{"android":"levelo://app?vid=7fe4ddf9-47d0-4e2d-affa-d4b91b7cf122","ios":"levelo://app?vid=7fe4ddf9-47d0-4e2d-affa-d4b91b7cf122"},"vehicle_type_id":"4","last_reported":1752786628,"current_range_meters":11200,"station_id":"ce4bgj12rcd13ifvqbc0","pricing_plan_id":"cebpf4jnsgd1na2vs0mg"},{"bike_id":"28d27c17-e6ca-4cec-aec9-f1f6696b8a12","system_id":"levelo_inurba_marseille","lat":43.29886,"lon":5.43658,"is_reserved":false,"is_disabled":true,"rental_uris":{"android":"levelo://app?vid=28d27c17-e6ca-4cec-aec9-f1f6696b8a12","ios":"levelo://app?vid=28d27c17-e6ca-4cec-aec9-f1f6696b8a12"},"vehicle_type_id":"4","last_reported":1752786628,"current_range_meters":11200,"station_id":"ce4bhpp2rcd13ifvqhfg","pricing_plan_id":"cebpf4jnsgd1na2vs0mg"},{"bike_id":"994d3dc6-c07e-4859-8dcc-4b858e3792a6","system_id":"levelo_inurba_marseille","lat":43.27909,"lon":5.39588,"is_reserved":false,"is_disabled":false,"rental_uris":{"android":"levelo://app?vid=994d3dc6-c07e-4859-8dcc-4b858e3792a6","ios":"levelo://app?vid=994d3dc6-c07e-4859-8dcc-4b858e3792a6"},"vehicle_type_id":"4","last_reported":1752786628,"current_range_meters":11200,"station_id":"ce4bhf92rcd13ifvqf40","pricing_plan_id":"cebpf4jnsgd1na2vs0mg"},{"bike_id":"4aff3131-c2f0-49aa-9f71-6988eb132719","system_id":"levelo_inurba_marseille","lat":43.29416,"lon":5.38627,"is_reserved":false,"is_disabled":true,"rental_uris":{"android":"levelo://app?vid=4aff3131-c2f0-49aa-9f71-6988eb132719","ios":"levelo://app?vid=4aff3131-c2f0-49aa-9f71-6988eb132719"},"vehicle_type_id":"4","last_reported":1752786628,"current_range_meters":11600,"station_id":"ce4bh2h2rcd13ifvqdh0","pricing_plan_id":"cebpf4jnsgd1na2vs0mg"},{"bike_id":"3444bdc6-514a-4ba6-9650-f9073305e33d","system_id":"levelo_inurba_marseille","lat":43.29682,"lon":5.3698,"is_reserved":false,"is_disabled":false,"rental_uris":{"android":"levelo://app?vid=3444bdc6-514a-4ba6-9650-f9073305e33d","ios":"levelo://app?vid=3444bdc6-514a-4ba6-9650-f9073305e33d"},"vehicle_type_id":"4","last_reported":1752786628,"current_range_meters":11600,"station_id":"","pricing_plan_id":"cebpf4jnsgd1na2vs0mg"},{"bike_id":"59961a5c-6008-4288-809d-6658027f5769","system_id":"levelo_inurba_marseille","lat":43.261858,"lon":5.37463,"is_reserved":false,"is_disabled":false,"rental_uris":{"android":"levelo://app?vid=59961a5c-6008-4288-809d-6658027f5769","ios":"levelo://app?vid=59961a5c-6008-4288-809d-6658027f5769"},"vehicle_type_id":"4","last_reported":1752786628,"current_range_meters":11600,"station_id":"ce4bhgp2rcd13ifvqfc0","pricing_plan_id":"cebpf4jnsgd1na2vs0mg"},{"bike_id":"5fe46f64-4ce2-4f44-aa81-945e8707eb38","system_id":"levelo_inurba_marseille","lat":43.29262,"lon":5.3844,"is_reserved":false,"is_disabled":false,"rental_uris":{"android":"levelo://app?vid=5fe46f64-4ce2-4f44-aa81-945e8707eb38","ios":"levelo://app?vid=5fe46f64-4ce2-4f44-aa81-945e8707eb38"},"vehicle_type_id":"4","last_reported":1752786628,"current_range_meters":11600,"station_id":"ce4bh692rcd13ifvqea0","pricing_plan_id":"cebpf4jnsgd1na2vs0mg"},{"bike_id":"9ff813f5-7ffe-477a-a652-434a34f03c1a","system_id":"levelo_inurba_marseille","lat":43.29249,"lon":5.38439,"is_reserved":false,"is_disabled":true,"rental_uris":{"android":"levelo://app?vid=9ff813f5-7ffe-477a-a652-434a34f03c1a","ios":"levelo://app?vid=9ff813f5-7ffe-477a-a652-434a34f03c1a"},"vehicle_type_id":"4","last_reported":1752786628,"current_range_meters":11600,"station_id":"ce4bh692rcd13ifvqea0","pricing_plan_id":"cebpf4jnsgd1na2vs0mg"},{"bike_id":"07f5ae19-0925-43ef-aab4-48ec58bc62b9","system_id":"levelo_inurba_marseille","lat":43.314466,"lon":5.374386,"is_reserved":false,"is_disabled":false,"rental_uris":{"android":"levelo://app?vid=07f5ae19-0925-43ef-aab4-48ec58bc62b9","ios":"levelo://app?vid=07f5ae19-0925-43ef-aab4-48ec58bc62b9"},"vehicle_type_id":"4","last_reported":1752786628,"current_range_meters":11600,"station_id":"","pricing_plan_id":"cebpf4jnsgd1na2vs0mg"},{"bike_id":"3bab0d4d-abde-4ac8-be3f-47bc2c330ee2","system_id":"levelo_inurba_marseille","lat":43.29103,"lon":5.38144,"is_reserved":false,"is_disabled":false,"rental_uris":{"android":"levelo://app?vid=3bab0d4d-abde-4ac8-be3f-47bc2c330ee2","ios":"levelo://app?vid=3bab0d4d-abde-4ac8-be3f-47bc2c330ee2"},"vehicle_type_id":"4","last_reported":1752786628,"current_range_meters":11200,"station_id":"ce4bh512rcd13ifvqe2g","pricing_plan_id":"cebpf4jnsgd1na2vs0mg"},{"bike_id":"aeeb2100-5ade-4c8d-809c-6ec0b76014df","system_id":"levelo_inurba_marseille","lat":43.28575,"lon":5.39497,"is_reserved":false,"is_disabled":false,"rental_uris":{"android":"levelo://app?vid=aeeb2100-5ade-4c8d-809c-6ec0b76014df","ios":"levelo://app?vid=aeeb2100-5ade-4c8d-809c-6ec0b76014df"},"vehicle_type_id":"4","last_reported":1752786628,"current_range_meters":11600,"station_id":"ce4bh292rcd13ifvqdg0","pricing_plan_id":"cebpf4jnsgd1na2vs0mg"},{"bike_id":"c07512f5-20de-47cc-9f7a-5bd8928a488f","system_id":"levelo_inurba_marseille","lat":43.31159,"lon":5.38721,"is_reserved":false,"is_disabled":false,"rental_uris":{"android":"levelo://app?vid=c07512f5-20de-47cc-9f7a-5bd8928a488f","ios":"levelo://app?vid=c07512f5-20de-47cc-9f7a-5bd8928a488f"},"vehicle_type_id":"4","last_reported":1752786628,"current_range_meters":12000,"station_id":"ce4bgv12rcd13ifvqcp0","pricing_plan_id":"cebpf4jnsgd1na2vs0mg"},{"bike_id":"923b17a0-61a0-4d35-88f1-93062aa5f171","system_id":"levelo_inurba_marseille","lat":43.30935,"lon":5.39033,"is_reserved":false,"is_disabled":false,"rental_uris":{"android":"levelo://app?vid=923b17a0-61a0-4d35-88f1-93062aa5f171","ios":"levelo://app?vid=923b17a0-61a0-4d35-88f1-93062aa5f171"},"vehicle_type_id":"4","last_reported":1752786628,"current_range_meters":12000,"station_id":"ce4bgup2rcd13ifvqco0","pricing_plan_id":"cebpf4jnsgd1na2vs0mg"},{"bike_id":"5608ce29-3724-49de-80ae-80031e218710","system_id":"levelo_inurba_marseille","lat":43.29021,"lon":5.38639,"is_reserved":false,"is_disabled":false,"rental_uris":{"android":"levelo://app?vid=5608ce29-3724-49de-80ae-80031e218710","ios":"levelo://app?vid=5608ce29-3724-49de-80ae-80031e218710"},"vehicle_type_id":"4","last_reported":1752786628,"current_range_meters":12000,"station_id":"ce4bh4p2rcd13ifvqe0g","pricing_plan_id":"cebpf4jnsgd1na2vs0mg"},{"bike_id":"95113583-601e-43c3-8df7-26ddb3825227","system_id":"levelo_inurba_marseille","lat":43.28402,"lon":5.37523,"is_reserved":false,"is_disabled":false,"rental_uris":{"android":"levelo://app?vid=95113583-601e-43c3-8df7-26ddb3825227","ios":"levelo://app?vid=95113583-601e-43c3-8df7-26ddb3825227"},"vehicle_type_id":"4","last_reported":1752786628,"current_range_meters":12000,"station_id":"ce4bh412rcd13ifvqds0","pricing_plan_id":"cebpf4jnsgd1na2vs0mg"},{"bike_id":"c303be8a-04b5-403f-a92a-eac34b716859","system_id":"levelo_inurba_marseille","lat":43.22952,"lon":5.35414,"is_reserved":false,"is_disabled":false,"rental_uris":{"android":"levelo://app?vid=c303be8a-04b5-403f-a92a-eac34b716859","ios":"levelo://app?vid=c303be8a-04b5-403f-a92a-eac34b716859"},"vehicle_type_id":"4","last_reported":1752786628,"current_range_meters":12000,"station_id":"cpo3532slgdg3j2ikp40","pricing_plan_id":"cebpf4jnsgd1na2vs0mg"},{"bike_id":"d1e94785-07c9-4567-977b-a1d086ccac8d","system_id":"levelo_inurba_marseille","lat":43.299,"lon":5.4365,"is_reserved":false,"is_disabled":false,"rental_uris":{"android":"levelo://app?vid=d1e94785-07c9-4567-977b-a1d086ccac8d","ios":"levelo://app?vid=d1e94785-07c9-4567-977b-a1d086ccac8d"},"vehicle_type_id":"4","last_reported":1752786628,"current_range_meters":12400,"station_id":"ce4bhpp2rcd13ifvqhfg","pricing_plan_id":"cebpf4jnsgd1na2vs0mg"},{"bike_id":"db35dc74-d5b9-48d3-9c6d-56ef0431ae28","system_id":"levelo_inurba_marseille","lat":43.29869,"lon":5.39728,"is_reserved":false,"is_disabled":false,"rental_uris":{"android":"levelo://app?vid=db35dc74-d5b9-48d3-9c6d-56ef0431ae28","ios":"levelo://app?vid=db35dc74-d5b9-48d3-9c6d-56ef0431ae28"},"vehicle_type_id":"4","last_reported":1752786628,"current_range_meters":12400,"station_id":"ce4bh0h2rcd13ifvqd50","pricing_plan_id":"cebpf4jnsgd1na2vs0mg"},{"bike_id":"8a347f89-75fb-49e8-8fff-99aaf0db68a3","system_id":"levelo_inurba_marseille","lat":43.30319,"lon":5.40444,"is_reserved":false,"is_disabled":false,"rental_uris":{"android":"levelo://app?vid=8a347f89-75fb-49e8-8fff-99aaf0db68a3","ios":"levelo://app?vid=8a347f89-75fb-49e8-8fff-99aaf0db68a3"},"vehicle_type_id":"4","last_reported":1752786628,"current_range_meters":12400,"station_id":"ce4bh012rcd13ifvqd10","pricing_plan_id":"cebpf4jnsgd1na2vs0mg"},{"bike_id":"9e8e3fca-2acb-4fbe-8a82-96c4f3e74feb","system_id":"levelo_inurba_marseille","lat":43.30241,"lon":5.40062,"is_reserved":false,"is_disabled":false,"rental_uris":{"android":"levelo://app?vid=9e8e3fca-2acb-4fbe-8a82-96c4f3e74feb","ios":"levelo://app?vid=9e8e3fca-2acb-4fbe-8a82-96c4f3e74feb"},"vehicle_type_id":"4","last_reported":1752786628,"current_range_meters":12000,"station_id":"ce4bgvh2rcd13ifvqcs0","pricing_plan_id":"cebpf4jnsgd1na2vs0mg"},{"bike_id":"f268f0f2-07f9-486d-8f0e-e8ebde028ad4","system_id":"levelo_inurba_marseille","lat":43.29523,"lon":5.39409,"is_reserved":false,"is_disabled":false,"rental_uris":{"android":"levelo://app?vid=f268f0f2-07f9-486d-8f0e-e8ebde028ad4","ios":"levelo://app?vid=f268f0f2-07f9-486d-8f0e-e8ebde028ad4"},"vehicle_type_id":"4","last_reported":1752786628,"current_range_meters":12400,"station_id":"ce4bh292rcd13ifvqdf0","pricing_plan_id":"cebpf4jnsgd1na2vs0mg"},{"bike_id":"58d7c273-4e17-4b85-8045-ee489fec20ef","system_id":"levelo_inurba_marseille","lat":43.29309,"lon":5.37181,"is_reserved":false,"is_disabled":false,"rental_uris":{"android":"levelo://app?vid=58d7c273-4e17-4b85-8045-ee489fec20ef","ios":"levelo://app?vid=58d7c273-4e17-4b85-8045-ee489fec20ef"},"vehicle_type_id":"4","last_reported":1752786628,"current_range_meters":12000,"station_id":"ce4bgh92rcd13ifvqb40","pricing_plan_id":"cebpf4jnsgd1na2vs0mg"},{"bike_id":"57c10aef-3375-4a77-9864-0c2a1301425c","system_id":"levelo_inurba_marseille","lat":43.26221,"lon":5.40472,"is_reserved":false,"is_disabled":false,"rental_uris":{"android":"levelo://app?vid=57c10aef-3375-4a77-9864-0c2a1301425c","ios":"levelo://app?vid=57c10aef-3375-4a77-9864-0c2a1301425c"},"vehicle_type_id":"4","last_reported":1752786628,"current_range_meters":12800,"station_id":"ce4bhmh2rcd13ifvqgmg","pricing_plan_id":"cebpf4jnsgd1na2vs0mg"},{"bike_id":"339625b1-24b2-41f0-af63-928bda0d9845","system_id":"levelo_inurba_marseille","lat":43.30594,"lon":5.3936,"is_reserved":false,"is_disabled":false,"rental_uris":{"android":"levelo://app?vid=339625b1-24b2-41f0-af63-928bda0d9845","ios":"levelo://app?vid=339625b1-24b2-41f0-af63-928bda0d9845"},"vehicle_type_id":"4","last_reported":1752786628,"current_range_meters":12800,"station_id":"ce4bh0p2rcd13ifvqd80","pricing_plan_id":"cebpf4jnsgd1na2vs0mg"},{"bike_id":"6d70d6d4-7776-4d1e-a307-46e9e54de733","system_id":"levelo_inurba_marseille","lat":43.29556,"lon":5.40016,"is_reserved":false,"is_disabled":true,"rental_uris":{"android":"levelo://app?vid=6d70d6d4-7776-4d1e-a307-46e9e54de733","ios":"levelo://app?vid=6d70d6d4-7776-4d1e-a307-46e9e54de733"},"vehicle_type_id":"4","last_reported":1752786628,"current_range_meters":12800,"station_id":"ce4bh312rcd13ifvqdj0","pricing_plan_id":"cebpf4jnsgd1na2vs0mg"},{"bike_id":"3e2535f8-7d7e-418e-8d9a-1404dd8a8196","system_id":"levelo_inurba_marseille","lat":43.33769,"lon":5.37435,"is_reserved":false,"is_disabled":true,"rental_uris":{"android":"levelo://app?vid=3e2535f8-7d7e-418e-8d9a-1404dd8a8196","ios":"levelo://app?vid=3e2535f8-7d7e-418e-8d9a-1404dd8a8196"},"vehicle_type_id":"4","last_reported":1752786628,"current_range_meters":12800,"station_id":"ce4bgh92rcd13ifvqb40","pricing_plan_id":"cebpf4jnsgd1na2vs0mg"},{"bike_id":"8e5d96e1-99db-4984-b515-29c33e80be7f","system_id":"levelo_inurba_marseille","lat":43.254883,"lon":5.37646,"is_reserved":false,"is_disabled":false,"rental_uris":{"android":"levelo://app?vid=8e5d96e1-99db-4984-b515-29c33e80be7f","ios":"levelo://app?vid=8e5d96e1-99db-4984-b515-29c33e80be7f"},"vehicle_type_id":"4","last_reported":1752786628,"current_range_meters":12800,"station_id":"ce4bhh12rcd13ifvqff0","pricing_plan_id":"cebpf4jnsgd1na2vs0mg"},{"bike_id":"78274e74-ab73-4fa7-b1a3-d1a684863996","system_id":"levelo_inurba_marseille","lat":43.225167,"lon":5.34785,"is_reserved":false,"is_disabled":false,"rental_uris":{"android":"levelo://app?vid=78274e74-ab73-4fa7-b1a3-d1a684863996","ios":"levelo://app?vid=78274e74-ab73-4fa7-b1a3-d1a684863996"},"vehicle_type_id":"4","last_reported":1752786628,"current_range_meters":12800,"station_id":"st_cvj5dfep6f1abm77gieg","pricing_plan_id":"cebpf4jnsgd1na2vs0mg"},{"bike_id":"a2a33e33-6e01-4300-b944-4634c29a2189","system_id":"levelo_inurba_marseille","lat":43.29273,"lon":5.38445,"is_reserved":false,"is_disabled":false,"rental_uris":{"android":"levelo://app?vid=a2a33e33-6e01-4300-b944-4634c29a2189","ios":"levelo://app?vid=a2a33e33-6e01-4300-b944-4634c29a2189"},"vehicle_type_id":"4","last_reported":1752786628,"current_range_meters":12800,"station_id":"ce4bh692rcd13ifvqea0","pricing_plan_id":"cebpf4jnsgd1na2vs0mg"},{"bike_id":"ea42e4a5-0e57-44d1-96f4-e0abd2b11dba","system_id":"levelo_inurba_marseille","lat":43.31269,"lon":5.4016,"is_reserved":false,"is_disabled":false,"rental_uris":{"android":"levelo://app?vid=ea42e4a5-0e57-44d1-96f4-e0abd2b11dba","ios":"levelo://app?vid=ea42e4a5-0e57-44d1-96f4-e0abd2b11dba"},"vehicle_type_id":"4","last_reported":1752786628,"current_range_meters":12800,"station_id":"ce4bh092rcd13ifvqd30","pricing_plan_id":"cebpf4jnsgd1na2vs0mg"},{"bike_id":"b861e845-045e-4bb7-9260-06d3fafca4ef","system_id":"levelo_inurba_marseille","lat":43.29896,"lon":5.43668,"is_reserved":false,"is_disabled":false,"rental_uris":{"android":"levelo://app?vid=b861e845-045e-4bb7-9260-06d3fafca4ef","ios":"levelo://app?vid=b861e845-045e-4bb7-9260-06d3fafca4ef"},"vehicle_type_id":"4","last_reported":1752786628,"current_range_meters":13600,"station_id":"ce4bhpp2rcd13ifvqhfg","pricing_plan_id":"cebpf4jnsgd1na2vs0mg"},{"bike_id":"2c6e34ec-e4ad-4b55-908f-732bdcecdb2f","system_id":"levelo_inurba_marseille","lat":43.21199,"lon":5.35073,"is_reserved":false,"is_disabled":false,"rental_uris":{"android":"levelo://app?vid=2c6e34ec-e4ad-4b55-908f-732bdcecdb2f","ios":"levelo://app?vid=2c6e34ec-e4ad-4b55-908f-732bdcecdb2f"},"vehicle_type_id":"4","last_reported":1752786628,"current_range_meters":13600,"station_id":"st_cvj6sg6p6f1abm77japg","pricing_plan_id":"cebpf4jnsgd1na2vs0mg"},{"bike_id":"3622227d-4bd9-4812-b75f-e65202edc632","system_id":"levelo_inurba_marseille","lat":43.26947,"lon":5.38902,"is_reserved":false,"is_disabled":false,"rental_uris":{"android":"levelo://app?vid=3622227d-4bd9-4812-b75f-e65202edc632","ios":"levelo://app?vid=3622227d-4bd9-4812-b75f-e65202edc632"},"vehicle_type_id":"4","last_reported":1752786628,"current_range_meters":13600,"station_id":"ce4bhhh2rcd13ifvqfl0","pricing_plan_id":"cebpf4jnsgd1na2vs0mg"},{"bike_id":"eb97c1c3-f939-4274-865e-8c9f11664b70","system_id":"levelo_inurba_marseille","lat":43.26058,"lon":5.39398,"is_reserved":false,"is_disabled":false,"rental_uris":{"android":"levelo://app?vid=eb97c1c3-f939-4274-865e-8c9f11664b70","ios":"levelo://app?vid=eb97c1c3-f939-4274-865e-8c9f11664b70"},"vehicle_type_id":"4","last_reported":1752786628,"current_range_meters":13600,"station_id":"ce4bhh92rcd13ifvqfj0","pricing_plan_id":"cebpf4jnsgd1na2vs0mg"},{"bike_id":"2ac93549-5c94-4228-8eea-782a21384d10","system_id":"levelo_inurba_marseille","lat":43.29634,"lon":5.37793,"is_reserved":false,"is_disabled":false,"rental_uris":{"android":"levelo://app?vid=2ac93549-5c94-4228-8eea-782a21384d10","ios":"levelo://app?vid=2ac93549-5c94-4228-8eea-782a21384d10"},"vehicle_type_id":"4","last_reported":1752786628,"current_range_meters":13600,"station_id":"","pricing_plan_id":"cebpf4jnsgd1na2vs0mg"},{"bike_id":"2a5cca6b-5fa7-4c22-8b7b-a332eb5ddb9f","system_id":"levelo_inurba_marseille","lat":43.28473,"lon":5.38419,"is_reserved":false,"is_disabled":false,"rental_uris":{"android":"levelo://app?vid=2a5cca6b-5fa7-4c22-8b7b-a332eb5ddb9f","ios":"levelo://app?vid=2a5cca6b-5fa7-4c22-8b7b-a332eb5ddb9f"},"vehicle_type_id":"4","last_reported":1752786628,"current_range_meters":14000,"station_id":"ce4bh512rcd13ifvqe3g","pricing_plan_id":"cebpf4jnsgd1na2vs0mg"},{"bike_id":"7c418b45-ea5c-4ad4-abf1-ba52d9c9c35d","system_id":"levelo_inurba_marseille","lat":43.29421,"lon":5.38604,"is_reserved":false,"is_disabled":false,"rental_uris":{"android":"levelo://app?vid=7c418b45-ea5c-4ad4-abf1-ba52d9c9c35d","ios":"levelo://app?vid=7c418b45-ea5c-4ad4-abf1-ba52d9c9c35d"},"vehicle_type_id":"4","last_reported":1752786628,"current_range_meters":14000,"station_id":"ce4bh2h2rcd13ifvqdh0","pricing_plan_id":"cebpf4jnsgd1na2vs0mg"},{"bike_id":"b3d93b47-e588-45e1-bce7-00ad374ebca5","system_id":"levelo_inurba_marseille","lat":43.28457,"lon":5.3591,"is_reserved":false,"is_disabled":false,"rental_uris":{"android":"levelo://app?vid=b3d93b47-e588-45e1-bce7-00ad374ebca5","ios":"levelo://app?vid=b3d93b47-e588-45e1-bce7-00ad374ebca5"},"vehicle_type_id":"4","last_reported":1752786628,"current_range_meters":14000,"station_id":"ce4bhah2rcd13ifvqei0","pricing_plan_id":"cebpf4jnsgd1na2vs0mg"},{"bike_id":"e555b545-304c-4dce-8496-1643c0f2600e","system_id":"levelo_inurba_marseille","lat":43.337444,"lon":5.374475,"is_reserved":false,"is_disabled":false,"rental_uris":{"android":"levelo://app?vid=e555b545-304c-4dce-8496-1643c0f2600e","ios":"levelo://app?vid=e555b545-304c-4dce-8496-1643c0f2600e"},"vehicle_type_id":"4","last_reported":1752786628,"current_range_meters":14000,"station_id":"","pricing_plan_id":"cebpf4jnsgd1na2vs0mg"},{"bike_id":"ba3823fb-c6a3-4066-b41a-411ec979f129","system_id":"levelo_inurba_marseille","lat":43.32335,"lon":5.4063,"is_reserved":false,"is_disabled":false,"rental_uris":{"android":"levelo://app?vid=ba3823fb-c6a3-4066-b41a-411ec979f129","ios":"levelo://app?vid=ba3823fb-c6a3-4066-b41a-411ec979f129"},"vehicle_type_id":"4","last_reported":1752786628,"current_range_meters":14000,"station_id":"ce4bhq92rcd13ifvqhjg","pricing_plan_id":"cebpf4jnsgd1na2vs0mg"},{"bike_id":"f1a7f3b0-3bad-4ded-bc92-3fb1685f68ed","system_id":"levelo_inurba_marseille","lat":43.293638,"lon":5.378632,"is_reserved":false,"is_disabled":true,"rental_uris":{"android":"levelo://app?vid=f1a7f3b0-3bad-4ded-bc92-3fb1685f68ed","ios":"levelo://app?vid=f1a7f3b0-3bad-4ded-bc92-3fb1685f68ed"},"vehicle_type_id":"4","last_reported":1752786628,"current_range_meters":14400,"station_id":"ce4bgjh2rcd13ifvqbf0","pricing_plan_id":"cebpf4jnsgd1na2vs0mg"},{"bike_id":"72363da8-e89e-41f4-b909-1cd750ba8cd6","system_id":"levelo_inurba_marseille","lat":43.250883,"lon":5.395275,"is_reserved":false,"is_disabled":false,"rental_uris":{"android":"levelo://app?vid=72363da8-e89e-41f4-b909-1cd750ba8cd6","ios":"levelo://app?vid=72363da8-e89e-41f4-b909-1cd750ba8cd6"},"vehicle_type_id":"4","last_reported":1752786628,"current_range_meters":14400,"station_id":"ce4bhm12rcd13ifvqgkg","pricing_plan_id":"cebpf4jnsgd1na2vs0mg"},{"bike_id":"3ad34cc4-611e-4e0f-b5f6-9bced2f0a7c9","system_id":"levelo_inurba_marseille","lat":43.29528,"lon":5.39034,"is_reserved":false,"is_disabled":false,"rental_uris":{"android":"levelo://app?vid=3ad34cc4-611e-4e0f-b5f6-9bced2f0a7c9","ios":"levelo://app?vid=3ad34cc4-611e-4e0f-b5f6-9bced2f0a7c9"},"vehicle_type_id":"4","last_reported":1752786628,"current_range_meters":14000,"station_id":"ce4bh3p2rcd13ifvqdp0","pricing_plan_id":"cebpf4jnsgd1na2vs0mg"},{"bike_id":"cf875f67-a886-46fc-b2b8-7d996ce4f387","system_id":"levelo_inurba_marseille","lat":43.31173,"lon":5.38712,"is_reserved":false,"is_disabled":false,"rental_uris":{"android":"levelo://app?vid=cf875f67-a886-46fc-b2b8-7d996ce4f387","ios":"levelo://app?vid=cf875f67-a886-46fc-b2b8-7d996ce4f387"},"vehicle_type_id":"4","last_reported":1752786628,"current_range_meters":14400,"station_id":"ce4bgv12rcd13ifvqcp0","pricing_plan_id":"cebpf4jnsgd1na2vs0mg"},{"bike_id":"da891840-0cec-4ccc-961c-48903736c6fa","system_id":"levelo_inurba_marseille","lat":43.31139,"lon":5.37692,"is_reserved":false,"is_disabled":false,"rental_uris":{"android":"levelo://app?vid=da891840-0cec-4ccc-961c-48903736c6fa","ios":"levelo://app?vid=da891840-0cec-4ccc-961c-48903736c6fa"},"vehicle_type_id":"4","last_reported":1752786628,"current_range_meters":14400,"station_id":"","pricing_plan_id":"cebpf4jnsgd1na2vs0mg"},{"bike_id":"0698bc0a-1356-460f-8b6d-fca0137a6217","system_id":"levelo_inurba_marseille","lat":43.21193,"lon":5.35084,"is_reserved":false,"is_disabled":false,"rental_uris":{"android":"levelo://app?vid=0698bc0a-1356-460f-8b6d-fca0137a6217","ios":"levelo://app?vid=0698bc0a-1356-460f-8b6d-fca0137a6217"},"vehicle_type_id":"4","last_reported":1752786628,"current_range_meters":14400,"station_id":"st_cvj6sg6p6f1abm77japg","pricing_plan_id":"cebpf4jnsgd1na2vs0mg"},{"bike_id":"fa952d17-ab1a-4475-9dcd-13ca92954e4b","system_id":"levelo_inurba_marseille","lat":43.29251,"lon":5.38443,"is_reserved":false,"is_disabled":false,"rental_uris":{"android":"levelo://app?vid=fa952d17-ab1a-4475-9dcd-13ca92954e4b","ios":"levelo://app?vid=fa952d17-ab1a-4475-9dcd-13ca92954e4b"},"vehicle_type_id":"4","last_reported":1752786628,"current_range_meters":14400,"station_id":"ce4bh692rcd13ifvqea0","pricing_plan_id":"cebpf4jnsgd1na2vs0mg"},{"bike_id":"ae28ea44-06e0-468d-b104-f45ecdf62a40","system_id":"levelo_inurba_marseille","lat":43.232,"lon":5.35576,"is_reserved":false,"is_disabled":false,"rental_uris":{"android":"levelo://app?vid=ae28ea44-06e0-468d-b104-f45ecdf62a40","ios":"levelo://app?vid=ae28ea44-06e0-468d-b104-f45ecdf62a40"},"vehicle_type_id":"4","last_reported":1752786628,"current_range_meters":14800,"station_id":"ce4bhu92rcd13ifvqi70","pricing_plan_id":"cebpf4jnsgd1na2vs0mg"},{"bike_id":"9c837b99-081f-4caa-a8a3-7d6dc61e9d18","system_id":"levelo_inurba_marseille","lat":43.230595,"lon":5.354993,"is_reserved":false,"is_disabled":false,"rental_uris":{"android":"levelo://app?vid=9c837b99-081f-4caa-a8a3-7d6dc61e9d18","ios":"levelo://app?vid=9c837b99-081f-4caa-a8a3-7d6dc61e9d18"},"vehicle_type_id":"4","last_reported":1752786628,"current_range_meters":14800,"station_id":"cpo3342slgdg3j2ifvpg","pricing_plan_id":"cebpf4jnsgd1na2vs0mg"},{"bike_id":"398d6518-63ea-41c2-90f5-21fa7f9671fe","system_id":"levelo_inurba_marseille","lat":43.28899,"lon":5.37904,"is_reserved":false,"is_disabled":false,"rental_uris":{"android":"levelo://app?vid=398d6518-63ea-41c2-90f5-21fa7f9671fe","ios":"levelo://app?vid=398d6518-63ea-41c2-90f5-21fa7f9671fe"},"vehicle_type_id":"4","last_reported":1752786628,"current_range_meters":14800,"station_id":"","pricing_plan_id":"cebpf4jnsgd1na2vs0mg"},{"bike_id":"43ec0c47-82bb-4e89-bd64-363982687add","system_id":"levelo_inurba_marseille","lat":43.27919,"lon":5.39589,"is_reserved":false,"is_disabled":false,"rental_uris":{"android":"levelo://app?vid=43ec0c47-82bb-4e89-bd64-363982687add","ios":"levelo://app?vid=43ec0c47-82bb-4e89-bd64-363982687add"},"vehicle_type_id":"4","last_reported":1752786628,"current_range_meters":14800,"station_id":"ce4bhf92rcd13ifvqf40","pricing_plan_id":"cebpf4jnsgd1na2vs0mg"},{"bike_id":"4617c6c3-f658-4ca2-a7ce-0267bda5bf49","system_id":"levelo_inurba_marseille","lat":43.292542,"lon":5.384353,"is_reserved":false,"is_disabled":false,"rental_uris":{"android":"levelo://app?vid=4617c6c3-f658-4ca2-a7ce-0267bda5bf49","ios":"levelo://app?vid=4617c6c3-f658-4ca2-a7ce-0267bda5bf49"},"vehicle_type_id":"4","last_reported":1752786628,"current_range_meters":14800,"station_id":"ce4bh692rcd13ifvqea0","pricing_plan_id":"cebpf4jnsgd1na2vs0mg"},{"bike_id":"9f0734ae-f3c2-419a-abb5-a04ab63e8aac","system_id":"levelo_inurba_marseille","lat":43.29529,"lon":5.38551,"is_reserved":false,"is_disabled":false,"rental_uris":{"android":"levelo://app?vid=9f0734ae-f3c2-419a-abb5-a04ab63e8aac","ios":"levelo://app?vid=9f0734ae-f3c2-419a-abb5-a04ab63e8aac"},"vehicle_type_id":"4","last_reported":1752786628,"current_range_meters":14800,"station_id":"ce4bgih2rcd13ifvqba0","pricing_plan_id":"cebpf4jnsgd1na2vs0mg"},{"bike_id":"2272a1cb-30d4-47dd-bed5-39b01483f853","system_id":"levelo_inurba_marseille","lat":43.22939,"lon":5.3538,"is_reserved":false,"is_disabled":false,"rental_uris":{"android":"levelo://app?vid=2272a1cb-30d4-47dd-bed5-39b01483f853","ios":"levelo://app?vid=2272a1cb-30d4-47dd-bed5-39b01483f853"},"vehicle_type_id":"4","last_reported":1752786628,"current_range_meters":14800,"station_id":"cpo3532slgdg3j2ikp40","pricing_plan_id":"cebpf4jnsgd1na2vs0mg"},{"bike_id":"531dca68-8617-41b0-a6cd-abffc94e1d45","system_id":"levelo_inurba_marseille","lat":43.31204,"lon":5.37329,"is_reserved":false,"is_disabled":false,"rental_uris":{"android":"levelo://app?vid=531dca68-8617-41b0-a6cd-abffc94e1d45","ios":"levelo://app?vid=531dca68-8617-41b0-a6cd-abffc94e1d45"},"vehicle_type_id":"4","last_reported":1752786628,"current_range_meters":14800,"station_id":"","pricing_plan_id":"cebpf4jnsgd1na2vs0mg"},{"bike_id":"d72ae54a-3f28-4622-b729-5ac444039fa2","system_id":"levelo_inurba_marseille","lat":43.2955,"lon":5.39374,"is_reserved":false,"is_disabled":false,"rental_uris":{"android":"levelo://app?vid=d72ae54a-3f28-4622-b729-5ac444039fa2","ios":"levelo://app?vid=d72ae54a-3f28-4622-b729-5ac444039fa2"},"vehicle_type_id":"4","last_reported":1752786628,"current_range_meters":14800,"station_id":"ce4bh292rcd13ifvqdf0","pricing_plan_id":"cebpf4jnsgd1na2vs0mg"},{"bike_id":"0d1fbd6e-696e-4fe5-93cd-08ef5e0e6aff","system_id":"levelo_inurba_marseille","lat":43.29041,"lon":5.38665,"is_reserved":false,"is_disabled":false,"rental_uris":{"android":"levelo://app?vid=0d1fbd6e-696e-4fe5-93cd-08ef5e0e6aff","ios":"levelo://app?vid=0d1fbd6e-696e-4fe5-93cd-08ef5e0e6aff"},"vehicle_type_id":"4","last_reported":1752786628,"current_range_meters":14400,"station_id":"ce4bh4p2rcd13ifvqe0g","pricing_plan_id":"cebpf4jnsgd1na2vs0mg"},{"bike_id":"5a53aea4-6ba9-4a21-96e1-b5898a42c2ca","system_id":"levelo_inurba_marseille","lat":43.29528,"lon":5.38533,"is_reserved":false,"is_disabled":false,"rental_uris":{"android":"levelo://app?vid=5a53aea4-6ba9-4a21-96e1-b5898a42c2ca","ios":"levelo://app?vid=5a53aea4-6ba9-4a21-96e1-b5898a42c2ca"},"vehicle_type_id":"4","last_reported":1752786628,"current_range_meters":14800,"station_id":"ce4bgih2rcd13ifvqba0","pricing_plan_id":"cebpf4jnsgd1na2vs0mg"},{"bike_id":"1371ed42-3a45-4dc7-84a9-f4a2f2b0854d","system_id":"levelo_inurba_marseille","lat":43.29035,"lon":5.39961,"is_reserved":false,"is_disabled":false,"rental_uris":{"android":"levelo://app?vid=1371ed42-3a45-4dc7-84a9-f4a2f2b0854d","ios":"levelo://app?vid=1371ed42-3a45-4dc7-84a9-f4a2f2b0854d"},"vehicle_type_id":"4","last_reported":1752786628,"current_range_meters":15200,"station_id":"ce4bh392rcd13ifvqdm0","pricing_plan_id":"cebpf4jnsgd1na2vs0mg"},{"bike_id":"31695fe3-ba1a-451d-a7a2-e6e81aefdddc","system_id":"levelo_inurba_marseille","lat":43.286243,"lon":5.350977,"is_reserved":false,"is_disabled":true,"rental_uris":{"android":"levelo://app?vid=31695fe3-ba1a-451d-a7a2-e6e81aefdddc","ios":"levelo://app?vid=31695fe3-ba1a-451d-a7a2-e6e81aefdddc"},"vehicle_type_id":"4","last_reported":1752786628,"current_range_meters":15200,"station_id":"ce4bhch2rcd13ifvqeug","pricing_plan_id":"cebpf4jnsgd1na2vs0mg"},{"bike_id":"4cabf8ff-aa68-4f18-a216-120c9f9c9a76","system_id":"levelo_inurba_marseille","lat":43.286989,"lon":5.399823,"is_reserved":false,"is_disabled":false,"rental_uris":{"android":"levelo://app?vid=4cabf8ff-aa68-4f18-a216-120c9f9c9a76","ios":"levelo://app?vid=4cabf8ff-aa68-4f18-a216-120c9f9c9a76"},"vehicle_type_id":"4","last_reported":1752786628,"current_range_meters":15200,"station_id":"ce4bho92rcd13ifvqh3g","pricing_plan_id":"cebpf4jnsgd1na2vs0mg"},{"bike_id":"5bddd393-d9ee-4909-a787-4d987a46f1a6","system_id":"levelo_inurba_marseille","lat":43.27806,"lon":5.4071,"is_reserved":false,"is_disabled":false,"rental_uris":{"android":"levelo://app?vid=5bddd393-d9ee-4909-a787-4d987a46f1a6","ios":"levelo://app?vid=5bddd393-d9ee-4909-a787-4d987a46f1a6"},"vehicle_type_id":"4","last_reported":1752786628,"current_range_meters":15200,"station_id":"ce4bhnh2rcd13ifvqgtg","pricing_plan_id":"cebpf4jnsgd1na2vs0mg"},{"bike_id":"168a7671-aba6-4148-ba70-c792dfe2e642","system_id":"levelo_inurba_marseille","lat":43.2119,"lon":5.35097,"is_reserved":false,"is_disabled":false,"rental_uris":{"android":"levelo://app?vid=168a7671-aba6-4148-ba70-c792dfe2e642","ios":"levelo://app?vid=168a7671-aba6-4148-ba70-c792dfe2e642"},"vehicle_type_id":"4","last_reported":1752786628,"current_range_meters":15200,"station_id":"st_cvj6sg6p6f1abm77japg","pricing_plan_id":"cebpf4jnsgd1na2vs0mg"},{"bike_id":"f92163b4-d6ac-4e8e-ba68-533486847480","system_id":"levelo_inurba_marseille","lat":43.32654,"lon":5.40995,"is_reserved":false,"is_disabled":false,"rental_uris":{"android":"levelo://app?vid=f92163b4-d6ac-4e8e-ba68-533486847480","ios":"levelo://app?vid=f92163b4-d6ac-4e8e-ba68-533486847480"},"vehicle_type_id":"4","last_reported":1752786628,"current_range_meters":15200,"station_id":"ce4bhpp2rcd13ifvqhgg","pricing_plan_id":"cebpf4jnsgd1na2vs0mg"},{"bike_id":"af2586bf-649d-47c4-b208-89bb84c4150d","system_id":"levelo_inurba_marseille","lat":43.28108,"lon":5.37835,"is_reserved":false,"is_disabled":false,"rental_uris":{"android":"levelo://app?vid=af2586bf-649d-47c4-b208-89bb84c4150d","ios":"levelo://app?vid=af2586bf-649d-47c4-b208-89bb84c4150d"},"vehicle_type_id":"4","last_reported":1752786628,"current_range_meters":15200,"station_id":"ce4bha12rcd13ifvqee0","pricing_plan_id":"cebpf4jnsgd1na2vs0mg"},{"bike_id":"81c8115f-6a05-4634-bc79-336ce74c0aca","system_id":"levelo_inurba_marseille","lat":43.34845,"lon":5.35275,"is_reserved":false,"is_disabled":false,"rental_uris":{"android":"levelo://app?vid=81c8115f-6a05-4634-bc79-336ce74c0aca","ios":"levelo://app?vid=81c8115f-6a05-4634-bc79-336ce74c0aca"},"vehicle_type_id":"4","last_reported":1752786628,"current_range_meters":16000,"station_id":"","pricing_plan_id":"cebpf4jnsgd1na2vs0mg"},{"bike_id":"6be86623-c65c-4a0d-b3a4-c58891bfa931","system_id":"levelo_inurba_marseille","lat":43.22503,"lon":5.34783,"is_reserved":false,"is_disabled":false,"rental_uris":{"android":"levelo://app?vid=6be86623-c65c-4a0d-b3a4-c58891bfa931","ios":"levelo://app?vid=6be86623-c65c-4a0d-b3a4-c58891bfa931"},"vehicle_type_id":"4","last_reported":1752786628,"current_range_meters":16000,"station_id":"st_cvj5dfep6f1abm77gieg","pricing_plan_id":"cebpf4jnsgd1na2vs0mg"},{"bike_id":"a7138d4d-12bb-4d92-ab9a-ba1bec285a75","system_id":"levelo_inurba_marseille","lat":43.290446,"lon":5.359174,"is_reserved":false,"is_disabled":false,"rental_uris":{"android":"levelo://app?vid=a7138d4d-12bb-4d92-ab9a-ba1bec285a75","ios":"levelo://app?vid=a7138d4d-12bb-4d92-ab9a-ba1bec285a75"},"vehicle_type_id":"4","last_reported":1752786628,"current_range_meters":16000,"station_id":"ce4bha92rcd13ifvqeg0","pricing_plan_id":"cebpf4jnsgd1na2vs0mg"},{"bike_id":"4c78d410-bfc2-4f86-9348-a8c8c8d6d7fc","system_id":"levelo_inurba_marseille","lat":43.29678,"lon":5.37279,"is_reserved":false,"is_disabled":false,"rental_uris":{"android":"levelo://app?vid=4c78d410-bfc2-4f86-9348-a8c8c8d6d7fc","ios":"levelo://app?vid=4c78d410-bfc2-4f86-9348-a8c8c8d6d7fc"},"vehicle_type_id":"4","last_reported":1752786628,"current_range_meters":16000,"station_id":"ce4bgk12rcd13ifvqbj0","pricing_plan_id":"cebpf4jnsgd1na2vs0mg"},{"bike_id":"ad052428-87f6-4ad4-b01d-00ca0e47f564","system_id":"levelo_inurba_marseille","lat":43.29031,"lon":5.38649,"is_reserved":false,"is_disabled":false,"rental_uris":{"android":"levelo://app?vid=ad052428-87f6-4ad4-b01d-00ca0e47f564","ios":"levelo://app?vid=ad052428-87f6-4ad4-b01d-00ca0e47f564"},"vehicle_type_id":"4","last_reported":1752786628,"current_range_meters":16000,"station_id":"ce4bh4p2rcd13ifvqe0g","pricing_plan_id":"cebpf4jnsgd1na2vs0mg"},{"bike_id":"b9c220fa-ce21-46e5-9c5b-52d91725030b","system_id":"levelo_inurba_marseille","lat":43.22907,"lon":5.35402,"is_reserved":false,"is_disabled":false,"rental_uris":{"android":"levelo://app?vid=b9c220fa-ce21-46e5-9c5b-52d91725030b","ios":"levelo://app?vid=b9c220fa-ce21-46e5-9c5b-52d91725030b"},"vehicle_type_id":"4","last_reported":1752786628,"current_range_meters":16000,"station_id":"cpo3532slgdg3j2ikp40","pricing_plan_id":"cebpf4jnsgd1na2vs0mg"},{"bike_id":"0d87ca24-976c-4967-995f-815e40a697aa","system_id":"levelo_inurba_marseille","lat":43.32114,"lon":5.36757,"is_reserved":false,"is_disabled":false,"rental_uris":{"android":"levelo://app?vid=0d87ca24-976c-4967-995f-815e40a697aa","ios":"levelo://app?vid=0d87ca24-976c-4967-995f-815e40a697aa"},"vehicle_type_id":"4","last_reported":1752786628,"current_range_meters":16000,"station_id":"ce4bhrh2rcd13ifvqhug","pricing_plan_id":"cebpf4jnsgd1na2vs0mg"},{"bike_id":"a092d05c-8017-44f5-ba8a-35792463d6a3","system_id":"levelo_inurba_marseille","lat":43.22489,"lon":5.34792,"is_reserved":false,"is_disabled":false,"rental_uris":{"android":"levelo://app?vid=a092d05c-8017-44f5-ba8a-35792463d6a3","ios":"levelo://app?vid=a092d05c-8017-44f5-ba8a-35792463d6a3"},"vehicle_type_id":"4","last_reported":1752786628,"current_range_meters":16000,"station_id":"st_cvj5dfep6f1abm77gieg","pricing_plan_id":"cebpf4jnsgd1na2vs0mg"},{"bike_id":"d0573d96-ddb4-4622-bd15-49483cac3810","system_id":"levelo_inurba_marseille","lat":43.258633,"lon":5.399035,"is_reserved":false,"is_disabled":true,"rental_uris":{"android":"levelo://app?vid=d0573d96-ddb4-4622-bd15-49483cac3810","ios":"levelo://app?vid=d0573d96-ddb4-4622-bd15-49483cac3810"},"vehicle_type_id":"4","last_reported":1752786628,"current_range_meters":16000,"station_id":"ce4bhl92rcd13ifvqghg","pricing_plan_id":"cebpf4jnsgd1na2vs0mg"},{"bike_id":"e54582ed-ba92-4640-a97f-9e97144ce87f","system_id":"levelo_inurba_marseille","lat":43.32263,"lon":5.40652,"is_reserved":false,"is_disabled":false,"rental_uris":{"android":"levelo://app?vid=e54582ed-ba92-4640-a97f-9e97144ce87f","ios":"levelo://app?vid=e54582ed-ba92-4640-a97f-9e97144ce87f"},"vehicle_type_id":"4","last_reported":1752786628,"current_range_meters":16000,"station_id":"","pricing_plan_id":"cebpf4jnsgd1na2vs0mg"},{"bike_id":"7a6aca03-37b0-40ef-9d9a-27893d501471","system_id":"levelo_inurba_marseille","lat":43.249999,"lon":5.389277,"is_reserved":false,"is_disabled":false,"rental_uris":{"android":"levelo://app?vid=7a6aca03-37b0-40ef-9d9a-27893d501471","ios":"levelo://app?vid=7a6aca03-37b0-40ef-9d9a-27893d501471"},"vehicle_type_id":"4","last_reported":1752786628,"current_range_meters":16000,"station_id":"ce4bhgp2rcd13ifvqfd0","pricing_plan_id":"cebpf4jnsgd1na2vs0mg"},{"bike_id":"c71a84b3-ce99-45e8-8fd3-e7609c6d65f5","system_id":"levelo_inurba_marseille","lat":43.295442,"lon":5.386731,"is_reserved":false,"is_disabled":false,"rental_uris":{"android":"levelo://app?vid=c71a84b3-ce99-45e8-8fd3-e7609c6d65f5","ios":"levelo://app?vid=c71a84b3-ce99-45e8-8fd3-e7609c6d65f5"},"vehicle_type_id":"4","last_reported":1752786628,"current_range_meters":16000,"station_id":"ce4bgih2rcd13ifvqba0","pricing_plan_id":"cebpf4jnsgd1na2vs0mg"},{"bike_id":"5c2c3db6-3940-44f5-b26f-2ea3c60b6226","system_id":"levelo_inurba_marseille","lat":43.29419,"lon":5.38611,"is_reserved":false,"is_disabled":true,"rental_uris":{"android":"levelo://app?vid=5c2c3db6-3940-44f5-b26f-2ea3c60b6226","ios":"levelo://app?vid=5c2c3db6-3940-44f5-b26f-2ea3c60b6226"},"vehicle_type_id":"4","last_reported":1752786628,"current_range_meters":16000,"station_id":"ce4bh2h2rcd13ifvqdh0","pricing_plan_id":"cebpf4jnsgd1na2vs0mg"},{"bike_id":"e76c0254-f6c6-4a14-9ff8-4ab01deecf3d","system_id":"levelo_inurba_marseille","lat":43.29866,"lon":5.39728,"is_reserved":false,"is_disabled":false,"rental_uris":{"android":"levelo://app?vid=e76c0254-f6c6-4a14-9ff8-4ab01deecf3d","ios":"levelo://app?vid=e76c0254-f6c6-4a14-9ff8-4ab01deecf3d"},"vehicle_type_id":"4","last_reported":1752786628,"current_range_meters":16000,"station_id":"ce4bh0h2rcd13ifvqd50","pricing_plan_id":"cebpf4jnsgd1na2vs0mg"},{"bike_id":"93064a8f-6df9-4f93-85e3-ab80e6e91177","system_id":"levelo_inurba_marseille","lat":43.26234,"lon":5.40459,"is_reserved":false,"is_disabled":false,"rental_uris":{"android":"levelo://app?vid=93064a8f-6df9-4f93-85e3-ab80e6e91177","ios":"levelo://app?vid=93064a8f-6df9-4f93-85e3-ab80e6e91177"},"vehicle_type_id":"4","last_reported":1752786628,"current_range_meters":16400,"station_id":"ce4bhmh2rcd13ifvqgmg","pricing_plan_id":"cebpf4jnsgd1na2vs0mg"},{"bike_id":"084eace8-045f-4012-9455-c501cad7ce10","system_id":"levelo_inurba_marseille","lat":43.225,"lon":5.34782,"is_reserved":false,"is_disabled":false,"rental_uris":{"android":"levelo://app?vid=084eace8-045f-4012-9455-c501cad7ce10","ios":"levelo://app?vid=084eace8-045f-4012-9455-c501cad7ce10"},"vehicle_type_id":"4","last_reported":1752786628,"current_range_meters":16400,"station_id":"st_cvj5dfep6f1abm77gieg","pricing_plan_id":"cebpf4jnsgd1na2vs0mg"},{"bike_id":"553fa98c-cad1-4f43-89c4-f99be239a9a1","system_id":"levelo_inurba_marseille","lat":43.29265,"lon":5.38439,"is_reserved":false,"is_disabled":false,"rental_uris":{"android":"levelo://app?vid=553fa98c-cad1-4f43-89c4-f99be239a9a1","ios":"levelo://app?vid=553fa98c-cad1-4f43-89c4-f99be239a9a1"},"vehicle_type_id":"4","last_reported":1752786628,"current_range_meters":16400,"station_id":"ce4bh692rcd13ifvqea0","pricing_plan_id":"cebpf4jnsgd1na2vs0mg"},{"bike_id":"1fe65187-ac28-4e64-b7bb-a76e964c43b1","system_id":"levelo_inurba_marseille","lat":43.29518,"lon":5.39029,"is_reserved":false,"is_disabled":false,"rental_uris":{"android":"levelo://app?vid=1fe65187-ac28-4e64-b7bb-a76e964c43b1","ios":"levelo://app?vid=1fe65187-ac28-4e64-b7bb-a76e964c43b1"},"vehicle_type_id":"4","last_reported":1752786628,"current_range_meters":16400,"station_id":"ce4bh3p2rcd13ifvqdp0","pricing_plan_id":"cebpf4jnsgd1na2vs0mg"},{"bike_id":"dac9146e-2828-411e-846d-814e8c8c13f2","system_id":"levelo_inurba_marseille","lat":43.26555,"lon":5.39034,"is_reserved":false,"is_disabled":false,"rental_uris":{"android":"levelo://app?vid=dac9146e-2828-411e-846d-814e8c8c13f2","ios":"levelo://app?vid=dac9146e-2828-411e-846d-814e8c8c13f2"},"vehicle_type_id":"4","last_reported":1752786628,"current_range_meters":16400,"station_id":"ce4bhe12rcd13ifvqf30","pricing_plan_id":"cebpf4jnsgd1na2vs0mg"},{"bike_id":"03580a94-8da1-4cc8-a204-84801c736590","system_id":"levelo_inurba_marseille","lat":43.28678,"lon":5.36333,"is_reserved":false,"is_disabled":false,"rental_uris":{"android":"levelo://app?vid=03580a94-8da1-4cc8-a204-84801c736590","ios":"levelo://app?vid=03580a94-8da1-4cc8-a204-84801c736590"},"vehicle_type_id":"4","last_reported":1752786628,"current_range_meters":16400,"station_id":"ce4bhah2rcd13ifvqej0","pricing_plan_id":"cebpf4jnsgd1na2vs0mg"},{"bike_id":"2ded6291-a823-49b5-9bc5-1374dd62faea","system_id":"levelo_inurba_marseille","lat":43.24392,"lon":5.37065,"is_reserved":false,"is_disabled":false,"rental_uris":{"android":"levelo://app?vid=2ded6291-a823-49b5-9bc5-1374dd62faea","ios":"levelo://app?vid=2ded6291-a823-49b5-9bc5-1374dd62faea"},"vehicle_type_id":"4","last_reported":1752786628,"current_range_meters":16400,"station_id":"ce4bhhh2rcd13ifvqfk0","pricing_plan_id":"cebpf4jnsgd1na2vs0mg"},{"bike_id":"c6db0f6a-96fe-4e1d-8ded-c2ef38c9bab4","system_id":"levelo_inurba_marseille","lat":43.304183,"lon":5.412838,"is_reserved":false,"is_disabled":true,"rental_uris":{"android":"levelo://app?vid=c6db0f6a-96fe-4e1d-8ded-c2ef38c9bab4","ios":"levelo://app?vid=c6db0f6a-96fe-4e1d-8ded-c2ef38c9bab4"},"vehicle_type_id":"4","last_reported":1752786628,"current_range_meters":16800,"station_id":"ce4bhop2rcd13ifvqh8g","pricing_plan_id":"cebpf4jnsgd1na2vs0mg"},{"bike_id":"1d94feba-c90e-4d75-9f8d-9ea4bb03490e","system_id":"levelo_inurba_marseille","lat":43.29114,"lon":5.38179,"is_reserved":false,"is_disabled":true,"rental_uris":{"android":"levelo://app?vid=1d94feba-c90e-4d75-9f8d-9ea4bb03490e","ios":"levelo://app?vid=1d94feba-c90e-4d75-9f8d-9ea4bb03490e"},"vehicle_type_id":"4","last_reported":1752786628,"current_range_meters":16800,"station_id":"ce4bh512rcd13ifvqe2g","pricing_plan_id":"cebpf4jnsgd1na2vs0mg"},{"bike_id":"b1411f20-9712-40f9-a9cc-407b4e40f865","system_id":"levelo_inurba_marseille","lat":43.26809,"lon":5.41496,"is_reserved":false,"is_disabled":false,"rental_uris":{"android":"levelo://app?vid=b1411f20-9712-40f9-a9cc-407b4e40f865","ios":"levelo://app?vid=b1411f20-9712-40f9-a9cc-407b4e40f865"},"vehicle_type_id":"4","last_reported":1752786628,"current_range_meters":16800,"station_id":"","pricing_plan_id":"cebpf4jnsgd1na2vs0mg"},{"bike_id":"ed822664-f978-4865-b4d3-8b7323601ddf","system_id":"levelo_inurba_marseille","lat":43.29789,"lon":5.3936,"is_reserved":false,"is_disabled":true,"rental_uris":{"android":"levelo://app?vid=ed822664-f978-4865-b4d3-8b7323601ddf","ios":"levelo://app?vid=ed822664-f978-4865-b4d3-8b7323601ddf"},"vehicle_type_id":"4","last_reported":1752786628,"current_range_meters":16800,"station_id":"chh1huq6cuj3fo74tm60","pricing_plan_id":"cebpf4jnsgd1na2vs0mg"},{"bike_id":"bd83f237-6b11-412b-9e99-9a98e6ec36e6","system_id":"levelo_inurba_marseille","lat":43.29515,"lon":5.37472,"is_reserved":false,"is_disabled":false,"rental_uris":{"android":"levelo://app?vid=bd83f237-6b11-412b-9e99-9a98e6ec36e6","ios":"levelo://app?vid=bd83f237-6b11-412b-9e99-9a98e6ec36e6"},"vehicle_type_id":"4","last_reported":1752786628,"current_range_meters":16000,"station_id":"ce4bgkp2rcd13ifvqbmg","pricing_plan_id":"cebpf4jnsgd1na2vs0mg"},{"bike_id":"dba9ad02-c391-4468-bc6b-ecee0a550373","system_id":"levelo_inurba_marseille","lat":43.271854,"lon":5.362776,"is_reserved":false,"is_disabled":false,"rental_uris":{"android":"levelo://app?vid=dba9ad02-c391-4468-bc6b-ecee0a550373","ios":"levelo://app?vid=dba9ad02-c391-4468-bc6b-ecee0a550373"},"vehicle_type_id":"4","last_reported":1752786628,"current_range_meters":16800,"station_id":"","pricing_plan_id":"cebpf4jnsgd1na2vs0mg"},{"bike_id":"21c28a41-5988-44fd-bd9c-8737f24b78b9","system_id":"levelo_inurba_marseille","lat":43.27217,"lon":5.401,"is_reserved":false,"is_disabled":false,"rental_uris":{"android":"levelo://app?vid=21c28a41-5988-44fd-bd9c-8737f24b78b9","ios":"levelo://app?vid=21c28a41-5988-44fd-bd9c-8737f24b78b9"},"vehicle_type_id":"4","last_reported":1752786628,"current_range_meters":16800,"station_id":"","pricing_plan_id":"cebpf4jnsgd1na2vs0mg"},{"bike_id":"008d9fa4-24c0-40e3-afc2-6e09b4bdbf02","system_id":"levelo_inurba_marseille","lat":43.30639,"lon":5.40073,"is_reserved":false,"is_disabled":false,"rental_uris":{"android":"levelo://app?vid=008d9fa4-24c0-40e3-afc2-6e09b4bdbf02","ios":"levelo://app?vid=008d9fa4-24c0-40e3-afc2-6e09b4bdbf02"},"vehicle_type_id":"4","last_reported":1752786628,"current_range_meters":16800,"station_id":"ce4bh112rcd13ifvqda0","pricing_plan_id":"cebpf4jnsgd1na2vs0mg"},{"bike_id":"5b4e5f0f-cac3-450a-9463-e6a77e2c277e","system_id":"levelo_inurba_marseille","lat":43.246423,"lon":5.388921,"is_reserved":false,"is_disabled":true,"rental_uris":{"android":"levelo://app?vid=5b4e5f0f-cac3-450a-9463-e6a77e2c277e","ios":"levelo://app?vid=5b4e5f0f-cac3-450a-9463-e6a77e2c277e"},"vehicle_type_id":"4","last_reported":1752786628,"current_range_meters":16800,"station_id":"ce4bhg12rcd13ifvqf60","pricing_plan_id":"cebpf4jnsgd1na2vs0mg"},{"bike_id":"be60c88c-1453-4626-be80-200258f79626","system_id":"levelo_inurba_marseille","lat":43.232,"lon":5.35549,"is_reserved":false,"is_disabled":false,"rental_uris":{"android":"levelo://app?vid=be60c88c-1453-4626-be80-200258f79626","ios":"levelo://app?vid=be60c88c-1453-4626-be80-200258f79626"},"vehicle_type_id":"4","last_reported":1752786628,"current_range_meters":16800,"station_id":"ce4bhu92rcd13ifvqi70","pricing_plan_id":"cebpf4jnsgd1na2vs0mg"},{"bike_id":"409515f8-3415-426d-b0c7-61f840c7c187","system_id":"levelo_inurba_marseille","lat":43.22497,"lon":5.34811,"is_reserved":false,"is_disabled":false,"rental_uris":{"android":"levelo://app?vid=409515f8-3415-426d-b0c7-61f840c7c187","ios":"levelo://app?vid=409515f8-3415-426d-b0c7-61f840c7c187"},"vehicle_type_id":"4","last_reported":1752786628,"current_range_meters":16800,"station_id":"st_cvj5dfep6f1abm77gieg","pricing_plan_id":"cebpf4jnsgd1na2vs0mg"},{"bike_id":"7acde026-60d2-4f30-857e-d117fba0b592","system_id":"levelo_inurba_marseille","lat":43.29249,"lon":5.38485,"is_reserved":false,"is_disabled":false,"rental_uris":{"android":"levelo://app?vid=7acde026-60d2-4f30-857e-d117fba0b592","ios":"levelo://app?vid=7acde026-60d2-4f30-857e-d117fba0b592"},"vehicle_type_id":"4","last_reported":1752786628,"current_range_meters":16800,"station_id":"","pricing_plan_id":"cebpf4jnsgd1na2vs0mg"},{"bike_id":"af300723-8a4c-47e2-8db0-447e3f22ba7e","system_id":"levelo_inurba_marseille","lat":43.28444,"lon":5.392,"is_reserved":false,"is_disabled":false,"rental_uris":{"android":"levelo://app?vid=af300723-8a4c-47e2-8db0-447e3f22ba7e","ios":"levelo://app?vid=af300723-8a4c-47e2-8db0-447e3f22ba7e"},"vehicle_type_id":"4","last_reported":1752786628,"current_range_meters":16800,"station_id":"ce4bhoh2rcd13ifvqh5g","pricing_plan_id":"cebpf4jnsgd1na2vs0mg"},{"bike_id":"9a68d080-0011-4f1a-a3f4-41a895520f46","system_id":"levelo_inurba_marseille","lat":43.30307,"lon":5.36895,"is_reserved":false,"is_disabled":false,"rental_uris":{"android":"levelo://app?vid=9a68d080-0011-4f1a-a3f4-41a895520f46","ios":"levelo://app?vid=9a68d080-0011-4f1a-a3f4-41a895520f46"},"vehicle_type_id":"4","last_reported":1752786628,"current_range_meters":16800,"station_id":"ce4bgqh2rcd13ifvqc5g","pricing_plan_id":"cebpf4jnsgd1na2vs0mg"},{"bike_id":"88761124-1b21-4ab5-a7df-57a53f764661","system_id":"levelo_inurba_marseille","lat":43.31261,"lon":5.40167,"is_reserved":false,"is_disabled":false,"rental_uris":{"android":"levelo://app?vid=88761124-1b21-4ab5-a7df-57a53f764661","ios":"levelo://app?vid=88761124-1b21-4ab5-a7df-57a53f764661"},"vehicle_type_id":"4","last_reported":1752786628,"current_range_meters":17200,"station_id":"ce4bh092rcd13ifvqd30","pricing_plan_id":"cebpf4jnsgd1na2vs0mg"},{"bike_id":"a82d675d-f65f-415d-abab-aca85261effa","system_id":"levelo_inurba_marseille","lat":43.2951,"lon":5.39408,"is_reserved":false,"is_disabled":false,"rental_uris":{"android":"levelo://app?vid=a82d675d-f65f-415d-abab-aca85261effa","ios":"levelo://app?vid=a82d675d-f65f-415d-abab-aca85261effa"},"vehicle_type_id":"4","last_reported":1752786628,"current_range_meters":17200,"station_id":"ce4bh292rcd13ifvqdf0","pricing_plan_id":"cebpf4jnsgd1na2vs0mg"},{"bike_id":"4c0ea010-fab1-4680-b798-1d8aad58bcd3","system_id":"levelo_inurba_marseille","lat":43.27211,"lon":5.41038,"is_reserved":false,"is_disabled":false,"rental_uris":{"android":"levelo://app?vid=4c0ea010-fab1-4680-b798-1d8aad58bcd3","ios":"levelo://app?vid=4c0ea010-fab1-4680-b798-1d8aad58bcd3"},"vehicle_type_id":"4","last_reported":1752786628,"current_range_meters":17200,"station_id":"ce4bhl12rcd13ifvqgf0","pricing_plan_id":"cebpf4jnsgd1na2vs0mg"},{"bike_id":"3ed7eed7-5df2-48e2-bd45-2df91f469eca","system_id":"levelo_inurba_marseille","lat":43.29279,"lon":5.4012,"is_reserved":false,"is_disabled":false,"rental_uris":{"android":"levelo://app?vid=3ed7eed7-5df2-48e2-bd45-2df91f469eca","ios":"levelo://app?vid=3ed7eed7-5df2-48e2-bd45-2df91f469eca"},"vehicle_type_id":"4","last_reported":1752786628,"current_range_meters":16800,"station_id":"ce4bh312rcd13ifvqdk0","pricing_plan_id":"cebpf4jnsgd1na2vs0mg"},{"bike_id":"7a6dd7fa-3ad1-4c8b-9a99-7970523dc841","system_id":"levelo_inurba_marseille","lat":43.28664,"lon":5.38665,"is_reserved":false,"is_disabled":false,"rental_uris":{"android":"levelo://app?vid=7a6dd7fa-3ad1-4c8b-9a99-7970523dc841","ios":"levelo://app?vid=7a6dd7fa-3ad1-4c8b-9a99-7970523dc841"},"vehicle_type_id":"4","last_reported":1752786628,"current_range_meters":17200,"station_id":"ce4bh492rcd13ifvqdug","pricing_plan_id":"cebpf4jnsgd1na2vs0mg"},{"bike_id":"e2107f52-eb7a-4f3e-85a4-9ed03b6f7fcf","system_id":"levelo_inurba_marseille","lat":43.29531,"lon":5.38541,"is_reserved":false,"is_disabled":false,"rental_uris":{"android":"levelo://app?vid=e2107f52-eb7a-4f3e-85a4-9ed03b6f7fcf","ios":"levelo://app?vid=e2107f52-eb7a-4f3e-85a4-9ed03b6f7fcf"},"vehicle_type_id":"4","last_reported":1752786628,"current_range_meters":17200,"station_id":"ce4bgih2rcd13ifvqba0","pricing_plan_id":"cebpf4jnsgd1na2vs0mg"},{"bike_id":"649f8ba3-b75a-4b2f-b0ee-d99f6b13344a","system_id":"levelo_inurba_marseille","lat":43.31371,"lon":5.38501,"is_reserved":false,"is_disabled":false,"rental_uris":{"android":"levelo://app?vid=649f8ba3-b75a-4b2f-b0ee-d99f6b13344a","ios":"levelo://app?vid=649f8ba3-b75a-4b2f-b0ee-d99f6b13344a"},"vehicle_type_id":"4","last_reported":1752786628,"current_range_meters":17200,"station_id":"ce4bgt92rcd13ifvqcf0","pricing_plan_id":"cebpf4jnsgd1na2vs0mg"},{"bike_id":"297914b4-f29d-4efa-a16f-6b7800ec2454","system_id":"levelo_inurba_marseille","lat":43.288846,"lon":5.371345,"is_reserved":false,"is_disabled":false,"rental_uris":{"android":"levelo://app?vid=297914b4-f29d-4efa-a16f-6b7800ec2454","ios":"levelo://app?vid=297914b4-f29d-4efa-a16f-6b7800ec2454"},"vehicle_type_id":"4","last_reported":1752786628,"current_range_meters":17200,"station_id":"","pricing_plan_id":"cebpf4jnsgd1na2vs0mg"},{"bike_id":"6ff34866-45bf-4aba-a9f6-3634c31770fd","system_id":"levelo_inurba_marseille","lat":43.31181,"lon":5.38734,"is_reserved":false,"is_disabled":false,"rental_uris":{"android":"levelo://app?vid=6ff34866-45bf-4aba-a9f6-3634c31770fd","ios":"levelo://app?vid=6ff34866-45bf-4aba-a9f6-3634c31770fd"},"vehicle_type_id":"4","last_reported":1752786628,"current_range_meters":17200,"station_id":"ce4bgv12rcd13ifvqcp0","pricing_plan_id":"cebpf4jnsgd1na2vs0mg"},{"bike_id":"00cb9e03-8028-497f-8c29-77cd4bf2e8d6","system_id":"levelo_inurba_marseille","lat":43.28601,"lon":5.3511,"is_reserved":false,"is_disabled":true,"rental_uris":{"android":"levelo://app?vid=00cb9e03-8028-497f-8c29-77cd4bf2e8d6","ios":"levelo://app?vid=00cb9e03-8028-497f-8c29-77cd4bf2e8d6"},"vehicle_type_id":"4","last_reported":1752786628,"current_range_meters":17200,"station_id":"ce4bhch2rcd13ifvqeug","pricing_plan_id":"cebpf4jnsgd1na2vs0mg"},{"bike_id":"32c0c339-106f-4237-8f4c-3035afaca9c0","system_id":"levelo_inurba_marseille","lat":43.30113,"lon":5.39862,"is_reserved":false,"is_disabled":false,"rental_uris":{"android":"levelo://app?vid=32c0c339-106f-4237-8f4c-3035afaca9c0","ios":"levelo://app?vid=32c0c339-106f-4237-8f4c-3035afaca9c0"},"vehicle_type_id":"4","last_reported":1752786628,"current_range_meters":17200,"station_id":"ce4bh0h2rcd13ifvqd40","pricing_plan_id":"cebpf4jnsgd1na2vs0mg"},{"bike_id":"e88a1257-d1d5-4865-995c-ad667be7b81d","system_id":"levelo_inurba_marseille","lat":43.27175,"lon":5.40998,"is_reserved":false,"is_disabled":false,"rental_uris":{"android":"levelo://app?vid=e88a1257-d1d5-4865-995c-ad667be7b81d","ios":"levelo://app?vid=e88a1257-d1d5-4865-995c-ad667be7b81d"},"vehicle_type_id":"4","last_reported":1752786628,"current_range_meters":17200,"station_id":"ce4bhl12rcd13ifvqgf0","pricing_plan_id":"cebpf4jnsgd1na2vs0mg"},{"bike_id":"4a906e13-23e3-431e-845c-027bf73f97d4","system_id":"levelo_inurba_marseille","lat":43.30642,"lon":5.40073,"is_reserved":false,"is_disabled":false,"rental_uris":{"android":"levelo://app?vid=4a906e13-23e3-431e-845c-027bf73f97d4","ios":"levelo://app?vid=4a906e13-23e3-431e-845c-027bf73f97d4"},"vehicle_type_id":"4","last_reported":1752786628,"current_range_meters":17200,"station_id":"ce4bh112rcd13ifvqda0","pricing_plan_id":"cebpf4jnsgd1na2vs0mg"},{"bike_id":"8ca35254-0a78-41fe-ba14-d16c8017b384","system_id":"levelo_inurba_marseille","lat":43.28076,"lon":5.39668,"is_reserved":false,"is_disabled":false,"rental_uris":{"android":"levelo://app?vid=8ca35254-0a78-41fe-ba14-d16c8017b384","ios":"levelo://app?vid=8ca35254-0a78-41fe-ba14-d16c8017b384"},"vehicle_type_id":"4","last_reported":1752786628,"current_range_meters":17600,"station_id":"ce4bho12rcd13ifvqh2g","pricing_plan_id":"cebpf4jnsgd1na2vs0mg"},{"bike_id":"446951d2-9d7b-4f32-868c-4b22f684e550","system_id":"levelo_inurba_marseille","lat":43.28681,"lon":5.38664,"is_reserved":false,"is_disabled":false,"rental_uris":{"android":"levelo://app?vid=446951d2-9d7b-4f32-868c-4b22f684e550","ios":"levelo://app?vid=446951d2-9d7b-4f32-868c-4b22f684e550"},"vehicle_type_id":"4","last_reported":1752786628,"current_range_meters":17600,"station_id":"ce4bh492rcd13ifvqdug","pricing_plan_id":"cebpf4jnsgd1na2vs0mg"},{"bike_id":"84e59932-0faa-4fad-a74c-4b5e5f88335d","system_id":"levelo_inurba_marseille","lat":43.28442,"lon":5.39215,"is_reserved":false,"is_disabled":false,"rental_uris":{"android":"levelo://app?vid=84e59932-0faa-4fad-a74c-4b5e5f88335d","ios":"levelo://app?vid=84e59932-0faa-4fad-a74c-4b5e5f88335d"},"vehicle_type_id":"4","last_reported":1752786628,"current_range_meters":17600,"station_id":"ce4bhoh2rcd13ifvqh5g","pricing_plan_id":"cebpf4jnsgd1na2vs0mg"},{"bike_id":"7b27924f-408b-45e4-bd6a-cdf60f6b11a6","system_id":"levelo_inurba_marseille","lat":43.2926,"lon":5.40901,"is_reserved":false,"is_disabled":false,"rental_uris":{"android":"levelo://app?vid=7b27924f-408b-45e4-bd6a-cdf60f6b11a6","ios":"levelo://app?vid=7b27924f-408b-45e4-bd6a-cdf60f6b11a6"},"vehicle_type_id":"4","last_reported":1752786628,"current_range_meters":17600,"station_id":"ce4bh192rcd13ifvqdc0","pricing_plan_id":"cebpf4jnsgd1na2vs0mg"},{"bike_id":"c443e4d0-e59b-45c1-8bb3-94439eafe524","system_id":"levelo_inurba_marseille","lat":43.30948,"lon":5.39039,"is_reserved":false,"is_disabled":false,"rental_uris":{"android":"levelo://app?vid=c443e4d0-e59b-45c1-8bb3-94439eafe524","ios":"levelo://app?vid=c443e4d0-e59b-45c1-8bb3-94439eafe524"},"vehicle_type_id":"4","last_reported":1752786628,"current_range_meters":17600,"station_id":"ce4bgup2rcd13ifvqco0","pricing_plan_id":"cebpf4jnsgd1na2vs0mg"},{"bike_id":"9a1411ca-9044-41a6-9f06-627fc3545e39","system_id":"levelo_inurba_marseille","lat":43.31688,"lon":5.40472,"is_reserved":false,"is_disabled":false,"rental_uris":{"android":"levelo://app?vid=9a1411ca-9044-41a6-9f06-627fc3545e39","ios":"levelo://app?vid=9a1411ca-9044-41a6-9f06-627fc3545e39"},"vehicle_type_id":"4","last_reported":1752786628,"current_range_meters":17200,"station_id":"ce4bh012rcd13ifvqd00","pricing_plan_id":"cebpf4jnsgd1na2vs0mg"},{"bike_id":"5a5b52e9-924c-46ff-aaa6-4be503ec86d8","system_id":"levelo_inurba_marseille","lat":43.288497,"lon":5.393057,"is_reserved":false,"is_disabled":false,"rental_uris":{"android":"levelo://app?vid=5a5b52e9-924c-46ff-aaa6-4be503ec86d8","ios":"levelo://app?vid=5a5b52e9-924c-46ff-aaa6-4be503ec86d8"},"vehicle_type_id":"4","last_reported":1752786628,"current_range_meters":17600,"station_id":"ce4bh2p2rcd13ifvqdi0","pricing_plan_id":"cebpf4jnsgd1na2vs0mg"},{"bike_id":"ce40837d-3edf-4cc2-a747-2f8d4ee2c7fb","system_id":"levelo_inurba_marseille","lat":43.22461,"lon":5.34816,"is_reserved":false,"is_disabled":false,"rental_uris":{"android":"levelo://app?vid=ce40837d-3edf-4cc2-a747-2f8d4ee2c7fb","ios":"levelo://app?vid=ce40837d-3edf-4cc2-a747-2f8d4ee2c7fb"},"vehicle_type_id":"4","last_reported":1752786628,"current_range_meters":17600,"station_id":"st_cvj5dfep6f1abm77gieg","pricing_plan_id":"cebpf4jnsgd1na2vs0mg"},{"bike_id":"1fa6e47a-247c-43f3-a2d5-2457ee6c5d39","system_id":"levelo_inurba_marseille","lat":43.21181,"lon":5.35062,"is_reserved":false,"is_disabled":false,"rental_uris":{"android":"levelo://app?vid=1fa6e47a-247c-43f3-a2d5-2457ee6c5d39","ios":"levelo://app?vid=1fa6e47a-247c-43f3-a2d5-2457ee6c5d39"},"vehicle_type_id":"4","last_reported":1752786628,"current_range_meters":17600,"station_id":"st_cvj6sg6p6f1abm77japg","pricing_plan_id":"cebpf4jnsgd1na2vs0mg"},{"bike_id":"9e46aa88-7b19-47c3-b789-71b8902b53cb","system_id":"levelo_inurba_marseille","lat":43.28199,"lon":5.42682,"is_reserved":false,"is_disabled":false,"rental_uris":{"android":"levelo://app?vid=9e46aa88-7b19-47c3-b789-71b8902b53cb","ios":"levelo://app?vid=9e46aa88-7b19-47c3-b789-71b8902b53cb"},"vehicle_type_id":"4","last_reported":1752786628,"current_range_meters":17600,"station_id":"ce4bhnh2rcd13ifvqgug","pricing_plan_id":"cebpf4jnsgd1na2vs0mg"},{"bike_id":"07b216b5-267b-439c-ab19-e154851ab169","system_id":"levelo_inurba_marseille","lat":43.30529,"lon":5.3671,"is_reserved":false,"is_disabled":false,"rental_uris":{"android":"levelo://app?vid=07b216b5-267b-439c-ab19-e154851ab169","ios":"levelo://app?vid=07b216b5-267b-439c-ab19-e154851ab169"},"vehicle_type_id":"4","last_reported":1752786628,"current_range_meters":17200,"station_id":"ce4bgrp2rcd13ifvqc9g","pricing_plan_id":"cebpf4jnsgd1na2vs0mg"},{"bike_id":"ce7bd25b-5213-4881-a28b-f582e6a1d712","system_id":"levelo_inurba_marseille","lat":43.31357,"lon":5.367097,"is_reserved":false,"is_disabled":true,"rental_uris":{"android":"levelo://app?vid=ce7bd25b-5213-4881-a28b-f582e6a1d712","ios":"levelo://app?vid=ce7bd25b-5213-4881-a28b-f582e6a1d712"},"vehicle_type_id":"4","last_reported":1752786628,"current_range_meters":17600,"station_id":"ce4bgr92rcd13ifvqc6g","pricing_plan_id":"cebpf4jnsgd1na2vs0mg"},{"bike_id":"2b334187-1e96-472f-8530-309e9c96656c","system_id":"levelo_inurba_marseille","lat":43.2509,"lon":5.3953,"is_reserved":false,"is_disabled":false,"rental_uris":{"android":"levelo://app?vid=2b334187-1e96-472f-8530-309e9c96656c","ios":"levelo://app?vid=2b334187-1e96-472f-8530-309e9c96656c"},"vehicle_type_id":"4","last_reported":1752786628,"current_range_meters":17600,"station_id":"ce4bhm12rcd13ifvqgkg","pricing_plan_id":"cebpf4jnsgd1na2vs0mg"},{"bike_id":"f42ab05d-8410-4a0b-aed4-a68ea1ae7b75","system_id":"levelo_inurba_marseille","lat":43.26214,"lon":5.37441,"is_reserved":false,"is_disabled":false,"rental_uris":{"android":"levelo://app?vid=f42ab05d-8410-4a0b-aed4-a68ea1ae7b75","ios":"levelo://app?vid=f42ab05d-8410-4a0b-aed4-a68ea1ae7b75"},"vehicle_type_id":"4","last_reported":1752786628,"current_range_meters":17600,"station_id":"ce4bhgp2rcd13ifvqfc0","pricing_plan_id":"cebpf4jnsgd1na2vs0mg"},{"bike_id":"12717973-3258-43e4-91e2-6d6cc1b5725a","system_id":"levelo_inurba_marseille","lat":43.28922,"lon":5.383948,"is_reserved":false,"is_disabled":true,"rental_uris":{"android":"levelo://app?vid=12717973-3258-43e4-91e2-6d6cc1b5725a","ios":"levelo://app?vid=12717973-3258-43e4-91e2-6d6cc1b5725a"},"vehicle_type_id":"4","last_reported":1752786628,"current_range_meters":17600,"station_id":"ce4bh612rcd13ifvqe6g","pricing_plan_id":"cebpf4jnsgd1na2vs0mg"},{"bike_id":"dae05621-e174-4ad1-ae88-3a8038512e1f","system_id":"levelo_inurba_marseille","lat":43.30808,"lon":5.38157,"is_reserved":false,"is_disabled":false,"rental_uris":{"android":"levelo://app?vid=dae05621-e174-4ad1-ae88-3a8038512e1f","ios":"levelo://app?vid=dae05621-e174-4ad1-ae88-3a8038512e1f"},"vehicle_type_id":"4","last_reported":1752786628,"current_range_meters":17600,"station_id":"ce4bgt12rcd13ifvqce0","pricing_plan_id":"cebpf4jnsgd1na2vs0mg"},{"bike_id":"fe9010c8-bddd-49ab-8f97-55c4aea259ff","system_id":"levelo_inurba_marseille","lat":43.25507,"lon":5.37639,"is_reserved":false,"is_disabled":false,"rental_uris":{"android":"levelo://app?vid=fe9010c8-bddd-49ab-8f97-55c4aea259ff","ios":"levelo://app?vid=fe9010c8-bddd-49ab-8f97-55c4aea259ff"},"vehicle_type_id":"4","last_reported":1752786628,"current_range_meters":18000,"station_id":"ce4bhh12rcd13ifvqff0","pricing_plan_id":"cebpf4jnsgd1na2vs0mg"},{"bike_id":"143c1423-5404-435f-b544-51bddae8a1f8","system_id":"levelo_inurba_marseille","lat":43.27619,"lon":5.36103,"is_reserved":false,"is_disabled":false,"rental_uris":{"android":"levelo://app?vid=143c1423-5404-435f-b544-51bddae8a1f8","ios":"levelo://app?vid=143c1423-5404-435f-b544-51bddae8a1f8"},"vehicle_type_id":"4","last_reported":1752786628,"current_range_meters":18000,"station_id":"ce4bgj92rcd13ifvqbe0","pricing_plan_id":"cebpf4jnsgd1na2vs0mg"},{"bike_id":"6d15e9c8-bb2c-4d09-bf42-fa0990c65e47","system_id":"levelo_inurba_marseille","lat":43.2893,"lon":5.36385,"is_reserved":false,"is_disabled":false,"rental_uris":{"android":"levelo://app?vid=6d15e9c8-bb2c-4d09-bf42-fa0990c65e47","ios":"levelo://app?vid=6d15e9c8-bb2c-4d09-bf42-fa0990c65e47"},"vehicle_type_id":"4","last_reported":1752786628,"current_range_meters":18000,"station_id":"ce4bhc92rcd13ifvqetg","pricing_plan_id":"cebpf4jnsgd1na2vs0mg"},{"bike_id":"ac0ed4be-466c-4caa-b855-3c6bbe5a11b5","system_id":"levelo_inurba_marseille","lat":43.267558,"lon":5.371864,"is_reserved":false,"is_disabled":false,"rental_uris":{"android":"levelo://app?vid=ac0ed4be-466c-4caa-b855-3c6bbe5a11b5","ios":"levelo://app?vid=ac0ed4be-466c-4caa-b855-3c6bbe5a11b5"},"vehicle_type_id":"4","last_reported":1752786628,"current_range_meters":18000,"station_id":"","pricing_plan_id":"cebpf4jnsgd1na2vs0mg"},{"bike_id":"b24c405d-5e3e-4ef7-8830-b534faa50e30","system_id":"levelo_inurba_marseille","lat":43.29532,"lon":5.38539,"is_reserved":false,"is_disabled":false,"rental_uris":{"android":"levelo://app?vid=b24c405d-5e3e-4ef7-8830-b534faa50e30","ios":"levelo://app?vid=b24c405d-5e3e-4ef7-8830-b534faa50e30"},"vehicle_type_id":"4","last_reported":1752786628,"current_range_meters":18000,"station_id":"ce4bgih2rcd13ifvqba0","pricing_plan_id":"cebpf4jnsgd1na2vs0mg"},{"bike_id":"f310b61a-0922-4b58-99ec-3c007edcb4df","system_id":"levelo_inurba_marseille","lat":43.27916,"lon":5.39588,"is_reserved":false,"is_disabled":false,"rental_uris":{"android":"levelo://app?vid=f310b61a-0922-4b58-99ec-3c007edcb4df","ios":"levelo://app?vid=f310b61a-0922-4b58-99ec-3c007edcb4df"},"vehicle_type_id":"4","last_reported":1752786628,"current_range_meters":18000,"station_id":"ce4bhf92rcd13ifvqf40","pricing_plan_id":"cebpf4jnsgd1na2vs0mg"},{"bike_id":"2ed1350f-0b6e-4182-a8b4-561741333858","system_id":"levelo_inurba_marseille","lat":43.27936,"lon":5.41048,"is_reserved":false,"is_disabled":false,"rental_uris":{"android":"levelo://app?vid=2ed1350f-0b6e-4182-a8b4-561741333858","ios":"levelo://app?vid=2ed1350f-0b6e-4182-a8b4-561741333858"},"vehicle_type_id":"4","last_reported":1752786628,"current_range_meters":18000,"station_id":"ce4bhnp2rcd13ifvqh0g","pricing_plan_id":"cebpf4jnsgd1na2vs0mg"},{"bike_id":"34a0902c-b1a1-455d-b616-8b5fa12f3a3e","system_id":"levelo_inurba_marseille","lat":43.34145,"lon":5.40907,"is_reserved":false,"is_disabled":false,"rental_uris":{"android":"levelo://app?vid=34a0902c-b1a1-455d-b616-8b5fa12f3a3e","ios":"levelo://app?vid=34a0902c-b1a1-455d-b616-8b5fa12f3a3e"},"vehicle_type_id":"4","last_reported":1752786628,"current_range_meters":18000,"station_id":"ce4bhqh2rcd13ifvqhlg","pricing_plan_id":"cebpf4jnsgd1na2vs0mg"},{"bike_id":"9ff20376-409c-4158-a4c4-3f4412e0aaa7","system_id":"levelo_inurba_marseille","lat":43.29261,"lon":5.384245,"is_reserved":false,"is_disabled":false,"rental_uris":{"android":"levelo://app?vid=9ff20376-409c-4158-a4c4-3f4412e0aaa7","ios":"levelo://app?vid=9ff20376-409c-4158-a4c4-3f4412e0aaa7"},"vehicle_type_id":"4","last_reported":1752786628,"current_range_meters":18000,"station_id":"ce4bh692rcd13ifvqea0","pricing_plan_id":"cebpf4jnsgd1na2vs0mg"},{"bike_id":"d520d8a5-44fa-41ce-a131-bd67be8c0876","system_id":"levelo_inurba_marseille","lat":43.31166,"lon":5.38716,"is_reserved":false,"is_disabled":false,"rental_uris":{"android":"levelo://app?vid=d520d8a5-44fa-41ce-a131-bd67be8c0876","ios":"levelo://app?vid=d520d8a5-44fa-41ce-a131-bd67be8c0876"},"vehicle_type_id":"4","last_reported":1752786628,"current_range_meters":18000,"station_id":"ce4bgv12rcd13ifvqcp0","pricing_plan_id":"cebpf4jnsgd1na2vs0mg"},{"bike_id":"dfe27513-4110-42f3-979f-1e36632e6e12","system_id":"levelo_inurba_marseille","lat":43.30952,"lon":5.39052,"is_reserved":false,"is_disabled":false,"rental_uris":{"android":"levelo://app?vid=dfe27513-4110-42f3-979f-1e36632e6e12","ios":"levelo://app?vid=dfe27513-4110-42f3-979f-1e36632e6e12"},"vehicle_type_id":"4","last_reported":1752786628,"current_range_meters":18000,"station_id":"ce4bgup2rcd13ifvqco0","pricing_plan_id":"cebpf4jnsgd1na2vs0mg"},{"bike_id":"073fae74-c1c8-445e-baf2-ee21faf95161","system_id":"levelo_inurba_marseille","lat":43.30596,"lon":5.39347,"is_reserved":false,"is_disabled":false,"rental_uris":{"android":"levelo://app?vid=073fae74-c1c8-445e-baf2-ee21faf95161","ios":"levelo://app?vid=073fae74-c1c8-445e-baf2-ee21faf95161"},"vehicle_type_id":"4","last_reported":1752786628,"current_range_meters":17600,"station_id":"ce4bh0p2rcd13ifvqd80","pricing_plan_id":"cebpf4jnsgd1na2vs0mg"},{"bike_id":"65fada85-6dcf-4f5f-bde0-b33feefc92b9","system_id":"levelo_inurba_marseille","lat":43.27209,"lon":5.4101,"is_reserved":false,"is_disabled":false,"rental_uris":{"android":"levelo://app?vid=65fada85-6dcf-4f5f-bde0-b33feefc92b9","ios":"levelo://app?vid=65fada85-6dcf-4f5f-bde0-b33feefc92b9"},"vehicle_type_id":"4","last_reported":1752786628,"current_range_meters":18000,"station_id":"ce4bhl12rcd13ifvqgf0","pricing_plan_id":"cebpf4jnsgd1na2vs0mg"},{"bike_id":"5ec81368-da44-47eb-8865-045ca82a4dcd","system_id":"levelo_inurba_marseille","lat":43.2926,"lon":5.38436,"is_reserved":false,"is_disabled":false,"rental_uris":{"android":"levelo://app?vid=5ec81368-da44-47eb-8865-045ca82a4dcd","ios":"levelo://app?vid=5ec81368-da44-47eb-8865-045ca82a4dcd"},"vehicle_type_id":"4","last_reported":1752786628,"current_range_meters":18000,"station_id":"ce4bh692rcd13ifvqea0","pricing_plan_id":"cebpf4jnsgd1na2vs0mg"},{"bike_id":"ab40eab5-f236-4422-a5a5-b90da08304bc","system_id":"levelo_inurba_marseille","lat":43.30692,"lon":5.37176,"is_reserved":false,"is_disabled":false,"rental_uris":{"android":"levelo://app?vid=ab40eab5-f236-4422-a5a5-b90da08304bc","ios":"levelo://app?vid=ab40eab5-f236-4422-a5a5-b90da08304bc"},