{"last_updated":1745683858,"ttl":60,"version":"2.2","data":{"bikes":[{"bike_id":"d7de41af-065c-4800-8588-617779d6acbd","system_id":"levelo_inurba_marseille","lat":43.26224,"lon":5.40446,"is_reserved":false,"is_disabled":false,"rental_uris":{"android":"levelo://app?vid=d7de41af-065c-4800-8588-617779d6acbd","ios":"levelo://app?vid=d7de41af-065c-4800-8588-617779d6acbd"},"vehicle_type_id":"4","last_reported":1745683859,"current_range_meters":2800,"station_id":"ce4bhmh2rcd13ifvqgmg","pricing_plan_id":"cebpf4jnsgd1na2vs0mg"},{"bike_id":"d10090a3-4730-41be-b20a-c8823f550fdf","system_id":"levelo_inurba_marseille","lat":43.30946,"lon":5.39045,"is_reserved":false,"is_disabled":false,"rental_uris":{"android":"levelo://app?vid=d10090a3-4730-41be-b20a-c8823f550fdf","ios":"levelo://app?vid=d10090a3-4730-41be-b20a-c8823f550fdf"},"vehicle_type_id":"4","last_reported":1745683859,"current_range_meters":2800,"station_id":"ce4bgup2rcd13ifvqco0","pricing_plan_id":"cebpf4jnsgd1na2vs0mg"},{"bike_id":"3731bbd4-c46a-4657-9572-270c4c7b5353","system_id":"levelo_inurba_marseille","lat":43.24072,"lon":5.37764,"is_reserved":false,"is_disabled":false,"rental_uris":{"android":"levelo://app?vid=3731bbd4-c46a-4657-9572-270c4c7b5353","ios":"levelo://app?vid=3731bbd4-c46a-4657-9572-270c4c7b5353"},"vehicle_type_id":"4","last_reported":1745683859,"current_range_meters":2800,"station_id":"ce4bhnp2rcd13ifvqgvg","pricing_plan_id":"cebpf4jnsgd1na2vs0mg"},{"bike_id":"699d93a2-865f-458f-98e9-6e858bcb2b1d","system_id":"levelo_inurba_marseille","lat":43.25503,"lon":5.37649,"is_reserved":false,"is_disabled":false,"rental_uris":{"android":"levelo://app?vid=699d93a2-865f-458f-98e9-6e858bcb2b1d","ios":"levelo://app?vid=699d93a2-865f-458f-98e9-6e858bcb2b1d"},"vehicle_type_id":"4","last_reported":1745683859,"current_range_meters":6800,"station_id":"ce4bhh12rcd13ifvqff0","pricing_plan_id":"cebpf4jnsgd1na2vs0mg"},{"bike_id":"809e59ac-ee8e-4f79-a65e-a2fad53fd2cc","system_id":"levelo_inurba_marseille","lat":43.29759,"lon":5.40962,"is_reserved":false,"is_disabled":false,"rental_uris":{"android":"levelo://app?vid=809e59ac-ee8e-4f79-a65e-a2fad53fd2cc","ios":"levelo://app?vid=809e59ac-ee8e-4f79-a65e-a2fad53fd2cc"},"vehicle_type_id":"4","last_reported":1745683859,"current_range_meters":2800,"station_id":"","pricing_plan_id":"cebpf4jnsgd1na2vs0mg"},{"bike_id":"743ba32d-38ef-48e6-9f91-95414f45400a","system_id":"levelo_inurba_marseille","lat":43.28935,"lon":5.36633,"is_reserved":false,"is_disabled":false,"rental_uris":{"android":"levelo://app?vid=743ba32d-38ef-48e6-9f91-95414f45400a","ios":"levelo://app?vid=743ba32d-38ef-48e6-9f91-95414f45400a"},"vehicle_type_id":"4","last_reported":1745683859,"current_range_meters":2800,"station_id":"ce4bhap2rcd13ifvqek0","pricing_plan_id":"cebpf4jnsgd1na2vs0mg"},{"bike_id":"2f8776ef-62ec-4623-9cf7-155ca8e995b8","system_id":"levelo_inurba_marseille","lat":43.26492,"lon":5.39548,"is_reserved":false,"is_disabled":false,"rental_uris":{"android":"levelo://app?vid=2f8776ef-62ec-4623-9cf7-155ca8e995b8","ios":"levelo://app?vid=2f8776ef-62ec-4623-9cf7-155ca8e995b8"},"vehicle_type_id":"4","last_reported":1745683859,"current_range_meters":3200,"station_id":"ce4bhi12rcd13ifvqfq0","pricing_plan_id":"cebpf4jnsgd1na2vs0mg"},{"bike_id":"c3041efb-8c50-44e8-87a5-ae0b3f5cfce0","system_id":"levelo_inurba_marseille","lat":43.26804,"lon":5.4026,"is_reserved":false,"is_disabled":false,"rental_uris":{"android":"levelo://app?vid=c3041efb-8c50-44e8-87a5-ae0b3f5cfce0","ios":"levelo://app?vid=c3041efb-8c50-44e8-87a5-ae0b3f5cfce0"},"vehicle_type_id":"4","last_reported":1745683859,"current_range_meters":3200,"station_id":"ce501612rcd8frsf0b60","pricing_plan_id":"cebpf4jnsgd1na2vs0mg"},{"bike_id":"8f1f84a8-8b3e-4367-aaae-24597a10a4b0","system_id":"levelo_inurba_marseille","lat":43.26807,"lon":5.42673,"is_reserved":false,"is_disabled":false,"rental_uris":{"android":"levelo://app?vid=8f1f84a8-8b3e-4367-aaae-24597a10a4b0","ios":"levelo://app?vid=8f1f84a8-8b3e-4367-aaae-24597a10a4b0"},"vehicle_type_id":"4","last_reported":1745683859,"current_range_meters":3200,"station_id":"","pricing_plan_id":"cebpf4jnsgd1na2vs0mg"},{"bike_id":"5a4074af-8e6e-4cc2-8afc-930ac599f854","system_id":"levelo_inurba_marseille","lat":43.24173,"lon":5.36405,"is_reserved":false,"is_disabled":false,"rental_uris":{"android":"levelo://app?vid=5a4074af-8e6e-4cc2-8afc-930ac599f854","ios":"levelo://app?vid=5a4074af-8e6e-4cc2-8afc-930ac599f854"},"vehicle_type_id":"4","last_reported":1745683859,"current_range_meters":3200,"station_id":"cpo36qri1sfpv3e86is0","pricing_plan_id":"cebpf4jnsgd1na2vs0mg"},{"bike_id":"9c5c10ba-cf08-4f17-ab09-380b12fcda19","system_id":"levelo_inurba_marseille","lat":43.28419,"lon":5.37505,"is_reserved":false,"is_disabled":false,"rental_uris":{"android":"levelo://app?vid=9c5c10ba-cf08-4f17-ab09-380b12fcda19","ios":"levelo://app?vid=9c5c10ba-cf08-4f17-ab09-380b12fcda19"},"vehicle_type_id":"4","last_reported":1745683859,"current_range_meters":3200,"station_id":"ce4bh412rcd13ifvqds0","pricing_plan_id":"cebpf4jnsgd1na2vs0mg"},{"bike_id":"84018d0d-020f-4d5d-845d-d828600195ec","system_id":"levelo_inurba_marseille","lat":43.30448,"lon":5.38901,"is_reserved":false,"is_disabled":false,"rental_uris":{"android":"levelo://app?vid=84018d0d-020f-4d5d-845d-d828600195ec","ios":"levelo://app?vid=84018d0d-020f-4d5d-845d-d828600195ec"},"vehicle_type_id":"4","last_reported":1745683859,"current_range_meters":4000,"station_id":"ce4bgk12rcd13ifvqbi0","pricing_plan_id":"cebpf4jnsgd1na2vs0mg"},{"bike_id":"b6a44fc4-f2a2-4c79-832f-dc7beb3e1d3b","system_id":"levelo_inurba_marseille","lat":43.26554,"lon":5.37286,"is_reserved":false,"is_disabled":false,"rental_uris":{"android":"levelo://app?vid=b6a44fc4-f2a2-4c79-832f-dc7beb3e1d3b","ios":"levelo://app?vid=b6a44fc4-f2a2-4c79-832f-dc7beb3e1d3b"},"vehicle_type_id":"4","last_reported":1745683859,"current_range_meters":3600,"station_id":"ce4bhg12rcd13ifvqf70","pricing_plan_id":"cebpf4jnsgd1na2vs0mg"},{"bike_id":"123f3eb4-ba45-40df-9b41-293f359ea004","system_id":"levelo_inurba_marseille","lat":43.2481,"lon":5.3745,"is_reserved":false,"is_disabled":false,"rental_uris":{"android":"levelo://app?vid=123f3eb4-ba45-40df-9b41-293f359ea004","ios":"levelo://app?vid=123f3eb4-ba45-40df-9b41-293f359ea004"},"vehicle_type_id":"4","last_reported":1745683859,"current_range_meters":3600,"station_id":"ce4bhgh2rcd13ifvqfb0","pricing_plan_id":"cebpf4jnsgd1na2vs0mg"},{"bike_id":"c3bdf136-41d8-4677-b4b5-4ef97507aa01","system_id":"levelo_inurba_marseille","lat":43.26679,"lon":5.38259,"is_reserved":false,"is_disabled":false,"rental_uris":{"android":"levelo://app?vid=c3bdf136-41d8-4677-b4b5-4ef97507aa01","ios":"levelo://app?vid=c3bdf136-41d8-4677-b4b5-4ef97507aa01"},"vehicle_type_id":"4","last_reported":1745683859,"current_range_meters":3600,"station_id":"ce4bhg92rcd13ifvqf90","pricing_plan_id":"cebpf4jnsgd1na2vs0mg"},{"bike_id":"8f216625-db21-45de-92ce-38b2d4989c2d","system_id":"levelo_inurba_marseille","lat":43.29282,"lon":5.36833,"is_reserved":false,"is_disabled":false,"rental_uris":{"android":"levelo://app?vid=8f216625-db21-45de-92ce-38b2d4989c2d","ios":"levelo://app?vid=8f216625-db21-45de-92ce-38b2d4989c2d"},"vehicle_type_id":"4","last_reported":1745683859,"current_range_meters":3600,"station_id":"","pricing_plan_id":"cebpf4jnsgd1na2vs0mg"},{"bike_id":"72d71d82-4004-4319-8c8c-d8eb3a7ae405","system_id":"levelo_inurba_marseille","lat":43.276134,"lon":5.361105,"is_reserved":false,"is_disabled":false,"rental_uris":{"android":"levelo://app?vid=72d71d82-4004-4319-8c8c-d8eb3a7ae405","ios":"levelo://app?vid=72d71d82-4004-4319-8c8c-d8eb3a7ae405"},"vehicle_type_id":"4","last_reported":1745683859,"current_range_meters":4000,"station_id":"ce4bgj92rcd13ifvqbe0","pricing_plan_id":"cebpf4jnsgd1na2vs0mg"},{"bike_id":"f5101e9a-1ef1-4172-8e6d-e112eea8b803","system_id":"levelo_inurba_marseille","lat":43.27919,"lon":5.39577,"is_reserved":false,"is_disabled":false,"rental_uris":{"android":"levelo://app?vid=f5101e9a-1ef1-4172-8e6d-e112eea8b803","ios":"levelo://app?vid=f5101e9a-1ef1-4172-8e6d-e112eea8b803"},"vehicle_type_id":"4","last_reported":1745683859,"current_range_meters":4000,"station_id":"ce4bhf92rcd13ifvqf40","pricing_plan_id":"cebpf4jnsgd1na2vs0mg"},{"bike_id":"eebb05cf-2995-4392-aa02-86cb5bc1cb3f","system_id":"levelo_inurba_marseille","lat":43.29226,"lon":5.36068,"is_reserved":false,"is_disabled":false,"rental_uris":{"android":"levelo://app?vid=eebb05cf-2995-4392-aa02-86cb5bc1cb3f","ios":"levelo://app?vid=eebb05cf-2995-4392-aa02-86cb5bc1cb3f"},"vehicle_type_id":"4","last_reported":1745683859,"current_range_meters":4000,"station_id":"ce4bhbh2rcd13ifvqeqg","pricing_plan_id":"cebpf4jnsgd1na2vs0mg"},{"bike_id":"44f026a9-9622-4771-b8aa-49e4218fc71a","system_id":"levelo_inurba_marseille","lat":43.298672,"lon":5.397284,"is_reserved":false,"is_disabled":false,"rental_uris":{"android":"levelo://app?vid=44f026a9-9622-4771-b8aa-49e4218fc71a","ios":"levelo://app?vid=44f026a9-9622-4771-b8aa-49e4218fc71a"},"vehicle_type_id":"4","last_reported":1745683859,"current_range_meters":4000,"station_id":"ce4bh0h2rcd13ifvqd50","pricing_plan_id":"cebpf4jnsgd1na2vs0mg"},{"bike_id":"5f0bb2ff-2df1-42e9-af02-436842220ed9","system_id":"levelo_inurba_marseille","lat":43.30307,"lon":5.36884,"is_reserved":false,"is_disabled":false,"rental_uris":{"android":"levelo://app?vid=5f0bb2ff-2df1-42e9-af02-436842220ed9","ios":"levelo://app?vid=5f0bb2ff-2df1-42e9-af02-436842220ed9"},"vehicle_type_id":"4","last_reported":1745683859,"current_range_meters":4400,"station_id":"ce4bgqh2rcd13ifvqc5g","pricing_plan_id":"cebpf4jnsgd1na2vs0mg"},{"bike_id":"6c527e7d-b60b-4c43-9a38-b790c8b664a3","system_id":"levelo_inurba_marseille","lat":43.28701,"lon":5.40011,"is_reserved":false,"is_disabled":false,"rental_uris":{"android":"levelo://app?vid=6c527e7d-b60b-4c43-9a38-b790c8b664a3","ios":"levelo://app?vid=6c527e7d-b60b-4c43-9a38-b790c8b664a3"},"vehicle_type_id":"4","last_reported":1745683859,"current_range_meters":4400,"station_id":"ce4bho92rcd13ifvqh3g","pricing_plan_id":"cebpf4jnsgd1na2vs0mg"},{"bike_id":"226012da-a4ff-4396-8e95-84a79b0c50a1","system_id":"levelo_inurba_marseille","lat":43.2466,"lon":5.38172,"is_reserved":false,"is_disabled":false,"rental_uris":{"android":"levelo://app?vid=226012da-a4ff-4396-8e95-84a79b0c50a1","ios":"levelo://app?vid=226012da-a4ff-4396-8e95-84a79b0c50a1"},"vehicle_type_id":"4","last_reported":1745683859,"current_range_meters":4400,"station_id":"ce4bhih2rcd13ifvqfr0","pricing_plan_id":"cebpf4jnsgd1na2vs0mg"},{"bike_id":"184403fd-77c8-46b2-a7ba-ff1f464908e2","system_id":"levelo_inurba_marseille","lat":43.24665,"lon":5.38167,"is_reserved":false,"is_disabled":false,"rental_uris":{"android":"levelo://app?vid=184403fd-77c8-46b2-a7ba-ff1f464908e2","ios":"levelo://app?vid=184403fd-77c8-46b2-a7ba-ff1f464908e2"},"vehicle_type_id":"4","last_reported":1745683859,"current_range_meters":4400,"station_id":"ce4bhih2rcd13ifvqfr0","pricing_plan_id":"cebpf4jnsgd1na2vs0mg"},{"bike_id":"7527b0cb-ace2-4623-afad-1632534594ee","system_id":"levelo_inurba_marseille","lat":43.28655,"lon":5.38691,"is_reserved":false,"is_disabled":false,"rental_uris":{"android":"levelo://app?vid=7527b0cb-ace2-4623-afad-1632534594ee","ios":"levelo://app?vid=7527b0cb-ace2-4623-afad-1632534594ee"},"vehicle_type_id":"4","last_reported":1745683859,"current_range_meters":4400,"station_id":"ce4bh492rcd13ifvqdug","pricing_plan_id":"cebpf4jnsgd1na2vs0mg"},{"bike_id":"c6983332-2340-4443-9384-a831b05f8e36","system_id":"levelo_inurba_marseille","lat":43.241715,"lon":5.363851,"is_reserved":false,"is_disabled":false,"rental_uris":{"android":"levelo://app?vid=c6983332-2340-4443-9384-a831b05f8e36","ios":"levelo://app?vid=c6983332-2340-4443-9384-a831b05f8e36"},"vehicle_type_id":"4","last_reported":1745683859,"current_range_meters":4400,"station_id":"cpo36qri1sfpv3e86is0","pricing_plan_id":"cebpf4jnsgd1na2vs0mg"},{"bike_id":"327fa908-fafe-40ae-b97e-12862a152f1f","system_id":"levelo_inurba_marseille","lat":43.27628,"lon":5.39304,"is_reserved":false,"is_disabled":false,"rental_uris":{"android":"levelo://app?vid=327fa908-fafe-40ae-b97e-12862a152f1f","ios":"levelo://app?vid=327fa908-fafe-40ae-b97e-12862a152f1f"},"vehicle_type_id":"4","last_reported":1745683859,"current_range_meters":4800,"station_id":"","pricing_plan_id":"cebpf4jnsgd1na2vs0mg"},{"bike_id":"1746265e-27ad-4913-8a06-b6dc5372d844","system_id":"levelo_inurba_marseille","lat":43.26009,"lon":5.37486,"is_reserved":false,"is_disabled":false,"rental_uris":{"android":"levelo://app?vid=1746265e-27ad-4913-8a06-b6dc5372d844","ios":"levelo://app?vid=1746265e-27ad-4913-8a06-b6dc5372d844"},"vehicle_type_id":"4","last_reported":1745683859,"current_range_meters":4800,"station_id":"","pricing_plan_id":"cebpf4jnsgd1na2vs0mg"},{"bike_id":"5c4e8ac8-bfb4-426e-a856-d7ccc0a04755","system_id":"levelo_inurba_marseille","lat":43.31705,"lon":5.40477,"is_reserved":false,"is_disabled":false,"rental_uris":{"android":"levelo://app?vid=5c4e8ac8-bfb4-426e-a856-d7ccc0a04755","ios":"levelo://app?vid=5c4e8ac8-bfb4-426e-a856-d7ccc0a04755"},"vehicle_type_id":"4","last_reported":1745683859,"current_range_meters":4800,"station_id":"ce4bh012rcd13ifvqd00","pricing_plan_id":"cebpf4jnsgd1na2vs0mg"},{"bike_id":"936aeab8-b777-4910-97c9-09594deb5dfb","system_id":"levelo_inurba_marseille","lat":43.27368,"lon":5.36246,"is_reserved":false,"is_disabled":false,"rental_uris":{"android":"levelo://app?vid=936aeab8-b777-4910-97c9-09594deb5dfb","ios":"levelo://app?vid=936aeab8-b777-4910-97c9-09594deb5dfb"},"vehicle_type_id":"4","last_reported":1745683859,"current_range_meters":4800,"station_id":"ce4bhbh2rcd13ifvqeo0","pricing_plan_id":"cebpf4jnsgd1na2vs0mg"},{"bike_id":"a84dda67-2771-448f-9f2c-69a47019d774","system_id":"levelo_inurba_marseille","lat":43.33609,"lon":5.40984,"is_reserved":false,"is_disabled":true,"rental_uris":{"android":"levelo://app?vid=a84dda67-2771-448f-9f2c-69a47019d774","ios":"levelo://app?vid=a84dda67-2771-448f-9f2c-69a47019d774"},"vehicle_type_id":"4","last_reported":1745683859,"current_range_meters":4800,"station_id":"ce4bhqh2rcd13ifvqhmg","pricing_plan_id":"cebpf4jnsgd1na2vs0mg"},{"bike_id":"5d47a824-0d79-48d3-96c2-29c185110555","system_id":"levelo_inurba_marseille","lat":43.29562,"lon":5.39981,"is_reserved":false,"is_disabled":false,"rental_uris":{"android":"levelo://app?vid=5d47a824-0d79-48d3-96c2-29c185110555","ios":"levelo://app?vid=5d47a824-0d79-48d3-96c2-29c185110555"},"vehicle_type_id":"4","last_reported":1745683859,"current_range_meters":4800,"station_id":"ce4bh312rcd13ifvqdj0","pricing_plan_id":"cebpf4jnsgd1na2vs0mg"},{"bike_id":"f12707fa-c1e2-4e35-890c-0d045935da4e","system_id":"levelo_inurba_marseille","lat":43.24406,"lon":5.37075,"is_reserved":false,"is_disabled":false,"rental_uris":{"android":"levelo://app?vid=f12707fa-c1e2-4e35-890c-0d045935da4e","ios":"levelo://app?vid=f12707fa-c1e2-4e35-890c-0d045935da4e"},"vehicle_type_id":"4","last_reported":1745683859,"current_range_meters":4800,"station_id":"ce4bhhh2rcd13ifvqfk0","pricing_plan_id":"cebpf4jnsgd1na2vs0mg"},{"bike_id":"6957ad88-c99e-458a-8058-ba0b4133949e","system_id":"levelo_inurba_marseille","lat":43.29217,"lon":5.3605,"is_reserved":false,"is_disabled":false,"rental_uris":{"android":"levelo://app?vid=6957ad88-c99e-458a-8058-ba0b4133949e","ios":"levelo://app?vid=6957ad88-c99e-458a-8058-ba0b4133949e"},"vehicle_type_id":"4","last_reported":1745683859,"current_range_meters":4800,"station_id":"ce4bhbh2rcd13ifvqeqg","pricing_plan_id":"cebpf4jnsgd1na2vs0mg"},{"bike_id":"746950f8-4406-4759-b3cb-f1f46db860a9","system_id":"levelo_inurba_marseille","lat":43.23947,"lon":5.36671,"is_reserved":false,"is_disabled":false,"rental_uris":{"android":"levelo://app?vid=746950f8-4406-4759-b3cb-f1f46db860a9","ios":"levelo://app?vid=746950f8-4406-4759-b3cb-f1f46db860a9"},"vehicle_type_id":"4","last_reported":1745683859,"current_range_meters":5600,"station_id":"ce4bhi12rcd13ifvqfp0","pricing_plan_id":"cebpf4jnsgd1na2vs0mg"},{"bike_id":"6d0a61fc-518d-48e6-b383-0cc8c0395f0a","system_id":"levelo_inurba_marseille","lat":43.24166,"lon":5.36399,"is_reserved":false,"is_disabled":false,"rental_uris":{"android":"levelo://app?vid=6d0a61fc-518d-48e6-b383-0cc8c0395f0a","ios":"levelo://app?vid=6d0a61fc-518d-48e6-b383-0cc8c0395f0a"},"vehicle_type_id":"4","last_reported":1745683859,"current_range_meters":5600,"station_id":"cpo36qri1sfpv3e86is0","pricing_plan_id":"cebpf4jnsgd1na2vs0mg"},{"bike_id":"c0ef8296-f2b7-47ee-8803-2adcb484ee36","system_id":"levelo_inurba_marseille","lat":43.21194,"lon":5.35069,"is_reserved":false,"is_disabled":false,"rental_uris":{"android":"levelo://app?vid=c0ef8296-f2b7-47ee-8803-2adcb484ee36","ios":"levelo://app?vid=c0ef8296-f2b7-47ee-8803-2adcb484ee36"},"vehicle_type_id":"4","last_reported":1745683859,"current_range_meters":5600,"station_id":"st_cvj6sg6p6f1abm77japg","pricing_plan_id":"cebpf4jnsgd1na2vs0mg"},{"bike_id":"efbaf83e-b07f-4fbb-bb5d-23d02ec4937e","system_id":"levelo_inurba_marseille","lat":43.29309,"lon":5.37461,"is_reserved":false,"is_disabled":false,"rental_uris":{"android":"levelo://app?vid=efbaf83e-b07f-4fbb-bb5d-23d02ec4937e","ios":"levelo://app?vid=efbaf83e-b07f-4fbb-bb5d-23d02ec4937e"},"vehicle_type_id":"4","last_reported":1745683859,"current_range_meters":5600,"station_id":"ce4bgi12rcd13ifvqb70","pricing_plan_id":"cebpf4jnsgd1na2vs0mg"},{"bike_id":"22862797-518a-4277-aeff-8e60c1f1b907","system_id":"levelo_inurba_marseille","lat":43.29802,"lon":5.40405,"is_reserved":false,"is_disabled":false,"rental_uris":{"android":"levelo://app?vid=22862797-518a-4277-aeff-8e60c1f1b907","ios":"levelo://app?vid=22862797-518a-4277-aeff-8e60c1f1b907"},"vehicle_type_id":"4","last_reported":1745683859,"current_range_meters":5600,"station_id":"ce4bh112rcd13ifvqd90","pricing_plan_id":"cebpf4jnsgd1na2vs0mg"},{"bike_id":"fb3f97a9-61c6-4a16-adf9-6abbd0d7ebda","system_id":"levelo_inurba_marseille","lat":43.31274,"lon":5.40172,"is_reserved":false,"is_disabled":false,"rental_uris":{"android":"levelo://app?vid=fb3f97a9-61c6-4a16-adf9-6abbd0d7ebda","ios":"levelo://app?vid=fb3f97a9-61c6-4a16-adf9-6abbd0d7ebda"},"vehicle_type_id":"4","last_reported":1745683859,"current_range_meters":5600,"station_id":"ce4bh092rcd13ifvqd30","pricing_plan_id":"cebpf4jnsgd1na2vs0mg"},{"bike_id":"4cb2b75c-638c-4c22-bd61-4407edb72105","system_id":"levelo_inurba_marseille","lat":43.26211,"lon":5.37446,"is_reserved":false,"is_disabled":false,"rental_uris":{"android":"levelo://app?vid=4cb2b75c-638c-4c22-bd61-4407edb72105","ios":"levelo://app?vid=4cb2b75c-638c-4c22-bd61-4407edb72105"},"vehicle_type_id":"4","last_reported":1745683859,"current_range_meters":6000,"station_id":"ce4bhgp2rcd13ifvqfc0","pricing_plan_id":"cebpf4jnsgd1na2vs0mg"},{"bike_id":"4751c42c-df70-44f1-921f-311585e43c28","system_id":"levelo_inurba_marseille","lat":43.28038,"lon":5.35664,"is_reserved":false,"is_disabled":false,"rental_uris":{"android":"levelo://app?vid=4751c42c-df70-44f1-921f-311585e43c28","ios":"levelo://app?vid=4751c42c-df70-44f1-921f-311585e43c28"},"vehicle_type_id":"4","last_reported":1745683859,"current_range_meters":6000,"station_id":"ce4bhp92rcd13ifvqhbg","pricing_plan_id":"cebpf4jnsgd1na2vs0mg"},{"bike_id":"8e1b7f9c-15cd-4196-9a56-b8c9c867228b","system_id":"levelo_inurba_marseille","lat":43.26219,"lon":5.37436,"is_reserved":false,"is_disabled":false,"rental_uris":{"android":"levelo://app?vid=8e1b7f9c-15cd-4196-9a56-b8c9c867228b","ios":"levelo://app?vid=8e1b7f9c-15cd-4196-9a56-b8c9c867228b"},"vehicle_type_id":"4","last_reported":1745683859,"current_range_meters":6000,"station_id":"ce4bhgp2rcd13ifvqfc0","pricing_plan_id":"cebpf4jnsgd1na2vs0mg"},{"bike_id":"646743cc-a046-42f5-bb74-023fb9611dfb","system_id":"levelo_inurba_marseille","lat":43.27673,"lon":5.38864,"is_reserved":false,"is_disabled":false,"rental_uris":{"android":"levelo://app?vid=646743cc-a046-42f5-bb74-023fb9611dfb","ios":"levelo://app?vid=646743cc-a046-42f5-bb74-023fb9611dfb"},"vehicle_type_id":"4","last_reported":1745683859,"current_range_meters":6000,"station_id":"ce4bhi12rcd13ifvqfo0","pricing_plan_id":"cebpf4jnsgd1na2vs0mg"},{"bike_id":"4238b1d8-9105-415b-8332-49b047cf0338","system_id":"levelo_inurba_marseille","lat":43.25113,"lon":5.40319,"is_reserved":false,"is_disabled":false,"rental_uris":{"android":"levelo://app?vid=4238b1d8-9105-415b-8332-49b047cf0338","ios":"levelo://app?vid=4238b1d8-9105-415b-8332-49b047cf0338"},"vehicle_type_id":"4","last_reported":1745683859,"current_range_meters":6000,"station_id":"ce4bhlh2rcd13ifvqgig","pricing_plan_id":"cebpf4jnsgd1na2vs0mg"},{"bike_id":"8949fcc7-ced3-400f-9fe5-2d54dc4e29da","system_id":"levelo_inurba_marseille","lat":43.28353,"lon":5.38109,"is_reserved":false,"is_disabled":false,"rental_uris":{"android":"levelo://app?vid=8949fcc7-ced3-400f-9fe5-2d54dc4e29da","ios":"levelo://app?vid=8949fcc7-ced3-400f-9fe5-2d54dc4e29da"},"vehicle_type_id":"4","last_reported":1745683859,"current_range_meters":6000,"station_id":"ce4bh412rcd13ifvqdr0","pricing_plan_id":"cebpf4jnsgd1na2vs0mg"},{"bike_id":"274605fc-622c-4656-a3ad-4ac677f0aa4b","system_id":"levelo_inurba_marseille","lat":43.29567,"lon":5.39957,"is_reserved":false,"is_disabled":false,"rental_uris":{"android":"levelo://app?vid=274605fc-622c-4656-a3ad-4ac677f0aa4b","ios":"levelo://app?vid=274605fc-622c-4656-a3ad-4ac677f0aa4b"},"vehicle_type_id":"4","last_reported":1745683859,"current_range_meters":6400,"station_id":"ce4bh312rcd13ifvqdj0","pricing_plan_id":"cebpf4jnsgd1na2vs0mg"},{"bike_id":"75e95e4f-d3d7-4c6d-8eb7-ea7969e66638","system_id":"levelo_inurba_marseille","lat":43.323583,"lon":5.367601,"is_reserved":false,"is_disabled":false,"rental_uris":{"android":"levelo://app?vid=75e95e4f-d3d7-4c6d-8eb7-ea7969e66638","ios":"levelo://app?vid=75e95e4f-d3d7-4c6d-8eb7-ea7969e66638"},"vehicle_type_id":"4","last_reported":1745683859,"current_range_meters":6400,"station_id":"ce4bhsh2rcd13ifvqi2g","pricing_plan_id":"cebpf4jnsgd1na2vs0mg"},{"bike_id":"c38235ea-bb6c-4852-8136-e8fd19c75875","system_id":"levelo_inurba_marseille","lat":43.3043,"lon":5.38883,"is_reserved":false,"is_disabled":false,"rental_uris":{"android":"levelo://app?vid=c38235ea-bb6c-4852-8136-e8fd19c75875","ios":"levelo://app?vid=c38235ea-bb6c-4852-8136-e8fd19c75875"},"vehicle_type_id":"4","last_reported":1745683859,"current_range_meters":3600,"station_id":"ce4bgk12rcd13ifvqbi0","pricing_plan_id":"cebpf4jnsgd1na2vs0mg"},{"bike_id":"fc3f228b-ceb1-47f1-bae7-e4730a91c3b7","system_id":"levelo_inurba_marseille","lat":43.24395,"lon":5.37043,"is_reserved":false,"is_disabled":false,"rental_uris":{"android":"levelo://app?vid=fc3f228b-ceb1-47f1-bae7-e4730a91c3b7","ios":"levelo://app?vid=fc3f228b-ceb1-47f1-bae7-e4730a91c3b7"},"vehicle_type_id":"4","last_reported":1745683859,"current_range_meters":6400,"station_id":"ce4bhhh2rcd13ifvqfk0","pricing_plan_id":"cebpf4jnsgd1na2vs0mg"},{"bike_id":"74bf1832-a389-491d-9cf1-c0544e13bc20","system_id":"levelo_inurba_marseille","lat":43.27493,"lon":5.42456,"is_reserved":false,"is_disabled":false,"rental_uris":{"android":"levelo://app?vid=74bf1832-a389-491d-9cf1-c0544e13bc20","ios":"levelo://app?vid=74bf1832-a389-491d-9cf1-c0544e13bc20"},"vehicle_type_id":"4","last_reported":1745683859,"current_range_meters":6400,"station_id":"ce4bhn92rcd13ifvqgrg","pricing_plan_id":"cebpf4jnsgd1na2vs0mg"},{"bike_id":"831a6a93-0e0a-4385-a7b6-6cfc5ae3cb35","system_id":"levelo_inurba_marseille","lat":43.30949,"lon":5.39041,"is_reserved":false,"is_disabled":false,"rental_uris":{"android":"levelo://app?vid=831a6a93-0e0a-4385-a7b6-6cfc5ae3cb35","ios":"levelo://app?vid=831a6a93-0e0a-4385-a7b6-6cfc5ae3cb35"},"vehicle_type_id":"4","last_reported":1745683859,"current_range_meters":6400,"station_id":"ce4bgup2rcd13ifvqco0","pricing_plan_id":"cebpf4jnsgd1na2vs0mg"},{"bike_id":"b418cae5-ee80-4400-997b-b65d5ef674b2","system_id":"levelo_inurba_marseille","lat":43.283471,"lon":5.380994,"is_reserved":false,"is_disabled":false,"rental_uris":{"android":"levelo://app?vid=b418cae5-ee80-4400-997b-b65d5ef674b2","ios":"levelo://app?vid=b418cae5-ee80-4400-997b-b65d5ef674b2"},"vehicle_type_id":"4","last_reported":1745683859,"current_range_meters":6400,"station_id":"ce4bh412rcd13ifvqdr0","pricing_plan_id":"cebpf4jnsgd1na2vs0mg"},{"bike_id":"d1ff7e34-d25d-4063-9648-2bd4db47424f","system_id":"levelo_inurba_marseille","lat":43.32455,"lon":5.39145,"is_reserved":false,"is_disabled":false,"rental_uris":{"android":"levelo://app?vid=d1ff7e34-d25d-4063-9648-2bd4db47424f","ios":"levelo://app?vid=d1ff7e34-d25d-4063-9648-2bd4db47424f"},"vehicle_type_id":"4","last_reported":1745683859,"current_range_meters":6400,"station_id":"","pricing_plan_id":"cebpf4jnsgd1na2vs0mg"},{"bike_id":"455c4035-a28b-4060-972f-543e97b6a194","system_id":"levelo_inurba_marseille","lat":43.290078,"lon":5.381084,"is_reserved":false,"is_disabled":false,"rental_uris":{"android":"levelo://app?vid=455c4035-a28b-4060-972f-543e97b6a194","ios":"levelo://app?vid=455c4035-a28b-4060-972f-543e97b6a194"},"vehicle_type_id":"4","last_reported":1745683859,"current_range_meters":5600,"station_id":"ce4bh3h2rcd13ifvqdn0","pricing_plan_id":"cebpf4jnsgd1na2vs0mg"},{"bike_id":"c04e3c3b-6699-432b-83b4-4dd6d9f7b6b4","system_id":"levelo_inurba_marseille","lat":43.27935,"lon":5.41045,"is_reserved":false,"is_disabled":false,"rental_uris":{"android":"levelo://app?vid=c04e3c3b-6699-432b-83b4-4dd6d9f7b6b4","ios":"levelo://app?vid=c04e3c3b-6699-432b-83b4-4dd6d9f7b6b4"},"vehicle_type_id":"4","last_reported":1745683859,"current_range_meters":6800,"station_id":"ce4bhnp2rcd13ifvqh0g","pricing_plan_id":"cebpf4jnsgd1na2vs0mg"},{"bike_id":"eb683552-8bf5-453f-ae01-4fa61eab7c36","system_id":"levelo_inurba_marseille","lat":43.24159,"lon":5.36401,"is_reserved":false,"is_disabled":false,"rental_uris":{"android":"levelo://app?vid=eb683552-8bf5-453f-ae01-4fa61eab7c36","ios":"levelo://app?vid=eb683552-8bf5-453f-ae01-4fa61eab7c36"},"vehicle_type_id":"4","last_reported":1745683859,"current_range_meters":6800,"station_id":"cpo36qri1sfpv3e86is0","pricing_plan_id":"cebpf4jnsgd1na2vs0mg"},{"bike_id":"7aa29c35-a754-4119-bf11-cd50923415b6","system_id":"levelo_inurba_marseille","lat":43.309315,"lon":5.390346,"is_reserved":false,"is_disabled":false,"rental_uris":{"android":"levelo://app?vid=7aa29c35-a754-4119-bf11-cd50923415b6","ios":"levelo://app?vid=7aa29c35-a754-4119-bf11-cd50923415b6"},"vehicle_type_id":"4","last_reported":1745683859,"current_range_meters":6800,"station_id":"ce4bgup2rcd13ifvqco0","pricing_plan_id":"cebpf4jnsgd1na2vs0mg"},{"bike_id":"525934e7-29cc-4d31-8069-1bd23b78d03a","system_id":"levelo_inurba_marseille","lat":43.23149,"lon":5.4371,"is_reserved":false,"is_disabled":false,"rental_uris":{"android":"levelo://app?vid=525934e7-29cc-4d31-8069-1bd23b78d03a","ios":"levelo://app?vid=525934e7-29cc-4d31-8069-1bd23b78d03a"},"vehicle_type_id":"4","last_reported":1745683859,"current_range_meters":6800,"station_id":"ce4bhmp2rcd13ifvqgog","pricing_plan_id":"cebpf4jnsgd1na2vs0mg"},{"bike_id":"20e6bcdc-18d7-4b21-b93a-3f1e8bd0b2c6","system_id":"levelo_inurba_marseille","lat":43.28374,"lon":5.38614,"is_reserved":false,"is_disabled":false,"rental_uris":{"android":"levelo://app?vid=20e6bcdc-18d7-4b21-b93a-3f1e8bd0b2c6","ios":"levelo://app?vid=20e6bcdc-18d7-4b21-b93a-3f1e8bd0b2c6"},"vehicle_type_id":"4","last_reported":1745683859,"current_range_meters":6800,"station_id":"ce4bh492rcd13ifvqdvg","pricing_plan_id":"cebpf4jnsgd1na2vs0mg"},{"bike_id":"e42e008b-a171-42f8-9314-7b91a1c83caf","system_id":"levelo_inurba_marseille","lat":43.25938,"lon":5.40904,"is_reserved":false,"is_disabled":false,"rental_uris":{"android":"levelo://app?vid=e42e008b-a171-42f8-9314-7b91a1c83caf","ios":"levelo://app?vid=e42e008b-a171-42f8-9314-7b91a1c83caf"},"vehicle_type_id":"4","last_reported":1745683859,"current_range_meters":6800,"station_id":"ce4bhm92rcd13ifvqglg","pricing_plan_id":"cebpf4jnsgd1na2vs0mg"},{"bike_id":"422b5989-c8b6-43aa-b2b9-3bfeb2e1ddc0","system_id":"levelo_inurba_marseille","lat":43.24732,"lon":5.41168,"is_reserved":false,"is_disabled":false,"rental_uris":{"android":"levelo://app?vid=422b5989-c8b6-43aa-b2b9-3bfeb2e1ddc0","ios":"levelo://app?vid=422b5989-c8b6-43aa-b2b9-3bfeb2e1ddc0"},"vehicle_type_id":"4","last_reported":1745683859,"current_range_meters":7200,"station_id":"","pricing_plan_id":"cebpf4jnsgd1na2vs0mg"},{"bike_id":"f62a4552-ec40-438e-82bf-49608a81162e","system_id":"levelo_inurba_marseille","lat":43.2396,"lon":5.36651,"is_reserved":false,"is_disabled":false,"rental_uris":{"android":"levelo://app?vid=f62a4552-ec40-438e-82bf-49608a81162e","ios":"levelo://app?vid=f62a4552-ec40-438e-82bf-49608a81162e"},"vehicle_type_id":"4","last_reported":1745683859,"current_range_meters":7200,"station_id":"ce4bhi12rcd13ifvqfp0","pricing_plan_id":"cebpf4jnsgd1na2vs0mg"},{"bike_id":"18b37241-2d92-4bd6-8e58-65fec3172766","system_id":"levelo_inurba_marseille","lat":43.23063,"lon":5.35494,"is_reserved":false,"is_disabled":false,"rental_uris":{"android":"levelo://app?vid=18b37241-2d92-4bd6-8e58-65fec3172766","ios":"levelo://app?vid=18b37241-2d92-4bd6-8e58-65fec3172766"},"vehicle_type_id":"4","last_reported":1745683859,"current_range_meters":7200,"station_id":"cpo3342slgdg3j2ifvpg","pricing_plan_id":"cebpf4jnsgd1na2vs0mg"},{"bike_id":"de203731-88c9-4f37-b3b1-d704e6479d79","system_id":"levelo_inurba_marseille","lat":43.27371,"lon":5.36246,"is_reserved":false,"is_disabled":false,"rental_uris":{"android":"levelo://app?vid=de203731-88c9-4f37-b3b1-d704e6479d79","ios":"levelo://app?vid=de203731-88c9-4f37-b3b1-d704e6479d79"},"vehicle_type_id":"4","last_reported":1745683859,"current_range_meters":7200,"station_id":"ce4bhbh2rcd13ifvqeo0","pricing_plan_id":"cebpf4jnsgd1na2vs0mg"},{"bike_id":"893b60b1-48c2-4f95-a723-986dbcccd4b7","system_id":"levelo_inurba_marseille","lat":43.28965,"lon":5.366466,"is_reserved":false,"is_disabled":false,"rental_uris":{"android":"levelo://app?vid=893b60b1-48c2-4f95-a723-986dbcccd4b7","ios":"levelo://app?vid=893b60b1-48c2-4f95-a723-986dbcccd4b7"},"vehicle_type_id":"4","last_reported":1745683859,"current_range_meters":7200,"station_id":"ce4bh412rcd13ifvqdr0","pricing_plan_id":"cebpf4jnsgd1na2vs0mg"},{"bike_id":"fe09669d-50ad-491d-b298-1f096a7514c1","system_id":"levelo_inurba_marseille","lat":43.3229,"lon":5.38276,"is_reserved":false,"is_disabled":false,"rental_uris":{"android":"levelo://app?vid=fe09669d-50ad-491d-b298-1f096a7514c1","ios":"levelo://app?vid=fe09669d-50ad-491d-b298-1f096a7514c1"},"vehicle_type_id":"4","last_reported":1745683859,"current_range_meters":7200,"station_id":"ce4bhr12rcd13ifvqhqg","pricing_plan_id":"cebpf4jnsgd1na2vs0mg"},{"bike_id":"64695c32-ab54-4ff8-aba6-6ec432ce3ba3","system_id":"levelo_inurba_marseille","lat":43.2957,"lon":5.37518,"is_reserved":false,"is_disabled":false,"rental_uris":{"android":"levelo://app?vid=64695c32-ab54-4ff8-aba6-6ec432ce3ba3","ios":"levelo://app?vid=64695c32-ab54-4ff8-aba6-6ec432ce3ba3"},"vehicle_type_id":"4","last_reported":1745683859,"current_range_meters":6000,"station_id":"ce4bgh92rcd13ifvqb50","pricing_plan_id":"cebpf4jnsgd1na2vs0mg"},{"bike_id":"18ae1d78-8d9e-4697-bc48-a39d36035c1d","system_id":"levelo_inurba_marseille","lat":43.23962,"lon":5.36626,"is_reserved":false,"is_disabled":false,"rental_uris":{"android":"levelo://app?vid=18ae1d78-8d9e-4697-bc48-a39d36035c1d","ios":"levelo://app?vid=18ae1d78-8d9e-4697-bc48-a39d36035c1d"},"vehicle_type_id":"4","last_reported":1745683859,"current_range_meters":7200,"station_id":"ce4bhi12rcd13ifvqfp0","pricing_plan_id":"cebpf4jnsgd1na2vs0mg"},{"bike_id":"554fe001-fd7c-4ce9-8b9f-fe24a3da343a","system_id":"levelo_inurba_marseille","lat":43.23197,"lon":5.35558,"is_reserved":false,"is_disabled":false,"rental_uris":{"android":"levelo://app?vid=554fe001-fd7c-4ce9-8b9f-fe24a3da343a","ios":"levelo://app?vid=554fe001-fd7c-4ce9-8b9f-fe24a3da343a"},"vehicle_type_id":"4","last_reported":1745683859,"current_range_meters":8000,"station_id":"ce4bhu92rcd13ifvqi70","pricing_plan_id":"cebpf4jnsgd1na2vs0mg"},{"bike_id":"9e388feb-19fd-41cf-b765-127373bdec3a","system_id":"levelo_inurba_marseille","lat":43.27473,"lon":5.38205,"is_reserved":false,"is_disabled":false,"rental_uris":{"android":"levelo://app?vid=9e388feb-19fd-41cf-b765-127373bdec3a","ios":"levelo://app?vid=9e388feb-19fd-41cf-b765-127373bdec3a"},"vehicle_type_id":"4","last_reported":1745683859,"current_range_meters":8000,"station_id":"","pricing_plan_id":"cebpf4jnsgd1na2vs0mg"},{"bike_id":"8b641cc8-d304-49ea-aef3-6b29340d46bb","system_id":"levelo_inurba_marseille","lat":43.28937,"lon":5.36641,"is_reserved":false,"is_disabled":false,"rental_uris":{"android":"levelo://app?vid=8b641cc8-d304-49ea-aef3-6b29340d46bb","ios":"levelo://app?vid=8b641cc8-d304-49ea-aef3-6b29340d46bb"},"vehicle_type_id":"4","last_reported":1745683859,"current_range_meters":8000,"station_id":"ce4bhap2rcd13ifvqek0","pricing_plan_id":"cebpf4jnsgd1na2vs0mg"},{"bike_id":"1633ed64-e423-42e4-93c5-471c5c6b4f37","system_id":"levelo_inurba_marseille","lat":43.26051,"lon":5.39414,"is_reserved":false,"is_disabled":false,"rental_uris":{"android":"levelo://app?vid=1633ed64-e423-42e4-93c5-471c5c6b4f37","ios":"levelo://app?vid=1633ed64-e423-42e4-93c5-471c5c6b4f37"},"vehicle_type_id":"4","last_reported":1745683859,"current_range_meters":8000,"station_id":"ce4bhh92rcd13ifvqfj0","pricing_plan_id":"cebpf4jnsgd1na2vs0mg"},{"bike_id":"f8a3ba54-d48c-4880-a189-893783e00ca1","system_id":"levelo_inurba_marseille","lat":43.31355,"lon":5.384977,"is_reserved":false,"is_disabled":false,"rental_uris":{"android":"levelo://app?vid=f8a3ba54-d48c-4880-a189-893783e00ca1","ios":"levelo://app?vid=f8a3ba54-d48c-4880-a189-893783e00ca1"},"vehicle_type_id":"4","last_reported":1745683859,"current_range_meters":8000,"station_id":"ce4bgt92rcd13ifvqcf0","pricing_plan_id":"cebpf4jnsgd1na2vs0mg"},{"bike_id":"2a44dd0f-f41d-403a-a655-f2144854b0da","system_id":"levelo_inurba_marseille","lat":43.24398,"lon":5.37038,"is_reserved":false,"is_disabled":false,"rental_uris":{"android":"levelo://app?vid=2a44dd0f-f41d-403a-a655-f2144854b0da","ios":"levelo://app?vid=2a44dd0f-f41d-403a-a655-f2144854b0da"},"vehicle_type_id":"4","last_reported":1745683859,"current_range_meters":8000,"station_id":"ce4bhhh2rcd13ifvqfk0","pricing_plan_id":"cebpf4jnsgd1na2vs0mg"},{"bike_id":"c121c49e-eb9f-4470-a32f-26ebdb74b991","system_id":"levelo_inurba_marseille","lat":43.25131,"lon":5.40289,"is_reserved":false,"is_disabled":false,"rental_uris":{"android":"levelo://app?vid=c121c49e-eb9f-4470-a32f-26ebdb74b991","ios":"levelo://app?vid=c121c49e-eb9f-4470-a32f-26ebdb74b991"},"vehicle_type_id":"4","last_reported":1745683859,"current_range_meters":8000,"station_id":"ce4bhlh2rcd13ifvqgig","pricing_plan_id":"cebpf4jnsgd1na2vs0mg"},{"bike_id":"c0fbc8de-15a9-4527-ba5a-e2809c9a458f","system_id":"levelo_inurba_marseille","lat":43.28933,"lon":5.36636,"is_reserved":false,"is_disabled":false,"rental_uris":{"android":"levelo://app?vid=c0fbc8de-15a9-4527-ba5a-e2809c9a458f","ios":"levelo://app?vid=c0fbc8de-15a9-4527-ba5a-e2809c9a458f"},"vehicle_type_id":"4","last_reported":1745683859,"current_range_meters":8000,"station_id":"ce4bhap2rcd13ifvqek0","pricing_plan_id":"cebpf4jnsgd1na2vs0mg"},{"bike_id":"3fb10e7d-00e1-476c-a14f-2837b73331eb","system_id":"levelo_inurba_marseille","lat":43.26245,"lon":5.37444,"is_reserved":false,"is_disabled":false,"rental_uris":{"android":"levelo://app?vid=3fb10e7d-00e1-476c-a14f-2837b73331eb","ios":"levelo://app?vid=3fb10e7d-00e1-476c-a14f-2837b73331eb"},"vehicle_type_id":"4","last_reported":1745683859,"current_range_meters":8400,"station_id":"","pricing_plan_id":"cebpf4jnsgd1na2vs0mg"},{"bike_id":"1ede3aac-c244-4b8d-83e6-78672ce29654","system_id":"levelo_inurba_marseille","lat":43.29329,"lon":5.37457,"is_reserved":false,"is_disabled":false,"rental_uris":{"android":"levelo://app?vid=1ede3aac-c244-4b8d-83e6-78672ce29654","ios":"levelo://app?vid=1ede3aac-c244-4b8d-83e6-78672ce29654"},"vehicle_type_id":"4","last_reported":1745683859,"current_range_meters":8400,"station_id":"ce4bgi12rcd13ifvqb70","pricing_plan_id":"cebpf4jnsgd1na2vs0mg"},{"bike_id":"78f86ce9-2162-45f6-b305-bcb23d0cd8a9","system_id":"levelo_inurba_marseille","lat":43.24431,"lon":5.37067,"is_reserved":false,"is_disabled":false,"rental_uris":{"android":"levelo://app?vid=78f86ce9-2162-45f6-b305-bcb23d0cd8a9","ios":"levelo://app?vid=78f86ce9-2162-45f6-b305-bcb23d0cd8a9"},"vehicle_type_id":"4","last_reported":1745683859,"current_range_meters":8400,"station_id":"ce4bhhh2rcd13ifvqfk0","pricing_plan_id":"cebpf4jnsgd1na2vs0mg"},{"bike_id":"51376682-930e-45ed-90e0-b53d931ddc33","system_id":"levelo_inurba_marseille","lat":43.27497,"lon":5.42453,"is_reserved":false,"is_disabled":false,"rental_uris":{"android":"levelo://app?vid=51376682-930e-45ed-90e0-b53d931ddc33","ios":"levelo://app?vid=51376682-930e-45ed-90e0-b53d931ddc33"},"vehicle_type_id":"4","last_reported":1745683859,"current_range_meters":8400,"station_id":"ce4bhn92rcd13ifvqgrg","pricing_plan_id":"cebpf4jnsgd1na2vs0mg"},{"bike_id":"d3c5f68b-2b0b-4f17-8da3-07aff1015494","system_id":"levelo_inurba_marseille","lat":43.2966,"lon":5.37807,"is_reserved":false,"is_disabled":false,"rental_uris":{"android":"levelo://app?vid=d3c5f68b-2b0b-4f17-8da3-07aff1015494","ios":"levelo://app?vid=d3c5f68b-2b0b-4f17-8da3-07aff1015494"},"vehicle_type_id":"4","last_reported":1745683859,"current_range_meters":8400,"station_id":"","pricing_plan_id":"cebpf4jnsgd1na2vs0mg"},{"bike_id":"aa5275f1-b687-457a-b1e7-96a665a80efb","system_id":"levelo_inurba_marseille","lat":43.290187,"lon":5.400091,"is_reserved":false,"is_disabled":false,"rental_uris":{"android":"levelo://app?vid=aa5275f1-b687-457a-b1e7-96a665a80efb","ios":"levelo://app?vid=aa5275f1-b687-457a-b1e7-96a665a80efb"},"vehicle_type_id":"4","last_reported":1745683859,"current_range_meters":7200,"station_id":"ce4bh092rcd13ifvqd20","pricing_plan_id":"cebpf4jnsgd1na2vs0mg"},{"bike_id":"2743111f-6f05-405a-b992-7e5d8fae8924","system_id":"levelo_inurba_marseille","lat":43.22965,"lon":5.35407,"is_reserved":false,"is_disabled":false,"rental_uris":{"android":"levelo://app?vid=2743111f-6f05-405a-b992-7e5d8fae8924","ios":"levelo://app?vid=2743111f-6f05-405a-b992-7e5d8fae8924"},"vehicle_type_id":"4","last_reported":1745683859,"current_range_meters":8400,"station_id":"cpo3532slgdg3j2ikp40","pricing_plan_id":"cebpf4jnsgd1na2vs0mg"},{"bike_id":"d7d7a818-2d68-43b6-94f2-c10609438a63","system_id":"levelo_inurba_marseille","lat":43.26571,"lon":5.39019,"is_reserved":false,"is_disabled":false,"rental_uris":{"android":"levelo://app?vid=d7d7a818-2d68-43b6-94f2-c10609438a63","ios":"levelo://app?vid=d7d7a818-2d68-43b6-94f2-c10609438a63"},"vehicle_type_id":"4","last_reported":1745683859,"current_range_meters":8800,"station_id":"ce4bhe12rcd13ifvqf30","pricing_plan_id":"cebpf4jnsgd1na2vs0mg"},{"bike_id":"042a36cf-a68c-4f02-8fbe-a3d4f36fa492","system_id":"levelo_inurba_marseille","lat":43.211914,"lon":5.350761,"is_reserved":false,"is_disabled":false,"rental_uris":{"android":"levelo://app?vid=042a36cf-a68c-4f02-8fbe-a3d4f36fa492","ios":"levelo://app?vid=042a36cf-a68c-4f02-8fbe-a3d4f36fa492"},"vehicle_type_id":"4","last_reported":1745683859,"current_range_meters":8800,"station_id":"st_cvj6sg6p6f1abm77japg","pricing_plan_id":"cebpf4jnsgd1na2vs0mg"},{"bike_id":"5eba7413-0982-4e96-a76a-2c54e4afd0b1","system_id":"levelo_inurba_marseille","lat":43.306427,"lon":5.401019,"is_reserved":false,"is_disabled":false,"rental_uris":{"android":"levelo://app?vid=5eba7413-0982-4e96-a76a-2c54e4afd0b1","ios":"levelo://app?vid=5eba7413-0982-4e96-a76a-2c54e4afd0b1"},"vehicle_type_id":"4","last_reported":1745683859,"current_range_meters":8800,"station_id":"ce4bh112rcd13ifvqda0","pricing_plan_id":"cebpf4jnsgd1na2vs0mg"},{"bike_id":"6104de1b-83a6-4912-bfa1-49d35364e6af","system_id":"levelo_inurba_marseille","lat":43.23951,"lon":5.36665,"is_reserved":false,"is_disabled":false,"rental_uris":{"android":"levelo://app?vid=6104de1b-83a6-4912-bfa1-49d35364e6af","ios":"levelo://app?vid=6104de1b-83a6-4912-bfa1-49d35364e6af"},"vehicle_type_id":"4","last_reported":1745683859,"current_range_meters":8800,"station_id":"ce4bhi12rcd13ifvqfp0","pricing_plan_id":"cebpf4jnsgd1na2vs0mg"},{"bike_id":"be10b62e-cc2a-43a0-8938-436b6fde673a","system_id":"levelo_inurba_marseille","lat":43.27834,"lon":5.39211,"is_reserved":false,"is_disabled":false,"rental_uris":{"android":"levelo://app?vid=be10b62e-cc2a-43a0-8938-436b6fde673a","ios":"levelo://app?vid=be10b62e-cc2a-43a0-8938-436b6fde673a"},"vehicle_type_id":"4","last_reported":1745683859,"current_range_meters":8800,"station_id":"ce4bhjp2rcd13ifvqga0","pricing_plan_id":"cebpf4jnsgd1na2vs0mg"},{"bike_id":"edce55a7-4ccc-475b-9a5a-5caf17366d9a","system_id":"levelo_inurba_marseille","lat":43.28365,"lon":5.38624,"is_reserved":false,"is_disabled":false,"rental_uris":{"android":"levelo://app?vid=edce55a7-4ccc-475b-9a5a-5caf17366d9a","ios":"levelo://app?vid=edce55a7-4ccc-475b-9a5a-5caf17366d9a"},"vehicle_type_id":"4","last_reported":1745683859,"current_range_meters":8800,"station_id":"ce4bh492rcd13ifvqdvg","pricing_plan_id":"cebpf4jnsgd1na2vs0mg"},{"bike_id":"652a9787-b409-4f95-9fa8-fde93c29a28c","system_id":"levelo_inurba_marseille","lat":43.26807,"lon":5.40271,"is_reserved":false,"is_disabled":false,"rental_uris":{"android":"levelo://app?vid=652a9787-b409-4f95-9fa8-fde93c29a28c","ios":"levelo://app?vid=652a9787-b409-4f95-9fa8-fde93c29a28c"},"vehicle_type_id":"4","last_reported":1745683859,"current_range_meters":8800,"station_id":"ce501612rcd8frsf0b60","pricing_plan_id":"cebpf4jnsgd1na2vs0mg"},{"bike_id":"db7de3ab-2965-4174-9cd8-8971df889cf5","system_id":"levelo_inurba_marseille","lat":43.27927,"lon":5.39605,"is_reserved":false,"is_disabled":false,"rental_uris":{"android":"levelo://app?vid=db7de3ab-2965-4174-9cd8-8971df889cf5","ios":"levelo://app?vid=db7de3ab-2965-4174-9cd8-8971df889cf5"},"vehicle_type_id":"4","last_reported":1745683859,"current_range_meters":9200,"station_id":"ce4bhf92rcd13ifvqf40","pricing_plan_id":"cebpf4jnsgd1na2vs0mg"},{"bike_id":"6c7d1573-a0d9-4f34-86f5-50d2392107da","system_id":"levelo_inurba_marseille","lat":43.241681,"lon":5.363924,"is_reserved":false,"is_disabled":false,"rental_uris":{"android":"levelo://app?vid=6c7d1573-a0d9-4f34-86f5-50d2392107da","ios":"levelo://app?vid=6c7d1573-a0d9-4f34-86f5-50d2392107da"},"vehicle_type_id":"4","last_reported":1745683859,"current_range_meters":9200,"station_id":"cpo36qri1sfpv3e86is0","pricing_plan_id":"cebpf4jnsgd1na2vs0mg"},{"bike_id":"0f50ead6-d4b2-4428-9ad8-4316006f9385","system_id":"levelo_inurba_marseille","lat":43.2842,"lon":5.34978,"is_reserved":false,"is_disabled":false,"rental_uris":{"android":"levelo://app?vid=0f50ead6-d4b2-4428-9ad8-4316006f9385","ios":"levelo://app?vid=0f50ead6-d4b2-4428-9ad8-4316006f9385"},"vehicle_type_id":"4","last_reported":1745683859,"current_range_meters":9200,"station_id":"ce4bhbh2rcd13ifvqepg","pricing_plan_id":"cebpf4jnsgd1na2vs0mg"},{"bike_id":"fbbd69c5-c3c7-4361-9863-d47c540768dd","system_id":"levelo_inurba_marseille","lat":43.29564,"lon":5.39999,"is_reserved":false,"is_disabled":false,"rental_uris":{"android":"levelo://app?vid=fbbd69c5-c3c7-4361-9863-d47c540768dd","ios":"levelo://app?vid=fbbd69c5-c3c7-4361-9863-d47c540768dd"},"vehicle_type_id":"4","last_reported":1745683859,"current_range_meters":9200,"station_id":"ce4bh312rcd13ifvqdj0","pricing_plan_id":"cebpf4jnsgd1na2vs0mg"},{"bike_id":"4308ba4a-cc8d-47a0-ad31-fc2d4641f4dc","system_id":"levelo_inurba_marseille","lat":43.30945,"lon":5.3905,"is_reserved":false,"is_disabled":false,"rental_uris":{"android":"levelo://app?vid=4308ba4a-cc8d-47a0-ad31-fc2d4641f4dc","ios":"levelo://app?vid=4308ba4a-cc8d-47a0-ad31-fc2d4641f4dc"},"vehicle_type_id":"4","last_reported":1745683859,"current_range_meters":9200,"station_id":"ce4bgup2rcd13ifvqco0","pricing_plan_id":"cebpf4jnsgd1na2vs0mg"},{"bike_id":"01eba2c0-8ddc-454b-8ebe-3984acb789ad","system_id":"levelo_inurba_marseille","lat":43.3088,"lon":5.39639,"is_reserved":false,"is_disabled":false,"rental_uris":{"android":"levelo://app?vid=01eba2c0-8ddc-454b-8ebe-3984acb789ad","ios":"levelo://app?vid=01eba2c0-8ddc-454b-8ebe-3984acb789ad"},"vehicle_type_id":"4","last_reported":1745683859,"current_range_meters":9600,"station_id":"ce4bh012rcd13ifvqcv0","pricing_plan_id":"cebpf4jnsgd1na2vs0mg"},{"bike_id":"ff062f05-860f-4e02-8275-dd31fed8fe8c","system_id":"levelo_inurba_marseille","lat":43.27929,"lon":5.41009,"is_reserved":false,"is_disabled":false,"rental_uris":{"android":"levelo://app?vid=ff062f05-860f-4e02-8275-dd31fed8fe8c","ios":"levelo://app?vid=ff062f05-860f-4e02-8275-dd31fed8fe8c"},"vehicle_type_id":"4","last_reported":1745683859,"current_range_meters":9600,"station_id":"ce4bhnp2rcd13ifvqh0g","pricing_plan_id":"cebpf4jnsgd1na2vs0mg"},{"bike_id":"4f43d0b5-dea6-4555-82de-44dbea18d4cb","system_id":"levelo_inurba_marseille","lat":43.29788,"lon":5.38093,"is_reserved":false,"is_disabled":false,"rental_uris":{"android":"levelo://app?vid=4f43d0b5-dea6-4555-82de-44dbea18d4cb","ios":"levelo://app?vid=4f43d0b5-dea6-4555-82de-44dbea18d4cb"},"vehicle_type_id":"4","last_reported":1745683859,"current_range_meters":9200,"station_id":"ce4bgip2rcd13ifvqbb0","pricing_plan_id":"cebpf4jnsgd1na2vs0mg"},{"bike_id":"c886bc95-a9f4-4b08-af93-286cc6dbd1ea","system_id":"levelo_inurba_marseille","lat":43.24174,"lon":5.36395,"is_reserved":false,"is_disabled":false,"rental_uris":{"android":"levelo://app?vid=c886bc95-a9f4-4b08-af93-286cc6dbd1ea","ios":"levelo://app?vid=c886bc95-a9f4-4b08-af93-286cc6dbd1ea"},"vehicle_type_id":"4","last_reported":1745683859,"current_range_meters":9600,"station_id":"cpo36qri1sfpv3e86is0","pricing_plan_id":"cebpf4jnsgd1na2vs0mg"},{"bike_id":"2ebaf0c1-013d-4c48-b68c-b398628b343d","system_id":"levelo_inurba_marseille","lat":43.32479,"lon":5.36577,"is_reserved":false,"is_disabled":false,"rental_uris":{"android":"levelo://app?vid=2ebaf0c1-013d-4c48-b68c-b398628b343d","ios":"levelo://app?vid=2ebaf0c1-013d-4c48-b68c-b398628b343d"},"vehicle_type_id":"4","last_reported":1745683859,"current_range_meters":8800,"station_id":"ce4bhs12rcd13ifvqhvg","pricing_plan_id":"cebpf4jnsgd1na2vs0mg"},{"bike_id":"24e696e9-0fe6-424e-b3b9-8648e340d3b9","system_id":"levelo_inurba_marseille","lat":43.27566,"lon":5.38409,"is_reserved":false,"is_disabled":false,"rental_uris":{"android":"levelo://app?vid=24e696e9-0fe6-424e-b3b9-8648e340d3b9","ios":"levelo://app?vid=24e696e9-0fe6-424e-b3b9-8648e340d3b9"},"vehicle_type_id":"4","last_reported":1745683859,"current_range_meters":9600,"station_id":"ce4bhh92rcd13ifvqfi0","pricing_plan_id":"cebpf4jnsgd1na2vs0mg"},{"bike_id":"6f6e46b3-e9fb-4419-a053-3f2c9fc41e77","system_id":"levelo_inurba_marseille","lat":43.30884,"lon":5.39655,"is_reserved":false,"is_disabled":false,"rental_uris":{"android":"levelo://app?vid=6f6e46b3-e9fb-4419-a053-3f2c9fc41e77","ios":"levelo://app?vid=6f6e46b3-e9fb-4419-a053-3f2c9fc41e77"},"vehicle_type_id":"4","last_reported":1745683859,"current_range_meters":9600,"station_id":"ce4bh012rcd13ifvqcv0","pricing_plan_id":"cebpf4jnsgd1na2vs0mg"},{"bike_id":"dd1f484e-afbc-4327-914e-ee2f4d84e475","system_id":"levelo_inurba_marseille","lat":43.27382,"lon":5.36248,"is_reserved":false,"is_disabled":false,"rental_uris":{"android":"levelo://app?vid=dd1f484e-afbc-4327-914e-ee2f4d84e475","ios":"levelo://app?vid=dd1f484e-afbc-4327-914e-ee2f4d84e475"},"vehicle_type_id":"4","last_reported":1745683859,"current_range_meters":9600,"station_id":"ce4bhbh2rcd13ifvqeo0","pricing_plan_id":"cebpf4jnsgd1na2vs0mg"},{"bike_id":"d4640d21-e6fc-4fc3-9ee6-20032e26a897","system_id":"levelo_inurba_marseille","lat":43.26678,"lon":5.38282,"is_reserved":false,"is_disabled":false,"rental_uris":{"android":"levelo://app?vid=d4640d21-e6fc-4fc3-9ee6-20032e26a897","ios":"levelo://app?vid=d4640d21-e6fc-4fc3-9ee6-20032e26a897"},"vehicle_type_id":"4","last_reported":1745683859,"current_range_meters":10000,"station_id":"ce4bhg92rcd13ifvqf90","pricing_plan_id":"cebpf4jnsgd1na2vs0mg"},{"bike_id":"96227ccb-8e64-4381-91f7-3a9b78673cf8","system_id":"levelo_inurba_marseille","lat":43.27993,"lon":5.40018,"is_reserved":false,"is_disabled":false,"rental_uris":{"android":"levelo://app?vid=96227ccb-8e64-4381-91f7-3a9b78673cf8","ios":"levelo://app?vid=96227ccb-8e64-4381-91f7-3a9b78673cf8"},"vehicle_type_id":"4","last_reported":1745683859,"current_range_meters":10000,"station_id":"ce4bho92rcd13ifvqh4g","pricing_plan_id":"cebpf4jnsgd1na2vs0mg"},{"bike_id":"001c91f2-ad60-46da-ab7a-5d63674ce63c","system_id":"levelo_inurba_marseille","lat":43.29773,"lon":5.37091,"is_reserved":false,"is_disabled":false,"rental_uris":{"android":"levelo://app?vid=001c91f2-ad60-46da-ab7a-5d63674ce63c","ios":"levelo://app?vid=001c91f2-ad60-46da-ab7a-5d63674ce63c"},"vehicle_type_id":"4","last_reported":1745683859,"current_range_meters":10000,"station_id":"ce4bgop2rcd13ifvqc1g","pricing_plan_id":"cebpf4jnsgd1na2vs0mg"},{"bike_id":"be70b9ae-9aa6-48a9-a0ec-63bd5666fa1d","system_id":"levelo_inurba_marseille","lat":43.28262,"lon":5.3506,"is_reserved":false,"is_disabled":false,"rental_uris":{"android":"levelo://app?vid=be70b9ae-9aa6-48a9-a0ec-63bd5666fa1d","ios":"levelo://app?vid=be70b9ae-9aa6-48a9-a0ec-63bd5666fa1d"},"vehicle_type_id":"4","last_reported":1745683859,"current_range_meters":10800,"station_id":"ce4bhbp2rcd13ifvqerg","pricing_plan_id":"cebpf4jnsgd1na2vs0mg"},{"bike_id":"c1d3cfe4-a2fb-42d4-a7ea-7de903bb0233","system_id":"levelo_inurba_marseille","lat":43.27946,"lon":5.41041,"is_reserved":false,"is_disabled":false,"rental_uris":{"android":"levelo://app?vid=c1d3cfe4-a2fb-42d4-a7ea-7de903bb0233","ios":"levelo://app?vid=c1d3cfe4-a2fb-42d4-a7ea-7de903bb0233"},"vehicle_type_id":"4","last_reported":1745683859,"current_range_meters":10800,"station_id":"ce4bhnp2rcd13ifvqh0g","pricing_plan_id":"cebpf4jnsgd1na2vs0mg"},{"bike_id":"41b4a874-61b2-41a7-b50f-cecefe263549","system_id":"levelo_inurba_marseille","lat":43.29687,"lon":5.37284,"is_reserved":false,"is_disabled":false,"rental_uris":{"android":"levelo://app?vid=41b4a874-61b2-41a7-b50f-cecefe263549","ios":"levelo://app?vid=41b4a874-61b2-41a7-b50f-cecefe263549"},"vehicle_type_id":"4","last_reported":1745683859,"current_range_meters":10800,"station_id":"ce4bgk12rcd13ifvqbj0","pricing_plan_id":"cebpf4jnsgd1na2vs0mg"},{"bike_id":"af2ced06-fc8a-47d4-8897-663cf6d58009","system_id":"levelo_inurba_marseille","lat":43.2841,"lon":5.37505,"is_reserved":false,"is_disabled":false,"rental_uris":{"android":"levelo://app?vid=af2ced06-fc8a-47d4-8897-663cf6d58009","ios":"levelo://app?vid=af2ced06-fc8a-47d4-8897-663cf6d58009"},"vehicle_type_id":"4","last_reported":1745683859,"current_range_meters":10800,"station_id":"ce4bh412rcd13ifvqds0","pricing_plan_id":"cebpf4jnsgd1na2vs0mg"},{"bike_id":"f1c9e468-f05d-4e12-92c3-671e0268f1e9","system_id":"levelo_inurba_marseille","lat":43.29235,"lon":5.3603,"is_reserved":false,"is_disabled":false,"rental_uris":{"android":"levelo://app?vid=f1c9e468-f05d-4e12-92c3-671e0268f1e9","ios":"levelo://app?vid=f1c9e468-f05d-4e12-92c3-671e0268f1e9"},"vehicle_type_id":"4","last_reported":1745683859,"current_range_meters":10800,"station_id":"ce4bhbh2rcd13ifvqeqg","pricing_plan_id":"cebpf4jnsgd1na2vs0mg"},{"bike_id":"1f63a58c-93be-452e-9e2e-e766d4f02731","system_id":"levelo_inurba_marseille","lat":43.24164,"lon":5.36396,"is_reserved":false,"is_disabled":false,"rental_uris":{"android":"levelo://app?vid=1f63a58c-93be-452e-9e2e-e766d4f02731","ios":"levelo://app?vid=1f63a58c-93be-452e-9e2e-e766d4f02731"},"vehicle_type_id":"4","last_reported":1745683859,"current_range_meters":10800,"station_id":"cpo36qri1sfpv3e86is0","pricing_plan_id":"cebpf4jnsgd1na2vs0mg"},{"bike_id":"7d9669fc-32f8-4d0c-965b-3fa72110d608","system_id":"levelo_inurba_marseille","lat":43.23536,"lon":5.3601,"is_reserved":false,"is_disabled":false,"rental_uris":{"android":"levelo://app?vid=7d9669fc-32f8-4d0c-965b-3fa72110d608","ios":"levelo://app?vid=7d9669fc-32f8-4d0c-965b-3fa72110d608"},"vehicle_type_id":"4","last_reported":1745683859,"current_range_meters":10800,"station_id":"","pricing_plan_id":"cebpf4jnsgd1na2vs0mg"},{"bike_id":"51c1075b-e9a6-4b8c-94ef-442f5ca1ebc0","system_id":"levelo_inurba_marseille","lat":43.27067,"lon":5.40245,"is_reserved":false,"is_disabled":false,"rental_uris":{"android":"levelo://app?vid=51c1075b-e9a6-4b8c-94ef-442f5ca1ebc0","ios":"levelo://app?vid=51c1075b-e9a6-4b8c-94ef-442f5ca1ebc0"},"vehicle_type_id":"4","last_reported":1745683859,"current_range_meters":10800,"station_id":"ce4bhk92rcd13ifvqgc0","pricing_plan_id":"cebpf4jnsgd1na2vs0mg"},{"bike_id":"74199bce-d067-48c4-91ab-aaa717183700","system_id":"levelo_inurba_marseille","lat":43.28705,"lon":5.4001,"is_reserved":false,"is_disabled":false,"rental_uris":{"android":"levelo://app?vid=74199bce-d067-48c4-91ab-aaa717183700","ios":"levelo://app?vid=74199bce-d067-48c4-91ab-aaa717183700"},"vehicle_type_id":"4","last_reported":1745683859,"current_range_meters":10800,"station_id":"ce4bho92rcd13ifvqh3g","pricing_plan_id":"cebpf4jnsgd1na2vs0mg"},{"bike_id":"ae2f8384-ab79-4241-aa7f-a13b45da22ce","system_id":"levelo_inurba_marseille","lat":43.26215,"lon":5.37445,"is_reserved":false,"is_disabled":false,"rental_uris":{"android":"levelo://app?vid=ae2f8384-ab79-4241-aa7f-a13b45da22ce","ios":"levelo://app?vid=ae2f8384-ab79-4241-aa7f-a13b45da22ce"},"vehicle_type_id":"4","last_reported":1745683859,"current_range_meters":10800,"station_id":"ce4bhgp2rcd13ifvqfc0","pricing_plan_id":"cebpf4jnsgd1na2vs0mg"},{"bike_id":"7cca116e-ef83-4a23-be1d-a9593f9e71db","system_id":"levelo_inurba_marseille","lat":43.2927,"lon":5.40921,"is_reserved":false,"is_disabled":false,"rental_uris":{"android":"levelo://app?vid=7cca116e-ef83-4a23-be1d-a9593f9e71db","ios":"levelo://app?vid=7cca116e-ef83-4a23-be1d-a9593f9e71db"},"vehicle_type_id":"4","last_reported":1745683859,"current_range_meters":11200,"station_id":"ce4bh192rcd13ifvqdc0","pricing_plan_id":"cebpf4jnsgd1na2vs0mg"},{"bike_id":"52e20648-895d-46c1-aaaa-61d285064325","system_id":"levelo_inurba_marseille","lat":43.23187,"lon":5.39986,"is_reserved":false,"is_disabled":false,"rental_uris":{"android":"levelo://app?vid=52e20648-895d-46c1-aaaa-61d285064325","ios":"levelo://app?vid=52e20648-895d-46c1-aaaa-61d285064325"},"vehicle_type_id":"4","last_reported":1745683859,"current_range_meters":11200,"station_id":"ce4bhn12rcd13ifvqgqg","pricing_plan_id":"cebpf4jnsgd1na2vs0mg"},{"bike_id":"df306a78-c4e5-469a-81fb-7105b515f9fe","system_id":"levelo_inurba_marseille","lat":43.30911,"lon":5.36844,"is_reserved":false,"is_disabled":false,"rental_uris":{"android":"levelo://app?vid=df306a78-c4e5-469a-81fb-7105b515f9fe","ios":"levelo://app?vid=df306a78-c4e5-469a-81fb-7105b515f9fe"},"vehicle_type_id":"4","last_reported":1745683859,"current_range_meters":13600,"station_id":"ce4bgn92rcd13ifvqbvg","pricing_plan_id":"cebpf4jnsgd1na2vs0mg"},{"bike_id":"aa7dd23a-c50c-4359-a4fa-3d29c4576751","system_id":"levelo_inurba_marseille","lat":43.24161,"lon":5.36416,"is_reserved":false,"is_disabled":false,"rental_uris":{"android":"levelo://app?vid=aa7dd23a-c50c-4359-a4fa-3d29c4576751","ios":"levelo://app?vid=aa7dd23a-c50c-4359-a4fa-3d29c4576751"},"vehicle_type_id":"4","last_reported":1745683859,"current_range_meters":11200,"station_id":"cpo36qri1sfpv3e86is0","pricing_plan_id":"cebpf4jnsgd1na2vs0mg"},{"bike_id":"a84f1334-ec6b-4c77-9478-198b1499bc41","system_id":"levelo_inurba_marseille","lat":43.29229,"lon":5.36078,"is_reserved":false,"is_disabled":false,"rental_uris":{"android":"levelo://app?vid=a84f1334-ec6b-4c77-9478-198b1499bc41","ios":"levelo://app?vid=a84f1334-ec6b-4c77-9478-198b1499bc41"},"vehicle_type_id":"4","last_reported":1745683859,"current_range_meters":11200,"station_id":"ce4bhbh2rcd13ifvqeqg","pricing_plan_id":"cebpf4jnsgd1na2vs0mg"},{"bike_id":"0429adbf-9996-4670-ae2d-bff8481dfd8d","system_id":"levelo_inurba_marseille","lat":43.30961,"lon":5.39029,"is_reserved":false,"is_disabled":false,"rental_uris":{"android":"levelo://app?vid=0429adbf-9996-4670-ae2d-bff8481dfd8d","ios":"levelo://app?vid=0429adbf-9996-4670-ae2d-bff8481dfd8d"},"vehicle_type_id":"4","last_reported":1745683859,"current_range_meters":11200,"station_id":"ce4bgup2rcd13ifvqco0","pricing_plan_id":"cebpf4jnsgd1na2vs0mg"},{"bike_id":"4f39f9dc-dec9-479e-bd3f-92a4b3a0cb9a","system_id":"levelo_inurba_marseille","lat":43.25868,"lon":5.39896,"is_reserved":false,"is_disabled":false,"rental_uris":{"android":"levelo://app?vid=4f39f9dc-dec9-479e-bd3f-92a4b3a0cb9a","ios":"levelo://app?vid=4f39f9dc-dec9-479e-bd3f-92a4b3a0cb9a"},"vehicle_type_id":"4","last_reported":1745683859,"current_range_meters":11200,"station_id":"ce4bhl92rcd13ifvqghg","pricing_plan_id":"cebpf4jnsgd1na2vs0mg"},{"bike_id":"56549348-bdd2-4db0-a981-4614f242dad8","system_id":"levelo_inurba_marseille","lat":43.29579,"lon":5.37511,"is_reserved":false,"is_disabled":false,"rental_uris":{"android":"levelo://app?vid=56549348-bdd2-4db0-a981-4614f242dad8","ios":"levelo://app?vid=56549348-bdd2-4db0-a981-4614f242dad8"},"vehicle_type_id":"4","last_reported":1745683859,"current_range_meters":11600,"station_id":"ce4bgh92rcd13ifvqb50","pricing_plan_id":"cebpf4jnsgd1na2vs0mg"},{"bike_id":"e8580e41-2b5c-43b0-98df-786aa255d18f","system_id":"levelo_inurba_marseille","lat":43.28927,"lon":5.38403,"is_reserved":false,"is_disabled":false,"rental_uris":{"android":"levelo://app?vid=e8580e41-2b5c-43b0-98df-786aa255d18f","ios":"levelo://app?vid=e8580e41-2b5c-43b0-98df-786aa255d18f"},"vehicle_type_id":"4","last_reported":1745683859,"current_range_meters":11600,"station_id":"ce4bh612rcd13ifvqe6g","pricing_plan_id":"cebpf4jnsgd1na2vs0mg"},{"bike_id":"6a8efd4c-1c7d-41c0-97ad-eac360fde451","system_id":"levelo_inurba_marseille","lat":43.33722,"lon":5.39179,"is_reserved":false,"is_disabled":false,"rental_uris":{"android":"levelo://app?vid=6a8efd4c-1c7d-41c0-97ad-eac360fde451","ios":"levelo://app?vid=6a8efd4c-1c7d-41c0-97ad-eac360fde451"},"vehicle_type_id":"4","last_reported":1745683859,"current_range_meters":11600,"station_id":"ce4bhr92rcd13ifvqhsg","pricing_plan_id":"cebpf4jnsgd1na2vs0mg"},{"bike_id":"a0c257a0-3231-4aee-bee4-f09ddd7cb3eb","system_id":"levelo_inurba_marseille","lat":43.28613,"lon":5.37066,"is_reserved":false,"is_disabled":false,"rental_uris":{"android":"levelo://app?vid=a0c257a0-3231-4aee-bee4-f09ddd7cb3eb","ios":"levelo://app?vid=a0c257a0-3231-4aee-bee4-f09ddd7cb3eb"},"vehicle_type_id":"4","last_reported":1745683859,"current_range_meters":12000,"station_id":"ce4bht12rcd13ifvqi60","pricing_plan_id":"cebpf4jnsgd1na2vs0mg"},{"bike_id":"673407a2-e778-4cca-af62-7e5cf6f596af","system_id":"levelo_inurba_marseille","lat":43.318926,"lon":5.407428,"is_reserved":false,"is_disabled":false,"rental_uris":{"android":"levelo://app?vid=673407a2-e778-4cca-af62-7e5cf6f596af","ios":"levelo://app?vid=673407a2-e778-4cca-af62-7e5cf6f596af"},"vehicle_type_id":"4","last_reported":1745683859,"current_range_meters":11600,"station_id":"ce4bhq12rcd13ifvqhig","pricing_plan_id":"cebpf4jnsgd1na2vs0mg"},{"bike_id":"6c96b953-7413-4074-a7b6-7cffbd0f978b","system_id":"levelo_inurba_marseille","lat":43.29399,"lon":5.41238,"is_reserved":false,"is_disabled":false,"rental_uris":{"android":"levelo://app?vid=6c96b953-7413-4074-a7b6-7cffbd0f978b","ios":"levelo://app?vid=6c96b953-7413-4074-a7b6-7cffbd0f978b"},"vehicle_type_id":"4","last_reported":1745683859,"current_range_meters":12000,"station_id":"","pricing_plan_id":"cebpf4jnsgd1na2vs0mg"},{"bike_id":"3f8e74df-4b8a-4fe8-9f20-4fbe47605119","system_id":"levelo_inurba_marseille","lat":43.29034,"lon":5.37551,"is_reserved":false,"is_disabled":true,"rental_uris":{"android":"levelo://app?vid=3f8e74df-4b8a-4fe8-9f20-4fbe47605119","ios":"levelo://app?vid=3f8e74df-4b8a-4fe8-9f20-4fbe47605119"},"vehicle_type_id":"4","last_reported":1745683859,"current_range_meters":12000,"station_id":"ce4bh692rcd13ifvqe90","pricing_plan_id":"cebpf4jnsgd1na2vs0mg"},{"bike_id":"f68fab63-4ace-4643-ae9d-504a1ebcd134","system_id":"levelo_inurba_marseille","lat":43.311384,"lon":5.402405,"is_reserved":false,"is_disabled":false,"rental_uris":{"android":"levelo://app?vid=f68fab63-4ace-4643-ae9d-504a1ebcd134","ios":"levelo://app?vid=f68fab63-4ace-4643-ae9d-504a1ebcd134"},"vehicle_type_id":"4","last_reported":1745683859,"current_range_meters":11600,"station_id":"ce4bh112rcd13ifvqda0","pricing_plan_id":"cebpf4jnsgd1na2vs0mg"},{"bike_id":"a76e49be-e212-440b-a7d8-d9f22a87e576","system_id":"levelo_inurba_marseille","lat":43.25568,"lon":5.38239,"is_reserved":false,"is_disabled":false,"rental_uris":{"android":"levelo://app?vid=a76e49be-e212-440b-a7d8-d9f22a87e576","ios":"levelo://app?vid=a76e49be-e212-440b-a7d8-d9f22a87e576"},"vehicle_type_id":"4","last_reported":1745683859,"current_range_meters":12000,"station_id":"ce4bhih2rcd13ifvqfs0","pricing_plan_id":"cebpf4jnsgd1na2vs0mg"},{"bike_id":"102f7c22-5c7f-429f-8f94-92500713e365","system_id":"levelo_inurba_marseille","lat":43.31081,"lon":5.42447,"is_reserved":false,"is_disabled":false,"rental_uris":{"android":"levelo://app?vid=102f7c22-5c7f-429f-8f94-92500713e365","ios":"levelo://app?vid=102f7c22-5c7f-429f-8f94-92500713e365"},"vehicle_type_id":"4","last_reported":1745683859,"current_range_meters":12000,"station_id":"ce4bhp92rcd13ifvqhag","pricing_plan_id":"cebpf4jnsgd1na2vs0mg"},{"bike_id":"d95268d9-169f-48a5-b2d5-b985588e2af0","system_id":"levelo_inurba_marseille","lat":43.28933,"lon":5.36652,"is_reserved":false,"is_disabled":false,"rental_uris":{"android":"levelo://app?vid=d95268d9-169f-48a5-b2d5-b985588e2af0","ios":"levelo://app?vid=d95268d9-169f-48a5-b2d5-b985588e2af0"},"vehicle_type_id":"4","last_reported":1745683859,"current_range_meters":12400,"station_id":"ce4bhap2rcd13ifvqek0","pricing_plan_id":"cebpf4jnsgd1na2vs0mg"},{"bike_id":"c7da2270-bde7-43a0-bee3-4df9b3c31c0a","system_id":"levelo_inurba_marseille","lat":43.23962,"lon":5.36632,"is_reserved":false,"is_disabled":false,"rental_uris":{"android":"levelo://app?vid=c7da2270-bde7-43a0-bee3-4df9b3c31c0a","ios":"levelo://app?vid=c7da2270-bde7-43a0-bee3-4df9b3c31c0a"},"vehicle_type_id":"4","last_reported":1745683859,"current_range_meters":12400,"station_id":"ce4bhi12rcd13ifvqfp0","pricing_plan_id":"cebpf4jnsgd1na2vs0mg"},{"bike_id":"38ad6ce0-1ba0-4d0f-a84b-b857ec47c739","system_id":"levelo_inurba_marseille","lat":43.31157,"lon":5.42782,"is_reserved":false,"is_disabled":true,"rental_uris":{"android":"levelo://app?vid=38ad6ce0-1ba0-4d0f-a84b-b857ec47c739","ios":"levelo://app?vid=38ad6ce0-1ba0-4d0f-a84b-b857ec47c739"},"vehicle_type_id":"4","last_reported":1745683859,"current_range_meters":12400,"station_id":"","pricing_plan_id":"cebpf4jnsgd1na2vs0mg"},{"bike_id":"1874d122-7a7d-4a9c-af20-93ce391aae61","system_id":"levelo_inurba_marseille","lat":43.28462,"lon":5.35893,"is_reserved":false,"is_disabled":false,"rental_uris":{"android":"levelo://app?vid=1874d122-7a7d-4a9c-af20-93ce391aae61","ios":"levelo://app?vid=1874d122-7a7d-4a9c-af20-93ce391aae61"},"vehicle_type_id":"4","last_reported":1745683859,"current_range_meters":12800,"station_id":"ce4bhah2rcd13ifvqei0","pricing_plan_id":"cebpf4jnsgd1na2vs0mg"},{"bike_id":"552e61c6-f47e-4c8a-8818-15a77c26fe65","system_id":"levelo_inurba_marseille","lat":43.24071,"lon":5.37759,"is_reserved":false,"is_disabled":false,"rental_uris":{"android":"levelo://app?vid=552e61c6-f47e-4c8a-8818-15a77c26fe65","ios":"levelo://app?vid=552e61c6-f47e-4c8a-8818-15a77c26fe65"},"vehicle_type_id":"4","last_reported":1745683859,"current_range_meters":12800,"station_id":"ce4bhnp2rcd13ifvqgvg","pricing_plan_id":"cebpf4jnsgd1na2vs0mg"},{"bike_id":"736ee7d5-708e-48bd-8281-35bb85d0bc7d","system_id":"levelo_inurba_marseille","lat":43.29008,"lon":5.35619,"is_reserved":false,"is_disabled":true,"rental_uris":{"android":"levelo://app?vid=736ee7d5-708e-48bd-8281-35bb85d0bc7d","ios":"levelo://app?vid=736ee7d5-708e-48bd-8281-35bb85d0bc7d"},"vehicle_type_id":"4","last_reported":1745683859,"current_range_meters":12800,"station_id":"ce4bhb92rcd13ifvqen0","pricing_plan_id":"cebpf4jnsgd1na2vs0mg"},{"bike_id":"f46b162e-170a-446a-9c4b-0c8212412ceb","system_id":"levelo_inurba_marseille","lat":43.23187,"lon":5.39981,"is_reserved":false,"is_disabled":false,"rental_uris":{"android":"levelo://app?vid=f46b162e-170a-446a-9c4b-0c8212412ceb","ios":"levelo://app?vid=f46b162e-170a-446a-9c4b-0c8212412ceb"},"vehicle_type_id":"4","last_reported":1745683859,"current_range_meters":12800,"station_id":"ce4bhn12rcd13ifvqgqg","pricing_plan_id":"cebpf4jnsgd1na2vs0mg"},{"bike_id":"86082c5a-74ec-45ee-9bbd-681fdfc8da73","system_id":"levelo_inurba_marseille","lat":43.2396,"lon":5.36633,"is_reserved":false,"is_disabled":false,"rental_uris":{"android":"levelo://app?vid=86082c5a-74ec-45ee-9bbd-681fdfc8da73","ios":"levelo://app?vid=86082c5a-74ec-45ee-9bbd-681fdfc8da73"},"vehicle_type_id":"4","last_reported":1745683859,"current_range_meters":13600,"station_id":"ce4bhi12rcd13ifvqfp0","pricing_plan_id":"cebpf4jnsgd1na2vs0mg"},{"bike_id":"fd55c5c5-3f6d-4811-b1ce-ab141e3e6226","system_id":"levelo_inurba_marseille","lat":43.29866,"lon":5.39733,"is_reserved":false,"is_disabled":false,"rental_uris":{"android":"levelo://app?vid=fd55c5c5-3f6d-4811-b1ce-ab141e3e6226","ios":"levelo://app?vid=fd55c5c5-3f6d-4811-b1ce-ab141e3e6226"},"vehicle_type_id":"4","last_reported":1745683859,"current_range_meters":13600,"station_id":"ce4bh0h2rcd13ifvqd50","pricing_plan_id":"cebpf4jnsgd1na2vs0mg"},{"bike_id":"a54dae70-cd26-4d8c-ac7e-b8b9c2ac6784","system_id":"levelo_inurba_marseille","lat":43.31327,"lon":5.39696,"is_reserved":false,"is_disabled":false,"rental_uris":{"android":"levelo://app?vid=a54dae70-cd26-4d8c-ac7e-b8b9c2ac6784","ios":"levelo://app?vid=a54dae70-cd26-4d8c-ac7e-b8b9c2ac6784"},"vehicle_type_id":"4","last_reported":1745683859,"current_range_meters":13600,"station_id":"ce4bgvp2rcd13ifvqcu0","pricing_plan_id":"cebpf4jnsgd1na2vs0mg"},{"bike_id":"ad1dd68c-20a8-4cb1-ba41-f86fa7298de1","system_id":"levelo_inurba_marseille","lat":43.30802,"lon":5.43523,"is_reserved":false,"is_disabled":false,"rental_uris":{"android":"levelo://app?vid=ad1dd68c-20a8-4cb1-ba41-f86fa7298de1","ios":"levelo://app?vid=ad1dd68c-20a8-4cb1-ba41-f86fa7298de1"},"vehicle_type_id":"4","last_reported":1745683859,"current_range_meters":13600,"station_id":"ce4bhph2rcd13ifvqheg","pricing_plan_id":"cebpf4jnsgd1na2vs0mg"},{"bike_id":"d9352652-19a5-4f73-aceb-d026f05a1a04","system_id":"levelo_inurba_marseille","lat":43.24996,"lon":5.38931,"is_reserved":false,"is_disabled":false,"rental_uris":{"android":"levelo://app?vid=d9352652-19a5-4f73-aceb-d026f05a1a04","ios":"levelo://app?vid=d9352652-19a5-4f73-aceb-d026f05a1a04"},"vehicle_type_id":"4","last_reported":1745683859,"current_range_meters":13600,"station_id":"ce4bhgp2rcd13ifvqfd0","pricing_plan_id":"cebpf4jnsgd1na2vs0mg"},{"bike_id":"c8b8be55-c214-490b-8d00-4c46da8923ac","system_id":"levelo_inurba_marseille","lat":43.24188,"lon":5.36364,"is_reserved":false,"is_disabled":false,"rental_uris":{"android":"levelo://app?vid=c8b8be55-c214-490b-8d00-4c46da8923ac","ios":"levelo://app?vid=c8b8be55-c214-490b-8d00-4c46da8923ac"},"vehicle_type_id":"4","last_reported":1745683859,"current_range_meters":13600,"station_id":"cpo36qri1sfpv3e86is0","pricing_plan_id":"cebpf4jnsgd1na2vs0mg"},{"bike_id":"d5bf9be5-08b4-401b-8e22-378fd1952997","system_id":"levelo_inurba_marseille","lat":43.284576,"lon":5.358926,"is_reserved":false,"is_disabled":false,"rental_uris":{"android":"levelo://app?vid=d5bf9be5-08b4-401b-8e22-378fd1952997","ios":"levelo://app?vid=d5bf9be5-08b4-401b-8e22-378fd1952997"},"vehicle_type_id":"4","last_reported":1745683859,"current_range_meters":13600,"station_id":"ce4bhah2rcd13ifvqei0","pricing_plan_id":"cebpf4jnsgd1na2vs0mg"},{"bike_id":"0d5b95be-7e70-4c67-9306-d438bc130f1f","system_id":"levelo_inurba_marseille","lat":43.24167,"lon":5.36397,"is_reserved":false,"is_disabled":false,"rental_uris":{"android":"levelo://app?vid=0d5b95be-7e70-4c67-9306-d438bc130f1f","ios":"levelo://app?vid=0d5b95be-7e70-4c67-9306-d438bc130f1f"},"vehicle_type_id":"4","last_reported":1745683859,"current_range_meters":13600,"station_id":"cpo36qri1sfpv3e86is0","pricing_plan_id":"cebpf4jnsgd1na2vs0mg"},{"bike_id":"4046a82f-66e8-4b55-bd0a-356edea772d8","system_id":"levelo_inurba_marseille","lat":43.30904,"lon":5.3727,"is_reserved":false,"is_disabled":false,"rental_uris":{"android":"levelo://app?vid=4046a82f-66e8-4b55-bd0a-356edea772d8","ios":"levelo://app?vid=4046a82f-66e8-4b55-bd0a-356edea772d8"},"vehicle_type_id":"4","last_reported":1745683859,"current_range_meters":14000,"station_id":"","pricing_plan_id":"cebpf4jnsgd1na2vs0mg"},{"bike_id":"4100ae3b-6abe-4126-ab26-3bb5588f7220","system_id":"levelo_inurba_marseille","lat":43.298695,"lon":5.397355,"is_reserved":false,"is_disabled":false,"rental_uris":{"android":"levelo://app?vid=4100ae3b-6abe-4126-ab26-3bb5588f7220","ios":"levelo://app?vid=4100ae3b-6abe-4126-ab26-3bb5588f7220"},"vehicle_type_id":"4","last_reported":1745683859,"current_range_meters":14000,"station_id":"ce4bh092rcd13ifvqd20","pricing_plan_id":"cebpf4jnsgd1na2vs0mg"},{"bike_id":"76468507-af3a-47b8-af6c-3d08e509a87b","system_id":"levelo_inurba_marseille","lat":43.31328,"lon":5.39697,"is_reserved":false,"is_disabled":false,"rental_uris":{"android":"levelo://app?vid=76468507-af3a-47b8-af6c-3d08e509a87b","ios":"levelo://app?vid=76468507-af3a-47b8-af6c-3d08e509a87b"},"vehicle_type_id":"4","last_reported":1745683859,"current_range_meters":14000,"station_id":"ce4bgvp2rcd13ifvqcu0","pricing_plan_id":"cebpf4jnsgd1na2vs0mg"},{"bike_id":"f221d538-210f-4592-8777-5278f3cdfb7f","system_id":"levelo_inurba_marseille","lat":43.275567,"lon":5.384163,"is_reserved":false,"is_disabled":false,"rental_uris":{"android":"levelo://app?vid=f221d538-210f-4592-8777-5278f3cdfb7f","ios":"levelo://app?vid=f221d538-210f-4592-8777-5278f3cdfb7f"},"vehicle_type_id":"4","last_reported":1745683859,"current_range_meters":14000,"station_id":"ce4bhh92rcd13ifvqfi0","pricing_plan_id":"cebpf4jnsgd1na2vs0mg"},{"bike_id":"6efcb0d2-d14f-439e-92c3-ee128321ca63","system_id":"levelo_inurba_marseille","lat":43.31716,"lon":5.40504,"is_reserved":false,"is_disabled":false,"rental_uris":{"android":"levelo://app?vid=6efcb0d2-d14f-439e-92c3-ee128321ca63","ios":"levelo://app?vid=6efcb0d2-d14f-439e-92c3-ee128321ca63"},"vehicle_type_id":"4","last_reported":1745683859,"current_range_meters":14000,"station_id":"ce4bh012rcd13ifvqd00","pricing_plan_id":"cebpf4jnsgd1na2vs0mg"},{"bike_id":"c4e96563-dcb8-424a-b64d-f932836cdd83","system_id":"levelo_inurba_marseille","lat":43.3372,"lon":5.39195,"is_reserved":false,"is_disabled":false,"rental_uris":{"android":"levelo://app?vid=c4e96563-dcb8-424a-b64d-f932836cdd83","ios":"levelo://app?vid=c4e96563-dcb8-424a-b64d-f932836cdd83"},"vehicle_type_id":"4","last_reported":1745683859,"current_range_meters":13600,"station_id":"ce4bhr92rcd13ifvqhsg","pricing_plan_id":"cebpf4jnsgd1na2vs0mg"},{"bike_id":"ebefa51e-1421-4d6a-a3c3-2ab4727a2f0f","system_id":"levelo_inurba_marseille","lat":43.26555,"lon":5.3731,"is_reserved":false,"is_disabled":false,"rental_uris":{"android":"levelo://app?vid=ebefa51e-1421-4d6a-a3c3-2ab4727a2f0f","ios":"levelo://app?vid=ebefa51e-1421-4d6a-a3c3-2ab4727a2f0f"},"vehicle_type_id":"4","last_reported":1745683859,"current_range_meters":14400,"station_id":"ce4bhg12rcd13ifvqf70","pricing_plan_id":"cebpf4jnsgd1na2vs0mg"},{"bike_id":"147d0df9-00d4-47a8-9ce3-78251e397664","system_id":"levelo_inurba_marseille","lat":43.29228,"lon":5.3607,"is_reserved":false,"is_disabled":false,"rental_uris":{"android":"levelo://app?vid=147d0df9-00d4-47a8-9ce3-78251e397664","ios":"levelo://app?vid=147d0df9-00d4-47a8-9ce3-78251e397664"},"vehicle_type_id":"4","last_reported":1745683859,"current_range_meters":14400,"station_id":"ce4bhbh2rcd13ifvqeqg","pricing_plan_id":"cebpf4jnsgd1na2vs0mg"},{"bike_id":"2fac31c9-ecd4-4c07-9ea5-ab959ac9f813","system_id":"levelo_inurba_marseille","lat":43.24664,"lon":5.38174,"is_reserved":false,"is_disabled":true,"rental_uris":{"android":"levelo://app?vid=2fac31c9-ecd4-4c07-9ea5-ab959ac9f813","ios":"levelo://app?vid=2fac31c9-ecd4-4c07-9ea5-ab959ac9f813"},"vehicle_type_id":"4","last_reported":1745683859,"current_range_meters":14400,"station_id":"ce4bhih2rcd13ifvqfr0","pricing_plan_id":"cebpf4jnsgd1na2vs0mg"},{"bike_id":"3ee52dd6-ee76-4da1-bbf0-da3ef76cb155","system_id":"levelo_inurba_marseille","lat":43.34659,"lon":5.34733,"is_reserved":false,"is_disabled":false,"rental_uris":{"android":"levelo://app?vid=3ee52dd6-ee76-4da1-bbf0-da3ef76cb155","ios":"levelo://app?vid=3ee52dd6-ee76-4da1-bbf0-da3ef76cb155"},"vehicle_type_id":"4","last_reported":1745683859,"current_range_meters":14400,"station_id":"","pricing_plan_id":"cebpf4jnsgd1na2vs0mg"},{"bike_id":"9aedec09-9ed3-424b-8ed3-74d0985491c9","system_id":"levelo_inurba_marseille","lat":43.32458,"lon":5.36561,"is_reserved":false,"is_disabled":false,"rental_uris":{"android":"levelo://app?vid=9aedec09-9ed3-424b-8ed3-74d0985491c9","ios":"levelo://app?vid=9aedec09-9ed3-424b-8ed3-74d0985491c9"},"vehicle_type_id":"4","last_reported":1745683859,"current_range_meters":14400,"station_id":"ce4bhs12rcd13ifvqhvg","pricing_plan_id":"cebpf4jnsgd1na2vs0mg"},{"bike_id":"0bcb6482-9e4e-4c3b-9369-4fe0c558a6c3","system_id":"levelo_inurba_marseille","lat":43.2721,"lon":5.39184,"is_reserved":false,"is_disabled":false,"rental_uris":{"android":"levelo://app?vid=0bcb6482-9e4e-4c3b-9369-4fe0c558a6c3","ios":"levelo://app?vid=0bcb6482-9e4e-4c3b-9369-4fe0c558a6c3"},"vehicle_type_id":"4","last_reported":1745683859,"current_range_meters":14400,"station_id":"ce4bhhp2rcd13ifvqfm0","pricing_plan_id":"cebpf4jnsgd1na2vs0mg"},{"bike_id":"38ef6f81-094a-45e7-9f8d-d72853408e55","system_id":"levelo_inurba_marseille","lat":43.251065,"lon":5.403175,"is_reserved":false,"is_disabled":false,"rental_uris":{"android":"levelo://app?vid=38ef6f81-094a-45e7-9f8d-d72853408e55","ios":"levelo://app?vid=38ef6f81-094a-45e7-9f8d-d72853408e55"},"vehicle_type_id":"4","last_reported":1745683859,"current_range_meters":14800,"station_id":"ce4bhlh2rcd13ifvqgig","pricing_plan_id":"cebpf4jnsgd1na2vs0mg"},{"bike_id":"1b2f978b-cb6c-4a90-9a06-8aa14e222cb4","system_id":"levelo_inurba_marseille","lat":43.231823,"lon":5.399902,"is_reserved":false,"is_disabled":false,"rental_uris":{"android":"levelo://app?vid=1b2f978b-cb6c-4a90-9a06-8aa14e222cb4","ios":"levelo://app?vid=1b2f978b-cb6c-4a90-9a06-8aa14e222cb4"},"vehicle_type_id":"4","last_reported":1745683859,"current_range_meters":14800,"station_id":"ce4bho12rcd13ifvqh1g","pricing_plan_id":"cebpf4jnsgd1na2vs0mg"},{"bike_id":"64e6ebc6-a5fd-40ca-85ee-87b18ebec985","system_id":"levelo_inurba_marseille","lat":43.31357,"lon":5.38503,"is_reserved":false,"is_disabled":false,"rental_uris":{"android":"levelo://app?vid=64e6ebc6-a5fd-40ca-85ee-87b18ebec985","ios":"levelo://app?vid=64e6ebc6-a5fd-40ca-85ee-87b18ebec985"},"vehicle_type_id":"4","last_reported":1745683859,"current_range_meters":14800,"station_id":"ce4bgt92rcd13ifvqcf0","pricing_plan_id":"cebpf4jnsgd1na2vs0mg"},{"bike_id":"a0e56983-deca-4e5d-8c11-4c5120e4608a","system_id":"levelo_inurba_marseille","lat":43.29781,"lon":5.37104,"is_reserved":false,"is_disabled":false,"rental_uris":{"android":"levelo://app?vid=a0e56983-deca-4e5d-8c11-4c5120e4608a","ios":"levelo://app?vid=a0e56983-deca-4e5d-8c11-4c5120e4608a"},"vehicle_type_id":"4","last_reported":1745683859,"current_range_meters":14800,"station_id":"ce4bgop2rcd13ifvqc1g","pricing_plan_id":"cebpf4jnsgd1na2vs0mg"},{"bike_id":"6d85827c-440e-4101-bf4a-74801421310f","system_id":"levelo_inurba_marseille","lat":43.28076,"lon":5.39654,"is_reserved":false,"is_disabled":false,"rental_uris":{"android":"levelo://app?vid=6d85827c-440e-4101-bf4a-74801421310f","ios":"levelo://app?vid=6d85827c-440e-4101-bf4a-74801421310f"},"vehicle_type_id":"4","last_reported":1745683859,"current_range_meters":14800,"station_id":"ce4bho12rcd13ifvqh2g","pricing_plan_id":"cebpf4jnsgd1na2vs0mg"},{"bike_id":"20841584-a927-41d0-bfb7-431a86e0d048","system_id":"levelo_inurba_marseille","lat":43.32547,"lon":5.41418,"is_reserved":false,"is_disabled":false,"rental_uris":{"android":"levelo://app?vid=20841584-a927-41d0-bfb7-431a86e0d048","ios":"levelo://app?vid=20841584-a927-41d0-bfb7-431a86e0d048"},"vehicle_type_id":"4","last_reported":1745683859,"current_range_meters":15200,"station_id":"ce4bhq12rcd13ifvqhhg","pricing_plan_id":"cebpf4jnsgd1na2vs0mg"},{"bike_id":"328d57a3-2c92-4abd-b90f-99d968bc0df3","system_id":"levelo_inurba_marseille","lat":43.24808,"lon":5.37456,"is_reserved":false,"is_disabled":false,"rental_uris":{"android":"levelo://app?vid=328d57a3-2c92-4abd-b90f-99d968bc0df3","ios":"levelo://app?vid=328d57a3-2c92-4abd-b90f-99d968bc0df3"},"vehicle_type_id":"4","last_reported":1745683859,"current_range_meters":15200,"station_id":"ce4bhgh2rcd13ifvqfb0","pricing_plan_id":"cebpf4jnsgd1na2vs0mg"},{"bike_id":"3b51c086-46f9-4234-b9e3-570c51814793","system_id":"levelo_inurba_marseille","lat":43.24809,"lon":5.37455,"is_reserved":false,"is_disabled":false,"rental_uris":{"android":"levelo://app?vid=3b51c086-46f9-4234-b9e3-570c51814793","ios":"levelo://app?vid=3b51c086-46f9-4234-b9e3-570c51814793"},"vehicle_type_id":"4","last_reported":1745683859,"current_range_meters":15200,"station_id":"ce4bhgh2rcd13ifvqfb0","pricing_plan_id":"cebpf4jnsgd1na2vs0mg"},{"bike_id":"0053b840-de47-4900-98aa-cc8575176b05","system_id":"levelo_inurba_marseille","lat":43.24167,"lon":5.36416,"is_reserved":false,"is_disabled":true,"rental_uris":{"android":"levelo://app?vid=0053b840-de47-4900-98aa-cc8575176b05","ios":"levelo://app?vid=0053b840-de47-4900-98aa-cc8575176b05"},"vehicle_type_id":"4","last_reported":1745683859,"current_range_meters":16000,"station_id":"cpo36qri1sfpv3e86is0","pricing_plan_id":"cebpf4jnsgd1na2vs0mg"},{"bike_id":"356b76a1-af1a-4bef-951e-98e5b057a721","system_id":"levelo_inurba_marseille","lat":43.29254,"lon":5.38436,"is_reserved":false,"is_disabled":true,"rental_uris":{"android":"levelo://app?vid=356b76a1-af1a-4bef-951e-98e5b057a721","ios":"levelo://app?vid=356b76a1-af1a-4bef-951e-98e5b057a721"},"vehicle_type_id":"4","last_reported":1745683859,"current_range_meters":16000,"station_id":"ce4bh692rcd13ifvqea0","pricing_plan_id":"cebpf4jnsgd1na2vs0mg"},{"bike_id":"e95a1ffa-722d-4dcd-a1cf-0aa7aaabc7c4","system_id":"levelo_inurba_marseille","lat":43.299466,"lon":5.3801,"is_reserved":false,"is_disabled":false,"rental_uris":{"android":"levelo://app?vid=e95a1ffa-722d-4dcd-a1cf-0aa7aaabc7c4","ios":"levelo://app?vid=e95a1ffa-722d-4dcd-a1cf-0aa7aaabc7c4"},"vehicle_type_id":"4","last_reported":1745683859,"current_range_meters":16000,"station_id":"","pricing_plan_id":"cebpf4jnsgd1na2vs0mg"},{"bike_id":"38a5787a-3504-47ba-8cd1-5eec7c840ad4","system_id":"levelo_inurba_marseille","lat":43.30949,"lon":5.39048,"is_reserved":false,"is_disabled":false,"rental_uris":{"android":"levelo://app?vid=38a5787a-3504-47ba-8cd1-5eec7c840ad4","ios":"levelo://app?vid=38a5787a-3504-47ba-8cd1-5eec7c840ad4"},"vehicle_type_id":"4","last_reported":1745683859,"current_range_meters":16000,"station_id":"ce4bgup2rcd13ifvqco0","pricing_plan_id":"cebpf4jnsgd1na2vs0mg"},{"bike_id":"1ea9d8dd-d245-4ac6-93f0-3699c832c5f7","system_id":"levelo_inurba_marseille","lat":43.2707,"lon":5.40252,"is_reserved":false,"is_disabled":false,"rental_uris":{"android":"levelo://app?vid=1ea9d8dd-d245-4ac6-93f0-3699c832c5f7","ios":"levelo://app?vid=1ea9d8dd-d245-4ac6-93f0-3699c832c5f7"},"vehicle_type_id":"4","last_reported":1745683859,"current_range_meters":16400,"station_id":"ce4bhk92rcd13ifvqgc0","pricing_plan_id":"cebpf4jnsgd1na2vs0mg"},{"bike_id":"ba1cc44a-9604-4a98-9e36-399df6ba3509","system_id":"levelo_inurba_marseille","lat":43.28301,"lon":5.350546,"is_reserved":false,"is_disabled":false,"rental_uris":{"android":"levelo://app?vid=ba1cc44a-9604-4a98-9e36-399df6ba3509","ios":"levelo://app?vid=ba1cc44a-9604-4a98-9e36-399df6ba3509"},"vehicle_type_id":"4","last_reported":1745683859,"current_range_meters":16400,"station_id":"ce4bhbp2rcd13ifvqerg","pricing_plan_id":"cebpf4jnsgd1na2vs0mg"},{"bike_id":"af4a97e0-dded-4da0-9eba-7bcd01c44383","system_id":"levelo_inurba_marseille","lat":43.30303,"lon":5.39215,"is_reserved":false,"is_disabled":true,"rental_uris":{"android":"levelo://app?vid=af4a97e0-dded-4da0-9eba-7bcd01c44383","ios":"levelo://app?vid=af4a97e0-dded-4da0-9eba-7bcd01c44383"},"vehicle_type_id":"4","last_reported":1745683859,"current_range_meters":16400,"station_id":"ce4bgkh2rcd13ifvqbk0","pricing_plan_id":"cebpf4jnsgd1na2vs0mg"},{"bike_id":"bec4dc04-cbdf-49c8-bb54-8aadba959c00","system_id":"levelo_inurba_marseille","lat":43.28487,"lon":5.38414,"is_reserved":false,"is_disabled":false,"rental_uris":{"android":"levelo://app?vid=bec4dc04-cbdf-49c8-bb54-8aadba959c00","ios":"levelo://app?vid=bec4dc04-cbdf-49c8-bb54-8aadba959c00"},"vehicle_type_id":"4","last_reported":1745683859,"current_range_meters":16400,"station_id":"ce4bh512rcd13ifvqe3g","pricing_plan_id":"cebpf4jnsgd1na2vs0mg"},{"bike_id":"91474842-32bf-45c2-856a-80fd91d22aa5","system_id":"levelo_inurba_marseille","lat":43.21193,"lon":5.35077,"is_reserved":false,"is_disabled":false,"rental_uris":{"android":"levelo://app?vid=91474842-32bf-45c2-856a-80fd91d22aa5","ios":"levelo://app?vid=91474842-32bf-45c2-856a-80fd91d22aa5"},"vehicle_type_id":"4","last_reported":1745683859,"current_range_meters":16400,"station_id":"st_cvj6sg6p6f1abm77japg","pricing_plan_id":"cebpf4jnsgd1na2vs0mg"},{"bike_id":"0d6fb1cb-594d-4641-bdca-4d9f193b189f","system_id":"levelo_inurba_marseille","lat":43.27201,"lon":5.391796,"is_reserved":false,"is_disabled":false,"rental_uris":{"android":"levelo://app?vid=0d6fb1cb-594d-4641-bdca-4d9f193b189f","ios":"levelo://app?vid=0d6fb1cb-594d-4641-bdca-4d9f193b189f"},"vehicle_type_id":"4","last_reported":1745683859,"current_range_meters":16800,"station_id":"ce4bhhp2rcd13ifvqfm0","pricing_plan_id":"cebpf4jnsgd1na2vs0mg"},{"bike_id":"738753a0-ce79-4642-a5f6-2c11702b3e9b","system_id":"levelo_inurba_marseille","lat":43.28455,"lon":5.35898,"is_reserved":false,"is_disabled":false,"rental_uris":{"android":"levelo://app?vid=738753a0-ce79-4642-a5f6-2c11702b3e9b","ios":"levelo://app?vid=738753a0-ce79-4642-a5f6-2c11702b3e9b"},"vehicle_type_id":"4","last_reported":1745683859,"current_range_meters":16800,"station_id":"ce4bhah2rcd13ifvqei0","pricing_plan_id":"cebpf4jnsgd1na2vs0mg"},{"bike_id":"be1c3b48-c701-4345-a096-f8211e1c8fd3","system_id":"levelo_inurba_marseille","lat":43.28498,"lon":5.36894,"is_reserved":false,"is_disabled":false,"rental_uris":{"android":"levelo://app?vid=be1c3b48-c701-4345-a096-f8211e1c8fd3","ios":"levelo://app?vid=be1c3b48-c701-4345-a096-f8211e1c8fd3"},"vehicle_type_id":"4","last_reported":1745683859,"current_range_meters":16800,"station_id":"","pricing_plan_id":"cebpf4jnsgd1na2vs0mg"},{"bike_id":"9de9d996-1620-4858-b125-d2c76650648e","system_id":"levelo_inurba_marseille","lat":43.26079,"lon":5.37529,"is_reserved":false,"is_disabled":false,"rental_uris":{"android":"levelo://app?vid=9de9d996-1620-4858-b125-d2c76650648e","ios":"levelo://app?vid=9de9d996-1620-4858-b125-d2c76650648e"},"vehicle_type_id":"4","last_reported":1745683859,"current_range_meters":16800,"station_id":"","pricing_plan_id":"cebpf4jnsgd1na2vs0mg"},{"bike_id":"314a7709-793a-4cd8-a4f0-aa8320fcf0cb","system_id":"levelo_inurba_marseille","lat":43.27496,"lon":5.42511,"is_reserved":false,"is_disabled":false,"rental_uris":{"android":"levelo://app?vid=314a7709-793a-4cd8-a4f0-aa8320fcf0cb","ios":"levelo://app?vid=314a7709-793a-4cd8-a4f0-aa8320fcf0cb"},"vehicle_type_id":"4","last_reported":1745683859,"current_range_meters":16800,"station_id":"ce4bhn92rcd13ifvqgrg","pricing_plan_id":"cebpf4jnsgd1na2vs0mg"},{"bike_id":"9cc673da-047f-4ac2-9fb2-2f13b5c092d3","system_id":"levelo_inurba_marseille","lat":43.30795,"lon":5.37651,"is_reserved":false,"is_disabled":false,"rental_uris":{"android":"levelo://app?vid=9cc673da-047f-4ac2-9fb2-2f13b5c092d3","ios":"levelo://app?vid=9cc673da-047f-4ac2-9fb2-2f13b5c092d3"},"vehicle_type_id":"4","last_reported":1745683859,"current_range_meters":16800,"station_id":"ce4bgv92rcd13ifvqcq0","pricing_plan_id":"cebpf4jnsgd1na2vs0mg"},{"bike_id":"f7bff99a-0389-4725-b2df-90b636f05d25","system_id":"levelo_inurba_marseille","lat":43.30948,"lon":5.39044,"is_reserved":false,"is_disabled":false,"rental_uris":{"android":"levelo://app?vid=f7bff99a-0389-4725-b2df-90b636f05d25","ios":"levelo://app?vid=f7bff99a-0389-4725-b2df-90b636f05d25"},"vehicle_type_id":"4","last_reported":1745683859,"current_range_meters":16800,"station_id":"ce4bgup2rcd13ifvqco0","pricing_plan_id":"cebpf4jnsgd1na2vs0mg"},{"bike_id":"f2516864-62fc-45ef-8bec-15f94d157549","system_id":"levelo_inurba_marseille","lat":43.30796,"lon":5.37656,"is_reserved":false,"is_disabled":false,"rental_uris":{"android":"levelo://app?vid=f2516864-62fc-45ef-8bec-15f94d157549","ios":"levelo://app?vid=f2516864-62fc-45ef-8bec-15f94d157549"},"vehicle_type_id":"4","last_reported":1745683859,"current_range_meters":16800,"station_id":"ce4bgv92rcd13ifvqcq0","pricing_plan_id":"cebpf4jnsgd1na2vs0mg"},{"bike_id":"5cd6f791-97a4-4502-9585-a47c45db3579","system_id":"levelo_inurba_marseille","lat":43.28463,"lon":5.35887,"is_reserved":false,"is_disabled":false,"rental_uris":{"android":"levelo://app?vid=5cd6f791-97a4-4502-9585-a47c45db3579","ios":"levelo://app?vid=5cd6f791-97a4-4502-9585-a47c45db3579"},"vehicle_type_id":"4","last_reported":1745683859,"current_range_meters":16800,"station_id":"ce4bhah2rcd13ifvqei0","pricing_plan_id":"cebpf4jnsgd1na2vs0mg"},{"bike_id":"69aad4f6-da57-426a-a397-57740a78a051","system_id":"levelo_inurba_marseille","lat":43.24996,"lon":5.38931,"is_reserved":false,"is_disabled":false,"rental_uris":{"android":"levelo://app?vid=69aad4f6-da57-426a-a397-57740a78a051","ios":"levelo://app?vid=69aad4f6-da57-426a-a397-57740a78a051"},"vehicle_type_id":"4","last_reported":1745683859,"current_range_meters":16400,"station_id":"ce4bhgp2rcd13ifvqfd0","pricing_plan_id":"cebpf4jnsgd1na2vs0mg"},{"bike_id":"4448816f-ffea-4832-8b71-368b268b176e","system_id":"levelo_inurba_marseille","lat":43.2992,"lon":5.37475,"is_reserved":false,"is_disabled":false,"rental_uris":{"android":"levelo://app?vid=4448816f-ffea-4832-8b71-368b268b176e","ios":"levelo://app?vid=4448816f-ffea-4832-8b71-368b268b176e"},"vehicle_type_id":"4","last_reported":1745683859,"current_range_meters":16800,"station_id":"ce4bgjh2rcd13ifvqbg0","pricing_plan_id":"cebpf4jnsgd1na2vs0mg"},{"bike_id":"f0ec75ae-0f86-4b91-bb43-c5ec26c3498c","system_id":"levelo_inurba_marseille","lat":43.29865,"lon":5.39751,"is_reserved":false,"is_disabled":false,"rental_uris":{"android":"levelo://app?vid=f0ec75ae-0f86-4b91-bb43-c5ec26c3498c","ios":"levelo://app?vid=f0ec75ae-0f86-4b91-bb43-c5ec26c3498c"},"vehicle_type_id":"4","last_reported":1745683859,"current_range_meters":17200,"station_id":"ce4bh0h2rcd13ifvqd50","pricing_plan_id":"cebpf4jnsgd1na2vs0mg"},{"bike_id":"675ba7cc-442a-4057-825b-9253b75ff62f","system_id":"levelo_inurba_marseille","lat":43.30951,"lon":5.3904,"is_reserved":false,"is_disabled":false,"rental_uris":{"android":"levelo://app?vid=675ba7cc-442a-4057-825b-9253b75ff62f","ios":"levelo://app?vid=675ba7cc-442a-4057-825b-9253b75ff62f"},"vehicle_type_id":"4","last_reported":1745683859,"current_range_meters":17200,"station_id":"ce4bgup2rcd13ifvqco0","pricing_plan_id":"cebpf4jnsgd1na2vs0mg"},{"bike_id":"2d4f1593-44ab-4f1b-adec-c0060b6e82ea","system_id":"levelo_inurba_marseille","lat":43.298035,"lon":5.380992,"is_reserved":false,"is_disabled":false,"rental_uris":{"android":"levelo://app?vid=2d4f1593-44ab-4f1b-adec-c0060b6e82ea","ios":"levelo://app?vid=2d4f1593-44ab-4f1b-adec-c0060b6e82ea"},"vehicle_type_id":"4","last_reported":1745683859,"current_range_meters":17200,"station_id":"ce4bgip2rcd13ifvqbb0","pricing_plan_id":"cebpf4jnsgd1na2vs0mg"},{"bike_id":"a08e6535-7d97-4f82-b424-5e6daf2d2362","system_id":"levelo_inurba_marseille","lat":43.29524,"lon":5.39424,"is_reserved":false,"is_disabled":true,"rental_uris":{"android":"levelo://app?vid=a08e6535-7d97-4f82-b424-5e6daf2d2362","ios":"levelo://app?vid=a08e6535-7d97-4f82-b424-5e6daf2d2362"},"vehicle_type_id":"4","last_reported":1745683859,"current_range_meters":17200,"station_id":"ce4bh292rcd13ifvqdf0","pricing_plan_id":"cebpf4jnsgd1na2vs0mg"},{"bike_id":"afd33670-82f7-4c5c-9029-2dc1c34e85e4","system_id":"levelo_inurba_marseille","lat":43.28754,"lon":5.39688,"is_reserved":false,"is_disabled":false,"rental_uris":{"android":"levelo://app?vid=afd33670-82f7-4c5c-9029-2dc1c34e85e4","ios":"levelo://app?vid=afd33670-82f7-4c5c-9029-2dc1c34e85e4"},"vehicle_type_id":"4","last_reported":1745683859,"current_range_meters":17200,"station_id":"","pricing_plan_id":"cebpf4jnsgd1na2vs0mg"},{"bike_id":"560f12bb-1614-4d7c-b78e-ccf5bdec9ea6","system_id":"levelo_inurba_marseille","lat":43.28455,"lon":5.359,"is_reserved":false,"is_disabled":true,"rental_uris":{"android":"levelo://app?vid=560f12bb-1614-4d7c-b78e-ccf5bdec9ea6","ios":"levelo://app?vid=560f12bb-1614-4d7c-b78e-ccf5bdec9ea6"},"vehicle_type_id":"4","last_reported":1745683859,"current_range_meters":17200,"station_id":"ce4bhah2rcd13ifvqei0","pricing_plan_id":"cebpf4jnsgd1na2vs0mg"},{"bike_id":"4341c192-b2fe-4bcc-8fb9-e7ad571308c6","system_id":"levelo_inurba_marseille","lat":43.28482,"lon":5.38408,"is_reserved":false,"is_disabled":false,"rental_uris":{"android":"levelo://app?vid=4341c192-b2fe-4bcc-8fb9-e7ad571308c6","ios":"levelo://app?vid=4341c192-b2fe-4bcc-8fb9-e7ad571308c6"},"vehicle_type_id":"4","last_reported":1745683859,"current_range_meters":17600,"station_id":"ce4bh512rcd13ifvqe3g","pricing_plan_id":"cebpf4jnsgd1na2vs0mg"},{"bike_id":"8926b40b-da36-42e3-9ef7-57905c75ab54","system_id":"levelo_inurba_marseille","lat":43.3032,"lon":5.40437,"is_reserved":false,"is_disabled":false,"rental_uris":{"android":"levelo://app?vid=8926b40b-da36-42e3-9ef7-57905c75ab54","ios":"levelo://app?vid=8926b40b-da36-42e3-9ef7-57905c75ab54"},"vehicle_type_id":"4","last_reported":1745683859,"current_range_meters":17600,"station_id":"ce4bh012rcd13ifvqd10","pricing_plan_id":"cebpf4jnsgd1na2vs0mg"},{"bike_id":"2f14c8aa-1e5f-4cba-96da-aa390ad66c63","system_id":"levelo_inurba_marseille","lat":43.28666,"lon":5.36356,"is_reserved":false,"is_disabled":false,"rental_uris":{"android":"levelo://app?vid=2f14c8aa-1e5f-4cba-96da-aa390ad66c63","ios":"levelo://app?vid=2f14c8aa-1e5f-4cba-96da-aa390ad66c63"},"vehicle_type_id":"4","last_reported":1745683859,"current_range_meters":17600,"station_id":"ce4bhah2rcd13ifvqej0","pricing_plan_id":"cebpf4jnsgd1na2vs0mg"},{"bike_id":"c14c2faf-b017-45e8-9961-38b6bbd9a8fc","system_id":"levelo_inurba_marseille","lat":43.27834,"lon":5.39206,"is_reserved":false,"is_disabled":false,"rental_uris":{"android":"levelo://app?vid=c14c2faf-b017-45e8-9961-38b6bbd9a8fc","ios":"levelo://app?vid=c14c2faf-b017-45e8-9961-38b6bbd9a8fc"},"vehicle_type_id":"4","last_reported":1745683859,"current_range_meters":17600,"station_id":"ce4bhjp2rcd13ifvqga0","pricing_plan_id":"cebpf4jnsgd1na2vs0mg"},{"bike_id":"52c8d56b-b4d4-48da-83e5-fc8328fc61a7","system_id":"levelo_inurba_marseille","lat":43.293096,"lon":5.378332,"is_reserved":false,"is_disabled":false,"rental_uris":{"android":"levelo://app?vid=52c8d56b-b4d4-48da-83e5-fc8328fc61a7","ios":"levelo://app?vid=52c8d56b-b4d4-48da-83e5-fc8328fc61a7"},"vehicle_type_id":"4","last_reported":1745683859,"current_range_meters":19600,"station_id":"ce4bgjp2rcd13ifvqbh0","pricing_plan_id":"cebpf4jnsgd1na2vs0mg"},{"bike_id":"fb6a289c-e109-4a9f-9fee-f527be63e744","system_id":"levelo_inurba_marseille","lat":43.25114,"lon":5.39427,"is_reserved":false,"is_disabled":false,"rental_uris":{"android":"levelo://app?vid=fb6a289c-e109-4a9f-9fee-f527be63e744","ios":"levelo://app?vid=fb6a289c-e109-4a9f-9fee-f527be63e744"},"vehicle_type_id":"4","last_reported":1745683859,"current_range_meters":18000,"station_id":"ce4bhm12rcd13ifvqgkg","pricing_plan_id":"cebpf4jnsgd1na2vs0mg"},{"bike_id":"7dc21397-f6a9-40c9-a1a7-f7afa1d4ce1b","system_id":"levelo_inurba_marseille","lat":43.289502,"lon":5.357195,"is_reserved":false,"is_disabled":false,"rental_uris":{"android":"levelo://app?vid=7dc21397-f6a9-40c9-a1a7-f7afa1d4ce1b","ios":"levelo://app?vid=7dc21397-f6a9-40c9-a1a7-f7afa1d4ce1b"},"vehicle_type_id":"4","last_reported":1745683859,"current_range_meters":18000,"station_id":"ce4bh5p2rcd13ifvqe4g","pricing_plan_id":"cebpf4jnsgd1na2vs0mg"},{"bike_id":"604febad-dd33-4a75-a40f-45d4ec176334","system_id":"levelo_inurba_marseille","lat":43.31328,"lon":5.39691,"is_reserved":false,"is_disabled":false,"rental_uris":{"android":"levelo://app?vid=604febad-dd33-4a75-a40f-45d4ec176334","ios":"levelo://app?vid=604febad-dd33-4a75-a40f-45d4ec176334"},"vehicle_type_id":"4","last_reported":1745683859,"current_range_meters":18000,"station_id":"ce4bgvp2rcd13ifvqcu0","pricing_plan_id":"cebpf4jnsgd1na2vs0mg"},{"bike_id":"9400eaf0-9994-4b35-85ce-22818c9143cc","system_id":"levelo_inurba_marseille","lat":43.24158,"lon":5.36425,"is_reserved":false,"is_disabled":false,"rental_uris":{"android":"levelo://app?vid=9400eaf0-9994-4b35-85ce-22818c9143cc","ios":"levelo://app?vid=9400eaf0-9994-4b35-85ce-22818c9143cc"},"vehicle_type_id":"4","last_reported":1745683859,"current_range_meters":18000,"station_id":"cpo36qri1sfpv3e86is0","pricing_plan_id":"cebpf4jnsgd1na2vs0mg"},{"bike_id":"9e5b0634-81a6-41b7-b79b-8d7b1f5d244c","system_id":"levelo_inurba_marseille","lat":43.28856,"lon":5.35844,"is_reserved":false,"is_disabled":false,"rental_uris":{"android":"levelo://app?vid=9e5b0634-81a6-41b7-b79b-8d7b1f5d244c","ios":"levelo://app?vid=9e5b0634-81a6-41b7-b79b-8d7b1f5d244c"},"vehicle_type_id":"4","last_reported":1745683859,"current_range_meters":18000,"station_id":"ce4bhb12rcd13ifvqem0","pricing_plan_id":"cebpf4jnsgd1na2vs0mg"},{"bike_id":"7bd87b63-c3e8-4ae9-be84-a200fbdcbf25","system_id":"levelo_inurba_marseille","lat":43.248121,"lon":5.374584,"is_reserved":false,"is_disabled":false,"rental_uris":{"android":"levelo://app?vid=7bd87b63-c3e8-4ae9-be84-a200fbdcbf25","ios":"levelo://app?vid=7bd87b63-c3e8-4ae9-be84-a200fbdcbf25"},"vehicle_type_id":"4","last_reported":1745683859,"current_range_meters":18000,"station_id":"ce4bhgh2rcd13ifvqfb0","pricing_plan_id":"cebpf4jnsgd1na2vs0mg"},{"bike_id":"eeb3042e-b2a6-4b3e-9e8c-d89ee3bbae8a","system_id":"levelo_inurba_marseille","lat":43.32356,"lon":5.36756,"is_reserved":false,"is_disabled":false,"rental_uris":{"android":"levelo://app?vid=eeb3042e-b2a6-4b3e-9e8c-d89ee3bbae8a","ios":"levelo://app?vid=eeb3042e-b2a6-4b3e-9e8c-d89ee3bbae8a"},"vehicle_type_id":"4","last_reported":1745683859,"current_range_meters":18000,"station_id":"ce4bhsh2rcd13ifvqi2g","pricing_plan_id":"cebpf4jnsgd1na2vs0mg"},{"bike_id":"fffc381b-e069-4399-a718-b0b3b7a02c22","system_id":"levelo_inurba_marseille","lat":43.26805,"lon":5.40269,"is_reserved":false,"is_disabled":false,"rental_uris":{"android":"levelo://app?vid=fffc381b-e069-4399-a718-b0b3b7a02c22","ios":"levelo://app?vid=fffc381b-e069-4399-a718-b0b3b7a02c22"},"vehicle_type_id":"4","last_reported":1745683859,"current_range_meters":18800,"station_id":"ce501612rcd8frsf0b60","pricing_plan_id":"cebpf4jnsgd1na2vs0mg"},{"bike_id":"372e2dcd-792d-49ac-8037-710f04ac4152","system_id":"levelo_inurba_marseille","lat":43.293628,"lon":5.378309,"is_reserved":false,"is_disabled":false,"rental_uris":{"android":"levelo://app?vid=372e2dcd-792d-49ac-8037-710f04ac4152","ios":"levelo://app?vid=372e2dcd-792d-49ac-8037-710f04ac4152"},"vehicle_type_id":"4","last_reported":1745683859,"current_range_meters":18800,"station_id":"ce4bhap2rcd13ifvqek0","pricing_plan_id":"cebpf4jnsgd1na2vs0mg"},{"bike_id":"c2afd97f-df2b-4bbd-a07b-2b7b9d12cbfb","system_id":"levelo_inurba_marseille","lat":43.29465,"lon":5.39509,"is_reserved":false,"is_disabled":false,"rental_uris":{"android":"levelo://app?vid=c2afd97f-df2b-4bbd-a07b-2b7b9d12cbfb","ios":"levelo://app?vid=c2afd97f-df2b-4bbd-a07b-2b7b9d12cbfb"},"vehicle_type_id":"4","last_reported":1745683859,"current_range_meters":18800,"station_id":"","pricing_plan_id":"cebpf4jnsgd1na2vs0mg"},{"bike_id":"d470559f-086f-4e9f-8dd6-36bbf83abb55","system_id":"levelo_inurba_marseille","lat":43.29579,"lon":5.39956,"is_reserved":false,"is_disabled":false,"rental_uris":{"android":"levelo://app?vid=d470559f-086f-4e9f-8dd6-36bbf83abb55","ios":"levelo://app?vid=d470559f-086f-4e9f-8dd6-36bbf83abb55"},"vehicle_type_id":"4","last_reported":1745683859,"current_range_meters":18800,"station_id":"ce4bh312rcd13ifvqdj0","pricing_plan_id":"cebpf4jnsgd1na2vs0mg"},{"bike_id":"d50e3f6c-646d-4b8e-b2aa-8c277d54595f","system_id":"levelo_inurba_marseille","lat":43.24391,"lon":5.37055,"is_reserved":false,"is_disabled":false,"rental_uris":{"android":"levelo://app?vid=d50e3f6c-646d-4b8e-b2aa-8c277d54595f","ios":"levelo://app?vid=d50e3f6c-646d-4b8e-b2aa-8c277d54595f"},"vehicle_type_id":"4","last_reported":1745683859,"current_range_meters":18800,"station_id":"ce4bhhh2rcd13ifvqfk0","pricing_plan_id":"cebpf4jnsgd1na2vs0mg"},{"bike_id":"57ebd52c-bbc8-4a4d-8d80-2da8f6250dbd","system_id":"levelo_inurba_marseille","lat":43.27825,"lon":5.40714,"is_reserved":false,"is_disabled":true,"rental_uris":{"android":"levelo://app?vid=57ebd52c-bbc8-4a4d-8d80-2da8f6250dbd","ios":"levelo://app?vid=57ebd52c-bbc8-4a4d-8d80-2da8f6250dbd"},"vehicle_type_id":"4","last_reported":1745683859,"current_range_meters":18800,"station_id":"ce4bhnh2rcd13ifvqgtg","pricing_plan_id":"cebpf4jnsgd1na2vs0mg"},{"bike_id":"6e7ccd61-c356-45e8-9084-c2149122b5d5","system_id":"levelo_inurba_marseille","lat":43.28157,"lon":5.42645,"is_reserved":false,"is_disabled":false,"rental_uris":{"android":"levelo://app?vid=6e7ccd61-c356-45e8-9084-c2149122b5d5","ios":"levelo://app?vid=6e7ccd61-c356-45e8-9084-c2149122b5d5"},"vehicle_type_id":"4","last_reported":1745683859,"current_range_meters":18800,"station_id":"ce4bhnh2rcd13ifvqgug","pricing_plan_id":"cebpf4jnsgd1na2vs0mg"},{"bike_id":"5f008605-0660-4905-8b07-a6af7cac1cba","system_id":"levelo_inurba_marseille","lat":43.24665,"lon":5.3887,"is_reserved":false,"is_disabled":false,"rental_uris":{"android":"levelo://app?vid=5f008605-0660-4905-8b07-a6af7cac1cba","ios":"levelo://app?vid=5f008605-0660-4905-8b07-a6af7cac1cba"},"vehicle_type_id":"4","last_reported":1745683859,"current_range_meters":18800,"station_id":"ce4bhg12rcd13ifvqf60","pricing_plan_id":"cebpf4jnsgd1na2vs0mg"},{"bike_id":"66796f36-a346-4874-89d8-a1ee630af0b6","system_id":"levelo_inurba_marseille","lat":43.30432,"lon":5.39744,"is_reserved":false,"is_disabled":false,"rental_uris":{"android":"levelo://app?vid=66796f36-a346-4874-89d8-a1ee630af0b6","ios":"levelo://app?vid=66796f36-a346-4874-89d8-a1ee630af0b6"},"vehicle_type_id":"4","last_reported":1745683859,"current_range_meters":18800,"station_id":"ce4bh092rcd13ifvqd20","pricing_plan_id":"cebpf4jnsgd1na2vs0mg"},{"bike_id":"0d777af5-4166-475a-a6b9-6a0197032592","system_id":"levelo_inurba_marseille","lat":43.23257,"lon":5.35218,"is_reserved":false,"is_disabled":false,"rental_uris":{"android":"levelo://app?vid=0d777af5-4166-475a-a6b9-6a0197032592","ios":"levelo://app?vid=0d777af5-4166-475a-a6b9-6a0197032592"},"vehicle_type_id":"4","last_reported":1745683859,"current_range_meters":19200,"station_id":"","pricing_plan_id":"cebpf4jnsgd1na2vs0mg"},{"bike_id":"ac4c4173-35f2-480f-a156-1e96630b45e8","system_id":"levelo_inurba_marseille","lat":43.24068,"lon":5.37731,"is_reserved":false,"is_disabled":false,"rental_uris":{"android":"levelo://app?vid=ac4c4173-35f2-480f-a156-1e96630b45e8","ios":"levelo://app?vid=ac4c4173-35f2-480f-a156-1e96630b45e8"},"vehicle_type_id":"4","last_reported":1745683859,"current_range_meters":19200,"station_id":"ce4bhnp2rcd13ifvqgvg","pricing_plan_id":"cebpf4jnsgd1na2vs0mg"},{"bike_id":"373e6bd1-62d7-49f2-9e6f-637a751f5092","system_id":"levelo_inurba_marseille","lat":43.28404,"lon":5.37532,"is_reserved":false,"is_disabled":false,"rental_uris":{"android":"levelo://app?vid=373e6bd1-62d7-49f2-9e6f-637a751f5092","ios":"levelo://app?vid=373e6bd1-62d7-49f2-9e6f-637a751f5092"},"vehicle_type_id":"4","last_reported":1745683859,"current_range_meters":19200,"station_id":"ce4bh412rcd13ifvqds0","pricing_plan_id":"cebpf4jnsgd1na2vs0mg"},{"bike_id":"2fd0b9be-8756-4eb8-8874-8f4caf4d1554","system_id":"levelo_inurba_marseille","lat":43.30467,"lon":5.37917,"is_reserved":false,"is_disabled":false,"rental_uris":{"android":"levelo://app?vid=2fd0b9be-8756-4eb8-8874-8f4caf4d1554","ios":"levelo://app?vid=2fd0b9be-8756-4eb8-8874-8f4caf4d1554"},