{"last_updated":1702235077,"ttl":30,"version":"2.2","data":{"bikes":[{"bike_id":"77a6c46d-d898-4e4f-8846-efa91689c7f0","system_id":"levelo_inurba_marseille","lat":43.30628,"lon":5.366,"is_reserved":false,"is_disabled":false,"rental_uris":{"android":"levelo://app?vid=77a6c46d-d898-4e4f-8846-efa91689c7f0","ios":"levelo://app?vid=77a6c46d-d898-4e4f-8846-efa91689c7f0"},"vehicle_type_id":"4","last_reported":1702235077,"current_range_meters":0,"station_id":"","pricing_plan_id":"free"},{"bike_id":"ac0874d1-33d0-4519-af53-e190c98986eb","system_id":"levelo_inurba_marseille","lat":43.305989,"lon":5.37225,"is_reserved":false,"is_disabled":false,"rental_uris":{"android":"levelo://app?vid=ac0874d1-33d0-4519-af53-e190c98986eb","ios":"levelo://app?vid=ac0874d1-33d0-4519-af53-e190c98986eb"},"vehicle_type_id":"4","last_reported":1702235077,"current_range_meters":5600,"station_id":"ce4bgqh2rcd13ifvqc4g","pricing_plan_id":"free"},{"bike_id":"7db68dee-241b-438e-a1de-233eaebda898","system_id":"levelo_inurba_marseille","lat":43.311125,"lon":5.377624,"is_reserved":false,"is_disabled":false,"rental_uris":{"android":"levelo://app?vid=7db68dee-241b-438e-a1de-233eaebda898","ios":"levelo://app?vid=7db68dee-241b-438e-a1de-233eaebda898"},"vehicle_type_id":"4","last_reported":1702235077,"current_range_meters":21600,"station_id":"ce4bgt92rcd13ifvqcg0","pricing_plan_id":"free"},{"bike_id":"2330bda6-7ff6-47a9-bfa2-86d106547740","system_id":"levelo_inurba_marseille","lat":43.31128,"lon":5.377633,"is_reserved":false,"is_disabled":false,"rental_uris":{"android":"levelo://app?vid=2330bda6-7ff6-47a9-bfa2-86d106547740","ios":"levelo://app?vid=2330bda6-7ff6-47a9-bfa2-86d106547740"},"vehicle_type_id":"4","last_reported":1702235077,"current_range_meters":0,"station_id":"ce4bgt92rcd13ifvqcg0","pricing_plan_id":"free"},{"bike_id":"98c7773a-ac33-4088-a3f6-5333d9eb3e1a","system_id":"levelo_inurba_marseille","lat":43.317075,"lon":5.377367,"is_reserved":false,"is_disabled":false,"rental_uris":{"android":"levelo://app?vid=98c7773a-ac33-4088-a3f6-5333d9eb3e1a","ios":"levelo://app?vid=98c7773a-ac33-4088-a3f6-5333d9eb3e1a"},"vehicle_type_id":"4","last_reported":1702235077,"current_range_meters":30400,"station_id":"ce4bgth2rcd13ifvqch0","pricing_plan_id":"free"},{"bike_id":"a1e90a08-2dae-4577-818d-7f4cf81ae672","system_id":"levelo_inurba_marseille","lat":43.301939,"lon":5.366286,"is_reserved":false,"is_disabled":false,"rental_uris":{"android":"levelo://app?vid=a1e90a08-2dae-4577-818d-7f4cf81ae672","ios":"levelo://app?vid=a1e90a08-2dae-4577-818d-7f4cf81ae672"},"vehicle_type_id":"4","last_reported":1702235077,"current_range_meters":6800,"station_id":"ce4bgrh2rcd13ifvqc8g","pricing_plan_id":"free"},{"bike_id":"d8be298e-f4c0-4479-a66b-e307c680d7cc","system_id":"levelo_inurba_marseille","lat":43.31356,"lon":5.38493,"is_reserved":false,"is_disabled":false,"rental_uris":{"android":"levelo://app?vid=d8be298e-f4c0-4479-a66b-e307c680d7cc","ios":"levelo://app?vid=d8be298e-f4c0-4479-a66b-e307c680d7cc"},"vehicle_type_id":"4","last_reported":1702235077,"current_range_meters":19200,"station_id":"ce4bgt92rcd13ifvqcf0","pricing_plan_id":"free"},{"bike_id":"bf32fab2-f367-44fd-b155-8250d55d8a02","system_id":"levelo_inurba_marseille","lat":43.299724,"lon":5.371829,"is_reserved":false,"is_disabled":false,"rental_uris":{"android":"levelo://app?vid=bf32fab2-f367-44fd-b155-8250d55d8a02","ios":"levelo://app?vid=bf32fab2-f367-44fd-b155-8250d55d8a02"},"vehicle_type_id":"4","last_reported":1702235077,"current_range_meters":1200,"station_id":"ce4bgr92rcd13ifvqc7g","pricing_plan_id":"free"},{"bike_id":"f2ef238b-ab08-4e06-8326-526c118088cf","system_id":"levelo_inurba_marseille","lat":43.305364,"lon":5.384119,"is_reserved":false,"is_disabled":false,"rental_uris":{"android":"levelo://app?vid=f2ef238b-ab08-4e06-8326-526c118088cf","ios":"levelo://app?vid=f2ef238b-ab08-4e06-8326-526c118088cf"},"vehicle_type_id":"4","last_reported":1702235077,"current_range_meters":3600,"station_id":"ce4bgg92rcd13ifvqb30","pricing_plan_id":"free"},{"bike_id":"22d8b9fb-2432-4b34-b1d7-f236a18e27f0","system_id":"levelo_inurba_marseille","lat":43.305432,"lon":5.38427,"is_reserved":false,"is_disabled":false,"rental_uris":{"android":"levelo://app?vid=22d8b9fb-2432-4b34-b1d7-f236a18e27f0","ios":"levelo://app?vid=22d8b9fb-2432-4b34-b1d7-f236a18e27f0"},"vehicle_type_id":"4","last_reported":1702235077,"current_range_meters":0,"station_id":"ce4bgg92rcd13ifvqb30","pricing_plan_id":"free"},{"bike_id":"0a50041f-c512-4cba-b1cf-63c9c25ca8f2","system_id":"levelo_inurba_marseille","lat":43.311722,"lon":5.387247,"is_reserved":false,"is_disabled":false,"rental_uris":{"android":"levelo://app?vid=0a50041f-c512-4cba-b1cf-63c9c25ca8f2","ios":"levelo://app?vid=0a50041f-c512-4cba-b1cf-63c9c25ca8f2"},"vehicle_type_id":"4","last_reported":1702235077,"current_range_meters":3600,"station_id":"ce4bgv12rcd13ifvqcp0","pricing_plan_id":"free"},{"bike_id":"72bc4270-17de-4d8a-a2a1-11c47c501183","system_id":"levelo_inurba_marseille","lat":43.297774,"lon":5.370875,"is_reserved":false,"is_disabled":false,"rental_uris":{"android":"levelo://app?vid=72bc4270-17de-4d8a-a2a1-11c47c501183","ios":"levelo://app?vid=72bc4270-17de-4d8a-a2a1-11c47c501183"},"vehicle_type_id":"4","last_reported":1702235077,"current_range_meters":2400,"station_id":"ce4bgop2rcd13ifvqc1g","pricing_plan_id":"free"},{"bike_id":"ccd4fbf7-a0c2-498b-8ecc-15a67004cff0","system_id":"levelo_inurba_marseille","lat":43.322872,"lon":5.382756,"is_reserved":false,"is_disabled":false,"rental_uris":{"android":"levelo://app?vid=ccd4fbf7-a0c2-498b-8ecc-15a67004cff0","ios":"levelo://app?vid=ccd4fbf7-a0c2-498b-8ecc-15a67004cff0"},"vehicle_type_id":"4","last_reported":1702235077,"current_range_meters":28400,"station_id":"ce4bhr12rcd13ifvqhqg","pricing_plan_id":"free"},{"bike_id":"6ac675f1-e0be-498c-ad2f-b742a949d4b0","system_id":"levelo_inurba_marseille","lat":43.298218,"lon":5.374416,"is_reserved":false,"is_disabled":false,"rental_uris":{"android":"levelo://app?vid=6ac675f1-e0be-498c-ad2f-b742a949d4b0","ios":"levelo://app?vid=6ac675f1-e0be-498c-ad2f-b742a949d4b0"},"vehicle_type_id":"4","last_reported":1702235077,"current_range_meters":0,"station_id":"","pricing_plan_id":"free"},{"bike_id":"13bf6281-9789-44ba-a352-3b8cde8a7a5d","system_id":"levelo_inurba_marseille","lat":43.3283,"lon":5.36678,"is_reserved":false,"is_disabled":false,"rental_uris":{"android":"levelo://app?vid=13bf6281-9789-44ba-a352-3b8cde8a7a5d","ios":"levelo://app?vid=13bf6281-9789-44ba-a352-3b8cde8a7a5d"},"vehicle_type_id":"4","last_reported":1702235077,"current_range_meters":10000,"station_id":"ce4bhs92rcd13ifvqi0g","pricing_plan_id":"free"},{"bike_id":"8e975070-48ff-4726-90a5-d4b8c4ba2c0a","system_id":"levelo_inurba_marseille","lat":43.2968,"lon":5.37291,"is_reserved":false,"is_disabled":false,"rental_uris":{"android":"levelo://app?vid=8e975070-48ff-4726-90a5-d4b8c4ba2c0a","ios":"levelo://app?vid=8e975070-48ff-4726-90a5-d4b8c4ba2c0a"},"vehicle_type_id":"4","last_reported":1702235077,"current_range_meters":14800,"station_id":"ce4bgk12rcd13ifvqbj0","pricing_plan_id":"free"},{"bike_id":"92dc65d6-6823-4de3-93d4-056f738f090c","system_id":"levelo_inurba_marseille","lat":43.316538,"lon":5.38954,"is_reserved":false,"is_disabled":false,"rental_uris":{"android":"levelo://app?vid=92dc65d6-6823-4de3-93d4-056f738f090c","ios":"levelo://app?vid=92dc65d6-6823-4de3-93d4-056f738f090c"},"vehicle_type_id":"4","last_reported":1702235077,"current_range_meters":0,"station_id":"","pricing_plan_id":"free"},{"bike_id":"587cb203-8e4d-444f-9209-e40ac3e543cd","system_id":"levelo_inurba_marseille","lat":43.29618,"lon":5.37149,"is_reserved":false,"is_disabled":false,"rental_uris":{"android":"levelo://app?vid=587cb203-8e4d-444f-9209-e40ac3e543cd","ios":"levelo://app?vid=587cb203-8e4d-444f-9209-e40ac3e543cd"},"vehicle_type_id":"4","last_reported":1702235077,"current_range_meters":0,"station_id":"ce4bgnh2rcd13ifvqc0g","pricing_plan_id":"free"},{"bike_id":"a2ae038b-dd2f-4359-b08c-54bd110329fe","system_id":"levelo_inurba_marseille","lat":43.295834,"lon":5.374977,"is_reserved":false,"is_disabled":false,"rental_uris":{"android":"levelo://app?vid=a2ae038b-dd2f-4359-b08c-54bd110329fe","ios":"levelo://app?vid=a2ae038b-dd2f-4359-b08c-54bd110329fe"},"vehicle_type_id":"4","last_reported":1702235077,"current_range_meters":0,"station_id":"ce4bgh92rcd13ifvqb50","pricing_plan_id":"free"},{"bike_id":"89eed82f-3c10-4b6b-b6ee-abbcc3ff304a","system_id":"levelo_inurba_marseille","lat":43.29602,"lon":5.381084,"is_reserved":false,"is_disabled":false,"rental_uris":{"android":"levelo://app?vid=89eed82f-3c10-4b6b-b6ee-abbcc3ff304a","ios":"levelo://app?vid=89eed82f-3c10-4b6b-b6ee-abbcc3ff304a"},"vehicle_type_id":"4","last_reported":1702235077,"current_range_meters":0,"station_id":"ce4bgl12rcd13ifvqbo0","pricing_plan_id":"free"},{"bike_id":"8da9a629-f381-4fcc-89d6-d6b66b7230f4","system_id":"levelo_inurba_marseille","lat":43.293259,"lon":5.371586,"is_reserved":false,"is_disabled":false,"rental_uris":{"android":"levelo://app?vid=8da9a629-f381-4fcc-89d6-d6b66b7230f4","ios":"levelo://app?vid=8da9a629-f381-4fcc-89d6-d6b66b7230f4"},"vehicle_type_id":"4","last_reported":1702235077,"current_range_meters":27200,"station_id":"ce4bgh92rcd13ifvqb40","pricing_plan_id":"free"},{"bike_id":"7c8c94e9-225b-4a46-88ee-1e06bffb4f4a","system_id":"levelo_inurba_marseille","lat":43.29213,"lon":5.35799,"is_reserved":false,"is_disabled":false,"rental_uris":{"android":"levelo://app?vid=7c8c94e9-225b-4a46-88ee-1e06bffb4f4a","ios":"levelo://app?vid=7c8c94e9-225b-4a46-88ee-1e06bffb4f4a"},"vehicle_type_id":"4","last_reported":1702235077,"current_range_meters":9200,"station_id":"ce4bhb12rcd13ifvqel0","pricing_plan_id":"free"},{"bike_id":"7a8eb539-30e5-4af4-b797-fc123579ecb6","system_id":"levelo_inurba_marseille","lat":43.309038,"lon":5.396546,"is_reserved":false,"is_disabled":false,"rental_uris":{"android":"levelo://app?vid=7a8eb539-30e5-4af4-b797-fc123579ecb6","ios":"levelo://app?vid=7a8eb539-30e5-4af4-b797-fc123579ecb6"},"vehicle_type_id":"4","last_reported":1702235077,"current_range_meters":24000,"station_id":"ce4bh012rcd13ifvqcv0","pricing_plan_id":"free"},{"bike_id":"c52bb110-5036-45b2-9750-ba75d4b2084f","system_id":"levelo_inurba_marseille","lat":43.31334,"lon":5.39692,"is_reserved":false,"is_disabled":false,"rental_uris":{"android":"levelo://app?vid=c52bb110-5036-45b2-9750-ba75d4b2084f","ios":"levelo://app?vid=c52bb110-5036-45b2-9750-ba75d4b2084f"},"vehicle_type_id":"4","last_reported":1702235077,"current_range_meters":20000,"station_id":"ce4bgvp2rcd13ifvqcu0","pricing_plan_id":"free"},{"bike_id":"8f66dccf-63ef-4916-bed9-f80a5d3be49c","system_id":"levelo_inurba_marseille","lat":43.313291,"lon":5.396838,"is_reserved":false,"is_disabled":false,"rental_uris":{"android":"levelo://app?vid=8f66dccf-63ef-4916-bed9-f80a5d3be49c","ios":"levelo://app?vid=8f66dccf-63ef-4916-bed9-f80a5d3be49c"},"vehicle_type_id":"4","last_reported":1702235077,"current_range_meters":0,"station_id":"ce4bgvp2rcd13ifvqcu0","pricing_plan_id":"free"},{"bike_id":"6a9861db-3790-4bdf-8ba0-fe97c5a7c20a","system_id":"levelo_inurba_marseille","lat":43.29529,"lon":5.385581,"is_reserved":false,"is_disabled":false,"rental_uris":{"android":"levelo://app?vid=6a9861db-3790-4bdf-8ba0-fe97c5a7c20a","ios":"levelo://app?vid=6a9861db-3790-4bdf-8ba0-fe97c5a7c20a"},"vehicle_type_id":"4","last_reported":1702235077,"current_range_meters":8000,"station_id":"ce4bgih2rcd13ifvqba0","pricing_plan_id":"free"},{"bike_id":"dd1b5a61-ef01-4007-b4ca-201044d24689","system_id":"levelo_inurba_marseille","lat":43.29419,"lon":5.3862,"is_reserved":false,"is_disabled":false,"rental_uris":{"android":"levelo://app?vid=dd1b5a61-ef01-4007-b4ca-201044d24689","ios":"levelo://app?vid=dd1b5a61-ef01-4007-b4ca-201044d24689"},"vehicle_type_id":"4","last_reported":1702235077,"current_range_meters":0,"station_id":"ce4bh2h2rcd13ifvqdh0","pricing_plan_id":"free"},{"bike_id":"a14dfc91-fde4-4f7b-b89e-312c00679f9c","system_id":"levelo_inurba_marseille","lat":43.28939,"lon":5.36632,"is_reserved":false,"is_disabled":false,"rental_uris":{"android":"levelo://app?vid=a14dfc91-fde4-4f7b-b89e-312c00679f9c","ios":"levelo://app?vid=a14dfc91-fde4-4f7b-b89e-312c00679f9c"},"vehicle_type_id":"4","last_reported":1702235077,"current_range_meters":0,"station_id":"ce4bhap2rcd13ifvqek0","pricing_plan_id":"free"},{"bike_id":"0d55287e-6324-4a21-96f1-2aa124f5d1a5","system_id":"levelo_inurba_marseille","lat":43.290161,"lon":5.375651,"is_reserved":false,"is_disabled":false,"rental_uris":{"android":"levelo://app?vid=0d55287e-6324-4a21-96f1-2aa124f5d1a5","ios":"levelo://app?vid=0d55287e-6324-4a21-96f1-2aa124f5d1a5"},"vehicle_type_id":"4","last_reported":1702235077,"current_range_meters":8800,"station_id":"","pricing_plan_id":"free"},{"bike_id":"a02a1b20-1fb1-4951-988a-77389649024d","system_id":"levelo_inurba_marseille","lat":43.289259,"lon":5.366364,"is_reserved":false,"is_disabled":false,"rental_uris":{"android":"levelo://app?vid=a02a1b20-1fb1-4951-988a-77389649024d","ios":"levelo://app?vid=a02a1b20-1fb1-4951-988a-77389649024d"},"vehicle_type_id":"4","last_reported":1702235077,"current_range_meters":7200,"station_id":"","pricing_plan_id":"free"},{"bike_id":"90762143-996b-4543-9159-5da607df31c3","system_id":"levelo_inurba_marseille","lat":43.292642,"lon":5.384254,"is_reserved":false,"is_disabled":false,"rental_uris":{"android":"levelo://app?vid=90762143-996b-4543-9159-5da607df31c3","ios":"levelo://app?vid=90762143-996b-4543-9159-5da607df31c3"},"vehicle_type_id":"4","last_reported":1702235077,"current_range_meters":17600,"station_id":"ce4bh692rcd13ifvqea0","pricing_plan_id":"free"},{"bike_id":"49fed072-ab32-46c6-ba7a-a5ebf33b305f","system_id":"levelo_inurba_marseille","lat":43.33042,"lon":5.3892,"is_reserved":false,"is_disabled":false,"rental_uris":{"android":"levelo://app?vid=49fed072-ab32-46c6-ba7a-a5ebf33b305f","ios":"levelo://app?vid=49fed072-ab32-46c6-ba7a-a5ebf33b305f"},"vehicle_type_id":"4","last_reported":1702235077,"current_range_meters":23200,"station_id":"ce4bhr92rcd13ifvqhrg","pricing_plan_id":"free"},{"bike_id":"57836237-4b1f-4a82-a4bc-3f67fb0804cc","system_id":"levelo_inurba_marseille","lat":43.330442,"lon":5.389148,"is_reserved":false,"is_disabled":false,"rental_uris":{"android":"levelo://app?vid=57836237-4b1f-4a82-a4bc-3f67fb0804cc","ios":"levelo://app?vid=57836237-4b1f-4a82-a4bc-3f67fb0804cc"},"vehicle_type_id":"4","last_reported":1702235077,"current_range_meters":2800,"station_id":"ce4bhr92rcd13ifvqhrg","pricing_plan_id":"free"},{"bike_id":"2c922e28-5d22-4dd1-bf6c-d686043bce6c","system_id":"levelo_inurba_marseille","lat":43.330442,"lon":5.389148,"is_reserved":false,"is_disabled":false,"rental_uris":{"android":"levelo://app?vid=2c922e28-5d22-4dd1-bf6c-d686043bce6c","ios":"levelo://app?vid=2c922e28-5d22-4dd1-bf6c-d686043bce6c"},"vehicle_type_id":"4","last_reported":1702235077,"current_range_meters":0,"station_id":"ce4bhr92rcd13ifvqhrg","pricing_plan_id":"free"},{"bike_id":"970c5787-fd7a-4801-a9a4-3df45010b58d","system_id":"levelo_inurba_marseille","lat":43.289741,"lon":5.378306,"is_reserved":false,"is_disabled":false,"rental_uris":{"android":"levelo://app?vid=970c5787-fd7a-4801-a9a4-3df45010b58d","ios":"levelo://app?vid=970c5787-fd7a-4801-a9a4-3df45010b58d"},"vehicle_type_id":"4","last_reported":1702235077,"current_range_meters":6400,"station_id":"ce4bh9p2rcd13ifvqed0","pricing_plan_id":"free"},{"bike_id":"3a3442d4-dd9d-4cd6-9a1d-0ae088ce64ed","system_id":"levelo_inurba_marseille","lat":43.29792,"lon":5.393407,"is_reserved":false,"is_disabled":false,"rental_uris":{"android":"levelo://app?vid=3a3442d4-dd9d-4cd6-9a1d-0ae088ce64ed","ios":"levelo://app?vid=3a3442d4-dd9d-4cd6-9a1d-0ae088ce64ed"},"vehicle_type_id":"4","last_reported":1702235077,"current_range_meters":20800,"station_id":"chh1huq6cuj3fo74tm60","pricing_plan_id":"free"},{"bike_id":"40183c76-f8f6-4306-8018-71d2eea677cd","system_id":"levelo_inurba_marseille","lat":43.295169,"lon":5.390426,"is_reserved":false,"is_disabled":false,"rental_uris":{"android":"levelo://app?vid=40183c76-f8f6-4306-8018-71d2eea677cd","ios":"levelo://app?vid=40183c76-f8f6-4306-8018-71d2eea677cd"},"vehicle_type_id":"4","last_reported":1702235077,"current_range_meters":0,"station_id":"ce4bh3p2rcd13ifvqdp0","pricing_plan_id":"free"},{"bike_id":"cf08003b-e4a8-4cbf-85a8-f0d420a867c7","system_id":"levelo_inurba_marseille","lat":43.295169,"lon":5.390426,"is_reserved":false,"is_disabled":false,"rental_uris":{"android":"levelo://app?vid=cf08003b-e4a8-4cbf-85a8-f0d420a867c7","ios":"levelo://app?vid=cf08003b-e4a8-4cbf-85a8-f0d420a867c7"},"vehicle_type_id":"4","last_reported":1702235077,"current_range_meters":8800,"station_id":"ce4bh3p2rcd13ifvqdp0","pricing_plan_id":"free"},{"bike_id":"4a3e0be9-e3ff-4aeb-b97e-3a7f3d4e7b91","system_id":"levelo_inurba_marseille","lat":43.295123,"lon":5.39034,"is_reserved":false,"is_disabled":false,"rental_uris":{"android":"levelo://app?vid=4a3e0be9-e3ff-4aeb-b97e-3a7f3d4e7b91","ios":"levelo://app?vid=4a3e0be9-e3ff-4aeb-b97e-3a7f3d4e7b91"},"vehicle_type_id":"4","last_reported":1702235077,"current_range_meters":0,"station_id":"ce4bh3p2rcd13ifvqdp0","pricing_plan_id":"free"},{"bike_id":"3a4267ec-eb56-4d43-82a1-817967632c68","system_id":"levelo_inurba_marseille","lat":43.28856,"lon":5.358371,"is_reserved":false,"is_disabled":false,"rental_uris":{"android":"levelo://app?vid=3a4267ec-eb56-4d43-82a1-817967632c68","ios":"levelo://app?vid=3a4267ec-eb56-4d43-82a1-817967632c68"},"vehicle_type_id":"4","last_reported":1702235077,"current_range_meters":0,"station_id":"ce4bhb12rcd13ifvqem0","pricing_plan_id":"free"},{"bike_id":"c7dc1baf-2585-4138-9aa9-1bea746ab99a","system_id":"levelo_inurba_marseille","lat":43.312758,"lon":5.401694,"is_reserved":false,"is_disabled":false,"rental_uris":{"android":"levelo://app?vid=c7dc1baf-2585-4138-9aa9-1bea746ab99a","ios":"levelo://app?vid=c7dc1baf-2585-4138-9aa9-1bea746ab99a"},"vehicle_type_id":"4","last_reported":1702235077,"current_range_meters":0,"station_id":"ce4bh092rcd13ifvqd30","pricing_plan_id":"free"},{"bike_id":"c0fc58c4-756b-4321-81b1-c504d503a851","system_id":"levelo_inurba_marseille","lat":43.301117,"lon":5.398795,"is_reserved":false,"is_disabled":false,"rental_uris":{"android":"levelo://app?vid=c0fc58c4-756b-4321-81b1-c504d503a851","ios":"levelo://app?vid=c0fc58c4-756b-4321-81b1-c504d503a851"},"vehicle_type_id":"4","last_reported":1702235077,"current_range_meters":2000,"station_id":"ce4bh0h2rcd13ifvqd40","pricing_plan_id":"free"},{"bike_id":"9648545c-0f96-4279-b194-5504bd59ce6c","system_id":"levelo_inurba_marseille","lat":43.301117,"lon":5.398795,"is_reserved":false,"is_disabled":false,"rental_uris":{"android":"levelo://app?vid=9648545c-0f96-4279-b194-5504bd59ce6c","ios":"levelo://app?vid=9648545c-0f96-4279-b194-5504bd59ce6c"},"vehicle_type_id":"4","last_reported":1702235077,"current_range_meters":30400,"station_id":"ce4bh0h2rcd13ifvqd40","pricing_plan_id":"free"},{"bike_id":"ec895315-dc2d-4277-ac24-20c29d74b8d9","system_id":"levelo_inurba_marseille","lat":43.28727,"lon":5.36078,"is_reserved":false,"is_disabled":false,"rental_uris":{"android":"levelo://app?vid=ec895315-dc2d-4277-ac24-20c29d74b8d9","ios":"levelo://app?vid=ec895315-dc2d-4277-ac24-20c29d74b8d9"},"vehicle_type_id":"4","last_reported":1702235077,"current_range_meters":6400,"station_id":"cki0cbj6b192h4jlfktg","pricing_plan_id":"free"},{"bike_id":"69cfba77-e17d-498f-b183-c4cbd6a3b74e","system_id":"levelo_inurba_marseille","lat":43.28727,"lon":5.36078,"is_reserved":false,"is_disabled":false,"rental_uris":{"android":"levelo://app?vid=69cfba77-e17d-498f-b183-c4cbd6a3b74e","ios":"levelo://app?vid=69cfba77-e17d-498f-b183-c4cbd6a3b74e"},"vehicle_type_id":"4","last_reported":1702235077,"current_range_meters":6000,"station_id":"cki0cbj6b192h4jlfktg","pricing_plan_id":"free"},{"bike_id":"a1b7e675-1fbd-4587-a6f2-26ec9a74ce8e","system_id":"levelo_inurba_marseille","lat":43.28727,"lon":5.36078,"is_reserved":false,"is_disabled":false,"rental_uris":{"android":"levelo://app?vid=a1b7e675-1fbd-4587-a6f2-26ec9a74ce8e","ios":"levelo://app?vid=a1b7e675-1fbd-4587-a6f2-26ec9a74ce8e"},"vehicle_type_id":"4","last_reported":1702235077,"current_range_meters":5600,"station_id":"cki0cbj6b192h4jlfktg","pricing_plan_id":"free"},{"bike_id":"75c92b3f-a2cc-438c-b8dc-8fb28761734d","system_id":"levelo_inurba_marseille","lat":43.28727,"lon":5.36078,"is_reserved":false,"is_disabled":false,"rental_uris":{"android":"levelo://app?vid=75c92b3f-a2cc-438c-b8dc-8fb28761734d","ios":"levelo://app?vid=75c92b3f-a2cc-438c-b8dc-8fb28761734d"},"vehicle_type_id":"4","last_reported":1702235077,"current_range_meters":2000,"station_id":"cki0cbj6b192h4jlfktg","pricing_plan_id":"free"},{"bike_id":"93969e87-34f8-4e80-b564-cb7598527d8d","system_id":"levelo_inurba_marseille","lat":43.286593,"lon":5.363346,"is_reserved":false,"is_disabled":false,"rental_uris":{"android":"levelo://app?vid=93969e87-34f8-4e80-b564-cb7598527d8d","ios":"levelo://app?vid=93969e87-34f8-4e80-b564-cb7598527d8d"},"vehicle_type_id":"4","last_reported":1702235077,"current_range_meters":25200,"station_id":"ce4bhah2rcd13ifvqej0","pricing_plan_id":"free"},{"bike_id":"d3a8d062-82a8-469d-b0b3-6eb8e1509e74","system_id":"levelo_inurba_marseille","lat":43.298681,"lon":5.397225,"is_reserved":false,"is_disabled":false,"rental_uris":{"android":"levelo://app?vid=d3a8d062-82a8-469d-b0b3-6eb8e1509e74","ios":"levelo://app?vid=d3a8d062-82a8-469d-b0b3-6eb8e1509e74"},"vehicle_type_id":"4","last_reported":1702235077,"current_range_meters":15200,"station_id":"ce4bh0h2rcd13ifvqd50","pricing_plan_id":"free"},{"bike_id":"985a4d8b-532f-48dd-9c0c-761f3a33e3ee","system_id":"levelo_inurba_marseille","lat":43.295196,"lon":5.39397,"is_reserved":false,"is_disabled":false,"rental_uris":{"android":"levelo://app?vid=985a4d8b-532f-48dd-9c0c-761f3a33e3ee","ios":"levelo://app?vid=985a4d8b-532f-48dd-9c0c-761f3a33e3ee"},"vehicle_type_id":"4","last_reported":1702235077,"current_range_meters":14000,"station_id":"ce4bh292rcd13ifvqdf0","pricing_plan_id":"free"},{"bike_id":"743c9578-b8f3-4e30-9547-3f47d37efa14","system_id":"levelo_inurba_marseille","lat":43.286591,"lon":5.363346,"is_reserved":false,"is_disabled":false,"rental_uris":{"android":"levelo://app?vid=743c9578-b8f3-4e30-9547-3f47d37efa14","ios":"levelo://app?vid=743c9578-b8f3-4e30-9547-3f47d37efa14"},"vehicle_type_id":"4","last_reported":1702235077,"current_range_meters":29200,"station_id":"ce4bhah2rcd13ifvqej0","pricing_plan_id":"free"},{"bike_id":"06bca111-9661-4572-ad95-8bcccb0d7373","system_id":"levelo_inurba_marseille","lat":43.302759,"lon":5.400793,"is_reserved":false,"is_disabled":false,"rental_uris":{"android":"levelo://app?vid=06bca111-9661-4572-ad95-8bcccb0d7373","ios":"levelo://app?vid=06bca111-9661-4572-ad95-8bcccb0d7373"},"vehicle_type_id":"4","last_reported":1702235077,"current_range_meters":0,"station_id":"ce4bgvh2rcd13ifvqcs0","pricing_plan_id":"free"},{"bike_id":"a36a9510-a84b-4d65-80f0-bea0bd430ee1","system_id":"levelo_inurba_marseille","lat":43.291994,"lon":5.392907,"is_reserved":false,"is_disabled":false,"rental_uris":{"android":"levelo://app?vid=a36a9510-a84b-4d65-80f0-bea0bd430ee1","ios":"levelo://app?vid=a36a9510-a84b-4d65-80f0-bea0bd430ee1"},"vehicle_type_id":"4","last_reported":1702235077,"current_range_meters":11600,"station_id":"ce4bh192rcd13ifvqdd0","pricing_plan_id":"free"},{"bike_id":"c9bdfd9d-659c-41a7-9d9b-4c86251ef96c","system_id":"levelo_inurba_marseille","lat":43.284634,"lon":5.35888,"is_reserved":false,"is_disabled":false,"rental_uris":{"android":"levelo://app?vid=c9bdfd9d-659c-41a7-9d9b-4c86251ef96c","ios":"levelo://app?vid=c9bdfd9d-659c-41a7-9d9b-4c86251ef96c"},"vehicle_type_id":"4","last_reported":1702235077,"current_range_meters":20000,"station_id":"ce4bhah2rcd13ifvqei0","pricing_plan_id":"free"},{"bike_id":"cdbaab45-9e5f-41c7-968f-839018bfeaa6","system_id":"levelo_inurba_marseille","lat":43.28464,"lon":5.35884,"is_reserved":false,"is_disabled":false,"rental_uris":{"android":"levelo://app?vid=cdbaab45-9e5f-41c7-968f-839018bfeaa6","ios":"levelo://app?vid=cdbaab45-9e5f-41c7-968f-839018bfeaa6"},"vehicle_type_id":"4","last_reported":1702235077,"current_range_meters":21600,"station_id":"ce4bhah2rcd13ifvqei0","pricing_plan_id":"free"},{"bike_id":"3f8e14cd-3867-434e-9465-ac73c9cfc25f","system_id":"levelo_inurba_marseille","lat":43.28461,"lon":5.35886,"is_reserved":false,"is_disabled":false,"rental_uris":{"android":"levelo://app?vid=3f8e14cd-3867-434e-9465-ac73c9cfc25f","ios":"levelo://app?vid=3f8e14cd-3867-434e-9465-ac73c9cfc25f"},"vehicle_type_id":"4","last_reported":1702235077,"current_range_meters":31200,"station_id":"ce4bhah2rcd13ifvqei0","pricing_plan_id":"free"},{"bike_id":"ee45295d-d2ac-4bad-b547-2e77e282c6d5","system_id":"levelo_inurba_marseille","lat":43.2846,"lon":5.35887,"is_reserved":false,"is_disabled":false,"rental_uris":{"android":"levelo://app?vid=ee45295d-d2ac-4bad-b547-2e77e282c6d5","ios":"levelo://app?vid=ee45295d-d2ac-4bad-b547-2e77e282c6d5"},"vehicle_type_id":"4","last_reported":1702235077,"current_range_meters":29600,"station_id":"ce4bhah2rcd13ifvqei0","pricing_plan_id":"free"},{"bike_id":"64fe99bf-1064-4561-a3b5-f86a9f6b520a","system_id":"levelo_inurba_marseille","lat":43.284601,"lon":5.358859,"is_reserved":false,"is_disabled":false,"rental_uris":{"android":"levelo://app?vid=64fe99bf-1064-4561-a3b5-f86a9f6b520a","ios":"levelo://app?vid=64fe99bf-1064-4561-a3b5-f86a9f6b520a"},"vehicle_type_id":"4","last_reported":1702235077,"current_range_meters":30000,"station_id":"ce4bhah2rcd13ifvqei0","pricing_plan_id":"free"},{"bike_id":"fa8fc40c-2bf2-4cc0-bee7-a0e4d72c9a1d","system_id":"levelo_inurba_marseille","lat":43.284595,"lon":5.358876,"is_reserved":false,"is_disabled":false,"rental_uris":{"android":"levelo://app?vid=fa8fc40c-2bf2-4cc0-bee7-a0e4d72c9a1d","ios":"levelo://app?vid=fa8fc40c-2bf2-4cc0-bee7-a0e4d72c9a1d"},"vehicle_type_id":"4","last_reported":1702235077,"current_range_meters":15600,"station_id":"ce4bhah2rcd13ifvqei0","pricing_plan_id":"free"},{"bike_id":"54eca29a-728b-41f2-b50a-77a0d433362e","system_id":"levelo_inurba_marseille","lat":43.284585,"lon":5.358903,"is_reserved":false,"is_disabled":false,"rental_uris":{"android":"levelo://app?vid=54eca29a-728b-41f2-b50a-77a0d433362e","ios":"levelo://app?vid=54eca29a-728b-41f2-b50a-77a0d433362e"},"vehicle_type_id":"4","last_reported":1702235077,"current_range_meters":19600,"station_id":"ce4bhah2rcd13ifvqei0","pricing_plan_id":"free"},{"bike_id":"25abb136-3c34-4966-a7ae-66a1e6ac7379","system_id":"levelo_inurba_marseille","lat":43.284569,"lon":5.35893,"is_reserved":false,"is_disabled":false,"rental_uris":{"android":"levelo://app?vid=25abb136-3c34-4966-a7ae-66a1e6ac7379","ios":"levelo://app?vid=25abb136-3c34-4966-a7ae-66a1e6ac7379"},"vehicle_type_id":"4","last_reported":1702235077,"current_range_meters":17600,"station_id":"ce4bhah2rcd13ifvqei0","pricing_plan_id":"free"},{"bike_id":"a864b496-4175-421d-a32b-6c3b511474cb","system_id":"levelo_inurba_marseille","lat":43.284534,"lon":5.358662,"is_reserved":false,"is_disabled":false,"rental_uris":{"android":"levelo://app?vid=a864b496-4175-421d-a32b-6c3b511474cb","ios":"levelo://app?vid=a864b496-4175-421d-a32b-6c3b511474cb"},"vehicle_type_id":"4","last_reported":1702235077,"current_range_meters":20800,"station_id":"ce4bhah2rcd13ifvqei0","pricing_plan_id":"free"},{"bike_id":"407293e1-3a88-41e1-af44-9ca5448b3884","system_id":"levelo_inurba_marseille","lat":43.284534,"lon":5.358662,"is_reserved":false,"is_disabled":false,"rental_uris":{"android":"levelo://app?vid=407293e1-3a88-41e1-af44-9ca5448b3884","ios":"levelo://app?vid=407293e1-3a88-41e1-af44-9ca5448b3884"},"vehicle_type_id":"4","last_reported":1702235077,"current_range_meters":7600,"station_id":"ce4bhah2rcd13ifvqei0","pricing_plan_id":"free"},{"bike_id":"119ee8e3-fa65-44d6-bb3b-11d0d77085d3","system_id":"levelo_inurba_marseille","lat":43.284555,"lon":5.358932,"is_reserved":false,"is_disabled":false,"rental_uris":{"android":"levelo://app?vid=119ee8e3-fa65-44d6-bb3b-11d0d77085d3","ios":"levelo://app?vid=119ee8e3-fa65-44d6-bb3b-11d0d77085d3"},"vehicle_type_id":"4","last_reported":1702235077,"current_range_meters":18400,"station_id":"ce4bhah2rcd13ifvqei0","pricing_plan_id":"free"},{"bike_id":"785c37c5-b843-4aab-9969-4591f6fc52ec","system_id":"levelo_inurba_marseille","lat":43.28455,"lon":5.35889,"is_reserved":false,"is_disabled":false,"rental_uris":{"android":"levelo://app?vid=785c37c5-b843-4aab-9969-4591f6fc52ec","ios":"levelo://app?vid=785c37c5-b843-4aab-9969-4591f6fc52ec"},"vehicle_type_id":"4","last_reported":1702235077,"current_range_meters":31200,"station_id":"ce4bhah2rcd13ifvqei0","pricing_plan_id":"free"},{"bike_id":"7e6adb79-d0a0-4bfc-8bc7-d73d960440e0","system_id":"levelo_inurba_marseille","lat":43.28453,"lon":5.35891,"is_reserved":false,"is_disabled":false,"rental_uris":{"android":"levelo://app?vid=7e6adb79-d0a0-4bfc-8bc7-d73d960440e0","ios":"levelo://app?vid=7e6adb79-d0a0-4bfc-8bc7-d73d960440e0"},"vehicle_type_id":"4","last_reported":1702235077,"current_range_meters":23600,"station_id":"ce4bhah2rcd13ifvqei0","pricing_plan_id":"free"},{"bike_id":"f5208497-3c8e-4a3f-ad96-12767b77ff76","system_id":"levelo_inurba_marseille","lat":43.294314,"lon":5.397498,"is_reserved":false,"is_disabled":false,"rental_uris":{"android":"levelo://app?vid=f5208497-3c8e-4a3f-ad96-12767b77ff76","ios":"levelo://app?vid=f5208497-3c8e-4a3f-ad96-12767b77ff76"},"vehicle_type_id":"4","last_reported":1702235077,"current_range_meters":8800,"station_id":"ce4bh3h2rcd13ifvqdo0","pricing_plan_id":"free"},{"bike_id":"b3b29ad6-8443-4304-898f-b53af04e812c","system_id":"levelo_inurba_marseille","lat":43.2862,"lon":5.351,"is_reserved":false,"is_disabled":false,"rental_uris":{"android":"levelo://app?vid=b3b29ad6-8443-4304-898f-b53af04e812c","ios":"levelo://app?vid=b3b29ad6-8443-4304-898f-b53af04e812c"},"vehicle_type_id":"4","last_reported":1702235077,"current_range_meters":18400,"station_id":"ce4bhch2rcd13ifvqeug","pricing_plan_id":"free"},{"bike_id":"a3861b16-61b5-4704-9757-5a5b60db6b54","system_id":"levelo_inurba_marseille","lat":43.295713,"lon":5.399639,"is_reserved":false,"is_disabled":false,"rental_uris":{"android":"levelo://app?vid=a3861b16-61b5-4704-9757-5a5b60db6b54","ios":"levelo://app?vid=a3861b16-61b5-4704-9757-5a5b60db6b54"},"vehicle_type_id":"4","last_reported":1702235077,"current_range_meters":4800,"station_id":"ce4bh312rcd13ifvqdj0","pricing_plan_id":"free"},{"bike_id":"f1b5cdb2-7df3-4e18-9ce9-10081cd786b8","system_id":"levelo_inurba_marseille","lat":43.284159,"lon":5.37588,"is_reserved":false,"is_disabled":false,"rental_uris":{"android":"levelo://app?vid=f1b5cdb2-7df3-4e18-9ce9-10081cd786b8","ios":"levelo://app?vid=f1b5cdb2-7df3-4e18-9ce9-10081cd786b8"},"vehicle_type_id":"4","last_reported":1702235077,"current_range_meters":0,"station_id":"","pricing_plan_id":"free"},{"bike_id":"b5b7ec68-eb9f-4418-ac90-f694047a4470","system_id":"levelo_inurba_marseille","lat":43.319179,"lon":5.407725,"is_reserved":false,"is_disabled":false,"rental_uris":{"android":"levelo://app?vid=b5b7ec68-eb9f-4418-ac90-f694047a4470","ios":"levelo://app?vid=b5b7ec68-eb9f-4418-ac90-f694047a4470"},"vehicle_type_id":"4","last_reported":1702235077,"current_range_meters":15200,"station_id":"ce4bhq12rcd13ifvqhig","pricing_plan_id":"free"},{"bike_id":"ff41a036-7f17-438a-86e0-b92c1c871f5b","system_id":"levelo_inurba_marseille","lat":43.28472,"lon":5.38411,"is_reserved":false,"is_disabled":false,"rental_uris":{"android":"levelo://app?vid=ff41a036-7f17-438a-86e0-b92c1c871f5b","ios":"levelo://app?vid=ff41a036-7f17-438a-86e0-b92c1c871f5b"},"vehicle_type_id":"4","last_reported":1702235077,"current_range_meters":0,"station_id":"ce4bh512rcd13ifvqe3g","pricing_plan_id":"free"},{"bike_id":"f806ba76-ea8e-4d90-ae02-8367138c7d90","system_id":"levelo_inurba_marseille","lat":43.292724,"lon":5.401131,"is_reserved":false,"is_disabled":false,"rental_uris":{"android":"levelo://app?vid=f806ba76-ea8e-4d90-ae02-8367138c7d90","ios":"levelo://app?vid=f806ba76-ea8e-4d90-ae02-8367138c7d90"},"vehicle_type_id":"4","last_reported":1702235077,"current_range_meters":1200,"station_id":"ce4bh312rcd13ifvqdk0","pricing_plan_id":"free"},{"bike_id":"400a59c7-9ad9-4d7d-b304-5c56c8ab1352","system_id":"levelo_inurba_marseille","lat":43.29274,"lon":5.40114,"is_reserved":false,"is_disabled":false,"rental_uris":{"android":"levelo://app?vid=400a59c7-9ad9-4d7d-b304-5c56c8ab1352","ios":"levelo://app?vid=400a59c7-9ad9-4d7d-b304-5c56c8ab1352"},"vehicle_type_id":"4","last_reported":1702235077,"current_range_meters":0,"station_id":"ce4bh312rcd13ifvqdk0","pricing_plan_id":"free"},{"bike_id":"8892afcc-75a6-406a-8efb-f34202a8eab7","system_id":"levelo_inurba_marseille","lat":43.29274,"lon":5.40129,"is_reserved":false,"is_disabled":false,"rental_uris":{"android":"levelo://app?vid=8892afcc-75a6-406a-8efb-f34202a8eab7","ios":"levelo://app?vid=8892afcc-75a6-406a-8efb-f34202a8eab7"},"vehicle_type_id":"4","last_reported":1702235077,"current_range_meters":0,"station_id":"ce4bh312rcd13ifvqdk0","pricing_plan_id":"free"},{"bike_id":"abcda9e3-1980-418d-992a-1140197b04df","system_id":"levelo_inurba_marseille","lat":43.283637,"lon":5.386357,"is_reserved":false,"is_disabled":false,"rental_uris":{"android":"levelo://app?vid=abcda9e3-1980-418d-992a-1140197b04df","ios":"levelo://app?vid=abcda9e3-1980-418d-992a-1140197b04df"},"vehicle_type_id":"4","last_reported":1702235077,"current_range_meters":0,"station_id":"ce4bh492rcd13ifvqdvg","pricing_plan_id":"free"},{"bike_id":"eec56870-9a62-41e6-ac60-2575abe11d23","system_id":"levelo_inurba_marseille","lat":43.28035,"lon":5.36942,"is_reserved":false,"is_disabled":false,"rental_uris":{"android":"levelo://app?vid=eec56870-9a62-41e6-ac60-2575abe11d23","ios":"levelo://app?vid=eec56870-9a62-41e6-ac60-2575abe11d23"},"vehicle_type_id":"4","last_reported":1702235077,"current_range_meters":0,"station_id":"ce4bha12rcd13ifvqef0","pricing_plan_id":"free"},{"bike_id":"48a4d9fe-fdc0-4cd0-9ac0-baf0bd45d62b","system_id":"levelo_inurba_marseille","lat":43.28033,"lon":5.36938,"is_reserved":false,"is_disabled":false,"rental_uris":{"android":"levelo://app?vid=48a4d9fe-fdc0-4cd0-9ac0-baf0bd45d62b","ios":"levelo://app?vid=48a4d9fe-fdc0-4cd0-9ac0-baf0bd45d62b"},"vehicle_type_id":"4","last_reported":1702235077,"current_range_meters":2800,"station_id":"ce4bha12rcd13ifvqef0","pricing_plan_id":"free"},{"bike_id":"1aa67acc-12be-4634-85c5-4570a37a8ca6","system_id":"levelo_inurba_marseille","lat":43.296263,"lon":5.40601,"is_reserved":false,"is_disabled":false,"rental_uris":{"android":"levelo://app?vid=1aa67acc-12be-4634-85c5-4570a37a8ca6","ios":"levelo://app?vid=1aa67acc-12be-4634-85c5-4570a37a8ca6"},"vehicle_type_id":"4","last_reported":1702235077,"current_range_meters":7600,"station_id":"ce4bh0h2rcd13ifvqd60","pricing_plan_id":"free"},{"bike_id":"3765f817-8b7f-4f55-87c2-3dbce256f19d","system_id":"levelo_inurba_marseille","lat":43.284462,"lon":5.392121,"is_reserved":false,"is_disabled":false,"rental_uris":{"android":"levelo://app?vid=3765f817-8b7f-4f55-87c2-3dbce256f19d","ios":"levelo://app?vid=3765f817-8b7f-4f55-87c2-3dbce256f19d"},"vehicle_type_id":"4","last_reported":1702235077,"current_range_meters":11200,"station_id":"ce4bhoh2rcd13ifvqh5g","pricing_plan_id":"free"},{"bike_id":"3e2ebacb-c9e9-48bd-b5fe-b5c791911c8d","system_id":"levelo_inurba_marseille","lat":43.284462,"lon":5.392121,"is_reserved":false,"is_disabled":false,"rental_uris":{"android":"levelo://app?vid=3e2ebacb-c9e9-48bd-b5fe-b5c791911c8d","ios":"levelo://app?vid=3e2ebacb-c9e9-48bd-b5fe-b5c791911c8d"},"vehicle_type_id":"4","last_reported":1702235077,"current_range_meters":0,"station_id":"ce4bhoh2rcd13ifvqh5g","pricing_plan_id":"free"},{"bike_id":"5ee7e84f-5922-43a2-9c96-8b27c780e2f4","system_id":"levelo_inurba_marseille","lat":43.284462,"lon":5.392121,"is_reserved":false,"is_disabled":false,"rental_uris":{"android":"levelo://app?vid=5ee7e84f-5922-43a2-9c96-8b27c780e2f4","ios":"levelo://app?vid=5ee7e84f-5922-43a2-9c96-8b27c780e2f4"},"vehicle_type_id":"4","last_reported":1702235077,"current_range_meters":16400,"station_id":"ce4bhoh2rcd13ifvqh5g","pricing_plan_id":"free"},{"bike_id":"8a7a80da-d15f-4bb9-bdc4-c2aa32cc3ad1","system_id":"levelo_inurba_marseille","lat":43.304188,"lon":5.412904,"is_reserved":false,"is_disabled":false,"rental_uris":{"android":"levelo://app?vid=8a7a80da-d15f-4bb9-bdc4-c2aa32cc3ad1","ios":"levelo://app?vid=8a7a80da-d15f-4bb9-bdc4-c2aa32cc3ad1"},"vehicle_type_id":"4","last_reported":1702235077,"current_range_meters":9200,"station_id":"ce4bhop2rcd13ifvqh8g","pricing_plan_id":"free"},{"bike_id":"74e07260-28fc-43e4-8acb-2735a5efc6a0","system_id":"levelo_inurba_marseille","lat":43.265714,"lon":5.372891,"is_reserved":false,"is_disabled":false,"rental_uris":{"android":"levelo://app?vid=74e07260-28fc-43e4-8acb-2735a5efc6a0","ios":"levelo://app?vid=74e07260-28fc-43e4-8acb-2735a5efc6a0"},"vehicle_type_id":"4","last_reported":1702235077,"current_range_meters":8400,"station_id":"ce4bhg12rcd13ifvqf70","pricing_plan_id":"free"},{"bike_id":"87510c82-64b4-4f62-bd40-16f5e7f576af","system_id":"levelo_inurba_marseille","lat":43.279087,"lon":5.380114,"is_reserved":false,"is_disabled":false,"rental_uris":{"android":"levelo://app?vid=87510c82-64b4-4f62-bd40-16f5e7f576af","ios":"levelo://app?vid=87510c82-64b4-4f62-bd40-16f5e7f576af"},"vehicle_type_id":"4","last_reported":1702235077,"current_range_meters":2400,"station_id":"ce4bhf92rcd13ifvqf50","pricing_plan_id":"free"},{"bike_id":"6da20e4a-29d3-46f6-9d42-34f66f2f25f0","system_id":"levelo_inurba_marseille","lat":43.299577,"lon":5.413277,"is_reserved":false,"is_disabled":false,"rental_uris":{"android":"levelo://app?vid=6da20e4a-29d3-46f6-9d42-34f66f2f25f0","ios":"levelo://app?vid=6da20e4a-29d3-46f6-9d42-34f66f2f25f0"},"vehicle_type_id":"4","last_reported":1702235077,"current_range_meters":27600,"station_id":"ce4bhp12rcd13ifvqh9g","pricing_plan_id":"free"},{"bike_id":"8408d889-2f0c-4697-bdc2-9cc8090c15c4","system_id":"levelo_inurba_marseille","lat":43.280784,"lon":5.396622,"is_reserved":false,"is_disabled":false,"rental_uris":{"android":"levelo://app?vid=8408d889-2f0c-4697-bdc2-9cc8090c15c4","ios":"levelo://app?vid=8408d889-2f0c-4697-bdc2-9cc8090c15c4"},"vehicle_type_id":"4","last_reported":1702235077,"current_range_meters":14800,"station_id":"ce4bho12rcd13ifvqh2g","pricing_plan_id":"free"},{"bike_id":"1cad6c3b-ec15-495a-8afe-2099cfc2d3e9","system_id":"levelo_inurba_marseille","lat":43.280784,"lon":5.396622,"is_reserved":false,"is_disabled":false,"rental_uris":{"android":"levelo://app?vid=1cad6c3b-ec15-495a-8afe-2099cfc2d3e9","ios":"levelo://app?vid=1cad6c3b-ec15-495a-8afe-2099cfc2d3e9"},"vehicle_type_id":"4","last_reported":1702235077,"current_range_meters":2400,"station_id":"ce4bho12rcd13ifvqh2g","pricing_plan_id":"free"},{"bike_id":"9638eac7-dd02-4789-ae7e-65432f706640","system_id":"levelo_inurba_marseille","lat":43.280784,"lon":5.396622,"is_reserved":false,"is_disabled":false,"rental_uris":{"android":"levelo://app?vid=9638eac7-dd02-4789-ae7e-65432f706640","ios":"levelo://app?vid=9638eac7-dd02-4789-ae7e-65432f706640"},"vehicle_type_id":"4","last_reported":1702235077,"current_range_meters":25600,"station_id":"ce4bho12rcd13ifvqh2g","pricing_plan_id":"free"},{"bike_id":"1d84afc1-b075-43ea-aee3-5ea870e153c1","system_id":"levelo_inurba_marseille","lat":43.336148,"lon":5.410349,"is_reserved":false,"is_disabled":false,"rental_uris":{"android":"levelo://app?vid=1d84afc1-b075-43ea-aee3-5ea870e153c1","ios":"levelo://app?vid=1d84afc1-b075-43ea-aee3-5ea870e153c1"},"vehicle_type_id":"4","last_reported":1702235077,"current_range_meters":8800,"station_id":"ce4bhqh2rcd13ifvqhmg","pricing_plan_id":"free"},{"bike_id":"bdc02cd0-273d-410a-a6f6-f9509807fd04","system_id":"levelo_inurba_marseille","lat":43.336134,"lon":5.410341,"is_reserved":false,"is_disabled":false,"rental_uris":{"android":"levelo://app?vid=bdc02cd0-273d-410a-a6f6-f9509807fd04","ios":"levelo://app?vid=bdc02cd0-273d-410a-a6f6-f9509807fd04"},"vehicle_type_id":"4","last_reported":1702235077,"current_range_meters":21600,"station_id":"ce4bhqh2rcd13ifvqhmg","pricing_plan_id":"free"},{"bike_id":"b49195d1-5252-4b63-9ddd-c39017071e00","system_id":"levelo_inurba_marseille","lat":43.27639,"lon":5.39485,"is_reserved":false,"is_disabled":false,"rental_uris":{"android":"levelo://app?vid=b49195d1-5252-4b63-9ddd-c39017071e00","ios":"levelo://app?vid=b49195d1-5252-4b63-9ddd-c39017071e00"},"vehicle_type_id":"4","last_reported":1702235077,"current_range_meters":17600,"station_id":"","pricing_plan_id":"free"},{"bike_id":"63133364-316e-458e-b234-bbd4926c63fc","system_id":"levelo_inurba_marseille","lat":43.27583,"lon":5.39474,"is_reserved":false,"is_disabled":false,"rental_uris":{"android":"levelo://app?vid=63133364-316e-458e-b234-bbd4926c63fc","ios":"levelo://app?vid=63133364-316e-458e-b234-bbd4926c63fc"},"vehicle_type_id":"4","last_reported":1702235077,"current_range_meters":2800,"station_id":"","pricing_plan_id":"free"},{"bike_id":"dae28fca-adf6-46c5-bf30-efc4232a0e6a","system_id":"levelo_inurba_marseille","lat":43.273129,"lon":5.390725,"is_reserved":false,"is_disabled":false,"rental_uris":{"android":"levelo://app?vid=dae28fca-adf6-46c5-bf30-efc4232a0e6a","ios":"levelo://app?vid=dae28fca-adf6-46c5-bf30-efc4232a0e6a"},"vehicle_type_id":"4","last_reported":1702235077,"current_range_meters":10000,"station_id":"ce4bhgp2rcd13ifvqfe0","pricing_plan_id":"free"},{"bike_id":"ae870a7b-ef76-4fbf-b621-66ea43765260","system_id":"levelo_inurba_marseille","lat":43.295523,"lon":5.422926,"is_reserved":false,"is_disabled":false,"rental_uris":{"android":"levelo://app?vid=ae870a7b-ef76-4fbf-b621-66ea43765260","ios":"levelo://app?vid=ae870a7b-ef76-4fbf-b621-66ea43765260"},"vehicle_type_id":"4","last_reported":1702235077,"current_range_meters":8400,"station_id":"ce4bhph2rcd13ifvqhdg","pricing_plan_id":"free"},{"bike_id":"790aa083-1b5a-427a-9bce-f7efd6cf9eb4","system_id":"levelo_inurba_marseille","lat":43.295511,"lon":5.422926,"is_reserved":false,"is_disabled":false,"rental_uris":{"android":"levelo://app?vid=790aa083-1b5a-427a-9bce-f7efd6cf9eb4","ios":"levelo://app?vid=790aa083-1b5a-427a-9bce-f7efd6cf9eb4"},"vehicle_type_id":"4","last_reported":1702235077,"current_range_meters":22400,"station_id":"ce4bhph2rcd13ifvqhdg","pricing_plan_id":"free"},{"bike_id":"97e2d543-2843-4b25-a6e3-d5290337a126","system_id":"levelo_inurba_marseille","lat":43.272116,"lon":5.391747,"is_reserved":false,"is_disabled":false,"rental_uris":{"android":"levelo://app?vid=97e2d543-2843-4b25-a6e3-d5290337a126","ios":"levelo://app?vid=97e2d543-2843-4b25-a6e3-d5290337a126"},"vehicle_type_id":"4","last_reported":1702235077,"current_range_meters":19600,"station_id":"ce4bhhp2rcd13ifvqfm0","pricing_plan_id":"free"},{"bike_id":"785aa56a-d909-44d2-b33a-7c27cfa20d05","system_id":"levelo_inurba_marseille","lat":43.278128,"lon":5.407195,"is_reserved":false,"is_disabled":false,"rental_uris":{"android":"levelo://app?vid=785aa56a-d909-44d2-b33a-7c27cfa20d05","ios":"levelo://app?vid=785aa56a-d909-44d2-b33a-7c27cfa20d05"},"vehicle_type_id":"4","last_reported":1702235077,"current_range_meters":14800,"station_id":"ce4bhnh2rcd13ifvqgtg","pricing_plan_id":"free"},{"bike_id":"b97b56e0-6c5f-4636-9523-78734a8d3e3e","system_id":"levelo_inurba_marseille","lat":43.278128,"lon":5.407195,"is_reserved":false,"is_disabled":false,"rental_uris":{"android":"levelo://app?vid=b97b56e0-6c5f-4636-9523-78734a8d3e3e","ios":"levelo://app?vid=b97b56e0-6c5f-4636-9523-78734a8d3e3e"},"vehicle_type_id":"4","last_reported":1702235077,"current_range_meters":28000,"station_id":"ce4bhnh2rcd13ifvqgtg","pricing_plan_id":"free"},{"bike_id":"cc782833-78d1-4a61-b0c7-9863f91d36fc","system_id":"levelo_inurba_marseille","lat":43.278128,"lon":5.407195,"is_reserved":false,"is_disabled":false,"rental_uris":{"android":"levelo://app?vid=cc782833-78d1-4a61-b0c7-9863f91d36fc","ios":"levelo://app?vid=cc782833-78d1-4a61-b0c7-9863f91d36fc"},"vehicle_type_id":"4","last_reported":1702235077,"current_range_meters":14000,"station_id":"ce4bhnh2rcd13ifvqgtg","pricing_plan_id":"free"},{"bike_id":"1d787f7f-5f6c-4dc1-bdec-53143b6ebb0c","system_id":"levelo_inurba_marseille","lat":43.27948,"lon":5.41045,"is_reserved":false,"is_disabled":false,"rental_uris":{"android":"levelo://app?vid=1d787f7f-5f6c-4dc1-bdec-53143b6ebb0c","ios":"levelo://app?vid=1d787f7f-5f6c-4dc1-bdec-53143b6ebb0c"},"vehicle_type_id":"4","last_reported":1702235077,"current_range_meters":8400,"station_id":"ce4bhnp2rcd13ifvqh0g","pricing_plan_id":"free"},{"bike_id":"c92b2869-dae8-4727-a126-c1deb1cd64a7","system_id":"levelo_inurba_marseille","lat":43.279465,"lon":5.410561,"is_reserved":false,"is_disabled":false,"rental_uris":{"android":"levelo://app?vid=c92b2869-dae8-4727-a126-c1deb1cd64a7","ios":"levelo://app?vid=c92b2869-dae8-4727-a126-c1deb1cd64a7"},"vehicle_type_id":"4","last_reported":1702235077,"current_range_meters":18000,"station_id":"ce4bhnp2rcd13ifvqh0g","pricing_plan_id":"free"},{"bike_id":"336e1ad8-8d7e-499f-aa3d-8a0653461583","system_id":"levelo_inurba_marseille","lat":43.27904,"lon":5.41224,"is_reserved":false,"is_disabled":false,"rental_uris":{"android":"levelo://app?vid=336e1ad8-8d7e-499f-aa3d-8a0653461583","ios":"levelo://app?vid=336e1ad8-8d7e-499f-aa3d-8a0653461583"},"vehicle_type_id":"4","last_reported":1702235077,"current_range_meters":24000,"station_id":"","pricing_plan_id":"free"},{"bike_id":"287e9254-f263-4a4d-afd9-500f2b256a68","system_id":"levelo_inurba_marseille","lat":43.2616,"lon":5.37423,"is_reserved":false,"is_disabled":false,"rental_uris":{"android":"levelo://app?vid=287e9254-f263-4a4d-afd9-500f2b256a68","ios":"levelo://app?vid=287e9254-f263-4a4d-afd9-500f2b256a68"},"vehicle_type_id":"4","last_reported":1702235077,"current_range_meters":26400,"station_id":"ce4bhgp2rcd13ifvqfc0","pricing_plan_id":"free"},{"bike_id":"8dbb999f-020b-4680-92a7-f79b383a1e3a","system_id":"levelo_inurba_marseille","lat":43.262012,"lon":5.379307,"is_reserved":false,"is_disabled":false,"rental_uris":{"android":"levelo://app?vid=8dbb999f-020b-4680-92a7-f79b383a1e3a","ios":"levelo://app?vid=8dbb999f-020b-4680-92a7-f79b383a1e3a"},"vehicle_type_id":"4","last_reported":1702235077,"current_range_meters":13200,"station_id":"ce4bhjp2rcd13ifvqg90","pricing_plan_id":"free"},{"bike_id":"bba8858e-2565-4fb8-b7f5-1043d9f538d1","system_id":"levelo_inurba_marseille","lat":43.298768,"lon":5.43643,"is_reserved":false,"is_disabled":false,"rental_uris":{"android":"levelo://app?vid=bba8858e-2565-4fb8-b7f5-1043d9f538d1","ios":"levelo://app?vid=bba8858e-2565-4fb8-b7f5-1043d9f538d1"},"vehicle_type_id":"4","last_reported":1702235077,"current_range_meters":18800,"station_id":"ce4bhpp2rcd13ifvqhfg","pricing_plan_id":"free"},{"bike_id":"3de0a6a1-4453-486c-a1ba-fc284c4c0e2c","system_id":"levelo_inurba_marseille","lat":43.298768,"lon":5.43643,"is_reserved":false,"is_disabled":false,"rental_uris":{"android":"levelo://app?vid=3de0a6a1-4453-486c-a1ba-fc284c4c0e2c","ios":"levelo://app?vid=3de0a6a1-4453-486c-a1ba-fc284c4c0e2c"},"vehicle_type_id":"4","last_reported":1702235077,"current_range_meters":21200,"station_id":"ce4bhpp2rcd13ifvqhfg","pricing_plan_id":"free"},{"bike_id":"1316559d-09bb-47a0-acd5-c23c83976b68","system_id":"levelo_inurba_marseille","lat":43.281548,"lon":5.42643,"is_reserved":false,"is_disabled":false,"rental_uris":{"android":"levelo://app?vid=1316559d-09bb-47a0-acd5-c23c83976b68","ios":"levelo://app?vid=1316559d-09bb-47a0-acd5-c23c83976b68"},"vehicle_type_id":"4","last_reported":1702235077,"current_range_meters":6000,"station_id":"ce4bhnh2rcd13ifvqgug","pricing_plan_id":"free"},{"bike_id":"565786fa-eb1c-4c71-9970-60c79fca54bc","system_id":"levelo_inurba_marseille","lat":43.281548,"lon":5.42643,"is_reserved":false,"is_disabled":false,"rental_uris":{"android":"levelo://app?vid=565786fa-eb1c-4c71-9970-60c79fca54bc","ios":"levelo://app?vid=565786fa-eb1c-4c71-9970-60c79fca54bc"},"vehicle_type_id":"4","last_reported":1702235077,"current_range_meters":9200,"station_id":"ce4bhnh2rcd13ifvqgug","pricing_plan_id":"free"},{"bike_id":"90188d6f-a681-4a1a-8d65-fe11addc178e","system_id":"levelo_inurba_marseille","lat":43.260652,"lon":5.393914,"is_reserved":false,"is_disabled":false,"rental_uris":{"android":"levelo://app?vid=90188d6f-a681-4a1a-8d65-fe11addc178e","ios":"levelo://app?vid=90188d6f-a681-4a1a-8d65-fe11addc178e"},"vehicle_type_id":"4","last_reported":1702235077,"current_range_meters":0,"station_id":"ce4bhh92rcd13ifvqfj0","pricing_plan_id":"free"},{"bike_id":"a38287b8-7fab-4730-8fbc-8367f48784f6","system_id":"levelo_inurba_marseille","lat":43.2607,"lon":5.393983,"is_reserved":false,"is_disabled":false,"rental_uris":{"android":"levelo://app?vid=a38287b8-7fab-4730-8fbc-8367f48784f6","ios":"levelo://app?vid=a38287b8-7fab-4730-8fbc-8367f48784f6"},"vehicle_type_id":"4","last_reported":1702235077,"current_range_meters":18800,"station_id":"ce4bhh92rcd13ifvqfj0","pricing_plan_id":"free"},{"bike_id":"6eefbccc-1e0f-4be9-b68a-4f55baa21452","system_id":"levelo_inurba_marseille","lat":43.2607,"lon":5.393983,"is_reserved":false,"is_disabled":false,"rental_uris":{"android":"levelo://app?vid=6eefbccc-1e0f-4be9-b68a-4f55baa21452","ios":"levelo://app?vid=6eefbccc-1e0f-4be9-b68a-4f55baa21452"},"vehicle_type_id":"4","last_reported":1702235077,"current_range_meters":16400,"station_id":"ce4bhh92rcd13ifvqfj0","pricing_plan_id":"free"},{"bike_id":"911862de-4921-4af8-99fc-8adbf071a664","system_id":"levelo_inurba_marseille","lat":43.2607,"lon":5.393983,"is_reserved":false,"is_disabled":false,"rental_uris":{"android":"levelo://app?vid=911862de-4921-4af8-99fc-8adbf071a664","ios":"levelo://app?vid=911862de-4921-4af8-99fc-8adbf071a664"},"vehicle_type_id":"4","last_reported":1702235077,"current_range_meters":4800,"station_id":"ce4bhh92rcd13ifvqfj0","pricing_plan_id":"free"},{"bike_id":"08f73c99-b806-4355-a545-d3dafd7c350e","system_id":"levelo_inurba_marseille","lat":43.270721,"lon":5.422764,"is_reserved":false,"is_disabled":false,"rental_uris":{"android":"levelo://app?vid=08f73c99-b806-4355-a545-d3dafd7c350e","ios":"levelo://app?vid=08f73c99-b806-4355-a545-d3dafd7c350e"},"vehicle_type_id":"4","last_reported":1702235077,"current_range_meters":20800,"station_id":"ce4bhk92rcd13ifvqgb0","pricing_plan_id":"free"},{"bike_id":"d7f65ed6-0c4b-4261-b851-317c487999dc","system_id":"levelo_inurba_marseille","lat":43.255079,"lon":5.376457,"is_reserved":false,"is_disabled":false,"rental_uris":{"android":"levelo://app?vid=d7f65ed6-0c4b-4261-b851-317c487999dc","ios":"levelo://app?vid=d7f65ed6-0c4b-4261-b851-317c487999dc"},"vehicle_type_id":"4","last_reported":1702235077,"current_range_meters":22000,"station_id":"ce4bhh12rcd13ifvqff0","pricing_plan_id":"free"},{"bike_id":"b4408aed-a663-49ff-a72e-60a86d2103cd","system_id":"levelo_inurba_marseille","lat":43.25929,"lon":5.40919,"is_reserved":false,"is_disabled":false,"rental_uris":{"android":"levelo://app?vid=b4408aed-a663-49ff-a72e-60a86d2103cd","ios":"levelo://app?vid=b4408aed-a663-49ff-a72e-60a86d2103cd"},"vehicle_type_id":"4","last_reported":1702235077,"current_range_meters":2800,"station_id":"ce4bhm92rcd13ifvqglg","pricing_plan_id":"free"},{"bike_id":"12cad532-059e-430e-8687-280170c85cfb","system_id":"levelo_inurba_marseille","lat":43.257079,"lon":5.411051,"is_reserved":false,"is_disabled":false,"rental_uris":{"android":"levelo://app?vid=12cad532-059e-430e-8687-280170c85cfb","ios":"levelo://app?vid=12cad532-059e-430e-8687-280170c85cfb"},"vehicle_type_id":"4","last_reported":1702235077,"current_range_meters":20400,"station_id":"ce4bhkp2rcd13ifvqgd0","pricing_plan_id":"free"},{"bike_id":"53637d02-cb32-49a6-ab6d-29d69306aed3","system_id":"levelo_inurba_marseille","lat":43.257079,"lon":5.411051,"is_reserved":false,"is_disabled":false,"rental_uris":{"android":"levelo://app?vid=53637d02-cb32-49a6-ab6d-29d69306aed3","ios":"levelo://app?vid=53637d02-cb32-49a6-ab6d-29d69306aed3"},"vehicle_type_id":"4","last_reported":1702235077,"current_range_meters":1200,"station_id":"ce4bhkp2rcd13ifvqgd0","pricing_plan_id":"free"},{"bike_id":"548bdd7c-bb01-4420-a166-3de6bf59d824","system_id":"levelo_inurba_marseille","lat":43.25709,"lon":5.41122,"is_reserved":false,"is_disabled":false,"rental_uris":{"android":"levelo://app?vid=548bdd7c-bb01-4420-a166-3de6bf59d824","ios":"levelo://app?vid=548bdd7c-bb01-4420-a166-3de6bf59d824"},"vehicle_type_id":"4","last_reported":1702235077,"current_range_meters":22000,"station_id":"ce4bhkp2rcd13ifvqgd0","pricing_plan_id":"free"},{"bike_id":"e2cf6bb9-5114-4621-9f5c-52d2e7252895","system_id":"levelo_inurba_marseille","lat":43.29367,"lon":5.45153,"is_reserved":false,"is_disabled":false,"rental_uris":{"android":"levelo://app?vid=e2cf6bb9-5114-4621-9f5c-52d2e7252895","ios":"levelo://app?vid=e2cf6bb9-5114-4621-9f5c-52d2e7252895"},"vehicle_type_id":"4","last_reported":1702235077,"current_range_meters":14400,"station_id":"","pricing_plan_id":"free"},{"bike_id":"e0eb6ebe-eca6-45f6-a068-57b3a31075c3","system_id":"levelo_inurba_marseille","lat":43.24811,"lon":5.37456,"is_reserved":false,"is_disabled":false,"rental_uris":{"android":"levelo://app?vid=e0eb6ebe-eca6-45f6-a068-57b3a31075c3","ios":"levelo://app?vid=e0eb6ebe-eca6-45f6-a068-57b3a31075c3"},"vehicle_type_id":"4","last_reported":1702235077,"current_range_meters":6800,"station_id":"ce4bhgh2rcd13ifvqfb0","pricing_plan_id":"free"},{"bike_id":"c58abba1-0886-4999-83b4-5808f55ca642","system_id":"levelo_inurba_marseille","lat":43.2479,"lon":5.374457,"is_reserved":false,"is_disabled":false,"rental_uris":{"android":"levelo://app?vid=c58abba1-0886-4999-83b4-5808f55ca642","ios":"levelo://app?vid=c58abba1-0886-4999-83b4-5808f55ca642"},"vehicle_type_id":"4","last_reported":1702235077,"current_range_meters":22400,"station_id":"ce4bhgh2rcd13ifvqfb0","pricing_plan_id":"free"},{"bike_id":"4867676c-a574-4e40-95d6-692517aa9817","system_id":"levelo_inurba_marseille","lat":43.24805,"lon":5.37455,"is_reserved":false,"is_disabled":false,"rental_uris":{"android":"levelo://app?vid=4867676c-a574-4e40-95d6-692517aa9817","ios":"levelo://app?vid=4867676c-a574-4e40-95d6-692517aa9817"},"vehicle_type_id":"4","last_reported":1702235077,"current_range_meters":25600,"station_id":"ce4bhgh2rcd13ifvqfb0","pricing_plan_id":"free"},{"bike_id":"7d160669-bdc8-487a-955a-10cd0b46ab01","system_id":"levelo_inurba_marseille","lat":43.24802,"lon":5.37454,"is_reserved":false,"is_disabled":false,"rental_uris":{"android":"levelo://app?vid=7d160669-bdc8-487a-955a-10cd0b46ab01","ios":"levelo://app?vid=7d160669-bdc8-487a-955a-10cd0b46ab01"},"vehicle_type_id":"4","last_reported":1702235077,"current_range_meters":16400,"station_id":"ce4bhgh2rcd13ifvqfb0","pricing_plan_id":"free"},{"bike_id":"6c841a86-0db3-43df-89cd-8d77eefd74e9","system_id":"levelo_inurba_marseille","lat":43.250966,"lon":5.395186,"is_reserved":false,"is_disabled":false,"rental_uris":{"android":"levelo://app?vid=6c841a86-0db3-43df-89cd-8d77eefd74e9","ios":"levelo://app?vid=6c841a86-0db3-43df-89cd-8d77eefd74e9"},"vehicle_type_id":"4","last_reported":1702235077,"current_range_meters":7600,"station_id":"ce4bhm12rcd13ifvqgkg","pricing_plan_id":"free"},{"bike_id":"5c6aa57d-c59f-47ab-b0d0-95675cb23210","system_id":"levelo_inurba_marseille","lat":43.24693,"lon":5.382096,"is_reserved":false,"is_disabled":false,"rental_uris":{"android":"levelo://app?vid=5c6aa57d-c59f-47ab-b0d0-95675cb23210","ios":"levelo://app?vid=5c6aa57d-c59f-47ab-b0d0-95675cb23210"},"vehicle_type_id":"4","last_reported":1702235077,"current_range_meters":12000,"station_id":"ce4bhih2rcd13ifvqfr0","pricing_plan_id":"free"},{"bike_id":"c57c9004-fa75-4a3c-a17b-542a0fac4e37","system_id":"levelo_inurba_marseille","lat":43.25124,"lon":5.40326,"is_reserved":false,"is_disabled":false,"rental_uris":{"android":"levelo://app?vid=c57c9004-fa75-4a3c-a17b-542a0fac4e37","ios":"levelo://app?vid=c57c9004-fa75-4a3c-a17b-542a0fac4e37"},"vehicle_type_id":"4","last_reported":1702235077,"current_range_meters":24400,"station_id":"ce4bhlh2rcd13ifvqgig","pricing_plan_id":"free"},{"bike_id":"1bb1c2bd-88e3-4f08-b197-73160dca12b7","system_id":"levelo_inurba_marseille","lat":43.25102,"lon":5.403214,"is_reserved":false,"is_disabled":false,"rental_uris":{"android":"levelo://app?vid=1bb1c2bd-88e3-4f08-b197-73160dca12b7","ios":"levelo://app?vid=1bb1c2bd-88e3-4f08-b197-73160dca12b7"},"vehicle_type_id":"4","last_reported":1702235077,"current_range_meters":10400,"station_id":"ce4bhlh2rcd13ifvqgig","pricing_plan_id":"free"},{"bike_id":"603235a1-47b9-4d16-9b43-d3737049dd3a","system_id":"levelo_inurba_marseille","lat":43.25102,"lon":5.403214,"is_reserved":false,"is_disabled":false,"rental_uris":{"android":"levelo://app?vid=603235a1-47b9-4d16-9b43-d3737049dd3a","ios":"levelo://app?vid=603235a1-47b9-4d16-9b43-d3737049dd3a"},"vehicle_type_id":"4","last_reported":1702235077,"current_range_meters":3200,"station_id":"ce4bhlh2rcd13ifvqgig","pricing_plan_id":"free"},{"bike_id":"69b9cdce-31ed-4505-8f89-b401101a17a1","system_id":"levelo_inurba_marseille","lat":43.25102,"lon":5.403214,"is_reserved":false,"is_disabled":false,"rental_uris":{"android":"levelo://app?vid=69b9cdce-31ed-4505-8f89-b401101a17a1","ios":"levelo://app?vid=69b9cdce-31ed-4505-8f89-b401101a17a1"},"vehicle_type_id":"4","last_reported":1702235077,"current_range_meters":12000,"station_id":"ce4bhlh2rcd13ifvqgig","pricing_plan_id":"free"},{"bike_id":"11869ed4-6484-4284-9616-3cde02eee067","system_id":"levelo_inurba_marseille","lat":43.246461,"lon":5.389014,"is_reserved":false,"is_disabled":false,"rental_uris":{"android":"levelo://app?vid=11869ed4-6484-4284-9616-3cde02eee067","ios":"levelo://app?vid=11869ed4-6484-4284-9616-3cde02eee067"},"vehicle_type_id":"4","last_reported":1702235077,"current_range_meters":30000,"station_id":"ce4bhg12rcd13ifvqf60","pricing_plan_id":"free"},{"bike_id":"ee008d9b-8a37-44e7-953c-0c02ed43a701","system_id":"levelo_inurba_marseille","lat":43.246467,"lon":5.388984,"is_reserved":false,"is_disabled":false,"rental_uris":{"android":"levelo://app?vid=ee008d9b-8a37-44e7-953c-0c02ed43a701","ios":"levelo://app?vid=ee008d9b-8a37-44e7-953c-0c02ed43a701"},"vehicle_type_id":"4","last_reported":1702235077,"current_range_meters":16400,"station_id":"ce4bhg12rcd13ifvqf60","pricing_plan_id":"free"},{"bike_id":"e99f7d5f-12a1-4131-b431-e9a618fefa83","system_id":"levelo_inurba_marseille","lat":43.243884,"lon":5.370736,"is_reserved":false,"is_disabled":false,"rental_uris":{"android":"levelo://app?vid=e99f7d5f-12a1-4131-b431-e9a618fefa83","ios":"levelo://app?vid=e99f7d5f-12a1-4131-b431-e9a618fefa83"},"vehicle_type_id":"4","last_reported":1702235077,"current_range_meters":13200,"station_id":"ce4bhhh2rcd13ifvqfk0","pricing_plan_id":"free"}]}}