{"last_updated":1702656562,"ttl":30,"version":"2.2","data":{"bikes":[{"bike_id":"3b4f8d2a-7a67-4a41-a415-b4cc1b2ed42f","system_id":"levelo_inurba_marseille","lat":43.314811,"lon":5.373104,"is_reserved":false,"is_disabled":false,"rental_uris":{"android":"levelo://app?vid=3b4f8d2a-7a67-4a41-a415-b4cc1b2ed42f","ios":"levelo://app?vid=3b4f8d2a-7a67-4a41-a415-b4cc1b2ed42f"},"vehicle_type_id":"4","last_reported":1702656562,"current_range_meters":16800,"station_id":"ce4bgt12rcd13ifvqcd0","pricing_plan_id":"free"},{"bike_id":"541b9996-6ecd-494b-822d-ca50aa66b566","system_id":"levelo_inurba_marseille","lat":43.309039,"lon":5.371797,"is_reserved":false,"is_disabled":false,"rental_uris":{"android":"levelo://app?vid=541b9996-6ecd-494b-822d-ca50aa66b566","ios":"levelo://app?vid=541b9996-6ecd-494b-822d-ca50aa66b566"},"vehicle_type_id":"4","last_reported":1702656562,"current_range_meters":7600,"station_id":"ce4bguh2rcd13ifvqckg","pricing_plan_id":"free"},{"bike_id":"481ca7a1-b3b1-4535-9c12-9a70b94a5f84","system_id":"levelo_inurba_marseille","lat":43.309039,"lon":5.371797,"is_reserved":false,"is_disabled":false,"rental_uris":{"android":"levelo://app?vid=481ca7a1-b3b1-4535-9c12-9a70b94a5f84","ios":"levelo://app?vid=481ca7a1-b3b1-4535-9c12-9a70b94a5f84"},"vehicle_type_id":"4","last_reported":1702656562,"current_range_meters":29600,"station_id":"ce4bguh2rcd13ifvqckg","pricing_plan_id":"free"},{"bike_id":"c9479779-39c3-4b23-8726-b60eebfd3495","system_id":"levelo_inurba_marseille","lat":43.309039,"lon":5.371797,"is_reserved":false,"is_disabled":false,"rental_uris":{"android":"levelo://app?vid=c9479779-39c3-4b23-8726-b60eebfd3495","ios":"levelo://app?vid=c9479779-39c3-4b23-8726-b60eebfd3495"},"vehicle_type_id":"4","last_reported":1702656562,"current_range_meters":7200,"station_id":"ce4bguh2rcd13ifvqckg","pricing_plan_id":"free"},{"bike_id":"3f8b821f-e430-4a35-bf14-f8b6e777ea11","system_id":"levelo_inurba_marseille","lat":43.313939,"lon":5.375306,"is_reserved":false,"is_disabled":false,"rental_uris":{"android":"levelo://app?vid=3f8b821f-e430-4a35-bf14-f8b6e777ea11","ios":"levelo://app?vid=3f8b821f-e430-4a35-bf14-f8b6e777ea11"},"vehicle_type_id":"4","last_reported":1702656562,"current_range_meters":0,"station_id":"","pricing_plan_id":"free"},{"bike_id":"27ae39b0-2d05-4dc3-a1d3-1c0b79335ee9","system_id":"levelo_inurba_marseille","lat":43.305368,"lon":5.367343,"is_reserved":false,"is_disabled":false,"rental_uris":{"android":"levelo://app?vid=27ae39b0-2d05-4dc3-a1d3-1c0b79335ee9","ios":"levelo://app?vid=27ae39b0-2d05-4dc3-a1d3-1c0b79335ee9"},"vehicle_type_id":"4","last_reported":1702656562,"current_range_meters":30400,"station_id":"ce4bgrp2rcd13ifvqc9g","pricing_plan_id":"free"},{"bike_id":"955e4ab2-16e5-44e8-a986-a2f50ff96c06","system_id":"levelo_inurba_marseille","lat":43.305382,"lon":5.365389,"is_reserved":false,"is_disabled":false,"rental_uris":{"android":"levelo://app?vid=955e4ab2-16e5-44e8-a986-a2f50ff96c06","ios":"levelo://app?vid=955e4ab2-16e5-44e8-a986-a2f50ff96c06"},"vehicle_type_id":"4","last_reported":1702656562,"current_range_meters":18800,"station_id":"","pricing_plan_id":"free"},{"bike_id":"0f778cab-de0b-49c1-a4b5-b4931c9d3948","system_id":"levelo_inurba_marseille","lat":43.311131,"lon":5.377651,"is_reserved":false,"is_disabled":false,"rental_uris":{"android":"levelo://app?vid=0f778cab-de0b-49c1-a4b5-b4931c9d3948","ios":"levelo://app?vid=0f778cab-de0b-49c1-a4b5-b4931c9d3948"},"vehicle_type_id":"4","last_reported":1702656562,"current_range_meters":25200,"station_id":"ce4bgt92rcd13ifvqcg0","pricing_plan_id":"free"},{"bike_id":"8da8124b-57ee-4d8c-a206-8bb9b449edb7","system_id":"levelo_inurba_marseille","lat":43.31125,"lon":5.37768,"is_reserved":false,"is_disabled":false,"rental_uris":{"android":"levelo://app?vid=8da8124b-57ee-4d8c-a206-8bb9b449edb7","ios":"levelo://app?vid=8da8124b-57ee-4d8c-a206-8bb9b449edb7"},"vehicle_type_id":"4","last_reported":1702656562,"current_range_meters":24000,"station_id":"ce4bgt92rcd13ifvqcg0","pricing_plan_id":"free"},{"bike_id":"a9fb6b41-0705-4ada-87e8-821d7c14d075","system_id":"levelo_inurba_marseille","lat":43.311131,"lon":5.377651,"is_reserved":false,"is_disabled":false,"rental_uris":{"android":"levelo://app?vid=a9fb6b41-0705-4ada-87e8-821d7c14d075","ios":"levelo://app?vid=a9fb6b41-0705-4ada-87e8-821d7c14d075"},"vehicle_type_id":"4","last_reported":1702656562,"current_range_meters":16400,"station_id":"ce4bgt92rcd13ifvqcg0","pricing_plan_id":"free"},{"bike_id":"71c601da-0203-478c-a7c8-63f1c683fe0f","system_id":"levelo_inurba_marseille","lat":43.311125,"lon":5.377624,"is_reserved":false,"is_disabled":false,"rental_uris":{"android":"levelo://app?vid=71c601da-0203-478c-a7c8-63f1c683fe0f","ios":"levelo://app?vid=71c601da-0203-478c-a7c8-63f1c683fe0f"},"vehicle_type_id":"4","last_reported":1702656562,"current_range_meters":28000,"station_id":"ce4bgt92rcd13ifvqcg0","pricing_plan_id":"free"},{"bike_id":"181f0090-699e-48a9-ad85-054e7cbbc19e","system_id":"levelo_inurba_marseille","lat":43.31114,"lon":5.37774,"is_reserved":false,"is_disabled":false,"rental_uris":{"android":"levelo://app?vid=181f0090-699e-48a9-ad85-054e7cbbc19e","ios":"levelo://app?vid=181f0090-699e-48a9-ad85-054e7cbbc19e"},"vehicle_type_id":"4","last_reported":1702656562,"current_range_meters":23600,"station_id":"ce4bgt92rcd13ifvqcg0","pricing_plan_id":"free"},{"bike_id":"26fc07da-f5a0-4bee-86e5-88b8e61dbf2d","system_id":"levelo_inurba_marseille","lat":43.31118,"lon":5.3778,"is_reserved":false,"is_disabled":false,"rental_uris":{"android":"levelo://app?vid=26fc07da-f5a0-4bee-86e5-88b8e61dbf2d","ios":"levelo://app?vid=26fc07da-f5a0-4bee-86e5-88b8e61dbf2d"},"vehicle_type_id":"4","last_reported":1702656562,"current_range_meters":26400,"station_id":"ce4bgt92rcd13ifvqcg0","pricing_plan_id":"free"},{"bike_id":"0c1969d2-5d1a-4bda-bcb2-8adf5bc8c42c","system_id":"levelo_inurba_marseille","lat":43.307945,"lon":5.376487,"is_reserved":false,"is_disabled":false,"rental_uris":{"android":"levelo://app?vid=0c1969d2-5d1a-4bda-bcb2-8adf5bc8c42c","ios":"levelo://app?vid=0c1969d2-5d1a-4bda-bcb2-8adf5bc8c42c"},"vehicle_type_id":"4","last_reported":1702656562,"current_range_meters":30000,"station_id":"ce4bgv92rcd13ifvqcq0","pricing_plan_id":"free"},{"bike_id":"4e234ef3-eb1b-4176-9242-2583e0d52fbd","system_id":"levelo_inurba_marseille","lat":43.317075,"lon":5.377367,"is_reserved":false,"is_disabled":false,"rental_uris":{"android":"levelo://app?vid=4e234ef3-eb1b-4176-9242-2583e0d52fbd","ios":"levelo://app?vid=4e234ef3-eb1b-4176-9242-2583e0d52fbd"},"vehicle_type_id":"4","last_reported":1702656562,"current_range_meters":20400,"station_id":"ce4bgth2rcd13ifvqch0","pricing_plan_id":"free"},{"bike_id":"a7109942-972e-4e8c-9cec-56d56c6f2ec6","system_id":"levelo_inurba_marseille","lat":43.317075,"lon":5.377367,"is_reserved":false,"is_disabled":false,"rental_uris":{"android":"levelo://app?vid=a7109942-972e-4e8c-9cec-56d56c6f2ec6","ios":"levelo://app?vid=a7109942-972e-4e8c-9cec-56d56c6f2ec6"},"vehicle_type_id":"4","last_reported":1702656562,"current_range_meters":30000,"station_id":"ce4bgth2rcd13ifvqch0","pricing_plan_id":"free"},{"bike_id":"7d2e2926-95e5-4718-8e3d-021250b989f7","system_id":"levelo_inurba_marseille","lat":43.317075,"lon":5.377367,"is_reserved":false,"is_disabled":false,"rental_uris":{"android":"levelo://app?vid=7d2e2926-95e5-4718-8e3d-021250b989f7","ios":"levelo://app?vid=7d2e2926-95e5-4718-8e3d-021250b989f7"},"vehicle_type_id":"4","last_reported":1702656562,"current_range_meters":18000,"station_id":"ce4bgth2rcd13ifvqch0","pricing_plan_id":"free"},{"bike_id":"b92ea576-d5b0-4943-ad41-df2b9b8cdbcf","system_id":"levelo_inurba_marseille","lat":43.317075,"lon":5.377367,"is_reserved":false,"is_disabled":false,"rental_uris":{"android":"levelo://app?vid=b92ea576-d5b0-4943-ad41-df2b9b8cdbcf","ios":"levelo://app?vid=b92ea576-d5b0-4943-ad41-df2b9b8cdbcf"},"vehicle_type_id":"4","last_reported":1702656562,"current_range_meters":31200,"station_id":"ce4bgth2rcd13ifvqch0","pricing_plan_id":"free"},{"bike_id":"112889bc-8d0f-431d-9767-314715ea602b","system_id":"levelo_inurba_marseille","lat":43.315433,"lon":5.380273,"is_reserved":false,"is_disabled":false,"rental_uris":{"android":"levelo://app?vid=112889bc-8d0f-431d-9767-314715ea602b","ios":"levelo://app?vid=112889bc-8d0f-431d-9767-314715ea602b"},"vehicle_type_id":"4","last_reported":1702656562,"current_range_meters":19600,"station_id":"ce4bhsp2rcd13ifvqi50","pricing_plan_id":"free"},{"bike_id":"c8f257ae-2a42-4946-bc02-91886939de06","system_id":"levelo_inurba_marseille","lat":43.308012,"lon":5.381511,"is_reserved":false,"is_disabled":false,"rental_uris":{"android":"levelo://app?vid=c8f257ae-2a42-4946-bc02-91886939de06","ios":"levelo://app?vid=c8f257ae-2a42-4946-bc02-91886939de06"},"vehicle_type_id":"4","last_reported":1702656562,"current_range_meters":7200,"station_id":"ce4bgt12rcd13ifvqce0","pricing_plan_id":"free"},{"bike_id":"f95bed81-0c35-465b-a536-bf2998a7e879","system_id":"levelo_inurba_marseille","lat":43.308012,"lon":5.381511,"is_reserved":false,"is_disabled":false,"rental_uris":{"android":"levelo://app?vid=f95bed81-0c35-465b-a536-bf2998a7e879","ios":"levelo://app?vid=f95bed81-0c35-465b-a536-bf2998a7e879"},"vehicle_type_id":"4","last_reported":1702656562,"current_range_meters":16000,"station_id":"ce4bgt12rcd13ifvqce0","pricing_plan_id":"free"},{"bike_id":"a87e50ca-de85-4432-8626-11ee95a440a4","system_id":"levelo_inurba_marseille","lat":43.30464,"lon":5.379,"is_reserved":false,"is_disabled":false,"rental_uris":{"android":"levelo://app?vid=a87e50ca-de85-4432-8626-11ee95a440a4","ios":"levelo://app?vid=a87e50ca-de85-4432-8626-11ee95a440a4"},"vehicle_type_id":"4","last_reported":1702656562,"current_range_meters":30800,"station_id":"ce4bgup2rcd13ifvqcn0","pricing_plan_id":"free"},{"bike_id":"51e8685f-0218-4a74-a278-e372b75756b5","system_id":"levelo_inurba_marseille","lat":43.304606,"lon":5.379026,"is_reserved":false,"is_disabled":false,"rental_uris":{"android":"levelo://app?vid=51e8685f-0218-4a74-a278-e372b75756b5","ios":"levelo://app?vid=51e8685f-0218-4a74-a278-e372b75756b5"},"vehicle_type_id":"4","last_reported":1702656562,"current_range_meters":6800,"station_id":"ce4bgup2rcd13ifvqcn0","pricing_plan_id":"free"},{"bike_id":"4265c6ff-7e79-4ea1-921d-0e654ddba6aa","system_id":"levelo_inurba_marseille","lat":43.324771,"lon":5.36557,"is_reserved":false,"is_disabled":false,"rental_uris":{"android":"levelo://app?vid=4265c6ff-7e79-4ea1-921d-0e654ddba6aa","ios":"levelo://app?vid=4265c6ff-7e79-4ea1-921d-0e654ddba6aa"},"vehicle_type_id":"4","last_reported":1702656562,"current_range_meters":19200,"station_id":"ce4bhs12rcd13ifvqhvg","pricing_plan_id":"free"},{"bike_id":"88f7ea2a-62f7-4a88-9e9d-900940b4d7e5","system_id":"levelo_inurba_marseille","lat":43.324811,"lon":5.365513,"is_reserved":false,"is_disabled":false,"rental_uris":{"android":"levelo://app?vid=88f7ea2a-62f7-4a88-9e9d-900940b4d7e5","ios":"levelo://app?vid=88f7ea2a-62f7-4a88-9e9d-900940b4d7e5"},"vehicle_type_id":"4","last_reported":1702656562,"current_range_meters":20000,"station_id":"ce4bhs12rcd13ifvqhvg","pricing_plan_id":"free"},{"bike_id":"7fd40965-65ed-4127-ab75-0a982225b29e","system_id":"levelo_inurba_marseille","lat":43.3014,"lon":5.37415,"is_reserved":false,"is_disabled":false,"rental_uris":{"android":"levelo://app?vid=7fd40965-65ed-4127-ab75-0a982225b29e","ios":"levelo://app?vid=7fd40965-65ed-4127-ab75-0a982225b29e"},"vehicle_type_id":"4","last_reported":1702656562,"current_range_meters":0,"station_id":"ce4bgs92rcd13ifvqcc0","pricing_plan_id":"free"},{"bike_id":"7ef46bd8-1645-478a-86cd-7fa2de5cc663","system_id":"levelo_inurba_marseille","lat":43.302784,"lon":5.377158,"is_reserved":false,"is_disabled":false,"rental_uris":{"android":"levelo://app?vid=7ef46bd8-1645-478a-86cd-7fa2de5cc663","ios":"levelo://app?vid=7ef46bd8-1645-478a-86cd-7fa2de5cc663"},"vehicle_type_id":"4","last_reported":1702656562,"current_range_meters":11600,"station_id":"ce4bguh2rcd13ifvqcj0","pricing_plan_id":"free"},{"bike_id":"70f646d8-366a-42cc-930a-2c0f0078dff4","system_id":"levelo_inurba_marseille","lat":43.319935,"lon":5.381699,"is_reserved":false,"is_disabled":false,"rental_uris":{"android":"levelo://app?vid=70f646d8-366a-42cc-930a-2c0f0078dff4","ios":"levelo://app?vid=70f646d8-366a-42cc-930a-2c0f0078dff4"},"vehicle_type_id":"4","last_reported":1702656562,"current_range_meters":11600,"station_id":"ce4bhr12rcd13ifvqhpg","pricing_plan_id":"free"},{"bike_id":"b488d795-a176-4a91-aeea-172913b02a6a","system_id":"levelo_inurba_marseille","lat":43.299724,"lon":5.371829,"is_reserved":false,"is_disabled":false,"rental_uris":{"android":"levelo://app?vid=b488d795-a176-4a91-aeea-172913b02a6a","ios":"levelo://app?vid=b488d795-a176-4a91-aeea-172913b02a6a"},"vehicle_type_id":"4","last_reported":1702656562,"current_range_meters":26800,"station_id":"ce4bgr92rcd13ifvqc7g","pricing_plan_id":"free"},{"bike_id":"bc55e633-4d5b-4d00-bd42-05a60b3db6a2","system_id":"levelo_inurba_marseille","lat":43.299724,"lon":5.371829,"is_reserved":false,"is_disabled":false,"rental_uris":{"android":"levelo://app?vid=bc55e633-4d5b-4d00-bd42-05a60b3db6a2","ios":"levelo://app?vid=bc55e633-4d5b-4d00-bd42-05a60b3db6a2"},"vehicle_type_id":"4","last_reported":1702656562,"current_range_meters":24000,"station_id":"ce4bgr92rcd13ifvqc7g","pricing_plan_id":"free"},{"bike_id":"039169a5-ce3e-4927-9308-bccb54a7ae78","system_id":"levelo_inurba_marseille","lat":43.299724,"lon":5.371829,"is_reserved":false,"is_disabled":false,"rental_uris":{"android":"levelo://app?vid=039169a5-ce3e-4927-9308-bccb54a7ae78","ios":"levelo://app?vid=039169a5-ce3e-4927-9308-bccb54a7ae78"},"vehicle_type_id":"4","last_reported":1702656562,"current_range_meters":2800,"station_id":"ce4bgr92rcd13ifvqc7g","pricing_plan_id":"free"},{"bike_id":"514dade4-c499-44d8-88ea-01eec5131c91","system_id":"levelo_inurba_marseille","lat":43.317557,"lon":5.390173,"is_reserved":false,"is_disabled":false,"rental_uris":{"android":"levelo://app?vid=514dade4-c499-44d8-88ea-01eec5131c91","ios":"levelo://app?vid=514dade4-c499-44d8-88ea-01eec5131c91"},"vehicle_type_id":"4","last_reported":1702656562,"current_range_meters":16400,"station_id":"ce4bhqp2rcd13ifvqhng","pricing_plan_id":"free"},{"bike_id":"8f718f01-0df4-4851-8f09-4ef22f6b5067","system_id":"levelo_inurba_marseille","lat":43.298433,"lon":5.362774,"is_reserved":false,"is_disabled":false,"rental_uris":{"android":"levelo://app?vid=8f718f01-0df4-4851-8f09-4ef22f6b5067","ios":"levelo://app?vid=8f718f01-0df4-4851-8f09-4ef22f6b5067"},"vehicle_type_id":"4","last_reported":1702656562,"current_range_meters":21200,"station_id":"ce4bgpp2rcd13ifvqc3g","pricing_plan_id":"free"},{"bike_id":"c4e77394-aef9-4077-b745-e99148625344","system_id":"levelo_inurba_marseille","lat":43.32733,"lon":5.36707,"is_reserved":false,"is_disabled":false,"rental_uris":{"android":"levelo://app?vid=c4e77394-aef9-4077-b745-e99148625344","ios":"levelo://app?vid=c4e77394-aef9-4077-b745-e99148625344"},"vehicle_type_id":"4","last_reported":1702656562,"current_range_meters":26000,"station_id":"","pricing_plan_id":"free"},{"bike_id":"3fe9069d-30a3-4670-9d1b-86a5d1b888d9","system_id":"levelo_inurba_marseille","lat":43.299243,"lon":5.37481,"is_reserved":false,"is_disabled":false,"rental_uris":{"android":"levelo://app?vid=3fe9069d-30a3-4670-9d1b-86a5d1b888d9","ios":"levelo://app?vid=3fe9069d-30a3-4670-9d1b-86a5d1b888d9"},"vehicle_type_id":"4","last_reported":1702656562,"current_range_meters":28400,"station_id":"ce4bgjh2rcd13ifvqbg0","pricing_plan_id":"free"},{"bike_id":"40222723-5255-4b1b-9885-59586ef11d7e","system_id":"levelo_inurba_marseille","lat":43.297163,"lon":5.365866,"is_reserved":false,"is_disabled":false,"rental_uris":{"android":"levelo://app?vid=40222723-5255-4b1b-9885-59586ef11d7e","ios":"levelo://app?vid=40222723-5255-4b1b-9885-59586ef11d7e"},"vehicle_type_id":"4","last_reported":1702656562,"current_range_meters":13200,"station_id":"ce4bgn12rcd13ifvqbt0","pricing_plan_id":"free"},{"bike_id":"83481def-7b97-480d-8260-15ba2315cb6b","system_id":"levelo_inurba_marseille","lat":43.297163,"lon":5.365866,"is_reserved":false,"is_disabled":false,"rental_uris":{"android":"levelo://app?vid=83481def-7b97-480d-8260-15ba2315cb6b","ios":"levelo://app?vid=83481def-7b97-480d-8260-15ba2315cb6b"},"vehicle_type_id":"4","last_reported":1702656562,"current_range_meters":4400,"station_id":"ce4bgn12rcd13ifvqbt0","pricing_plan_id":"free"},{"bike_id":"51f2baf8-b7d4-48c9-8d86-e896ef7fbacc","system_id":"levelo_inurba_marseille","lat":43.297163,"lon":5.365866,"is_reserved":false,"is_disabled":false,"rental_uris":{"android":"levelo://app?vid=51f2baf8-b7d4-48c9-8d86-e896ef7fbacc","ios":"levelo://app?vid=51f2baf8-b7d4-48c9-8d86-e896ef7fbacc"},"vehicle_type_id":"4","last_reported":1702656562,"current_range_meters":14800,"station_id":"ce4bgn12rcd13ifvqbt0","pricing_plan_id":"free"},{"bike_id":"e7edd922-7a30-4a3e-826d-61178edba94a","system_id":"levelo_inurba_marseille","lat":43.2968,"lon":5.37291,"is_reserved":false,"is_disabled":false,"rental_uris":{"android":"levelo://app?vid=e7edd922-7a30-4a3e-826d-61178edba94a","ios":"levelo://app?vid=e7edd922-7a30-4a3e-826d-61178edba94a"},"vehicle_type_id":"4","last_reported":1702656562,"current_range_meters":15200,"station_id":"ce4bgk12rcd13ifvqbj0","pricing_plan_id":"free"},{"bike_id":"cae1a297-aaa6-46e1-a330-2b5e055623a4","system_id":"levelo_inurba_marseille","lat":43.29573,"lon":5.367355,"is_reserved":false,"is_disabled":false,"rental_uris":{"android":"levelo://app?vid=cae1a297-aaa6-46e1-a330-2b5e055623a4","ios":"levelo://app?vid=cae1a297-aaa6-46e1-a330-2b5e055623a4"},"vehicle_type_id":"4","last_reported":1702656562,"current_range_meters":1600,"station_id":"ce4bgph2rcd13ifvqc2g","pricing_plan_id":"free"},{"bike_id":"722057ff-5b37-4ac3-aa32-d7d9d9d44e89","system_id":"levelo_inurba_marseille","lat":43.296194,"lon":5.371489,"is_reserved":false,"is_disabled":false,"rental_uris":{"android":"levelo://app?vid=722057ff-5b37-4ac3-aa32-d7d9d9d44e89","ios":"levelo://app?vid=722057ff-5b37-4ac3-aa32-d7d9d9d44e89"},"vehicle_type_id":"4","last_reported":1702656562,"current_range_meters":31200,"station_id":"ce4bgnh2rcd13ifvqc0g","pricing_plan_id":"free"},{"bike_id":"553d211d-75fa-4338-9b95-c8df4471c3ad","system_id":"levelo_inurba_marseille","lat":43.299028,"lon":5.381509,"is_reserved":false,"is_disabled":false,"rental_uris":{"android":"levelo://app?vid=553d211d-75fa-4338-9b95-c8df4471c3ad","ios":"levelo://app?vid=553d211d-75fa-4338-9b95-c8df4471c3ad"},"vehicle_type_id":"4","last_reported":1702656562,"current_range_meters":23200,"station_id":"ce4bgj12rcd13ifvqbc0","pricing_plan_id":"free"},{"bike_id":"e5b37878-e13b-407c-a574-73dfad552567","system_id":"levelo_inurba_marseille","lat":43.31756,"lon":5.39017,"is_reserved":false,"is_disabled":false,"rental_uris":{"android":"levelo://app?vid=e5b37878-e13b-407c-a574-73dfad552567","ios":"levelo://app?vid=e5b37878-e13b-407c-a574-73dfad552567"},"vehicle_type_id":"4","last_reported":1702656562,"current_range_meters":3600,"station_id":"ce4bhqp2rcd13ifvqhng","pricing_plan_id":"free"},{"bike_id":"8bad308b-bb31-4c4c-ad19-9e2cb2a2b79f","system_id":"levelo_inurba_marseille","lat":43.295307,"lon":5.374983,"is_reserved":false,"is_disabled":false,"rental_uris":{"android":"levelo://app?vid=8bad308b-bb31-4c4c-ad19-9e2cb2a2b79f","ios":"levelo://app?vid=8bad308b-bb31-4c4c-ad19-9e2cb2a2b79f"},"vehicle_type_id":"4","last_reported":1702656562,"current_range_meters":0,"station_id":"ce4bgkp2rcd13ifvqbmg","pricing_plan_id":"free"},{"bike_id":"89047996-bc8e-42d2-9849-858ba4fe3899","system_id":"levelo_inurba_marseille","lat":43.29971,"lon":5.38493,"is_reserved":false,"is_disabled":false,"rental_uris":{"android":"levelo://app?vid=89047996-bc8e-42d2-9849-858ba4fe3899","ios":"levelo://app?vid=89047996-bc8e-42d2-9849-858ba4fe3899"},"vehicle_type_id":"4","last_reported":1702656562,"current_range_meters":0,"station_id":"ce4bgj92rcd13ifvqbd0","pricing_plan_id":"free"},{"bike_id":"92e26362-8b62-4ac3-ae42-f24976e7801e","system_id":"levelo_inurba_marseille","lat":43.299717,"lon":5.384845,"is_reserved":false,"is_disabled":false,"rental_uris":{"android":"levelo://app?vid=92e26362-8b62-4ac3-ae42-f24976e7801e","ios":"levelo://app?vid=92e26362-8b62-4ac3-ae42-f24976e7801e"},"vehicle_type_id":"4","last_reported":1702656562,"current_range_meters":19200,"station_id":"ce4bgj92rcd13ifvqbd0","pricing_plan_id":"free"},{"bike_id":"737c7f70-3419-4b89-8800-9a40e7d6c2b3","system_id":"levelo_inurba_marseille","lat":43.305994,"lon":5.393687,"is_reserved":false,"is_disabled":false,"rental_uris":{"android":"levelo://app?vid=737c7f70-3419-4b89-8800-9a40e7d6c2b3","ios":"levelo://app?vid=737c7f70-3419-4b89-8800-9a40e7d6c2b3"},"vehicle_type_id":"4","last_reported":1702656562,"current_range_meters":0,"station_id":"ce4bh0p2rcd13ifvqd80","pricing_plan_id":"free"},{"bike_id":"866f2b43-d7d4-406a-ac99-8cde613785bb","system_id":"levelo_inurba_marseille","lat":43.300852,"lon":5.390859,"is_reserved":false,"is_disabled":false,"rental_uris":{"android":"levelo://app?vid=866f2b43-d7d4-406a-ac99-8cde613785bb","ios":"levelo://app?vid=866f2b43-d7d4-406a-ac99-8cde613785bb"},"vehicle_type_id":"4","last_reported":1702656562,"current_range_meters":15600,"station_id":"ce4bh192rcd13ifvqdb0","pricing_plan_id":"free"},{"bike_id":"00b110a7-6a92-49c5-a21b-4450ba2aeff0","system_id":"levelo_inurba_marseille","lat":43.29225,"lon":5.3605,"is_reserved":false,"is_disabled":false,"rental_uris":{"android":"levelo://app?vid=00b110a7-6a92-49c5-a21b-4450ba2aeff0","ios":"levelo://app?vid=00b110a7-6a92-49c5-a21b-4450ba2aeff0"},"vehicle_type_id":"4","last_reported":1702656562,"current_range_meters":13200,"station_id":"ce4bhbh2rcd13ifvqeqg","pricing_plan_id":"free"},{"bike_id":"0bdd3e7d-130b-4170-b8e6-fde20c12d434","system_id":"levelo_inurba_marseille","lat":43.29266,"lon":5.3763,"is_reserved":false,"is_disabled":false,"rental_uris":{"android":"levelo://app?vid=0bdd3e7d-130b-4170-b8e6-fde20c12d434","ios":"levelo://app?vid=0bdd3e7d-130b-4170-b8e6-fde20c12d434"},"vehicle_type_id":"4","last_reported":1702656562,"current_range_meters":10400,"station_id":"","pricing_plan_id":"free"},{"bike_id":"8636d4c4-3bdc-4147-bff1-9e178eace923","system_id":"levelo_inurba_marseille","lat":43.29265,"lon":5.37641,"is_reserved":false,"is_disabled":false,"rental_uris":{"android":"levelo://app?vid=8636d4c4-3bdc-4147-bff1-9e178eace923","ios":"levelo://app?vid=8636d4c4-3bdc-4147-bff1-9e178eace923"},"vehicle_type_id":"4","last_reported":1702656562,"current_range_meters":24400,"station_id":"","pricing_plan_id":"free"},{"bike_id":"cefa2ff1-3dd1-4d07-acca-0a4e3051a600","system_id":"levelo_inurba_marseille","lat":43.29868,"lon":5.38909,"is_reserved":false,"is_disabled":false,"rental_uris":{"android":"levelo://app?vid=cefa2ff1-3dd1-4d07-acca-0a4e3051a600","ios":"levelo://app?vid=cefa2ff1-3dd1-4d07-acca-0a4e3051a600"},"vehicle_type_id":"4","last_reported":1702656562,"current_range_meters":18000,"station_id":"","pricing_plan_id":"free"},{"bike_id":"1bc8c611-9046-44d8-8cc5-dd8577754c2f","system_id":"levelo_inurba_marseille","lat":43.291994,"lon":5.357886,"is_reserved":false,"is_disabled":false,"rental_uris":{"android":"levelo://app?vid=1bc8c611-9046-44d8-8cc5-dd8577754c2f","ios":"levelo://app?vid=1bc8c611-9046-44d8-8cc5-dd8577754c2f"},"vehicle_type_id":"4","last_reported":1702656562,"current_range_meters":800,"station_id":"ce4bhb12rcd13ifvqel0","pricing_plan_id":"free"},{"bike_id":"6c8b836e-3fa4-435d-8966-4a4f9505e86e","system_id":"levelo_inurba_marseille","lat":43.309047,"lon":5.396551,"is_reserved":false,"is_disabled":false,"rental_uris":{"android":"levelo://app?vid=6c8b836e-3fa4-435d-8966-4a4f9505e86e","ios":"levelo://app?vid=6c8b836e-3fa4-435d-8966-4a4f9505e86e"},"vehicle_type_id":"4","last_reported":1702656562,"current_range_meters":0,"station_id":"ce4bh012rcd13ifvqcv0","pricing_plan_id":"free"},{"bike_id":"7f319657-fb24-4506-9c49-0b5453b42f61","system_id":"levelo_inurba_marseille","lat":43.28942,"lon":5.36404,"is_reserved":false,"is_disabled":false,"rental_uris":{"android":"levelo://app?vid=7f319657-fb24-4506-9c49-0b5453b42f61","ios":"levelo://app?vid=7f319657-fb24-4506-9c49-0b5453b42f61"},"vehicle_type_id":"4","last_reported":1702656562,"current_range_meters":0,"station_id":"ce4bhc92rcd13ifvqetg","pricing_plan_id":"free"},{"bike_id":"f2c160a8-4c8e-4357-a555-9fdd0cb55b4f","system_id":"levelo_inurba_marseille","lat":43.3304,"lon":5.38926,"is_reserved":false,"is_disabled":false,"rental_uris":{"android":"levelo://app?vid=f2c160a8-4c8e-4357-a555-9fdd0cb55b4f","ios":"levelo://app?vid=f2c160a8-4c8e-4357-a555-9fdd0cb55b4f"},"vehicle_type_id":"4","last_reported":1702656562,"current_range_meters":20400,"station_id":"ce4bhr92rcd13ifvqhrg","pricing_plan_id":"free"},{"bike_id":"735ace55-f4d3-424e-a893-676a0ed9caa9","system_id":"levelo_inurba_marseille","lat":43.33043,"lon":5.38923,"is_reserved":false,"is_disabled":false,"rental_uris":{"android":"levelo://app?vid=735ace55-f4d3-424e-a893-676a0ed9caa9","ios":"levelo://app?vid=735ace55-f4d3-424e-a893-676a0ed9caa9"},"vehicle_type_id":"4","last_reported":1702656562,"current_range_meters":24000,"station_id":"ce4bhr92rcd13ifvqhrg","pricing_plan_id":"free"},{"bike_id":"7a0c9734-e3d1-435a-8683-253a1e30de40","system_id":"levelo_inurba_marseille","lat":43.290995,"lon":5.381361,"is_reserved":false,"is_disabled":false,"rental_uris":{"android":"levelo://app?vid=7a0c9734-e3d1-435a-8683-253a1e30de40","ios":"levelo://app?vid=7a0c9734-e3d1-435a-8683-253a1e30de40"},"vehicle_type_id":"4","last_reported":1702656562,"current_range_meters":21200,"station_id":"ce4bh512rcd13ifvqe2g","pricing_plan_id":"free"},{"bike_id":"5320020a-4b4a-4c34-94d2-f6bb4071c822","system_id":"levelo_inurba_marseille","lat":43.289743,"lon":5.378304,"is_reserved":false,"is_disabled":false,"rental_uris":{"android":"levelo://app?vid=5320020a-4b4a-4c34-94d2-f6bb4071c822","ios":"levelo://app?vid=5320020a-4b4a-4c34-94d2-f6bb4071c822"},"vehicle_type_id":"4","last_reported":1702656562,"current_range_meters":22800,"station_id":"ce4bh9p2rcd13ifvqed0","pricing_plan_id":"free"},{"bike_id":"41e7df85-e319-4db4-9110-d3671f87a6d0","system_id":"levelo_inurba_marseille","lat":43.290995,"lon":5.381361,"is_reserved":false,"is_disabled":false,"rental_uris":{"android":"levelo://app?vid=41e7df85-e319-4db4-9110-d3671f87a6d0","ios":"levelo://app?vid=41e7df85-e319-4db4-9110-d3671f87a6d0"},"vehicle_type_id":"4","last_reported":1702656562,"current_range_meters":24800,"station_id":"ce4bh512rcd13ifvqe2g","pricing_plan_id":"free"},{"bike_id":"05a55a6b-664d-441d-a886-c4af7a666fc0","system_id":"levelo_inurba_marseille","lat":43.295169,"lon":5.390426,"is_reserved":false,"is_disabled":false,"rental_uris":{"android":"levelo://app?vid=05a55a6b-664d-441d-a886-c4af7a666fc0","ios":"levelo://app?vid=05a55a6b-664d-441d-a886-c4af7a666fc0"},"vehicle_type_id":"4","last_reported":1702656562,"current_range_meters":8800,"station_id":"ce4bh3p2rcd13ifvqdp0","pricing_plan_id":"free"},{"bike_id":"2f74f084-3744-49e5-8621-615d8abfd330","system_id":"levelo_inurba_marseille","lat":43.2901,"lon":5.381269,"is_reserved":false,"is_disabled":false,"rental_uris":{"android":"levelo://app?vid=2f74f084-3744-49e5-8621-615d8abfd330","ios":"levelo://app?vid=2f74f084-3744-49e5-8621-615d8abfd330"},"vehicle_type_id":"4","last_reported":1702656562,"current_range_meters":0,"station_id":"ce4bh4p2rcd13ifvqe1g","pricing_plan_id":"free"},{"bike_id":"271cdce5-60a1-448a-aa87-a666b78ab556","system_id":"levelo_inurba_marseille","lat":43.28851,"lon":5.35856,"is_reserved":false,"is_disabled":false,"rental_uris":{"android":"levelo://app?vid=271cdce5-60a1-448a-aa87-a666b78ab556","ios":"levelo://app?vid=271cdce5-60a1-448a-aa87-a666b78ab556"},"vehicle_type_id":"4","last_reported":1702656562,"current_range_meters":0,"station_id":"ce4bhb12rcd13ifvqem0","pricing_plan_id":"free"},{"bike_id":"f0cd831c-cfb9-44c7-9487-103b6df223ca","system_id":"levelo_inurba_marseille","lat":43.33745,"lon":5.37455,"is_reserved":false,"is_disabled":false,"rental_uris":{"android":"levelo://app?vid=f0cd831c-cfb9-44c7-9487-103b6df223ca","ios":"levelo://app?vid=f0cd831c-cfb9-44c7-9487-103b6df223ca"},"vehicle_type_id":"4","last_reported":1702656562,"current_range_meters":29600,"station_id":"","pricing_plan_id":"free"},{"bike_id":"3eb423de-39d7-428f-a2f6-e087a5939827","system_id":"levelo_inurba_marseille","lat":43.30642,"lon":5.401031,"is_reserved":false,"is_disabled":false,"rental_uris":{"android":"levelo://app?vid=3eb423de-39d7-428f-a2f6-e087a5939827","ios":"levelo://app?vid=3eb423de-39d7-428f-a2f6-e087a5939827"},"vehicle_type_id":"4","last_reported":1702656562,"current_range_meters":31200,"station_id":"ce4bh112rcd13ifvqda0","pricing_plan_id":"free"},{"bike_id":"a15a6f31-d26a-498f-aab0-fad2629bd007","system_id":"levelo_inurba_marseille","lat":43.337535,"lon":5.37446,"is_reserved":false,"is_disabled":false,"rental_uris":{"android":"levelo://app?vid=a15a6f31-d26a-498f-aab0-fad2629bd007","ios":"levelo://app?vid=a15a6f31-d26a-498f-aab0-fad2629bd007"},"vehicle_type_id":"4","last_reported":1702656562,"current_range_meters":2000,"station_id":"","pricing_plan_id":"free"},{"bike_id":"930bba3a-4350-44cf-bb9b-310a6cbdb5ef","system_id":"levelo_inurba_marseille","lat":43.337598,"lon":5.374539,"is_reserved":false,"is_disabled":false,"rental_uris":{"android":"levelo://app?vid=930bba3a-4350-44cf-bb9b-310a6cbdb5ef","ios":"levelo://app?vid=930bba3a-4350-44cf-bb9b-310a6cbdb5ef"},"vehicle_type_id":"4","last_reported":1702656562,"current_range_meters":28400,"station_id":"","pricing_plan_id":"free"},{"bike_id":"d7a8ab92-fe8d-45c4-ae76-8a3405f3139d","system_id":"levelo_inurba_marseille","lat":43.337652,"lon":5.37463,"is_reserved":false,"is_disabled":false,"rental_uris":{"android":"levelo://app?vid=d7a8ab92-fe8d-45c4-ae76-8a3405f3139d","ios":"levelo://app?vid=d7a8ab92-fe8d-45c4-ae76-8a3405f3139d"},"vehicle_type_id":"4","last_reported":1702656562,"current_range_meters":30000,"station_id":"","pricing_plan_id":"free"},{"bike_id":"b5f65d44-d2ab-4fc2-b1c6-c25099926d5d","system_id":"levelo_inurba_marseille","lat":43.306412,"lon":5.401035,"is_reserved":false,"is_disabled":false,"rental_uris":{"android":"levelo://app?vid=b5f65d44-d2ab-4fc2-b1c6-c25099926d5d","ios":"levelo://app?vid=b5f65d44-d2ab-4fc2-b1c6-c25099926d5d"},"vehicle_type_id":"4","last_reported":1702656562,"current_range_meters":2400,"station_id":"ce4bh112rcd13ifvqda0","pricing_plan_id":"free"},{"bike_id":"335e63df-65cc-4c76-9280-aba2f687c833","system_id":"levelo_inurba_marseille","lat":43.301117,"lon":5.398795,"is_reserved":false,"is_disabled":false,"rental_uris":{"android":"levelo://app?vid=335e63df-65cc-4c76-9280-aba2f687c833","ios":"levelo://app?vid=335e63df-65cc-4c76-9280-aba2f687c833"},"vehicle_type_id":"4","last_reported":1702656562,"current_range_meters":26000,"station_id":"ce4bh0h2rcd13ifvqd40","pricing_plan_id":"free"},{"bike_id":"eacd6018-9f13-4015-8181-d294e57968f9","system_id":"levelo_inurba_marseille","lat":43.28727,"lon":5.36078,"is_reserved":false,"is_disabled":false,"rental_uris":{"android":"levelo://app?vid=eacd6018-9f13-4015-8181-d294e57968f9","ios":"levelo://app?vid=eacd6018-9f13-4015-8181-d294e57968f9"},"vehicle_type_id":"4","last_reported":1702656562,"current_range_meters":3600,"station_id":"cki0cbj6b192h4jlfktg","pricing_plan_id":"free"},{"bike_id":"aa27a4e3-bbe5-4274-a787-a7189cded50b","system_id":"levelo_inurba_marseille","lat":43.286591,"lon":5.363346,"is_reserved":false,"is_disabled":false,"rental_uris":{"android":"levelo://app?vid=aa27a4e3-bbe5-4274-a787-a7189cded50b","ios":"levelo://app?vid=aa27a4e3-bbe5-4274-a787-a7189cded50b"},"vehicle_type_id":"4","last_reported":1702656562,"current_range_meters":27600,"station_id":"ce4bhah2rcd13ifvqej0","pricing_plan_id":"free"},{"bike_id":"1ba2e3f5-cf80-4b84-8f04-9212080b384c","system_id":"levelo_inurba_marseille","lat":43.302759,"lon":5.400793,"is_reserved":false,"is_disabled":false,"rental_uris":{"android":"levelo://app?vid=1ba2e3f5-cf80-4b84-8f04-9212080b384c","ios":"levelo://app?vid=1ba2e3f5-cf80-4b84-8f04-9212080b384c"},"vehicle_type_id":"4","last_reported":1702656562,"current_range_meters":16000,"station_id":"ce4bgvh2rcd13ifvqcs0","pricing_plan_id":"free"},{"bike_id":"88e234c3-32b0-4e54-a741-5f30bf1018b6","system_id":"levelo_inurba_marseille","lat":43.30264,"lon":5.40076,"is_reserved":false,"is_disabled":false,"rental_uris":{"android":"levelo://app?vid=88e234c3-32b0-4e54-a741-5f30bf1018b6","ios":"levelo://app?vid=88e234c3-32b0-4e54-a741-5f30bf1018b6"},"vehicle_type_id":"4","last_reported":1702656562,"current_range_meters":21600,"station_id":"ce4bgvh2rcd13ifvqcs0","pricing_plan_id":"free"},{"bike_id":"f4cc0991-b169-4654-9e62-c197472ad6e6","system_id":"levelo_inurba_marseille","lat":43.289307,"lon":5.38406,"is_reserved":false,"is_disabled":false,"rental_uris":{"android":"levelo://app?vid=f4cc0991-b169-4654-9e62-c197472ad6e6","ios":"levelo://app?vid=f4cc0991-b169-4654-9e62-c197472ad6e6"},"vehicle_type_id":"4","last_reported":1702656562,"current_range_meters":27600,"station_id":"ce4bh612rcd13ifvqe6g","pricing_plan_id":"free"},{"bike_id":"9e2ef12a-5d51-4ed0-b882-b58076ab3b31","system_id":"levelo_inurba_marseille","lat":43.286039,"lon":5.370679,"is_reserved":false,"is_disabled":false,"rental_uris":{"android":"levelo://app?vid=9e2ef12a-5d51-4ed0-b882-b58076ab3b31","ios":"levelo://app?vid=9e2ef12a-5d51-4ed0-b882-b58076ab3b31"},"vehicle_type_id":"4","last_reported":1702656562,"current_range_meters":11600,"station_id":"ce4bht12rcd13ifvqi60","pricing_plan_id":"free"},{"bike_id":"cffe57f8-e2bf-4029-a5ca-eac7569e060d","system_id":"levelo_inurba_marseille","lat":43.286039,"lon":5.370679,"is_reserved":false,"is_disabled":false,"rental_uris":{"android":"levelo://app?vid=cffe57f8-e2bf-4029-a5ca-eac7569e060d","ios":"levelo://app?vid=cffe57f8-e2bf-4029-a5ca-eac7569e060d"},"vehicle_type_id":"4","last_reported":1702656562,"current_range_meters":26800,"station_id":"ce4bht12rcd13ifvqi60","pricing_plan_id":"free"},{"bike_id":"ee4ae394-f750-4cbc-a9da-a3343530cfea","system_id":"levelo_inurba_marseille","lat":43.288407,"lon":5.38256,"is_reserved":false,"is_disabled":false,"rental_uris":{"android":"levelo://app?vid=ee4ae394-f750-4cbc-a9da-a3343530cfea","ios":"levelo://app?vid=ee4ae394-f750-4cbc-a9da-a3343530cfea"},"vehicle_type_id":"4","last_reported":1702656562,"current_range_meters":0,"station_id":"","pricing_plan_id":"free"},{"bike_id":"00ae2cd0-1b9d-45b0-b6dd-44d488983da7","system_id":"levelo_inurba_marseille","lat":43.287184,"lon":5.37937,"is_reserved":false,"is_disabled":false,"rental_uris":{"android":"levelo://app?vid=00ae2cd0-1b9d-45b0-b6dd-44d488983da7","ios":"levelo://app?vid=00ae2cd0-1b9d-45b0-b6dd-44d488983da7"},"vehicle_type_id":"4","last_reported":1702656562,"current_range_meters":19200,"station_id":"ce4bh9p2rcd13ifvqec0","pricing_plan_id":"free"},{"bike_id":"1b1e75fe-344b-412c-9c00-eac259b143f4","system_id":"levelo_inurba_marseille","lat":43.29202,"lon":5.39333,"is_reserved":false,"is_disabled":false,"rental_uris":{"android":"levelo://app?vid=1b1e75fe-344b-412c-9c00-eac259b143f4","ios":"levelo://app?vid=1b1e75fe-344b-412c-9c00-eac259b143f4"},"vehicle_type_id":"4","last_reported":1702656562,"current_range_meters":18400,"station_id":"ce4bh192rcd13ifvqdd0","pricing_plan_id":"free"},{"bike_id":"012120be-4cd0-485a-8fea-bcfb206bb005","system_id":"levelo_inurba_marseille","lat":43.284538,"lon":5.358657,"is_reserved":false,"is_disabled":false,"rental_uris":{"android":"levelo://app?vid=012120be-4cd0-485a-8fea-bcfb206bb005","ios":"levelo://app?vid=012120be-4cd0-485a-8fea-bcfb206bb005"},"vehicle_type_id":"4","last_reported":1702656562,"current_range_meters":400,"station_id":"ce4bhah2rcd13ifvqei0","pricing_plan_id":"free"},{"bike_id":"90c78d25-6091-4563-8749-9d97ef9c2fa1","system_id":"levelo_inurba_marseille","lat":43.28618,"lon":5.35108,"is_reserved":false,"is_disabled":false,"rental_uris":{"android":"levelo://app?vid=90c78d25-6091-4563-8749-9d97ef9c2fa1","ios":"levelo://app?vid=90c78d25-6091-4563-8749-9d97ef9c2fa1"},"vehicle_type_id":"4","last_reported":1702656562,"current_range_meters":18400,"station_id":"ce4bhch2rcd13ifvqeug","pricing_plan_id":"free"},{"bike_id":"62af1863-3fcb-4f3f-9e33-3eaab12f5c0d","system_id":"levelo_inurba_marseille","lat":43.28409,"lon":5.37519,"is_reserved":false,"is_disabled":false,"rental_uris":{"android":"levelo://app?vid=62af1863-3fcb-4f3f-9e33-3eaab12f5c0d","ios":"levelo://app?vid=62af1863-3fcb-4f3f-9e33-3eaab12f5c0d"},"vehicle_type_id":"4","last_reported":1702656562,"current_range_meters":0,"station_id":"ce4bh412rcd13ifvqds0","pricing_plan_id":"free"},{"bike_id":"f3294709-05ba-42f6-86d0-54a374e03377","system_id":"levelo_inurba_marseille","lat":43.295713,"lon":5.399639,"is_reserved":false,"is_disabled":false,"rental_uris":{"android":"levelo://app?vid=f3294709-05ba-42f6-86d0-54a374e03377","ios":"levelo://app?vid=f3294709-05ba-42f6-86d0-54a374e03377"},"vehicle_type_id":"4","last_reported":1702656562,"current_range_meters":12400,"station_id":"ce4bh312rcd13ifvqdj0","pricing_plan_id":"free"},{"bike_id":"a0f1e258-eef4-491e-a3ad-bb7b4d6f4d00","system_id":"levelo_inurba_marseille","lat":43.28678,"lon":5.38659,"is_reserved":false,"is_disabled":false,"rental_uris":{"android":"levelo://app?vid=a0f1e258-eef4-491e-a3ad-bb7b4d6f4d00","ios":"levelo://app?vid=a0f1e258-eef4-491e-a3ad-bb7b4d6f4d00"},"vehicle_type_id":"4","last_reported":1702656562,"current_range_meters":11600,"station_id":"ce4bh492rcd13ifvqdug","pricing_plan_id":"free"},{"bike_id":"6771c82b-c557-464d-8c03-3be5838a34f8","system_id":"levelo_inurba_marseille","lat":43.286595,"lon":5.386795,"is_reserved":false,"is_disabled":false,"rental_uris":{"android":"levelo://app?vid=6771c82b-c557-464d-8c03-3be5838a34f8","ios":"levelo://app?vid=6771c82b-c557-464d-8c03-3be5838a34f8"},"vehicle_type_id":"4","last_reported":1702656562,"current_range_meters":23200,"station_id":"ce4bh492rcd13ifvqdug","pricing_plan_id":"free"},{"bike_id":"a24db5df-5c51-4bcf-8d5c-c06cde2deebf","system_id":"levelo_inurba_marseille","lat":43.319179,"lon":5.407725,"is_reserved":false,"is_disabled":false,"rental_uris":{"android":"levelo://app?vid=a24db5df-5c51-4bcf-8d5c-c06cde2deebf","ios":"levelo://app?vid=a24db5df-5c51-4bcf-8d5c-c06cde2deebf"},"vehicle_type_id":"4","last_reported":1702656562,"current_range_meters":21200,"station_id":"ce4bhq12rcd13ifvqhig","pricing_plan_id":"free"},{"bike_id":"7dad4481-4867-4557-8614-5bf9a8d365e1","system_id":"levelo_inurba_marseille","lat":43.337168,"lon":5.391825,"is_reserved":false,"is_disabled":false,"rental_uris":{"android":"levelo://app?vid=7dad4481-4867-4557-8614-5bf9a8d365e1","ios":"levelo://app?vid=7dad4481-4867-4557-8614-5bf9a8d365e1"},"vehicle_type_id":"4","last_reported":1702656562,"current_range_meters":19600,"station_id":"ce4bhr92rcd13ifvqhsg","pricing_plan_id":"free"},{"bike_id":"c3b61b7e-0dad-4938-aece-851d13104dd3","system_id":"levelo_inurba_marseille","lat":43.284793,"lon":5.384113,"is_reserved":false,"is_disabled":false,"rental_uris":{"android":"levelo://app?vid=c3b61b7e-0dad-4938-aece-851d13104dd3","ios":"levelo://app?vid=c3b61b7e-0dad-4938-aece-851d13104dd3"},"vehicle_type_id":"4","last_reported":1702656562,"current_range_meters":8000,"station_id":"ce4bh512rcd13ifvqe3g","pricing_plan_id":"free"},{"bike_id":"34f2d8e8-4e44-46c1-8fea-3ee047079267","system_id":"levelo_inurba_marseille","lat":43.284793,"lon":5.384113,"is_reserved":false,"is_disabled":false,"rental_uris":{"android":"levelo://app?vid=34f2d8e8-4e44-46c1-8fea-3ee047079267","ios":"levelo://app?vid=34f2d8e8-4e44-46c1-8fea-3ee047079267"},"vehicle_type_id":"4","last_reported":1702656562,"current_range_meters":21600,"station_id":"ce4bh512rcd13ifvqe3g","pricing_plan_id":"free"},{"bike_id":"89feee9b-f8b6-4eca-a714-4420d6f95f6f","system_id":"levelo_inurba_marseille","lat":43.284219,"lon":5.3497,"is_reserved":false,"is_disabled":false,"rental_uris":{"android":"levelo://app?vid=89feee9b-f8b6-4eca-a714-4420d6f95f6f","ios":"levelo://app?vid=89feee9b-f8b6-4eca-a714-4420d6f95f6f"},"vehicle_type_id":"4","last_reported":1702656562,"current_range_meters":15200,"station_id":"ce4bhbh2rcd13ifvqepg","pricing_plan_id":"free"},{"bike_id":"77cfefb2-9ac5-450c-9e68-506db18cd04c","system_id":"levelo_inurba_marseille","lat":43.284219,"lon":5.3497,"is_reserved":false,"is_disabled":false,"rental_uris":{"android":"levelo://app?vid=77cfefb2-9ac5-450c-9e68-506db18cd04c","ios":"levelo://app?vid=77cfefb2-9ac5-450c-9e68-506db18cd04c"},"vehicle_type_id":"4","last_reported":1702656562,"current_range_meters":25200,"station_id":"ce4bhbh2rcd13ifvqepg","pricing_plan_id":"free"},{"bike_id":"aca66657-44c1-4606-9c58-2be473f31e14","system_id":"levelo_inurba_marseille","lat":43.292724,"lon":5.401131,"is_reserved":false,"is_disabled":false,"rental_uris":{"android":"levelo://app?vid=aca66657-44c1-4606-9c58-2be473f31e14","ios":"levelo://app?vid=aca66657-44c1-4606-9c58-2be473f31e14"},"vehicle_type_id":"4","last_reported":1702656562,"current_range_meters":21200,"station_id":"ce4bh312rcd13ifvqdk0","pricing_plan_id":"free"},{"bike_id":"4f52be2d-23db-460b-9309-5d50cbd09dfc","system_id":"levelo_inurba_marseille","lat":43.282754,"lon":5.350519,"is_reserved":false,"is_disabled":false,"rental_uris":{"android":"levelo://app?vid=4f52be2d-23db-460b-9309-5d50cbd09dfc","ios":"levelo://app?vid=4f52be2d-23db-460b-9309-5d50cbd09dfc"},"vehicle_type_id":"4","last_reported":1702656562,"current_range_meters":26800,"station_id":"ce4bhbp2rcd13ifvqerg","pricing_plan_id":"free"},{"bike_id":"f4dacef3-7667-4585-b6d9-ca82e1a5413f","system_id":"levelo_inurba_marseille","lat":43.283502,"lon":5.386471,"is_reserved":false,"is_disabled":false,"rental_uris":{"android":"levelo://app?vid=f4dacef3-7667-4585-b6d9-ca82e1a5413f","ios":"levelo://app?vid=f4dacef3-7667-4585-b6d9-ca82e1a5413f"},"vehicle_type_id":"4","last_reported":1702656562,"current_range_meters":27200,"station_id":"ce4bh492rcd13ifvqdvg","pricing_plan_id":"free"},{"bike_id":"078aaffb-b8bb-4f7a-be72-f9410dd16633","system_id":"levelo_inurba_marseille","lat":43.28035,"lon":5.36946,"is_reserved":false,"is_disabled":false,"rental_uris":{"android":"levelo://app?vid=078aaffb-b8bb-4f7a-be72-f9410dd16633","ios":"levelo://app?vid=078aaffb-b8bb-4f7a-be72-f9410dd16633"},"vehicle_type_id":"4","last_reported":1702656562,"current_range_meters":15600,"station_id":"ce4bha12rcd13ifvqef0","pricing_plan_id":"free"},{"bike_id":"8fb47eb9-d1de-47c3-9a4f-063d68d00739","system_id":"levelo_inurba_marseille","lat":43.280382,"lon":5.369291,"is_reserved":false,"is_disabled":false,"rental_uris":{"android":"levelo://app?vid=8fb47eb9-d1de-47c3-9a4f-063d68d00739","ios":"levelo://app?vid=8fb47eb9-d1de-47c3-9a4f-063d68d00739"},"vehicle_type_id":"4","last_reported":1702656562,"current_range_meters":30000,"station_id":"ce4bha12rcd13ifvqef0","pricing_plan_id":"free"},{"bike_id":"62c32a41-5c85-445e-a62d-27f8a6e615c9","system_id":"levelo_inurba_marseille","lat":43.280382,"lon":5.369291,"is_reserved":false,"is_disabled":false,"rental_uris":{"android":"levelo://app?vid=62c32a41-5c85-445e-a62d-27f8a6e615c9","ios":"levelo://app?vid=62c32a41-5c85-445e-a62d-27f8a6e615c9"},"vehicle_type_id":"4","last_reported":1702656562,"current_range_meters":26000,"station_id":"ce4bha12rcd13ifvqef0","pricing_plan_id":"free"},{"bike_id":"8fd319bc-7b48-46e6-8646-aa676a210461","system_id":"levelo_inurba_marseille","lat":43.290509,"lon":5.399619,"is_reserved":false,"is_disabled":false,"rental_uris":{"android":"levelo://app?vid=8fd319bc-7b48-46e6-8646-aa676a210461","ios":"levelo://app?vid=8fd319bc-7b48-46e6-8646-aa676a210461"},"vehicle_type_id":"4","last_reported":1702656562,"current_range_meters":0,"station_id":"ce4bh392rcd13ifvqdm0","pricing_plan_id":"free"},{"bike_id":"29cea8ed-5b8f-4dc8-86a1-c17148f026b5","system_id":"levelo_inurba_marseille","lat":43.29042,"lon":5.39992,"is_reserved":false,"is_disabled":false,"rental_uris":{"android":"levelo://app?vid=29cea8ed-5b8f-4dc8-86a1-c17148f026b5","ios":"levelo://app?vid=29cea8ed-5b8f-4dc8-86a1-c17148f026b5"},"vehicle_type_id":"4","last_reported":1702656562,"current_range_meters":15200,"station_id":"ce4bh392rcd13ifvqdm0","pricing_plan_id":"free"},{"bike_id":"535c4edf-4023-4098-aab4-fbbd1e9ea37d","system_id":"levelo_inurba_marseille","lat":43.304188,"lon":5.412904,"is_reserved":false,"is_disabled":false,"rental_uris":{"android":"levelo://app?vid=535c4edf-4023-4098-aab4-fbbd1e9ea37d","ios":"levelo://app?vid=535c4edf-4023-4098-aab4-fbbd1e9ea37d"},"vehicle_type_id":"4","last_reported":1702656562,"current_range_meters":28800,"station_id":"ce4bhop2rcd13ifvqh8g","pricing_plan_id":"free"},{"bike_id":"0a2cc16b-b8ff-4778-9eab-00dbc50218b5","system_id":"levelo_inurba_marseille","lat":43.304188,"lon":5.412904,"is_reserved":false,"is_disabled":false,"rental_uris":{"android":"levelo://app?vid=0a2cc16b-b8ff-4778-9eab-00dbc50218b5","ios":"levelo://app?vid=0a2cc16b-b8ff-4778-9eab-00dbc50218b5"},"vehicle_type_id":"4","last_reported":1702656562,"current_range_meters":18800,"station_id":"ce4bhop2rcd13ifvqh8g","pricing_plan_id":"free"},{"bike_id":"da2a5cb9-b297-482f-858c-8c68c645541e","system_id":"levelo_inurba_marseille","lat":43.304188,"lon":5.412904,"is_reserved":false,"is_disabled":false,"rental_uris":{"android":"levelo://app?vid=da2a5cb9-b297-482f-858c-8c68c645541e","ios":"levelo://app?vid=da2a5cb9-b297-482f-858c-8c68c645541e"},"vehicle_type_id":"4","last_reported":1702656562,"current_range_meters":29600,"station_id":"ce4bhop2rcd13ifvqh8g","pricing_plan_id":"free"},{"bike_id":"db774753-4382-453e-a138-c32d538f9839","system_id":"levelo_inurba_marseille","lat":43.346854,"lon":5.359204,"is_reserved":false,"is_disabled":false,"rental_uris":{"android":"levelo://app?vid=db774753-4382-453e-a138-c32d538f9839","ios":"levelo://app?vid=db774753-4382-453e-a138-c32d538f9839"},"vehicle_type_id":"4","last_reported":1702656562,"current_range_meters":11600,"station_id":"","pricing_plan_id":"free"},{"bike_id":"d390a0d1-8734-4e8d-a1ab-10f08ae7ea94","system_id":"levelo_inurba_marseille","lat":43.279087,"lon":5.380114,"is_reserved":false,"is_disabled":false,"rental_uris":{"android":"levelo://app?vid=d390a0d1-8734-4e8d-a1ab-10f08ae7ea94","ios":"levelo://app?vid=d390a0d1-8734-4e8d-a1ab-10f08ae7ea94"},"vehicle_type_id":"4","last_reported":1702656562,"current_range_meters":4800,"station_id":"ce4bhf92rcd13ifvqf50","pricing_plan_id":"free"},{"bike_id":"b949e1a6-1cac-4d84-930c-859a579dd843","system_id":"levelo_inurba_marseille","lat":43.299579,"lon":5.413255,"is_reserved":false,"is_disabled":false,"rental_uris":{"android":"levelo://app?vid=b949e1a6-1cac-4d84-930c-859a579dd843","ios":"levelo://app?vid=b949e1a6-1cac-4d84-930c-859a579dd843"},"vehicle_type_id":"4","last_reported":1702656562,"current_range_meters":26400,"station_id":"ce4bhp12rcd13ifvqh9g","pricing_plan_id":"free"},{"bike_id":"acc66838-adcb-45f7-9614-62c25cc64655","system_id":"levelo_inurba_marseille","lat":43.320045,"lon":5.415048,"is_reserved":false,"is_disabled":false,"rental_uris":{"android":"levelo://app?vid=acc66838-adcb-45f7-9614-62c25cc64655","ios":"levelo://app?vid=acc66838-adcb-45f7-9614-62c25cc64655"},"vehicle_type_id":"4","last_reported":1702656562,"current_range_meters":16400,"station_id":"ce4bhq92rcd13ifvqhkg","pricing_plan_id":"free"},{"bike_id":"5fe6a241-5a06-44e9-a413-ae91d9f22d5c","system_id":"levelo_inurba_marseille","lat":43.276184,"lon":5.361032,"is_reserved":false,"is_disabled":false,"rental_uris":{"android":"levelo://app?vid=5fe6a241-5a06-44e9-a413-ae91d9f22d5c","ios":"levelo://app?vid=5fe6a241-5a06-44e9-a413-ae91d9f22d5c"},"vehicle_type_id":"4","last_reported":1702656562,"current_range_meters":22000,"station_id":"","pricing_plan_id":"free"},{"bike_id":"c40aebd4-c148-4d4d-9243-dcfaa5c4b14c","system_id":"levelo_inurba_marseille","lat":43.27615,"lon":5.36115,"is_reserved":false,"is_disabled":false,"rental_uris":{"android":"levelo://app?vid=c40aebd4-c148-4d4d-9243-dcfaa5c4b14c","ios":"levelo://app?vid=c40aebd4-c148-4d4d-9243-dcfaa5c4b14c"},"vehicle_type_id":"4","last_reported":1702656562,"current_range_meters":18400,"station_id":"ce4bgj92rcd13ifvqbe0","pricing_plan_id":"free"},{"bike_id":"a32cfc00-35d9-45d8-aac5-844d4450ef4e","system_id":"levelo_inurba_marseille","lat":43.27615,"lon":5.36112,"is_reserved":false,"is_disabled":false,"rental_uris":{"android":"levelo://app?vid=a32cfc00-35d9-45d8-aac5-844d4450ef4e","ios":"levelo://app?vid=a32cfc00-35d9-45d8-aac5-844d4450ef4e"},"vehicle_type_id":"4","last_reported":1702656562,"current_range_meters":15600,"station_id":"ce4bgj92rcd13ifvqbe0","pricing_plan_id":"free"},{"bike_id":"ae46fc98-3b00-42b5-9731-2b10f1796691","system_id":"levelo_inurba_marseille","lat":43.27612,"lon":5.36113,"is_reserved":false,"is_disabled":false,"rental_uris":{"android":"levelo://app?vid=ae46fc98-3b00-42b5-9731-2b10f1796691","ios":"levelo://app?vid=ae46fc98-3b00-42b5-9731-2b10f1796691"},"vehicle_type_id":"4","last_reported":1702656562,"current_range_meters":20800,"station_id":"ce4bgj92rcd13ifvqbe0","pricing_plan_id":"free"},{"bike_id":"85967ac3-c8bf-4c4d-9f65-8f46db69571a","system_id":"levelo_inurba_marseille","lat":43.276026,"lon":5.361202,"is_reserved":false,"is_disabled":false,"rental_uris":{"android":"levelo://app?vid=85967ac3-c8bf-4c4d-9f65-8f46db69571a","ios":"levelo://app?vid=85967ac3-c8bf-4c4d-9f65-8f46db69571a"},"vehicle_type_id":"4","last_reported":1702656562,"current_range_meters":12000,"station_id":"ce4bgj92rcd13ifvqbe0","pricing_plan_id":"free"},{"bike_id":"58fa8f18-040a-446b-915d-fbb24a382f81","system_id":"levelo_inurba_marseille","lat":43.278399,"lon":5.392139,"is_reserved":false,"is_disabled":false,"rental_uris":{"android":"levelo://app?vid=58fa8f18-040a-446b-915d-fbb24a382f81","ios":"levelo://app?vid=58fa8f18-040a-446b-915d-fbb24a382f81"},"vehicle_type_id":"4","last_reported":1702656562,"current_range_meters":3200,"station_id":"ce4bhjp2rcd13ifvqga0","pricing_plan_id":"free"},{"bike_id":"d14d66b3-6cb9-46f7-82d5-6456b10c6e81","system_id":"levelo_inurba_marseille","lat":43.30357,"lon":5.41884,"is_reserved":false,"is_disabled":false,"rental_uris":{"android":"levelo://app?vid=d14d66b3-6cb9-46f7-82d5-6456b10c6e81","ios":"levelo://app?vid=d14d66b3-6cb9-46f7-82d5-6456b10c6e81"},"vehicle_type_id":"4","last_reported":1702656562,"current_range_meters":30400,"station_id":"","pricing_plan_id":"free"},{"bike_id":"bbe74e82-e3ec-4c0e-b14d-dbc5fd21cd87","system_id":"levelo_inurba_marseille","lat":43.278401,"lon":5.392152,"is_reserved":false,"is_disabled":false,"rental_uris":{"android":"levelo://app?vid=bbe74e82-e3ec-4c0e-b14d-dbc5fd21cd87","ios":"levelo://app?vid=bbe74e82-e3ec-4c0e-b14d-dbc5fd21cd87"},"vehicle_type_id":"4","last_reported":1702656562,"current_range_meters":22800,"station_id":"ce4bhjp2rcd13ifvqga0","pricing_plan_id":"free"},{"bike_id":"a8ae5677-b2ef-4b43-97b2-73e415568065","system_id":"levelo_inurba_marseille","lat":43.275625,"lon":5.384392,"is_reserved":false,"is_disabled":false,"rental_uris":{"android":"levelo://app?vid=a8ae5677-b2ef-4b43-97b2-73e415568065","ios":"levelo://app?vid=a8ae5677-b2ef-4b43-97b2-73e415568065"},"vehicle_type_id":"4","last_reported":1702656562,"current_range_meters":6000,"station_id":"ce4bhh92rcd13ifvqfi0","pricing_plan_id":"free"},{"bike_id":"8e1e848d-d96b-4302-ada5-5df8b44d4656","system_id":"levelo_inurba_marseille","lat":43.303377,"lon":5.41905,"is_reserved":false,"is_disabled":false,"rental_uris":{"android":"levelo://app?vid=8e1e848d-d96b-4302-ada5-5df8b44d4656","ios":"levelo://app?vid=8e1e848d-d96b-4302-ada5-5df8b44d4656"},"vehicle_type_id":"4","last_reported":1702656562,"current_range_meters":17600,"station_id":"","pricing_plan_id":"free"},{"bike_id":"d7ca5fb7-05d6-4cb5-ba0e-3c03d2aba173","system_id":"levelo_inurba_marseille","lat":43.273613,"lon":5.362705,"is_reserved":false,"is_disabled":false,"rental_uris":{"android":"levelo://app?vid=d7ca5fb7-05d6-4cb5-ba0e-3c03d2aba173","ios":"levelo://app?vid=d7ca5fb7-05d6-4cb5-ba0e-3c03d2aba173"},"vehicle_type_id":"4","last_reported":1702656562,"current_range_meters":19600,"station_id":"ce4bhbh2rcd13ifvqeo0","pricing_plan_id":"free"},{"bike_id":"f9e97150-6414-4d92-b117-ccc779f1ef38","system_id":"levelo_inurba_marseille","lat":43.273613,"lon":5.362705,"is_reserved":false,"is_disabled":false,"rental_uris":{"android":"levelo://app?vid=f9e97150-6414-4d92-b117-ccc779f1ef38","ios":"levelo://app?vid=f9e97150-6414-4d92-b117-ccc779f1ef38"},"vehicle_type_id":"4","last_reported":1702656562,"current_range_meters":14000,"station_id":"ce4bhbh2rcd13ifvqeo0","pricing_plan_id":"free"},{"bike_id":"3bce963e-4ff0-44ae-911c-664b1b6677df","system_id":"levelo_inurba_marseille","lat":43.27376,"lon":5.36253,"is_reserved":false,"is_disabled":false,"rental_uris":{"android":"levelo://app?vid=3bce963e-4ff0-44ae-911c-664b1b6677df","ios":"levelo://app?vid=3bce963e-4ff0-44ae-911c-664b1b6677df"},"vehicle_type_id":"4","last_reported":1702656562,"current_range_meters":19600,"station_id":"ce4bhbh2rcd13ifvqeo0","pricing_plan_id":"free"},{"bike_id":"f46b8131-d934-4d08-8783-3a4977f7a16d","system_id":"levelo_inurba_marseille","lat":43.273613,"lon":5.362705,"is_reserved":false,"is_disabled":false,"rental_uris":{"android":"levelo://app?vid=f46b8131-d934-4d08-8783-3a4977f7a16d","ios":"levelo://app?vid=f46b8131-d934-4d08-8783-3a4977f7a16d"},"vehicle_type_id":"4","last_reported":1702656562,"current_range_meters":31200,"station_id":"ce4bhbh2rcd13ifvqeo0","pricing_plan_id":"free"},{"bike_id":"221d63e7-23e0-465d-b284-e6263b22e20a","system_id":"levelo_inurba_marseille","lat":43.273609,"lon":5.362708,"is_reserved":false,"is_disabled":false,"rental_uris":{"android":"levelo://app?vid=221d63e7-23e0-465d-b284-e6263b22e20a","ios":"levelo://app?vid=221d63e7-23e0-465d-b284-e6263b22e20a"},"vehicle_type_id":"4","last_reported":1702656562,"current_range_meters":28000,"station_id":"ce4bhbh2rcd13ifvqeo0","pricing_plan_id":"free"},{"bike_id":"6470a7a2-1349-4ea5-b7c9-64e4a4a46249","system_id":"levelo_inurba_marseille","lat":43.273609,"lon":5.362708,"is_reserved":false,"is_disabled":false,"rental_uris":{"android":"levelo://app?vid=6470a7a2-1349-4ea5-b7c9-64e4a4a46249","ios":"levelo://app?vid=6470a7a2-1349-4ea5-b7c9-64e4a4a46249"},"vehicle_type_id":"4","last_reported":1702656562,"current_range_meters":29200,"station_id":"ce4bhbh2rcd13ifvqeo0","pricing_plan_id":"free"},{"bike_id":"d1d17a65-03ce-4489-acd4-06452176afb5","system_id":"levelo_inurba_marseille","lat":43.273613,"lon":5.362705,"is_reserved":false,"is_disabled":false,"rental_uris":{"android":"levelo://app?vid=d1d17a65-03ce-4489-acd4-06452176afb5","ios":"levelo://app?vid=d1d17a65-03ce-4489-acd4-06452176afb5"},"vehicle_type_id":"4","last_reported":1702656562,"current_range_meters":28400,"station_id":"ce4bhbh2rcd13ifvqeo0","pricing_plan_id":"free"},{"bike_id":"ed9512f1-7335-451f-9b72-ec481f424a57","system_id":"levelo_inurba_marseille","lat":43.275625,"lon":5.384392,"is_reserved":false,"is_disabled":false,"rental_uris":{"android":"levelo://app?vid=ed9512f1-7335-451f-9b72-ec481f424a57","ios":"levelo://app?vid=ed9512f1-7335-451f-9b72-ec481f424a57"},"vehicle_type_id":"4","last_reported":1702656562,"current_range_meters":17600,"station_id":"ce4bhh92rcd13ifvqfi0","pricing_plan_id":"free"},{"bike_id":"acbba970-e172-4046-8e90-a4bc639bd2f2","system_id":"levelo_inurba_marseille","lat":43.279952,"lon":5.400085,"is_reserved":false,"is_disabled":false,"rental_uris":{"android":"levelo://app?vid=acbba970-e172-4046-8e90-a4bc639bd2f2","ios":"levelo://app?vid=acbba970-e172-4046-8e90-a4bc639bd2f2"},"vehicle_type_id":"4","last_reported":1702656562,"current_range_meters":21200,"station_id":"ce4bho92rcd13ifvqh4g","pricing_plan_id":"free"},{"bike_id":"be704098-660b-4c17-9e3e-bf9d21e82cd6","system_id":"levelo_inurba_marseille","lat":43.279952,"lon":5.400085,"is_reserved":false,"is_disabled":false,"rental_uris":{"android":"levelo://app?vid=be704098-660b-4c17-9e3e-bf9d21e82cd6","ios":"levelo://app?vid=be704098-660b-4c17-9e3e-bf9d21e82cd6"},"vehicle_type_id":"4","last_reported":1702656562,"current_range_meters":30400,"station_id":"ce4bho92rcd13ifvqh4g","pricing_plan_id":"free"},{"bike_id":"58836c95-6366-4507-b317-696c63def311","system_id":"levelo_inurba_marseille","lat":43.317121,"lon":5.423936,"is_reserved":false,"is_disabled":false,"rental_uris":{"android":"levelo://app?vid=58836c95-6366-4507-b317-696c63def311","ios":"levelo://app?vid=58836c95-6366-4507-b317-696c63def311"},"vehicle_type_id":"4","last_reported":1702656562,"current_range_meters":22800,"station_id":"ce4bhp92rcd13ifvqhbg","pricing_plan_id":"free"},{"bike_id":"cdc69067-dad5-415d-b4f3-0a438e350196","system_id":"levelo_inurba_marseille","lat":43.317121,"lon":5.423936,"is_reserved":false,"is_disabled":false,"rental_uris":{"android":"levelo://app?vid=cdc69067-dad5-415d-b4f3-0a438e350196","ios":"levelo://app?vid=cdc69067-dad5-415d-b4f3-0a438e350196"},"vehicle_type_id":"4","last_reported":1702656562,"current_range_meters":12800,"station_id":"ce4bhp92rcd13ifvqhbg","pricing_plan_id":"free"},{"bike_id":"3ca2c2d2-99b0-4aa6-a05d-e30f02e6a7fb","system_id":"levelo_inurba_marseille","lat":43.276092,"lon":5.395289,"is_reserved":false,"is_disabled":false,"rental_uris":{"android":"levelo://app?vid=3ca2c2d2-99b0-4aa6-a05d-e30f02e6a7fb","ios":"levelo://app?vid=3ca2c2d2-99b0-4aa6-a05d-e30f02e6a7fb"},"vehicle_type_id":"4","last_reported":1702656562,"current_range_meters":27200,"station_id":"","pricing_plan_id":"free"},{"bike_id":"3af099a4-ba99-4b01-b56a-00b94f783ee8","system_id":"levelo_inurba_marseille","lat":43.273125,"lon":5.390731,"is_reserved":false,"is_disabled":false,"rental_uris":{"android":"levelo://app?vid=3af099a4-ba99-4b01-b56a-00b94f783ee8","ios":"levelo://app?vid=3af099a4-ba99-4b01-b56a-00b94f783ee8"},"vehicle_type_id":"4","last_reported":1702656562,"current_range_meters":27600,"station_id":"ce4bhgp2rcd13ifvqfe0","pricing_plan_id":"free"},{"bike_id":"95609c88-2bbf-44be-ab7e-58318a5c8215","system_id":"levelo_inurba_marseille","lat":43.30415,"lon":5.42536,"is_reserved":false,"is_disabled":false,"rental_uris":{"android":"levelo://app?vid=95609c88-2bbf-44be-ab7e-58318a5c8215","ios":"levelo://app?vid=95609c88-2bbf-44be-ab7e-58318a5c8215"},"vehicle_type_id":"4","last_reported":1702656562,"current_range_meters":20800,"station_id":"ce4bhoh2rcd13ifvqh6g","pricing_plan_id":"free"},{"bike_id":"de9feb39-3844-4206-aa16-9fe6fe1926e0","system_id":"levelo_inurba_marseille","lat":43.295511,"lon":5.422926,"is_reserved":false,"is_disabled":false,"rental_uris":{"android":"levelo://app?vid=de9feb39-3844-4206-aa16-9fe6fe1926e0","ios":"levelo://app?vid=de9feb39-3844-4206-aa16-9fe6fe1926e0"},"vehicle_type_id":"4","last_reported":1702656562,"current_range_meters":18800,"station_id":"ce4bhph2rcd13ifvqhdg","pricing_plan_id":"free"},{"bike_id":"dda9bded-dc54-4249-8974-a62ce016cbeb","system_id":"levelo_inurba_marseille","lat":43.295523,"lon":5.422926,"is_reserved":false,"is_disabled":false,"rental_uris":{"android":"levelo://app?vid=dda9bded-dc54-4249-8974-a62ce016cbeb","ios":"levelo://app?vid=dda9bded-dc54-4249-8974-a62ce016cbeb"},"vehicle_type_id":"4","last_reported":1702656562,"current_range_meters":4000,"station_id":"ce4bhph2rcd13ifvqhdg","pricing_plan_id":"free"},{"bike_id":"9d09f0a4-260a-4a50-a532-153ab4ee5690","system_id":"levelo_inurba_marseille","lat":43.295523,"lon":5.422926,"is_reserved":false,"is_disabled":false,"rental_uris":{"android":"levelo://app?vid=9d09f0a4-260a-4a50-a532-153ab4ee5690","ios":"levelo://app?vid=9d09f0a4-260a-4a50-a532-153ab4ee5690"},"vehicle_type_id":"4","last_reported":1702656562,"current_range_meters":28800,"station_id":"ce4bhph2rcd13ifvqhdg","pricing_plan_id":"free"},{"bike_id":"32f96936-93cd-4075-a968-0dbd24f89972","system_id":"levelo_inurba_marseille","lat":43.295523,"lon":5.422926,"is_reserved":false,"is_disabled":false,"rental_uris":{"android":"levelo://app?vid=32f96936-93cd-4075-a968-0dbd24f89972","ios":"levelo://app?vid=32f96936-93cd-4075-a968-0dbd24f89972"},"vehicle_type_id":"4","last_reported":1702656562,"current_range_meters":11600,"station_id":"ce4bhph2rcd13ifvqhdg","pricing_plan_id":"free"},{"bike_id":"037fb45d-5781-4ed2-a553-628ca420aa27","system_id":"levelo_inurba_marseille","lat":43.295511,"lon":5.422926,"is_reserved":false,"is_disabled":false,"rental_uris":{"android":"levelo://app?vid=037fb45d-5781-4ed2-a553-628ca420aa27","ios":"levelo://app?vid=037fb45d-5781-4ed2-a553-628ca420aa27"},"vehicle_type_id":"4","last_reported":1702656562,"current_range_meters":30000,"station_id":"ce4bhph2rcd13ifvqhdg","pricing_plan_id":"free"},{"bike_id":"82db42f3-d188-4917-bfe7-11f44a2e6303","system_id":"levelo_inurba_marseille","lat":43.295523,"lon":5.422926,"is_reserved":false,"is_disabled":false,"rental_uris":{"android":"levelo://app?vid=82db42f3-d188-4917-bfe7-11f44a2e6303","ios":"levelo://app?vid=82db42f3-d188-4917-bfe7-11f44a2e6303"},"vehicle_type_id":"4","last_reported":1702656562,"current_range_meters":14800,"station_id":"ce4bhph2rcd13ifvqhdg","pricing_plan_id":"free"},{"bike_id":"3b3c90d1-7c6b-4658-b527-206379f7c97b","system_id":"levelo_inurba_marseille","lat":43.295523,"lon":5.422926,"is_reserved":false,"is_disabled":false,"rental_uris":{"android":"levelo://app?vid=3b3c90d1-7c6b-4658-b527-206379f7c97b","ios":"levelo://app?vid=3b3c90d1-7c6b-4658-b527-206379f7c97b"},"vehicle_type_id":"4","last_reported":1702656562,"current_range_meters":28400,"station_id":"ce4bhph2rcd13ifvqhdg","pricing_plan_id":"free"},{"bike_id":"1d2472e2-350f-44fa-a627-38e6bb5829da","system_id":"levelo_inurba_marseille","lat":43.295511,"lon":5.422926,"is_reserved":false,"is_disabled":false,"rental_uris":{"android":"levelo://app?vid=1d2472e2-350f-44fa-a627-38e6bb5829da","ios":"levelo://app?vid=1d2472e2-350f-44fa-a627-38e6bb5829da"},"vehicle_type_id":"4","last_reported":1702656562,"current_range_meters":31200,"station_id":"ce4bhph2rcd13ifvqhdg","pricing_plan_id":"free"},{"bike_id":"e56fd85b-0adf-4ba8-9f13-7eaf612a89db","system_id":"levelo_inurba_marseille","lat":43.295511,"lon":5.422926,"is_reserved":false,"is_disabled":false,"rental_uris":{"android":"levelo://app?vid=e56fd85b-0adf-4ba8-9f13-7eaf612a89db","ios":"levelo://app?vid=e56fd85b-0adf-4ba8-9f13-7eaf612a89db"},"vehicle_type_id":"4","last_reported":1702656562,"current_range_meters":4800,"station_id":"ce4bhph2rcd13ifvqhdg","pricing_plan_id":"free"},{"bike_id":"071b16aa-0110-4e2f-8e53-c0a33f9ce55a","system_id":"levelo_inurba_marseille","lat":43.269995,"lon":5.393005,"is_reserved":false,"is_disabled":false,"rental_uris":{"android":"levelo://app?vid=071b16aa-0110-4e2f-8e53-c0a33f9ce55a","ios":"levelo://app?vid=071b16aa-0110-4e2f-8e53-c0a33f9ce55a"},"vehicle_type_id":"4","last_reported":1702656562,"current_range_meters":20400,"station_id":"","pricing_plan_id":"free"},{"bike_id":"a38b1346-b82b-49ee-a01b-2b27ca33de23","system_id":"levelo_inurba_marseille","lat":43.26681,"lon":5.382694,"is_reserved":false,"is_disabled":false,"rental_uris":{"android":"levelo://app?vid=a38b1346-b82b-49ee-a01b-2b27ca33de23","ios":"levelo://app?vid=a38b1346-b82b-49ee-a01b-2b27ca33de23"},"vehicle_type_id":"4","last_reported":1702656562,"current_range_meters":9600,"station_id":"ce4bhg92rcd13ifvqf90","pricing_plan_id":"free"},{"bike_id":"7a071f7a-0dc0-4d2f-aaf9-002b11c3a2e6","system_id":"levelo_inurba_marseille","lat":43.267966,"lon":5.393976,"is_reserved":false,"is_disabled":false,"rental_uris":{"android":"levelo://app?vid=7a071f7a-0dc0-4d2f-aaf9-002b11c3a2e6","ios":"levelo://app?vid=7a071f7a-0dc0-4d2f-aaf9-002b11c3a2e6"},"vehicle_type_id":"4","last_reported":1702656562,"current_range_meters":28400,"station_id":"ce4bhh12rcd13ifvqfg0","pricing_plan_id":"free"},{"bike_id":"b731d1ac-b09a-4639-8f56-c20df3a5b283","system_id":"levelo_inurba_marseille","lat":43.265569,"lon":5.390047,"is_reserved":false,"is_disabled":false,"rental_uris":{"android":"levelo://app?vid=b731d1ac-b09a-4639-8f56-c20df3a5b283","ios":"levelo://app?vid=b731d1ac-b09a-4639-8f56-c20df3a5b283"},"vehicle_type_id":"4","last_reported":1702656562,"current_range_meters":20400,"station_id":"ce4bhe12rcd13ifvqf30","pricing_plan_id":"free"},{"bike_id":"aa7ebe32-f1a4-4d47-bd7a-34b412f08674","system_id":"levelo_inurba_marseille","lat":43.317104,"lon":5.436818,"is_reserved":false,"is_disabled":false,"rental_uris":{"android":"levelo://app?vid=aa7ebe32-f1a4-4d47-bd7a-34b412f08674","ios":"levelo://app?vid=aa7ebe32-f1a4-4d47-bd7a-34b412f08674"},"vehicle_type_id":"4","last_reported":1702656562,"current_range_meters":20400,"station_id":"ce4bhp92rcd13ifvqhcg","pricing_plan_id":"free"},{"bike_id":"07ff3f4b-c8e7-4151-af02-5997bf4db579","system_id":"levelo_inurba_marseille","lat":43.261782,"lon":5.374515,"is_reserved":false,"is_disabled":false,"rental_uris":{"android":"levelo://app?vid=07ff3f4b-c8e7-4151-af02-5997bf4db579","ios":"levelo://app?vid=07ff3f4b-c8e7-4151-af02-5997bf4db579"},"vehicle_type_id":"4","last_reported":1702656562,"current_range_meters":14800,"station_id":"ce4bhgp2rcd13ifvqfc0","pricing_plan_id":"free"},{"bike_id":"458b6ceb-e0e8-449e-9d54-718ca1726bcf","system_id":"levelo_inurba_marseille","lat":43.271388,"lon":5.409269,"is_reserved":false,"is_disabled":false,"rental_uris":{"android":"levelo://app?vid=458b6ceb-e0e8-449e-9d54-718ca1726bcf","ios":"levelo://app?vid=458b6ceb-e0e8-449e-9d54-718ca1726bcf"},"vehicle_type_id":"4","last_reported":1702656562,"current_range_meters":30000,"station_id":"ce4bhl12rcd13ifvqgf0","pricing_plan_id":"free"},{"bike_id":"2eacc17e-52cf-4e4f-b894-8bcb074f70e1","system_id":"levelo_inurba_marseille","lat":43.267959,"lon":5.402685,"is_reserved":false,"is_disabled":false,"rental_uris":{"android":"levelo://app?vid=2eacc17e-52cf-4e4f-b894-8bcb074f70e1","ios":"levelo://app?vid=2eacc17e-52cf-4e4f-b894-8bcb074f70e1"},"vehicle_type_id":"4","last_reported":1702656562,"current_range_meters":26800,"station_id":"ce501612rcd8frsf0b60","pricing_plan_id":"free"},{"bike_id":"4510633c-6100-41ad-9855-e4f0def2a04e","system_id":"levelo_inurba_marseille","lat":43.29901,"lon":5.43665,"is_reserved":false,"is_disabled":false,"rental_uris":{"android":"levelo://app?vid=4510633c-6100-41ad-9855-e4f0def2a04e","ios":"levelo://app?vid=4510633c-6100-41ad-9855-e4f0def2a04e"},"vehicle_type_id":"4","last_reported":1702656562,"current_range_meters":19200,"station_id":"ce4bhpp2rcd13ifvqhfg","pricing_plan_id":"free"},{"bike_id":"5e6b6c9d-7382-43f8-bc4e-addb82167ad9","system_id":"levelo_inurba_marseille","lat":43.281548,"lon":5.42643,"is_reserved":false,"is_disabled":false,"rental_uris":{"android":"levelo://app?vid=5e6b6c9d-7382-43f8-bc4e-addb82167ad9","ios":"levelo://app?vid=5e6b6c9d-7382-43f8-bc4e-addb82167ad9"},"vehicle_type_id":"4","last_reported":1702656562,"current_range_meters":31200,"station_id":"ce4bhnh2rcd13ifvqgug","pricing_plan_id":"free"},{"bike_id":"c3e51b56-5b98-4a4e-a5c7-205fbe4af898","system_id":"levelo_inurba_marseille","lat":43.281548,"lon":5.42643,"is_reserved":false,"is_disabled":false,"rental_uris":{"android":"levelo://app?vid=c3e51b56-5b98-4a4e-a5c7-205fbe4af898","ios":"levelo://app?vid=c3e51b56-5b98-4a4e-a5c7-205fbe4af898"},"vehicle_type_id":"4","last_reported":1702656562,"current_range_meters":1200,"station_id":"ce4bhnh2rcd13ifvqgug","pricing_plan_id":"free"},{"bike_id":"560bfba6-79d7-4769-85a9-4c84005c3f4f","system_id":"levelo_inurba_marseille","lat":43.2607,"lon":5.393983,"is_reserved":false,"is_disabled":false,"rental_uris":{"android":"levelo://app?vid=560bfba6-79d7-4769-85a9-4c84005c3f4f","ios":"levelo://app?vid=560bfba6-79d7-4769-85a9-4c84005c3f4f"},"vehicle_type_id":"4","last_reported":1702656562,"current_range_meters":2400,"station_id":"ce4bhh92rcd13ifvqfj0","pricing_plan_id":"free"},{"bike_id":"98c3cdd1-faa6-4a53-93be-fd73ce55b378","system_id":"levelo_inurba_marseille","lat":43.2607,"lon":5.393983,"is_reserved":false,"is_disabled":false,"rental_uris":{"android":"levelo://app?vid=98c3cdd1-faa6-4a53-93be-fd73ce55b378","ios":"levelo://app?vid=98c3cdd1-faa6-4a53-93be-fd73ce55b378"},"vehicle_type_id":"4","last_reported":1702656562,"current_range_meters":13200,"station_id":"ce4bhh92rcd13ifvqfj0","pricing_plan_id":"free"},{"bike_id":"fa7ae3f6-3097-48eb-ba38-069da3caa93d","system_id":"levelo_inurba_marseille","lat":43.2607,"lon":5.393983,"is_reserved":false,"is_disabled":false,"rental_uris":{"android":"levelo://app?vid=fa7ae3f6-3097-48eb-ba38-069da3caa93d","ios":"levelo://app?vid=fa7ae3f6-3097-48eb-ba38-069da3caa93d"},"vehicle_type_id":"4","last_reported":1702656562,"current_range_meters":3600,"station_id":"ce4bhh92rcd13ifvqfj0","pricing_plan_id":"free"},{"bike_id":"4aa78966-3d76-4600-b8eb-de302916698d","system_id":"levelo_inurba_marseille","lat":43.2607,"lon":5.393983,"is_reserved":false,"is_disabled":false,"rental_uris":{"android":"levelo://app?vid=4aa78966-3d76-4600-b8eb-de302916698d","ios":"levelo://app?vid=4aa78966-3d76-4600-b8eb-de302916698d"},"vehicle_type_id":"4","last_reported":1702656562,"current_range_meters":31200,"station_id":"ce4bhh92rcd13ifvqfj0","pricing_plan_id":"free"},{"bike_id":"b76e4b50-f6f0-431f-a6f8-b141c06663a4","system_id":"levelo_inurba_marseille","lat":43.275028,"lon":5.424534,"is_reserved":false,"is_disabled":false,"rental_uris":{"android":"levelo://app?vid=b76e4b50-f6f0-431f-a6f8-b141c06663a4","ios":"levelo://app?vid=b76e4b50-f6f0-431f-a6f8-b141c06663a4"},"vehicle_type_id":"4","last_reported":1702656562,"current_range_meters":0,"station_id":"ce4bhn92rcd13ifvqgrg","pricing_plan_id":"free"},{"bike_id":"63564243-fd7a-4448-b1f0-0eca9fe72c79","system_id":"levelo_inurba_marseille","lat":43.258224,"lon":5.394369,"is_reserved":false,"is_disabled":false,"rental_uris":{"android":"levelo://app?vid=63564243-fd7a-4448-b1f0-0eca9fe72c79","ios":"levelo://app?vid=63564243-fd7a-4448-b1f0-0eca9fe72c79"},"vehicle_type_id":"4","last_reported":1702656562,"current_range_meters":8800,"station_id":"ce4bhip2rcd13ifvqft0","pricing_plan_id":"free"},{"bike_id":"41e16c50-7b0a-4366-978a-957c87615b02","system_id":"levelo_inurba_marseille","lat":43.255,"lon":5.37653,"is_reserved":false,"is_disabled":false,"rental_uris":{"android":"levelo://app?vid=41e16c50-7b0a-4366-978a-957c87615b02","ios":"levelo://app?vid=41e16c50-7b0a-4366-978a-957c87615b02"},"vehicle_type_id":"4","last_reported":1702656562,"current_range_meters":0,"station_id":"ce4bhh12rcd13ifvqff0","pricing_plan_id":"free"},{"bike_id":"684c1270-0092-4a86-ad29-c7608ce182e8","system_id":"levelo_inurba_marseille","lat":43.254947,"lon":5.376454,"is_reserved":false,"is_disabled":false,"rental_uris":{"android":"levelo://app?vid=684c1270-0092-4a86-ad29-c7608ce182e8","ios":"levelo://app?vid=684c1270-0092-4a86-ad29-c7608ce182e8"},"vehicle_type_id":"4","last_reported":1702656562,"current_range_meters":28800,"station_id":"ce4bhh12rcd13ifvqff0","pricing_plan_id":"free"},{"bike_id":"678ec979-7926-45ff-a104-bb085a0ce0cf","system_id":"levelo_inurba_marseille","lat":43.254947,"lon":5.376454,"is_reserved":false,"is_disabled":false,"rental_uris":{"android":"levelo://app?vid=678ec979-7926-45ff-a104-bb085a0ce0cf","ios":"levelo://app?vid=678ec979-7926-45ff-a104-bb085a0ce0cf"},"vehicle_type_id":"4","last_reported":1702656562,"current_range_meters":18800,"station_id":"ce4bhh12rcd13ifvqff0","pricing_plan_id":"free"},{"bike_id":"51fbc073-d4b5-4fad-b3f5-538567d17cc0","system_id":"levelo_inurba_marseille","lat":43.254947,"lon":5.376454,"is_reserved":false,"is_disabled":false,"rental_uris":{"android":"levelo://app?vid=51fbc073-d4b5-4fad-b3f5-538567d17cc0","ios":"levelo://app?vid=51fbc073-d4b5-4fad-b3f5-538567d17cc0"},"vehicle_type_id":"4","last_reported":1702656562,"current_range_meters":31200,"station_id":"ce4bhh12rcd13ifvqff0","pricing_plan_id":"free"},{"bike_id":"1d0da5f2-1ffa-483e-b3eb-9fe027d951a8","system_id":"levelo_inurba_marseille","lat":43.254947,"lon":5.376454,"is_reserved":false,"is_disabled":false,"rental_uris":{"android":"levelo://app?vid=1d0da5f2-1ffa-483e-b3eb-9fe027d951a8","ios":"levelo://app?vid=1d0da5f2-1ffa-483e-b3eb-9fe027d951a8"},"vehicle_type_id":"4","last_reported":1702656562,"current_range_meters":24000,"station_id":"ce4bhh12rcd13ifvqff0","pricing_plan_id":"free"},{"bike_id":"20cab146-a543-4dee-9f8a-a60ca8f05dd0","system_id":"levelo_inurba_marseille","lat":43.254947,"lon":5.376454,"is_reserved":false,"is_disabled":false,"rental_uris":{"android":"levelo://app?vid=20cab146-a543-4dee-9f8a-a60ca8f05dd0","ios":"levelo://app?vid=20cab146-a543-4dee-9f8a-a60ca8f05dd0"},"vehicle_type_id":"4","last_reported":1702656562,"current_range_meters":25600,"station_id":"ce4bhh12rcd13ifvqff0","pricing_plan_id":"free"},{"bike_id":"5e961a5f-df6a-445d-936d-a4f8ea7b0b0c","system_id":"levelo_inurba_marseille","lat":43.270721,"lon":5.422764,"is_reserved":false,"is_disabled":false,"rental_uris":{"android":"levelo://app?vid=5e961a5f-df6a-445d-936d-a4f8ea7b0b0c","ios":"levelo://app?vid=5e961a5f-df6a-445d-936d-a4f8ea7b0b0c"},"vehicle_type_id":"4","last_reported":1702656562,"current_range_meters":16400,"station_id":"ce4bhk92rcd13ifvqgb0","pricing_plan_id":"free"},{"bike_id":"5af7e9e5-19dd-4920-bfb9-56233240b6eb","system_id":"levelo_inurba_marseille","lat":43.2593,"lon":5.40919,"is_reserved":false,"is_disabled":false,"rental_uris":{"android":"levelo://app?vid=5af7e9e5-19dd-4920-bfb9-56233240b6eb","ios":"levelo://app?vid=5af7e9e5-19dd-4920-bfb9-56233240b6eb"},"vehicle_type_id":"4","last_reported":1702656562,"current_range_meters":29600,"station_id":"ce4bhm92rcd13ifvqglg","pricing_plan_id":"free"},{"bike_id":"1d91b4e8-9c1c-4f14-a3ad-72e16ff6a6fa","system_id":"levelo_inurba_marseille","lat":43.257079,"lon":5.411051,"is_reserved":false,"is_disabled":false,"rental_uris":{"android":"levelo://app?vid=1d91b4e8-9c1c-4f14-a3ad-72e16ff6a6fa","ios":"levelo://app?vid=1d91b4e8-9c1c-4f14-a3ad-72e16ff6a6fa"},"vehicle_type_id":"4","last_reported":1702656562,"current_range_meters":9200,"station_id":"ce4bhkp2rcd13ifvqgd0","pricing_plan_id":"free"},{"bike_id":"30f27992-ba7e-43f7-aa91-a4e7136a79eb","system_id":"levelo_inurba_marseille","lat":43.257079,"lon":5.411051,"is_reserved":false,"is_disabled":false,"rental_uris":{"android":"levelo://app?vid=30f27992-ba7e-43f7-aa91-a4e7136a79eb","ios":"levelo://app?vid=30f27992-ba7e-43f7-aa91-a4e7136a79eb"},"vehicle_type_id":"4","last_reported":1702656562,"current_range_meters":30400,"station_id":"ce4bhkp2rcd13ifvqgd0","pricing_plan_id":"free"},{"bike_id":"36055a51-5a34-47f1-96fe-daf072616fe9","system_id":"levelo_inurba_marseille","lat":43.257079,"lon":5.411051,"is_reserved":false,"is_disabled":false,"rental_uris":{"android":"levelo://app?vid=36055a51-5a34-47f1-96fe-daf072616fe9","ios":"levelo://app?vid=36055a51-5a34-47f1-96fe-daf072616fe9"},"vehicle_type_id":"4","last_reported":1702656562,"current_range_meters":22800,"station_id":"ce4bhkp2rcd13ifvqgd0","pricing_plan_id":"free"},{"bike_id":"9749356c-2b91-4809-9c2d-0bb24ddf8d62","system_id":"levelo_inurba_marseille","lat":43.25011,"lon":5.38917,"is_reserved":false,"is_disabled":false,"rental_uris":{"android":"levelo://app?vid=9749356c-2b91-4809-9c2d-0bb24ddf8d62","ios":"levelo://app?vid=9749356c-2b91-4809-9c2d-0bb24ddf8d62"},"vehicle_type_id":"4","last_reported":1702656562,"current_range_meters":12800,"station_id":"ce4bhgp2rcd13ifvqfd0","pricing_plan_id":"free"},{"bike_id":"ddf66bfa-9e13-4110-8bf1-b55d26e82173","system_id":"levelo_inurba_marseille","lat":43.24693,"lon":5.382096,"is_reserved":false,"is_disabled":false,"rental_uris":{"android":"levelo://app?vid=ddf66bfa-9e13-4110-8bf1-b55d26e82173","ios":"levelo://app?vid=ddf66bfa-9e13-4110-8bf1-b55d26e82173"},"vehicle_type_id":"4","last_reported":1702656562,"current_range_meters":28400,"station_id":"ce4bhih2rcd13ifvqfr0","pricing_plan_id":"free"},{"bike_id":"ea75f713-ee53-4b39-82a1-307d9087a9d5","system_id":"levelo_inurba_marseille","lat":43.246467,"lon":5.388984,"is_reserved":false,"is_disabled":false,"rental_uris":{"android":"levelo://app?vid=ea75f713-ee53-4b39-82a1-307d9087a9d5","ios":"levelo://app?vid=ea75f713-ee53-4b39-82a1-307d9087a9d5"},"vehicle_type_id":"4","last_reported":1702656562,"current_range_meters":20400,"station_id":"ce4bhg12rcd13ifvqf60","pricing_plan_id":"free"},{"bike_id":"8c112bac-5f5a-407d-8532-bc3c79605cd8","system_id":"levelo_inurba_marseille","lat":43.239588,"lon":5.366238,"is_reserved":false,"is_disabled":false,"rental_uris":{"android":"levelo://app?vid=8c112bac-5f5a-407d-8532-bc3c79605cd8","ios":"levelo://app?vid=8c112bac-5f5a-407d-8532-bc3c79605cd8"},"vehicle_type_id":"4","last_reported":1702656562,"current_range_meters":30400,"station_id":"ce4bhi12rcd13ifvqfp0","pricing_plan_id":"free"},{"bike_id":"c1429ef9-64a4-4967-b791-1805b200879e","system_id":"levelo_inurba_marseille","lat":43.231923,"lon":5.355545,"is_reserved":false,"is_disabled":false,"rental_uris":{"android":"levelo://app?vid=c1429ef9-64a4-4967-b791-1805b200879e","ios":"levelo://app?vid=c1429ef9-64a4-4967-b791-1805b200879e"},"vehicle_type_id":"4","last_reported":1702656562,"current_range_meters":21200,"station_id":"ce4bhu92rcd13ifvqi70","pricing_plan_id":"free"},{"bike_id":"9117ba78-efb0-4f4b-992f-bae6baeaec6c","system_id":"levelo_inurba_marseille","lat":43.23202,"lon":5.35548,"is_reserved":false,"is_disabled":false,"rental_uris":{"android":"levelo://app?vid=9117ba78-efb0-4f4b-992f-bae6baeaec6c","ios":"levelo://app?vid=9117ba78-efb0-4f4b-992f-bae6baeaec6c"},"vehicle_type_id":"4","last_reported":1702656562,"current_range_meters":13600,"station_id":"ce4bhu92rcd13ifvqi70","pricing_plan_id":"free"},{"bike_id":"547672b1-18af-4711-b9a3-86e73cab70b4","system_id":"levelo_inurba_marseille","lat":43.232019,"lon":5.355391,"is_reserved":false,"is_disabled":false,"rental_uris":{"android":"levelo://app?vid=547672b1-18af-4711-b9a3-86e73cab70b4","ios":"levelo://app?vid=547672b1-18af-4711-b9a3-86e73cab70b4"},"vehicle_type_id":"4","last_reported":1702656562,"current_range_meters":20400,"station_id":"ce4bhu92rcd13ifvqi70","pricing_plan_id":"free"},{"bike_id":"6159a088-b370-48df-b5da-9c5aafd142ff","system_id":"levelo_inurba_marseille","lat":43.23201,"lon":5.35547,"is_reserved":false,"is_disabled":false,"rental_uris":{"android":"levelo://app?vid=6159a088-b370-48df-b5da-9c5aafd142ff","ios":"levelo://app?vid=6159a088-b370-48df-b5da-9c5aafd142ff"},"vehicle_type_id":"4","last_reported":1702656562,"current_range_meters":7200,"station_id":"ce4bhu92rcd13ifvqi70","pricing_plan_id":"free"},{"bike_id":"bad9b33d-de7d-4c7c-82d1-be01fc455f93","system_id":"levelo_inurba_marseille","lat":43.231923,"lon":5.355545,"is_reserved":false,"is_disabled":false,"rental_uris":{"android":"levelo://app?vid=bad9b33d-de7d-4c7c-82d1-be01fc455f93","ios":"levelo://app?vid=bad9b33d-de7d-4c7c-82d1-be01fc455f93"},"vehicle_type_id":"4","last_reported":1702656562,"current_range_meters":26800,"station_id":"ce4bhu92rcd13ifvqi70","pricing_plan_id":"free"},{"bike_id":"f500303a-8ac6-445d-adc7-107959ea5aff","system_id":"levelo_inurba_marseille","lat":43.231923,"lon":5.355545,"is_reserved":false,"is_disabled":false,"rental_uris":{"android":"levelo://app?vid=f500303a-8ac6-445d-adc7-107959ea5aff","ios":"levelo://app?vid=f500303a-8ac6-445d-adc7-107959ea5aff"},"vehicle_type_id":"4","last_reported":1702656562,"current_range_meters":29600,"station_id":"ce4bhu92rcd13ifvqi70","pricing_plan_id":"free"},{"bike_id":"600bdeb8-ea2a-4d1c-a6da-f7a255388a48","system_id":"levelo_inurba_marseille","lat":43.23193,"lon":5.355526,"is_reserved":false,"is_disabled":false,"rental_uris":{"android":"levelo://app?vid=600bdeb8-ea2a-4d1c-a6da-f7a255388a48","ios":"levelo://app?vid=600bdeb8-ea2a-4d1c-a6da-f7a255388a48"},"vehicle_type_id":"4","last_reported":1702656562,"current_range_meters":14800,"station_id":"ce4bhu92rcd13ifvqi70","pricing_plan_id":"free"},{"bike_id":"a6ab5f0e-f0ee-41be-b237-17726a43f065","system_id":"levelo_inurba_marseille","lat":43.23193,"lon":5.35546,"is_reserved":false,"is_disabled":false,"rental_uris":{"android":"levelo://app?vid=a6ab5f0e-f0ee-41be-b237-17726a43f065","ios":"levelo://app?vid=a6ab5f0e-f0ee-41be-b237-17726a43f065"},"vehicle_type_id":"4","last_reported":1702656562,"current_range_meters":7200,"station_id":"ce4bhu92rcd13ifvqi70","pricing_plan_id":"free"},{"bike_id":"bb21ca5a-cb13-451e-943b-2dfa4a3b7fbc","system_id":"levelo_inurba_marseille","lat":43.231919,"lon":5.355532,"is_reserved":false,"is_disabled":false,"rental_uris":{"android":"levelo://app?vid=bb21ca5a-cb13-451e-943b-2dfa4a3b7fbc","ios":"levelo://app?vid=bb21ca5a-cb13-451e-943b-2dfa4a3b7fbc"},"vehicle_type_id":"4","last_reported":1702656562,"current_range_meters":28000,"station_id":"ce4bhu92rcd13ifvqi70","pricing_plan_id":"free"},{"bike_id":"44b630dd-55a9-482e-af76-6839df09d8fe","system_id":"levelo_inurba_marseille","lat":43.231794,"lon":5.400052,"is_reserved":false,"is_disabled":false,"rental_uris":{"android":"levelo://app?vid=44b630dd-55a9-482e-af76-6839df09d8fe","ios":"levelo://app?vid=44b630dd-55a9-482e-af76-6839df09d8fe"},"vehicle_type_id":"4","last_reported":1702656562,"current_range_meters":4400,"station_id":"ce4bhn12rcd13ifvqgqg","pricing_plan_id":"free"},{"bike_id":"0f65b9f4-f241-435f-87c9-d09d1486d59b","system_id":"levelo_inurba_marseille","lat":43.231794,"lon":5.400052,"is_reserved":false,"is_disabled":false,"rental_uris":{"android":"levelo://app?vid=0f65b9f4-f241-435f-87c9-d09d1486d59b","ios":"levelo://app?vid=0f65b9f4-f241-435f-87c9-d09d1486d59b"},"vehicle_type_id":"4","last_reported":1702656562,"current_range_meters":2400,"station_id":"ce4bhn12rcd13ifvqgqg","pricing_plan_id":"free"},{"bike_id":"cab54a8b-8c2b-4907-9642-4192bb0aa817","system_id":"levelo_inurba_marseille","lat":43.231793,"lon":5.400044,"is_reserved":false,"is_disabled":false,"rental_uris":{"android":"levelo://app?vid=cab54a8b-8c2b-4907-9642-4192bb0aa817","ios":"levelo://app?vid=cab54a8b-8c2b-4907-9642-4192bb0aa817"},"vehicle_type_id":"4","last_reported":1702656562,"current_range_meters":30400,"station_id":"ce4bhn12rcd13ifvqgqg","pricing_plan_id":"free"},{"bike_id":"d657bd16-ddba-486a-8e03-61a1863435fa","system_id":"levelo_inurba_marseille","lat":43.231794,"lon":5.400052,"is_reserved":false,"is_disabled":false,"rental_uris":{"android":"levelo://app?vid=d657bd16-ddba-486a-8e03-61a1863435fa","ios":"levelo://app?vid=d657bd16-ddba-486a-8e03-61a1863435fa"},"vehicle_type_id":"4","last_reported":1702656562,"current_range_meters":31600,"station_id":"ce4bhn12rcd13ifvqgqg","pricing_plan_id":"free"},{"bike_id":"fb996118-189b-49ca-b312-0dbe5d1d27d6","system_id":"levelo_inurba_marseille","lat":43.231793,"lon":5.400044,"is_reserved":false,"is_disabled":false,"rental_uris":{"android":"levelo://app?vid=fb996118-189b-49ca-b312-0dbe5d1d27d6","ios":"levelo://app?vid=fb996118-189b-49ca-b312-0dbe5d1d27d6"},"vehicle_type_id":"4","last_reported":1702656562,"current_range_meters":16800,"station_id":"ce4bhn12rcd13ifvqgqg","pricing_plan_id":"free"}]}}