{"last_updated":1731150361,"ttl":60,"version":"2.2","data":{"bikes":[{"bike_id":"7d4b1cd1-80a3-43c2-9122-e99cfedaa7c6","system_id":"levelo_inurba_marseille","lat":43.27493,"lon":5.42449,"is_reserved":false,"is_disabled":false,"rental_uris":{"android":"levelo://app?vid=7d4b1cd1-80a3-43c2-9122-e99cfedaa7c6","ios":"levelo://app?vid=7d4b1cd1-80a3-43c2-9122-e99cfedaa7c6"},"vehicle_type_id":"4","last_reported":1731150361,"current_range_meters":32800,"station_id":"ce4bhn92rcd13ifvqgrg","pricing_plan_id":"cebpf4jnsgd1na2vs0mg"},{"bike_id":"e94e2327-9eaf-4d26-bd7f-903afa708be6","system_id":"levelo_inurba_marseille","lat":43.33725,"lon":5.39193,"is_reserved":false,"is_disabled":false,"rental_uris":{"android":"levelo://app?vid=e94e2327-9eaf-4d26-bd7f-903afa708be6","ios":"levelo://app?vid=e94e2327-9eaf-4d26-bd7f-903afa708be6"},"vehicle_type_id":"4","last_reported":1731150361,"current_range_meters":19600,"station_id":"ce4bhr92rcd13ifvqhsg","pricing_plan_id":"cebpf4jnsgd1na2vs0mg"},{"bike_id":"37b18ebd-4aa0-4ca2-bfbb-ac9479701cc7","system_id":"levelo_inurba_marseille","lat":43.28068,"lon":5.39643,"is_reserved":false,"is_disabled":false,"rental_uris":{"android":"levelo://app?vid=37b18ebd-4aa0-4ca2-bfbb-ac9479701cc7","ios":"levelo://app?vid=37b18ebd-4aa0-4ca2-bfbb-ac9479701cc7"},"vehicle_type_id":"4","last_reported":1731150361,"current_range_meters":39200,"station_id":"ce4bho12rcd13ifvqh2g","pricing_plan_id":"cebpf4jnsgd1na2vs0mg"},{"bike_id":"7667ece4-e822-4f6b-bb96-028c79d0f3ff","system_id":"levelo_inurba_marseille","lat":43.29224,"lon":5.36066,"is_reserved":false,"is_disabled":false,"rental_uris":{"android":"levelo://app?vid=7667ece4-e822-4f6b-bb96-028c79d0f3ff","ios":"levelo://app?vid=7667ece4-e822-4f6b-bb96-028c79d0f3ff"},"vehicle_type_id":"4","last_reported":1731150361,"current_range_meters":28400,"station_id":"ce4bhbh2rcd13ifvqeqg","pricing_plan_id":"cebpf4jnsgd1na2vs0mg"},{"bike_id":"68bb9078-c705-4e4c-81de-7ae7c7d86c43","system_id":"levelo_inurba_marseille","lat":43.31716,"lon":5.37777,"is_reserved":false,"is_disabled":false,"rental_uris":{"android":"levelo://app?vid=68bb9078-c705-4e4c-81de-7ae7c7d86c43","ios":"levelo://app?vid=68bb9078-c705-4e4c-81de-7ae7c7d86c43"},"vehicle_type_id":"4","last_reported":1731150361,"current_range_meters":28800,"station_id":"ce4bgth2rcd13ifvqch0","pricing_plan_id":"cebpf4jnsgd1na2vs0mg"},{"bike_id":"adba1a50-659f-4436-9b54-08ebe39204db","system_id":"levelo_inurba_marseille","lat":43.29578,"lon":5.3751,"is_reserved":false,"is_disabled":false,"rental_uris":{"android":"levelo://app?vid=adba1a50-659f-4436-9b54-08ebe39204db","ios":"levelo://app?vid=adba1a50-659f-4436-9b54-08ebe39204db"},"vehicle_type_id":"4","last_reported":1731150361,"current_range_meters":32800,"station_id":"ce4bgh92rcd13ifvqb50","pricing_plan_id":"cebpf4jnsgd1na2vs0mg"},{"bike_id":"df2e79d1-efe6-4a83-b831-8409f5b4006e","system_id":"levelo_inurba_marseille","lat":43.26202,"lon":5.37924,"is_reserved":false,"is_disabled":false,"rental_uris":{"android":"levelo://app?vid=df2e79d1-efe6-4a83-b831-8409f5b4006e","ios":"levelo://app?vid=df2e79d1-efe6-4a83-b831-8409f5b4006e"},"vehicle_type_id":"4","last_reported":1731150361,"current_range_meters":39200,"station_id":"ce4bhjp2rcd13ifvqg90","pricing_plan_id":"cebpf4jnsgd1na2vs0mg"},{"bike_id":"872d87b5-0c1c-47b2-a0a2-9cdb912f2bbd","system_id":"levelo_inurba_marseille","lat":43.27209,"lon":5.39184,"is_reserved":false,"is_disabled":false,"rental_uris":{"android":"levelo://app?vid=872d87b5-0c1c-47b2-a0a2-9cdb912f2bbd","ios":"levelo://app?vid=872d87b5-0c1c-47b2-a0a2-9cdb912f2bbd"},"vehicle_type_id":"4","last_reported":1731150361,"current_range_meters":39200,"station_id":"ce4bhhp2rcd13ifvqfm0","pricing_plan_id":"cebpf4jnsgd1na2vs0mg"},{"bike_id":"37e7290f-f94e-41d3-a77e-d175208883b9","system_id":"levelo_inurba_marseille","lat":43.28078,"lon":5.39661,"is_reserved":false,"is_disabled":false,"rental_uris":{"android":"levelo://app?vid=37e7290f-f94e-41d3-a77e-d175208883b9","ios":"levelo://app?vid=37e7290f-f94e-41d3-a77e-d175208883b9"},"vehicle_type_id":"4","last_reported":1731150361,"current_range_meters":38400,"station_id":"ce4bho12rcd13ifvqh2g","pricing_plan_id":"cebpf4jnsgd1na2vs0mg"},{"bike_id":"c8ff23ec-94a3-4281-8ba1-5d9edd78fc5c","system_id":"levelo_inurba_marseille","lat":43.29907,"lon":5.37466,"is_reserved":false,"is_disabled":false,"rental_uris":{"android":"levelo://app?vid=c8ff23ec-94a3-4281-8ba1-5d9edd78fc5c","ios":"levelo://app?vid=c8ff23ec-94a3-4281-8ba1-5d9edd78fc5c"},"vehicle_type_id":"4","last_reported":1731150361,"current_range_meters":21600,"station_id":"ce4bgjh2rcd13ifvqbg0","pricing_plan_id":"cebpf4jnsgd1na2vs0mg"},{"bike_id":"cdb2da93-4529-4d69-81d9-d8b97598b8a8","system_id":"levelo_inurba_marseille","lat":43.30537,"lon":5.36543,"is_reserved":false,"is_disabled":false,"rental_uris":{"android":"levelo://app?vid=cdb2da93-4529-4d69-81d9-d8b97598b8a8","ios":"levelo://app?vid=cdb2da93-4529-4d69-81d9-d8b97598b8a8"},"vehicle_type_id":"4","last_reported":1731150361,"current_range_meters":22000,"station_id":"ce4bgs12rcd13ifvqcag","pricing_plan_id":"cebpf4jnsgd1na2vs0mg"},{"bike_id":"997f9a79-9751-4d39-87a4-973e400cf1b4","system_id":"levelo_inurba_marseille","lat":43.26931,"lon":5.38919,"is_reserved":false,"is_disabled":false,"rental_uris":{"android":"levelo://app?vid=997f9a79-9751-4d39-87a4-973e400cf1b4","ios":"levelo://app?vid=997f9a79-9751-4d39-87a4-973e400cf1b4"},"vehicle_type_id":"4","last_reported":1731150361,"current_range_meters":23200,"station_id":"ce4bhhh2rcd13ifvqfl0","pricing_plan_id":"cebpf4jnsgd1na2vs0mg"},{"bike_id":"80a284ff-7be4-46e0-9920-f2ff1c4ea195","system_id":"levelo_inurba_marseille","lat":43.29572,"lon":5.3752,"is_reserved":false,"is_disabled":false,"rental_uris":{"android":"levelo://app?vid=80a284ff-7be4-46e0-9920-f2ff1c4ea195","ios":"levelo://app?vid=80a284ff-7be4-46e0-9920-f2ff1c4ea195"},"vehicle_type_id":"4","last_reported":1731150361,"current_range_meters":37600,"station_id":"ce4bgh92rcd13ifvqb50","pricing_plan_id":"cebpf4jnsgd1na2vs0mg"},{"bike_id":"dc11153a-b8c9-452f-bcae-07f76ace4c66","system_id":"levelo_inurba_marseille","lat":43.29699,"lon":5.37698,"is_reserved":false,"is_disabled":false,"rental_uris":{"android":"levelo://app?vid=dc11153a-b8c9-452f-bcae-07f76ace4c66","ios":"levelo://app?vid=dc11153a-b8c9-452f-bcae-07f76ace4c66"},"vehicle_type_id":"4","last_reported":1731150361,"current_range_meters":13600,"station_id":"ce4bgkh2rcd13ifvqbl0","pricing_plan_id":"cebpf4jnsgd1na2vs0mg"},{"bike_id":"6e65b696-85b8-4128-b24f-217ee3a17be3","system_id":"levelo_inurba_marseille","lat":43.28273,"lon":5.3507,"is_reserved":false,"is_disabled":false,"rental_uris":{"android":"levelo://app?vid=6e65b696-85b8-4128-b24f-217ee3a17be3","ios":"levelo://app?vid=6e65b696-85b8-4128-b24f-217ee3a17be3"},"vehicle_type_id":"4","last_reported":1731150361,"current_range_meters":27600,"station_id":"ce4bhbp2rcd13ifvqerg","pricing_plan_id":"cebpf4jnsgd1na2vs0mg"},{"bike_id":"8633134c-958c-4f7d-b9db-bd51e61b5e12","system_id":"levelo_inurba_marseille","lat":43.30957,"lon":5.39034,"is_reserved":false,"is_disabled":false,"rental_uris":{"android":"levelo://app?vid=8633134c-958c-4f7d-b9db-bd51e61b5e12","ios":"levelo://app?vid=8633134c-958c-4f7d-b9db-bd51e61b5e12"},"vehicle_type_id":"4","last_reported":1731150361,"current_range_meters":38800,"station_id":"ce4bgup2rcd13ifvqco0","pricing_plan_id":"cebpf4jnsgd1na2vs0mg"},{"bike_id":"b22ce343-1d4a-4381-9788-bc7f307652d5","system_id":"levelo_inurba_marseille","lat":43.29083,"lon":5.38116,"is_reserved":false,"is_disabled":false,"rental_uris":{"android":"levelo://app?vid=b22ce343-1d4a-4381-9788-bc7f307652d5","ios":"levelo://app?vid=b22ce343-1d4a-4381-9788-bc7f307652d5"},"vehicle_type_id":"4","last_reported":1731150361,"current_range_meters":38800,"station_id":"ce4bh512rcd13ifvqe2g","pricing_plan_id":"cebpf4jnsgd1na2vs0mg"},{"bike_id":"2fd6dc22-dc4f-436f-8f09-ea747d8c2aa2","system_id":"levelo_inurba_marseille","lat":43.23957,"lon":5.36638,"is_reserved":false,"is_disabled":false,"rental_uris":{"android":"levelo://app?vid=2fd6dc22-dc4f-436f-8f09-ea747d8c2aa2","ios":"levelo://app?vid=2fd6dc22-dc4f-436f-8f09-ea747d8c2aa2"},"vehicle_type_id":"4","last_reported":1731150361,"current_range_meters":38800,"station_id":"ce4bhi12rcd13ifvqfp0","pricing_plan_id":"cebpf4jnsgd1na2vs0mg"},{"bike_id":"96df1ccc-d4ef-486d-810e-b3fe5a15a4be","system_id":"levelo_inurba_marseille","lat":43.28158,"lon":5.42635,"is_reserved":false,"is_disabled":false,"rental_uris":{"android":"levelo://app?vid=96df1ccc-d4ef-486d-810e-b3fe5a15a4be","ios":"levelo://app?vid=96df1ccc-d4ef-486d-810e-b3fe5a15a4be"},"vehicle_type_id":"4","last_reported":1731150361,"current_range_meters":20800,"station_id":"ce4bhnh2rcd13ifvqgug","pricing_plan_id":"cebpf4jnsgd1na2vs0mg"},{"bike_id":"6fc90212-27d2-4a76-9c92-bbcc3be69e55","system_id":"levelo_inurba_marseille","lat":43.29202,"lon":5.35812,"is_reserved":false,"is_disabled":false,"rental_uris":{"android":"levelo://app?vid=6fc90212-27d2-4a76-9c92-bbcc3be69e55","ios":"levelo://app?vid=6fc90212-27d2-4a76-9c92-bbcc3be69e55"},"vehicle_type_id":"4","last_reported":1731150361,"current_range_meters":39200,"station_id":"ce4bhb12rcd13ifvqel0","pricing_plan_id":"cebpf4jnsgd1na2vs0mg"},{"bike_id":"41a3c5f1-221a-4b57-8e6a-888d541e1a20","system_id":"levelo_inurba_marseille","lat":43.24072,"lon":5.3776,"is_reserved":false,"is_disabled":false,"rental_uris":{"android":"levelo://app?vid=41a3c5f1-221a-4b57-8e6a-888d541e1a20","ios":"levelo://app?vid=41a3c5f1-221a-4b57-8e6a-888d541e1a20"},"vehicle_type_id":"4","last_reported":1731150361,"current_range_meters":10800,"station_id":"ce4bhnp2rcd13ifvqgvg","pricing_plan_id":"cebpf4jnsgd1na2vs0mg"},{"bike_id":"b9059161-bc2a-4853-8231-de961bd5f1e7","system_id":"levelo_inurba_marseille","lat":43.33722,"lon":5.39179,"is_reserved":false,"is_disabled":false,"rental_uris":{"android":"levelo://app?vid=b9059161-bc2a-4853-8231-de961bd5f1e7","ios":"levelo://app?vid=b9059161-bc2a-4853-8231-de961bd5f1e7"},"vehicle_type_id":"4","last_reported":1731150361,"current_range_meters":24000,"station_id":"ce4bhr92rcd13ifvqhsg","pricing_plan_id":"cebpf4jnsgd1na2vs0mg"},{"bike_id":"b79e420f-d087-498b-acb3-27027e015c5f","system_id":"levelo_inurba_marseille","lat":43.24166,"lon":5.36393,"is_reserved":false,"is_disabled":false,"rental_uris":{"android":"levelo://app?vid=b79e420f-d087-498b-acb3-27027e015c5f","ios":"levelo://app?vid=b79e420f-d087-498b-acb3-27027e015c5f"},"vehicle_type_id":"4","last_reported":1731150361,"current_range_meters":23200,"station_id":"cpo36qri1sfpv3e86is0","pricing_plan_id":"cebpf4jnsgd1na2vs0mg"},{"bike_id":"3f58d95e-a7bb-43d9-9f97-02fe58ff2bc8","system_id":"levelo_inurba_marseille","lat":43.27204,"lon":5.39192,"is_reserved":false,"is_disabled":false,"rental_uris":{"android":"levelo://app?vid=3f58d95e-a7bb-43d9-9f97-02fe58ff2bc8","ios":"levelo://app?vid=3f58d95e-a7bb-43d9-9f97-02fe58ff2bc8"},"vehicle_type_id":"4","last_reported":1731150361,"current_range_meters":17200,"station_id":"ce4bhhp2rcd13ifvqfm0","pricing_plan_id":"cebpf4jnsgd1na2vs0mg"},{"bike_id":"aadd3534-b87d-4b51-b451-8c1f44aa93f9","system_id":"levelo_inurba_marseille","lat":43.29038,"lon":5.37562,"is_reserved":false,"is_disabled":false,"rental_uris":{"android":"levelo://app?vid=aadd3534-b87d-4b51-b451-8c1f44aa93f9","ios":"levelo://app?vid=aadd3534-b87d-4b51-b451-8c1f44aa93f9"},"vehicle_type_id":"4","last_reported":1731150361,"current_range_meters":3600,"station_id":"ce4bh692rcd13ifvqe90","pricing_plan_id":"cebpf4jnsgd1na2vs0mg"},{"bike_id":"a5c481b8-423c-49c6-a341-0a8b63eb71ed","system_id":"levelo_inurba_marseille","lat":43.25937,"lon":5.40896,"is_reserved":false,"is_disabled":false,"rental_uris":{"android":"levelo://app?vid=a5c481b8-423c-49c6-a341-0a8b63eb71ed","ios":"levelo://app?vid=a5c481b8-423c-49c6-a341-0a8b63eb71ed"},"vehicle_type_id":"4","last_reported":1731150361,"current_range_meters":14800,"station_id":"ce4bhm92rcd13ifvqglg","pricing_plan_id":"cebpf4jnsgd1na2vs0mg"},{"bike_id":"371ab4d3-fd3f-48be-9abc-c4aa648cf33a","system_id":"levelo_inurba_marseille","lat":43.25241,"lon":5.40256,"is_reserved":false,"is_disabled":false,"rental_uris":{"android":"levelo://app?vid=371ab4d3-fd3f-48be-9abc-c4aa648cf33a","ios":"levelo://app?vid=371ab4d3-fd3f-48be-9abc-c4aa648cf33a"},"vehicle_type_id":"4","last_reported":1731150361,"current_range_meters":29600,"station_id":"","pricing_plan_id":"cebpf4jnsgd1na2vs0mg"},{"bike_id":"f4ef053d-e709-4411-bdd9-de1d0f41e46f","system_id":"levelo_inurba_marseille","lat":43.22931,"lon":5.35374,"is_reserved":false,"is_disabled":false,"rental_uris":{"android":"levelo://app?vid=f4ef053d-e709-4411-bdd9-de1d0f41e46f","ios":"levelo://app?vid=f4ef053d-e709-4411-bdd9-de1d0f41e46f"},"vehicle_type_id":"4","last_reported":1731150361,"current_range_meters":39200,"station_id":"cpo3532slgdg3j2ikp40","pricing_plan_id":"cebpf4jnsgd1na2vs0mg"},{"bike_id":"8f9addbd-de2f-4f7c-9599-e984728ff8a5","system_id":"levelo_inurba_marseille","lat":43.30778,"lon":5.37647,"is_reserved":false,"is_disabled":false,"rental_uris":{"android":"levelo://app?vid=8f9addbd-de2f-4f7c-9599-e984728ff8a5","ios":"levelo://app?vid=8f9addbd-de2f-4f7c-9599-e984728ff8a5"},"vehicle_type_id":"4","last_reported":1731150361,"current_range_meters":38000,"station_id":"ce4bgv92rcd13ifvqcq0","pricing_plan_id":"cebpf4jnsgd1na2vs0mg"},{"bike_id":"de81964b-2e50-4eac-8982-a36260f5274c","system_id":"levelo_inurba_marseille","lat":43.29718,"lon":5.36606,"is_reserved":false,"is_disabled":false,"rental_uris":{"android":"levelo://app?vid=de81964b-2e50-4eac-8982-a36260f5274c","ios":"levelo://app?vid=de81964b-2e50-4eac-8982-a36260f5274c"},"vehicle_type_id":"4","last_reported":1731150361,"current_range_meters":38400,"station_id":"ce4bgn12rcd13ifvqbt0","pricing_plan_id":"cebpf4jnsgd1na2vs0mg"},{"bike_id":"4f90c106-6b5f-4364-a455-b29f628d535f","system_id":"levelo_inurba_marseille","lat":43.28708,"lon":5.37935,"is_reserved":false,"is_disabled":false,"rental_uris":{"android":"levelo://app?vid=4f90c106-6b5f-4364-a455-b29f628d535f","ios":"levelo://app?vid=4f90c106-6b5f-4364-a455-b29f628d535f"},"vehicle_type_id":"4","last_reported":1731150361,"current_range_meters":16400,"station_id":"ce4bh9p2rcd13ifvqec0","pricing_plan_id":"cebpf4jnsgd1na2vs0mg"},{"bike_id":"94c1a05b-4b06-46ae-a5e4-c6962d31b703","system_id":"levelo_inurba_marseille","lat":43.29268,"lon":5.36853,"is_reserved":false,"is_disabled":false,"rental_uris":{"android":"levelo://app?vid=94c1a05b-4b06-46ae-a5e4-c6962d31b703","ios":"levelo://app?vid=94c1a05b-4b06-46ae-a5e4-c6962d31b703"},"vehicle_type_id":"4","last_reported":1731150361,"current_range_meters":29600,"station_id":"ce4bhbp2rcd13ifvqesg","pricing_plan_id":"cebpf4jnsgd1na2vs0mg"},{"bike_id":"f7148f72-3d1b-4627-a1f5-855546ac88b1","system_id":"levelo_inurba_marseille","lat":43.25501,"lon":5.37651,"is_reserved":false,"is_disabled":false,"rental_uris":{"android":"levelo://app?vid=f7148f72-3d1b-4627-a1f5-855546ac88b1","ios":"levelo://app?vid=f7148f72-3d1b-4627-a1f5-855546ac88b1"},"vehicle_type_id":"4","last_reported":1731150361,"current_range_meters":38400,"station_id":"ce4bhh12rcd13ifvqff0","pricing_plan_id":"cebpf4jnsgd1na2vs0mg"},{"bike_id":"fe396f57-ba75-40d5-96ee-0b8b42ec518d","system_id":"levelo_inurba_marseille","lat":43.29973,"lon":5.38502,"is_reserved":false,"is_disabled":false,"rental_uris":{"android":"levelo://app?vid=fe396f57-ba75-40d5-96ee-0b8b42ec518d","ios":"levelo://app?vid=fe396f57-ba75-40d5-96ee-0b8b42ec518d"},"vehicle_type_id":"4","last_reported":1731150361,"current_range_meters":36800,"station_id":"ce4bgj92rcd13ifvqbd0","pricing_plan_id":"cebpf4jnsgd1na2vs0mg"},{"bike_id":"82f750ef-4c11-46df-bf3f-eb1ee954f51e","system_id":"levelo_inurba_marseille","lat":43.30884,"lon":5.39636,"is_reserved":false,"is_disabled":false,"rental_uris":{"android":"levelo://app?vid=82f750ef-4c11-46df-bf3f-eb1ee954f51e","ios":"levelo://app?vid=82f750ef-4c11-46df-bf3f-eb1ee954f51e"},"vehicle_type_id":"4","last_reported":1731150361,"current_range_meters":25600,"station_id":"ce4bh012rcd13ifvqcv0","pricing_plan_id":"cebpf4jnsgd1na2vs0mg"},{"bike_id":"fb2ba5fc-38b8-4ef8-b396-18efcbc7f65f","system_id":"levelo_inurba_marseille","lat":43.29614,"lon":5.37731,"is_reserved":false,"is_disabled":false,"rental_uris":{"android":"levelo://app?vid=fb2ba5fc-38b8-4ef8-b396-18efcbc7f65f","ios":"levelo://app?vid=fb2ba5fc-38b8-4ef8-b396-18efcbc7f65f"},"vehicle_type_id":"4","last_reported":1731150361,"current_range_meters":39200,"station_id":"ce4bgi92rcd13ifvqb90","pricing_plan_id":"cebpf4jnsgd1na2vs0mg"},{"bike_id":"ac59b398-a03f-4409-8d13-c4e12f526cfa","system_id":"levelo_inurba_marseille","lat":43.28418,"lon":5.34997,"is_reserved":false,"is_disabled":false,"rental_uris":{"android":"levelo://app?vid=ac59b398-a03f-4409-8d13-c4e12f526cfa","ios":"levelo://app?vid=ac59b398-a03f-4409-8d13-c4e12f526cfa"},"vehicle_type_id":"4","last_reported":1731150361,"current_range_meters":18800,"station_id":"ce4bhbh2rcd13ifvqepg","pricing_plan_id":"cebpf4jnsgd1na2vs0mg"},{"bike_id":"828a5fed-bfbb-4fb7-ac2d-ffaed39a8507","system_id":"levelo_inurba_marseille","lat":43.30459,"lon":5.37899,"is_reserved":false,"is_disabled":false,"rental_uris":{"android":"levelo://app?vid=828a5fed-bfbb-4fb7-ac2d-ffaed39a8507","ios":"levelo://app?vid=828a5fed-bfbb-4fb7-ac2d-ffaed39a8507"},"vehicle_type_id":"4","last_reported":1731150361,"current_range_meters":39200,"station_id":"ce4bgup2rcd13ifvqcn0","pricing_plan_id":"cebpf4jnsgd1na2vs0mg"},{"bike_id":"b50b2ca5-101a-4d81-9174-37b32994ea6f","system_id":"levelo_inurba_marseille","lat":43.29956,"lon":5.41316,"is_reserved":false,"is_disabled":false,"rental_uris":{"android":"levelo://app?vid=b50b2ca5-101a-4d81-9174-37b32994ea6f","ios":"levelo://app?vid=b50b2ca5-101a-4d81-9174-37b32994ea6f"},"vehicle_type_id":"4","last_reported":1731150361,"current_range_meters":36400,"station_id":"ce4bhp12rcd13ifvqh9g","pricing_plan_id":"cebpf4jnsgd1na2vs0mg"},{"bike_id":"7243fcc8-e91d-49aa-a78b-3d82c9cf3c65","system_id":"levelo_inurba_marseille","lat":43.28597,"lon":5.35092,"is_reserved":false,"is_disabled":false,"rental_uris":{"android":"levelo://app?vid=7243fcc8-e91d-49aa-a78b-3d82c9cf3c65","ios":"levelo://app?vid=7243fcc8-e91d-49aa-a78b-3d82c9cf3c65"},"vehicle_type_id":"4","last_reported":1731150361,"current_range_meters":36000,"station_id":"ce4bhch2rcd13ifvqeug","pricing_plan_id":"cebpf4jnsgd1na2vs0mg"},{"bike_id":"e6db309d-c8fb-4b14-9fce-49afd4b084da","system_id":"levelo_inurba_marseille","lat":43.26193,"lon":5.37444,"is_reserved":false,"is_disabled":false,"rental_uris":{"android":"levelo://app?vid=e6db309d-c8fb-4b14-9fce-49afd4b084da","ios":"levelo://app?vid=e6db309d-c8fb-4b14-9fce-49afd4b084da"},"vehicle_type_id":"4","last_reported":1731150361,"current_range_meters":36800,"station_id":"ce4bhgp2rcd13ifvqfc0","pricing_plan_id":"cebpf4jnsgd1na2vs0mg"},{"bike_id":"4645439b-89ef-4a38-ba1a-1d96e9ebc30c","system_id":"levelo_inurba_marseille","lat":43.28704,"lon":5.37388,"is_reserved":false,"is_disabled":false,"rental_uris":{"android":"levelo://app?vid=4645439b-89ef-4a38-ba1a-1d96e9ebc30c","ios":"levelo://app?vid=4645439b-89ef-4a38-ba1a-1d96e9ebc30c"},"vehicle_type_id":"4","last_reported":1731150361,"current_range_meters":38800,"station_id":"ce4bh3p2rcd13ifvqdq0","pricing_plan_id":"cebpf4jnsgd1na2vs0mg"},{"bike_id":"b4d6962c-48f0-4bf0-8d16-4194c14b4356","system_id":"levelo_inurba_marseille","lat":43.26214,"lon":5.37442,"is_reserved":false,"is_disabled":false,"rental_uris":{"android":"levelo://app?vid=b4d6962c-48f0-4bf0-8d16-4194c14b4356","ios":"levelo://app?vid=b4d6962c-48f0-4bf0-8d16-4194c14b4356"},"vehicle_type_id":"4","last_reported":1731150361,"current_range_meters":17600,"station_id":"ce4bhgp2rcd13ifvqfc0","pricing_plan_id":"cebpf4jnsgd1na2vs0mg"},{"bike_id":"71bb50a1-6cdb-4a6f-b24c-1cbd7c603ad3","system_id":"levelo_inurba_marseille","lat":43.31428,"lon":5.373978,"is_reserved":false,"is_disabled":false,"rental_uris":{"android":"levelo://app?vid=71bb50a1-6cdb-4a6f-b24c-1cbd7c603ad3","ios":"levelo://app?vid=71bb50a1-6cdb-4a6f-b24c-1cbd7c603ad3"},"vehicle_type_id":"4","last_reported":1731150361,"current_range_meters":28000,"station_id":"","pricing_plan_id":"cebpf4jnsgd1na2vs0mg"},{"bike_id":"05e58aee-3c1e-43ce-bc3e-9113366016db","system_id":"levelo_inurba_marseille","lat":43.28105,"lon":5.37845,"is_reserved":false,"is_disabled":false,"rental_uris":{"android":"levelo://app?vid=05e58aee-3c1e-43ce-bc3e-9113366016db","ios":"levelo://app?vid=05e58aee-3c1e-43ce-bc3e-9113366016db"},"vehicle_type_id":"4","last_reported":1731150361,"current_range_meters":38000,"station_id":"ce4bha12rcd13ifvqee0","pricing_plan_id":"cebpf4jnsgd1na2vs0mg"},{"bike_id":"b8fdd341-0697-41ca-82c9-e4253415f4e6","system_id":"levelo_inurba_marseille","lat":43.23058,"lon":5.35491,"is_reserved":false,"is_disabled":false,"rental_uris":{"android":"levelo://app?vid=b8fdd341-0697-41ca-82c9-e4253415f4e6","ios":"levelo://app?vid=b8fdd341-0697-41ca-82c9-e4253415f4e6"},"vehicle_type_id":"4","last_reported":1731150361,"current_range_meters":32800,"station_id":"cpo3342slgdg3j2ifvpg","pricing_plan_id":"cebpf4jnsgd1na2vs0mg"},{"bike_id":"45f9f324-0bd6-4e59-8d03-5b9aa1ec2a96","system_id":"levelo_inurba_marseille","lat":43.28272,"lon":5.35075,"is_reserved":false,"is_disabled":false,"rental_uris":{"android":"levelo://app?vid=45f9f324-0bd6-4e59-8d03-5b9aa1ec2a96","ios":"levelo://app?vid=45f9f324-0bd6-4e59-8d03-5b9aa1ec2a96"},"vehicle_type_id":"4","last_reported":1731150361,"current_range_meters":39200,"station_id":"ce4bhbp2rcd13ifvqerg","pricing_plan_id":"cebpf4jnsgd1na2vs0mg"},{"bike_id":"6e2d14fd-eb01-49b5-bd29-aaa82bfcdea8","system_id":"levelo_inurba_marseille","lat":43.30353,"lon":5.41874,"is_reserved":false,"is_disabled":false,"rental_uris":{"android":"levelo://app?vid=6e2d14fd-eb01-49b5-bd29-aaa82bfcdea8","ios":"levelo://app?vid=6e2d14fd-eb01-49b5-bd29-aaa82bfcdea8"},"vehicle_type_id":"4","last_reported":1731150361,"current_range_meters":25200,"station_id":"ce4bhop2rcd13ifvqh7g","pricing_plan_id":"cebpf4jnsgd1na2vs0mg"},{"bike_id":"52b9e4f1-f078-4114-aa60-3a3facd08793","system_id":"levelo_inurba_marseille","lat":43.29575,"lon":5.37505,"is_reserved":false,"is_disabled":false,"rental_uris":{"android":"levelo://app?vid=52b9e4f1-f078-4114-aa60-3a3facd08793","ios":"levelo://app?vid=52b9e4f1-f078-4114-aa60-3a3facd08793"},"vehicle_type_id":"4","last_reported":1731150361,"current_range_meters":38800,"station_id":"ce4bgh92rcd13ifvqb50","pricing_plan_id":"cebpf4jnsgd1na2vs0mg"},{"bike_id":"efbbdabe-e712-4abb-921a-4c1c6f7cd5ad","system_id":"levelo_inurba_marseille","lat":43.2978,"lon":5.37108,"is_reserved":false,"is_disabled":false,"rental_uris":{"android":"levelo://app?vid=efbbdabe-e712-4abb-921a-4c1c6f7cd5ad","ios":"levelo://app?vid=efbbdabe-e712-4abb-921a-4c1c6f7cd5ad"},"vehicle_type_id":"4","last_reported":1731150361,"current_range_meters":38000,"station_id":"ce4bgop2rcd13ifvqc1g","pricing_plan_id":"cebpf4jnsgd1na2vs0mg"},{"bike_id":"73f6069b-4bae-4baa-b795-f2d974f336d6","system_id":"levelo_inurba_marseille","lat":43.28999,"lon":5.35604,"is_reserved":false,"is_disabled":false,"rental_uris":{"android":"levelo://app?vid=73f6069b-4bae-4baa-b795-f2d974f336d6","ios":"levelo://app?vid=73f6069b-4bae-4baa-b795-f2d974f336d6"},"vehicle_type_id":"4","last_reported":1731150361,"current_range_meters":39200,"station_id":"ce4bhb92rcd13ifvqen0","pricing_plan_id":"cebpf4jnsgd1na2vs0mg"},{"bike_id":"ada1bed3-6165-4d4f-a70b-7c691669ffc3","system_id":"levelo_inurba_marseille","lat":43.24998,"lon":5.38927,"is_reserved":false,"is_disabled":false,"rental_uris":{"android":"levelo://app?vid=ada1bed3-6165-4d4f-a70b-7c691669ffc3","ios":"levelo://app?vid=ada1bed3-6165-4d4f-a70b-7c691669ffc3"},"vehicle_type_id":"4","last_reported":1731150361,"current_range_meters":25600,"station_id":"ce4bhgp2rcd13ifvqfd0","pricing_plan_id":"cebpf4jnsgd1na2vs0mg"},{"bike_id":"b9d0bc02-8b8d-46ee-bb6e-da3b365f1431","system_id":"levelo_inurba_marseille","lat":43.30153,"lon":5.38086,"is_reserved":false,"is_disabled":false,"rental_uris":{"android":"levelo://app?vid=b9d0bc02-8b8d-46ee-bb6e-da3b365f1431","ios":"levelo://app?vid=b9d0bc02-8b8d-46ee-bb6e-da3b365f1431"},"vehicle_type_id":"4","last_reported":1731150361,"current_range_meters":9600,"station_id":"ce4bgjp2rcd13ifvqbh0","pricing_plan_id":"cebpf4jnsgd1na2vs0mg"},{"bike_id":"a6e63326-3a8e-4fbb-b5f0-e522d7903820","system_id":"levelo_inurba_marseille","lat":43.33751,"lon":5.37456,"is_reserved":false,"is_disabled":false,"rental_uris":{"android":"levelo://app?vid=a6e63326-3a8e-4fbb-b5f0-e522d7903820","ios":"levelo://app?vid=a6e63326-3a8e-4fbb-b5f0-e522d7903820"},"vehicle_type_id":"4","last_reported":1731150361,"current_range_meters":38400,"station_id":"","pricing_plan_id":"cebpf4jnsgd1na2vs0mg"},{"bike_id":"e291e3c2-7fca-4dfa-8863-fcc24bae6682","system_id":"levelo_inurba_marseille","lat":43.28719,"lon":5.37927,"is_reserved":false,"is_disabled":false,"rental_uris":{"android":"levelo://app?vid=e291e3c2-7fca-4dfa-8863-fcc24bae6682","ios":"levelo://app?vid=e291e3c2-7fca-4dfa-8863-fcc24bae6682"},"vehicle_type_id":"4","last_reported":1731150361,"current_range_meters":33200,"station_id":"ce4bh9p2rcd13ifvqec0","pricing_plan_id":"cebpf4jnsgd1na2vs0mg"},{"bike_id":"8137f581-2393-41d8-a932-f12bb5e1d13d","system_id":"levelo_inurba_marseille","lat":43.29223,"lon":5.36071,"is_reserved":false,"is_disabled":false,"rental_uris":{"android":"levelo://app?vid=8137f581-2393-41d8-a932-f12bb5e1d13d","ios":"levelo://app?vid=8137f581-2393-41d8-a932-f12bb5e1d13d"},"vehicle_type_id":"4","last_reported":1731150361,"current_range_meters":34800,"station_id":"ce4bhbh2rcd13ifvqeqg","pricing_plan_id":"cebpf4jnsgd1na2vs0mg"},{"bike_id":"017e1e55-16d4-4323-9eb5-7960ddad9100","system_id":"levelo_inurba_marseille","lat":43.28411,"lon":5.37503,"is_reserved":false,"is_disabled":false,"rental_uris":{"android":"levelo://app?vid=017e1e55-16d4-4323-9eb5-7960ddad9100","ios":"levelo://app?vid=017e1e55-16d4-4323-9eb5-7960ddad9100"},"vehicle_type_id":"4","last_reported":1731150361,"current_range_meters":28800,"station_id":"ce4bh412rcd13ifvqds0","pricing_plan_id":"cebpf4jnsgd1na2vs0mg"},{"bike_id":"bc9e5d4d-ed87-459e-9d6b-75e21cc6343f","system_id":"levelo_inurba_marseille","lat":43.30414,"lon":5.41278,"is_reserved":false,"is_disabled":false,"rental_uris":{"android":"levelo://app?vid=bc9e5d4d-ed87-459e-9d6b-75e21cc6343f","ios":"levelo://app?vid=bc9e5d4d-ed87-459e-9d6b-75e21cc6343f"},"vehicle_type_id":"4","last_reported":1731150361,"current_range_meters":39200,"station_id":"ce4bhop2rcd13ifvqh8g","pricing_plan_id":"cebpf4jnsgd1na2vs0mg"},{"bike_id":"08698d2c-39ce-4e4e-867c-c994494fa936","system_id":"levelo_inurba_marseille","lat":43.2621,"lon":5.37442,"is_reserved":false,"is_disabled":false,"rental_uris":{"android":"levelo://app?vid=08698d2c-39ce-4e4e-867c-c994494fa936","ios":"levelo://app?vid=08698d2c-39ce-4e4e-867c-c994494fa936"},"vehicle_type_id":"4","last_reported":1731150361,"current_range_meters":6800,"station_id":"ce4bhgp2rcd13ifvqfc0","pricing_plan_id":"cebpf4jnsgd1na2vs0mg"},{"bike_id":"818293fa-7bab-4548-8e6d-ceefdd2acfe4","system_id":"levelo_inurba_marseille","lat":43.30634,"lon":5.40069,"is_reserved":false,"is_disabled":false,"rental_uris":{"android":"levelo://app?vid=818293fa-7bab-4548-8e6d-ceefdd2acfe4","ios":"levelo://app?vid=818293fa-7bab-4548-8e6d-ceefdd2acfe4"},"vehicle_type_id":"4","last_reported":1731150361,"current_range_meters":17600,"station_id":"ce4bh112rcd13ifvqda0","pricing_plan_id":"cebpf4jnsgd1na2vs0mg"},{"bike_id":"d32c660d-6afc-40b6-85c6-821dfbcddf02","system_id":"levelo_inurba_marseille","lat":43.30422,"lon":5.41281,"is_reserved":false,"is_disabled":false,"rental_uris":{"android":"levelo://app?vid=d32c660d-6afc-40b6-85c6-821dfbcddf02","ios":"levelo://app?vid=d32c660d-6afc-40b6-85c6-821dfbcddf02"},"vehicle_type_id":"4","last_reported":1731150361,"current_range_meters":27600,"station_id":"ce4bhop2rcd13ifvqh8g","pricing_plan_id":"cebpf4jnsgd1na2vs0mg"},{"bike_id":"42c7858b-3f3d-4f82-8c62-345db81c0626","system_id":"levelo_inurba_marseille","lat":43.30438,"lon":5.38882,"is_reserved":false,"is_disabled":false,"rental_uris":{"android":"levelo://app?vid=42c7858b-3f3d-4f82-8c62-345db81c0626","ios":"levelo://app?vid=42c7858b-3f3d-4f82-8c62-345db81c0626"},"vehicle_type_id":"4","last_reported":1731150361,"current_range_meters":34800,"station_id":"ce4bgk12rcd13ifvqbi0","pricing_plan_id":"cebpf4jnsgd1na2vs0mg"},{"bike_id":"48948009-0595-4bc0-ad0d-c76acb416cbf","system_id":"levelo_inurba_marseille","lat":43.28662,"lon":5.36353,"is_reserved":false,"is_disabled":false,"rental_uris":{"android":"levelo://app?vid=48948009-0595-4bc0-ad0d-c76acb416cbf","ios":"levelo://app?vid=48948009-0595-4bc0-ad0d-c76acb416cbf"},"vehicle_type_id":"4","last_reported":1731150361,"current_range_meters":24400,"station_id":"ce4bhah2rcd13ifvqej0","pricing_plan_id":"cebpf4jnsgd1na2vs0mg"},{"bike_id":"2a923520-4f73-4e33-ae1d-0dfb15027933","system_id":"levelo_inurba_marseille","lat":43.33749,"lon":5.37445,"is_reserved":false,"is_disabled":false,"rental_uris":{"android":"levelo://app?vid=2a923520-4f73-4e33-ae1d-0dfb15027933","ios":"levelo://app?vid=2a923520-4f73-4e33-ae1d-0dfb15027933"},"vehicle_type_id":"4","last_reported":1731150361,"current_range_meters":35600,"station_id":"","pricing_plan_id":"cebpf4jnsgd1na2vs0mg"},{"bike_id":"13bec1ab-bf79-4ea7-a914-5d2effafc7d5","system_id":"levelo_inurba_marseille","lat":43.27966,"lon":5.38731,"is_reserved":false,"is_disabled":false,"rental_uris":{"android":"levelo://app?vid=13bec1ab-bf79-4ea7-a914-5d2effafc7d5","ios":"levelo://app?vid=13bec1ab-bf79-4ea7-a914-5d2effafc7d5"},"vehicle_type_id":"4","last_reported":1731150361,"current_range_meters":38000,"station_id":"ce4bhg12rcd13ifvqf80","pricing_plan_id":"cebpf4jnsgd1na2vs0mg"},{"bike_id":"3164e0e4-9c24-48e4-a179-3cac940f2c32","system_id":"levelo_inurba_marseille","lat":43.28151,"lon":5.42649,"is_reserved":false,"is_disabled":false,"rental_uris":{"android":"levelo://app?vid=3164e0e4-9c24-48e4-a179-3cac940f2c32","ios":"levelo://app?vid=3164e0e4-9c24-48e4-a179-3cac940f2c32"},"vehicle_type_id":"4","last_reported":1731150361,"current_range_meters":16000,"station_id":"ce4bhnh2rcd13ifvqgug","pricing_plan_id":"cebpf4jnsgd1na2vs0mg"},{"bike_id":"33e8e856-7f81-40f7-a392-a9fedce07fce","system_id":"levelo_inurba_marseille","lat":43.30882,"lon":5.39638,"is_reserved":false,"is_disabled":false,"rental_uris":{"android":"levelo://app?vid=33e8e856-7f81-40f7-a392-a9fedce07fce","ios":"levelo://app?vid=33e8e856-7f81-40f7-a392-a9fedce07fce"},"vehicle_type_id":"4","last_reported":1731150361,"current_range_meters":38000,"station_id":"ce4bh012rcd13ifvqcv0","pricing_plan_id":"cebpf4jnsgd1na2vs0mg"},{"bike_id":"46eef23f-12d9-472d-bbc8-38bbf585ff1a","system_id":"levelo_inurba_marseille","lat":43.29289,"lon":5.36849,"is_reserved":false,"is_disabled":false,"rental_uris":{"android":"levelo://app?vid=46eef23f-12d9-472d-bbc8-38bbf585ff1a","ios":"levelo://app?vid=46eef23f-12d9-472d-bbc8-38bbf585ff1a"},"vehicle_type_id":"4","last_reported":1731150361,"current_range_meters":19200,"station_id":"ce4bhbp2rcd13ifvqesg","pricing_plan_id":"cebpf4jnsgd1na2vs0mg"},{"bike_id":"d9475730-4393-42af-a70f-463c6afd5546","system_id":"levelo_inurba_marseille","lat":43.3013,"lon":5.39861,"is_reserved":false,"is_disabled":false,"rental_uris":{"android":"levelo://app?vid=d9475730-4393-42af-a70f-463c6afd5546","ios":"levelo://app?vid=d9475730-4393-42af-a70f-463c6afd5546"},"vehicle_type_id":"4","last_reported":1731150361,"current_range_meters":8000,"station_id":"ce4bh0h2rcd13ifvqd40","pricing_plan_id":"cebpf4jnsgd1na2vs0mg"},{"bike_id":"4366617e-ca53-4729-8567-154ed5608173","system_id":"levelo_inurba_marseille","lat":43.29911,"lon":5.38146,"is_reserved":false,"is_disabled":false,"rental_uris":{"android":"levelo://app?vid=4366617e-ca53-4729-8567-154ed5608173","ios":"levelo://app?vid=4366617e-ca53-4729-8567-154ed5608173"},"vehicle_type_id":"4","last_reported":1731150361,"current_range_meters":20800,"station_id":"ce4bgj12rcd13ifvqbc0","pricing_plan_id":"cebpf4jnsgd1na2vs0mg"},{"bike_id":"7ac267f9-44ce-4eeb-9dab-0f31515ec3ff","system_id":"levelo_inurba_marseille","lat":43.26559,"lon":5.37281,"is_reserved":false,"is_disabled":false,"rental_uris":{"android":"levelo://app?vid=7ac267f9-44ce-4eeb-9dab-0f31515ec3ff","ios":"levelo://app?vid=7ac267f9-44ce-4eeb-9dab-0f31515ec3ff"},"vehicle_type_id":"4","last_reported":1731150361,"current_range_meters":25200,"station_id":"ce4bhg12rcd13ifvqf70","pricing_plan_id":"cebpf4jnsgd1na2vs0mg"},{"bike_id":"b04721b2-bb72-4877-b800-27e1ccf6e803","system_id":"levelo_inurba_marseille","lat":43.28418,"lon":5.34988,"is_reserved":false,"is_disabled":false,"rental_uris":{"android":"levelo://app?vid=b04721b2-bb72-4877-b800-27e1ccf6e803","ios":"levelo://app?vid=b04721b2-bb72-4877-b800-27e1ccf6e803"},"vehicle_type_id":"4","last_reported":1731150361,"current_range_meters":28000,"station_id":"ce4bhbh2rcd13ifvqepg","pricing_plan_id":"cebpf4jnsgd1na2vs0mg"},{"bike_id":"20443d38-78a4-47d5-806e-5801b44dc4ae","system_id":"levelo_inurba_marseille","lat":43.28273,"lon":5.3506,"is_reserved":false,"is_disabled":false,"rental_uris":{"android":"levelo://app?vid=20443d38-78a4-47d5-806e-5801b44dc4ae","ios":"levelo://app?vid=20443d38-78a4-47d5-806e-5801b44dc4ae"},"vehicle_type_id":"4","last_reported":1731150361,"current_range_meters":16800,"station_id":"ce4bhbp2rcd13ifvqerg","pricing_plan_id":"cebpf4jnsgd1na2vs0mg"},{"bike_id":"7b17c7e2-e1a6-4a1c-8685-fec4587aebcd","system_id":"levelo_inurba_marseille","lat":43.30887,"lon":5.37191,"is_reserved":false,"is_disabled":false,"rental_uris":{"android":"levelo://app?vid=7b17c7e2-e1a6-4a1c-8685-fec4587aebcd","ios":"levelo://app?vid=7b17c7e2-e1a6-4a1c-8685-fec4587aebcd"},"vehicle_type_id":"4","last_reported":1731150361,"current_range_meters":38800,"station_id":"ce4bguh2rcd13ifvqckg","pricing_plan_id":"cebpf4jnsgd1na2vs0mg"},{"bike_id":"2015a957-ead6-4c85-93f3-8e74dc7d21da","system_id":"levelo_inurba_marseille","lat":43.32055,"lon":5.41536,"is_reserved":false,"is_disabled":false,"rental_uris":{"android":"levelo://app?vid=2015a957-ead6-4c85-93f3-8e74dc7d21da","ios":"levelo://app?vid=2015a957-ead6-4c85-93f3-8e74dc7d21da"},"vehicle_type_id":"4","last_reported":1731150361,"current_range_meters":40000,"station_id":"ce4bhq92rcd13ifvqhkg","pricing_plan_id":"cebpf4jnsgd1na2vs0mg"},{"bike_id":"8ae42063-413b-4c62-b6e0-317a3937a2ec","system_id":"levelo_inurba_marseille","lat":43.2439,"lon":5.37065,"is_reserved":false,"is_disabled":false,"rental_uris":{"android":"levelo://app?vid=8ae42063-413b-4c62-b6e0-317a3937a2ec","ios":"levelo://app?vid=8ae42063-413b-4c62-b6e0-317a3937a2ec"},"vehicle_type_id":"4","last_reported":1731150361,"current_range_meters":27200,"station_id":"ce4bhhh2rcd13ifvqfk0","pricing_plan_id":"cebpf4jnsgd1na2vs0mg"},{"bike_id":"c786f0d8-9ec3-4a95-86e5-57b6010e0ee8","system_id":"levelo_inurba_marseille","lat":43.29614,"lon":5.3772,"is_reserved":false,"is_disabled":false,"rental_uris":{"android":"levelo://app?vid=c786f0d8-9ec3-4a95-86e5-57b6010e0ee8","ios":"levelo://app?vid=c786f0d8-9ec3-4a95-86e5-57b6010e0ee8"},"vehicle_type_id":"4","last_reported":1731150361,"current_range_meters":34800,"station_id":"ce4bgi92rcd13ifvqb90","pricing_plan_id":"cebpf4jnsgd1na2vs0mg"},{"bike_id":"39f17349-ada4-4402-b2d4-f4683db56d2d","system_id":"levelo_inurba_marseille","lat":43.27487,"lon":5.42454,"is_reserved":false,"is_disabled":false,"rental_uris":{"android":"levelo://app?vid=39f17349-ada4-4402-b2d4-f4683db56d2d","ios":"levelo://app?vid=39f17349-ada4-4402-b2d4-f4683db56d2d"},"vehicle_type_id":"4","last_reported":1731150361,"current_range_meters":39200,"station_id":"ce4bhn92rcd13ifvqgrg","pricing_plan_id":"cebpf4jnsgd1na2vs0mg"},{"bike_id":"7d7f9ee9-0b76-469e-8e35-d6de59dc90ec","system_id":"levelo_inurba_marseille","lat":43.29736,"lon":5.37692,"is_reserved":false,"is_disabled":false,"rental_uris":{"android":"levelo://app?vid=7d7f9ee9-0b76-469e-8e35-d6de59dc90ec","ios":"levelo://app?vid=7d7f9ee9-0b76-469e-8e35-d6de59dc90ec"},"vehicle_type_id":"4","last_reported":1731150361,"current_range_meters":37600,"station_id":"ce4bgkh2rcd13ifvqbl0","pricing_plan_id":"cebpf4jnsgd1na2vs0mg"},{"bike_id":"b9478b1d-79e3-44c9-ae60-496dd5151f62","system_id":"levelo_inurba_marseille","lat":43.29167,"lon":5.37143,"is_reserved":false,"is_disabled":false,"rental_uris":{"android":"levelo://app?vid=b9478b1d-79e3-44c9-ae60-496dd5151f62","ios":"levelo://app?vid=b9478b1d-79e3-44c9-ae60-496dd5151f62"},"vehicle_type_id":"4","last_reported":1731150361,"current_range_meters":37600,"station_id":"ce4bha92rcd13ifvqeh0","pricing_plan_id":"cebpf4jnsgd1na2vs0mg"},{"bike_id":"259ac6b3-c948-4c62-b167-931ed2a7069d","system_id":"levelo_inurba_marseille","lat":43.2928,"lon":5.3685,"is_reserved":false,"is_disabled":false,"rental_uris":{"android":"levelo://app?vid=259ac6b3-c948-4c62-b167-931ed2a7069d","ios":"levelo://app?vid=259ac6b3-c948-4c62-b167-931ed2a7069d"},"vehicle_type_id":"4","last_reported":1731150361,"current_range_meters":30800,"station_id":"ce4bhbp2rcd13ifvqesg","pricing_plan_id":"cebpf4jnsgd1na2vs0mg"},{"bike_id":"4204c697-9142-4d6f-a64b-20f319f8c9a7","system_id":"levelo_inurba_marseille","lat":43.2707,"lon":5.42274,"is_reserved":false,"is_disabled":false,"rental_uris":{"android":"levelo://app?vid=4204c697-9142-4d6f-a64b-20f319f8c9a7","ios":"levelo://app?vid=4204c697-9142-4d6f-a64b-20f319f8c9a7"},"vehicle_type_id":"4","last_reported":1731150361,"current_range_meters":16800,"station_id":"ce4bhk92rcd13ifvqgb0","pricing_plan_id":"cebpf4jnsgd1na2vs0mg"},{"bike_id":"c5189c13-2f68-4331-8967-b8552a5ee16e","system_id":"levelo_inurba_marseille","lat":43.30209,"lon":5.39458,"is_reserved":false,"is_disabled":false,"rental_uris":{"android":"levelo://app?vid=c5189c13-2f68-4331-8967-b8552a5ee16e","ios":"levelo://app?vid=c5189c13-2f68-4331-8967-b8552a5ee16e"},"vehicle_type_id":"4","last_reported":1731150361,"current_range_meters":24400,"station_id":"ce4bh0p2rcd13ifvqd70","pricing_plan_id":"cebpf4jnsgd1na2vs0mg"},{"bike_id":"de15f00a-25b1-4b9b-a102-3b4e4c3a83ba","system_id":"levelo_inurba_marseille","lat":43.3016,"lon":5.38087,"is_reserved":false,"is_disabled":false,"rental_uris":{"android":"levelo://app?vid=de15f00a-25b1-4b9b-a102-3b4e4c3a83ba","ios":"levelo://app?vid=de15f00a-25b1-4b9b-a102-3b4e4c3a83ba"},"vehicle_type_id":"4","last_reported":1731150361,"current_range_meters":30800,"station_id":"ce4bgjp2rcd13ifvqbh0","pricing_plan_id":"cebpf4jnsgd1na2vs0mg"},{"bike_id":"4cd24ee8-666e-4ce7-8f48-946488c6487e","system_id":"levelo_inurba_marseille","lat":43.23189,"lon":5.39974,"is_reserved":false,"is_disabled":false,"rental_uris":{"android":"levelo://app?vid=4cd24ee8-666e-4ce7-8f48-946488c6487e","ios":"levelo://app?vid=4cd24ee8-666e-4ce7-8f48-946488c6487e"},"vehicle_type_id":"4","last_reported":1731150361,"current_range_meters":39200,"station_id":"ce4bhn12rcd13ifvqgqg","pricing_plan_id":"cebpf4jnsgd1na2vs0mg"},{"bike_id":"1f7ea6ab-6e3d-4109-9c83-36eadc7f2aeb","system_id":"levelo_inurba_marseille","lat":43.31324,"lon":5.3969,"is_reserved":false,"is_disabled":false,"rental_uris":{"android":"levelo://app?vid=1f7ea6ab-6e3d-4109-9c83-36eadc7f2aeb","ios":"levelo://app?vid=1f7ea6ab-6e3d-4109-9c83-36eadc7f2aeb"},"vehicle_type_id":"4","last_reported":1731150361,"current_range_meters":40000,"station_id":"ce4bgvp2rcd13ifvqcu0","pricing_plan_id":"cebpf4jnsgd1na2vs0mg"},{"bike_id":"3c35e4d6-c2a4-45ba-a57a-2a4e7075d481","system_id":"levelo_inurba_marseille","lat":43.30124,"lon":5.39856,"is_reserved":false,"is_disabled":false,"rental_uris":{"android":"levelo://app?vid=3c35e4d6-c2a4-45ba-a57a-2a4e7075d481","ios":"levelo://app?vid=3c35e4d6-c2a4-45ba-a57a-2a4e7075d481"},"vehicle_type_id":"4","last_reported":1731150361,"current_range_meters":38800,"station_id":"ce4bh0h2rcd13ifvqd40","pricing_plan_id":"cebpf4jnsgd1na2vs0mg"},{"bike_id":"45a1fbb3-290e-40f3-b004-23b9fa2fcfcd","system_id":"levelo_inurba_marseille","lat":43.33748,"lon":5.3745,"is_reserved":false,"is_disabled":false,"rental_uris":{"android":"levelo://app?vid=45a1fbb3-290e-40f3-b004-23b9fa2fcfcd","ios":"levelo://app?vid=45a1fbb3-290e-40f3-b004-23b9fa2fcfcd"},"vehicle_type_id":"4","last_reported":1731150361,"current_range_meters":21600,"station_id":"","pricing_plan_id":"cebpf4jnsgd1na2vs0mg"},{"bike_id":"2d7e04d9-6c7a-424f-86e2-81d481548f9a","system_id":"levelo_inurba_marseille","lat":43.28608,"lon":5.35101,"is_reserved":false,"is_disabled":false,"rental_uris":{"android":"levelo://app?vid=2d7e04d9-6c7a-424f-86e2-81d481548f9a","ios":"levelo://app?vid=2d7e04d9-6c7a-424f-86e2-81d481548f9a"},"vehicle_type_id":"4","last_reported":1731150361,"current_range_meters":38800,"station_id":"ce4bhch2rcd13ifvqeug","pricing_plan_id":"cebpf4jnsgd1na2vs0mg"},{"bike_id":"b4de7b9a-6515-49e3-b4f0-3d8149400129","system_id":"levelo_inurba_marseille","lat":43.30153,"lon":5.38088,"is_reserved":false,"is_disabled":false,"rental_uris":{"android":"levelo://app?vid=b4de7b9a-6515-49e3-b4f0-3d8149400129","ios":"levelo://app?vid=b4de7b9a-6515-49e3-b4f0-3d8149400129"},"vehicle_type_id":"4","last_reported":1731150361,"current_range_meters":36800,"station_id":"ce4bgjp2rcd13ifvqbh0","pricing_plan_id":"cebpf4jnsgd1na2vs0mg"},{"bike_id":"59d879dd-0163-48d4-8f0d-0b770ab91e67","system_id":"levelo_inurba_marseille","lat":43.27568,"lon":5.3842,"is_reserved":false,"is_disabled":false,"rental_uris":{"android":"levelo://app?vid=59d879dd-0163-48d4-8f0d-0b770ab91e67","ios":"levelo://app?vid=59d879dd-0163-48d4-8f0d-0b770ab91e67"},"vehicle_type_id":"4","last_reported":1731150361,"current_range_meters":40000,"station_id":"ce4bhh92rcd13ifvqfi0","pricing_plan_id":"cebpf4jnsgd1na2vs0mg"},{"bike_id":"eccb9bf1-4a0c-4df5-8229-bf46f21c4329","system_id":"levelo_inurba_marseille","lat":43.31714,"lon":5.42404,"is_reserved":false,"is_disabled":false,"rental_uris":{"android":"levelo://app?vid=eccb9bf1-4a0c-4df5-8229-bf46f21c4329","ios":"levelo://app?vid=eccb9bf1-4a0c-4df5-8229-bf46f21c4329"},"vehicle_type_id":"4","last_reported":1731150361,"current_range_meters":33600,"station_id":"ce4bhp92rcd13ifvqhbg","pricing_plan_id":"cebpf4jnsgd1na2vs0mg"},{"bike_id":"ef288286-229d-4b9a-a189-8d61840dcffb","system_id":"levelo_inurba_marseille","lat":43.23192,"lon":5.35557,"is_reserved":false,"is_disabled":false,"rental_uris":{"android":"levelo://app?vid=ef288286-229d-4b9a-a189-8d61840dcffb","ios":"levelo://app?vid=ef288286-229d-4b9a-a189-8d61840dcffb"},"vehicle_type_id":"4","last_reported":1731150361,"current_range_meters":34800,"station_id":"ce4bhu92rcd13ifvqi70","pricing_plan_id":"cebpf4jnsgd1na2vs0mg"},{"bike_id":"ada2b11f-bf8f-4d91-9762-9ad2280ea5d6","system_id":"levelo_inurba_marseille","lat":43.25492,"lon":5.37646,"is_reserved":false,"is_disabled":false,"rental_uris":{"android":"levelo://app?vid=ada2b11f-bf8f-4d91-9762-9ad2280ea5d6","ios":"levelo://app?vid=ada2b11f-bf8f-4d91-9762-9ad2280ea5d6"},"vehicle_type_id":"4","last_reported":1731150361,"current_range_meters":22400,"station_id":"ce4bhh12rcd13ifvqff0","pricing_plan_id":"cebpf4jnsgd1na2vs0mg"},{"bike_id":"9ff3a2bc-2d09-4f82-92c7-15589532de81","system_id":"levelo_inurba_marseille","lat":43.33605,"lon":5.41025,"is_reserved":false,"is_disabled":false,"rental_uris":{"android":"levelo://app?vid=9ff3a2bc-2d09-4f82-92c7-15589532de81","ios":"levelo://app?vid=9ff3a2bc-2d09-4f82-92c7-15589532de81"},"vehicle_type_id":"4","last_reported":1731150361,"current_range_meters":17200,"station_id":"ce4bhqh2rcd13ifvqhmg","pricing_plan_id":"cebpf4jnsgd1na2vs0mg"},{"bike_id":"43dbcf2e-3b20-4e0f-ac09-64b0f1ef49b7","system_id":"levelo_inurba_marseille","lat":43.25725,"lon":5.41107,"is_reserved":false,"is_disabled":false,"rental_uris":{"android":"levelo://app?vid=43dbcf2e-3b20-4e0f-ac09-64b0f1ef49b7","ios":"levelo://app?vid=43dbcf2e-3b20-4e0f-ac09-64b0f1ef49b7"},"vehicle_type_id":"4","last_reported":1731150361,"current_range_meters":40000,"station_id":"ce4bhkp2rcd13ifvqgd0","pricing_plan_id":"cebpf4jnsgd1na2vs0mg"},{"bike_id":"b8d16d18-fc93-4726-8587-6dec10d98c67","system_id":"levelo_inurba_marseille","lat":43.30466,"lon":5.37901,"is_reserved":false,"is_disabled":false,"rental_uris":{"android":"levelo://app?vid=b8d16d18-fc93-4726-8587-6dec10d98c67","ios":"levelo://app?vid=b8d16d18-fc93-4726-8587-6dec10d98c67"},"vehicle_type_id":"4","last_reported":1731150361,"current_range_meters":38800,"station_id":"ce4bgup2rcd13ifvqcn0","pricing_plan_id":"cebpf4jnsgd1na2vs0mg"},{"bike_id":"60f6c847-0536-449a-a5b7-741e61397652","system_id":"levelo_inurba_marseille","lat":43.29966,"lon":5.41323,"is_reserved":false,"is_disabled":false,"rental_uris":{"android":"levelo://app?vid=60f6c847-0536-449a-a5b7-741e61397652","ios":"levelo://app?vid=60f6c847-0536-449a-a5b7-741e61397652"},"vehicle_type_id":"4","last_reported":1731150361,"current_range_meters":36400,"station_id":"ce4bhp12rcd13ifvqh9g","pricing_plan_id":"cebpf4jnsgd1na2vs0mg"},{"bike_id":"3ed67fa7-7588-4d15-a08c-0c6e59a87c16","system_id":"levelo_inurba_marseille","lat":43.27318,"lon":5.39093,"is_reserved":false,"is_disabled":false,"rental_uris":{"android":"levelo://app?vid=3ed67fa7-7588-4d15-a08c-0c6e59a87c16","ios":"levelo://app?vid=3ed67fa7-7588-4d15-a08c-0c6e59a87c16"},"vehicle_type_id":"4","last_reported":1731150361,"current_range_meters":27600,"station_id":"ce4bhgp2rcd13ifvqfe0","pricing_plan_id":"cebpf4jnsgd1na2vs0mg"},{"bike_id":"10ee6f64-d75c-4e2f-8ed0-6ee62c2a4643","system_id":"levelo_inurba_marseille","lat":43.24638,"lon":5.38892,"is_reserved":false,"is_disabled":false,"rental_uris":{"android":"levelo://app?vid=10ee6f64-d75c-4e2f-8ed0-6ee62c2a4643","ios":"levelo://app?vid=10ee6f64-d75c-4e2f-8ed0-6ee62c2a4643"},"vehicle_type_id":"4","last_reported":1731150361,"current_range_meters":16800,"station_id":"ce4bhg12rcd13ifvqf60","pricing_plan_id":"cebpf4jnsgd1na2vs0mg"},{"bike_id":"2c991a00-c195-4f11-818c-bef9309e9357","system_id":"levelo_inurba_marseille","lat":43.27208,"lon":5.39185,"is_reserved":false,"is_disabled":false,"rental_uris":{"android":"levelo://app?vid=2c991a00-c195-4f11-818c-bef9309e9357","ios":"levelo://app?vid=2c991a00-c195-4f11-818c-bef9309e9357"},"vehicle_type_id":"4","last_reported":1731150361,"current_range_meters":24000,"station_id":"ce4bhhp2rcd13ifvqfm0","pricing_plan_id":"cebpf4jnsgd1na2vs0mg"},{"bike_id":"10455137-e5d0-41fa-aac3-325b4d11a1cd","system_id":"levelo_inurba_marseille","lat":43.29219,"lon":5.36075,"is_reserved":false,"is_disabled":false,"rental_uris":{"android":"levelo://app?vid=10455137-e5d0-41fa-aac3-325b4d11a1cd","ios":"levelo://app?vid=10455137-e5d0-41fa-aac3-325b4d11a1cd"},"vehicle_type_id":"4","last_reported":1731150361,"current_range_meters":30400,"station_id":"ce4bhbh2rcd13ifvqeqg","pricing_plan_id":"cebpf4jnsgd1na2vs0mg"},{"bike_id":"d0bf5897-50e1-47d3-98fe-8ae7c2c02d63","system_id":"levelo_inurba_marseille","lat":43.337444,"lon":5.374475,"is_reserved":false,"is_disabled":false,"rental_uris":{"android":"levelo://app?vid=d0bf5897-50e1-47d3-98fe-8ae7c2c02d63","ios":"levelo://app?vid=d0bf5897-50e1-47d3-98fe-8ae7c2c02d63"},"vehicle_type_id":"4","last_reported":1731150361,"current_range_meters":39200,"station_id":"ce4bhop2rcd13ifvqh7g","pricing_plan_id":"cebpf4jnsgd1na2vs0mg"},{"bike_id":"9ae20148-7f84-4ca9-881f-f3cdc365c4d8","system_id":"levelo_inurba_marseille","lat":43.28111,"lon":5.37833,"is_reserved":false,"is_disabled":false,"rental_uris":{"android":"levelo://app?vid=9ae20148-7f84-4ca9-881f-f3cdc365c4d8","ios":"levelo://app?vid=9ae20148-7f84-4ca9-881f-f3cdc365c4d8"},"vehicle_type_id":"4","last_reported":1731150361,"current_range_meters":30400,"station_id":"ce4bha12rcd13ifvqee0","pricing_plan_id":"cebpf4jnsgd1na2vs0mg"},{"bike_id":"1f9225d8-98da-4219-9fd5-c3ade10df80c","system_id":"levelo_inurba_marseille","lat":43.29611,"lon":5.37732,"is_reserved":false,"is_disabled":false,"rental_uris":{"android":"levelo://app?vid=1f9225d8-98da-4219-9fd5-c3ade10df80c","ios":"levelo://app?vid=1f9225d8-98da-4219-9fd5-c3ade10df80c"},"vehicle_type_id":"4","last_reported":1731150361,"current_range_meters":36800,"station_id":"ce4bgi92rcd13ifvqb90","pricing_plan_id":"cebpf4jnsgd1na2vs0mg"},{"bike_id":"e80d3265-2124-4062-b5b5-3ed92ec6149a","system_id":"levelo_inurba_marseille","lat":43.279735,"lon":5.387474,"is_reserved":false,"is_disabled":false,"rental_uris":{"android":"levelo://app?vid=e80d3265-2124-4062-b5b5-3ed92ec6149a","ios":"levelo://app?vid=e80d3265-2124-4062-b5b5-3ed92ec6149a"},"vehicle_type_id":"4","last_reported":1731150361,"current_range_meters":36000,"station_id":"ce4bhg12rcd13ifvqf80","pricing_plan_id":"cebpf4jnsgd1na2vs0mg"},{"bike_id":"ab5864f9-e51e-4d90-b24d-1127467c3a22","system_id":"levelo_inurba_marseille","lat":43.29277,"lon":5.40112,"is_reserved":false,"is_disabled":false,"rental_uris":{"android":"levelo://app?vid=ab5864f9-e51e-4d90-b24d-1127467c3a22","ios":"levelo://app?vid=ab5864f9-e51e-4d90-b24d-1127467c3a22"},"vehicle_type_id":"4","last_reported":1731150361,"current_range_meters":22400,"station_id":"ce4bh312rcd13ifvqdk0","pricing_plan_id":"cebpf4jnsgd1na2vs0mg"},{"bike_id":"956eff09-5679-444e-a208-59ee4bfa2aab","system_id":"levelo_inurba_marseille","lat":43.29971,"lon":5.38492,"is_reserved":false,"is_disabled":false,"rental_uris":{"android":"levelo://app?vid=956eff09-5679-444e-a208-59ee4bfa2aab","ios":"levelo://app?vid=956eff09-5679-444e-a208-59ee4bfa2aab"},"vehicle_type_id":"4","last_reported":1731150361,"current_range_meters":25200,"station_id":"ce4bgj92rcd13ifvqbd0","pricing_plan_id":"cebpf4jnsgd1na2vs0mg"},{"bike_id":"0b14bee4-7578-4f58-b62a-fb5a9ff9218a","system_id":"levelo_inurba_marseille","lat":43.26211,"lon":5.3744,"is_reserved":false,"is_disabled":false,"rental_uris":{"android":"levelo://app?vid=0b14bee4-7578-4f58-b62a-fb5a9ff9218a","ios":"levelo://app?vid=0b14bee4-7578-4f58-b62a-fb5a9ff9218a"},"vehicle_type_id":"4","last_reported":1731150361,"current_range_meters":15200,"station_id":"ce4bhgp2rcd13ifvqfc0","pricing_plan_id":"cebpf4jnsgd1na2vs0mg"},{"bike_id":"2287456b-3bda-4e56-b211-9a70d4437e24","system_id":"levelo_inurba_marseille","lat":43.30594,"lon":5.37227,"is_reserved":false,"is_disabled":false,"rental_uris":{"android":"levelo://app?vid=2287456b-3bda-4e56-b211-9a70d4437e24","ios":"levelo://app?vid=2287456b-3bda-4e56-b211-9a70d4437e24"},"vehicle_type_id":"4","last_reported":1731150361,"current_range_meters":26000,"station_id":"ce4bgqh2rcd13ifvqc4g","pricing_plan_id":"cebpf4jnsgd1na2vs0mg"},{"bike_id":"fbbe362b-7b29-4c8f-b506-484f07761f02","system_id":"levelo_inurba_marseille","lat":43.29915,"lon":5.37449,"is_reserved":false,"is_disabled":false,"rental_uris":{"android":"levelo://app?vid=fbbe362b-7b29-4c8f-b506-484f07761f02","ios":"levelo://app?vid=fbbe362b-7b29-4c8f-b506-484f07761f02"},"vehicle_type_id":"4","last_reported":1731150361,"current_range_meters":38000,"station_id":"ce4bgjh2rcd13ifvqbg0","pricing_plan_id":"cebpf4jnsgd1na2vs0mg"},{"bike_id":"253d4972-885a-4089-ba18-720027ab1cd8","system_id":"levelo_inurba_marseille","lat":43.25723,"lon":5.41104,"is_reserved":false,"is_disabled":false,"rental_uris":{"android":"levelo://app?vid=253d4972-885a-4089-ba18-720027ab1cd8","ios":"levelo://app?vid=253d4972-885a-4089-ba18-720027ab1cd8"},"vehicle_type_id":"4","last_reported":1731150361,"current_range_meters":11200,"station_id":"ce4bhkp2rcd13ifvqgd0","pricing_plan_id":"cebpf4jnsgd1na2vs0mg"},{"bike_id":"6101737e-1b19-40ef-a38b-97b26caec9c6","system_id":"levelo_inurba_marseille","lat":43.29522,"lon":5.39038,"is_reserved":false,"is_disabled":false,"rental_uris":{"android":"levelo://app?vid=6101737e-1b19-40ef-a38b-97b26caec9c6","ios":"levelo://app?vid=6101737e-1b19-40ef-a38b-97b26caec9c6"},"vehicle_type_id":"4","last_reported":1731150361,"current_range_meters":6800,"station_id":"ce4bh3p2rcd13ifvqdp0","pricing_plan_id":"cebpf4jnsgd1na2vs0mg"},{"bike_id":"cd87b973-318e-4d77-bb59-125d39101cbb","system_id":"levelo_inurba_marseille","lat":43.32057,"lon":5.41547,"is_reserved":false,"is_disabled":false,"rental_uris":{"android":"levelo://app?vid=cd87b973-318e-4d77-bb59-125d39101cbb","ios":"levelo://app?vid=cd87b973-318e-4d77-bb59-125d39101cbb"},"vehicle_type_id":"4","last_reported":1731150361,"current_range_meters":7200,"station_id":"ce4bhq92rcd13ifvqhkg","pricing_plan_id":"cebpf4jnsgd1na2vs0mg"},{"bike_id":"219f0ebc-ae04-44b4-9f81-81fcff2c0f34","system_id":"levelo_inurba_marseille","lat":43.311246,"lon":5.377589,"is_reserved":false,"is_disabled":false,"rental_uris":{"android":"levelo://app?vid=219f0ebc-ae04-44b4-9f81-81fcff2c0f34","ios":"levelo://app?vid=219f0ebc-ae04-44b4-9f81-81fcff2c0f34"},"vehicle_type_id":"4","last_reported":1731150361,"current_range_meters":33600,"station_id":"ce4bgt92rcd13ifvqcg0","pricing_plan_id":"cebpf4jnsgd1na2vs0mg"},{"bike_id":"f2926c7c-214e-4d18-9865-1d8d12d63a87","system_id":"levelo_inurba_marseille","lat":43.29892,"lon":5.38896,"is_reserved":false,"is_disabled":false,"rental_uris":{"android":"levelo://app?vid=f2926c7c-214e-4d18-9865-1d8d12d63a87","ios":"levelo://app?vid=f2926c7c-214e-4d18-9865-1d8d12d63a87"},"vehicle_type_id":"4","last_reported":1731150361,"current_range_meters":29600,"station_id":"ce4bh392rcd13ifvqdl0","pricing_plan_id":"cebpf4jnsgd1na2vs0mg"},{"bike_id":"6463664d-8d71-4282-8618-f2c0c195f781","system_id":"levelo_inurba_marseille","lat":43.30164,"lon":5.38076,"is_reserved":false,"is_disabled":false,"rental_uris":{"android":"levelo://app?vid=6463664d-8d71-4282-8618-f2c0c195f781","ios":"levelo://app?vid=6463664d-8d71-4282-8618-f2c0c195f781"},"vehicle_type_id":"4","last_reported":1731150361,"current_range_meters":28400,"station_id":"ce4bgjp2rcd13ifvqbh0","pricing_plan_id":"cebpf4jnsgd1na2vs0mg"},{"bike_id":"b47972e0-d463-4b78-b392-6ca4aaf924a9","system_id":"levelo_inurba_marseille","lat":43.27199,"lon":5.39179,"is_reserved":false,"is_disabled":false,"rental_uris":{"android":"levelo://app?vid=b47972e0-d463-4b78-b392-6ca4aaf924a9","ios":"levelo://app?vid=b47972e0-d463-4b78-b392-6ca4aaf924a9"},"vehicle_type_id":"4","last_reported":1731150361,"current_range_meters":17200,"station_id":"ce4bhhp2rcd13ifvqfm0","pricing_plan_id":"cebpf4jnsgd1na2vs0mg"},{"bike_id":"3424df2c-a0ae-4e23-b518-86ea552de7c2","system_id":"levelo_inurba_marseille","lat":43.29218,"lon":5.36053,"is_reserved":false,"is_disabled":false,"rental_uris":{"android":"levelo://app?vid=3424df2c-a0ae-4e23-b518-86ea552de7c2","ios":"levelo://app?vid=3424df2c-a0ae-4e23-b518-86ea552de7c2"},"vehicle_type_id":"4","last_reported":1731150361,"current_range_meters":35600,"station_id":"ce4bhbh2rcd13ifvqeqg","pricing_plan_id":"cebpf4jnsgd1na2vs0mg"},{"bike_id":"dfc67ac7-9387-4820-b66e-b8902a1237d7","system_id":"levelo_inurba_marseille","lat":43.29587,"lon":5.36738,"is_reserved":false,"is_disabled":false,"rental_uris":{"android":"levelo://app?vid=dfc67ac7-9387-4820-b66e-b8902a1237d7","ios":"levelo://app?vid=dfc67ac7-9387-4820-b66e-b8902a1237d7"},"vehicle_type_id":"4","last_reported":1731150361,"current_range_meters":38800,"station_id":"ce4bgph2rcd13ifvqc2g","pricing_plan_id":"cebpf4jnsgd1na2vs0mg"},{"bike_id":"ba4e9b3f-2a8e-4431-b57f-f6a1ee8edd37","system_id":"levelo_inurba_marseille","lat":43.30154,"lon":5.38085,"is_reserved":false,"is_disabled":false,"rental_uris":{"android":"levelo://app?vid=ba4e9b3f-2a8e-4431-b57f-f6a1ee8edd37","ios":"levelo://app?vid=ba4e9b3f-2a8e-4431-b57f-f6a1ee8edd37"},"vehicle_type_id":"4","last_reported":1731150361,"current_range_meters":20800,"station_id":"ce4bgjp2rcd13ifvqbh0","pricing_plan_id":"cebpf4jnsgd1na2vs0mg"},{"bike_id":"eb8ae82e-b5af-4e43-8b69-b135e11d1ed6","system_id":"levelo_inurba_marseille","lat":43.29894,"lon":5.43668,"is_reserved":false,"is_disabled":false,"rental_uris":{"android":"levelo://app?vid=eb8ae82e-b5af-4e43-8b69-b135e11d1ed6","ios":"levelo://app?vid=eb8ae82e-b5af-4e43-8b69-b135e11d1ed6"},"vehicle_type_id":"4","last_reported":1731150361,"current_range_meters":8400,"station_id":"ce4bhpp2rcd13ifvqhfg","pricing_plan_id":"cebpf4jnsgd1na2vs0mg"},{"bike_id":"6a33dce0-73c3-415c-8e7f-3e4dead523b5","system_id":"levelo_inurba_marseille","lat":43.32112,"lon":5.36771,"is_reserved":false,"is_disabled":false,"rental_uris":{"android":"levelo://app?vid=6a33dce0-73c3-415c-8e7f-3e4dead523b5","ios":"levelo://app?vid=6a33dce0-73c3-415c-8e7f-3e4dead523b5"},"vehicle_type_id":"4","last_reported":1731150361,"current_range_meters":33200,"station_id":"ce4bhrh2rcd13ifvqhug","pricing_plan_id":"cebpf4jnsgd1na2vs0mg"},{"bike_id":"2b95e317-ccbb-4f3e-9797-56e0e9e7cbba","system_id":"levelo_inurba_marseille","lat":43.27425,"lon":5.39409,"is_reserved":false,"is_disabled":false,"rental_uris":{"android":"levelo://app?vid=2b95e317-ccbb-4f3e-9797-56e0e9e7cbba","ios":"levelo://app?vid=2b95e317-ccbb-4f3e-9797-56e0e9e7cbba"},"vehicle_type_id":"4","last_reported":1731150361,"current_range_meters":6800,"station_id":"ce4bhdp2rcd13ifvqf20","pricing_plan_id":"cebpf4jnsgd1na2vs0mg"},{"bike_id":"35cad7ca-d168-4b9f-bd08-49f4e9fd6858","system_id":"levelo_inurba_marseille","lat":43.33771,"lon":5.37467,"is_reserved":false,"is_disabled":false,"rental_uris":{"android":"levelo://app?vid=35cad7ca-d168-4b9f-bd08-49f4e9fd6858","ios":"levelo://app?vid=35cad7ca-d168-4b9f-bd08-49f4e9fd6858"},"vehicle_type_id":"4","last_reported":1731150361,"current_range_meters":36400,"station_id":"","pricing_plan_id":"cebpf4jnsgd1na2vs0mg"},{"bike_id":"d6fdae69-642e-4d84-a8fd-edeb75ed0ef4","system_id":"levelo_inurba_marseille","lat":43.22932,"lon":5.35376,"is_reserved":false,"is_disabled":false,"rental_uris":{"android":"levelo://app?vid=d6fdae69-642e-4d84-a8fd-edeb75ed0ef4","ios":"levelo://app?vid=d6fdae69-642e-4d84-a8fd-edeb75ed0ef4"},"vehicle_type_id":"4","last_reported":1731150361,"current_range_meters":40000,"station_id":"cpo3532slgdg3j2ikp40","pricing_plan_id":"cebpf4jnsgd1na2vs0mg"},{"bike_id":"d66a7caa-82ee-4050-89f5-a7e0327031ec","system_id":"levelo_inurba_marseille","lat":43.30013,"lon":5.38873,"is_reserved":false,"is_disabled":false,"rental_uris":{"android":"levelo://app?vid=d66a7caa-82ee-4050-89f5-a7e0327031ec","ios":"levelo://app?vid=d66a7caa-82ee-4050-89f5-a7e0327031ec"},"vehicle_type_id":"4","last_reported":1731150361,"current_range_meters":32800,"station_id":"","pricing_plan_id":"cebpf4jnsgd1na2vs0mg"},{"bike_id":"f7156818-b890-4faa-972d-a7b3802f0401","system_id":"levelo_inurba_marseille","lat":43.25502,"lon":5.3765,"is_reserved":false,"is_disabled":false,"rental_uris":{"android":"levelo://app?vid=f7156818-b890-4faa-972d-a7b3802f0401","ios":"levelo://app?vid=f7156818-b890-4faa-972d-a7b3802f0401"},"vehicle_type_id":"4","last_reported":1731150361,"current_range_meters":20400,"station_id":"ce4bhh12rcd13ifvqff0","pricing_plan_id":"cebpf4jnsgd1na2vs0mg"},{"bike_id":"fa6a0987-224a-4bc2-940a-f29ee1722da6","system_id":"levelo_inurba_marseille","lat":43.28613,"lon":5.35102,"is_reserved":false,"is_disabled":false,"rental_uris":{"android":"levelo://app?vid=fa6a0987-224a-4bc2-940a-f29ee1722da6","ios":"levelo://app?vid=fa6a0987-224a-4bc2-940a-f29ee1722da6"},"vehicle_type_id":"4","last_reported":1731150361,"current_range_meters":38800,"station_id":"ce4bhch2rcd13ifvqeug","pricing_plan_id":"cebpf4jnsgd1na2vs0mg"},{"bike_id":"150d8ee1-09b9-4a9d-a8e7-427c8e3ef625","system_id":"levelo_inurba_marseille","lat":43.28421,"lon":5.34993,"is_reserved":false,"is_disabled":false,"rental_uris":{"android":"levelo://app?vid=150d8ee1-09b9-4a9d-a8e7-427c8e3ef625","ios":"levelo://app?vid=150d8ee1-09b9-4a9d-a8e7-427c8e3ef625"},"vehicle_type_id":"4","last_reported":1731150361,"current_range_meters":39200,"station_id":"ce4bhbh2rcd13ifvqepg","pricing_plan_id":"cebpf4jnsgd1na2vs0mg"},{"bike_id":"9f285834-2950-40f2-97f5-d02e66aec9bd","system_id":"levelo_inurba_marseille","lat":43.24386,"lon":5.3706,"is_reserved":false,"is_disabled":false,"rental_uris":{"android":"levelo://app?vid=9f285834-2950-40f2-97f5-d02e66aec9bd","ios":"levelo://app?vid=9f285834-2950-40f2-97f5-d02e66aec9bd"},"vehicle_type_id":"4","last_reported":1731150361,"current_range_meters":29600,"station_id":"ce4bhhh2rcd13ifvqfk0","pricing_plan_id":"cebpf4jnsgd1na2vs0mg"},{"bike_id":"97cab8eb-f11d-449f-aca5-63494097fb74","system_id":"levelo_inurba_marseille","lat":43.30944,"lon":5.39035,"is_reserved":false,"is_disabled":false,"rental_uris":{"android":"levelo://app?vid=97cab8eb-f11d-449f-aca5-63494097fb74","ios":"levelo://app?vid=97cab8eb-f11d-449f-aca5-63494097fb74"},"vehicle_type_id":"4","last_reported":1731150361,"current_range_meters":4400,"station_id":"ce4bgup2rcd13ifvqco0","pricing_plan_id":"cebpf4jnsgd1na2vs0mg"},{"bike_id":"e99d247a-1ce0-4c71-944b-d68cc3c2ab92","system_id":"levelo_inurba_marseille","lat":43.30642,"lon":5.40083,"is_reserved":false,"is_disabled":false,"rental_uris":{"android":"levelo://app?vid=e99d247a-1ce0-4c71-944b-d68cc3c2ab92","ios":"levelo://app?vid=e99d247a-1ce0-4c71-944b-d68cc3c2ab92"},"vehicle_type_id":"4","last_reported":1731150361,"current_range_meters":40000,"station_id":"ce4bh112rcd13ifvqda0","pricing_plan_id":"cebpf4jnsgd1na2vs0mg"},{"bike_id":"c91d9995-4636-43b5-8794-af1993a95256","system_id":"levelo_inurba_marseille","lat":43.3372,"lon":5.39183,"is_reserved":false,"is_disabled":false,"rental_uris":{"android":"levelo://app?vid=c91d9995-4636-43b5-8794-af1993a95256","ios":"levelo://app?vid=c91d9995-4636-43b5-8794-af1993a95256"},"vehicle_type_id":"4","last_reported":1731150361,"current_range_meters":36400,"station_id":"ce4bhr92rcd13ifvqhsg","pricing_plan_id":"cebpf4jnsgd1na2vs0mg"},{"bike_id":"448d3bf9-78cb-439a-a23b-0e48f1b89013","system_id":"levelo_inurba_marseille","lat":43.3236,"lon":5.389,"is_reserved":false,"is_disabled":false,"rental_uris":{"android":"levelo://app?vid=448d3bf9-78cb-439a-a23b-0e48f1b89013","ios":"levelo://app?vid=448d3bf9-78cb-439a-a23b-0e48f1b89013"},"vehicle_type_id":"4","last_reported":1731150361,"current_range_meters":12000,"station_id":"ce4bhqp2rcd13ifvqhog","pricing_plan_id":"cebpf4jnsgd1na2vs0mg"},{"bike_id":"08c87c74-8ce5-4912-ab68-fb06a199a47b","system_id":"levelo_inurba_marseille","lat":43.2318,"lon":5.39984,"is_reserved":false,"is_disabled":false,"rental_uris":{"android":"levelo://app?vid=08c87c74-8ce5-4912-ab68-fb06a199a47b","ios":"levelo://app?vid=08c87c74-8ce5-4912-ab68-fb06a199a47b"},"vehicle_type_id":"4","last_reported":1731150361,"current_range_meters":38800,"station_id":"ce4bhn12rcd13ifvqgqg","pricing_plan_id":"cebpf4jnsgd1na2vs0mg"},{"bike_id":"3fab46d8-814c-4b38-a2e3-cb1033941065","system_id":"levelo_inurba_marseille","lat":43.29967,"lon":5.38491,"is_reserved":false,"is_disabled":false,"rental_uris":{"android":"levelo://app?vid=3fab46d8-814c-4b38-a2e3-cb1033941065","ios":"levelo://app?vid=3fab46d8-814c-4b38-a2e3-cb1033941065"},"vehicle_type_id":"4","last_reported":1731150361,"current_range_meters":26800,"station_id":"ce4bgj92rcd13ifvqbd0","pricing_plan_id":"cebpf4jnsgd1na2vs0mg"},{"bike_id":"ed041fb6-af35-4b06-8c0a-964d1a6674b3","system_id":"levelo_inurba_marseille","lat":43.30644,"lon":5.40106,"is_reserved":false,"is_disabled":false,"rental_uris":{"android":"levelo://app?vid=ed041fb6-af35-4b06-8c0a-964d1a6674b3","ios":"levelo://app?vid=ed041fb6-af35-4b06-8c0a-964d1a6674b3"},"vehicle_type_id":"4","last_reported":1731150361,"current_range_meters":36000,"station_id":"ce4bh112rcd13ifvqda0","pricing_plan_id":"cebpf4jnsgd1na2vs0mg"},{"bike_id":"c7539b92-505f-49fa-b484-3155eaa0dec2","system_id":"levelo_inurba_marseille","lat":43.30414,"lon":5.4129,"is_reserved":false,"is_disabled":false,"rental_uris":{"android":"levelo://app?vid=c7539b92-505f-49fa-b484-3155eaa0dec2","ios":"levelo://app?vid=c7539b92-505f-49fa-b484-3155eaa0dec2"},"vehicle_type_id":"4","last_reported":1731150361,"current_range_meters":35600,"station_id":"ce4bhop2rcd13ifvqh8g","pricing_plan_id":"cebpf4jnsgd1na2vs0mg"},{"bike_id":"d4e2615a-83f7-44f4-94b2-ee4cf6b17fb3","system_id":"levelo_inurba_marseille","lat":43.25088,"lon":5.39511,"is_reserved":false,"is_disabled":false,"rental_uris":{"android":"levelo://app?vid=d4e2615a-83f7-44f4-94b2-ee4cf6b17fb3","ios":"levelo://app?vid=d4e2615a-83f7-44f4-94b2-ee4cf6b17fb3"},"vehicle_type_id":"4","last_reported":1731150361,"current_range_meters":18800,"station_id":"ce4bhm12rcd13ifvqgkg","pricing_plan_id":"cebpf4jnsgd1na2vs0mg"},{"bike_id":"e103be28-a2f8-4a89-8436-b4d164c2df27","system_id":"levelo_inurba_marseille","lat":43.29688,"lon":5.37288,"is_reserved":false,"is_disabled":false,"rental_uris":{"android":"levelo://app?vid=e103be28-a2f8-4a89-8436-b4d164c2df27","ios":"levelo://app?vid=e103be28-a2f8-4a89-8436-b4d164c2df27"},"vehicle_type_id":"4","last_reported":1731150361,"current_range_meters":37600,"station_id":"ce4bgk12rcd13ifvqbj0","pricing_plan_id":"cebpf4jnsgd1na2vs0mg"},{"bike_id":"1e3dea22-7fac-4f4b-b600-c929631fbbdf","system_id":"levelo_inurba_marseille","lat":43.3172,"lon":5.42396,"is_reserved":false,"is_disabled":false,"rental_uris":{"android":"levelo://app?vid=1e3dea22-7fac-4f4b-b600-c929631fbbdf","ios":"levelo://app?vid=1e3dea22-7fac-4f4b-b600-c929631fbbdf"},"vehicle_type_id":"4","last_reported":1731150361,"current_range_meters":38000,"station_id":"ce4bhp92rcd13ifvqhbg","pricing_plan_id":"cebpf4jnsgd1na2vs0mg"},{"bike_id":"ae066ecb-164c-4487-9e42-b0ee2cebe73b","system_id":"levelo_inurba_marseille","lat":43.33765,"lon":5.37479,"is_reserved":false,"is_disabled":false,"rental_uris":{"android":"levelo://app?vid=ae066ecb-164c-4487-9e42-b0ee2cebe73b","ios":"levelo://app?vid=ae066ecb-164c-4487-9e42-b0ee2cebe73b"},"vehicle_type_id":"4","last_reported":1731150361,"current_range_meters":37600,"station_id":"","pricing_plan_id":"cebpf4jnsgd1na2vs0mg"},{"bike_id":"4aeddbee-71c1-4a44-a65a-517cba2ea0bf","system_id":"levelo_inurba_marseille","lat":43.29199,"lon":5.35805,"is_reserved":false,"is_disabled":false,"rental_uris":{"android":"levelo://app?vid=4aeddbee-71c1-4a44-a65a-517cba2ea0bf","ios":"levelo://app?vid=4aeddbee-71c1-4a44-a65a-517cba2ea0bf"},"vehicle_type_id":"4","last_reported":1731150361,"current_range_meters":8800,"station_id":"ce4bhb12rcd13ifvqel0","pricing_plan_id":"cebpf4jnsgd1na2vs0mg"},{"bike_id":"6f33f8da-82fb-4233-8445-c05207f5575f","system_id":"levelo_inurba_marseille","lat":43.29586,"lon":5.36734,"is_reserved":false,"is_disabled":false,"rental_uris":{"android":"levelo://app?vid=6f33f8da-82fb-4233-8445-c05207f5575f","ios":"levelo://app?vid=6f33f8da-82fb-4233-8445-c05207f5575f"},"vehicle_type_id":"4","last_reported":1731150361,"current_range_meters":36800,"station_id":"ce4bgph2rcd13ifvqc2g","pricing_plan_id":"cebpf4jnsgd1na2vs0mg"},{"bike_id":"31029f1f-6cfc-419d-a9af-b9ef9f8935bf","system_id":"levelo_inurba_marseille","lat":43.29914,"lon":5.37473,"is_reserved":false,"is_disabled":false,"rental_uris":{"android":"levelo://app?vid=31029f1f-6cfc-419d-a9af-b9ef9f8935bf","ios":"levelo://app?vid=31029f1f-6cfc-419d-a9af-b9ef9f8935bf"},"vehicle_type_id":"4","last_reported":1731150361,"current_range_meters":39200,"station_id":"ce4bgjh2rcd13ifvqbg0","pricing_plan_id":"cebpf4jnsgd1na2vs0mg"},{"bike_id":"a3d8f05b-65b1-423f-815c-3a8d00f88c7e","system_id":"levelo_inurba_marseille","lat":43.276727,"lon":5.388877,"is_reserved":false,"is_disabled":false,"rental_uris":{"android":"levelo://app?vid=a3d8f05b-65b1-423f-815c-3a8d00f88c7e","ios":"levelo://app?vid=a3d8f05b-65b1-423f-815c-3a8d00f88c7e"},"vehicle_type_id":"4","last_reported":1731150361,"current_range_meters":38400,"station_id":"ce4bhi12rcd13ifvqfo0","pricing_plan_id":"cebpf4jnsgd1na2vs0mg"},{"bike_id":"181fa628-fd06-4339-88f4-5d411c857699","system_id":"levelo_inurba_marseille","lat":43.2707,"lon":5.42278,"is_reserved":false,"is_disabled":false,"rental_uris":{"android":"levelo://app?vid=181fa628-fd06-4339-88f4-5d411c857699","ios":"levelo://app?vid=181fa628-fd06-4339-88f4-5d411c857699"},"vehicle_type_id":"4","last_reported":1731150361,"current_range_meters":16000,"station_id":"ce4bhk92rcd13ifvqgb0","pricing_plan_id":"cebpf4jnsgd1na2vs0mg"},{"bike_id":"085be693-2d8a-4b89-bd4e-1455ac23dae8","system_id":"levelo_inurba_marseille","lat":43.26057,"lon":5.39394,"is_reserved":false,"is_disabled":false,"rental_uris":{"android":"levelo://app?vid=085be693-2d8a-4b89-bd4e-1455ac23dae8","ios":"levelo://app?vid=085be693-2d8a-4b89-bd4e-1455ac23dae8"},"vehicle_type_id":"4","last_reported":1731150361,"current_range_meters":37600,"station_id":"ce4bhh92rcd13ifvqfj0","pricing_plan_id":"cebpf4jnsgd1na2vs0mg"},{"bike_id":"a0d9d5ae-de17-4341-bed9-edfa4e4e8139","system_id":"levelo_inurba_marseille","lat":43.30908,"lon":5.36853,"is_reserved":false,"is_disabled":false,"rental_uris":{"android":"levelo://app?vid=a0d9d5ae-de17-4341-bed9-edfa4e4e8139","ios":"levelo://app?vid=a0d9d5ae-de17-4341-bed9-edfa4e4e8139"},"vehicle_type_id":"4","last_reported":1731150361,"current_range_meters":39200,"station_id":"ce4bgn92rcd13ifvqbvg","pricing_plan_id":"cebpf4jnsgd1na2vs0mg"},{"bike_id":"5c288d69-bb8b-42a4-9e82-338525b33ce7","system_id":"levelo_inurba_marseille","lat":43.29619,"lon":5.37734,"is_reserved":false,"is_disabled":false,"rental_uris":{"android":"levelo://app?vid=5c288d69-bb8b-42a4-9e82-338525b33ce7","ios":"levelo://app?vid=5c288d69-bb8b-42a4-9e82-338525b33ce7"},"vehicle_type_id":"4","last_reported":1731150361,"current_range_meters":28400,"station_id":"ce4bgi92rcd13ifvqb90","pricing_plan_id":"cebpf4jnsgd1na2vs0mg"},{"bike_id":"7ee5e9c9-c9de-4184-be15-04dcbb3ea74c","system_id":"levelo_inurba_marseille","lat":43.32285,"lon":5.382877,"is_reserved":false,"is_disabled":false,"rental_uris":{"android":"levelo://app?vid=7ee5e9c9-c9de-4184-be15-04dcbb3ea74c","ios":"levelo://app?vid=7ee5e9c9-c9de-4184-be15-04dcbb3ea74c"},"vehicle_type_id":"4","last_reported":1731150361,"current_range_meters":39200,"station_id":"ce4bhr12rcd13ifvqhqg","pricing_plan_id":"cebpf4jnsgd1na2vs0mg"},{"bike_id":"764ab749-70ca-4b73-a35f-c0abe15547f3","system_id":"levelo_inurba_marseille","lat":43.3015,"lon":5.38088,"is_reserved":false,"is_disabled":false,"rental_uris":{"android":"levelo://app?vid=764ab749-70ca-4b73-a35f-c0abe15547f3","ios":"levelo://app?vid=764ab749-70ca-4b73-a35f-c0abe15547f3"},"vehicle_type_id":"4","last_reported":1731150361,"current_range_meters":35600,"station_id":"ce4bgjp2rcd13ifvqbh0","pricing_plan_id":"cebpf4jnsgd1na2vs0mg"},{"bike_id":"dd02dda1-0cf5-4e23-8f9a-88ca5953c398","system_id":"levelo_inurba_marseille","lat":43.25002,"lon":5.38934,"is_reserved":false,"is_disabled":false,"rental_uris":{"android":"levelo://app?vid=dd02dda1-0cf5-4e23-8f9a-88ca5953c398","ios":"levelo://app?vid=dd02dda1-0cf5-4e23-8f9a-88ca5953c398"},"vehicle_type_id":"4","last_reported":1731150361,"current_range_meters":13600,"station_id":"ce4bhgp2rcd13ifvqfd0","pricing_plan_id":"cebpf4jnsgd1na2vs0mg"},{"bike_id":"b31453d8-c8db-4ba3-a055-a388617b526e","system_id":"levelo_inurba_marseille","lat":43.28157,"lon":5.42645,"is_reserved":false,"is_disabled":false,"rental_uris":{"android":"levelo://app?vid=b31453d8-c8db-4ba3-a055-a388617b526e","ios":"levelo://app?vid=b31453d8-c8db-4ba3-a055-a388617b526e"},"vehicle_type_id":"4","last_reported":1731150361,"current_range_meters":34000,"station_id":"ce4bhnh2rcd13ifvqgug","pricing_plan_id":"cebpf4jnsgd1na2vs0mg"},{"bike_id":"e0352fab-c635-4c7a-87d9-f615c078509d","system_id":"levelo_inurba_marseille","lat":43.32477,"lon":5.3657,"is_reserved":false,"is_disabled":false,"rental_uris":{"android":"levelo://app?vid=e0352fab-c635-4c7a-87d9-f615c078509d","ios":"levelo://app?vid=e0352fab-c635-4c7a-87d9-f615c078509d"},"vehicle_type_id":"4","last_reported":1731150361,"current_range_meters":40000,"station_id":"ce4bhs12rcd13ifvqhvg","pricing_plan_id":"cebpf4jnsgd1na2vs0mg"},{"bike_id":"c11f357c-d79a-45d0-936f-94a77be858bd","system_id":"levelo_inurba_marseille","lat":43.30448,"lon":5.379,"is_reserved":false,"is_disabled":false,"rental_uris":{"android":"levelo://app?vid=c11f357c-d79a-45d0-936f-94a77be858bd","ios":"levelo://app?vid=c11f357c-d79a-45d0-936f-94a77be858bd"},"vehicle_type_id":"4","last_reported":1731150361,"current_range_meters":29600,"station_id":"ce4bgup2rcd13ifvqcn0","pricing_plan_id":"cebpf4jnsgd1na2vs0mg"},{"bike_id":"94972749-ebee-4884-9159-36ef397b6c8f","system_id":"levelo_inurba_marseille","lat":43.29549,"lon":5.42289,"is_reserved":false,"is_disabled":false,"rental_uris":{"android":"levelo://app?vid=94972749-ebee-4884-9159-36ef397b6c8f","ios":"levelo://app?vid=94972749-ebee-4884-9159-36ef397b6c8f"},"vehicle_type_id":"4","last_reported":1731150361,"current_range_meters":4400,"station_id":"ce4bhph2rcd13ifvqhdg","pricing_plan_id":"cebpf4jnsgd1na2vs0mg"},{"bike_id":"2ca61654-9c49-4664-a59c-2f161d44cbb0","system_id":"levelo_inurba_marseille","lat":43.25077,"lon":5.39514,"is_reserved":false,"is_disabled":false,"rental_uris":{"android":"levelo://app?vid=2ca61654-9c49-4664-a59c-2f161d44cbb0","ios":"levelo://app?vid=2ca61654-9c49-4664-a59c-2f161d44cbb0"},"vehicle_type_id":"4","last_reported":1731150361,"current_range_meters":27600,"station_id":"ce4bhm12rcd13ifvqgkg","pricing_plan_id":"cebpf4jnsgd1na2vs0mg"},{"bike_id":"774649b8-3eb5-4e5a-bdc0-8cf43dfb86a6","system_id":"levelo_inurba_marseille","lat":43.24652,"lon":5.38893,"is_reserved":false,"is_disabled":false,"rental_uris":{"android":"levelo://app?vid=774649b8-3eb5-4e5a-bdc0-8cf43dfb86a6","ios":"levelo://app?vid=774649b8-3eb5-4e5a-bdc0-8cf43dfb86a6"},"vehicle_type_id":"4","last_reported":1731150361,"current_range_meters":28800,"station_id":"ce4bhg12rcd13ifvqf60","pricing_plan_id":"cebpf4jnsgd1na2vs0mg"},{"bike_id":"9d291c5d-07c9-471b-b1f2-df5c113ecdb3","system_id":"levelo_inurba_marseille","lat":43.30649,"lon":5.40078,"is_reserved":false,"is_disabled":false,"rental_uris":{"android":"levelo://app?vid=9d291c5d-07c9-471b-b1f2-df5c113ecdb3","ios":"levelo://app?vid=9d291c5d-07c9-471b-b1f2-df5c113ecdb3"},"vehicle_type_id":"4","last_reported":1731150361,"current_range_meters":40000,"station_id":"ce4bh112rcd13ifvqda0","pricing_plan_id":"cebpf4jnsgd1na2vs0mg"},{"bike_id":"9c7e80c7-d336-49c0-8584-d01804c7e4ae","system_id":"levelo_inurba_marseille","lat":43.28147,"lon":5.42633,"is_reserved":false,"is_disabled":false,"rental_uris":{"android":"levelo://app?vid=9c7e80c7-d336-49c0-8584-d01804c7e4ae","ios":"levelo://app?vid=9c7e80c7-d336-49c0-8584-d01804c7e4ae"},"vehicle_type_id":"4","last_reported":1731150361,"current_range_meters":25200,"station_id":"ce4bhnh2rcd13ifvqgug","pricing_plan_id":"cebpf4jnsgd1na2vs0mg"},{"bike_id":"3f282013-44a0-42d9-a4c6-0ef8d49ca772","system_id":"levelo_inurba_marseille","lat":43.29511,"lon":5.37499,"is_reserved":false,"is_disabled":false,"rental_uris":{"android":"levelo://app?vid=3f282013-44a0-42d9-a4c6-0ef8d49ca772","ios":"levelo://app?vid=3f282013-44a0-42d9-a4c6-0ef8d49ca772"},"vehicle_type_id":"4","last_reported":1731150361,"current_range_meters":17600,"station_id":"ce4bgkp2rcd13ifvqbmg","pricing_plan_id":"cebpf4jnsgd1na2vs0mg"},{"bike_id":"ccc443ec-ec56-4894-a63e-26dc8c770c69","system_id":"levelo_inurba_marseille","lat":43.27918,"lon":5.39576,"is_reserved":false,"is_disabled":false,"rental_uris":{"android":"levelo://app?vid=ccc443ec-ec56-4894-a63e-26dc8c770c69","ios":"levelo://app?vid=ccc443ec-ec56-4894-a63e-26dc8c770c69"},"vehicle_type_id":"4","last_reported":1731150361,"current_range_meters":26000,"station_id":"ce4bhf92rcd13ifvqf40","pricing_plan_id":"cebpf4jnsgd1na2vs0mg"},{"bike_id":"45153640-2009-4bc6-9147-a37328c5c9c4","system_id":"levelo_inurba_marseille","lat":43.30136,"lon":5.39868,"is_reserved":false,"is_disabled":false,"rental_uris":{"android":"levelo://app?vid=45153640-2009-4bc6-9147-a37328c5c9c4","ios":"levelo://app?vid=45153640-2009-4bc6-9147-a37328c5c9c4"},"vehicle_type_id":"4","last_reported":1731150361,"current_range_meters":25600,"station_id":"ce4bh0h2rcd13ifvqd40","pricing_plan_id":"cebpf4jnsgd1na2vs0mg"},{"bike_id":"65a1b030-cedd-4ff2-8f58-0dd8d4aa1c01","system_id":"levelo_inurba_marseille","lat":43.27995,"lon":5.40009,"is_reserved":false,"is_disabled":false,"rental_uris":{"android":"levelo://app?vid=65a1b030-cedd-4ff2-8f58-0dd8d4aa1c01","ios":"levelo://app?vid=65a1b030-cedd-4ff2-8f58-0dd8d4aa1c01"},"vehicle_type_id":"4","last_reported":1731150361,"current_range_meters":38400,"station_id":"ce4bho92rcd13ifvqh4g","pricing_plan_id":"cebpf4jnsgd1na2vs0mg"},{"bike_id":"16f0f65c-0669-48c2-8b88-c14a9f2b1043","system_id":"levelo_inurba_marseille","lat":43.2928,"lon":5.3747,"is_reserved":false,"is_disabled":false,"rental_uris":{"android":"levelo://app?vid=16f0f65c-0669-48c2-8b88-c14a9f2b1043","ios":"levelo://app?vid=16f0f65c-0669-48c2-8b88-c14a9f2b1043"},"vehicle_type_id":"4","last_reported":1731150361,"current_range_meters":35600,"station_id":"ce4bgi12rcd13ifvqb70","pricing_plan_id":"cebpf4jnsgd1na2vs0mg"},{"bike_id":"4688dc81-edd3-47f1-9473-5ce8e90c071e","system_id":"levelo_inurba_marseille","lat":43.29969,"lon":5.37187,"is_reserved":false,"is_disabled":false,"rental_uris":{"android":"levelo://app?vid=4688dc81-edd3-47f1-9473-5ce8e90c071e","ios":"levelo://app?vid=4688dc81-edd3-47f1-9473-5ce8e90c071e"},"vehicle_type_id":"4","last_reported":1731150361,"current_range_meters":26000,"station_id":"ce4bgr92rcd13ifvqc7g","pricing_plan_id":"cebpf4jnsgd1na2vs0mg"},{"bike_id":"b2cbe124-e9e9-4203-8080-c24b9a55d574","system_id":"levelo_inurba_marseille","lat":43.24076,"lon":5.37759,"is_reserved":false,"is_disabled":false,"rental_uris":{"android":"levelo://app?vid=b2cbe124-e9e9-4203-8080-c24b9a55d574","ios":"levelo://app?vid=b2cbe124-e9e9-4203-8080-c24b9a55d574"},"vehicle_type_id":"4","last_reported":1731150361,"current_range_meters":35600,"station_id":"ce4bhnp2rcd13ifvqgvg","pricing_plan_id":"cebpf4jnsgd1na2vs0mg"},{"bike_id":"4adc051b-cab2-444f-a4c6-933d4708baf0","system_id":"levelo_inurba_marseille","lat":43.31719,"lon":5.42401,"is_reserved":false,"is_disabled":false,"rental_uris":{"android":"levelo://app?vid=4adc051b-cab2-444f-a4c6-933d4708baf0","ios":"levelo://app?vid=4adc051b-cab2-444f-a4c6-933d4708baf0"},"vehicle_type_id":"4","last_reported":1731150361,"current_range_meters":9200,"station_id":"ce4bhp92rcd13ifvqhbg","pricing_plan_id":"cebpf4jnsgd1na2vs0mg"},{"bike_id":"bc14f84f-871d-4faa-a3e8-565342d8fc32","system_id":"levelo_inurba_marseille","lat":43.336076,"lon":5.410284,"is_reserved":false,"is_disabled":false,"rental_uris":{"android":"levelo://app?vid=bc14f84f-871d-4faa-a3e8-565342d8fc32","ios":"levelo://app?vid=bc14f84f-871d-4faa-a3e8-565342d8fc32"},"vehicle_type_id":"4","last_reported":1731150361,"current_range_meters":18000,"station_id":"ce4bhqh2rcd13ifvqhmg","pricing_plan_id":"cebpf4jnsgd1na2vs0mg"},{"bike_id":"54f46eca-231b-4d4c-b044-5bfe4abbbaba","system_id":"levelo_inurba_marseille","lat":43.30458,"lon":5.3791,"is_reserved":false,"is_disabled":false,"rental_uris":{"android":"levelo://app?vid=54f46eca-231b-4d4c-b044-5bfe4abbbaba","ios":"levelo://app?vid=54f46eca-231b-4d4c-b044-5bfe4abbbaba"},"vehicle_type_id":"4","last_reported":1731150361,"current_range_meters":38000,"station_id":"ce4bgup2rcd13ifvqcn0","pricing_plan_id":"cebpf4jnsgd1na2vs0mg"},{"bike_id":"a61dfdc8-8032-4e2b-8bea-d0f6a2b05b1f","system_id":"levelo_inurba_marseille","lat":43.23961,"lon":5.36642,"is_reserved":false,"is_disabled":false,"rental_uris":{"android":"levelo://app?vid=a61dfdc8-8032-4e2b-8bea-d0f6a2b05b1f","ios":"levelo://app?vid=a61dfdc8-8032-4e2b-8bea-d0f6a2b05b1f"},"vehicle_type_id":"4","last_reported":1731150361,"current_range_meters":36800,"station_id":"ce4bhi12rcd13ifvqfp0","pricing_plan_id":"cebpf4jnsgd1na2vs0mg"},{"bike_id":"6bf91cee-36bc-4259-a139-82597856edff","system_id":"levelo_inurba_marseille","lat":43.3171,"lon":5.377534,"is_reserved":false,"is_disabled":false,"rental_uris":{"android":"levelo://app?vid=6bf91cee-36bc-4259-a139-82597856edff","ios":"levelo://app?vid=6bf91cee-36bc-4259-a139-82597856edff"},"vehicle_type_id":"4","last_reported":1731150361,"current_range_meters":38400,"station_id":"ce4bgth2rcd13ifvqch0","pricing_plan_id":"cebpf4jnsgd1na2vs0mg"},{"bike_id":"f52e1dc5-9e0a-4918-a85e-0347dc29de69","system_id":"levelo_inurba_marseille","lat":43.23964,"lon":5.36635,"is_reserved":false,"is_disabled":false,"rental_uris":{"android":"levelo://app?vid=f52e1dc5-9e0a-4918-a85e-0347dc29de69","ios":"levelo://app?vid=f52e1dc5-9e0a-4918-a85e-0347dc29de69"},"vehicle_type_id":"4","last_reported":1731150361,"current_range_meters":8000,"station_id":"ce4bhi12rcd13ifvqfp0","pricing_plan_id":"cebpf4jnsgd1na2vs0mg"},{"bike_id":"67fa5152-70a2-4f3c-a970-22cfde6fa788","system_id":"levelo_inurba_marseille","lat":43.30146,"lon":5.37421,"is_reserved":false,"is_disabled":false,"rental_uris":{"android":"levelo://app?vid=67fa5152-70a2-4f3c-a970-22cfde6fa788","ios":"levelo://app?vid=67fa5152-70a2-4f3c-a970-22cfde6fa788"},"vehicle_type_id":"4","last_reported":1731150361,"current_range_meters":39200,"station_id":"ce4bgs92rcd13ifvqcc0","pricing_plan_id":"cebpf4jnsgd1na2vs0mg"},{"bike_id":"ba2988ec-74eb-4d25-940c-11a0719c8945","system_id":"levelo_inurba_marseille","lat":43.27213,"lon":5.39186,"is_reserved":false,"is_disabled":false,"rental_uris":{"android":"levelo://app?vid=ba2988ec-74eb-4d25-940c-11a0719c8945","ios":"levelo://app?vid=ba2988ec-74eb-4d25-940c-11a0719c8945"},"vehicle_type_id":"4","last_reported":1731150361,"current_range_meters":33200,"station_id":"ce4bhhp2rcd13ifvqfm0","pricing_plan_id":"cebpf4jnsgd1na2vs0mg"},{"bike_id":"19df9529-82c7-4878-a6c9-de4e84322f55","system_id":"levelo_inurba_marseille","lat":43.28073,"lon":5.3965,"is_reserved":false,"is_disabled":false,"rental_uris":{"android":"levelo://app?vid=19df9529-82c7-4878-a6c9-de4e84322f55","ios":"levelo://app?vid=19df9529-82c7-4878-a6c9-de4e84322f55"},"vehicle_type_id":"4","last_reported":1731150361,"current_range_meters":38800,"station_id":"ce4bho12rcd13ifvqh2g","pricing_plan_id":"cebpf4jnsgd1na2vs0mg"},{"bike_id":"0b74ce83-e6b1-4485-8ca6-3897f29a426e","system_id":"levelo_inurba_marseille","lat":43.23952,"lon":5.36624,"is_reserved":false,"is_disabled":false,"rental_uris":{"android":"levelo://app?vid=0b74ce83-e6b1-4485-8ca6-3897f29a426e","ios":"levelo://app?vid=0b74ce83-e6b1-4485-8ca6-3897f29a426e"},"vehicle_type_id":"4","last_reported":1731150361,"current_range_meters":17200,"station_id":"ce4bhi12rcd13ifvqfp0","pricing_plan_id":"cebpf4jnsgd1na2vs0mg"},{"bike_id":"a2a9a46e-b652-452f-95c5-2d0638f3da28","system_id":"levelo_inurba_marseille","lat":43.31321,"lon":5.39693,"is_reserved":false,"is_disabled":false,"rental_uris":{"android":"levelo://app?vid=a2a9a46e-b652-452f-95c5-2d0638f3da28","ios":"levelo://app?vid=a2a9a46e-b652-452f-95c5-2d0638f3da28"},"vehicle_type_id":"4","last_reported":1731150361,"current_range_meters":40000,"station_id":"ce4bgvp2rcd13ifvqcu0","pricing_plan_id":"cebpf4jnsgd1na2vs0mg"},{"bike_id":"e5e0986e-4ca0-4537-9b29-19818092bbee","system_id":"levelo_inurba_marseille","lat":43.27994,"lon":5.41669,"is_reserved":false,"is_disabled":false,"rental_uris":{"android":"levelo://app?vid=e5e0986e-4ca0-4537-9b29-19818092bbee","ios":"levelo://app?vid=e5e0986e-4ca0-4537-9b29-19818092bbee"},"vehicle_type_id":"4","last_reported":1731150361,"current_range_meters":12000,"station_id":"ce4bho12rcd13ifvqh1g","pricing_plan_id":"cebpf4jnsgd1na2vs0mg"},{"bike_id":"f94bdcbe-9a46-4c5f-879c-d5fc8c43084c","system_id":"levelo_inurba_marseille","lat":43.33026,"lon":5.39039,"is_reserved":false,"is_disabled":false,"rental_uris":{"android":"levelo://app?vid=f94bdcbe-9a46-4c5f-879c-d5fc8c43084c","ios":"levelo://app?vid=f94bdcbe-9a46-4c5f-879c-d5fc8c43084c"},"vehicle_type_id":"4","last_reported":1731150361,"current_range_meters":38000,"station_id":"ce4bhr92rcd13ifvqhrg","pricing_plan_id":"cebpf4jnsgd1na2vs0mg"},{"bike_id":"737e318d-f108-4c95-991e-c706599395c0","system_id":"levelo_inurba_marseille","lat":43.30148,"lon":5.38085,"is_reserved":false,"is_disabled":false,"rental_uris":{"android":"levelo://app?vid=737e318d-f108-4c95-991e-c706599395c0","ios":"levelo://app?vid=737e318d-f108-4c95-991e-c706599395c0"},"vehicle_type_id":"4","last_reported":1731150361,"current_range_meters":35200,"station_id":"ce4bgjp2rcd13ifvqbh0","pricing_plan_id":"cebpf4jnsgd1na2vs0mg"},{"bike_id":"dea2916f-1fa6-4e90-bfb3-3a2559f52755","system_id":"levelo_inurba_marseille","lat":43.29978,"lon":5.38478,"is_reserved":false,"is_disabled":false,"rental_uris":{"android":"levelo://app?vid=dea2916f-1fa6-4e90-bfb3-3a2559f52755","ios":"levelo://app?vid=dea2916f-1fa6-4e90-bfb3-3a2559f52755"},"vehicle_type_id":"4","last_reported":1731150361,"current_range_meters":38800,"station_id":"ce4bgj92rcd13ifvqbd0","pricing_plan_id":"cebpf4jnsgd1na2vs0mg"},{"bike_id":"5b87c3e2-3728-410c-bae8-ebf384dd9fd9","system_id":"levelo_inurba_marseille","lat":43.31494,"lon":5.37309,"is_reserved":false,"is_disabled":false,"rental_uris":{"android":"levelo://app?vid=5b87c3e2-3728-410c-bae8-ebf384dd9fd9","ios":"levelo://app?vid=5b87c3e2-3728-410c-bae8-ebf384dd9fd9"},"vehicle_type_id":"4","last_reported":1731150361,"current_range_meters":36800,"station_id":"ce4bgt12rcd13ifvqcd0","pricing_plan_id":"cebpf4jnsgd1na2vs0mg"},{"bike_id":"53efe8b7-2ba7-4422-bff6-917b17988cc1","system_id":"levelo_inurba_marseille","lat":43.28421,"lon":5.349928,"is_reserved":false,"is_disabled":false,"rental_uris":{"android":"levelo://app?vid=53efe8b7-2ba7-4422-bff6-917b17988cc1","ios":"levelo://app?vid=53efe8b7-2ba7-4422-bff6-917b17988cc1"},"vehicle_type_id":"4","last_reported":1731150361,"current_range_meters":33200,"station_id":"ce4bgrh2rcd13ifvqc8g","pricing_plan_id":"cebpf4jnsgd1na2vs0mg"},{"bike_id":"71c0ec94-9b36-4bce-850b-3aeceb0032f4","system_id":"levelo_inurba_marseille","lat":43.29604,"lon":5.3772,"is_reserved":false,"is_disabled":false,"rental_uris":{"android":"levelo://app?vid=71c0ec94-9b36-4bce-850b-3aeceb0032f4","ios":"levelo://app?vid=71c0ec94-9b36-4bce-850b-3aeceb0032f4"},"vehicle_type_id":"4","last_reported":1731150361,"current_range_meters":32800,"station_id":"ce4bgi92rcd13ifvqb90","pricing_plan_id":"cebpf4jnsgd1na2vs0mg"},{"bike_id":"d2401e68-7d9d-47c8-abab-57e53b11ae60","system_id":"levelo_inurba_marseille","lat":43.29372,"lon":5.37841,"is_reserved":false,"is_disabled":false,"rental_uris":{"android":"levelo://app?vid=d2401e68-7d9d-47c8-abab-57e53b11ae60","ios":"levelo://app?vid=d2401e68-7d9d-47c8-abab-57e53b11ae60"},"vehicle_type_id":"4","last_reported":1731150361,"current_range_meters":9200,"station_id":"ce4bgjh2rcd13ifvqbf0","pricing_plan_id":"cebpf4jnsgd1na2vs0mg"},{"bike_id":"71684031-bf95-4fd4-bc38-0f4a696a2564","system_id":"levelo_inurba_marseille","lat":43.28411,"lon":5.34982,"is_reserved":false,"is_disabled":false,"rental_uris":{"android":"levelo://app?vid=71684031-bf95-4fd4-bc38-0f4a696a2564","ios":"levelo://app?vid=71684031-bf95-4fd4-bc38-0f4a696a2564"},"vehicle_type_id":"4","last_reported":1731150361,"current_range_meters":37600,"station_id":"ce4bhbh2rcd13ifvqepg","pricing_plan_id":"cebpf4jnsgd1na2vs0mg"},{"bike_id":"54c2dec2-48c7-432d-aa18-2348428c9daf","system_id":"levelo_inurba_marseille","lat":43.28156,"lon":5.42637,"is_reserved":false,"is_disabled":false,"rental_uris":{"android":"levelo://app?vid=54c2dec2-48c7-432d-aa18-2348428c9daf","ios":"levelo://app?vid=54c2dec2-48c7-432d-aa18-2348428c9daf"},"vehicle_type_id":"4","last_reported":1731150361,"current_range_meters":20800,"station_id":"ce4bhnh2rcd13ifvqgug","pricing_plan_id":"cebpf4jnsgd1na2vs0mg"},{"bike_id":"c9f4707c-9234-4a54-943b-8100f27b833a","system_id":"levelo_inurba_marseille","lat":43.2378,"lon":5.43029,"is_reserved":false,"is_disabled":false,"rental_uris":{"android":"levelo://app?vid=c9f4707c-9234-4a54-943b-8100f27b833a","ios":"levelo://app?vid=c9f4707c-9234-4a54-943b-8100f27b833a"},"vehicle_type_id":"4","last_reported":1731150361,"current_range_meters":14000,"station_id":"","pricing_plan_id":"cebpf4jnsgd1na2vs0mg"},{"bike_id":"b19e1599-4a13-4fbb-9ce3-21f3228bd2ae","system_id":"levelo_inurba_marseille","lat":43.23147,"lon":5.4372,"is_reserved":false,"is_disabled":false,"rental_uris":{"android":"levelo://app?vid=b19e1599-4a13-4fbb-9ce3-21f3228bd2ae","ios":"levelo://app?vid=b19e1599-4a13-4fbb-9ce3-21f3228bd2ae"},"vehicle_type_id":"4","last_reported":1731150361,"current_range_meters":10000,"station_id":"ce4bhmp2rcd13ifvqgog","pricing_plan_id":"cebpf4jnsgd1na2vs0mg"},{"bike_id":"510ea3ea-1633-4319-97bb-f67cfddcc93d","system_id":"levelo_inurba_marseille","lat":43.32493,"lon":5.36566,"is_reserved":false,"is_disabled":false,"rental_uris":{"android":"levelo://app?vid=510ea3ea-1633-4319-97bb-f67cfddcc93d","ios":"levelo://app?vid=510ea3ea-1633-4319-97bb-f67cfddcc93d"},"vehicle_type_id":"4","last_reported":1731150361,"current_range_meters":38000,"station_id":"ce4bhs12rcd13ifvqhvg","pricing_plan_id":"cebpf4jnsgd1na2vs0mg"},{"bike_id":"4bbee6eb-a4e2-440c-9338-36f565571a3a","system_id":"levelo_inurba_marseille","lat":43.31117,"lon":5.37765,"is_reserved":false,"is_disabled":false,"rental_uris":{"android":"levelo://app?vid=4bbee6eb-a4e2-440c-9338-36f565571a3a","ios":"levelo://app?vid=4bbee6eb-a4e2-440c-9338-36f565571a3a"},"vehicle_type_id":"4","last_reported":1731150361,"current_range_meters":37600,"station_id":"ce4bgt92rcd13ifvqcg0","pricing_plan_id":"cebpf4jnsgd1na2vs0mg"},{"bike_id":"dad769a1-ef5a-4b94-bc43-993ccfbb150b","system_id":"levelo_inurba_marseille","lat":43.27212,"lon":5.39184,"is_reserved":false,"is_disabled":false,"rental_uris":{"android":"levelo://app?vid=dad769a1-ef5a-4b94-bc43-993ccfbb150b","ios":"levelo://app?vid=dad769a1-ef5a-4b94-bc43-993ccfbb150b"},"vehicle_type_id":"4","last_reported":1731150361,"current_range_meters":38000,"station_id":"ce4bhhp2rcd13ifvqfm0","pricing_plan_id":"cebpf4jnsgd1na2vs0mg"},{"bike_id":"d02b68f3-b750-4589-b9b1-f3bc7cf6b1d6","system_id":"levelo_inurba_marseille","lat":43.3248,"lon":5.36559,"is_reserved":false,"is_disabled":false,"rental_uris":{"android":"levelo://app?vid=d02b68f3-b750-4589-b9b1-f3bc7cf6b1d6","ios":"levelo://app?vid=d02b68f3-b750-4589-b9b1-f3bc7cf6b1d6"},"vehicle_type_id":"4","last_reported":1731150361,"current_range_meters":40000,"station_id":"ce4bhs12rcd13ifvqhvg","pricing_plan_id":"cebpf4jnsgd1na2vs0mg"},{"bike_id":"69d38419-f915-4ada-a460-f28c05bf4ad2","system_id":"levelo_inurba_marseille","lat":43.27069,"lon":5.42277,"is_reserved":false,"is_disabled":false,"rental_uris":{"android":"levelo://app?vid=69d38419-f915-4ada-a460-f28c05bf4ad2","ios":"levelo://app?vid=69d38419-f915-4ada-a460-f28c05bf4ad2"},"vehicle_type_id":"4","last_reported":1731150361,"current_range_meters":40000,"station_id":"ce4bhk92rcd13ifvqgb0","pricing_plan_id":"cebpf4jnsgd1na2vs0mg"},{"bike_id":"d115c69c-dc61-4019-86ca-8f3ef1285cfb","system_id":"levelo_inurba_marseille","lat":43.22932,"lon":5.35373,"is_reserved":false,"is_disabled":false,"rental_uris":{"android":"levelo://app?vid=d115c69c-dc61-4019-86ca-8f3ef1285cfb","ios":"levelo://app?vid=d115c69c-dc61-4019-86ca-8f3ef1285cfb"},"vehicle_type_id":"4","last_reported":1731150361,"current_range_meters":32800,"station_id":"cpo3532slgdg3j2ikp40","pricing_plan_id":"cebpf4jnsgd1na2vs0mg"},{"bike_id":"1843914f-a536-46a6-bf98-e168143a7c78","system_id":"levelo_inurba_marseille","lat":43.25584,"lon":5.38243,"is_reserved":false,"is_disabled":false,"rental_uris":{"android":"levelo://app?vid=1843914f-a536-46a6-bf98-e168143a7c78","ios":"levelo://app?vid=1843914f-a536-46a6-bf98-e168143a7c78"},"vehicle_type_id":"4","last_reported":1731150361,"current_range_meters":8400,"station_id":"ce4bhih2rcd13ifvqfs0","pricing_plan_id":"cebpf4jnsgd1na2vs0mg"},{"bike_id":"7643d5f6-1000-4e84-ae3f-2ac4dc6b4fcd","system_id":"levelo_inurba_marseille","lat":43.24071,"lon":5.37754,"is_reserved":false,"is_disabled":false,"rental_uris":{"android":"levelo://app?vid=7643d5f6-1000-4e84-ae3f-2ac4dc6b4fcd","ios":"levelo://app?vid=7643d5f6-1000-4e84-ae3f-2ac4dc6b4fcd"},"vehicle_type_id":"4","last_reported":1731150361,"current_range_meters":20800,"station_id":"ce4bhnp2rcd13ifvqgvg","pricing_plan_id":"cebpf4jnsgd1na2vs0mg"},{"bike_id":"03c2b392-48b9-4406-b6fd-d92bf19219bd","system_id":"levelo_inurba_marseille","lat":43.298888,"lon":5.365029,"is_reserved":false,"is_disabled":false,"rental_uris":{"android":"levelo://app?vid=03c2b392-48b9-4406-b6fd-d92bf19219bd","ios":"levelo://app?vid=03c2b392-48b9-4406-b6fd-d92bf19219bd"},"vehicle_type_id":"4","last_reported":1731150361,"current_range_meters":35200,"station_id":"ce4bgm92rcd13ifvqbr0","pricing_plan_id":"cebpf4jnsgd1na2vs0mg"},{"bike_id":"92c1c28d-c1db-45c9-9a43-64b04c4125bb","system_id":"levelo_inurba_marseille","lat":43.27561,"lon":5.38418,"is_reserved":false,"is_disabled":false,"rental_uris":{"android":"levelo://app?vid=92c1c28d-c1db-45c9-9a43-64b04c4125bb","ios":"levelo://app?vid=92c1c28d-c1db-45c9-9a43-64b04c4125bb"},"vehicle_type_id":"4","last_reported":1731150361,"current_range_meters":36400,"station_id":"ce4bhh92rcd13ifvqfi0","pricing_plan_id":"cebpf4jnsgd1na2vs0mg"},{"bike_id":"be94c940-c56d-4132-af66-fedb762b3e0f","system_id":"levelo_inurba_marseille","lat":43.23189,"lon":5.35562,"is_reserved":false,"is_disabled":false,"rental_uris":{"android":"levelo://app?vid=be94c940-c56d-4132-af66-fedb762b3e0f","ios":"levelo://app?vid=be94c940-c56d-4132-af66-fedb762b3e0f"},"vehicle_type_id":"4","last_reported":1731150361,"current_range_meters":37600,"station_id":"ce4bhu92rcd13ifvqi70","pricing_plan_id":"cebpf4jnsgd1na2vs0mg"},{"bike_id":"0cea8565-ae31-47df-82c7-9b4610846520","system_id":"levelo_inurba_marseille","lat":43.29982,"lon":5.37183,"is_reserved":false,"is_disabled":false,"rental_uris":{"android":"levelo://app?vid=0cea8565-ae31-47df-82c7-9b4610846520","ios":"levelo://app?vid=0cea8565-ae31-47df-82c7-9b4610846520"},"vehicle_type_id":"4","last_reported":1731150361,"current_range_meters":39200,"station_id":"ce4bgr92rcd13ifvqc7g","pricing_plan_id":"cebpf4jnsgd1na2vs0mg"},{"bike_id":"074654a0-0989-404a-a21b-239e707e5eed","system_id":"levelo_inurba_marseille","lat":43.26206,"lon":5.37452,"is_reserved":false,"is_disabled":false,"rental_uris":{"android":"levelo://app?vid=074654a0-0989-404a-a21b-239e707e5eed","ios":"levelo://app?vid=074654a0-0989-404a-a21b-239e707e5eed"},"vehicle_type_id":"4","last_reported":1731150361,"current_range_meters":30800,"station_id":"ce4bhgp2rcd13ifvqfc0","pricing_plan_id":"cebpf4jnsgd1na2vs0mg"},{"bike_id":"707e67f4-4552-438a-88e2-250d6637024f","system_id":"levelo_inurba_marseille","lat":43.29973,"lon":5.37178,"is_reserved":false,"is_disabled":false,"rental_uris":{"android":"levelo://app?vid=707e67f4-4552-438a-88e2-250d6637024f","ios":"levelo://app?vid=707e67f4-4552-438a-88e2-250d6637024f"},"vehicle_type_id":"4","last_reported":1731150361,"current_range_meters":14000,"station_id":"ce4bgr92rcd13ifvqc7g","pricing_plan_id":"cebpf4jnsgd1na2vs0mg"},{"bike_id":"b35de9d5-293e-4b9a-b63a-dbdc18334f4d","system_id":"levelo_inurba_marseille","lat":43.29969,"lon":5.38494,"is_reserved":false,"is_disabled":false,"rental_uris":{"android":"levelo://app?vid=b35de9d5-293e-4b9a-b63a-dbdc18334f4d","ios":"levelo://app?vid=b35de9d5-293e-4b9a-b63a-dbdc18334f4d"},"vehicle_type_id":"4","last_reported":1731150361,"current_range_meters":32400,"station_id":"ce4bgj92rcd13ifvqbd0","pricing_plan_id":"cebpf4jnsgd1na2vs0mg"},{"bike_id":"c4e88051-e5a7-49e6-926f-f7214ffd6c39","system_id":"levelo_inurba_marseille","lat":43.29801,"lon":5.38099,"is_reserved":false,"is_disabled":false,"rental_uris":{"android":"levelo://app?vid=c4e88051-e5a7-49e6-926f-f7214ffd6c39","ios":"levelo://app?vid=c4e88051-e5a7-49e6-926f-f7214ffd6c39"},"vehicle_type_id":"4","last_reported":1731150361,"current_range_meters":23200,"station_id":"ce4bgip2rcd13ifvqbb0","pricing_plan_id":"cebpf4jnsgd1na2vs0mg"},{"bike_id":"0ecc4a73-6a3b-43bd-a3f4-89b5f116fe24","system_id":"levelo_inurba_marseille","lat":43.29925,"lon":5.36522,"is_reserved":false,"is_disabled":false,"rental_uris":{"android":"levelo://app?vid=0ecc4a73-6a3b-43bd-a3f4-89b5f116fe24","ios":"levelo://app?vid=0ecc4a73-6a3b-43bd-a3f4-89b5f116fe24"},"vehicle_type_id":"4","last_reported":1731150361,"current_range_meters":27200,"station_id":"ce4bgm92rcd13ifvqbr0","pricing_plan_id":"cebpf4jnsgd1na2vs0mg"},{"bike_id":"380efabc-fafd-4613-8f2d-d48ca63ef6cb","system_id":"levelo_inurba_marseille","lat":43.28389,"lon":5.37514,"is_reserved":false,"is_disabled":false,"rental_uris":{"android":"levelo://app?vid=380efabc-fafd-4613-8f2d-d48ca63ef6cb","ios":"levelo://app?vid=380efabc-fafd-4613-8f2d-d48ca63ef6cb"},"vehicle_type_id":"4","last_reported":1731150361,"current_range_meters":38400,"station_id":"ce4bh412rcd13ifvqds0","pricing_plan_id":"cebpf4jnsgd1na2vs0mg"},{"bike_id":"2b40c41f-9dd1-49d3-8b9c-bb05ff010543","system_id":"levelo_inurba_marseille","lat":43.272,"lon":5.3919,"is_reserved":false,"is_disabled":false,"rental_uris":{"android":"levelo://app?vid=2b40c41f-9dd1-49d3-8b9c-bb05ff010543","ios":"levelo://app?vid=2b40c41f-9dd1-49d3-8b9c-bb05ff010543"},"vehicle_type_id":"4","last_reported":1731150361,"current_range_meters":40000,"station_id":"ce4bhhp2rcd13ifvqfm0","pricing_plan_id":"cebpf4jnsgd1na2vs0mg"},{"bike_id":"6b13a645-4cd4-4300-bba0-c019c7964ba6","system_id":"levelo_inurba_marseille","lat":43.30769,"lon":5.37649,"is_reserved":false,"is_disabled":false,"rental_uris":{"android":"levelo://app?vid=6b13a645-4cd4-4300-bba0-c019c7964ba6","ios":"levelo://app?vid=6b13a645-4cd4-4300-bba0-c019c7964ba6"},"vehicle_type_id":"4","last_reported":1731150361,"current_range_meters":19600,"station_id":"ce4bgv92rcd13ifvqcq0","pricing_plan_id":"cebpf4jnsgd1na2vs0mg"},{"bike_id":"a4b8c1e7-bcfa-4b4e-af29-eb897b69db4e","system_id":"levelo_inurba_marseille","lat":43.29711,"lon":5.36608,"is_reserved":false,"is_disabled":false,"rental_uris":{"android":"levelo://app?vid=a4b8c1e7-bcfa-4b4e-af29-eb897b69db4e","ios":"levelo://app?vid=a4b8c1e7-bcfa-4b4e-af29-eb897b69db4e"},"vehicle_type_id":"4","last_reported":1731150361,"current_range_meters":25200,"station_id":"ce4bgn12rcd13ifvqbt0","pricing_plan_id":"cebpf4jnsgd1na2vs0mg"},{"bike_id":"a32fbefd-f609-4766-a174-68d036dc44d6","system_id":"levelo_inurba_marseille","lat":43.31325,"lon":5.39687,"is_reserved":false,"is_disabled":false,"rental_uris":{"android":"levelo://app?vid=a32fbefd-f609-4766-a174-68d036dc44d6","ios":"levelo://app?vid=a32fbefd-f609-4766-a174-68d036dc44d6"},"vehicle_type_id":"4","last_reported":1731150361,"current_range_meters":40000,"station_id":"ce4bgvp2rcd13ifvqcu0","pricing_plan_id":"cebpf4jnsgd1na2vs0mg"},{"bike_id":"b37e4516-c27c-4016-a4a6-045b5ba84e36","system_id":"levelo_inurba_marseille","lat":43.32046,"lon":5.41537,"is_reserved":false,"is_disabled":false,"rental_uris":{"android":"levelo://app?vid=b37e4516-c27c-4016-a4a6-045b5ba84e36","ios":"levelo://app?vid=b37e4516-c27c-4016-a4a6-045b5ba84e36"},"vehicle_type_id":"4","last_reported":1731150361,"current_range_meters":21600,"station_id":"ce4bhq92rcd13ifvqhkg","pricing_plan_id":"cebpf4jnsgd1na2vs0mg"},{"bike_id":"b78fdf6a-a499-4b95-b8b1-2036284631f4","system_id":"levelo_inurba_marseille","lat":43.25938,"lon":5.40905,"is_reserved":false,"is_disabled":false,"rental_uris":{"android":"levelo://app?vid=b78fdf6a-a499-4b95-b8b1-2036284631f4","ios":"levelo://app?vid=b78fdf6a-a499-4b95-b8b1-2036284631f4"},"vehicle_type_id":"4","last_reported":1731150361,"current_range_meters":30000,"station_id":"ce4bhm92rcd13ifvqglg","pricing_plan_id":"cebpf4jnsgd1na2vs0mg"},{"bike_id":"f8e38139-2f74-43da-b88d-fb2eda10ac2f","system_id":"levelo_inurba_marseille","lat":43.28849,"lon":5.39312,"is_reserved":false,"is_disabled":false,"rental_uris":{"android":"levelo://app?vid=f8e38139-2f74-43da-b88d-fb2eda10ac2f","ios":"levelo://app?vid=f8e38139-2f74-43da-b88d-fb2eda10ac2f"},"vehicle_type_id":"4","last_reported":1731150361,"current_range_meters":38000,"station_id":"ce4bh2p2rcd13ifvqdi0","pricing_plan_id":"cebpf4jnsgd1na2vs0mg"},{"bike_id":"9b93da34-e04f-4104-9899-275ef2187571","system_id":"levelo_inurba_marseille","lat":43.28943,"lon":5.36401,"is_reserved":false,"is_disabled":false,"rental_uris":{"android":"levelo://app?vid=9b93da34-e04f-4104-9899-275ef2187571","ios":"levelo://app?vid=9b93da34-e04f-4104-9899-275ef2187571"},"vehicle_type_id":"4","last_reported":1731150361,"current_range_meters":3600,"station_id":"ce4bhc92rcd13ifvqetg","pricing_plan_id":"cebpf4jnsgd1na2vs0mg"},{"bike_id":"c60f3749-9df3-4f67-ada1-5a9b1c305c5e","system_id":"levelo_inurba_marseille","lat":43.29792,"lon":5.38101,"is_reserved":false,"is_disabled":false,"rental_uris":{"android":"levelo://app?vid=c60f3749-9df3-4f67-ada1-5a9b1c305c5e","ios":"levelo://app?vid=c60f3749-9df3-4f67-ada1-5a9b1c305c5e"},"vehicle_type_id":"4","last_reported":1731150361,"current_range_meters":30400,"station_id":"ce4bgip2rcd13ifvqbb0","pricing_plan_id":"cebpf4jnsgd1na2vs0mg"},