{"last_updated":1687025236,"ttl":30,"version":"2.2","data":{"bikes":[{"bike_id":"f860936c-166d-4d20-b447-98eb6c930e69","system_id":"levelo_inurba_marseille","lat":43.31224,"lon":5.36843,"is_reserved":false,"is_disabled":false,"rental_uris":{"android":"levelo://app?vid=f860936c-166d-4d20-b447-98eb6c930e69","ios":"levelo://app?vid=f860936c-166d-4d20-b447-98eb6c930e69"},"vehicle_type_id":"4","last_reported":1687025237,"current_range_meters":2800,"station_id":"ce4bgl92rcd13ifvqbq0","pricing_plan_id":"free"},{"bike_id":"bea29baf-a0da-486c-a6e4-7dc370bd29b9","system_id":"levelo_inurba_marseille","lat":43.312239,"lon":5.368562,"is_reserved":false,"is_disabled":false,"rental_uris":{"android":"levelo://app?vid=bea29baf-a0da-486c-a6e4-7dc370bd29b9","ios":"levelo://app?vid=bea29baf-a0da-486c-a6e4-7dc370bd29b9"},"vehicle_type_id":"4","last_reported":1687025237,"current_range_meters":0,"station_id":"ce4bgl92rcd13ifvqbq0","pricing_plan_id":"free"},{"bike_id":"a106f02f-f0dd-41c3-b27b-7720f1b6ffe1","system_id":"levelo_inurba_marseille","lat":43.312239,"lon":5.368562,"is_reserved":false,"is_disabled":false,"rental_uris":{"android":"levelo://app?vid=a106f02f-f0dd-41c3-b27b-7720f1b6ffe1","ios":"levelo://app?vid=a106f02f-f0dd-41c3-b27b-7720f1b6ffe1"},"vehicle_type_id":"4","last_reported":1687025237,"current_range_meters":4800,"station_id":"ce4bgl92rcd13ifvqbq0","pricing_plan_id":"free"},{"bike_id":"000260a8-39f6-435a-9c3d-aa285fc6a50a","system_id":"levelo_inurba_marseille","lat":43.312239,"lon":5.368562,"is_reserved":false,"is_disabled":false,"rental_uris":{"android":"levelo://app?vid=000260a8-39f6-435a-9c3d-aa285fc6a50a","ios":"levelo://app?vid=000260a8-39f6-435a-9c3d-aa285fc6a50a"},"vehicle_type_id":"4","last_reported":1687025237,"current_range_meters":14800,"station_id":"ce4bgl92rcd13ifvqbq0","pricing_plan_id":"free"},{"bike_id":"eaa54aef-dff5-418a-8cc0-1a371cf14590","system_id":"levelo_inurba_marseille","lat":43.312239,"lon":5.368562,"is_reserved":false,"is_disabled":false,"rental_uris":{"android":"levelo://app?vid=eaa54aef-dff5-418a-8cc0-1a371cf14590","ios":"levelo://app?vid=eaa54aef-dff5-418a-8cc0-1a371cf14590"},"vehicle_type_id":"4","last_reported":1687025237,"current_range_meters":5600,"station_id":"ce4bgl92rcd13ifvqbq0","pricing_plan_id":"free"},{"bike_id":"6b85c5ee-9ceb-4deb-bf42-293e23463329","system_id":"levelo_inurba_marseille","lat":43.308606,"lon":5.372099,"is_reserved":false,"is_disabled":false,"rental_uris":{"android":"levelo://app?vid=6b85c5ee-9ceb-4deb-bf42-293e23463329","ios":"levelo://app?vid=6b85c5ee-9ceb-4deb-bf42-293e23463329"},"vehicle_type_id":"4","last_reported":1687025237,"current_range_meters":800,"station_id":"ce4bguh2rcd13ifvqckg","pricing_plan_id":"free"},{"bike_id":"9c746439-937e-436d-8c66-cb90c42aae7f","system_id":"levelo_inurba_marseille","lat":43.31171,"lon":5.37744,"is_reserved":false,"is_disabled":false,"rental_uris":{"android":"levelo://app?vid=9c746439-937e-436d-8c66-cb90c42aae7f","ios":"levelo://app?vid=9c746439-937e-436d-8c66-cb90c42aae7f"},"vehicle_type_id":"4","last_reported":1687025237,"current_range_meters":29200,"station_id":"","pricing_plan_id":"free"},{"bike_id":"2424216c-0462-4ad0-b127-d0366c91b61c","system_id":"levelo_inurba_marseille","lat":43.317,"lon":5.37722,"is_reserved":false,"is_disabled":false,"rental_uris":{"android":"levelo://app?vid=2424216c-0462-4ad0-b127-d0366c91b61c","ios":"levelo://app?vid=2424216c-0462-4ad0-b127-d0366c91b61c"},"vehicle_type_id":"4","last_reported":1687025237,"current_range_meters":31200,"station_id":"ce4bgth2rcd13ifvqch0","pricing_plan_id":"free"},{"bike_id":"e2429367-a3c0-48b5-ad55-72a85319cbb0","system_id":"levelo_inurba_marseille","lat":43.303046,"lon":5.368981,"is_reserved":false,"is_disabled":false,"rental_uris":{"android":"levelo://app?vid=e2429367-a3c0-48b5-ad55-72a85319cbb0","ios":"levelo://app?vid=e2429367-a3c0-48b5-ad55-72a85319cbb0"},"vehicle_type_id":"4","last_reported":1687025237,"current_range_meters":3200,"station_id":"ce4bgqh2rcd13ifvqc5g","pricing_plan_id":"free"},{"bike_id":"856b0f8f-88cf-483a-8617-b203837166ad","system_id":"levelo_inurba_marseille","lat":43.303046,"lon":5.368981,"is_reserved":false,"is_disabled":false,"rental_uris":{"android":"levelo://app?vid=856b0f8f-88cf-483a-8617-b203837166ad","ios":"levelo://app?vid=856b0f8f-88cf-483a-8617-b203837166ad"},"vehicle_type_id":"4","last_reported":1687025237,"current_range_meters":8400,"station_id":"ce4bgqh2rcd13ifvqc5g","pricing_plan_id":"free"},{"bike_id":"ae33307b-fcd5-479b-9ae1-9002ed226c6e","system_id":"levelo_inurba_marseille","lat":43.308012,"lon":5.381511,"is_reserved":false,"is_disabled":false,"rental_uris":{"android":"levelo://app?vid=ae33307b-fcd5-479b-9ae1-9002ed226c6e","ios":"levelo://app?vid=ae33307b-fcd5-479b-9ae1-9002ed226c6e"},"vehicle_type_id":"4","last_reported":1687025237,"current_range_meters":8800,"station_id":"ce4bgt12rcd13ifvqce0","pricing_plan_id":"free"},{"bike_id":"43fc693e-f2a9-4aec-8fd9-d094bb02cb70","system_id":"levelo_inurba_marseille","lat":43.304606,"lon":5.379026,"is_reserved":false,"is_disabled":false,"rental_uris":{"android":"levelo://app?vid=43fc693e-f2a9-4aec-8fd9-d094bb02cb70","ios":"levelo://app?vid=43fc693e-f2a9-4aec-8fd9-d094bb02cb70"},"vehicle_type_id":"4","last_reported":1687025237,"current_range_meters":20400,"station_id":"ce4bgup2rcd13ifvqcn0","pricing_plan_id":"free"},{"bike_id":"5003c2fa-8578-4b5b-aee0-bf9c6a52e3f5","system_id":"levelo_inurba_marseille","lat":43.31999,"lon":5.38151,"is_reserved":false,"is_disabled":false,"rental_uris":{"android":"levelo://app?vid=5003c2fa-8578-4b5b-aee0-bf9c6a52e3f5","ios":"levelo://app?vid=5003c2fa-8578-4b5b-aee0-bf9c6a52e3f5"},"vehicle_type_id":"4","last_reported":1687025237,"current_range_meters":0,"station_id":"ce4bhr12rcd13ifvqhpg","pricing_plan_id":"free"},{"bike_id":"5ca77738-6310-42c3-b6c3-d9668da647fe","system_id":"levelo_inurba_marseille","lat":43.319935,"lon":5.381699,"is_reserved":false,"is_disabled":false,"rental_uris":{"android":"levelo://app?vid=5ca77738-6310-42c3-b6c3-d9668da647fe","ios":"levelo://app?vid=5ca77738-6310-42c3-b6c3-d9668da647fe"},"vehicle_type_id":"4","last_reported":1687025237,"current_range_meters":19600,"station_id":"ce4bhr12rcd13ifvqhpg","pricing_plan_id":"free"},{"bike_id":"0879d612-d31c-4baa-98fe-116eacf70ddb","system_id":"levelo_inurba_marseille","lat":43.299222,"lon":5.365554,"is_reserved":false,"is_disabled":false,"rental_uris":{"android":"levelo://app?vid=0879d612-d31c-4baa-98fe-116eacf70ddb","ios":"levelo://app?vid=0879d612-d31c-4baa-98fe-116eacf70ddb"},"vehicle_type_id":"4","last_reported":1687025237,"current_range_meters":1200,"station_id":"ce4bgm92rcd13ifvqbr0","pricing_plan_id":"free"},{"bike_id":"330412da-b9eb-49fa-9ba0-9288ee9ddd31","system_id":"levelo_inurba_marseille","lat":43.30027,"lon":5.37523,"is_reserved":false,"is_disabled":false,"rental_uris":{"android":"levelo://app?vid=330412da-b9eb-49fa-9ba0-9288ee9ddd31","ios":"levelo://app?vid=330412da-b9eb-49fa-9ba0-9288ee9ddd31"},"vehicle_type_id":"4","last_reported":1687025237,"current_range_meters":18000,"station_id":"","pricing_plan_id":"free"},{"bike_id":"496e171d-fea0-4533-937c-fccaa3f3002e","system_id":"levelo_inurba_marseille","lat":43.305364,"lon":5.384119,"is_reserved":false,"is_disabled":false,"rental_uris":{"android":"levelo://app?vid=496e171d-fea0-4533-937c-fccaa3f3002e","ios":"levelo://app?vid=496e171d-fea0-4533-937c-fccaa3f3002e"},"vehicle_type_id":"4","last_reported":1687025237,"current_range_meters":21200,"station_id":"ce4bgg92rcd13ifvqb30","pricing_plan_id":"free"},{"bike_id":"7815439a-2234-4f38-81b7-f0fcbf985ca3","system_id":"levelo_inurba_marseille","lat":43.298433,"lon":5.362774,"is_reserved":false,"is_disabled":false,"rental_uris":{"android":"levelo://app?vid=7815439a-2234-4f38-81b7-f0fcbf985ca3","ios":"levelo://app?vid=7815439a-2234-4f38-81b7-f0fcbf985ca3"},"vehicle_type_id":"4","last_reported":1687025237,"current_range_meters":0,"station_id":"ce4bgpp2rcd13ifvqc3g","pricing_plan_id":"free"},{"bike_id":"eebe1217-fd0f-4700-af39-aa3f9bf88293","system_id":"levelo_inurba_marseille","lat":43.298433,"lon":5.362774,"is_reserved":false,"is_disabled":false,"rental_uris":{"android":"levelo://app?vid=eebe1217-fd0f-4700-af39-aa3f9bf88293","ios":"levelo://app?vid=eebe1217-fd0f-4700-af39-aa3f9bf88293"},"vehicle_type_id":"4","last_reported":1687025237,"current_range_meters":6400,"station_id":"ce4bgpp2rcd13ifvqc3g","pricing_plan_id":"free"},{"bike_id":"e4692084-02f8-416f-be45-1bd137d61d92","system_id":"levelo_inurba_marseille","lat":43.298433,"lon":5.362774,"is_reserved":false,"is_disabled":false,"rental_uris":{"android":"levelo://app?vid=e4692084-02f8-416f-be45-1bd137d61d92","ios":"levelo://app?vid=e4692084-02f8-416f-be45-1bd137d61d92"},"vehicle_type_id":"4","last_reported":1687025237,"current_range_meters":0,"station_id":"ce4bgpp2rcd13ifvqc3g","pricing_plan_id":"free"},{"bike_id":"f9dc2ea4-3e78-47c9-8fd3-7774c68b3fc8","system_id":"levelo_inurba_marseille","lat":43.298433,"lon":5.362774,"is_reserved":false,"is_disabled":false,"rental_uris":{"android":"levelo://app?vid=f9dc2ea4-3e78-47c9-8fd3-7774c68b3fc8","ios":"levelo://app?vid=f9dc2ea4-3e78-47c9-8fd3-7774c68b3fc8"},"vehicle_type_id":"4","last_reported":1687025237,"current_range_meters":1200,"station_id":"ce4bgpp2rcd13ifvqc3g","pricing_plan_id":"free"},{"bike_id":"b63e9c20-1bf0-4f61-8f3e-65cc7a0c4b31","system_id":"levelo_inurba_marseille","lat":43.299243,"lon":5.37481,"is_reserved":false,"is_disabled":false,"rental_uris":{"android":"levelo://app?vid=b63e9c20-1bf0-4f61-8f3e-65cc7a0c4b31","ios":"levelo://app?vid=b63e9c20-1bf0-4f61-8f3e-65cc7a0c4b31"},"vehicle_type_id":"4","last_reported":1687025237,"current_range_meters":8400,"station_id":"ce4bgjh2rcd13ifvqbg0","pricing_plan_id":"free"},{"bike_id":"02b841a9-560f-4def-acac-8847b21dbcda","system_id":"levelo_inurba_marseille","lat":43.299243,"lon":5.374807,"is_reserved":false,"is_disabled":false,"rental_uris":{"android":"levelo://app?vid=02b841a9-560f-4def-acac-8847b21dbcda","ios":"levelo://app?vid=02b841a9-560f-4def-acac-8847b21dbcda"},"vehicle_type_id":"4","last_reported":1687025237,"current_range_meters":15600,"station_id":"ce4bgjh2rcd13ifvqbg0","pricing_plan_id":"free"},{"bike_id":"1be68b57-e86e-4349-a571-b74cc55d36d2","system_id":"levelo_inurba_marseille","lat":43.297794,"lon":5.370888,"is_reserved":false,"is_disabled":false,"rental_uris":{"android":"levelo://app?vid=1be68b57-e86e-4349-a571-b74cc55d36d2","ios":"levelo://app?vid=1be68b57-e86e-4349-a571-b74cc55d36d2"},"vehicle_type_id":"4","last_reported":1687025237,"current_range_meters":0,"station_id":"ce4bgop2rcd13ifvqc1g","pricing_plan_id":"free"},{"bike_id":"6d12bf08-ef93-4cae-ab6e-6233437e9a82","system_id":"levelo_inurba_marseille","lat":43.32824,"lon":5.36668,"is_reserved":false,"is_disabled":false,"rental_uris":{"android":"levelo://app?vid=6d12bf08-ef93-4cae-ab6e-6233437e9a82","ios":"levelo://app?vid=6d12bf08-ef93-4cae-ab6e-6233437e9a82"},"vehicle_type_id":"4","last_reported":1687025237,"current_range_meters":18400,"station_id":"ce4bhs92rcd13ifvqi0g","pricing_plan_id":"free"},{"bike_id":"4bf53da7-5b2e-4feb-ad64-d834c27b533d","system_id":"levelo_inurba_marseille","lat":43.32825,"lon":5.36678,"is_reserved":false,"is_disabled":false,"rental_uris":{"android":"levelo://app?vid=4bf53da7-5b2e-4feb-ad64-d834c27b533d","ios":"levelo://app?vid=4bf53da7-5b2e-4feb-ad64-d834c27b533d"},"vehicle_type_id":"4","last_reported":1687025237,"current_range_meters":25200,"station_id":"ce4bhs92rcd13ifvqi0g","pricing_plan_id":"free"},{"bike_id":"c95b958b-2a23-46df-afd2-b77d3d8ca59d","system_id":"levelo_inurba_marseille","lat":43.328371,"lon":5.366909,"is_reserved":false,"is_disabled":false,"rental_uris":{"android":"levelo://app?vid=c95b958b-2a23-46df-afd2-b77d3d8ca59d","ios":"levelo://app?vid=c95b958b-2a23-46df-afd2-b77d3d8ca59d"},"vehicle_type_id":"4","last_reported":1687025237,"current_range_meters":6800,"station_id":"ce4bhs92rcd13ifvqi0g","pricing_plan_id":"free"},{"bike_id":"950915b5-629a-4eab-80e0-866902263e48","system_id":"levelo_inurba_marseille","lat":43.328371,"lon":5.366909,"is_reserved":false,"is_disabled":false,"rental_uris":{"android":"levelo://app?vid=950915b5-629a-4eab-80e0-866902263e48","ios":"levelo://app?vid=950915b5-629a-4eab-80e0-866902263e48"},"vehicle_type_id":"4","last_reported":1687025237,"current_range_meters":2000,"station_id":"ce4bhs92rcd13ifvqi0g","pricing_plan_id":"free"},{"bike_id":"4bb85f49-7f9a-477c-abaa-23a093d581e6","system_id":"levelo_inurba_marseille","lat":43.32829,"lon":5.36669,"is_reserved":false,"is_disabled":false,"rental_uris":{"android":"levelo://app?vid=4bb85f49-7f9a-477c-abaa-23a093d581e6","ios":"levelo://app?vid=4bb85f49-7f9a-477c-abaa-23a093d581e6"},"vehicle_type_id":"4","last_reported":1687025237,"current_range_meters":19200,"station_id":"ce4bhs92rcd13ifvqi0g","pricing_plan_id":"free"},{"bike_id":"cb0989c5-ef0f-49ab-933f-9be341b8f004","system_id":"levelo_inurba_marseille","lat":43.328371,"lon":5.366909,"is_reserved":false,"is_disabled":false,"rental_uris":{"android":"levelo://app?vid=cb0989c5-ef0f-49ab-933f-9be341b8f004","ios":"levelo://app?vid=cb0989c5-ef0f-49ab-933f-9be341b8f004"},"vehicle_type_id":"4","last_reported":1687025237,"current_range_meters":21600,"station_id":"ce4bhs92rcd13ifvqi0g","pricing_plan_id":"free"},{"bike_id":"176f4894-d7fc-460e-aa5d-7c8c1e206dc3","system_id":"levelo_inurba_marseille","lat":43.297163,"lon":5.365866,"is_reserved":false,"is_disabled":false,"rental_uris":{"android":"levelo://app?vid=176f4894-d7fc-460e-aa5d-7c8c1e206dc3","ios":"levelo://app?vid=176f4894-d7fc-460e-aa5d-7c8c1e206dc3"},"vehicle_type_id":"4","last_reported":1687025237,"current_range_meters":14800,"station_id":"ce4bgn12rcd13ifvqbt0","pricing_plan_id":"free"},{"bike_id":"0851357a-94e1-4cf6-ad37-5a7a49d00988","system_id":"levelo_inurba_marseille","lat":43.32832,"lon":5.36193,"is_reserved":false,"is_disabled":false,"rental_uris":{"android":"levelo://app?vid=0851357a-94e1-4cf6-ad37-5a7a49d00988","ios":"levelo://app?vid=0851357a-94e1-4cf6-ad37-5a7a49d00988"},"vehicle_type_id":"4","last_reported":1687025237,"current_range_meters":31600,"station_id":"","pricing_plan_id":"free"},{"bike_id":"88d0330c-5bb0-4a19-9b65-d4683b42e015","system_id":"levelo_inurba_marseille","lat":43.29683,"lon":5.36046,"is_reserved":false,"is_disabled":false,"rental_uris":{"android":"levelo://app?vid=88d0330c-5bb0-4a19-9b65-d4683b42e015","ios":"levelo://app?vid=88d0330c-5bb0-4a19-9b65-d4683b42e015"},"vehicle_type_id":"4","last_reported":1687025237,"current_range_meters":5600,"station_id":"ce4bgpp2rcd13ifvqc3g","pricing_plan_id":"free"},{"bike_id":"e25bbacf-225c-4f1a-a2b1-8f9c37a7c29f","system_id":"levelo_inurba_marseille","lat":43.29756,"lon":5.37711,"is_reserved":false,"is_disabled":false,"rental_uris":{"android":"levelo://app?vid=e25bbacf-225c-4f1a-a2b1-8f9c37a7c29f","ios":"levelo://app?vid=e25bbacf-225c-4f1a-a2b1-8f9c37a7c29f"},"vehicle_type_id":"4","last_reported":1687025237,"current_range_meters":11600,"station_id":"","pricing_plan_id":"free"},{"bike_id":"24f41ca5-b432-4feb-a0c8-a15026b97306","system_id":"levelo_inurba_marseille","lat":43.296131,"lon":5.370773,"is_reserved":false,"is_disabled":false,"rental_uris":{"android":"levelo://app?vid=24f41ca5-b432-4feb-a0c8-a15026b97306","ios":"levelo://app?vid=24f41ca5-b432-4feb-a0c8-a15026b97306"},"vehicle_type_id":"4","last_reported":1687025237,"current_range_meters":15200,"station_id":"ce4bgnh2rcd13ifvqc0g","pricing_plan_id":"free"},{"bike_id":"b0ba99b3-7713-41dd-957f-e7e3269cf327","system_id":"levelo_inurba_marseille","lat":43.299028,"lon":5.381509,"is_reserved":false,"is_disabled":false,"rental_uris":{"android":"levelo://app?vid=b0ba99b3-7713-41dd-957f-e7e3269cf327","ios":"levelo://app?vid=b0ba99b3-7713-41dd-957f-e7e3269cf327"},"vehicle_type_id":"4","last_reported":1687025237,"current_range_meters":11600,"station_id":"ce4bgj12rcd13ifvqbc0","pricing_plan_id":"free"},{"bike_id":"8cd38c8f-2316-4318-b5e8-140bef09f961","system_id":"levelo_inurba_marseille","lat":43.29913,"lon":5.38142,"is_reserved":false,"is_disabled":false,"rental_uris":{"android":"levelo://app?vid=8cd38c8f-2316-4318-b5e8-140bef09f961","ios":"levelo://app?vid=8cd38c8f-2316-4318-b5e8-140bef09f961"},"vehicle_type_id":"4","last_reported":1687025237,"current_range_meters":27200,"station_id":"ce4bgj12rcd13ifvqbc0","pricing_plan_id":"free"},{"bike_id":"7a096826-337c-43d7-945f-7976f9bc31d8","system_id":"levelo_inurba_marseille","lat":43.299028,"lon":5.381509,"is_reserved":false,"is_disabled":false,"rental_uris":{"android":"levelo://app?vid=7a096826-337c-43d7-945f-7976f9bc31d8","ios":"levelo://app?vid=7a096826-337c-43d7-945f-7976f9bc31d8"},"vehicle_type_id":"4","last_reported":1687025237,"current_range_meters":17200,"station_id":"ce4bgj12rcd13ifvqbc0","pricing_plan_id":"free"},{"bike_id":"8475f468-3348-4b18-a630-1fbaf2b48647","system_id":"levelo_inurba_marseille","lat":43.309589,"lon":5.390258,"is_reserved":false,"is_disabled":false,"rental_uris":{"android":"levelo://app?vid=8475f468-3348-4b18-a630-1fbaf2b48647","ios":"levelo://app?vid=8475f468-3348-4b18-a630-1fbaf2b48647"},"vehicle_type_id":"4","last_reported":1687025237,"current_range_meters":14800,"station_id":"ce4bgup2rcd13ifvqco0","pricing_plan_id":"free"},{"bike_id":"fa35b98f-4200-4198-9c4c-cfefa67666f1","system_id":"levelo_inurba_marseille","lat":43.29907,"lon":5.38146,"is_reserved":false,"is_disabled":false,"rental_uris":{"android":"levelo://app?vid=fa35b98f-4200-4198-9c4c-cfefa67666f1","ios":"levelo://app?vid=fa35b98f-4200-4198-9c4c-cfefa67666f1"},"vehicle_type_id":"4","last_reported":1687025237,"current_range_meters":26400,"station_id":"ce4bgj12rcd13ifvqbc0","pricing_plan_id":"free"},{"bike_id":"4555052e-9997-4869-a5eb-3f71f1f1752b","system_id":"levelo_inurba_marseille","lat":43.309589,"lon":5.390258,"is_reserved":false,"is_disabled":false,"rental_uris":{"android":"levelo://app?vid=4555052e-9997-4869-a5eb-3f71f1f1752b","ios":"levelo://app?vid=4555052e-9997-4869-a5eb-3f71f1f1752b"},"vehicle_type_id":"4","last_reported":1687025237,"current_range_meters":5600,"station_id":"ce4bgup2rcd13ifvqco0","pricing_plan_id":"free"},{"bike_id":"07d1f31c-686c-4150-aa4a-5ac69fa4832b","system_id":"levelo_inurba_marseille","lat":43.31754,"lon":5.39015,"is_reserved":false,"is_disabled":false,"rental_uris":{"android":"levelo://app?vid=07d1f31c-686c-4150-aa4a-5ac69fa4832b","ios":"levelo://app?vid=07d1f31c-686c-4150-aa4a-5ac69fa4832b"},"vehicle_type_id":"4","last_reported":1687025237,"current_range_meters":9600,"station_id":"ce4bhqp2rcd13ifvqhng","pricing_plan_id":"free"},{"bike_id":"cfc90b81-08f0-4405-a632-462c645fc98e","system_id":"levelo_inurba_marseille","lat":43.317557,"lon":5.390173,"is_reserved":false,"is_disabled":false,"rental_uris":{"android":"levelo://app?vid=cfc90b81-08f0-4405-a632-462c645fc98e","ios":"levelo://app?vid=cfc90b81-08f0-4405-a632-462c645fc98e"},"vehicle_type_id":"4","last_reported":1687025237,"current_range_meters":10000,"station_id":"ce4bhqp2rcd13ifvqhng","pricing_plan_id":"free"},{"bike_id":"04a12309-b2e3-4243-bfbe-b0ea2a4442b2","system_id":"levelo_inurba_marseille","lat":43.317557,"lon":5.390173,"is_reserved":false,"is_disabled":false,"rental_uris":{"android":"levelo://app?vid=04a12309-b2e3-4243-bfbe-b0ea2a4442b2","ios":"levelo://app?vid=04a12309-b2e3-4243-bfbe-b0ea2a4442b2"},"vehicle_type_id":"4","last_reported":1687025237,"current_range_meters":18000,"station_id":"ce4bhqp2rcd13ifvqhng","pricing_plan_id":"free"},{"bike_id":"250c8a96-8498-4211-b8f3-1b00a8d1fbaf","system_id":"levelo_inurba_marseille","lat":43.296477,"lon":5.37768,"is_reserved":false,"is_disabled":false,"rental_uris":{"android":"levelo://app?vid=250c8a96-8498-4211-b8f3-1b00a8d1fbaf","ios":"levelo://app?vid=250c8a96-8498-4211-b8f3-1b00a8d1fbaf"},"vehicle_type_id":"4","last_reported":1687025237,"current_range_meters":15600,"station_id":"","pricing_plan_id":"free"},{"bike_id":"a18627e1-effc-4892-91b3-feb3ed47b37a","system_id":"levelo_inurba_marseille","lat":43.29637,"lon":5.377558,"is_reserved":false,"is_disabled":false,"rental_uris":{"android":"levelo://app?vid=a18627e1-effc-4892-91b3-feb3ed47b37a","ios":"levelo://app?vid=a18627e1-effc-4892-91b3-feb3ed47b37a"},"vehicle_type_id":"4","last_reported":1687025237,"current_range_meters":0,"station_id":"ce4bgi92rcd13ifvqb90","pricing_plan_id":"free"},{"bike_id":"c0887025-88a8-4c53-9e02-0df11753b6e5","system_id":"levelo_inurba_marseille","lat":43.304274,"lon":5.388873,"is_reserved":false,"is_disabled":false,"rental_uris":{"android":"levelo://app?vid=c0887025-88a8-4c53-9e02-0df11753b6e5","ios":"levelo://app?vid=c0887025-88a8-4c53-9e02-0df11753b6e5"},"vehicle_type_id":"4","last_reported":1687025237,"current_range_meters":9200,"station_id":"ce4bgk12rcd13ifvqbi0","pricing_plan_id":"free"},{"bike_id":"c6e3c4fd-c934-42f5-b415-de9e389d5f5a","system_id":"levelo_inurba_marseille","lat":43.296263,"lon":5.377094,"is_reserved":false,"is_disabled":false,"rental_uris":{"android":"levelo://app?vid=c6e3c4fd-c934-42f5-b415-de9e389d5f5a","ios":"levelo://app?vid=c6e3c4fd-c934-42f5-b415-de9e389d5f5a"},"vehicle_type_id":"4","last_reported":1687025237,"current_range_meters":0,"station_id":"ce4bgi92rcd13ifvqb90","pricing_plan_id":"free"},{"bike_id":"eb56f040-d7e3-440c-9d05-82afe187dd21","system_id":"levelo_inurba_marseille","lat":43.299717,"lon":5.384845,"is_reserved":false,"is_disabled":false,"rental_uris":{"android":"levelo://app?vid=eb56f040-d7e3-440c-9d05-82afe187dd21","ios":"levelo://app?vid=eb56f040-d7e3-440c-9d05-82afe187dd21"},"vehicle_type_id":"4","last_reported":1687025237,"current_range_meters":30400,"station_id":"ce4bgj92rcd13ifvqbd0","pricing_plan_id":"free"},{"bike_id":"2c9ad911-25e0-4222-8751-d809dfadd582","system_id":"levelo_inurba_marseille","lat":43.32369,"lon":5.38861,"is_reserved":false,"is_disabled":false,"rental_uris":{"android":"levelo://app?vid=2c9ad911-25e0-4222-8751-d809dfadd582","ios":"levelo://app?vid=2c9ad911-25e0-4222-8751-d809dfadd582"},"vehicle_type_id":"4","last_reported":1687025237,"current_range_meters":24800,"station_id":"ce4bhqp2rcd13ifvqhog","pricing_plan_id":"free"},{"bike_id":"56aef602-a460-4663-8377-7375e2b5365b","system_id":"levelo_inurba_marseille","lat":43.32367,"lon":5.388836,"is_reserved":false,"is_disabled":false,"rental_uris":{"android":"levelo://app?vid=56aef602-a460-4663-8377-7375e2b5365b","ios":"levelo://app?vid=56aef602-a460-4663-8377-7375e2b5365b"},"vehicle_type_id":"4","last_reported":1687025237,"current_range_meters":7600,"station_id":"ce4bhqp2rcd13ifvqhog","pricing_plan_id":"free"},{"bike_id":"d7b6e362-a89e-426f-a0b9-fe4da9f36faf","system_id":"levelo_inurba_marseille","lat":43.32367,"lon":5.388836,"is_reserved":false,"is_disabled":false,"rental_uris":{"android":"levelo://app?vid=d7b6e362-a89e-426f-a0b9-fe4da9f36faf","ios":"levelo://app?vid=d7b6e362-a89e-426f-a0b9-fe4da9f36faf"},"vehicle_type_id":"4","last_reported":1687025237,"current_range_meters":21200,"station_id":"ce4bhqp2rcd13ifvqhog","pricing_plan_id":"free"},{"bike_id":"90f40318-70e1-4770-8c96-25d70711891c","system_id":"levelo_inurba_marseille","lat":43.32366,"lon":5.38885,"is_reserved":false,"is_disabled":false,"rental_uris":{"android":"levelo://app?vid=90f40318-70e1-4770-8c96-25d70711891c","ios":"levelo://app?vid=90f40318-70e1-4770-8c96-25d70711891c"},"vehicle_type_id":"4","last_reported":1687025237,"current_range_meters":12400,"station_id":"ce4bhqp2rcd13ifvqhog","pricing_plan_id":"free"},{"bike_id":"5f44a9d9-9e4a-411c-8416-8cd984ad6176","system_id":"levelo_inurba_marseille","lat":43.2936,"lon":5.37835,"is_reserved":false,"is_disabled":false,"rental_uris":{"android":"levelo://app?vid=5f44a9d9-9e4a-411c-8416-8cd984ad6176","ios":"levelo://app?vid=5f44a9d9-9e4a-411c-8416-8cd984ad6176"},"vehicle_type_id":"4","last_reported":1687025237,"current_range_meters":9600,"station_id":"ce4bgjh2rcd13ifvqbf0","pricing_plan_id":"free"},{"bike_id":"25dc5b9d-e6b4-4c4f-8e56-193b90c43018","system_id":"levelo_inurba_marseille","lat":43.313291,"lon":5.396838,"is_reserved":false,"is_disabled":false,"rental_uris":{"android":"levelo://app?vid=25dc5b9d-e6b4-4c4f-8e56-193b90c43018","ios":"levelo://app?vid=25dc5b9d-e6b4-4c4f-8e56-193b90c43018"},"vehicle_type_id":"4","last_reported":1687025237,"current_range_meters":3200,"station_id":"ce4bgvp2rcd13ifvqcu0","pricing_plan_id":"free"},{"bike_id":"4d393d37-0d7c-42ea-b833-1999af112b19","system_id":"levelo_inurba_marseille","lat":43.29529,"lon":5.385581,"is_reserved":false,"is_disabled":false,"rental_uris":{"android":"levelo://app?vid=4d393d37-0d7c-42ea-b833-1999af112b19","ios":"levelo://app?vid=4d393d37-0d7c-42ea-b833-1999af112b19"},"vehicle_type_id":"4","last_reported":1687025237,"current_range_meters":15600,"station_id":"ce4bgih2rcd13ifvqba0","pricing_plan_id":"free"},{"bike_id":"18e61715-2ad8-416e-a015-a8862eac63fe","system_id":"levelo_inurba_marseille","lat":43.294153,"lon":5.386305,"is_reserved":false,"is_disabled":false,"rental_uris":{"android":"levelo://app?vid=18e61715-2ad8-416e-a015-a8862eac63fe","ios":"levelo://app?vid=18e61715-2ad8-416e-a015-a8862eac63fe"},"vehicle_type_id":"4","last_reported":1687025237,"current_range_meters":4800,"station_id":"ce4bh2h2rcd13ifvqdh0","pricing_plan_id":"free"},{"bike_id":"38af2699-bc5c-40bb-a3d2-c76818859b16","system_id":"levelo_inurba_marseille","lat":43.28942,"lon":5.3664,"is_reserved":false,"is_disabled":false,"rental_uris":{"android":"levelo://app?vid=38af2699-bc5c-40bb-a3d2-c76818859b16","ios":"levelo://app?vid=38af2699-bc5c-40bb-a3d2-c76818859b16"},"vehicle_type_id":"4","last_reported":1687025237,"current_range_meters":0,"station_id":"ce4bhap2rcd13ifvqek0","pricing_plan_id":"free"},{"bike_id":"38eb09af-7166-42b9-865e-84246929498f","system_id":"levelo_inurba_marseille","lat":43.292642,"lon":5.384254,"is_reserved":false,"is_disabled":false,"rental_uris":{"android":"levelo://app?vid=38eb09af-7166-42b9-865e-84246929498f","ios":"levelo://app?vid=38eb09af-7166-42b9-865e-84246929498f"},"vehicle_type_id":"4","last_reported":1687025237,"current_range_meters":31200,"station_id":"ce4bh692rcd13ifvqea0","pricing_plan_id":"free"},{"bike_id":"805f70dc-8a4c-48fd-8d16-4ccfa03d2f0a","system_id":"levelo_inurba_marseille","lat":43.330442,"lon":5.389148,"is_reserved":false,"is_disabled":false,"rental_uris":{"android":"levelo://app?vid=805f70dc-8a4c-48fd-8d16-4ccfa03d2f0a","ios":"levelo://app?vid=805f70dc-8a4c-48fd-8d16-4ccfa03d2f0a"},"vehicle_type_id":"4","last_reported":1687025237,"current_range_meters":6000,"station_id":"ce4bhr92rcd13ifvqhrg","pricing_plan_id":"free"},{"bike_id":"0c4b1ee7-4245-4767-8401-a05258e10159","system_id":"levelo_inurba_marseille","lat":43.290103,"lon":5.356114,"is_reserved":false,"is_disabled":false,"rental_uris":{"android":"levelo://app?vid=0c4b1ee7-4245-4767-8401-a05258e10159","ios":"levelo://app?vid=0c4b1ee7-4245-4767-8401-a05258e10159"},"vehicle_type_id":"4","last_reported":1687025237,"current_range_meters":0,"station_id":"ce4bhb92rcd13ifvqen0","pricing_plan_id":"free"},{"bike_id":"0c9c1e24-ca1d-4410-9f73-9454aa81b0b9","system_id":"levelo_inurba_marseille","lat":43.29108,"lon":5.38146,"is_reserved":false,"is_disabled":false,"rental_uris":{"android":"levelo://app?vid=0c9c1e24-ca1d-4410-9f73-9454aa81b0b9","ios":"levelo://app?vid=0c9c1e24-ca1d-4410-9f73-9454aa81b0b9"},"vehicle_type_id":"4","last_reported":1687025237,"current_range_meters":18000,"station_id":"ce4bh512rcd13ifvqe2g","pricing_plan_id":"free"},{"bike_id":"d3d9fa7b-9172-4806-a1a5-54cfc18cf6dc","system_id":"levelo_inurba_marseille","lat":43.289741,"lon":5.378306,"is_reserved":false,"is_disabled":false,"rental_uris":{"android":"levelo://app?vid=d3d9fa7b-9172-4806-a1a5-54cfc18cf6dc","ios":"levelo://app?vid=d3d9fa7b-9172-4806-a1a5-54cfc18cf6dc"},"vehicle_type_id":"4","last_reported":1687025237,"current_range_meters":0,"station_id":"ce4bh9p2rcd13ifvqed0","pricing_plan_id":"free"},{"bike_id":"36f3ed74-318d-439d-8146-494b36e7a8b8","system_id":"levelo_inurba_marseille","lat":43.295169,"lon":5.390426,"is_reserved":false,"is_disabled":false,"rental_uris":{"android":"levelo://app?vid=36f3ed74-318d-439d-8146-494b36e7a8b8","ios":"levelo://app?vid=36f3ed74-318d-439d-8146-494b36e7a8b8"},"vehicle_type_id":"4","last_reported":1687025237,"current_range_meters":12400,"station_id":"ce4bh3p2rcd13ifvqdp0","pricing_plan_id":"free"},{"bike_id":"b9b44b37-7edf-4ab6-8685-17eb58a26dbc","system_id":"levelo_inurba_marseille","lat":43.295169,"lon":5.390426,"is_reserved":false,"is_disabled":false,"rental_uris":{"android":"levelo://app?vid=b9b44b37-7edf-4ab6-8685-17eb58a26dbc","ios":"levelo://app?vid=b9b44b37-7edf-4ab6-8685-17eb58a26dbc"},"vehicle_type_id":"4","last_reported":1687025237,"current_range_meters":30400,"station_id":"ce4bh3p2rcd13ifvqdp0","pricing_plan_id":"free"},{"bike_id":"e40b992e-9b3f-4af7-b4b7-95f803fb36b1","system_id":"levelo_inurba_marseille","lat":43.296921,"lon":5.376579,"is_reserved":false,"is_disabled":false,"rental_uris":{"android":"levelo://app?vid=e40b992e-9b3f-4af7-b4b7-95f803fb36b1","ios":"levelo://app?vid=e40b992e-9b3f-4af7-b4b7-95f803fb36b1"},"vehicle_type_id":"4","last_reported":1687025237,"current_range_meters":0,"station_id":"ce4bgkh2rcd13ifvqbl0","pricing_plan_id":"free"},{"bike_id":"c0fb8083-e02d-4dec-b1b9-fa095e6c5b75","system_id":"levelo_inurba_marseille","lat":43.337396,"lon":5.374526,"is_reserved":false,"is_disabled":false,"rental_uris":{"android":"levelo://app?vid=c0fb8083-e02d-4dec-b1b9-fa095e6c5b75","ios":"levelo://app?vid=c0fb8083-e02d-4dec-b1b9-fa095e6c5b75"},"vehicle_type_id":"4","last_reported":1687025237,"current_range_meters":0,"station_id":"ce4bhp92rcd13ifvqhag","pricing_plan_id":"free"},{"bike_id":"41a8749b-6d93-4d1b-8e52-c5f60f65ae7c","system_id":"levelo_inurba_marseille","lat":43.33752,"lon":5.37443,"is_reserved":false,"is_disabled":false,"rental_uris":{"android":"levelo://app?vid=41a8749b-6d93-4d1b-8e52-c5f60f65ae7c","ios":"levelo://app?vid=41a8749b-6d93-4d1b-8e52-c5f60f65ae7c"},"vehicle_type_id":"4","last_reported":1687025237,"current_range_meters":30000,"station_id":"","pricing_plan_id":"free"},{"bike_id":"de073882-90a9-4080-a845-ac039f6fa093","system_id":"levelo_inurba_marseille","lat":43.309371,"lon":5.401449,"is_reserved":false,"is_disabled":false,"rental_uris":{"android":"levelo://app?vid=de073882-90a9-4080-a845-ac039f6fa093","ios":"levelo://app?vid=de073882-90a9-4080-a845-ac039f6fa093"},"vehicle_type_id":"4","last_reported":1687025237,"current_range_meters":11600,"station_id":"ce4bgvp2rcd13ifvqct0","pricing_plan_id":"free"},{"bike_id":"2d89f486-ec81-415a-9762-bc7c1393e24d","system_id":"levelo_inurba_marseille","lat":43.301117,"lon":5.398795,"is_reserved":false,"is_disabled":false,"rental_uris":{"android":"levelo://app?vid=2d89f486-ec81-415a-9762-bc7c1393e24d","ios":"levelo://app?vid=2d89f486-ec81-415a-9762-bc7c1393e24d"},"vehicle_type_id":"4","last_reported":1687025237,"current_range_meters":3200,"station_id":"ce4bh0h2rcd13ifvqd40","pricing_plan_id":"free"},{"bike_id":"07ba0a2c-321b-4667-a8d2-dd901307e684","system_id":"levelo_inurba_marseille","lat":43.286591,"lon":5.363346,"is_reserved":false,"is_disabled":false,"rental_uris":{"android":"levelo://app?vid=07ba0a2c-321b-4667-a8d2-dd901307e684","ios":"levelo://app?vid=07ba0a2c-321b-4667-a8d2-dd901307e684"},"vehicle_type_id":"4","last_reported":1687025237,"current_range_meters":20400,"station_id":"ce4bhah2rcd13ifvqej0","pricing_plan_id":"free"},{"bike_id":"2ef8c178-c803-46d7-9285-c62d60d9d8ec","system_id":"levelo_inurba_marseille","lat":43.29024,"lon":5.38651,"is_reserved":false,"is_disabled":false,"rental_uris":{"android":"levelo://app?vid=2ef8c178-c803-46d7-9285-c62d60d9d8ec","ios":"levelo://app?vid=2ef8c178-c803-46d7-9285-c62d60d9d8ec"},"vehicle_type_id":"4","last_reported":1687025237,"current_range_meters":3600,"station_id":"ce4bh4p2rcd13ifvqe0g","pricing_plan_id":"free"},{"bike_id":"fab32c9c-bd74-453f-888e-08ae03b4a1c4","system_id":"levelo_inurba_marseille","lat":43.286039,"lon":5.370679,"is_reserved":false,"is_disabled":false,"rental_uris":{"android":"levelo://app?vid=fab32c9c-bd74-453f-888e-08ae03b4a1c4","ios":"levelo://app?vid=fab32c9c-bd74-453f-888e-08ae03b4a1c4"},"vehicle_type_id":"4","last_reported":1687025237,"current_range_meters":22800,"station_id":"ce4bht12rcd13ifvqi60","pricing_plan_id":"free"},{"bike_id":"bc67aa88-e3ee-4697-b89a-1e140c885be3","system_id":"levelo_inurba_marseille","lat":43.286039,"lon":5.370681,"is_reserved":false,"is_disabled":false,"rental_uris":{"android":"levelo://app?vid=bc67aa88-e3ee-4697-b89a-1e140c885be3","ios":"levelo://app?vid=bc67aa88-e3ee-4697-b89a-1e140c885be3"},"vehicle_type_id":"4","last_reported":1687025237,"current_range_meters":2400,"station_id":"ce4bht12rcd13ifvqi60","pricing_plan_id":"free"},{"bike_id":"1b458d9e-8c53-4ccc-b905-35e564e8fa8a","system_id":"levelo_inurba_marseille","lat":43.31642,"lon":5.40436,"is_reserved":false,"is_disabled":false,"rental_uris":{"android":"levelo://app?vid=1b458d9e-8c53-4ccc-b905-35e564e8fa8a","ios":"levelo://app?vid=1b458d9e-8c53-4ccc-b905-35e564e8fa8a"},"vehicle_type_id":"4","last_reported":1687025237,"current_range_meters":6400,"station_id":"ce4bh012rcd13ifvqd00","pricing_plan_id":"free"},{"bike_id":"f023b7b7-235c-4c98-93e5-70571c5bb5e4","system_id":"levelo_inurba_marseille","lat":43.284534,"lon":5.358662,"is_reserved":false,"is_disabled":false,"rental_uris":{"android":"levelo://app?vid=f023b7b7-235c-4c98-93e5-70571c5bb5e4","ios":"levelo://app?vid=f023b7b7-235c-4c98-93e5-70571c5bb5e4"},"vehicle_type_id":"4","last_reported":1687025237,"current_range_meters":6400,"station_id":"ce4bhah2rcd13ifvqei0","pricing_plan_id":"free"},{"bike_id":"1aeec999-0a9e-4dd3-8f79-0113d4556bad","system_id":"levelo_inurba_marseille","lat":43.284534,"lon":5.358662,"is_reserved":false,"is_disabled":false,"rental_uris":{"android":"levelo://app?vid=1aeec999-0a9e-4dd3-8f79-0113d4556bad","ios":"levelo://app?vid=1aeec999-0a9e-4dd3-8f79-0113d4556bad"},"vehicle_type_id":"4","last_reported":1687025237,"current_range_meters":12400,"station_id":"ce4bhah2rcd13ifvqei0","pricing_plan_id":"free"},{"bike_id":"d81c14d6-fa65-4ae0-927f-80cc5861e2ce","system_id":"levelo_inurba_marseille","lat":43.285848,"lon":5.350787,"is_reserved":false,"is_disabled":false,"rental_uris":{"android":"levelo://app?vid=d81c14d6-fa65-4ae0-927f-80cc5861e2ce","ios":"levelo://app?vid=d81c14d6-fa65-4ae0-927f-80cc5861e2ce"},"vehicle_type_id":"4","last_reported":1687025237,"current_range_meters":27200,"station_id":"ce4bhch2rcd13ifvqeug","pricing_plan_id":"free"},{"bike_id":"8738642e-0ee0-4521-ac54-62fcba9e2f3b","system_id":"levelo_inurba_marseille","lat":43.283998,"lon":5.375062,"is_reserved":false,"is_disabled":false,"rental_uris":{"android":"levelo://app?vid=8738642e-0ee0-4521-ac54-62fcba9e2f3b","ios":"levelo://app?vid=8738642e-0ee0-4521-ac54-62fcba9e2f3b"},"vehicle_type_id":"4","last_reported":1687025237,"current_range_meters":3600,"station_id":"ce4bh412rcd13ifvqds0","pricing_plan_id":"free"},{"bike_id":"96bc1eaf-e137-4f88-a4e8-aac8423b5949","system_id":"levelo_inurba_marseille","lat":43.295713,"lon":5.399639,"is_reserved":false,"is_disabled":false,"rental_uris":{"android":"levelo://app?vid=96bc1eaf-e137-4f88-a4e8-aac8423b5949","ios":"levelo://app?vid=96bc1eaf-e137-4f88-a4e8-aac8423b5949"},"vehicle_type_id":"4","last_reported":1687025237,"current_range_meters":27200,"station_id":"ce4bh312rcd13ifvqdj0","pricing_plan_id":"free"},{"bike_id":"bf69989b-1225-436b-a75c-ccf5e47a9e5b","system_id":"levelo_inurba_marseille","lat":43.295713,"lon":5.399639,"is_reserved":false,"is_disabled":false,"rental_uris":{"android":"levelo://app?vid=bf69989b-1225-436b-a75c-ccf5e47a9e5b","ios":"levelo://app?vid=bf69989b-1225-436b-a75c-ccf5e47a9e5b"},"vehicle_type_id":"4","last_reported":1687025237,"current_range_meters":1200,"station_id":"ce4bh312rcd13ifvqdj0","pricing_plan_id":"free"},{"bike_id":"43275ef6-770c-4f0e-926c-1c3aecd7abec","system_id":"levelo_inurba_marseille","lat":43.287909,"lon":5.390554,"is_reserved":false,"is_disabled":false,"rental_uris":{"android":"levelo://app?vid=43275ef6-770c-4f0e-926c-1c3aecd7abec","ios":"levelo://app?vid=43275ef6-770c-4f0e-926c-1c3aecd7abec"},"vehicle_type_id":"4","last_reported":1687025237,"current_range_meters":15600,"station_id":"","pricing_plan_id":"free"},{"bike_id":"1c35ffd2-8b6a-4d5f-acf6-9bb1b2238727","system_id":"levelo_inurba_marseille","lat":43.286039,"lon":5.370681,"is_reserved":false,"is_disabled":false,"rental_uris":{"android":"levelo://app?vid=1c35ffd2-8b6a-4d5f-acf6-9bb1b2238727","ios":"levelo://app?vid=1c35ffd2-8b6a-4d5f-acf6-9bb1b2238727"},"vehicle_type_id":"4","last_reported":1687025237,"current_range_meters":0,"station_id":"ce4bht12rcd13ifvqi60","pricing_plan_id":"free"},{"bike_id":"16e5fedd-6e86-436a-a0a2-72c7cd60a6ea","system_id":"levelo_inurba_marseille","lat":43.323464,"lon":5.406297,"is_reserved":false,"is_disabled":false,"rental_uris":{"android":"levelo://app?vid=16e5fedd-6e86-436a-a0a2-72c7cd60a6ea","ios":"levelo://app?vid=16e5fedd-6e86-436a-a0a2-72c7cd60a6ea"},"vehicle_type_id":"4","last_reported":1687025237,"current_range_meters":30000,"station_id":"ce4bhq92rcd13ifvqhjg","pricing_plan_id":"free"},{"bike_id":"00b4d942-d645-4a17-a320-9c02b5ecca68","system_id":"levelo_inurba_marseille","lat":43.288501,"lon":5.393087,"is_reserved":false,"is_disabled":false,"rental_uris":{"android":"levelo://app?vid=00b4d942-d645-4a17-a320-9c02b5ecca68","ios":"levelo://app?vid=00b4d942-d645-4a17-a320-9c02b5ecca68"},"vehicle_type_id":"4","last_reported":1687025237,"current_range_meters":24800,"station_id":"ce4bh2p2rcd13ifvqdi0","pricing_plan_id":"free"},{"bike_id":"1ab9d876-3a63-43e7-a58b-a1f1dc7c4d33","system_id":"levelo_inurba_marseille","lat":43.283502,"lon":5.386471,"is_reserved":false,"is_disabled":false,"rental_uris":{"android":"levelo://app?vid=1ab9d876-3a63-43e7-a58b-a1f1dc7c4d33","ios":"levelo://app?vid=1ab9d876-3a63-43e7-a58b-a1f1dc7c4d33"},"vehicle_type_id":"4","last_reported":1687025237,"current_range_meters":6400,"station_id":"ce4bh492rcd13ifvqdvg","pricing_plan_id":"free"},{"bike_id":"0a04f7ef-0a1b-481f-95c0-d0b78f3ef6a5","system_id":"levelo_inurba_marseille","lat":43.282744,"lon":5.350533,"is_reserved":false,"is_disabled":false,"rental_uris":{"android":"levelo://app?vid=0a04f7ef-0a1b-481f-95c0-d0b78f3ef6a5","ios":"levelo://app?vid=0a04f7ef-0a1b-481f-95c0-d0b78f3ef6a5"},"vehicle_type_id":"4","last_reported":1687025237,"current_range_meters":0,"station_id":"ce4bhbp2rcd13ifvqerg","pricing_plan_id":"free"},{"bike_id":"9941c16f-9579-44d2-9cd3-8fd837c85322","system_id":"levelo_inurba_marseille","lat":43.284462,"lon":5.392121,"is_reserved":false,"is_disabled":false,"rental_uris":{"android":"levelo://app?vid=9941c16f-9579-44d2-9cd3-8fd837c85322","ios":"levelo://app?vid=9941c16f-9579-44d2-9cd3-8fd837c85322"},"vehicle_type_id":"4","last_reported":1687025237,"current_range_meters":11600,"station_id":"ce4bhoh2rcd13ifvqh5g","pricing_plan_id":"free"},{"bike_id":"41982e02-e6b9-48dd-a071-8671581a20c8","system_id":"levelo_inurba_marseille","lat":43.28566,"lon":5.39494,"is_reserved":false,"is_disabled":false,"rental_uris":{"android":"levelo://app?vid=41982e02-e6b9-48dd-a071-8671581a20c8","ios":"levelo://app?vid=41982e02-e6b9-48dd-a071-8671581a20c8"},"vehicle_type_id":"4","last_reported":1687025237,"current_range_meters":20000,"station_id":"ce4bh292rcd13ifvqdg0","pricing_plan_id":"free"},{"bike_id":"3afa5abb-0a64-479c-888a-cf99465cd00a","system_id":"levelo_inurba_marseille","lat":43.27819,"lon":5.38913,"is_reserved":false,"is_disabled":false,"rental_uris":{"android":"levelo://app?vid=3afa5abb-0a64-479c-888a-cf99465cd00a","ios":"levelo://app?vid=3afa5abb-0a64-479c-888a-cf99465cd00a"},"vehicle_type_id":"4","last_reported":1687025237,"current_range_meters":3200,"station_id":"","pricing_plan_id":"free"},{"bike_id":"1ae12434-3386-48bf-9019-4faf93ec7590","system_id":"levelo_inurba_marseille","lat":43.28075,"lon":5.39656,"is_reserved":false,"is_disabled":false,"rental_uris":{"android":"levelo://app?vid=1ae12434-3386-48bf-9019-4faf93ec7590","ios":"levelo://app?vid=1ae12434-3386-48bf-9019-4faf93ec7590"},"vehicle_type_id":"4","last_reported":1687025237,"current_range_meters":4000,"station_id":"ce4bho12rcd13ifvqh2g","pricing_plan_id":"free"},{"bike_id":"e55d026e-10b4-46dc-8179-5ab02a06d6bd","system_id":"levelo_inurba_marseille","lat":43.280784,"lon":5.396622,"is_reserved":false,"is_disabled":false,"rental_uris":{"android":"levelo://app?vid=e55d026e-10b4-46dc-8179-5ab02a06d6bd","ios":"levelo://app?vid=e55d026e-10b4-46dc-8179-5ab02a06d6bd"},"vehicle_type_id":"4","last_reported":1687025237,"current_range_meters":11600,"station_id":"ce4bho12rcd13ifvqh2g","pricing_plan_id":"free"},{"bike_id":"1ed24a88-d970-46fa-8564-4ee83b78dac4","system_id":"levelo_inurba_marseille","lat":43.317121,"lon":5.423936,"is_reserved":false,"is_disabled":false,"rental_uris":{"android":"levelo://app?vid=1ed24a88-d970-46fa-8564-4ee83b78dac4","ios":"levelo://app?vid=1ed24a88-d970-46fa-8564-4ee83b78dac4"},"vehicle_type_id":"4","last_reported":1687025237,"current_range_meters":25200,"station_id":"ce4bhp92rcd13ifvqhbg","pricing_plan_id":"free"},{"bike_id":"3d7d9d06-9901-42a0-92c1-7b49c08ce92c","system_id":"levelo_inurba_marseille","lat":43.310785,"lon":5.424305,"is_reserved":false,"is_disabled":false,"rental_uris":{"android":"levelo://app?vid=3d7d9d06-9901-42a0-92c1-7b49c08ce92c","ios":"levelo://app?vid=3d7d9d06-9901-42a0-92c1-7b49c08ce92c"},"vehicle_type_id":"4","last_reported":1687025237,"current_range_meters":30400,"station_id":"ce4bhp92rcd13ifvqhag","pricing_plan_id":"free"},{"bike_id":"f82c4e0b-ce86-4de4-962b-f266d6ba506e","system_id":"levelo_inurba_marseille","lat":43.273125,"lon":5.390731,"is_reserved":false,"is_disabled":false,"rental_uris":{"android":"levelo://app?vid=f82c4e0b-ce86-4de4-962b-f266d6ba506e","ios":"levelo://app?vid=f82c4e0b-ce86-4de4-962b-f266d6ba506e"},"vehicle_type_id":"4","last_reported":1687025237,"current_range_meters":30000,"station_id":"ce4bhgp2rcd13ifvqfe0","pricing_plan_id":"free"},{"bike_id":"6275aaca-a354-407f-be44-df40f2969d44","system_id":"levelo_inurba_marseille","lat":43.27315,"lon":5.39082,"is_reserved":false,"is_disabled":false,"rental_uris":{"android":"levelo://app?vid=6275aaca-a354-407f-be44-df40f2969d44","ios":"levelo://app?vid=6275aaca-a354-407f-be44-df40f2969d44"},"vehicle_type_id":"4","last_reported":1687025237,"current_range_meters":31200,"station_id":"ce4bhgp2rcd13ifvqfe0","pricing_plan_id":"free"},{"bike_id":"cfba2fbe-9ed5-423f-b411-8d6c38451715","system_id":"levelo_inurba_marseille","lat":43.27309,"lon":5.39086,"is_reserved":false,"is_disabled":false,"rental_uris":{"android":"levelo://app?vid=cfba2fbe-9ed5-423f-b411-8d6c38451715","ios":"levelo://app?vid=cfba2fbe-9ed5-423f-b411-8d6c38451715"},"vehicle_type_id":"4","last_reported":1687025237,"current_range_meters":31200,"station_id":"ce4bhgp2rcd13ifvqfe0","pricing_plan_id":"free"},{"bike_id":"e0536311-af16-4052-8711-4d53940552fa","system_id":"levelo_inurba_marseille","lat":43.304096,"lon":5.425385,"is_reserved":false,"is_disabled":false,"rental_uris":{"android":"levelo://app?vid=e0536311-af16-4052-8711-4d53940552fa","ios":"levelo://app?vid=e0536311-af16-4052-8711-4d53940552fa"},"vehicle_type_id":"4","last_reported":1687025237,"current_range_meters":31200,"station_id":"ce4bhoh2rcd13ifvqh6g","pricing_plan_id":"free"},{"bike_id":"c7c208a7-5834-4cc7-b9ad-617762a9327b","system_id":"levelo_inurba_marseille","lat":43.295523,"lon":5.422926,"is_reserved":false,"is_disabled":false,"rental_uris":{"android":"levelo://app?vid=c7c208a7-5834-4cc7-b9ad-617762a9327b","ios":"levelo://app?vid=c7c208a7-5834-4cc7-b9ad-617762a9327b"},"vehicle_type_id":"4","last_reported":1687025237,"current_range_meters":0,"station_id":"ce4bhph2rcd13ifvqhdg","pricing_plan_id":"free"},{"bike_id":"b8de6e35-5ae1-444d-b75d-88b53e136a45","system_id":"levelo_inurba_marseille","lat":43.295523,"lon":5.422926,"is_reserved":false,"is_disabled":false,"rental_uris":{"android":"levelo://app?vid=b8de6e35-5ae1-444d-b75d-88b53e136a45","ios":"levelo://app?vid=b8de6e35-5ae1-444d-b75d-88b53e136a45"},"vehicle_type_id":"4","last_reported":1687025237,"current_range_meters":16000,"station_id":"ce4bhph2rcd13ifvqhdg","pricing_plan_id":"free"},{"bike_id":"90d6893a-f1b0-4703-883c-6fbf42830f17","system_id":"levelo_inurba_marseille","lat":43.2719,"lon":5.39057,"is_reserved":false,"is_disabled":false,"rental_uris":{"android":"levelo://app?vid=90d6893a-f1b0-4703-883c-6fbf42830f17","ios":"levelo://app?vid=90d6893a-f1b0-4703-883c-6fbf42830f17"},"vehicle_type_id":"4","last_reported":1687025237,"current_range_meters":26000,"station_id":"","pricing_plan_id":"free"},{"bike_id":"1c535f06-488b-41a2-bbf0-73861fcf0fae","system_id":"levelo_inurba_marseille","lat":43.27809,"lon":5.40708,"is_reserved":false,"is_disabled":false,"rental_uris":{"android":"levelo://app?vid=1c535f06-488b-41a2-bbf0-73861fcf0fae","ios":"levelo://app?vid=1c535f06-488b-41a2-bbf0-73861fcf0fae"},"vehicle_type_id":"4","last_reported":1687025237,"current_range_meters":6400,"station_id":"ce4bhnh2rcd13ifvqgtg","pricing_plan_id":"free"},{"bike_id":"0993d0eb-aa01-4c86-bc67-448196e181c2","system_id":"levelo_inurba_marseille","lat":43.269592,"lon":5.386113,"is_reserved":false,"is_disabled":false,"rental_uris":{"android":"levelo://app?vid=0993d0eb-aa01-4c86-bc67-448196e181c2","ios":"levelo://app?vid=0993d0eb-aa01-4c86-bc67-448196e181c2"},"vehicle_type_id":"4","last_reported":1687025237,"current_range_meters":31200,"station_id":"ce4bhh92rcd13ifvqfh0","pricing_plan_id":"free"},{"bike_id":"ed967529-e270-48c1-8690-a39caee6fe73","system_id":"levelo_inurba_marseille","lat":43.278128,"lon":5.407195,"is_reserved":false,"is_disabled":false,"rental_uris":{"android":"levelo://app?vid=ed967529-e270-48c1-8690-a39caee6fe73","ios":"levelo://app?vid=ed967529-e270-48c1-8690-a39caee6fe73"},"vehicle_type_id":"4","last_reported":1687025237,"current_range_meters":2400,"station_id":"ce4bhnh2rcd13ifvqgtg","pricing_plan_id":"free"},{"bike_id":"725534aa-7e3d-4de9-bf88-35d582bf71e0","system_id":"levelo_inurba_marseille","lat":43.26947,"lon":5.38636,"is_reserved":false,"is_disabled":false,"rental_uris":{"android":"levelo://app?vid=725534aa-7e3d-4de9-bf88-35d582bf71e0","ios":"levelo://app?vid=725534aa-7e3d-4de9-bf88-35d582bf71e0"},"vehicle_type_id":"4","last_reported":1687025237,"current_range_meters":31200,"station_id":"ce4bhh92rcd13ifvqfh0","pricing_plan_id":"free"},{"bike_id":"7e80adc5-b785-4b7a-825f-001784eb8c70","system_id":"levelo_inurba_marseille","lat":43.26681,"lon":5.382694,"is_reserved":false,"is_disabled":false,"rental_uris":{"android":"levelo://app?vid=7e80adc5-b785-4b7a-825f-001784eb8c70","ios":"levelo://app?vid=7e80adc5-b785-4b7a-825f-001784eb8c70"},"vehicle_type_id":"4","last_reported":1687025237,"current_range_meters":14000,"station_id":"ce4bhg92rcd13ifvqf90","pricing_plan_id":"free"},{"bike_id":"3150850f-b4cd-4838-8045-cc73e38daeb0","system_id":"levelo_inurba_marseille","lat":43.26681,"lon":5.382694,"is_reserved":false,"is_disabled":false,"rental_uris":{"android":"levelo://app?vid=3150850f-b4cd-4838-8045-cc73e38daeb0","ios":"levelo://app?vid=3150850f-b4cd-4838-8045-cc73e38daeb0"},"vehicle_type_id":"4","last_reported":1687025237,"current_range_meters":0,"station_id":"ce4bhg92rcd13ifvqf90","pricing_plan_id":"free"},{"bike_id":"0fc70891-18cb-4a21-950f-f0b149f9031c","system_id":"levelo_inurba_marseille","lat":43.26681,"lon":5.382694,"is_reserved":false,"is_disabled":false,"rental_uris":{"android":"levelo://app?vid=0fc70891-18cb-4a21-950f-f0b149f9031c","ios":"levelo://app?vid=0fc70891-18cb-4a21-950f-f0b149f9031c"},"vehicle_type_id":"4","last_reported":1687025237,"current_range_meters":27200,"station_id":"ce4bhg92rcd13ifvqf90","pricing_plan_id":"free"},{"bike_id":"c50523d7-bf6d-4294-b132-d51917413983","system_id":"levelo_inurba_marseille","lat":43.26683,"lon":5.38273,"is_reserved":false,"is_disabled":false,"rental_uris":{"android":"levelo://app?vid=c50523d7-bf6d-4294-b132-d51917413983","ios":"levelo://app?vid=c50523d7-bf6d-4294-b132-d51917413983"},"vehicle_type_id":"4","last_reported":1687025237,"current_range_meters":31200,"station_id":"ce4bhg92rcd13ifvqf90","pricing_plan_id":"free"},{"bike_id":"a02a83be-b8d6-49b3-8891-9701938f4d3b","system_id":"levelo_inurba_marseille","lat":43.26681,"lon":5.382694,"is_reserved":false,"is_disabled":false,"rental_uris":{"android":"levelo://app?vid=a02a83be-b8d6-49b3-8891-9701938f4d3b","ios":"levelo://app?vid=a02a83be-b8d6-49b3-8891-9701938f4d3b"},"vehicle_type_id":"4","last_reported":1687025237,"current_range_meters":32000,"station_id":"ce4bhg92rcd13ifvqf90","pricing_plan_id":"free"},{"bike_id":"502a9adb-7c68-40db-8c6a-39c44a3ae656","system_id":"levelo_inurba_marseille","lat":43.26681,"lon":5.382694,"is_reserved":false,"is_disabled":false,"rental_uris":{"android":"levelo://app?vid=502a9adb-7c68-40db-8c6a-39c44a3ae656","ios":"levelo://app?vid=502a9adb-7c68-40db-8c6a-39c44a3ae656"},"vehicle_type_id":"4","last_reported":1687025237,"current_range_meters":25600,"station_id":"ce4bhg92rcd13ifvqf90","pricing_plan_id":"free"},{"bike_id":"473e9df1-76ab-4c00-9c19-824aeab8f837","system_id":"levelo_inurba_marseille","lat":43.26681,"lon":5.382694,"is_reserved":false,"is_disabled":false,"rental_uris":{"android":"levelo://app?vid=473e9df1-76ab-4c00-9c19-824aeab8f837","ios":"levelo://app?vid=473e9df1-76ab-4c00-9c19-824aeab8f837"},"vehicle_type_id":"4","last_reported":1687025237,"current_range_meters":0,"station_id":"ce4bhg92rcd13ifvqf90","pricing_plan_id":"free"},{"bike_id":"745c5f1f-87a6-4ce3-9676-5612802cd19f","system_id":"levelo_inurba_marseille","lat":43.26681,"lon":5.382694,"is_reserved":false,"is_disabled":false,"rental_uris":{"android":"levelo://app?vid=745c5f1f-87a6-4ce3-9676-5612802cd19f","ios":"levelo://app?vid=745c5f1f-87a6-4ce3-9676-5612802cd19f"},"vehicle_type_id":"4","last_reported":1687025237,"current_range_meters":16400,"station_id":"ce4bhg92rcd13ifvqf90","pricing_plan_id":"free"},{"bike_id":"80b55d8c-7ac0-4e8b-8f62-d49781de8e9b","system_id":"levelo_inurba_marseille","lat":43.26681,"lon":5.38272,"is_reserved":false,"is_disabled":false,"rental_uris":{"android":"levelo://app?vid=80b55d8c-7ac0-4e8b-8f62-d49781de8e9b","ios":"levelo://app?vid=80b55d8c-7ac0-4e8b-8f62-d49781de8e9b"},"vehicle_type_id":"4","last_reported":1687025237,"current_range_meters":26400,"station_id":"ce4bhg92rcd13ifvqf90","pricing_plan_id":"free"},{"bike_id":"805dd294-8c9f-4366-bba0-c6bedbd1112d","system_id":"levelo_inurba_marseille","lat":43.26681,"lon":5.382694,"is_reserved":false,"is_disabled":false,"rental_uris":{"android":"levelo://app?vid=805dd294-8c9f-4366-bba0-c6bedbd1112d","ios":"levelo://app?vid=805dd294-8c9f-4366-bba0-c6bedbd1112d"},"vehicle_type_id":"4","last_reported":1687025237,"current_range_meters":27600,"station_id":"ce4bhg92rcd13ifvqf90","pricing_plan_id":"free"},{"bike_id":"41e20f3f-9387-4017-bca4-afc278d550f2","system_id":"levelo_inurba_marseille","lat":43.26681,"lon":5.382694,"is_reserved":false,"is_disabled":false,"rental_uris":{"android":"levelo://app?vid=41e20f3f-9387-4017-bca4-afc278d550f2","ios":"levelo://app?vid=41e20f3f-9387-4017-bca4-afc278d550f2"},"vehicle_type_id":"4","last_reported":1687025237,"current_range_meters":14800,"station_id":"ce4bhg92rcd13ifvqf90","pricing_plan_id":"free"},{"bike_id":"8d24fea0-c49c-426b-83e6-f66763bb5585","system_id":"levelo_inurba_marseille","lat":43.26681,"lon":5.382694,"is_reserved":false,"is_disabled":false,"rental_uris":{"android":"levelo://app?vid=8d24fea0-c49c-426b-83e6-f66763bb5585","ios":"levelo://app?vid=8d24fea0-c49c-426b-83e6-f66763bb5585"},"vehicle_type_id":"4","last_reported":1687025237,"current_range_meters":24000,"station_id":"ce4bhg92rcd13ifvqf90","pricing_plan_id":"free"},{"bike_id":"baa4c0ca-f44c-424d-8d0f-b0ae130f45a7","system_id":"levelo_inurba_marseille","lat":43.26679,"lon":5.38278,"is_reserved":false,"is_disabled":false,"rental_uris":{"android":"levelo://app?vid=baa4c0ca-f44c-424d-8d0f-b0ae130f45a7","ios":"levelo://app?vid=baa4c0ca-f44c-424d-8d0f-b0ae130f45a7"},"vehicle_type_id":"4","last_reported":1687025237,"current_range_meters":31600,"station_id":"ce4bhg92rcd13ifvqf90","pricing_plan_id":"free"},{"bike_id":"d78d7ec5-f2d5-40b9-9ac0-deb985a7ead5","system_id":"levelo_inurba_marseille","lat":43.27999,"lon":5.41662,"is_reserved":false,"is_disabled":false,"rental_uris":{"android":"levelo://app?vid=d78d7ec5-f2d5-40b9-9ac0-deb985a7ead5","ios":"levelo://app?vid=d78d7ec5-f2d5-40b9-9ac0-deb985a7ead5"},"vehicle_type_id":"4","last_reported":1687025237,"current_range_meters":22000,"station_id":"ce4bho12rcd13ifvqh1g","pricing_plan_id":"free"},{"bike_id":"efcd4409-b407-4893-a081-8018deada33e","system_id":"levelo_inurba_marseille","lat":43.27996,"lon":5.41661,"is_reserved":false,"is_disabled":false,"rental_uris":{"android":"levelo://app?vid=efcd4409-b407-4893-a081-8018deada33e","ios":"levelo://app?vid=efcd4409-b407-4893-a081-8018deada33e"},"vehicle_type_id":"4","last_reported":1687025237,"current_range_meters":10800,"station_id":"ce4bho12rcd13ifvqh1g","pricing_plan_id":"free"},{"bike_id":"97ea8475-cbbd-499b-9b25-f75322ab5814","system_id":"levelo_inurba_marseille","lat":43.27996,"lon":5.41662,"is_reserved":false,"is_disabled":false,"rental_uris":{"android":"levelo://app?vid=97ea8475-cbbd-499b-9b25-f75322ab5814","ios":"levelo://app?vid=97ea8475-cbbd-499b-9b25-f75322ab5814"},"vehicle_type_id":"4","last_reported":1687025237,"current_range_meters":10800,"station_id":"ce4bho12rcd13ifvqh1g","pricing_plan_id":"free"},{"bike_id":"b22e63a4-6aed-45b1-8c34-b1ee4ad52df7","system_id":"levelo_inurba_marseille","lat":43.27997,"lon":5.41667,"is_reserved":false,"is_disabled":false,"rental_uris":{"android":"levelo://app?vid=b22e63a4-6aed-45b1-8c34-b1ee4ad52df7","ios":"levelo://app?vid=b22e63a4-6aed-45b1-8c34-b1ee4ad52df7"},"vehicle_type_id":"4","last_reported":1687025237,"current_range_meters":14800,"station_id":"ce4bho12rcd13ifvqh1g","pricing_plan_id":"free"},{"bike_id":"3987290e-fd4b-4f2b-81c0-57fca98f9cde","system_id":"levelo_inurba_marseille","lat":43.26782,"lon":5.39418,"is_reserved":false,"is_disabled":false,"rental_uris":{"android":"levelo://app?vid=3987290e-fd4b-4f2b-81c0-57fca98f9cde","ios":"levelo://app?vid=3987290e-fd4b-4f2b-81c0-57fca98f9cde"},"vehicle_type_id":"4","last_reported":1687025237,"current_range_meters":31200,"station_id":"ce4bhh12rcd13ifvqfg0","pricing_plan_id":"free"},{"bike_id":"e63142d5-e3d7-4b5e-b570-6420c87121a8","system_id":"levelo_inurba_marseille","lat":43.265569,"lon":5.390047,"is_reserved":false,"is_disabled":false,"rental_uris":{"android":"levelo://app?vid=e63142d5-e3d7-4b5e-b570-6420c87121a8","ios":"levelo://app?vid=e63142d5-e3d7-4b5e-b570-6420c87121a8"},"vehicle_type_id":"4","last_reported":1687025237,"current_range_meters":9200,"station_id":"ce4bhe12rcd13ifvqf30","pricing_plan_id":"free"},{"bike_id":"afb343ff-5394-41de-aee3-d274617fcd78","system_id":"levelo_inurba_marseille","lat":43.26561,"lon":5.3901,"is_reserved":false,"is_disabled":false,"rental_uris":{"android":"levelo://app?vid=afb343ff-5394-41de-aee3-d274617fcd78","ios":"levelo://app?vid=afb343ff-5394-41de-aee3-d274617fcd78"},"vehicle_type_id":"4","last_reported":1687025237,"current_range_meters":28400,"station_id":"ce4bhe12rcd13ifvqf30","pricing_plan_id":"free"},{"bike_id":"c2431118-8e4e-42d5-bca5-5ef60aec9bb3","system_id":"levelo_inurba_marseille","lat":43.261782,"lon":5.374515,"is_reserved":false,"is_disabled":false,"rental_uris":{"android":"levelo://app?vid=c2431118-8e4e-42d5-bca5-5ef60aec9bb3","ios":"levelo://app?vid=c2431118-8e4e-42d5-bca5-5ef60aec9bb3"},"vehicle_type_id":"4","last_reported":1687025237,"current_range_meters":24400,"station_id":"ce4bhgp2rcd13ifvqfc0","pricing_plan_id":"free"},{"bike_id":"f522bde3-59a4-4b18-ac64-faf803accafb","system_id":"levelo_inurba_marseille","lat":43.26192,"lon":5.37445,"is_reserved":false,"is_disabled":false,"rental_uris":{"android":"levelo://app?vid=f522bde3-59a4-4b18-ac64-faf803accafb","ios":"levelo://app?vid=f522bde3-59a4-4b18-ac64-faf803accafb"},"vehicle_type_id":"4","last_reported":1687025237,"current_range_meters":15200,"station_id":"ce4bhgp2rcd13ifvqfc0","pricing_plan_id":"free"},{"bike_id":"b4145c34-e0c2-4182-a056-58ba84e6f630","system_id":"levelo_inurba_marseille","lat":43.261782,"lon":5.374515,"is_reserved":false,"is_disabled":false,"rental_uris":{"android":"levelo://app?vid=b4145c34-e0c2-4182-a056-58ba84e6f630","ios":"levelo://app?vid=b4145c34-e0c2-4182-a056-58ba84e6f630"},"vehicle_type_id":"4","last_reported":1687025237,"current_range_meters":8000,"station_id":"ce4bhgp2rcd13ifvqfc0","pricing_plan_id":"free"},{"bike_id":"fdc27c93-2398-4427-969a-d5f9cbf527b1","system_id":"levelo_inurba_marseille","lat":43.26199,"lon":5.37549,"is_reserved":false,"is_disabled":false,"rental_uris":{"android":"levelo://app?vid=fdc27c93-2398-4427-969a-d5f9cbf527b1","ios":"levelo://app?vid=fdc27c93-2398-4427-969a-d5f9cbf527b1"},"vehicle_type_id":"4","last_reported":1687025237,"current_range_meters":16800,"station_id":"","pricing_plan_id":"free"},{"bike_id":"ac3f7762-dd0d-47e9-bbfa-29ab5dc1c800","system_id":"levelo_inurba_marseille","lat":43.261782,"lon":5.374515,"is_reserved":false,"is_disabled":false,"rental_uris":{"android":"levelo://app?vid=ac3f7762-dd0d-47e9-bbfa-29ab5dc1c800","ios":"levelo://app?vid=ac3f7762-dd0d-47e9-bbfa-29ab5dc1c800"},"vehicle_type_id":"4","last_reported":1687025237,"current_range_meters":31600,"station_id":"ce4bhgp2rcd13ifvqfc0","pricing_plan_id":"free"},{"bike_id":"a385f006-5f8b-43c8-87f3-a68b348c43e0","system_id":"levelo_inurba_marseille","lat":43.261782,"lon":5.374515,"is_reserved":false,"is_disabled":false,"rental_uris":{"android":"levelo://app?vid=a385f006-5f8b-43c8-87f3-a68b348c43e0","ios":"levelo://app?vid=a385f006-5f8b-43c8-87f3-a68b348c43e0"},"vehicle_type_id":"4","last_reported":1687025237,"current_range_meters":14000,"station_id":"ce4bhgp2rcd13ifvqfc0","pricing_plan_id":"free"},{"bike_id":"4e5956be-4a97-4252-95b8-d0a0bd6c3121","system_id":"levelo_inurba_marseille","lat":43.261888,"lon":5.374437,"is_reserved":false,"is_disabled":false,"rental_uris":{"android":"levelo://app?vid=4e5956be-4a97-4252-95b8-d0a0bd6c3121","ios":"levelo://app?vid=4e5956be-4a97-4252-95b8-d0a0bd6c3121"},"vehicle_type_id":"4","last_reported":1687025237,"current_range_meters":6000,"station_id":"ce4bhgp2rcd13ifvqfc0","pricing_plan_id":"free"},{"bike_id":"91c254b4-fef2-4a6b-9246-226657869095","system_id":"levelo_inurba_marseille","lat":43.26187,"lon":5.37442,"is_reserved":false,"is_disabled":false,"rental_uris":{"android":"levelo://app?vid=91c254b4-fef2-4a6b-9246-226657869095","ios":"levelo://app?vid=91c254b4-fef2-4a6b-9246-226657869095"},"vehicle_type_id":"4","last_reported":1687025237,"current_range_meters":31200,"station_id":"ce4bhgp2rcd13ifvqfc0","pricing_plan_id":"free"},{"bike_id":"2c2a662f-d645-4a0d-89bf-13b7bb7ffadc","system_id":"levelo_inurba_marseille","lat":43.26185,"lon":5.37446,"is_reserved":false,"is_disabled":false,"rental_uris":{"android":"levelo://app?vid=2c2a662f-d645-4a0d-89bf-13b7bb7ffadc","ios":"levelo://app?vid=2c2a662f-d645-4a0d-89bf-13b7bb7ffadc"},"vehicle_type_id":"4","last_reported":1687025237,"current_range_meters":31200,"station_id":"ce4bhgp2rcd13ifvqfc0","pricing_plan_id":"free"},{"bike_id":"9d9aeb15-d069-470d-8416-952b433ccd31","system_id":"levelo_inurba_marseille","lat":43.26179,"lon":5.37425,"is_reserved":false,"is_disabled":false,"rental_uris":{"android":"levelo://app?vid=9d9aeb15-d069-470d-8416-952b433ccd31","ios":"levelo://app?vid=9d9aeb15-d069-470d-8416-952b433ccd31"},"vehicle_type_id":"4","last_reported":1687025237,"current_range_meters":800,"station_id":"ce4bhgp2rcd13ifvqfc0","pricing_plan_id":"free"},{"bike_id":"857ebafb-267a-4f37-8824-53632cee37d4","system_id":"levelo_inurba_marseille","lat":43.26178,"lon":5.37444,"is_reserved":false,"is_disabled":false,"rental_uris":{"android":"levelo://app?vid=857ebafb-267a-4f37-8824-53632cee37d4","ios":"levelo://app?vid=857ebafb-267a-4f37-8824-53632cee37d4"},"vehicle_type_id":"4","last_reported":1687025237,"current_range_meters":31200,"station_id":"ce4bhgp2rcd13ifvqfc0","pricing_plan_id":"free"},{"bike_id":"14f91770-e5bd-49c9-ab9c-18d480a04fee","system_id":"levelo_inurba_marseille","lat":43.262189,"lon":5.379228,"is_reserved":false,"is_disabled":false,"rental_uris":{"android":"levelo://app?vid=14f91770-e5bd-49c9-ab9c-18d480a04fee","ios":"levelo://app?vid=14f91770-e5bd-49c9-ab9c-18d480a04fee"},"vehicle_type_id":"4","last_reported":1687025237,"current_range_meters":13600,"station_id":"ce4bhjp2rcd13ifvqg90","pricing_plan_id":"free"},{"bike_id":"5c2e1f1a-4f2e-449d-bbe7-8a7b3cb59a51","system_id":"levelo_inurba_marseille","lat":43.262157,"lon":5.379181,"is_reserved":false,"is_disabled":false,"rental_uris":{"android":"levelo://app?vid=5c2e1f1a-4f2e-449d-bbe7-8a7b3cb59a51","ios":"levelo://app?vid=5c2e1f1a-4f2e-449d-bbe7-8a7b3cb59a51"},"vehicle_type_id":"4","last_reported":1687025237,"current_range_meters":13600,"station_id":"ce4bhjp2rcd13ifvqg90","pricing_plan_id":"free"},{"bike_id":"e8b6fafc-fab8-42a4-8ea0-9b2033819168","system_id":"levelo_inurba_marseille","lat":43.26216,"lon":5.37924,"is_reserved":false,"is_disabled":false,"rental_uris":{"android":"levelo://app?vid=e8b6fafc-fab8-42a4-8ea0-9b2033819168","ios":"levelo://app?vid=e8b6fafc-fab8-42a4-8ea0-9b2033819168"},"vehicle_type_id":"4","last_reported":1687025237,"current_range_meters":31200,"station_id":"ce4bhjp2rcd13ifvqg90","pricing_plan_id":"free"},{"bike_id":"c110e53b-cf0c-412d-9d86-cdc6d0024913","system_id":"levelo_inurba_marseille","lat":43.26216,"lon":5.379248,"is_reserved":false,"is_disabled":false,"rental_uris":{"android":"levelo://app?vid=c110e53b-cf0c-412d-9d86-cdc6d0024913","ios":"levelo://app?vid=c110e53b-cf0c-412d-9d86-cdc6d0024913"},"vehicle_type_id":"4","last_reported":1687025237,"current_range_meters":20400,"station_id":"ce4bhjp2rcd13ifvqg90","pricing_plan_id":"free"},{"bike_id":"9df76f25-1cd8-4d21-a4a1-42e690d94951","system_id":"levelo_inurba_marseille","lat":43.262146,"lon":5.379284,"is_reserved":false,"is_disabled":false,"rental_uris":{"android":"levelo://app?vid=9df76f25-1cd8-4d21-a4a1-42e690d94951","ios":"levelo://app?vid=9df76f25-1cd8-4d21-a4a1-42e690d94951"},"vehicle_type_id":"4","last_reported":1687025237,"current_range_meters":18000,"station_id":"ce4bhjp2rcd13ifvqg90","pricing_plan_id":"free"},{"bike_id":"9d9d66d5-3cae-40ac-8709-6b524ba29811","system_id":"levelo_inurba_marseille","lat":43.262143,"lon":5.37926,"is_reserved":false,"is_disabled":false,"rental_uris":{"android":"levelo://app?vid=9d9d66d5-3cae-40ac-8709-6b524ba29811","ios":"levelo://app?vid=9d9d66d5-3cae-40ac-8709-6b524ba29811"},"vehicle_type_id":"4","last_reported":1687025237,"current_range_meters":18000,"station_id":"ce4bhjp2rcd13ifvqg90","pricing_plan_id":"free"},{"bike_id":"b96d5945-6f97-4a59-8b7a-00c4ce796834","system_id":"levelo_inurba_marseille","lat":43.26213,"lon":5.37919,"is_reserved":false,"is_disabled":false,"rental_uris":{"android":"levelo://app?vid=b96d5945-6f97-4a59-8b7a-00c4ce796834","ios":"levelo://app?vid=b96d5945-6f97-4a59-8b7a-00c4ce796834"},"vehicle_type_id":"4","last_reported":1687025237,"current_range_meters":1200,"station_id":"ce4bhjp2rcd13ifvqg90","pricing_plan_id":"free"},{"bike_id":"ea62e870-934e-46c7-b7e6-8e74ec0b9b90","system_id":"levelo_inurba_marseille","lat":43.26212,"lon":5.37916,"is_reserved":false,"is_disabled":false,"rental_uris":{"android":"levelo://app?vid=ea62e870-934e-46c7-b7e6-8e74ec0b9b90","ios":"levelo://app?vid=ea62e870-934e-46c7-b7e6-8e74ec0b9b90"},"vehicle_type_id":"4","last_reported":1687025237,"current_range_meters":25600,"station_id":"ce4bhjp2rcd13ifvqg90","pricing_plan_id":"free"},{"bike_id":"ab511131-7c27-4778-8d24-a26196192374","system_id":"levelo_inurba_marseille","lat":43.262126,"lon":5.37924,"is_reserved":false,"is_disabled":false,"rental_uris":{"android":"levelo://app?vid=ab511131-7c27-4778-8d24-a26196192374","ios":"levelo://app?vid=ab511131-7c27-4778-8d24-a26196192374"},"vehicle_type_id":"4","last_reported":1687025237,"current_range_meters":11200,"station_id":"ce4bhjp2rcd13ifvqg90","pricing_plan_id":"free"},{"bike_id":"7d384896-0137-4921-acd3-bc3badb3d20e","system_id":"levelo_inurba_marseille","lat":43.26214,"lon":5.37938,"is_reserved":false,"is_disabled":false,"rental_uris":{"android":"levelo://app?vid=7d384896-0137-4921-acd3-bc3badb3d20e","ios":"levelo://app?vid=7d384896-0137-4921-acd3-bc3badb3d20e"},"vehicle_type_id":"4","last_reported":1687025237,"current_range_meters":21200,"station_id":"ce4bhjp2rcd13ifvqg90","pricing_plan_id":"free"},{"bike_id":"abd9f73a-dd35-47ee-8053-6243488dbb0c","system_id":"levelo_inurba_marseille","lat":43.262118,"lon":5.379253,"is_reserved":false,"is_disabled":false,"rental_uris":{"android":"levelo://app?vid=abd9f73a-dd35-47ee-8053-6243488dbb0c","ios":"levelo://app?vid=abd9f73a-dd35-47ee-8053-6243488dbb0c"},"vehicle_type_id":"4","last_reported":1687025237,"current_range_meters":18800,"station_id":"ce4bhjp2rcd13ifvqg90","pricing_plan_id":"free"},{"bike_id":"fc14b0b0-db18-45f8-ae29-152574302986","system_id":"levelo_inurba_marseille","lat":43.26211,"lon":5.37921,"is_reserved":false,"is_disabled":false,"rental_uris":{"android":"levelo://app?vid=fc14b0b0-db18-45f8-ae29-152574302986","ios":"levelo://app?vid=fc14b0b0-db18-45f8-ae29-152574302986"},"vehicle_type_id":"4","last_reported":1687025237,"current_range_meters":12800,"station_id":"ce4bhjp2rcd13ifvqg90","pricing_plan_id":"free"},{"bike_id":"3096f713-b093-493f-9a5b-0467126c255f","system_id":"levelo_inurba_marseille","lat":43.26211,"lon":5.37923,"is_reserved":false,"is_disabled":false,"rental_uris":{"android":"levelo://app?vid=3096f713-b093-493f-9a5b-0467126c255f","ios":"levelo://app?vid=3096f713-b093-493f-9a5b-0467126c255f"},"vehicle_type_id":"4","last_reported":1687025237,"current_range_meters":4800,"station_id":"ce4bhjp2rcd13ifvqg90","pricing_plan_id":"free"},{"bike_id":"ff0cd381-cf8f-40e5-a8fa-4669ac4eaee0","system_id":"levelo_inurba_marseille","lat":43.26211,"lon":5.37924,"is_reserved":false,"is_disabled":false,"rental_uris":{"android":"levelo://app?vid=ff0cd381-cf8f-40e5-a8fa-4669ac4eaee0","ios":"levelo://app?vid=ff0cd381-cf8f-40e5-a8fa-4669ac4eaee0"},"vehicle_type_id":"4","last_reported":1687025237,"current_range_meters":26800,"station_id":"ce4bhjp2rcd13ifvqg90","pricing_plan_id":"free"},{"bike_id":"b76cc4f0-c162-477e-9775-3c477ba8fe87","system_id":"levelo_inurba_marseille","lat":43.2621,"lon":5.37924,"is_reserved":false,"is_disabled":false,"rental_uris":{"android":"levelo://app?vid=b76cc4f0-c162-477e-9775-3c477ba8fe87","ios":"levelo://app?vid=b76cc4f0-c162-477e-9775-3c477ba8fe87"},"vehicle_type_id":"4","last_reported":1687025237,"current_range_meters":30000,"station_id":"ce4bhjp2rcd13ifvqg90","pricing_plan_id":"free"},{"bike_id":"93607467-0794-494b-9400-930182a22c73","system_id":"levelo_inurba_marseille","lat":43.26209,"lon":5.37924,"is_reserved":false,"is_disabled":false,"rental_uris":{"android":"levelo://app?vid=93607467-0794-494b-9400-930182a22c73","ios":"levelo://app?vid=93607467-0794-494b-9400-930182a22c73"},"vehicle_type_id":"4","last_reported":1687025237,"current_range_meters":13200,"station_id":"ce4bhjp2rcd13ifvqg90","pricing_plan_id":"free"},{"bike_id":"bddd26ce-6b5c-4b34-85fc-515db0a13eaf","system_id":"levelo_inurba_marseille","lat":43.26209,"lon":5.37926,"is_reserved":false,"is_disabled":false,"rental_uris":{"android":"levelo://app?vid=bddd26ce-6b5c-4b34-85fc-515db0a13eaf","ios":"levelo://app?vid=bddd26ce-6b5c-4b34-85fc-515db0a13eaf"},"vehicle_type_id":"4","last_reported":1687025237,"current_range_meters":31200,"station_id":"ce4bhjp2rcd13ifvqg90","pricing_plan_id":"free"},{"bike_id":"cb819c0f-6ffa-4f80-a81f-88af8c3cc91d","system_id":"levelo_inurba_marseille","lat":43.262082,"lon":5.379266,"is_reserved":false,"is_disabled":false,"rental_uris":{"android":"levelo://app?vid=cb819c0f-6ffa-4f80-a81f-88af8c3cc91d","ios":"levelo://app?vid=cb819c0f-6ffa-4f80-a81f-88af8c3cc91d"},"vehicle_type_id":"4","last_reported":1687025237,"current_range_meters":9200,"station_id":"ce4bhjp2rcd13ifvqg90","pricing_plan_id":"free"},{"bike_id":"345386e5-0aa6-4b66-8386-c8304249d7e8","system_id":"levelo_inurba_marseille","lat":43.262082,"lon":5.37926,"is_reserved":false,"is_disabled":false,"rental_uris":{"android":"levelo://app?vid=345386e5-0aa6-4b66-8386-c8304249d7e8","ios":"levelo://app?vid=345386e5-0aa6-4b66-8386-c8304249d7e8"},"vehicle_type_id":"4","last_reported":1687025237,"current_range_meters":18800,"station_id":"ce4bhjp2rcd13ifvqg90","pricing_plan_id":"free"},{"bike_id":"b6b5f1ac-8a63-4832-bdb8-c1700bac554d","system_id":"levelo_inurba_marseille","lat":43.26159,"lon":5.37455,"is_reserved":false,"is_disabled":false,"rental_uris":{"android":"levelo://app?vid=b6b5f1ac-8a63-4832-bdb8-c1700bac554d","ios":"levelo://app?vid=b6b5f1ac-8a63-4832-bdb8-c1700bac554d"},"vehicle_type_id":"4","last_reported":1687025237,"current_range_meters":17200,"station_id":"ce4bhgp2rcd13ifvqfc0","pricing_plan_id":"free"},{"bike_id":"c39a453d-ea08-4fcb-9938-90dd3b7af212","system_id":"levelo_inurba_marseille","lat":43.26207,"lon":5.37922,"is_reserved":false,"is_disabled":false,"rental_uris":{"android":"levelo://app?vid=c39a453d-ea08-4fcb-9938-90dd3b7af212","ios":"levelo://app?vid=c39a453d-ea08-4fcb-9938-90dd3b7af212"},"vehicle_type_id":"4","last_reported":1687025237,"current_range_meters":12000,"station_id":"ce4bhjp2rcd13ifvqg90","pricing_plan_id":"free"},{"bike_id":"1e75134c-00b5-437a-be60-db87eb6c35a0","system_id":"levelo_inurba_marseille","lat":43.262072,"lon":5.379253,"is_reserved":false,"is_disabled":false,"rental_uris":{"android":"levelo://app?vid=1e75134c-00b5-437a-be60-db87eb6c35a0","ios":"levelo://app?vid=1e75134c-00b5-437a-be60-db87eb6c35a0"},"vehicle_type_id":"4","last_reported":1687025237,"current_range_meters":22400,"station_id":"ce4bhjp2rcd13ifvqg90","pricing_plan_id":"free"},{"bike_id":"faab296f-48d1-46c5-b2d8-73e773fb8dde","system_id":"levelo_inurba_marseille","lat":43.26207,"lon":5.37924,"is_reserved":false,"is_disabled":false,"rental_uris":{"android":"levelo://app?vid=faab296f-48d1-46c5-b2d8-73e773fb8dde","ios":"levelo://app?vid=faab296f-48d1-46c5-b2d8-73e773fb8dde"},"vehicle_type_id":"4","last_reported":1687025237,"current_range_meters":22400,"station_id":"ce4bhjp2rcd13ifvqg90","pricing_plan_id":"free"},{"bike_id":"1e06eb7f-d33a-44ad-b658-e04700a25e6f","system_id":"levelo_inurba_marseille","lat":43.26207,"lon":5.37924,"is_reserved":false,"is_disabled":false,"rental_uris":{"android":"levelo://app?vid=1e06eb7f-d33a-44ad-b658-e04700a25e6f","ios":"levelo://app?vid=1e06eb7f-d33a-44ad-b658-e04700a25e6f"},"vehicle_type_id":"4","last_reported":1687025237,"current_range_meters":31600,"station_id":"ce4bhjp2rcd13ifvqg90","pricing_plan_id":"free"},{"bike_id":"3cb8ba37-f68d-4090-aeb9-dc76394e5956","system_id":"levelo_inurba_marseille","lat":43.26207,"lon":5.37926,"is_reserved":false,"is_disabled":false,"rental_uris":{"android":"levelo://app?vid=3cb8ba37-f68d-4090-aeb9-dc76394e5956","ios":"levelo://app?vid=3cb8ba37-f68d-4090-aeb9-dc76394e5956"},"vehicle_type_id":"4","last_reported":1687025237,"current_range_meters":10000,"station_id":"ce4bhjp2rcd13ifvqg90","pricing_plan_id":"free"},{"bike_id":"2d0f0fe2-9dc3-4547-b7a3-e036c026eb7c","system_id":"levelo_inurba_marseille","lat":43.262012,"lon":5.379307,"is_reserved":false,"is_disabled":false,"rental_uris":{"android":"levelo://app?vid=2d0f0fe2-9dc3-4547-b7a3-e036c026eb7c","ios":"levelo://app?vid=2d0f0fe2-9dc3-4547-b7a3-e036c026eb7c"},"vehicle_type_id":"4","last_reported":1687025237,"current_range_meters":15200,"station_id":"ce4bhjp2rcd13ifvqg90","pricing_plan_id":"free"},{"bike_id":"f7cb5758-4319-474c-ab2b-9ffe590fb218","system_id":"levelo_inurba_marseille","lat":43.26206,"lon":5.3792,"is_reserved":false,"is_disabled":false,"rental_uris":{"android":"levelo://app?vid=f7cb5758-4319-474c-ab2b-9ffe590fb218","ios":"levelo://app?vid=f7cb5758-4319-474c-ab2b-9ffe590fb218"},"vehicle_type_id":"4","last_reported":1687025237,"current_range_meters":31200,"station_id":"ce4bhjp2rcd13ifvqg90","pricing_plan_id":"free"},{"bike_id":"6f79e5b2-cd04-4e4b-9552-3e65771dce9e","system_id":"levelo_inurba_marseille","lat":43.26206,"lon":5.37923,"is_reserved":false,"is_disabled":false,"rental_uris":{"android":"levelo://app?vid=6f79e5b2-cd04-4e4b-9552-3e65771dce9e","ios":"levelo://app?vid=6f79e5b2-cd04-4e4b-9552-3e65771dce9e"},"vehicle_type_id":"4","last_reported":1687025237,"current_range_meters":18800,"station_id":"ce4bhjp2rcd13ifvqg90","pricing_plan_id":"free"},{"bike_id":"d6387107-c643-44c3-b3d3-cb93dfe84911","system_id":"levelo_inurba_marseille","lat":43.26206,"lon":5.37926,"is_reserved":false,"is_disabled":false,"rental_uris":{"android":"levelo://app?vid=d6387107-c643-44c3-b3d3-cb93dfe84911","ios":"levelo://app?vid=d6387107-c643-44c3-b3d3-cb93dfe84911"},"vehicle_type_id":"4","last_reported":1687025237,"current_range_meters":20400,"station_id":"ce4bhjp2rcd13ifvqg90","pricing_plan_id":"free"},{"bike_id":"dffe4ae7-0549-48b1-9186-50b43aa0d71b","system_id":"levelo_inurba_marseille","lat":43.26206,"lon":5.37927,"is_reserved":false,"is_disabled":false,"rental_uris":{"android":"levelo://app?vid=dffe4ae7-0549-48b1-9186-50b43aa0d71b","ios":"levelo://app?vid=dffe4ae7-0549-48b1-9186-50b43aa0d71b"},"vehicle_type_id":"4","last_reported":1687025237,"current_range_meters":14400,"station_id":"ce4bhjp2rcd13ifvqg90","pricing_plan_id":"free"},{"bike_id":"a3a5017f-f229-4c95-a65f-5320b6a86295","system_id":"levelo_inurba_marseille","lat":43.262012,"lon":5.379307,"is_reserved":false,"is_disabled":false,"rental_uris":{"android":"levelo://app?vid=a3a5017f-f229-4c95-a65f-5320b6a86295","ios":"levelo://app?vid=a3a5017f-f229-4c95-a65f-5320b6a86295"},"vehicle_type_id":"4","last_reported":1687025237,"current_range_meters":31200,"station_id":"ce4bhjp2rcd13ifvqg90","pricing_plan_id":"free"},{"bike_id":"e002c8e0-d3a4-45be-a015-e49dbcdde71d","system_id":"levelo_inurba_marseille","lat":43.262061,"lon":5.379285,"is_reserved":false,"is_disabled":false,"rental_uris":{"android":"levelo://app?vid=e002c8e0-d3a4-45be-a015-e49dbcdde71d","ios":"levelo://app?vid=e002c8e0-d3a4-45be-a015-e49dbcdde71d"},"vehicle_type_id":"4","last_reported":1687025237,"current_range_meters":29600,"station_id":"ce4bhjp2rcd13ifvqg90","pricing_plan_id":"free"},{"bike_id":"105aba82-4d29-4740-ae55-0a1d2d67eac8","system_id":"levelo_inurba_marseille","lat":43.262063,"lon":5.379311,"is_reserved":false,"is_disabled":false,"rental_uris":{"android":"levelo://app?vid=105aba82-4d29-4740-ae55-0a1d2d67eac8","ios":"levelo://app?vid=105aba82-4d29-4740-ae55-0a1d2d67eac8"},"vehicle_type_id":"4","last_reported":1687025237,"current_range_meters":10000,"station_id":"ce4bhjp2rcd13ifvqg90","pricing_plan_id":"free"},{"bike_id":"e12747e2-cb30-40ae-8ccc-5f1f274383f1","system_id":"levelo_inurba_marseille","lat":43.26206,"lon":5.37929,"is_reserved":false,"is_disabled":false,"rental_uris":{"android":"levelo://app?vid=e12747e2-cb30-40ae-8ccc-5f1f274383f1","ios":"levelo://app?vid=e12747e2-cb30-40ae-8ccc-5f1f274383f1"},"vehicle_type_id":"4","last_reported":1687025237,"current_range_meters":12800,"station_id":"ce4bhjp2rcd13ifvqg90","pricing_plan_id":"free"},{"bike_id":"c399ea41-3739-433c-8f2a-ffdd523ae783","system_id":"levelo_inurba_marseille","lat":43.26206,"lon":5.3793,"is_reserved":false,"is_disabled":false,"rental_uris":{"android":"levelo://app?vid=c399ea41-3739-433c-8f2a-ffdd523ae783","ios":"levelo://app?vid=c399ea41-3739-433c-8f2a-ffdd523ae783"},"vehicle_type_id":"4","last_reported":1687025237,"current_range_meters":31200,"station_id":"ce4bhjp2rcd13ifvqg90","pricing_plan_id":"free"},{"bike_id":"1749bd2d-d715-454a-b1cb-929e4fa086ea","system_id":"levelo_inurba_marseille","lat":43.26205,"lon":5.37923,"is_reserved":false,"is_disabled":false,"rental_uris":{"android":"levelo://app?vid=1749bd2d-d715-454a-b1cb-929e4fa086ea","ios":"levelo://app?vid=1749bd2d-d715-454a-b1cb-929e4fa086ea"},"vehicle_type_id":"4","last_reported":1687025237,"current_range_meters":19600,"station_id":"ce4bhjp2rcd13ifvqg90","pricing_plan_id":"free"},{"bike_id":"0c46b4e4-940f-4f8a-bdcc-8b0dcbac7d4d","system_id":"levelo_inurba_marseille","lat":43.26205,"lon":5.37924,"is_reserved":false,"is_disabled":false,"rental_uris":{"android":"levelo://app?vid=0c46b4e4-940f-4f8a-bdcc-8b0dcbac7d4d","ios":"levelo://app?vid=0c46b4e4-940f-4f8a-bdcc-8b0dcbac7d4d"},"vehicle_type_id":"4","last_reported":1687025237,"current_range_meters":31200,"station_id":"ce4bhjp2rcd13ifvqg90","pricing_plan_id":"free"},{"bike_id":"84b9db6e-3ff6-4fc5-9588-de39363ea0a4","system_id":"levelo_inurba_marseille","lat":43.26205,"lon":5.37924,"is_reserved":false,"is_disabled":false,"rental_uris":{"android":"levelo://app?vid=84b9db6e-3ff6-4fc5-9588-de39363ea0a4","ios":"levelo://app?vid=84b9db6e-3ff6-4fc5-9588-de39363ea0a4"},"vehicle_type_id":"4","last_reported":1687025237,"current_range_meters":31200,"station_id":"ce4bhjp2rcd13ifvqg90","pricing_plan_id":"free"},{"bike_id":"4d0f0de9-e360-4980-86a0-e12c39ac1f0a","system_id":"levelo_inurba_marseille","lat":43.26205,"lon":5.37924,"is_reserved":false,"is_disabled":false,"rental_uris":{"android":"levelo://app?vid=4d0f0de9-e360-4980-86a0-e12c39ac1f0a","ios":"levelo://app?vid=4d0f0de9-e360-4980-86a0-e12c39ac1f0a"},"vehicle_type_id":"4","last_reported":1687025237,"current_range_meters":14400,"station_id":"ce4bhjp2rcd13ifvqg90","pricing_plan_id":"free"},{"bike_id":"5746e080-6873-4825-a717-db5f29841bfa","system_id":"levelo_inurba_marseille","lat":43.26205,"lon":5.37925,"is_reserved":false,"is_disabled":false,"rental_uris":{"android":"levelo://app?vid=5746e080-6873-4825-a717-db5f29841bfa","ios":"levelo://app?vid=5746e080-6873-4825-a717-db5f29841bfa"},"vehicle_type_id":"4","last_reported":1687025237,"current_range_meters":30400,"station_id":"ce4bhjp2rcd13ifvqg90","pricing_plan_id":"free"},{"bike_id":"eb82b6b3-daf9-4f09-bed8-2b784cf070fa","system_id":"levelo_inurba_marseille","lat":43.26205,"lon":5.3793,"is_reserved":false,"is_disabled":false,"rental_uris":{"android":"levelo://app?vid=eb82b6b3-daf9-4f09-bed8-2b784cf070fa","ios":"levelo://app?vid=eb82b6b3-daf9-4f09-bed8-2b784cf070fa"},"vehicle_type_id":"4","last_reported":1687025237,"current_range_meters":31200,"station_id":"ce4bhjp2rcd13ifvqg90","pricing_plan_id":"free"},{"bike_id":"e0887469-6e79-43c9-8353-6b09d867f514","system_id":"levelo_inurba_marseille","lat":43.26204,"lon":5.37924,"is_reserved":false,"is_disabled":false,"rental_uris":{"android":"levelo://app?vid=e0887469-6e79-43c9-8353-6b09d867f514","ios":"levelo://app?vid=e0887469-6e79-43c9-8353-6b09d867f514"},"vehicle_type_id":"4","last_reported":1687025237,"current_range_meters":31200,"station_id":"ce4bhjp2rcd13ifvqg90","pricing_plan_id":"free"},{"bike_id":"8073b83a-1805-4797-9622-ee3f14f8f0cf","system_id":"levelo_inurba_marseille","lat":43.26205,"lon":5.37932,"is_reserved":false,"is_disabled":false,"rental_uris":{"android":"levelo://app?vid=8073b83a-1805-4797-9622-ee3f14f8f0cf","ios":"levelo://app?vid=8073b83a-1805-4797-9622-ee3f14f8f0cf"},"vehicle_type_id":"4","last_reported":1687025237,"current_range_meters":22400,"station_id":"ce4bhjp2rcd13ifvqg90","pricing_plan_id":"free"},{"bike_id":"ea24ec08-e563-459b-8966-b31f0841148d","system_id":"levelo_inurba_marseille","lat":43.26204,"lon":5.37926,"is_reserved":false,"is_disabled":false,"rental_uris":{"android":"levelo://app?vid=ea24ec08-e563-459b-8966-b31f0841148d","ios":"levelo://app?vid=ea24ec08-e563-459b-8966-b31f0841148d"},"vehicle_type_id":"4","last_reported":1687025237,"current_range_meters":26000,"station_id":"ce4bhjp2rcd13ifvqg90","pricing_plan_id":"free"},{"bike_id":"1fbcd0e5-2252-4e20-af10-fe84b5942d1d","system_id":"levelo_inurba_marseille","lat":43.26205,"lon":5.379338,"is_reserved":false,"is_disabled":false,"rental_uris":{"android":"levelo://app?vid=1fbcd0e5-2252-4e20-af10-fe84b5942d1d","ios":"levelo://app?vid=1fbcd0e5-2252-4e20-af10-fe84b5942d1d"},"vehicle_type_id":"4","last_reported":1687025237,"current_range_meters":31200,"station_id":"ce4bhjp2rcd13ifvqg90","pricing_plan_id":"free"},{"bike_id":"ab378214-b701-4916-8132-48240331f637","system_id":"levelo_inurba_marseille","lat":43.262012,"lon":5.379307,"is_reserved":false,"is_disabled":false,"rental_uris":{"android":"levelo://app?vid=ab378214-b701-4916-8132-48240331f637","ios":"levelo://app?vid=ab378214-b701-4916-8132-48240331f637"},"vehicle_type_id":"4","last_reported":1687025237,"current_range_meters":12400,"station_id":"ce4bhjp2rcd13ifvqg90","pricing_plan_id":"free"},{"bike_id":"0f32807b-3989-43d0-8336-df89a6bbc3de","system_id":"levelo_inurba_marseille","lat":43.26204,"lon":5.37929,"is_reserved":false,"is_disabled":false,"rental_uris":{"android":"levelo://app?vid=0f32807b-3989-43d0-8336-df89a6bbc3de","ios":"levelo://app?vid=0f32807b-3989-43d0-8336-df89a6bbc3de"},"vehicle_type_id":"4","last_reported":1687025237,"current_range_meters":21600,"station_id":"ce4bhjp2rcd13ifvqg90","pricing_plan_id":"free"},{"bike_id":"3aaaae40-4715-472e-9fb3-833756e6b3c6","system_id":"levelo_inurba_marseille","lat":43.26204,"lon":5.37931,"is_reserved":false,"is_disabled":false,"rental_uris":{"android":"levelo://app?vid=3aaaae40-4715-472e-9fb3-833756e6b3c6","ios":"levelo://app?vid=3aaaae40-4715-472e-9fb3-833756e6b3c6"},"vehicle_type_id":"4","last_reported":1687025237,"current_range_meters":31200,"station_id":"ce4bhjp2rcd13ifvqg90","pricing_plan_id":"free"},{"bike_id":"511de726-445a-48f1-a41c-0b171f4678fa","system_id":"levelo_inurba_marseille","lat":43.262039,"lon":5.379307,"is_reserved":false,"is_disabled":false,"rental_uris":{"android":"levelo://app?vid=511de726-445a-48f1-a41c-0b171f4678fa","ios":"levelo://app?vid=511de726-445a-48f1-a41c-0b171f4678fa"},"vehicle_type_id":"4","last_reported":1687025237,"current_range_meters":31200,"station_id":"ce4bhjp2rcd13ifvqg90","pricing_plan_id":"free"},{"bike_id":"b66ee968-f311-40a9-86d7-6297db3c3882","system_id":"levelo_inurba_marseille","lat":43.262038,"lon":5.379311,"is_reserved":false,"is_disabled":false,"rental_uris":{"android":"levelo://app?vid=b66ee968-f311-40a9-86d7-6297db3c3882","ios":"levelo://app?vid=b66ee968-f311-40a9-86d7-6297db3c3882"},"vehicle_type_id":"4","last_reported":1687025237,"current_range_meters":18000,"station_id":"ce4bhjp2rcd13ifvqg90","pricing_plan_id":"free"},{"bike_id":"7891bf97-4eb1-4cae-8d6e-efdfff2479a5","system_id":"levelo_inurba_marseille","lat":43.26203,"lon":5.37925,"is_reserved":false,"is_disabled":false,"rental_uris":{"android":"levelo://app?vid=7891bf97-4eb1-4cae-8d6e-efdfff2479a5","ios":"levelo://app?vid=7891bf97-4eb1-4cae-8d6e-efdfff2479a5"},"vehicle_type_id":"4","last_reported":1687025237,"current_range_meters":16000,"station_id":"ce4bhjp2rcd13ifvqg90","pricing_plan_id":"free"},{"bike_id":"4306d7f9-bcb9-4e12-876d-b11eeaacd898","system_id":"levelo_inurba_marseille","lat":43.26203,"lon":5.37927,"is_reserved":false,"is_disabled":false,"rental_uris":{"android":"levelo://app?vid=4306d7f9-bcb9-4e12-876d-b11eeaacd898","ios":"levelo://app?vid=4306d7f9-bcb9-4e12-876d-b11eeaacd898"},"vehicle_type_id":"4","last_reported":1687025237,"current_range_meters":18800,"station_id":"ce4bhjp2rcd13ifvqg90","pricing_plan_id":"free"},{"bike_id":"badef50d-2ca5-49b5-81fd-5c6463b43555","system_id":"levelo_inurba_marseille","lat":43.26203,"lon":5.37928,"is_reserved":false,"is_disabled":false,"rental_uris":{"android":"levelo://app?vid=badef50d-2ca5-49b5-81fd-5c6463b43555","ios":"levelo://app?vid=badef50d-2ca5-49b5-81fd-5c6463b43555"},"vehicle_type_id":"4","last_reported":1687025237,"current_range_meters":9200,"station_id":"ce4bhjp2rcd13ifvqg90","pricing_plan_id":"free"},{"bike_id":"e2dc7dfa-610e-4a4e-97f1-c2c501cba8c1","system_id":"levelo_inurba_marseille","lat":43.26202,"lon":5.379299,"is_reserved":false,"is_disabled":false,"rental_uris":{"android":"levelo://app?vid=e2dc7dfa-610e-4a4e-97f1-c2c501cba8c1","ios":"levelo://app?vid=e2dc7dfa-610e-4a4e-97f1-c2c501cba8c1"},"vehicle_type_id":"4","last_reported":1687025237,"current_range_meters":17600,"station_id":"ce4bhjp2rcd13ifvqg90","pricing_plan_id":"free"},{"bike_id":"a979245b-5546-4539-97e4-67e7026c16d8","system_id":"levelo_inurba_marseille","lat":43.26202,"lon":5.37924,"is_reserved":false,"is_disabled":false,"rental_uris":{"android":"levelo://app?vid=a979245b-5546-4539-97e4-67e7026c16d8","ios":"levelo://app?vid=a979245b-5546-4539-97e4-67e7026c16d8"},"vehicle_type_id":"4","last_reported":1687025237,"current_range_meters":29200,"station_id":"ce4bhjp2rcd13ifvqg90","pricing_plan_id":"free"},{"bike_id":"60c9d739-5601-4d3c-8a49-d3d0a470fe73","system_id":"levelo_inurba_marseille","lat":43.262032,"lon":5.379333,"is_reserved":false,"is_disabled":false,"rental_uris":{"android":"levelo://app?vid=60c9d739-5601-4d3c-8a49-d3d0a470fe73","ios":"levelo://app?vid=60c9d739-5601-4d3c-8a49-d3d0a470fe73"},"vehicle_type_id":"4","last_reported":1687025237,"current_range_meters":20400,"station_id":"ce4bhjp2rcd13ifvqg90","pricing_plan_id":"free"},{"bike_id":"7d4c1512-d870-4f23-bf5a-049a1c75566f","system_id":"levelo_inurba_marseille","lat":43.26202,"lon":5.37925,"is_reserved":false,"is_disabled":false,"rental_uris":{"android":"levelo://app?vid=7d4c1512-d870-4f23-bf5a-049a1c75566f","ios":"levelo://app?vid=7d4c1512-d870-4f23-bf5a-049a1c75566f"},"vehicle_type_id":"4","last_reported":1687025237,"current_range_meters":31200,"station_id":"ce4bhjp2rcd13ifvqg90","pricing_plan_id":"free"},{"bike_id":"5235f36c-90e9-47f4-8a63-79e0921267af","system_id":"levelo_inurba_marseille","lat":43.26202,"lon":5.37925,"is_reserved":false,"is_disabled":false,"rental_uris":{"android":"levelo://app?vid=5235f36c-90e9-47f4-8a63-79e0921267af","ios":"levelo://app?vid=5235f36c-90e9-47f4-8a63-79e0921267af"},"vehicle_type_id":"4","last_reported":1687025237,"current_range_meters":8400,"station_id":"ce4bhjp2rcd13ifvqg90","pricing_plan_id":"free"},{"bike_id":"183968b7-243d-42da-8863-0c3973fae87b","system_id":"levelo_inurba_marseille","lat":43.26202,"lon":5.37925,"is_reserved":false,"is_disabled":false,"rental_uris":{"android":"levelo://app?vid=183968b7-243d-42da-8863-0c3973fae87b","ios":"levelo://app?vid=183968b7-243d-42da-8863-0c3973fae87b"},"vehicle_type_id":"4","last_reported":1687025237,"current_range_meters":17600,"station_id":"ce4bhjp2rcd13ifvqg90","pricing_plan_id":"free"},{"bike_id":"350b9ea5-6643-4a3a-b826-0bf340ae4c16","system_id":"levelo_inurba_marseille","lat":43.262028,"lon":5.379313,"is_reserved":false,"is_disabled":false,"rental_uris":{"android":"levelo://app?vid=350b9ea5-6643-4a3a-b826-0bf340ae4c16","ios":"levelo://app?vid=350b9ea5-6643-4a3a-b826-0bf340ae4c16"},"vehicle_type_id":"4","last_reported":1687025237,"current_range_meters":21200,"station_id":"ce4bhjp2rcd13ifvqg90","pricing_plan_id":"free"},{"bike_id":"16a11e78-4085-4ba2-819b-90e36dfaac9d","system_id":"levelo_inurba_marseille","lat":43.26202,"lon":5.37926,"is_reserved":false,"is_disabled":false,"rental_uris":{"android":"levelo://app?vid=16a11e78-4085-4ba2-819b-90e36dfaac9d","ios":"levelo://app?vid=16a11e78-4085-4ba2-819b-90e36dfaac9d"},"vehicle_type_id":"4","last_reported":1687025237,"current_range_meters":31200,"station_id":"ce4bhjp2rcd13ifvqg90","pricing_plan_id":"free"},{"bike_id":"7d293a7c-72d8-4b17-bab4-f4281c7c5610","system_id":"levelo_inurba_marseille","lat":43.26202,"lon":5.37929,"is_reserved":false,"is_disabled":false,"rental_uris":{"android":"levelo://app?vid=7d293a7c-72d8-4b17-bab4-f4281c7c5610","ios":"levelo://app?vid=7d293a7c-72d8-4b17-bab4-f4281c7c5610"},"vehicle_type_id":"4","last_reported":1687025237,"current_range_meters":28400,"station_id":"ce4bhjp2rcd13ifvqg90","pricing_plan_id":"free"},{"bike_id":"3c5b1740-bc31-4744-acf7-44c3afca5eef","system_id":"levelo_inurba_marseille","lat":43.26202,"lon":5.37931,"is_reserved":false,"is_disabled":false,"rental_uris":{"android":"levelo://app?vid=3c5b1740-bc31-4744-acf7-44c3afca5eef","ios":"levelo://app?vid=3c5b1740-bc31-4744-acf7-44c3afca5eef"},"vehicle_type_id":"4","last_reported":1687025237,"current_range_meters":10000,"station_id":"ce4bhjp2rcd13ifvqg90","pricing_plan_id":"free"},{"bike_id":"d5836418-4d7c-4c85-874a-fd3358660958","system_id":"levelo_inurba_marseille","lat":43.26201,"lon":5.37925,"is_reserved":false,"is_disabled":false,"rental_uris":{"android":"levelo://app?vid=d5836418-4d7c-4c85-874a-fd3358660958","ios":"levelo://app?vid=d5836418-4d7c-4c85-874a-fd3358660958"},"vehicle_type_id":"4","last_reported":1687025237,"current_range_meters":29200,"station_id":"ce4bhjp2rcd13ifvqg90","pricing_plan_id":"free"},{"bike_id":"7b97506e-ee8f-4885-a673-6a0a3edbcc6e","system_id":"levelo_inurba_marseille","lat":43.26201,"lon":5.37927,"is_reserved":false,"is_disabled":false,"rental_uris":{"android":"levelo://app?vid=7b97506e-ee8f-4885-a673-6a0a3edbcc6e","ios":"levelo://app?vid=7b97506e-ee8f-4885-a673-6a0a3edbcc6e"},"vehicle_type_id":"4","last_reported":1687025237,"current_range_meters":14400,"station_id":"ce4bhjp2rcd13ifvqg90","pricing_plan_id":"free"},{"bike_id":"655f9f23-a7cb-4ebb-9e58-09bbd6c998ed","system_id":"levelo_inurba_marseille","lat":43.262011,"lon":5.379305,"is_reserved":false,"is_disabled":false,"rental_uris":{"android":"levelo://app?vid=655f9f23-a7cb-4ebb-9e58-09bbd6c998ed","ios":"levelo://app?vid=655f9f23-a7cb-4ebb-9e58-09bbd6c998ed"},"vehicle_type_id":"4","last_reported":1687025237,"current_range_meters":12400,"station_id":"ce4bhjp2rcd13ifvqg90","pricing_plan_id":"free"},{"bike_id":"56e1c853-c0f1-47d6-a0d8-3cde442fadf9","system_id":"levelo_inurba_marseille","lat":43.262,"lon":5.37922,"is_reserved":false,"is_disabled":false,"rental_uris":{"android":"levelo://app?vid=56e1c853-c0f1-47d6-a0d8-3cde442fadf9","ios":"levelo://app?vid=56e1c853-c0f1-47d6-a0d8-3cde442fadf9"},"vehicle_type_id":"4","last_reported":1687025237,"current_range_meters":31200,"station_id":"ce4bhjp2rcd13ifvqg90","pricing_plan_id":"free"},{"bike_id":"703a8786-ddd0-4f61-843e-fadf0bf61061","system_id":"levelo_inurba_marseille","lat":43.26201,"lon":5.3793,"is_reserved":false,"is_disabled":false,"rental_uris":{"android":"levelo://app?vid=703a8786-ddd0-4f61-843e-fadf0bf61061","ios":"levelo://app?vid=703a8786-ddd0-4f61-843e-fadf0bf61061"},"vehicle_type_id":"4","last_reported":1687025237,"current_range_meters":14400,"station_id":"ce4bhjp2rcd13ifvqg90","pricing_plan_id":"free"},{"bike_id":"054cfede-5a42-4d0f-a983-73e96ac2748d","system_id":"levelo_inurba_marseille","lat":43.26202,"lon":5.37939,"is_reserved":false,"is_disabled":false,"rental_uris":{"android":"levelo://app?vid=054cfede-5a42-4d0f-a983-73e96ac2748d","ios":"levelo://app?vid=054cfede-5a42-4d0f-a983-73e96ac2748d"},"vehicle_type_id":"4","last_reported":1687025237,"current_range_meters":17600,"station_id":"ce4bhjp2rcd13ifvqg90","pricing_plan_id":"free"},{"bike_id":"169f9af3-aed2-4fdc-934f-663fee0188f6","system_id":"levelo_inurba_marseille","lat":43.262,"lon":5.37925,"is_reserved":false,"is_disabled":false,"rental_uris":{"android":"levelo://app?vid=169f9af3-aed2-4fdc-934f-663fee0188f6","ios":"levelo://app?vid=169f9af3-aed2-4fdc-934f-663fee0188f6"},"vehicle_type_id":"4","last_reported":1687025237,"current_range_meters":20000,"station_id":"ce4bhjp2rcd13ifvqg90","pricing_plan_id":"free"},{"bike_id":"147de1b6-47ac-4c8a-a576-b040c57c3e49","system_id":"levelo_inurba_marseille","lat":43.262,"lon":5.37928,"is_reserved":false,"is_disabled":false,"rental_uris":{"android":"levelo://app?vid=147de1b6-47ac-4c8a-a576-b040c57c3e49","ios":"levelo://app?vid=147de1b6-47ac-4c8a-a576-b040c57c3e49"},"vehicle_type_id":"4","last_reported":1687025237,"current_range_meters":8800,"station_id":"ce4bhjp2rcd13ifvqg90","pricing_plan_id":"free"},{"bike_id":"2b7dd8e6-5e8b-433f-b78a-c88e67a91e0a","system_id":"levelo_inurba_marseille","lat":43.262,"lon":5.3793,"is_reserved":false,"is_disabled":false,"rental_uris":{"android":"levelo://app?vid=2b7dd8e6-5e8b-433f-b78a-c88e67a91e0a","ios":"levelo://app?vid=2b7dd8e6-5e8b-433f-b78a-c88e67a91e0a"},"vehicle_type_id":"4","last_reported":1687025237,"current_range_meters":22400,"station_id":"ce4bhjp2rcd13ifvqg90","pricing_plan_id":"free"},{"bike_id":"34b78aa5-f66b-433e-848f-3a318f520e7b","system_id":"levelo_inurba_marseille","lat":43.26198,"lon":5.37925,"is_reserved":false,"is_disabled":false,"rental_uris":{"android":"levelo://app?vid=34b78aa5-f66b-433e-848f-3a318f520e7b","ios":"levelo://app?vid=34b78aa5-f66b-433e-848f-3a318f520e7b"},"vehicle_type_id":"4","last_reported":1687025237,"current_range_meters":15200,"station_id":"ce4bhjp2rcd13ifvqg90","pricing_plan_id":"free"},{"bike_id":"a0e19f69-ff46-4cd1-a2b9-64ea9a24cf5d","system_id":"levelo_inurba_marseille","lat":43.26198,"lon":5.37927,"is_reserved":false,"is_disabled":false,"rental_uris":{"android":"levelo://app?vid=a0e19f69-ff46-4cd1-a2b9-64ea9a24cf5d","ios":"levelo://app?vid=a0e19f69-ff46-4cd1-a2b9-64ea9a24cf5d"},"vehicle_type_id":"4","last_reported":1687025237,"current_range_meters":11200,"station_id":"ce4bhjp2rcd13ifvqg90","pricing_plan_id":"free"},{"bike_id":"f64f9c25-ba0f-4934-8b5e-83e02bbd4828","system_id":"levelo_inurba_marseille","lat":43.26198,"lon":5.37929,"is_reserved":false,"is_disabled":false,"rental_uris":{"android":"levelo://app?vid=f64f9c25-ba0f-4934-8b5e-83e02bbd4828","ios":"levelo://app?vid=f64f9c25-ba0f-4934-8b5e-83e02bbd4828"},"vehicle_type_id":"4","last_reported":1687025237,"current_range_meters":31200,"station_id":"ce4bhjp2rcd13ifvqg90","pricing_plan_id":"free"},{"bike_id":"1290350e-c139-492d-bc0a-49bd9a893d1f","system_id":"levelo_inurba_marseille","lat":43.262012,"lon":5.379307,"is_reserved":false,"is_disabled":false,"rental_uris":{"android":"levelo://app?vid=1290350e-c139-492d-bc0a-49bd9a893d1f","ios":"levelo://app?vid=1290350e-c139-492d-bc0a-49bd9a893d1f"},"vehicle_type_id":"4","last_reported":1687025237,"current_range_meters":18800,"station_id":"ce4bhjp2rcd13ifvqg90","pricing_plan_id":"free"},{"bike_id":"df8c5a99-1a8a-4d96-95a6-0abfa7bf3a63","system_id":"levelo_inurba_marseille","lat":43.26198,"lon":5.37932,"is_reserved":false,"is_disabled":false,"rental_uris":{"android":"levelo://app?vid=df8c5a99-1a8a-4d96-95a6-0abfa7bf3a63","ios":"levelo://app?vid=df8c5a99-1a8a-4d96-95a6-0abfa7bf3a63"},"vehicle_type_id":"4","last_reported":1687025237,"current_range_meters":12800,"station_id":"ce4bhjp2rcd13ifvqg90","pricing_plan_id":"free"},{"bike_id":"3ce3f8d5-822f-43c7-b878-d1de4963a2c5","system_id":"levelo_inurba_marseille","lat":43.26198,"lon":5.37935,"is_reserved":false,"is_disabled":false,"rental_uris":{"android":"levelo://app?vid=3ce3f8d5-822f-43c7-b878-d1de4963a2c5","ios":"levelo://app?vid=3ce3f8d5-822f-43c7-b878-d1de4963a2c5"},"vehicle_type_id":"4","last_reported":1687025237,"current_range_meters":31200,"station_id":"ce4bhjp2rcd13ifvqg90","pricing_plan_id":"free"},{"bike_id":"c02d7797-b855-4777-9f2b-f73e85522ec9","system_id":"levelo_inurba_marseille","lat":43.26198,"lon":5.37936,"is_reserved":false,"is_disabled":false,"rental_uris":{"android":"levelo://app?vid=c02d7797-b855-4777-9f2b-f73e85522ec9","ios":"levelo://app?vid=c02d7797-b855-4777-9f2b-f73e85522ec9"},"vehicle_type_id":"4","last_reported":1687025237,"current_range_meters":16800,"station_id":"ce4bhjp2rcd13ifvqg90","pricing_plan_id":"free"},{"bike_id":"255f1d55-73f2-4691-adc3-2cc7cbe003f7","system_id":"levelo_inurba_marseille","lat":43.262012,"lon":5.379307,"is_reserved":false,"is_disabled":false,"rental_uris":{"android":"levelo://app?vid=255f1d55-73f2-4691-adc3-2cc7cbe003f7","ios":"levelo://app?vid=255f1d55-73f2-4691-adc3-2cc7cbe003f7"},"vehicle_type_id":"4","last_reported":1687025237,"current_range_meters":10400,"station_id":"ce4bhjp2rcd13ifvqg90","pricing_plan_id":"free"},{"bike_id":"d7292054-79ef-46c8-b12f-5831db458894","system_id":"levelo_inurba_marseille","lat":43.26196,"lon":5.37928,"is_reserved":false,"is_disabled":false,"rental_uris":{"android":"levelo://app?vid=d7292054-79ef-46c8-b12f-5831db458894","ios":"levelo://app?vid=d7292054-79ef-46c8-b12f-5831db458894"},"vehicle_type_id":"4","last_reported":1687025237,"current_range_meters":0,"station_id":"ce4bhjp2rcd13ifvqg90","pricing_plan_id":"free"},{"bike_id":"5adcf72d-a1a4-4e65-ac2c-0805baf51994","system_id":"levelo_inurba_marseille","lat":43.26196,"lon":5.37929,"is_reserved":false,"is_disabled":false,"rental_uris":{"android":"levelo://app?vid=5adcf72d-a1a4-4e65-ac2c-0805baf51994","ios":"levelo://app?vid=5adcf72d-a1a4-4e65-ac2c-0805baf51994"},"vehicle_type_id":"4","last_reported":1687025237,"current_range_meters":22800,"station_id":"ce4bhjp2rcd13ifvqg90","pricing_plan_id":"free"},{"bike_id":"6e57d335-6dd5-4de1-9798-f96614239d95","system_id":"levelo_inurba_marseille","lat":43.262012,"lon":5.379307,"is_reserved":false,"is_disabled":false,"rental_uris":{"android":"levelo://app?vid=6e57d335-6dd5-4de1-9798-f96614239d95","ios":"levelo://app?vid=6e57d335-6dd5-4de1-9798-f96614239d95"},"vehicle_type_id":"4","last_reported":1687025237,"current_range_meters":22800,"station_id":"ce4bhjp2rcd13ifvqg90","pricing_plan_id":"free"},{"bike_id":"4221ef51-b6f7-48eb-89db-3c2c7f768117","system_id":"levelo_inurba_marseille","lat":43.262012,"lon":5.379307,"is_reserved":false,"is_disabled":false,"rental_uris":{"android":"levelo://app?vid=4221ef51-b6f7-48eb-89db-3c2c7f768117","ios":"levelo://app?vid=4221ef51-b6f7-48eb-89db-3c2c7f768117"},"vehicle_type_id":"4","last_reported":1687025237,"current_range_meters":30800,"station_id":"ce4bhjp2rcd13ifvqg90","pricing_plan_id":"free"},{"bike_id":"03c63a22-5af4-4731-b58c-68faf2f7a292","system_id":"levelo_inurba_marseille","lat":43.26195,"lon":5.37928,"is_reserved":false,"is_disabled":false,"rental_uris":{"android":"levelo://app?vid=03c63a22-5af4-4731-b58c-68faf2f7a292","ios":"levelo://app?vid=03c63a22-5af4-4731-b58c-68faf2f7a292"},"vehicle_type_id":"4","last_reported":1687025237,"current_range_meters":31200,"station_id":"ce4bhjp2rcd13ifvqg90","pricing_plan_id":"free"},{"bike_id":"3ea95aef-f3d6-45aa-b05e-cd91fae7abfc","system_id":"levelo_inurba_marseille","lat":43.26192,"lon":5.37926,"is_reserved":false,"is_disabled":false,"rental_uris":{"android":"levelo://app?vid=3ea95aef-f3d6-45aa-b05e-cd91fae7abfc","ios":"levelo://app?vid=3ea95aef-f3d6-45aa-b05e-cd91fae7abfc"},"vehicle_type_id":"4","last_reported":1687025237,"current_range_meters":31200,"station_id":"ce4bhjp2rcd13ifvqg90","pricing_plan_id":"free"},{"bike_id":"fa11bb5b-8649-4d40-975e-6e9e9ac9a7ee","system_id":"levelo_inurba_marseille","lat":43.26192,"lon":5.37932,"is_reserved":false,"is_disabled":false,"rental_uris":{"android":"levelo://app?vid=fa11bb5b-8649-4d40-975e-6e9e9ac9a7ee","ios":"levelo://app?vid=fa11bb5b-8649-4d40-975e-6e9e9ac9a7ee"},"vehicle_type_id":"4","last_reported":1687025237,"current_range_meters":18800,"station_id":"ce4bhjp2rcd13ifvqg90","pricing_plan_id":"free"},{"bike_id":"ae5b5a5f-dd95-4cea-a066-f58a8cf9b8b1","system_id":"levelo_inurba_marseille","lat":43.267959,"lon":5.402685,"is_reserved":false,"is_disabled":false,"rental_uris":{"android":"levelo://app?vid=ae5b5a5f-dd95-4cea-a066-f58a8cf9b8b1","ios":"levelo://app?vid=ae5b5a5f-dd95-4cea-a066-f58a8cf9b8b1"},"vehicle_type_id":"4","last_reported":1687025237,"current_range_meters":22400,"station_id":"ce501612rcd8frsf0b60","pricing_plan_id":"free"},{"bike_id":"61815ecb-b091-48a9-ad23-13f67bbc74f0","system_id":"levelo_inurba_marseille","lat":43.298768,"lon":5.43643,"is_reserved":false,"is_disabled":false,"rental_uris":{"android":"levelo://app?vid=61815ecb-b091-48a9-ad23-13f67bbc74f0","ios":"levelo://app?vid=61815ecb-b091-48a9-ad23-13f67bbc74f0"},"vehicle_type_id":"4","last_reported":1687025237,"current_range_meters":28000,"station_id":"ce4bhpp2rcd13ifvqhfg","pricing_plan_id":"free"},{"bike_id":"14c9e122-3c23-4a4c-a960-55ef9bf06474","system_id":"levelo_inurba_marseille","lat":43.298768,"lon":5.43643,"is_reserved":false,"is_disabled":false,"rental_uris":{"android":"levelo://app?vid=14c9e122-3c23-4a4c-a960-55ef9bf06474","ios":"levelo://app?vid=14c9e122-3c23-4a4c-a960-55ef9bf06474"},"vehicle_type_id":"4","last_reported":1687025237,"current_range_meters":28800,"station_id":"ce4bhpp2rcd13ifvqhfg","pricing_plan_id":"free"},{"bike_id":"a35e62bc-fd16-4146-a0bd-9f93f5fceea9","system_id":"levelo_inurba_marseille","lat":43.298768,"lon":5.43643,"is_reserved":false,"is_disabled":false,"rental_uris":{"android":"levelo://app?vid=a35e62bc-fd16-4146-a0bd-9f93f5fceea9","ios":"levelo://app?vid=a35e62bc-fd16-4146-a0bd-9f93f5fceea9"},