{"last_updated":1710356787,"ttl":30,"version":"2.2","data":{"bikes":[{"bike_id":"ec729881-af10-4679-8f31-39fc1bec0402","system_id":"levelo_inurba_marseille","lat":43.313391,"lon":5.36706,"is_reserved":false,"is_disabled":false,"rental_uris":{"android":"levelo://app?vid=ec729881-af10-4679-8f31-39fc1bec0402","ios":"levelo://app?vid=ec729881-af10-4679-8f31-39fc1bec0402"},"vehicle_type_id":"4","last_reported":1710356787,"current_range_meters":7600,"station_id":"ce4bgr92rcd13ifvqc6g","pricing_plan_id":"cebpf4jnsgd1na2vs0mg"},{"bike_id":"21758609-cfbd-4a14-9516-c0b87d06adc6","system_id":"levelo_inurba_marseille","lat":43.312239,"lon":5.368562,"is_reserved":false,"is_disabled":false,"rental_uris":{"android":"levelo://app?vid=21758609-cfbd-4a14-9516-c0b87d06adc6","ios":"levelo://app?vid=21758609-cfbd-4a14-9516-c0b87d06adc6"},"vehicle_type_id":"4","last_reported":1710356787,"current_range_meters":14400,"station_id":"ce4bgl92rcd13ifvqbq0","pricing_plan_id":"cebpf4jnsgd1na2vs0mg"},{"bike_id":"a0bfdf29-14e3-4e8c-880a-169574cf7a46","system_id":"levelo_inurba_marseille","lat":43.309039,"lon":5.371797,"is_reserved":false,"is_disabled":false,"rental_uris":{"android":"levelo://app?vid=a0bfdf29-14e3-4e8c-880a-169574cf7a46","ios":"levelo://app?vid=a0bfdf29-14e3-4e8c-880a-169574cf7a46"},"vehicle_type_id":"4","last_reported":1710356787,"current_range_meters":2400,"station_id":"ce4bguh2rcd13ifvqckg","pricing_plan_id":"cebpf4jnsgd1na2vs0mg"},{"bike_id":"11334e20-8368-4993-b1c7-ef2482c59c99","system_id":"levelo_inurba_marseille","lat":43.305714,"lon":5.365633,"is_reserved":false,"is_disabled":false,"rental_uris":{"android":"levelo://app?vid=11334e20-8368-4993-b1c7-ef2482c59c99","ios":"levelo://app?vid=11334e20-8368-4993-b1c7-ef2482c59c99"},"vehicle_type_id":"4","last_reported":1710356787,"current_range_meters":4800,"station_id":"ce4bgs12rcd13ifvqcag","pricing_plan_id":"cebpf4jnsgd1na2vs0mg"},{"bike_id":"0c7da55f-d7a1-4c8f-800d-45f0fdaea2a8","system_id":"levelo_inurba_marseille","lat":43.305368,"lon":5.367343,"is_reserved":false,"is_disabled":false,"rental_uris":{"android":"levelo://app?vid=0c7da55f-d7a1-4c8f-800d-45f0fdaea2a8","ios":"levelo://app?vid=0c7da55f-d7a1-4c8f-800d-45f0fdaea2a8"},"vehicle_type_id":"4","last_reported":1710356787,"current_range_meters":2400,"station_id":"ce4bgrp2rcd13ifvqc9g","pricing_plan_id":"cebpf4jnsgd1na2vs0mg"},{"bike_id":"9692424f-9124-40bc-a162-f0f5d7bdcdb1","system_id":"levelo_inurba_marseille","lat":43.305368,"lon":5.367343,"is_reserved":false,"is_disabled":false,"rental_uris":{"android":"levelo://app?vid=9692424f-9124-40bc-a162-f0f5d7bdcdb1","ios":"levelo://app?vid=9692424f-9124-40bc-a162-f0f5d7bdcdb1"},"vehicle_type_id":"4","last_reported":1710356787,"current_range_meters":20000,"station_id":"ce4bgrp2rcd13ifvqc9g","pricing_plan_id":"cebpf4jnsgd1na2vs0mg"},{"bike_id":"5d01296d-bf58-4a77-8101-a31c0def5329","system_id":"levelo_inurba_marseille","lat":43.305706,"lon":5.365654,"is_reserved":false,"is_disabled":false,"rental_uris":{"android":"levelo://app?vid=5d01296d-bf58-4a77-8101-a31c0def5329","ios":"levelo://app?vid=5d01296d-bf58-4a77-8101-a31c0def5329"},"vehicle_type_id":"4","last_reported":1710356787,"current_range_meters":26400,"station_id":"ce4bgs12rcd13ifvqcag","pricing_plan_id":"cebpf4jnsgd1na2vs0mg"},{"bike_id":"4cf18e0b-27e6-4aae-889d-0fcb50f056f1","system_id":"levelo_inurba_marseille","lat":43.305989,"lon":5.37225,"is_reserved":false,"is_disabled":false,"rental_uris":{"android":"levelo://app?vid=4cf18e0b-27e6-4aae-889d-0fcb50f056f1","ios":"levelo://app?vid=4cf18e0b-27e6-4aae-889d-0fcb50f056f1"},"vehicle_type_id":"4","last_reported":1710356787,"current_range_meters":17600,"station_id":"ce4bgqh2rcd13ifvqc4g","pricing_plan_id":"cebpf4jnsgd1na2vs0mg"},{"bike_id":"fdfe3fda-93ea-4cf4-a2c9-8f53d4ed8c7b","system_id":"levelo_inurba_marseille","lat":43.305989,"lon":5.37225,"is_reserved":false,"is_disabled":false,"rental_uris":{"android":"levelo://app?vid=fdfe3fda-93ea-4cf4-a2c9-8f53d4ed8c7b","ios":"levelo://app?vid=fdfe3fda-93ea-4cf4-a2c9-8f53d4ed8c7b"},"vehicle_type_id":"4","last_reported":1710356787,"current_range_meters":13200,"station_id":"ce4bgqh2rcd13ifvqc4g","pricing_plan_id":"cebpf4jnsgd1na2vs0mg"},{"bike_id":"fbd19d75-62fb-4e54-95ee-8659d38662c2","system_id":"levelo_inurba_marseille","lat":43.305989,"lon":5.37225,"is_reserved":false,"is_disabled":false,"rental_uris":{"android":"levelo://app?vid=fbd19d75-62fb-4e54-95ee-8659d38662c2","ios":"levelo://app?vid=fbd19d75-62fb-4e54-95ee-8659d38662c2"},"vehicle_type_id":"4","last_reported":1710356787,"current_range_meters":9200,"station_id":"ce4bgqh2rcd13ifvqc4g","pricing_plan_id":"cebpf4jnsgd1na2vs0mg"},{"bike_id":"f464ae78-7cc9-4c2a-8f0e-4846f01b2f93","system_id":"levelo_inurba_marseille","lat":43.305989,"lon":5.37225,"is_reserved":false,"is_disabled":false,"rental_uris":{"android":"levelo://app?vid=f464ae78-7cc9-4c2a-8f0e-4846f01b2f93","ios":"levelo://app?vid=f464ae78-7cc9-4c2a-8f0e-4846f01b2f93"},"vehicle_type_id":"4","last_reported":1710356787,"current_range_meters":17600,"station_id":"ce4bgqh2rcd13ifvqc4g","pricing_plan_id":"cebpf4jnsgd1na2vs0mg"},{"bike_id":"7714f54a-3024-4c2f-b025-bd58f0ff3df3","system_id":"levelo_inurba_marseille","lat":43.305989,"lon":5.37225,"is_reserved":false,"is_disabled":false,"rental_uris":{"android":"levelo://app?vid=7714f54a-3024-4c2f-b025-bd58f0ff3df3","ios":"levelo://app?vid=7714f54a-3024-4c2f-b025-bd58f0ff3df3"},"vehicle_type_id":"4","last_reported":1710356787,"current_range_meters":5600,"station_id":"ce4bgqh2rcd13ifvqc4g","pricing_plan_id":"cebpf4jnsgd1na2vs0mg"},{"bike_id":"1943fa1d-b29d-45b6-9242-37e2c1d520fe","system_id":"levelo_inurba_marseille","lat":43.305989,"lon":5.37225,"is_reserved":false,"is_disabled":false,"rental_uris":{"android":"levelo://app?vid=1943fa1d-b29d-45b6-9242-37e2c1d520fe","ios":"levelo://app?vid=1943fa1d-b29d-45b6-9242-37e2c1d520fe"},"vehicle_type_id":"4","last_reported":1710356787,"current_range_meters":0,"station_id":"ce4bgqh2rcd13ifvqc4g","pricing_plan_id":"cebpf4jnsgd1na2vs0mg"},{"bike_id":"4c8183e9-a8d1-4d7a-9731-d27691c4daa1","system_id":"levelo_inurba_marseille","lat":43.305989,"lon":5.37225,"is_reserved":false,"is_disabled":false,"rental_uris":{"android":"levelo://app?vid=4c8183e9-a8d1-4d7a-9731-d27691c4daa1","ios":"levelo://app?vid=4c8183e9-a8d1-4d7a-9731-d27691c4daa1"},"vehicle_type_id":"4","last_reported":1710356787,"current_range_meters":6800,"station_id":"ce4bgqh2rcd13ifvqc4g","pricing_plan_id":"cebpf4jnsgd1na2vs0mg"},{"bike_id":"599e811f-ca31-400b-8069-c64893ef7cf0","system_id":"levelo_inurba_marseille","lat":43.305989,"lon":5.37225,"is_reserved":false,"is_disabled":false,"rental_uris":{"android":"levelo://app?vid=599e811f-ca31-400b-8069-c64893ef7cf0","ios":"levelo://app?vid=599e811f-ca31-400b-8069-c64893ef7cf0"},"vehicle_type_id":"4","last_reported":1710356787,"current_range_meters":9200,"station_id":"ce4bgqh2rcd13ifvqc4g","pricing_plan_id":"cebpf4jnsgd1na2vs0mg"},{"bike_id":"a272e45d-cca6-4608-8f61-add032ace566","system_id":"levelo_inurba_marseille","lat":43.307945,"lon":5.376487,"is_reserved":false,"is_disabled":false,"rental_uris":{"android":"levelo://app?vid=a272e45d-cca6-4608-8f61-add032ace566","ios":"levelo://app?vid=a272e45d-cca6-4608-8f61-add032ace566"},"vehicle_type_id":"4","last_reported":1710356787,"current_range_meters":24400,"station_id":"ce4bgv92rcd13ifvqcq0","pricing_plan_id":"cebpf4jnsgd1na2vs0mg"},{"bike_id":"4c94d40d-5fff-400f-9144-ff8a8a66d899","system_id":"levelo_inurba_marseille","lat":43.307945,"lon":5.376487,"is_reserved":false,"is_disabled":false,"rental_uris":{"android":"levelo://app?vid=4c94d40d-5fff-400f-9144-ff8a8a66d899","ios":"levelo://app?vid=4c94d40d-5fff-400f-9144-ff8a8a66d899"},"vehicle_type_id":"4","last_reported":1710356787,"current_range_meters":14400,"station_id":"ce4bgv92rcd13ifvqcq0","pricing_plan_id":"cebpf4jnsgd1na2vs0mg"},{"bike_id":"6df8a519-a704-46e9-b3eb-42b1fb917e85","system_id":"levelo_inurba_marseille","lat":43.31741,"lon":5.37761,"is_reserved":false,"is_disabled":false,"rental_uris":{"android":"levelo://app?vid=6df8a519-a704-46e9-b3eb-42b1fb917e85","ios":"levelo://app?vid=6df8a519-a704-46e9-b3eb-42b1fb917e85"},"vehicle_type_id":"4","last_reported":1710356787,"current_range_meters":22800,"station_id":"ce4bgth2rcd13ifvqch0","pricing_plan_id":"cebpf4jnsgd1na2vs0mg"},{"bike_id":"2b3bd16d-d37c-4567-a7ce-2130aa82020c","system_id":"levelo_inurba_marseille","lat":43.30312,"lon":5.3689,"is_reserved":false,"is_disabled":false,"rental_uris":{"android":"levelo://app?vid=2b3bd16d-d37c-4567-a7ce-2130aa82020c","ios":"levelo://app?vid=2b3bd16d-d37c-4567-a7ce-2130aa82020c"},"vehicle_type_id":"4","last_reported":1710356787,"current_range_meters":19600,"station_id":"ce4bgqh2rcd13ifvqc5g","pricing_plan_id":"cebpf4jnsgd1na2vs0mg"},{"bike_id":"8e021705-409d-4f46-bf2e-106747d37655","system_id":"levelo_inurba_marseille","lat":43.303046,"lon":5.368981,"is_reserved":false,"is_disabled":false,"rental_uris":{"android":"levelo://app?vid=8e021705-409d-4f46-bf2e-106747d37655","ios":"levelo://app?vid=8e021705-409d-4f46-bf2e-106747d37655"},"vehicle_type_id":"4","last_reported":1710356787,"current_range_meters":5600,"station_id":"ce4bgqh2rcd13ifvqc5g","pricing_plan_id":"cebpf4jnsgd1na2vs0mg"},{"bike_id":"e9c5ec22-61d6-4bc1-b4e8-e42a605cf806","system_id":"levelo_inurba_marseille","lat":43.30304,"lon":5.368987,"is_reserved":false,"is_disabled":false,"rental_uris":{"android":"levelo://app?vid=e9c5ec22-61d6-4bc1-b4e8-e42a605cf806","ios":"levelo://app?vid=e9c5ec22-61d6-4bc1-b4e8-e42a605cf806"},"vehicle_type_id":"4","last_reported":1710356787,"current_range_meters":0,"station_id":"ce4bgqh2rcd13ifvqc5g","pricing_plan_id":"cebpf4jnsgd1na2vs0mg"},{"bike_id":"f5170af3-0869-46f8-aa17-ec87eb1a8cf1","system_id":"levelo_inurba_marseille","lat":43.315293,"lon":5.380349,"is_reserved":false,"is_disabled":false,"rental_uris":{"android":"levelo://app?vid=f5170af3-0869-46f8-aa17-ec87eb1a8cf1","ios":"levelo://app?vid=f5170af3-0869-46f8-aa17-ec87eb1a8cf1"},"vehicle_type_id":"4","last_reported":1710356787,"current_range_meters":4000,"station_id":"ce4bhsp2rcd13ifvqi50","pricing_plan_id":"cebpf4jnsgd1na2vs0mg"},{"bike_id":"53e6a580-4f42-456a-9acc-c0fc760dd98a","system_id":"levelo_inurba_marseille","lat":43.315289,"lon":5.380349,"is_reserved":false,"is_disabled":false,"rental_uris":{"android":"levelo://app?vid=53e6a580-4f42-456a-9acc-c0fc760dd98a","ios":"levelo://app?vid=53e6a580-4f42-456a-9acc-c0fc760dd98a"},"vehicle_type_id":"4","last_reported":1710356787,"current_range_meters":14000,"station_id":"ce4bhsp2rcd13ifvqi50","pricing_plan_id":"cebpf4jnsgd1na2vs0mg"},{"bike_id":"6a72228a-2825-41b9-a3cb-61aa6d088b55","system_id":"levelo_inurba_marseille","lat":43.31527,"lon":5.380367,"is_reserved":false,"is_disabled":false,"rental_uris":{"android":"levelo://app?vid=6a72228a-2825-41b9-a3cb-61aa6d088b55","ios":"levelo://app?vid=6a72228a-2825-41b9-a3cb-61aa6d088b55"},"vehicle_type_id":"4","last_reported":1710356787,"current_range_meters":0,"station_id":"ce4bhsp2rcd13ifvqi50","pricing_plan_id":"cebpf4jnsgd1na2vs0mg"},{"bike_id":"00839011-a3e5-4e19-ba87-59e6e978fb02","system_id":"levelo_inurba_marseille","lat":43.315293,"lon":5.380349,"is_reserved":false,"is_disabled":false,"rental_uris":{"android":"levelo://app?vid=00839011-a3e5-4e19-ba87-59e6e978fb02","ios":"levelo://app?vid=00839011-a3e5-4e19-ba87-59e6e978fb02"},"vehicle_type_id":"4","last_reported":1710356787,"current_range_meters":11600,"station_id":"ce4bhsp2rcd13ifvqi50","pricing_plan_id":"cebpf4jnsgd1na2vs0mg"},{"bike_id":"2f177a10-dff1-4a4e-be87-c3cc9e449d3e","system_id":"levelo_inurba_marseille","lat":43.324771,"lon":5.36557,"is_reserved":false,"is_disabled":false,"rental_uris":{"android":"levelo://app?vid=2f177a10-dff1-4a4e-be87-c3cc9e449d3e","ios":"levelo://app?vid=2f177a10-dff1-4a4e-be87-c3cc9e449d3e"},"vehicle_type_id":"4","last_reported":1710356787,"current_range_meters":2000,"station_id":"ce4bhs12rcd13ifvqhvg","pricing_plan_id":"cebpf4jnsgd1na2vs0mg"},{"bike_id":"49f2117d-bbb1-42e5-80a2-7a881aecf261","system_id":"levelo_inurba_marseille","lat":43.324771,"lon":5.36557,"is_reserved":false,"is_disabled":false,"rental_uris":{"android":"levelo://app?vid=49f2117d-bbb1-42e5-80a2-7a881aecf261","ios":"levelo://app?vid=49f2117d-bbb1-42e5-80a2-7a881aecf261"},"vehicle_type_id":"4","last_reported":1710356787,"current_range_meters":10800,"station_id":"ce4bhs12rcd13ifvqhvg","pricing_plan_id":"cebpf4jnsgd1na2vs0mg"},{"bike_id":"6068d22f-e2ba-4474-ba2e-a9d2f6b84487","system_id":"levelo_inurba_marseille","lat":43.324771,"lon":5.36557,"is_reserved":false,"is_disabled":false,"rental_uris":{"android":"levelo://app?vid=6068d22f-e2ba-4474-ba2e-a9d2f6b84487","ios":"levelo://app?vid=6068d22f-e2ba-4474-ba2e-a9d2f6b84487"},"vehicle_type_id":"4","last_reported":1710356787,"current_range_meters":0,"station_id":"ce4bhs12rcd13ifvqhvg","pricing_plan_id":"cebpf4jnsgd1na2vs0mg"},{"bike_id":"36b9805d-1b04-4ec6-8f80-ae352e34369c","system_id":"levelo_inurba_marseille","lat":43.324771,"lon":5.36557,"is_reserved":false,"is_disabled":false,"rental_uris":{"android":"levelo://app?vid=36b9805d-1b04-4ec6-8f80-ae352e34369c","ios":"levelo://app?vid=36b9805d-1b04-4ec6-8f80-ae352e34369c"},"vehicle_type_id":"4","last_reported":1710356787,"current_range_meters":2000,"station_id":"ce4bhs12rcd13ifvqhvg","pricing_plan_id":"cebpf4jnsgd1na2vs0mg"},{"bike_id":"2cbe4754-8bed-4fb8-ac7d-a2dfa79db6a5","system_id":"levelo_inurba_marseille","lat":43.324768,"lon":5.365718,"is_reserved":false,"is_disabled":false,"rental_uris":{"android":"levelo://app?vid=2cbe4754-8bed-4fb8-ac7d-a2dfa79db6a5","ios":"levelo://app?vid=2cbe4754-8bed-4fb8-ac7d-a2dfa79db6a5"},"vehicle_type_id":"4","last_reported":1710356787,"current_range_meters":6800,"station_id":"ce4bhs12rcd13ifvqhvg","pricing_plan_id":"cebpf4jnsgd1na2vs0mg"},{"bike_id":"ed2f200f-86c1-4eb8-ad3b-d4ae2c5298fd","system_id":"levelo_inurba_marseille","lat":43.324771,"lon":5.36557,"is_reserved":false,"is_disabled":false,"rental_uris":{"android":"levelo://app?vid=ed2f200f-86c1-4eb8-ad3b-d4ae2c5298fd","ios":"levelo://app?vid=ed2f200f-86c1-4eb8-ad3b-d4ae2c5298fd"},"vehicle_type_id":"4","last_reported":1710356787,"current_range_meters":23600,"station_id":"ce4bhs12rcd13ifvqhvg","pricing_plan_id":"cebpf4jnsgd1na2vs0mg"},{"bike_id":"b735f631-99f5-4034-8269-a86a4a969537","system_id":"levelo_inurba_marseille","lat":43.324771,"lon":5.36557,"is_reserved":false,"is_disabled":false,"rental_uris":{"android":"levelo://app?vid=b735f631-99f5-4034-8269-a86a4a969537","ios":"levelo://app?vid=b735f631-99f5-4034-8269-a86a4a969537"},"vehicle_type_id":"4","last_reported":1710356787,"current_range_meters":4400,"station_id":"ce4bhs12rcd13ifvqhvg","pricing_plan_id":"cebpf4jnsgd1na2vs0mg"},{"bike_id":"64568b75-f031-43c1-b864-d2ad6638bde4","system_id":"levelo_inurba_marseille","lat":43.324771,"lon":5.36557,"is_reserved":false,"is_disabled":false,"rental_uris":{"android":"levelo://app?vid=64568b75-f031-43c1-b864-d2ad6638bde4","ios":"levelo://app?vid=64568b75-f031-43c1-b864-d2ad6638bde4"},"vehicle_type_id":"4","last_reported":1710356787,"current_range_meters":4800,"station_id":"ce4bhs12rcd13ifvqhvg","pricing_plan_id":"cebpf4jnsgd1na2vs0mg"},{"bike_id":"69f16bc0-91b1-4cad-91b5-51ae8c8ba203","system_id":"levelo_inurba_marseille","lat":43.32481,"lon":5.36562,"is_reserved":false,"is_disabled":false,"rental_uris":{"android":"levelo://app?vid=69f16bc0-91b1-4cad-91b5-51ae8c8ba203","ios":"levelo://app?vid=69f16bc0-91b1-4cad-91b5-51ae8c8ba203"},"vehicle_type_id":"4","last_reported":1710356787,"current_range_meters":4800,"station_id":"ce4bhs12rcd13ifvqhvg","pricing_plan_id":"cebpf4jnsgd1na2vs0mg"},{"bike_id":"3e493ae2-c51c-41da-a0b8-fbd174ae9e18","system_id":"levelo_inurba_marseille","lat":43.324819,"lon":5.365751,"is_reserved":false,"is_disabled":false,"rental_uris":{"android":"levelo://app?vid=3e493ae2-c51c-41da-a0b8-fbd174ae9e18","ios":"levelo://app?vid=3e493ae2-c51c-41da-a0b8-fbd174ae9e18"},"vehicle_type_id":"4","last_reported":1710356787,"current_range_meters":5200,"station_id":"ce4bhs12rcd13ifvqhvg","pricing_plan_id":"cebpf4jnsgd1na2vs0mg"},{"bike_id":"75737f94-0aac-466c-878e-f5152ecd0234","system_id":"levelo_inurba_marseille","lat":43.324771,"lon":5.36557,"is_reserved":false,"is_disabled":false,"rental_uris":{"android":"levelo://app?vid=75737f94-0aac-466c-878e-f5152ecd0234","ios":"levelo://app?vid=75737f94-0aac-466c-878e-f5152ecd0234"},"vehicle_type_id":"4","last_reported":1710356787,"current_range_meters":2000,"station_id":"ce4bhs12rcd13ifvqhvg","pricing_plan_id":"cebpf4jnsgd1na2vs0mg"},{"bike_id":"cfdb109c-b591-4f11-863b-b5c16f3933fe","system_id":"levelo_inurba_marseille","lat":43.324771,"lon":5.36557,"is_reserved":false,"is_disabled":false,"rental_uris":{"android":"levelo://app?vid=cfdb109c-b591-4f11-863b-b5c16f3933fe","ios":"levelo://app?vid=cfdb109c-b591-4f11-863b-b5c16f3933fe"},"vehicle_type_id":"4","last_reported":1710356787,"current_range_meters":20800,"station_id":"ce4bhs12rcd13ifvqhvg","pricing_plan_id":"cebpf4jnsgd1na2vs0mg"},{"bike_id":"2e3cabf9-3880-4d07-ae3b-af234e57884b","system_id":"levelo_inurba_marseille","lat":43.324771,"lon":5.36557,"is_reserved":false,"is_disabled":false,"rental_uris":{"android":"levelo://app?vid=2e3cabf9-3880-4d07-ae3b-af234e57884b","ios":"levelo://app?vid=2e3cabf9-3880-4d07-ae3b-af234e57884b"},"vehicle_type_id":"4","last_reported":1710356787,"current_range_meters":4400,"station_id":"ce4bhs12rcd13ifvqhvg","pricing_plan_id":"cebpf4jnsgd1na2vs0mg"},{"bike_id":"8af9b710-5399-4794-a493-35bd67a861b9","system_id":"levelo_inurba_marseille","lat":43.310804,"lon":5.38359,"is_reserved":false,"is_disabled":false,"rental_uris":{"android":"levelo://app?vid=8af9b710-5399-4794-a493-35bd67a861b9","ios":"levelo://app?vid=8af9b710-5399-4794-a493-35bd67a861b9"},"vehicle_type_id":"4","last_reported":1710356787,"current_range_meters":22800,"station_id":"ce4bgv92rcd13ifvqcr0","pricing_plan_id":"cebpf4jnsgd1na2vs0mg"},{"bike_id":"80108450-f296-43cc-9cd9-cd48e84285b1","system_id":"levelo_inurba_marseille","lat":43.31077,"lon":5.38357,"is_reserved":false,"is_disabled":false,"rental_uris":{"android":"levelo://app?vid=80108450-f296-43cc-9cd9-cd48e84285b1","ios":"levelo://app?vid=80108450-f296-43cc-9cd9-cd48e84285b1"},"vehicle_type_id":"4","last_reported":1710356787,"current_range_meters":0,"station_id":"ce4bgv92rcd13ifvqcr0","pricing_plan_id":"cebpf4jnsgd1na2vs0mg"},{"bike_id":"8cfff264-df77-48a6-a0f9-4be90410bae9","system_id":"levelo_inurba_marseille","lat":43.314811,"lon":5.373103,"is_reserved":false,"is_disabled":false,"rental_uris":{"android":"levelo://app?vid=8cfff264-df77-48a6-a0f9-4be90410bae9","ios":"levelo://app?vid=8cfff264-df77-48a6-a0f9-4be90410bae9"},"vehicle_type_id":"4","last_reported":1710356787,"current_range_meters":8800,"station_id":"ce4bgt12rcd13ifvqcd0","pricing_plan_id":"cebpf4jnsgd1na2vs0mg"},{"bike_id":"2f771313-be69-4455-8a50-87f1e21ecbb3","system_id":"levelo_inurba_marseille","lat":43.30283,"lon":5.376927,"is_reserved":false,"is_disabled":false,"rental_uris":{"android":"levelo://app?vid=2f771313-be69-4455-8a50-87f1e21ecbb3","ios":"levelo://app?vid=2f771313-be69-4455-8a50-87f1e21ecbb3"},"vehicle_type_id":"4","last_reported":1710356787,"current_range_meters":0,"station_id":"ce4bguh2rcd13ifvqcj0","pricing_plan_id":"cebpf4jnsgd1na2vs0mg"},{"bike_id":"9541ffe8-b8d9-48a2-aab0-324a5580c0b6","system_id":"levelo_inurba_marseille","lat":43.310804,"lon":5.38359,"is_reserved":false,"is_disabled":false,"rental_uris":{"android":"levelo://app?vid=9541ffe8-b8d9-48a2-aab0-324a5580c0b6","ios":"levelo://app?vid=9541ffe8-b8d9-48a2-aab0-324a5580c0b6"},"vehicle_type_id":"4","last_reported":1710356787,"current_range_meters":0,"station_id":"ce4bgv92rcd13ifvqcr0","pricing_plan_id":"cebpf4jnsgd1na2vs0mg"},{"bike_id":"88616b0f-22ff-40b6-a7de-dd99620371c1","system_id":"levelo_inurba_marseille","lat":43.30143,"lon":5.37413,"is_reserved":false,"is_disabled":false,"rental_uris":{"android":"levelo://app?vid=88616b0f-22ff-40b6-a7de-dd99620371c1","ios":"levelo://app?vid=88616b0f-22ff-40b6-a7de-dd99620371c1"},"vehicle_type_id":"4","last_reported":1710356787,"current_range_meters":9200,"station_id":"ce4bgs92rcd13ifvqcc0","pricing_plan_id":"cebpf4jnsgd1na2vs0mg"},{"bike_id":"744a4c02-d5bd-48cd-bbf4-4bf0746c2f35","system_id":"levelo_inurba_marseille","lat":43.30143,"lon":5.37413,"is_reserved":false,"is_disabled":false,"rental_uris":{"android":"levelo://app?vid=744a4c02-d5bd-48cd-bbf4-4bf0746c2f35","ios":"levelo://app?vid=744a4c02-d5bd-48cd-bbf4-4bf0746c2f35"},"vehicle_type_id":"4","last_reported":1710356787,"current_range_meters":14000,"station_id":"ce4bgs92rcd13ifvqcc0","pricing_plan_id":"cebpf4jnsgd1na2vs0mg"},{"bike_id":"e7c93da9-e6b6-46d6-ac3f-6aac89369d66","system_id":"levelo_inurba_marseille","lat":43.301429,"lon":5.37413,"is_reserved":false,"is_disabled":false,"rental_uris":{"android":"levelo://app?vid=e7c93da9-e6b6-46d6-ac3f-6aac89369d66","ios":"levelo://app?vid=e7c93da9-e6b6-46d6-ac3f-6aac89369d66"},"vehicle_type_id":"4","last_reported":1710356787,"current_range_meters":800,"station_id":"ce4bgs92rcd13ifvqcc0","pricing_plan_id":"cebpf4jnsgd1na2vs0mg"},{"bike_id":"7fc755de-a946-48b2-8613-f75e52757226","system_id":"levelo_inurba_marseille","lat":43.30143,"lon":5.37413,"is_reserved":false,"is_disabled":false,"rental_uris":{"android":"levelo://app?vid=7fc755de-a946-48b2-8613-f75e52757226","ios":"levelo://app?vid=7fc755de-a946-48b2-8613-f75e52757226"},"vehicle_type_id":"4","last_reported":1710356787,"current_range_meters":0,"station_id":"ce4bgs92rcd13ifvqcc0","pricing_plan_id":"cebpf4jnsgd1na2vs0mg"},{"bike_id":"488ae560-17ff-4230-a174-3863eb9b4e68","system_id":"levelo_inurba_marseille","lat":43.301429,"lon":5.37413,"is_reserved":false,"is_disabled":false,"rental_uris":{"android":"levelo://app?vid=488ae560-17ff-4230-a174-3863eb9b4e68","ios":"levelo://app?vid=488ae560-17ff-4230-a174-3863eb9b4e68"},"vehicle_type_id":"4","last_reported":1710356787,"current_range_meters":10000,"station_id":"ce4bgs92rcd13ifvqcc0","pricing_plan_id":"cebpf4jnsgd1na2vs0mg"},{"bike_id":"057221b1-1b0d-4685-8564-80af51651ade","system_id":"levelo_inurba_marseille","lat":43.319935,"lon":5.381699,"is_reserved":false,"is_disabled":false,"rental_uris":{"android":"levelo://app?vid=057221b1-1b0d-4685-8564-80af51651ade","ios":"levelo://app?vid=057221b1-1b0d-4685-8564-80af51651ade"},"vehicle_type_id":"4","last_reported":1710356787,"current_range_meters":11200,"station_id":"ce4bhr12rcd13ifvqhpg","pricing_plan_id":"cebpf4jnsgd1na2vs0mg"},{"bike_id":"7d36ac95-87f1-4d6c-b68b-8931e166b0b5","system_id":"levelo_inurba_marseille","lat":43.319935,"lon":5.381699,"is_reserved":false,"is_disabled":false,"rental_uris":{"android":"levelo://app?vid=7d36ac95-87f1-4d6c-b68b-8931e166b0b5","ios":"levelo://app?vid=7d36ac95-87f1-4d6c-b68b-8931e166b0b5"},"vehicle_type_id":"4","last_reported":1710356787,"current_range_meters":19200,"station_id":"ce4bhr12rcd13ifvqhpg","pricing_plan_id":"cebpf4jnsgd1na2vs0mg"},{"bike_id":"0e69524c-e611-4671-8b2f-e073593ad256","system_id":"levelo_inurba_marseille","lat":43.319935,"lon":5.381699,"is_reserved":false,"is_disabled":false,"rental_uris":{"android":"levelo://app?vid=0e69524c-e611-4671-8b2f-e073593ad256","ios":"levelo://app?vid=0e69524c-e611-4671-8b2f-e073593ad256"},"vehicle_type_id":"4","last_reported":1710356787,"current_range_meters":30000,"station_id":"ce4bhr12rcd13ifvqhpg","pricing_plan_id":"cebpf4jnsgd1na2vs0mg"},{"bike_id":"ceb14724-9318-4a41-b333-c341bb4f50ad","system_id":"levelo_inurba_marseille","lat":43.319935,"lon":5.381699,"is_reserved":false,"is_disabled":false,"rental_uris":{"android":"levelo://app?vid=ceb14724-9318-4a41-b333-c341bb4f50ad","ios":"levelo://app?vid=ceb14724-9318-4a41-b333-c341bb4f50ad"},"vehicle_type_id":"4","last_reported":1710356787,"current_range_meters":4000,"station_id":"ce4bhr12rcd13ifvqhpg","pricing_plan_id":"cebpf4jnsgd1na2vs0mg"},{"bike_id":"e5135d9e-cace-4405-af75-7c28b6d5f2af","system_id":"levelo_inurba_marseille","lat":43.319935,"lon":5.381699,"is_reserved":false,"is_disabled":false,"rental_uris":{"android":"levelo://app?vid=e5135d9e-cace-4405-af75-7c28b6d5f2af","ios":"levelo://app?vid=e5135d9e-cace-4405-af75-7c28b6d5f2af"},"vehicle_type_id":"4","last_reported":1710356787,"current_range_meters":14400,"station_id":"ce4bhr12rcd13ifvqhpg","pricing_plan_id":"cebpf4jnsgd1na2vs0mg"},{"bike_id":"108d0463-7484-49b1-90df-fc408c569a32","system_id":"levelo_inurba_marseille","lat":43.32,"lon":5.38158,"is_reserved":false,"is_disabled":false,"rental_uris":{"android":"levelo://app?vid=108d0463-7484-49b1-90df-fc408c569a32","ios":"levelo://app?vid=108d0463-7484-49b1-90df-fc408c569a32"},"vehicle_type_id":"4","last_reported":1710356787,"current_range_meters":0,"station_id":"ce4bhr12rcd13ifvqhpg","pricing_plan_id":"cebpf4jnsgd1na2vs0mg"},{"bike_id":"5f3c95b2-6ced-4bfc-bc25-cab3f7cf72ec","system_id":"levelo_inurba_marseille","lat":43.319971,"lon":5.38162,"is_reserved":false,"is_disabled":false,"rental_uris":{"android":"levelo://app?vid=5f3c95b2-6ced-4bfc-bc25-cab3f7cf72ec","ios":"levelo://app?vid=5f3c95b2-6ced-4bfc-bc25-cab3f7cf72ec"},"vehicle_type_id":"4","last_reported":1710356787,"current_range_meters":2400,"station_id":"ce4bhr12rcd13ifvqhpg","pricing_plan_id":"cebpf4jnsgd1na2vs0mg"},{"bike_id":"1dcc8183-b7cf-4237-af50-833418ba40b6","system_id":"levelo_inurba_marseille","lat":43.319935,"lon":5.381699,"is_reserved":false,"is_disabled":false,"rental_uris":{"android":"levelo://app?vid=1dcc8183-b7cf-4237-af50-833418ba40b6","ios":"levelo://app?vid=1dcc8183-b7cf-4237-af50-833418ba40b6"},"vehicle_type_id":"4","last_reported":1710356787,"current_range_meters":2000,"station_id":"ce4bhr12rcd13ifvqhpg","pricing_plan_id":"cebpf4jnsgd1na2vs0mg"},{"bike_id":"fe77eb21-8e10-4eda-bbb2-e6d095401449","system_id":"levelo_inurba_marseille","lat":43.301429,"lon":5.37413,"is_reserved":false,"is_disabled":false,"rental_uris":{"android":"levelo://app?vid=fe77eb21-8e10-4eda-bbb2-e6d095401449","ios":"levelo://app?vid=fe77eb21-8e10-4eda-bbb2-e6d095401449"},"vehicle_type_id":"4","last_reported":1710356787,"current_range_meters":2800,"station_id":"ce4bgs92rcd13ifvqcc0","pricing_plan_id":"cebpf4jnsgd1na2vs0mg"},{"bike_id":"8f31c532-dc42-48e0-893f-3b6c2fa61454","system_id":"levelo_inurba_marseille","lat":43.319935,"lon":5.381699,"is_reserved":false,"is_disabled":false,"rental_uris":{"android":"levelo://app?vid=8f31c532-dc42-48e0-893f-3b6c2fa61454","ios":"levelo://app?vid=8f31c532-dc42-48e0-893f-3b6c2fa61454"},"vehicle_type_id":"4","last_reported":1710356787,"current_range_meters":20400,"station_id":"ce4bhr12rcd13ifvqhpg","pricing_plan_id":"cebpf4jnsgd1na2vs0mg"},{"bike_id":"6f5134f5-1bdc-44fd-81d6-314bb0e3cf57","system_id":"levelo_inurba_marseille","lat":43.319935,"lon":5.381699,"is_reserved":false,"is_disabled":false,"rental_uris":{"android":"levelo://app?vid=6f5134f5-1bdc-44fd-81d6-314bb0e3cf57","ios":"levelo://app?vid=6f5134f5-1bdc-44fd-81d6-314bb0e3cf57"},"vehicle_type_id":"4","last_reported":1710356787,"current_range_meters":16800,"station_id":"ce4bhr12rcd13ifvqhpg","pricing_plan_id":"cebpf4jnsgd1na2vs0mg"},{"bike_id":"f306f823-5227-4e4b-92a6-57fa31e85760","system_id":"levelo_inurba_marseille","lat":43.313571,"lon":5.384829,"is_reserved":false,"is_disabled":false,"rental_uris":{"android":"levelo://app?vid=f306f823-5227-4e4b-92a6-57fa31e85760","ios":"levelo://app?vid=f306f823-5227-4e4b-92a6-57fa31e85760"},"vehicle_type_id":"4","last_reported":1710356787,"current_range_meters":25200,"station_id":"ce4bgt92rcd13ifvqcf0","pricing_plan_id":"cebpf4jnsgd1na2vs0mg"},{"bike_id":"099d23ad-be54-4cf4-9e61-054a0c71650b","system_id":"levelo_inurba_marseille","lat":43.313571,"lon":5.384829,"is_reserved":false,"is_disabled":false,"rental_uris":{"android":"levelo://app?vid=099d23ad-be54-4cf4-9e61-054a0c71650b","ios":"levelo://app?vid=099d23ad-be54-4cf4-9e61-054a0c71650b"},"vehicle_type_id":"4","last_reported":1710356787,"current_range_meters":0,"station_id":"ce4bgt92rcd13ifvqcf0","pricing_plan_id":"cebpf4jnsgd1na2vs0mg"},{"bike_id":"9288e36e-6ef9-4409-b291-520d763b11d1","system_id":"levelo_inurba_marseille","lat":43.313571,"lon":5.384829,"is_reserved":false,"is_disabled":false,"rental_uris":{"android":"levelo://app?vid=9288e36e-6ef9-4409-b291-520d763b11d1","ios":"levelo://app?vid=9288e36e-6ef9-4409-b291-520d763b11d1"},"vehicle_type_id":"4","last_reported":1710356787,"current_range_meters":8000,"station_id":"ce4bgt92rcd13ifvqcf0","pricing_plan_id":"cebpf4jnsgd1na2vs0mg"},{"bike_id":"22a31495-ed0d-4908-8785-53ce78895634","system_id":"levelo_inurba_marseille","lat":43.313571,"lon":5.384829,"is_reserved":false,"is_disabled":false,"rental_uris":{"android":"levelo://app?vid=22a31495-ed0d-4908-8785-53ce78895634","ios":"levelo://app?vid=22a31495-ed0d-4908-8785-53ce78895634"},"vehicle_type_id":"4","last_reported":1710356787,"current_range_meters":18000,"station_id":"ce4bgt92rcd13ifvqcf0","pricing_plan_id":"cebpf4jnsgd1na2vs0mg"},{"bike_id":"a117e53a-97dc-4840-a3bd-bc677909118b","system_id":"levelo_inurba_marseille","lat":43.313571,"lon":5.384829,"is_reserved":false,"is_disabled":false,"rental_uris":{"android":"levelo://app?vid=a117e53a-97dc-4840-a3bd-bc677909118b","ios":"levelo://app?vid=a117e53a-97dc-4840-a3bd-bc677909118b"},"vehicle_type_id":"4","last_reported":1710356787,"current_range_meters":0,"station_id":"ce4bgt92rcd13ifvqcf0","pricing_plan_id":"cebpf4jnsgd1na2vs0mg"},{"bike_id":"14f68307-ebf5-481d-b0ef-714105a0dc68","system_id":"levelo_inurba_marseille","lat":43.313571,"lon":5.384829,"is_reserved":false,"is_disabled":false,"rental_uris":{"android":"levelo://app?vid=14f68307-ebf5-481d-b0ef-714105a0dc68","ios":"levelo://app?vid=14f68307-ebf5-481d-b0ef-714105a0dc68"},"vehicle_type_id":"4","last_reported":1710356787,"current_range_meters":0,"station_id":"ce4bgt92rcd13ifvqcf0","pricing_plan_id":"cebpf4jnsgd1na2vs0mg"},{"bike_id":"d599bc67-653d-493a-863d-16905d6a4351","system_id":"levelo_inurba_marseille","lat":43.313571,"lon":5.384829,"is_reserved":false,"is_disabled":false,"rental_uris":{"android":"levelo://app?vid=d599bc67-653d-493a-863d-16905d6a4351","ios":"levelo://app?vid=d599bc67-653d-493a-863d-16905d6a4351"},"vehicle_type_id":"4","last_reported":1710356787,"current_range_meters":17200,"station_id":"ce4bgt92rcd13ifvqcf0","pricing_plan_id":"cebpf4jnsgd1na2vs0mg"},{"bike_id":"c7ea4a6c-c82b-47fc-a162-f3369bc62198","system_id":"levelo_inurba_marseille","lat":43.299222,"lon":5.365554,"is_reserved":false,"is_disabled":false,"rental_uris":{"android":"levelo://app?vid=c7ea4a6c-c82b-47fc-a162-f3369bc62198","ios":"levelo://app?vid=c7ea4a6c-c82b-47fc-a162-f3369bc62198"},"vehicle_type_id":"4","last_reported":1710356787,"current_range_meters":0,"station_id":"ce4bgm92rcd13ifvqbr0","pricing_plan_id":"cebpf4jnsgd1na2vs0mg"},{"bike_id":"727266ee-550f-403a-a82e-5f3a8cc9ef94","system_id":"levelo_inurba_marseille","lat":43.309363,"lon":5.385127,"is_reserved":false,"is_disabled":false,"rental_uris":{"android":"levelo://app?vid=727266ee-550f-403a-a82e-5f3a8cc9ef94","ios":"levelo://app?vid=727266ee-550f-403a-a82e-5f3a8cc9ef94"},"vehicle_type_id":"4","last_reported":1710356787,"current_range_meters":6000,"station_id":"","pricing_plan_id":"cebpf4jnsgd1na2vs0mg"},{"bike_id":"02e36adc-264a-44cf-b731-c3f62c2d7a92","system_id":"levelo_inurba_marseille","lat":43.311574,"lon":5.386814,"is_reserved":false,"is_disabled":false,"rental_uris":{"android":"levelo://app?vid=02e36adc-264a-44cf-b731-c3f62c2d7a92","ios":"levelo://app?vid=02e36adc-264a-44cf-b731-c3f62c2d7a92"},"vehicle_type_id":"4","last_reported":1710356787,"current_range_meters":10800,"station_id":"ce4bgv12rcd13ifvqcp0","pricing_plan_id":"cebpf4jnsgd1na2vs0mg"},{"bike_id":"238b3a53-34b2-4713-bd88-2382707e7a70","system_id":"levelo_inurba_marseille","lat":43.305525,"lon":5.384325,"is_reserved":false,"is_disabled":false,"rental_uris":{"android":"levelo://app?vid=238b3a53-34b2-4713-bd88-2382707e7a70","ios":"levelo://app?vid=238b3a53-34b2-4713-bd88-2382707e7a70"},"vehicle_type_id":"4","last_reported":1710356787,"current_range_meters":22000,"station_id":"ce4bgg92rcd13ifvqb30","pricing_plan_id":"cebpf4jnsgd1na2vs0mg"},{"bike_id":"8a83da41-3cfd-4396-bf0d-a4a217cf5d98","system_id":"levelo_inurba_marseille","lat":43.326232,"lon":5.374741,"is_reserved":false,"is_disabled":false,"rental_uris":{"android":"levelo://app?vid=8a83da41-3cfd-4396-bf0d-a4a217cf5d98","ios":"levelo://app?vid=8a83da41-3cfd-4396-bf0d-a4a217cf5d98"},"vehicle_type_id":"4","last_reported":1710356787,"current_range_meters":23200,"station_id":"","pricing_plan_id":"cebpf4jnsgd1na2vs0mg"},{"bike_id":"8235509b-3a35-4fb3-ae57-1f5d241a66c0","system_id":"levelo_inurba_marseille","lat":43.299243,"lon":5.37481,"is_reserved":false,"is_disabled":false,"rental_uris":{"android":"levelo://app?vid=8235509b-3a35-4fb3-ae57-1f5d241a66c0","ios":"levelo://app?vid=8235509b-3a35-4fb3-ae57-1f5d241a66c0"},"vehicle_type_id":"4","last_reported":1710356787,"current_range_meters":2000,"station_id":"ce4bgjh2rcd13ifvqbg0","pricing_plan_id":"cebpf4jnsgd1na2vs0mg"},{"bike_id":"442dc61c-05bd-4cd2-9018-25ca9bc628ff","system_id":"levelo_inurba_marseille","lat":43.31182,"lon":5.38712,"is_reserved":false,"is_disabled":false,"rental_uris":{"android":"levelo://app?vid=442dc61c-05bd-4cd2-9018-25ca9bc628ff","ios":"levelo://app?vid=442dc61c-05bd-4cd2-9018-25ca9bc628ff"},"vehicle_type_id":"4","last_reported":1710356787,"current_range_meters":0,"station_id":"ce4bgv12rcd13ifvqcp0","pricing_plan_id":"cebpf4jnsgd1na2vs0mg"},{"bike_id":"23e2a4a7-70b0-4f8f-b503-48f31cdde535","system_id":"levelo_inurba_marseille","lat":43.311722,"lon":5.387247,"is_reserved":false,"is_disabled":false,"rental_uris":{"android":"levelo://app?vid=23e2a4a7-70b0-4f8f-b503-48f31cdde535","ios":"levelo://app?vid=23e2a4a7-70b0-4f8f-b503-48f31cdde535"},"vehicle_type_id":"4","last_reported":1710356787,"current_range_meters":2400,"station_id":"ce4bgv12rcd13ifvqcp0","pricing_plan_id":"cebpf4jnsgd1na2vs0mg"},{"bike_id":"a6148dc8-06a7-4205-865e-96dfde7b6668","system_id":"levelo_inurba_marseille","lat":43.32291,"lon":5.38254,"is_reserved":false,"is_disabled":false,"rental_uris":{"android":"levelo://app?vid=a6148dc8-06a7-4205-865e-96dfde7b6668","ios":"levelo://app?vid=a6148dc8-06a7-4205-865e-96dfde7b6668"},"vehicle_type_id":"4","last_reported":1710356787,"current_range_meters":0,"station_id":"ce4bhr12rcd13ifvqhqg","pricing_plan_id":"cebpf4jnsgd1na2vs0mg"},{"bike_id":"e17f286e-276a-477a-ad66-3e999f055e4c","system_id":"levelo_inurba_marseille","lat":43.32285,"lon":5.38262,"is_reserved":false,"is_disabled":false,"rental_uris":{"android":"levelo://app?vid=e17f286e-276a-477a-ad66-3e999f055e4c","ios":"levelo://app?vid=e17f286e-276a-477a-ad66-3e999f055e4c"},"vehicle_type_id":"4","last_reported":1710356787,"current_range_meters":27200,"station_id":"ce4bhr12rcd13ifvqhqg","pricing_plan_id":"cebpf4jnsgd1na2vs0mg"},{"bike_id":"f2491452-d17d-4fd1-b87c-31e465894cd3","system_id":"levelo_inurba_marseille","lat":43.32288,"lon":5.38263,"is_reserved":false,"is_disabled":false,"rental_uris":{"android":"levelo://app?vid=f2491452-d17d-4fd1-b87c-31e465894cd3","ios":"levelo://app?vid=f2491452-d17d-4fd1-b87c-31e465894cd3"},"vehicle_type_id":"4","last_reported":1710356787,"current_range_meters":10800,"station_id":"ce4bhr12rcd13ifvqhqg","pricing_plan_id":"cebpf4jnsgd1na2vs0mg"},{"bike_id":"a1ea46c0-4921-4767-a801-a177044432f3","system_id":"levelo_inurba_marseille","lat":43.322872,"lon":5.382756,"is_reserved":false,"is_disabled":false,"rental_uris":{"android":"levelo://app?vid=a1ea46c0-4921-4767-a801-a177044432f3","ios":"levelo://app?vid=a1ea46c0-4921-4767-a801-a177044432f3"},"vehicle_type_id":"4","last_reported":1710356787,"current_range_meters":31200,"station_id":"ce4bhr12rcd13ifvqhqg","pricing_plan_id":"cebpf4jnsgd1na2vs0mg"},{"bike_id":"3ff125a5-dff1-4591-b6cc-449dc2424878","system_id":"levelo_inurba_marseille","lat":43.322872,"lon":5.382756,"is_reserved":false,"is_disabled":false,"rental_uris":{"android":"levelo://app?vid=3ff125a5-dff1-4591-b6cc-449dc2424878","ios":"levelo://app?vid=3ff125a5-dff1-4591-b6cc-449dc2424878"},"vehicle_type_id":"4","last_reported":1710356787,"current_range_meters":23200,"station_id":"ce4bhr12rcd13ifvqhqg","pricing_plan_id":"cebpf4jnsgd1na2vs0mg"},{"bike_id":"eaf5350b-08e3-4231-8a58-3cf3fba26ee0","system_id":"levelo_inurba_marseille","lat":43.32288,"lon":5.38268,"is_reserved":false,"is_disabled":false,"rental_uris":{"android":"levelo://app?vid=eaf5350b-08e3-4231-8a58-3cf3fba26ee0","ios":"levelo://app?vid=eaf5350b-08e3-4231-8a58-3cf3fba26ee0"},"vehicle_type_id":"4","last_reported":1710356787,"current_range_meters":28400,"station_id":"ce4bhr12rcd13ifvqhqg","pricing_plan_id":"cebpf4jnsgd1na2vs0mg"},{"bike_id":"36727d06-0af4-4c64-88de-4193d3d2494b","system_id":"levelo_inurba_marseille","lat":43.322872,"lon":5.382756,"is_reserved":false,"is_disabled":false,"rental_uris":{"android":"levelo://app?vid=36727d06-0af4-4c64-88de-4193d3d2494b","ios":"levelo://app?vid=36727d06-0af4-4c64-88de-4193d3d2494b"},"vehicle_type_id":"4","last_reported":1710356787,"current_range_meters":20800,"station_id":"ce4bhr12rcd13ifvqhqg","pricing_plan_id":"cebpf4jnsgd1na2vs0mg"},{"bike_id":"f548446b-7df9-499c-a458-49720886bca1","system_id":"levelo_inurba_marseille","lat":43.322872,"lon":5.382756,"is_reserved":false,"is_disabled":false,"rental_uris":{"android":"levelo://app?vid=f548446b-7df9-499c-a458-49720886bca1","ios":"levelo://app?vid=f548446b-7df9-499c-a458-49720886bca1"},"vehicle_type_id":"4","last_reported":1710356787,"current_range_meters":400,"station_id":"ce4bhr12rcd13ifvqhqg","pricing_plan_id":"cebpf4jnsgd1na2vs0mg"},{"bike_id":"9d0d2793-67b4-4e0d-9337-f818dc6311ea","system_id":"levelo_inurba_marseille","lat":43.322872,"lon":5.382756,"is_reserved":false,"is_disabled":false,"rental_uris":{"android":"levelo://app?vid=9d0d2793-67b4-4e0d-9337-f818dc6311ea","ios":"levelo://app?vid=9d0d2793-67b4-4e0d-9337-f818dc6311ea"},"vehicle_type_id":"4","last_reported":1710356787,"current_range_meters":18800,"station_id":"ce4bhr12rcd13ifvqhqg","pricing_plan_id":"cebpf4jnsgd1na2vs0mg"},{"bike_id":"e2f24066-a9da-4ac3-9953-f3c0e9a735d9","system_id":"levelo_inurba_marseille","lat":43.32292,"lon":5.38265,"is_reserved":false,"is_disabled":false,"rental_uris":{"android":"levelo://app?vid=e2f24066-a9da-4ac3-9953-f3c0e9a735d9","ios":"levelo://app?vid=e2f24066-a9da-4ac3-9953-f3c0e9a735d9"},"vehicle_type_id":"4","last_reported":1710356787,"current_range_meters":9600,"station_id":"ce4bhr12rcd13ifvqhqg","pricing_plan_id":"cebpf4jnsgd1na2vs0mg"},{"bike_id":"7d711117-8f24-4ca5-af35-2d207110a750","system_id":"levelo_inurba_marseille","lat":43.322872,"lon":5.382756,"is_reserved":false,"is_disabled":false,"rental_uris":{"android":"levelo://app?vid=7d711117-8f24-4ca5-af35-2d207110a750","ios":"levelo://app?vid=7d711117-8f24-4ca5-af35-2d207110a750"},"vehicle_type_id":"4","last_reported":1710356787,"current_range_meters":31200,"station_id":"ce4bhr12rcd13ifvqhqg","pricing_plan_id":"cebpf4jnsgd1na2vs0mg"},{"bike_id":"026c7ff0-2158-432c-a208-7b1b8a8d6e19","system_id":"levelo_inurba_marseille","lat":43.322872,"lon":5.382756,"is_reserved":false,"is_disabled":false,"rental_uris":{"android":"levelo://app?vid=026c7ff0-2158-432c-a208-7b1b8a8d6e19","ios":"levelo://app?vid=026c7ff0-2158-432c-a208-7b1b8a8d6e19"},"vehicle_type_id":"4","last_reported":1710356787,"current_range_meters":18800,"station_id":"ce4bhr12rcd13ifvqhqg","pricing_plan_id":"cebpf4jnsgd1na2vs0mg"},{"bike_id":"3abca3f8-73a4-4a83-9f7a-e9df11291bf3","system_id":"levelo_inurba_marseille","lat":43.322872,"lon":5.382756,"is_reserved":false,"is_disabled":false,"rental_uris":{"android":"levelo://app?vid=3abca3f8-73a4-4a83-9f7a-e9df11291bf3","ios":"levelo://app?vid=3abca3f8-73a4-4a83-9f7a-e9df11291bf3"},"vehicle_type_id":"4","last_reported":1710356787,"current_range_meters":30400,"station_id":"ce4bhr12rcd13ifvqhqg","pricing_plan_id":"cebpf4jnsgd1na2vs0mg"},{"bike_id":"ae98be3a-bbc8-47f3-ae6d-e18bd6dd4df7","system_id":"levelo_inurba_marseille","lat":43.297163,"lon":5.365866,"is_reserved":false,"is_disabled":false,"rental_uris":{"android":"levelo://app?vid=ae98be3a-bbc8-47f3-ae6d-e18bd6dd4df7","ios":"levelo://app?vid=ae98be3a-bbc8-47f3-ae6d-e18bd6dd4df7"},"vehicle_type_id":"4","last_reported":1710356787,"current_range_meters":0,"station_id":"ce4bgn12rcd13ifvqbt0","pricing_plan_id":"cebpf4jnsgd1na2vs0mg"},{"bike_id":"118afa9f-7f73-417a-8201-d7b53eb7763e","system_id":"levelo_inurba_marseille","lat":43.297163,"lon":5.365866,"is_reserved":false,"is_disabled":false,"rental_uris":{"android":"levelo://app?vid=118afa9f-7f73-417a-8201-d7b53eb7763e","ios":"levelo://app?vid=118afa9f-7f73-417a-8201-d7b53eb7763e"},"vehicle_type_id":"4","last_reported":1710356787,"current_range_meters":28400,"station_id":"ce4bgn12rcd13ifvqbt0","pricing_plan_id":"cebpf4jnsgd1na2vs0mg"},{"bike_id":"2d7b2839-5d60-489d-a0b0-69cf4aaf9424","system_id":"levelo_inurba_marseille","lat":43.32161,"lon":5.38567,"is_reserved":false,"is_disabled":false,"rental_uris":{"android":"levelo://app?vid=2d7b2839-5d60-489d-a0b0-69cf4aaf9424","ios":"levelo://app?vid=2d7b2839-5d60-489d-a0b0-69cf4aaf9424"},"vehicle_type_id":"4","last_reported":1710356787,"current_range_meters":11200,"station_id":"","pricing_plan_id":"cebpf4jnsgd1na2vs0mg"},{"bike_id":"7410243c-5f02-4202-98d8-ba31e519eec6","system_id":"levelo_inurba_marseille","lat":43.29573,"lon":5.367355,"is_reserved":false,"is_disabled":false,"rental_uris":{"android":"levelo://app?vid=7410243c-5f02-4202-98d8-ba31e519eec6","ios":"levelo://app?vid=7410243c-5f02-4202-98d8-ba31e519eec6"},"vehicle_type_id":"4","last_reported":1710356787,"current_range_meters":0,"station_id":"ce4bgph2rcd13ifvqc2g","pricing_plan_id":"cebpf4jnsgd1na2vs0mg"},{"bike_id":"e539dd69-c637-4f6d-bbee-fa74e6f28d7d","system_id":"levelo_inurba_marseille","lat":43.296921,"lon":5.376579,"is_reserved":false,"is_disabled":false,"rental_uris":{"android":"levelo://app?vid=e539dd69-c637-4f6d-bbee-fa74e6f28d7d","ios":"levelo://app?vid=e539dd69-c637-4f6d-bbee-fa74e6f28d7d"},"vehicle_type_id":"4","last_reported":1710356787,"current_range_meters":1200,"station_id":"ce4bgkh2rcd13ifvqbl0","pricing_plan_id":"cebpf4jnsgd1na2vs0mg"},{"bike_id":"11250817-4adb-4363-82f0-1da4d6a4af85","system_id":"levelo_inurba_marseille","lat":43.30946,"lon":5.39029,"is_reserved":false,"is_disabled":false,"rental_uris":{"android":"levelo://app?vid=11250817-4adb-4363-82f0-1da4d6a4af85","ios":"levelo://app?vid=11250817-4adb-4363-82f0-1da4d6a4af85"},"vehicle_type_id":"4","last_reported":1710356787,"current_range_meters":0,"station_id":"ce4bgup2rcd13ifvqco0","pricing_plan_id":"cebpf4jnsgd1na2vs0mg"},{"bike_id":"593c98a4-480b-419b-ae38-a13bb27cf2af","system_id":"levelo_inurba_marseille","lat":43.317242,"lon":5.390079,"is_reserved":false,"is_disabled":false,"rental_uris":{"android":"levelo://app?vid=593c98a4-480b-419b-ae38-a13bb27cf2af","ios":"levelo://app?vid=593c98a4-480b-419b-ae38-a13bb27cf2af"},"vehicle_type_id":"4","last_reported":1710356787,"current_range_meters":0,"station_id":"ce4bhqp2rcd13ifvqhng","pricing_plan_id":"cebpf4jnsgd1na2vs0mg"},{"bike_id":"c853386d-332a-44e1-b8f3-c868b7c4a285","system_id":"levelo_inurba_marseille","lat":43.317535,"lon":5.390028,"is_reserved":false,"is_disabled":false,"rental_uris":{"android":"levelo://app?vid=c853386d-332a-44e1-b8f3-c868b7c4a285","ios":"levelo://app?vid=c853386d-332a-44e1-b8f3-c868b7c4a285"},"vehicle_type_id":"4","last_reported":1710356787,"current_range_meters":11600,"station_id":"ce4bhqp2rcd13ifvqhng","pricing_plan_id":"cebpf4jnsgd1na2vs0mg"},{"bike_id":"eaa04335-ce5f-4e82-9d4b-09e2bf70fc9e","system_id":"levelo_inurba_marseille","lat":43.3176,"lon":5.3901,"is_reserved":false,"is_disabled":false,"rental_uris":{"android":"levelo://app?vid=eaa04335-ce5f-4e82-9d4b-09e2bf70fc9e","ios":"levelo://app?vid=eaa04335-ce5f-4e82-9d4b-09e2bf70fc9e"},"vehicle_type_id":"4","last_reported":1710356787,"current_range_meters":6000,"station_id":"ce4bhqp2rcd13ifvqhng","pricing_plan_id":"cebpf4jnsgd1na2vs0mg"},{"bike_id":"271946fa-e0a7-468e-9281-675a19564987","system_id":"levelo_inurba_marseille","lat":43.31758,"lon":5.39011,"is_reserved":false,"is_disabled":false,"rental_uris":{"android":"levelo://app?vid=271946fa-e0a7-468e-9281-675a19564987","ios":"levelo://app?vid=271946fa-e0a7-468e-9281-675a19564987"},"vehicle_type_id":"4","last_reported":1710356787,"current_range_meters":16400,"station_id":"ce4bhqp2rcd13ifvqhng","pricing_plan_id":"cebpf4jnsgd1na2vs0mg"},{"bike_id":"400fc285-08c8-4b6b-a2e6-e4633d9bd4b4","system_id":"levelo_inurba_marseille","lat":43.317514,"lon":5.390146,"is_reserved":false,"is_disabled":false,"rental_uris":{"android":"levelo://app?vid=400fc285-08c8-4b6b-a2e6-e4633d9bd4b4","ios":"levelo://app?vid=400fc285-08c8-4b6b-a2e6-e4633d9bd4b4"},"vehicle_type_id":"4","last_reported":1710356787,"current_range_meters":2400,"station_id":"ce4bhqp2rcd13ifvqhng","pricing_plan_id":"cebpf4jnsgd1na2vs0mg"},{"bike_id":"77143e07-9a56-4df7-8659-5c80a8c15c48","system_id":"levelo_inurba_marseille","lat":43.31754,"lon":5.39015,"is_reserved":false,"is_disabled":false,"rental_uris":{"android":"levelo://app?vid=77143e07-9a56-4df7-8659-5c80a8c15c48","ios":"levelo://app?vid=77143e07-9a56-4df7-8659-5c80a8c15c48"},"vehicle_type_id":"4","last_reported":1710356787,"current_range_meters":3600,"station_id":"ce4bhqp2rcd13ifvqhng","pricing_plan_id":"cebpf4jnsgd1na2vs0mg"},{"bike_id":"86dedb7c-bab7-4d12-a006-94af04249fde","system_id":"levelo_inurba_marseille","lat":43.317534,"lon":5.390156,"is_reserved":false,"is_disabled":false,"rental_uris":{"android":"levelo://app?vid=86dedb7c-bab7-4d12-a006-94af04249fde","ios":"levelo://app?vid=86dedb7c-bab7-4d12-a006-94af04249fde"},"vehicle_type_id":"4","last_reported":1710356787,"current_range_meters":19200,"station_id":"ce4bhqp2rcd13ifvqhng","pricing_plan_id":"cebpf4jnsgd1na2vs0mg"},{"bike_id":"1088c83b-edd1-487f-ba9c-9b4dd7f4efbe","system_id":"levelo_inurba_marseille","lat":43.31755,"lon":5.39015,"is_reserved":false,"is_disabled":false,"rental_uris":{"android":"levelo://app?vid=1088c83b-edd1-487f-ba9c-9b4dd7f4efbe","ios":"levelo://app?vid=1088c83b-edd1-487f-ba9c-9b4dd7f4efbe"},"vehicle_type_id":"4","last_reported":1710356787,"current_range_meters":31200,"station_id":"ce4bhqp2rcd13ifvqhng","pricing_plan_id":"cebpf4jnsgd1na2vs0mg"},{"bike_id":"15e2991d-aea9-4dea-887a-fc4583d6a5ca","system_id":"levelo_inurba_marseille","lat":43.317557,"lon":5.390173,"is_reserved":false,"is_disabled":false,"rental_uris":{"android":"levelo://app?vid=15e2991d-aea9-4dea-887a-fc4583d6a5ca","ios":"levelo://app?vid=15e2991d-aea9-4dea-887a-fc4583d6a5ca"},"vehicle_type_id":"4","last_reported":1710356787,"current_range_meters":31200,"station_id":"ce4bhqp2rcd13ifvqhng","pricing_plan_id":"cebpf4jnsgd1na2vs0mg"},{"bike_id":"cd364902-762b-4c3e-844f-575971d38c11","system_id":"levelo_inurba_marseille","lat":43.317613,"lon":5.390133,"is_reserved":false,"is_disabled":false,"rental_uris":{"android":"levelo://app?vid=cd364902-762b-4c3e-844f-575971d38c11","ios":"levelo://app?vid=cd364902-762b-4c3e-844f-575971d38c11"},"vehicle_type_id":"4","last_reported":1710356787,"current_range_meters":15600,"station_id":"ce4bhqp2rcd13ifvqhng","pricing_plan_id":"cebpf4jnsgd1na2vs0mg"},{"bike_id":"e7635339-4a3c-42a4-a346-f89d0509c084","system_id":"levelo_inurba_marseille","lat":43.317557,"lon":5.390173,"is_reserved":false,"is_disabled":false,"rental_uris":{"android":"levelo://app?vid=e7635339-4a3c-42a4-a346-f89d0509c084","ios":"levelo://app?vid=e7635339-4a3c-42a4-a346-f89d0509c084"},"vehicle_type_id":"4","last_reported":1710356787,"current_range_meters":27200,"station_id":"ce4bhqp2rcd13ifvqhng","pricing_plan_id":"cebpf4jnsgd1na2vs0mg"},{"bike_id":"c2fa3ed2-c6f8-4246-91ab-6e1b79742c61","system_id":"levelo_inurba_marseille","lat":43.31754,"lon":5.39018,"is_reserved":false,"is_disabled":false,"rental_uris":{"android":"levelo://app?vid=c2fa3ed2-c6f8-4246-91ab-6e1b79742c61","ios":"levelo://app?vid=c2fa3ed2-c6f8-4246-91ab-6e1b79742c61"},"vehicle_type_id":"4","last_reported":1710356787,"current_range_meters":21200,"station_id":"ce4bhqp2rcd13ifvqhng","pricing_plan_id":"cebpf4jnsgd1na2vs0mg"},{"bike_id":"a7e9409e-d196-40a9-8913-2226e2a94e30","system_id":"levelo_inurba_marseille","lat":43.3176,"lon":5.39016,"is_reserved":false,"is_disabled":false,"rental_uris":{"android":"levelo://app?vid=a7e9409e-d196-40a9-8913-2226e2a94e30","ios":"levelo://app?vid=a7e9409e-d196-40a9-8913-2226e2a94e30"},"vehicle_type_id":"4","last_reported":1710356787,"current_range_meters":31200,"station_id":"ce4bhqp2rcd13ifvqhng","pricing_plan_id":"cebpf4jnsgd1na2vs0mg"},{"bike_id":"73a693a1-684d-4847-a20f-d8c597f7ecd8","system_id":"levelo_inurba_marseille","lat":43.297506,"lon":5.379077,"is_reserved":false,"is_disabled":false,"rental_uris":{"android":"levelo://app?vid=73a693a1-684d-4847-a20f-d8c597f7ecd8","ios":"levelo://app?vid=73a693a1-684d-4847-a20f-d8c597f7ecd8"},"vehicle_type_id":"4","last_reported":1710356787,"current_range_meters":6400,"station_id":"","pricing_plan_id":"cebpf4jnsgd1na2vs0mg"},{"bike_id":"f63c0e12-1219-43b7-8ae3-7050aa802158","system_id":"levelo_inurba_marseille","lat":43.31762,"lon":5.39019,"is_reserved":false,"is_disabled":false,"rental_uris":{"android":"levelo://app?vid=f63c0e12-1219-43b7-8ae3-7050aa802158","ios":"levelo://app?vid=f63c0e12-1219-43b7-8ae3-7050aa802158"},"vehicle_type_id":"4","last_reported":1710356787,"current_range_meters":22000,"station_id":"ce4bhqp2rcd13ifvqhng","pricing_plan_id":"cebpf4jnsgd1na2vs0mg"},{"bike_id":"ce5155a1-f569-4097-982c-1231a70fa71c","system_id":"levelo_inurba_marseille","lat":43.317578,"lon":5.39021,"is_reserved":false,"is_disabled":false,"rental_uris":{"android":"levelo://app?vid=ce5155a1-f569-4097-982c-1231a70fa71c","ios":"levelo://app?vid=ce5155a1-f569-4097-982c-1231a70fa71c"},"vehicle_type_id":"4","last_reported":1710356787,"current_range_meters":11200,"station_id":"ce4bhqp2rcd13ifvqhng","pricing_plan_id":"cebpf4jnsgd1na2vs0mg"},{"bike_id":"ba3a545d-9fec-4e88-b08a-c63ce08c8c4a","system_id":"levelo_inurba_marseille","lat":43.317557,"lon":5.390173,"is_reserved":false,"is_disabled":false,"rental_uris":{"android":"levelo://app?vid=ba3a545d-9fec-4e88-b08a-c63ce08c8c4a","ios":"levelo://app?vid=ba3a545d-9fec-4e88-b08a-c63ce08c8c4a"},"vehicle_type_id":"4","last_reported":1710356787,"current_range_meters":25200,"station_id":"ce4bhqp2rcd13ifvqhng","pricing_plan_id":"cebpf4jnsgd1na2vs0mg"},{"bike_id":"3327a797-ea28-4477-b200-87d03234b974","system_id":"levelo_inurba_marseille","lat":43.31759,"lon":5.39024,"is_reserved":false,"is_disabled":false,"rental_uris":{"android":"levelo://app?vid=3327a797-ea28-4477-b200-87d03234b974","ios":"levelo://app?vid=3327a797-ea28-4477-b200-87d03234b974"},"vehicle_type_id":"4","last_reported":1710356787,"current_range_meters":27600,"station_id":"ce4bhqp2rcd13ifvqhng","pricing_plan_id":"cebpf4jnsgd1na2vs0mg"},{"bike_id":"be54da70-120d-4842-b368-fb98c5948978","system_id":"levelo_inurba_marseille","lat":43.297445,"lon":5.379188,"is_reserved":false,"is_disabled":false,"rental_uris":{"android":"levelo://app?vid=be54da70-120d-4842-b368-fb98c5948978","ios":"levelo://app?vid=be54da70-120d-4842-b368-fb98c5948978"},"vehicle_type_id":"4","last_reported":1710356787,"current_range_meters":19600,"station_id":"","pricing_plan_id":"cebpf4jnsgd1na2vs0mg"},{"bike_id":"f56da1d2-0190-449a-9815-f0882216e4bf","system_id":"levelo_inurba_marseille","lat":43.295748,"lon":5.37522,"is_reserved":false,"is_disabled":false,"rental_uris":{"android":"levelo://app?vid=f56da1d2-0190-449a-9815-f0882216e4bf","ios":"levelo://app?vid=f56da1d2-0190-449a-9815-f0882216e4bf"},"vehicle_type_id":"4","last_reported":1710356787,"current_range_meters":8800,"station_id":"ce4bgh92rcd13ifvqb50","pricing_plan_id":"cebpf4jnsgd1na2vs0mg"},{"bike_id":"127be0ac-dcd5-41cf-acc9-4ed4368e1cfe","system_id":"levelo_inurba_marseille","lat":43.304274,"lon":5.388873,"is_reserved":false,"is_disabled":false,"rental_uris":{"android":"levelo://app?vid=127be0ac-dcd5-41cf-acc9-4ed4368e1cfe","ios":"levelo://app?vid=127be0ac-dcd5-41cf-acc9-4ed4368e1cfe"},"vehicle_type_id":"4","last_reported":1710356787,"current_range_meters":0,"station_id":"ce4bgk12rcd13ifvqbi0","pricing_plan_id":"cebpf4jnsgd1na2vs0mg"},{"bike_id":"3a97e281-1647-490b-957e-97aa8736bc0f","system_id":"levelo_inurba_marseille","lat":43.295748,"lon":5.37522,"is_reserved":false,"is_disabled":false,"rental_uris":{"android":"levelo://app?vid=3a97e281-1647-490b-957e-97aa8736bc0f","ios":"levelo://app?vid=3a97e281-1647-490b-957e-97aa8736bc0f"},"vehicle_type_id":"4","last_reported":1710356787,"current_range_meters":13200,"station_id":"ce4bgh92rcd13ifvqb50","pricing_plan_id":"cebpf4jnsgd1na2vs0mg"},{"bike_id":"cae0149c-cd78-4c08-b551-769b0d75d6c1","system_id":"levelo_inurba_marseille","lat":43.304274,"lon":5.388873,"is_reserved":false,"is_disabled":false,"rental_uris":{"android":"levelo://app?vid=cae0149c-cd78-4c08-b551-769b0d75d6c1","ios":"levelo://app?vid=cae0149c-cd78-4c08-b551-769b0d75d6c1"},"vehicle_type_id":"4","last_reported":1710356787,"current_range_meters":6000,"station_id":"ce4bgk12rcd13ifvqbi0","pricing_plan_id":"cebpf4jnsgd1na2vs0mg"},{"bike_id":"a207eaf7-3dd8-4992-9b41-d5e3742a9439","system_id":"levelo_inurba_marseille","lat":43.29787,"lon":5.38092,"is_reserved":false,"is_disabled":false,"rental_uris":{"android":"levelo://app?vid=a207eaf7-3dd8-4992-9b41-d5e3742a9439","ios":"levelo://app?vid=a207eaf7-3dd8-4992-9b41-d5e3742a9439"},"vehicle_type_id":"4","last_reported":1710356787,"current_range_meters":0,"station_id":"ce4bgip2rcd13ifvqbb0","pricing_plan_id":"cebpf4jnsgd1na2vs0mg"},{"bike_id":"22c1d3c9-ad34-45ca-bb15-a7375f95cc7e","system_id":"levelo_inurba_marseille","lat":43.304443,"lon":5.38892,"is_reserved":false,"is_disabled":false,"rental_uris":{"android":"levelo://app?vid=22c1d3c9-ad34-45ca-bb15-a7375f95cc7e","ios":"levelo://app?vid=22c1d3c9-ad34-45ca-bb15-a7375f95cc7e"},"vehicle_type_id":"4","last_reported":1710356787,"current_range_meters":20000,"station_id":"ce4bgk12rcd13ifvqbi0","pricing_plan_id":"cebpf4jnsgd1na2vs0mg"},{"bike_id":"53fb2f2a-d593-42a1-821e-4f5667869593","system_id":"levelo_inurba_marseille","lat":43.296277,"lon":5.377108,"is_reserved":false,"is_disabled":false,"rental_uris":{"android":"levelo://app?vid=53fb2f2a-d593-42a1-821e-4f5667869593","ios":"levelo://app?vid=53fb2f2a-d593-42a1-821e-4f5667869593"},"vehicle_type_id":"4","last_reported":1710356787,"current_range_meters":0,"station_id":"ce4bgi92rcd13ifvqb90","pricing_plan_id":"cebpf4jnsgd1na2vs0mg"},{"bike_id":"1861dece-0c90-4f94-b5ea-894121a76c82","system_id":"levelo_inurba_marseille","lat":43.30432,"lon":5.38892,"is_reserved":false,"is_disabled":false,"rental_uris":{"android":"levelo://app?vid=1861dece-0c90-4f94-b5ea-894121a76c82","ios":"levelo://app?vid=1861dece-0c90-4f94-b5ea-894121a76c82"},"vehicle_type_id":"4","last_reported":1710356787,"current_range_meters":4000,"station_id":"ce4bgk12rcd13ifvqbi0","pricing_plan_id":"cebpf4jnsgd1na2vs0mg"},{"bike_id":"245db649-a32f-4225-b253-e179ff369c8b","system_id":"levelo_inurba_marseille","lat":43.30415,"lon":5.38881,"is_reserved":false,"is_disabled":false,"rental_uris":{"android":"levelo://app?vid=245db649-a32f-4225-b253-e179ff369c8b","ios":"levelo://app?vid=245db649-a32f-4225-b253-e179ff369c8b"},"vehicle_type_id":"4","last_reported":1710356787,"current_range_meters":4000,"station_id":"ce4bgk12rcd13ifvqbi0","pricing_plan_id":"cebpf4jnsgd1na2vs0mg"},{"bike_id":"fede9919-0872-4ad0-8e0c-0044f11af976","system_id":"levelo_inurba_marseille","lat":43.30431,"lon":5.38897,"is_reserved":false,"is_disabled":false,"rental_uris":{"android":"levelo://app?vid=fede9919-0872-4ad0-8e0c-0044f11af976","ios":"levelo://app?vid=fede9919-0872-4ad0-8e0c-0044f11af976"},"vehicle_type_id":"4","last_reported":1710356787,"current_range_meters":0,"station_id":"ce4bgk12rcd13ifvqbi0","pricing_plan_id":"cebpf4jnsgd1na2vs0mg"},{"bike_id":"c6f69ea7-828d-4389-be6c-d7b1e35a688d","system_id":"levelo_inurba_marseille","lat":43.296277,"lon":5.377108,"is_reserved":false,"is_disabled":false,"rental_uris":{"android":"levelo://app?vid=c6f69ea7-828d-4389-be6c-d7b1e35a688d","ios":"levelo://app?vid=c6f69ea7-828d-4389-be6c-d7b1e35a688d"},"vehicle_type_id":"4","last_reported":1710356787,"current_range_meters":0,"station_id":"ce4bgi92rcd13ifvqb90","pricing_plan_id":"cebpf4jnsgd1na2vs0mg"},{"bike_id":"d3678942-540e-4568-b4a9-0e9747a77295","system_id":"levelo_inurba_marseille","lat":43.30416,"lon":5.38892,"is_reserved":false,"is_disabled":false,"rental_uris":{"android":"levelo://app?vid=d3678942-540e-4568-b4a9-0e9747a77295","ios":"levelo://app?vid=d3678942-540e-4568-b4a9-0e9747a77295"},"vehicle_type_id":"4","last_reported":1710356787,"current_range_meters":5200,"station_id":"ce4bgk12rcd13ifvqbi0","pricing_plan_id":"cebpf4jnsgd1na2vs0mg"},{"bike_id":"03f6564f-2d98-40f7-8cf0-7113a9d97fdf","system_id":"levelo_inurba_marseille","lat":43.30428,"lon":5.38901,"is_reserved":false,"is_disabled":false,"rental_uris":{"android":"levelo://app?vid=03f6564f-2d98-40f7-8cf0-7113a9d97fdf","ios":"levelo://app?vid=03f6564f-2d98-40f7-8cf0-7113a9d97fdf"},"vehicle_type_id":"4","last_reported":1710356787,"current_range_meters":400,"station_id":"ce4bgk12rcd13ifvqbi0","pricing_plan_id":"cebpf4jnsgd1na2vs0mg"},{"bike_id":"54f63793-f0db-4bff-a544-8bcc0335b91f","system_id":"levelo_inurba_marseille","lat":43.296277,"lon":5.377108,"is_reserved":false,"is_disabled":false,"rental_uris":{"android":"levelo://app?vid=54f63793-f0db-4bff-a544-8bcc0335b91f","ios":"levelo://app?vid=54f63793-f0db-4bff-a544-8bcc0335b91f"},"vehicle_type_id":"4","last_reported":1710356787,"current_range_meters":0,"station_id":"ce4bgi92rcd13ifvqb90","pricing_plan_id":"cebpf4jnsgd1na2vs0mg"},{"bike_id":"3e048804-800d-4b9a-929b-849e838e900c","system_id":"levelo_inurba_marseille","lat":43.2997,"lon":5.384844,"is_reserved":false,"is_disabled":false,"rental_uris":{"android":"levelo://app?vid=3e048804-800d-4b9a-929b-849e838e900c","ios":"levelo://app?vid=3e048804-800d-4b9a-929b-849e838e900c"},"vehicle_type_id":"4","last_reported":1710356787,"current_range_meters":2400,"station_id":"ce4bgj92rcd13ifvqbd0","pricing_plan_id":"cebpf4jnsgd1na2vs0mg"},{"bike_id":"70e20882-3aa9-4208-954d-b7cc032416ee","system_id":"levelo_inurba_marseille","lat":43.29498,"lon":5.374,"is_reserved":false,"is_disabled":false,"rental_uris":{"android":"levelo://app?vid=70e20882-3aa9-4208-954d-b7cc032416ee","ios":"levelo://app?vid=70e20882-3aa9-4208-954d-b7cc032416ee"},"vehicle_type_id":"4","last_reported":1710356787,"current_range_meters":22400,"station_id":"","pricing_plan_id":"cebpf4jnsgd1na2vs0mg"},{"bike_id":"20827c7f-617f-40f6-880f-9a6d349e6761","system_id":"levelo_inurba_marseille","lat":43.29968,"lon":5.38492,"is_reserved":false,"is_disabled":false,"rental_uris":{"android":"levelo://app?vid=20827c7f-617f-40f6-880f-9a6d349e6761","ios":"levelo://app?vid=20827c7f-617f-40f6-880f-9a6d349e6761"},"vehicle_type_id":"4","last_reported":1710356787,"current_range_meters":27200,"station_id":"ce4bgj92rcd13ifvqbd0","pricing_plan_id":"cebpf4jnsgd1na2vs0mg"},{"bike_id":"4bf70f9b-a58f-4d48-a6a9-db8f0cbed26b","system_id":"levelo_inurba_marseille","lat":43.299707,"lon":5.384859,"is_reserved":false,"is_disabled":false,"rental_uris":{"android":"levelo://app?vid=4bf70f9b-a58f-4d48-a6a9-db8f0cbed26b","ios":"levelo://app?vid=4bf70f9b-a58f-4d48-a6a9-db8f0cbed26b"},"vehicle_type_id":"4","last_reported":1710356787,"current_range_meters":2400,"station_id":"ce4bgj92rcd13ifvqbd0","pricing_plan_id":"cebpf4jnsgd1na2vs0mg"},{"bike_id":"e78bd0b5-348f-4015-bd09-a28c9ff3a5bd","system_id":"levelo_inurba_marseille","lat":43.29969,"lon":5.38497,"is_reserved":false,"is_disabled":false,"rental_uris":{"android":"levelo://app?vid=e78bd0b5-348f-4015-bd09-a28c9ff3a5bd","ios":"levelo://app?vid=e78bd0b5-348f-4015-bd09-a28c9ff3a5bd"},"vehicle_type_id":"4","last_reported":1710356787,"current_range_meters":6800,"station_id":"ce4bgj92rcd13ifvqbd0","pricing_plan_id":"cebpf4jnsgd1na2vs0mg"},{"bike_id":"e45c196b-85ce-434a-b277-8a8b48769b37","system_id":"levelo_inurba_marseille","lat":43.295279,"lon":5.375048,"is_reserved":false,"is_disabled":false,"rental_uris":{"android":"levelo://app?vid=e45c196b-85ce-434a-b277-8a8b48769b37","ios":"levelo://app?vid=e45c196b-85ce-434a-b277-8a8b48769b37"},"vehicle_type_id":"4","last_reported":1710356787,"current_range_meters":0,"station_id":"ce4bgkp2rcd13ifvqbmg","pricing_plan_id":"cebpf4jnsgd1na2vs0mg"},{"bike_id":"c623da6a-a969-46b8-9bcb-c5ff99456ce6","system_id":"levelo_inurba_marseille","lat":43.32364,"lon":5.38842,"is_reserved":false,"is_disabled":false,"rental_uris":{"android":"levelo://app?vid=c623da6a-a969-46b8-9bcb-c5ff99456ce6","ios":"levelo://app?vid=c623da6a-a969-46b8-9bcb-c5ff99456ce6"},"vehicle_type_id":"4","last_reported":1710356787,"current_range_meters":17600,"station_id":"ce4bhqp2rcd13ifvqhog","pricing_plan_id":"cebpf4jnsgd1na2vs0mg"},{"bike_id":"239e37b9-c6db-4acd-85ef-e86db8bc09be","system_id":"levelo_inurba_marseille","lat":43.32365,"lon":5.38877,"is_reserved":false,"is_disabled":false,"rental_uris":{"android":"levelo://app?vid=239e37b9-c6db-4acd-85ef-e86db8bc09be","ios":"levelo://app?vid=239e37b9-c6db-4acd-85ef-e86db8bc09be"},"vehicle_type_id":"4","last_reported":1710356787,"current_range_meters":400,"station_id":"ce4bhqp2rcd13ifvqhog","pricing_plan_id":"cebpf4jnsgd1na2vs0mg"},{"bike_id":"8159511e-5fa4-4496-a97d-f60e6d9f885e","system_id":"levelo_inurba_marseille","lat":43.32364,"lon":5.38878,"is_reserved":false,"is_disabled":false,"rental_uris":{"android":"levelo://app?vid=8159511e-5fa4-4496-a97d-f60e6d9f885e","ios":"levelo://app?vid=8159511e-5fa4-4496-a97d-f60e6d9f885e"},"vehicle_type_id":"4","last_reported":1710356787,"current_range_meters":2800,"station_id":"ce4bhqp2rcd13ifvqhog","pricing_plan_id":"cebpf4jnsgd1na2vs0mg"},{"bike_id":"214513c2-0f8d-4a35-aa55-ac50aeaa598a","system_id":"levelo_inurba_marseille","lat":43.32363,"lon":5.3888,"is_reserved":false,"is_disabled":false,"rental_uris":{"android":"levelo://app?vid=214513c2-0f8d-4a35-aa55-ac50aeaa598a","ios":"levelo://app?vid=214513c2-0f8d-4a35-aa55-ac50aeaa598a"},"vehicle_type_id":"4","last_reported":1710356787,"current_range_meters":23600,"station_id":"ce4bhqp2rcd13ifvqhog","pricing_plan_id":"cebpf4jnsgd1na2vs0mg"},{"bike_id":"f9d8fe70-a8de-437f-8109-ffd6464bca85","system_id":"levelo_inurba_marseille","lat":43.32367,"lon":5.388836,"is_reserved":false,"is_disabled":false,"rental_uris":{"android":"levelo://app?vid=f9d8fe70-a8de-437f-8109-ffd6464bca85","ios":"levelo://app?vid=f9d8fe70-a8de-437f-8109-ffd6464bca85"},"vehicle_type_id":"4","last_reported":1710356787,"current_range_meters":16400,"station_id":"ce4bhqp2rcd13ifvqhog","pricing_plan_id":"cebpf4jnsgd1na2vs0mg"},{"bike_id":"814e9b11-b6da-4c41-a98f-46d81e6f367e","system_id":"levelo_inurba_marseille","lat":43.32367,"lon":5.388836,"is_reserved":false,"is_disabled":false,"rental_uris":{"android":"levelo://app?vid=814e9b11-b6da-4c41-a98f-46d81e6f367e","ios":"levelo://app?vid=814e9b11-b6da-4c41-a98f-46d81e6f367e"},"vehicle_type_id":"4","last_reported":1710356787,"current_range_meters":16400,"station_id":"ce4bhqp2rcd13ifvqhog","pricing_plan_id":"cebpf4jnsgd1na2vs0mg"},{"bike_id":"12289e1e-1c71-4773-991b-0dacf075009f","system_id":"levelo_inurba_marseille","lat":43.32367,"lon":5.38881,"is_reserved":false,"is_disabled":false,"rental_uris":{"android":"levelo://app?vid=12289e1e-1c71-4773-991b-0dacf075009f","ios":"levelo://app?vid=12289e1e-1c71-4773-991b-0dacf075009f"},"vehicle_type_id":"4","last_reported":1710356787,"current_range_meters":25200,"station_id":"ce4bhqp2rcd13ifvqhog","pricing_plan_id":"cebpf4jnsgd1na2vs0mg"},{"bike_id":"a2dba51a-b2d7-4c36-b5ce-152632c4dfd5","system_id":"levelo_inurba_marseille","lat":43.32367,"lon":5.388836,"is_reserved":false,"is_disabled":false,"rental_uris":{"android":"levelo://app?vid=a2dba51a-b2d7-4c36-b5ce-152632c4dfd5","ios":"levelo://app?vid=a2dba51a-b2d7-4c36-b5ce-152632c4dfd5"},"vehicle_type_id":"4","last_reported":1710356787,"current_range_meters":18800,"station_id":"ce4bhqp2rcd13ifvqhog","pricing_plan_id":"cebpf4jnsgd1na2vs0mg"},{"bike_id":"5de494c9-83f5-4e4b-b484-0a0b7b89b870","system_id":"levelo_inurba_marseille","lat":43.32369,"lon":5.3888,"is_reserved":false,"is_disabled":false,"rental_uris":{"android":"levelo://app?vid=5de494c9-83f5-4e4b-b484-0a0b7b89b870","ios":"levelo://app?vid=5de494c9-83f5-4e4b-b484-0a0b7b89b870"},"vehicle_type_id":"4","last_reported":1710356787,"current_range_meters":800,"station_id":"ce4bhqp2rcd13ifvqhog","pricing_plan_id":"cebpf4jnsgd1na2vs0mg"},{"bike_id":"a0cf9f36-4339-413e-8c34-61c91fe4a834","system_id":"levelo_inurba_marseille","lat":43.32365,"lon":5.38884,"is_reserved":false,"is_disabled":false,"rental_uris":{"android":"levelo://app?vid=a0cf9f36-4339-413e-8c34-61c91fe4a834","ios":"levelo://app?vid=a0cf9f36-4339-413e-8c34-61c91fe4a834"},"vehicle_type_id":"4","last_reported":1710356787,"current_range_meters":9200,"station_id":"ce4bhqp2rcd13ifvqhog","pricing_plan_id":"cebpf4jnsgd1na2vs0mg"},{"bike_id":"e6a60513-e8b7-483d-a0ac-59c1b33b431c","system_id":"levelo_inurba_marseille","lat":43.32367,"lon":5.388836,"is_reserved":false,"is_disabled":false,"rental_uris":{"android":"levelo://app?vid=e6a60513-e8b7-483d-a0ac-59c1b33b431c","ios":"levelo://app?vid=e6a60513-e8b7-483d-a0ac-59c1b33b431c"},"vehicle_type_id":"4","last_reported":1710356787,"current_range_meters":16000,"station_id":"ce4bhqp2rcd13ifvqhog","pricing_plan_id":"cebpf4jnsgd1na2vs0mg"},{"bike_id":"991d7feb-dcd7-453d-a499-fd702ced26e1","system_id":"levelo_inurba_marseille","lat":43.32367,"lon":5.388836,"is_reserved":false,"is_disabled":false,"rental_uris":{"android":"levelo://app?vid=991d7feb-dcd7-453d-a499-fd702ced26e1","ios":"levelo://app?vid=991d7feb-dcd7-453d-a499-fd702ced26e1"},"vehicle_type_id":"4","last_reported":1710356787,"current_range_meters":3600,"station_id":"ce4bhqp2rcd13ifvqhog","pricing_plan_id":"cebpf4jnsgd1na2vs0mg"},{"bike_id":"85208358-1d9c-42e8-98c3-73b8b13c7ee8","system_id":"levelo_inurba_marseille","lat":43.32367,"lon":5.38883,"is_reserved":false,"is_disabled":false,"rental_uris":{"android":"levelo://app?vid=85208358-1d9c-42e8-98c3-73b8b13c7ee8","ios":"levelo://app?vid=85208358-1d9c-42e8-98c3-73b8b13c7ee8"},"vehicle_type_id":"4","last_reported":1710356787,"current_range_meters":0,"station_id":"ce4bhqp2rcd13ifvqhog","pricing_plan_id":"cebpf4jnsgd1na2vs0mg"},{"bike_id":"e51693d7-1dd2-401e-9b75-f4e8a3f19ebd","system_id":"levelo_inurba_marseille","lat":43.32367,"lon":5.388836,"is_reserved":false,"is_disabled":false,"rental_uris":{"android":"levelo://app?vid=e51693d7-1dd2-401e-9b75-f4e8a3f19ebd","ios":"levelo://app?vid=e51693d7-1dd2-401e-9b75-f4e8a3f19ebd"},"vehicle_type_id":"4","last_reported":1710356787,"current_range_meters":20800,"station_id":"ce4bhqp2rcd13ifvqhog","pricing_plan_id":"cebpf4jnsgd1na2vs0mg"},{"bike_id":"4d51bd6b-94cd-443c-802c-71a7d7b1f44c","system_id":"levelo_inurba_marseille","lat":43.32367,"lon":5.38884,"is_reserved":false,"is_disabled":false,"rental_uris":{"android":"levelo://app?vid=4d51bd6b-94cd-443c-802c-71a7d7b1f44c","ios":"levelo://app?vid=4d51bd6b-94cd-443c-802c-71a7d7b1f44c"},"vehicle_type_id":"4","last_reported":1710356787,"current_range_meters":14400,"station_id":"ce4bhqp2rcd13ifvqhog","pricing_plan_id":"cebpf4jnsgd1na2vs0mg"},{"bike_id":"049264a0-55e2-4f55-8e43-ef8b86006ff0","system_id":"levelo_inurba_marseille","lat":43.32367,"lon":5.388836,"is_reserved":false,"is_disabled":false,"rental_uris":{"android":"levelo://app?vid=049264a0-55e2-4f55-8e43-ef8b86006ff0","ios":"levelo://app?vid=049264a0-55e2-4f55-8e43-ef8b86006ff0"},"vehicle_type_id":"4","last_reported":1710356787,"current_range_meters":24800,"station_id":"ce4bhqp2rcd13ifvqhog","pricing_plan_id":"cebpf4jnsgd1na2vs0mg"},{"bike_id":"f14c9a56-6115-4cb7-8920-5b14ab230a3d","system_id":"levelo_inurba_marseille","lat":43.32371,"lon":5.38888,"is_reserved":false,"is_disabled":false,"rental_uris":{"android":"levelo://app?vid=f14c9a56-6115-4cb7-8920-5b14ab230a3d","ios":"levelo://app?vid=f14c9a56-6115-4cb7-8920-5b14ab230a3d"},"vehicle_type_id":"4","last_reported":1710356787,"current_range_meters":8000,"station_id":"ce4bhqp2rcd13ifvqhog","pricing_plan_id":"cebpf4jnsgd1na2vs0mg"},{"bike_id":"0baecd5e-0049-4b19-8872-834ba1edcdb4","system_id":"levelo_inurba_marseille","lat":43.32367,"lon":5.388836,"is_reserved":false,"is_disabled":false,"rental_uris":{"android":"levelo://app?vid=0baecd5e-0049-4b19-8872-834ba1edcdb4","ios":"levelo://app?vid=0baecd5e-0049-4b19-8872-834ba1edcdb4"},"vehicle_type_id":"4","last_reported":1710356787,"current_range_meters":15200,"station_id":"ce4bhqp2rcd13ifvqhog","pricing_plan_id":"cebpf4jnsgd1na2vs0mg"},{"bike_id":"ea76d9a4-eb75-4425-8dc0-034c75f6d8e8","system_id":"levelo_inurba_marseille","lat":43.29606,"lon":5.38111,"is_reserved":false,"is_disabled":false,"rental_uris":{"android":"levelo://app?vid=ea76d9a4-eb75-4425-8dc0-034c75f6d8e8","ios":"levelo://app?vid=ea76d9a4-eb75-4425-8dc0-034c75f6d8e8"},"vehicle_type_id":"4","last_reported":1710356787,"current_range_meters":0,"station_id":"ce4bgl12rcd13ifvqbo0","pricing_plan_id":"cebpf4jnsgd1na2vs0mg"},{"bike_id":"6b69bce1-4da8-4e05-b702-ab7b497ef616","system_id":"levelo_inurba_marseille","lat":43.295993,"lon":5.38115,"is_reserved":false,"is_disabled":false,"rental_uris":{"android":"levelo://app?vid=6b69bce1-4da8-4e05-b702-ab7b497ef616","ios":"levelo://app?vid=6b69bce1-4da8-4e05-b702-ab7b497ef616"},"vehicle_type_id":"4","last_reported":1710356787,"current_range_meters":16000,"station_id":"ce4bgl12rcd13ifvqbo0","pricing_plan_id":"cebpf4jnsgd1na2vs0mg"},{"bike_id":"66287823-355e-4e62-aecb-fd57e7e39102","system_id":"levelo_inurba_marseille","lat":43.29601,"lon":5.381084,"is_reserved":false,"is_disabled":false,"rental_uris":{"android":"levelo://app?vid=66287823-355e-4e62-aecb-fd57e7e39102","ios":"levelo://app?vid=66287823-355e-4e62-aecb-fd57e7e39102"},"vehicle_type_id":"4","last_reported":1710356787,"current_range_meters":0,"station_id":"ce4bgl12rcd13ifvqbo0","pricing_plan_id":"cebpf4jnsgd1na2vs0mg"},{"bike_id":"7b514993-0f2c-406e-9129-6f5b2e5cbfba","system_id":"levelo_inurba_marseille","lat":43.293249,"lon":5.371578,"is_reserved":false,"is_disabled":false,"rental_uris":{"android":"levelo://app?vid=7b514993-0f2c-406e-9129-6f5b2e5cbfba","ios":"levelo://app?vid=7b514993-0f2c-406e-9129-6f5b2e5cbfba"},"vehicle_type_id":"4","last_reported":1710356787,"current_range_meters":23600,"station_id":"ce4bgh92rcd13ifvqb40","pricing_plan_id":"cebpf4jnsgd1na2vs0mg"},{"bike_id":"3335d9db-ef47-4609-9989-fd0237356818","system_id":"levelo_inurba_marseille","lat":43.293259,"lon":5.371586,"is_reserved":false,"is_disabled":false,"rental_uris":{"android":"levelo://app?vid=3335d9db-ef47-4609-9989-fd0237356818","ios":"levelo://app?vid=3335d9db-ef47-4609-9989-fd0237356818"},"vehicle_type_id":"4","last_reported":1710356787,"current_range_meters":1600,"station_id":"ce4bgh92rcd13ifvqb40","pricing_plan_id":"cebpf4jnsgd1na2vs0mg"},{"bike_id":"b4bc833e-abde-4127-898a-ff64b5dab7f8","system_id":"levelo_inurba_marseille","lat":43.292749,"lon":5.368402,"is_reserved":false,"is_disabled":false,"rental_uris":{"android":"levelo://app?vid=b4bc833e-abde-4127-898a-ff64b5dab7f8","ios":"levelo://app?vid=b4bc833e-abde-4127-898a-ff64b5dab7f8"},"vehicle_type_id":"4","last_reported":1710356787,"current_range_meters":0,"station_id":"ce4bhbp2rcd13ifvqesg","pricing_plan_id":"cebpf4jnsgd1na2vs0mg"},{"bike_id":"b831d3a9-b02f-4ad3-b5a5-590c18db5c33","system_id":"levelo_inurba_marseille","lat":43.292749,"lon":5.368402,"is_reserved":false,"is_disabled":false,"rental_uris":{"android":"levelo://app?vid=b831d3a9-b02f-4ad3-b5a5-590c18db5c33","ios":"levelo://app?vid=b831d3a9-b02f-4ad3-b5a5-590c18db5c33"},"vehicle_type_id":"4","last_reported":1710356787,"current_range_meters":800,"station_id":"ce4bhbp2rcd13ifvqesg","pricing_plan_id":"cebpf4jnsgd1na2vs0mg"},{"bike_id":"4373b4ce-5a69-451c-bbae-a7449a12dd89","system_id":"levelo_inurba_marseille","lat":43.298926,"lon":5.387706,"is_reserved":false,"is_disabled":false,"rental_uris":{"android":"levelo://app?vid=4373b4ce-5a69-451c-bbae-a7449a12dd89","ios":"levelo://app?vid=4373b4ce-5a69-451c-bbae-a7449a12dd89"},"vehicle_type_id":"4","last_reported":1710356787,"current_range_meters":0,"station_id":"","pricing_plan_id":"cebpf4jnsgd1na2vs0mg"},{"bike_id":"ee162d72-687b-4dc2-9e39-5420a00d0ee3","system_id":"levelo_inurba_marseille","lat":43.30592,"lon":5.39355,"is_reserved":false,"is_disabled":false,"rental_uris":{"android":"levelo://app?vid=ee162d72-687b-4dc2-9e39-5420a00d0ee3","ios":"levelo://app?vid=ee162d72-687b-4dc2-9e39-5420a00d0ee3"},"vehicle_type_id":"4","last_reported":1710356787,"current_range_meters":0,"station_id":"ce4bh0p2rcd13ifvqd80","pricing_plan_id":"cebpf4jnsgd1na2vs0mg"},{"bike_id":"361fd695-55f9-4882-8828-75a2d0da98c6","system_id":"levelo_inurba_marseille","lat":43.290327,"lon":5.375711,"is_reserved":false,"is_disabled":false,"rental_uris":{"android":"levelo://app?vid=361fd695-55f9-4882-8828-75a2d0da98c6","ios":"levelo://app?vid=361fd695-55f9-4882-8828-75a2d0da98c6"},"vehicle_type_id":"4","last_reported":1710356787,"current_range_meters":1600,"station_id":"ce4bh692rcd13ifvqe90","pricing_plan_id":"cebpf4jnsgd1na2vs0mg"},{"bike_id":"cb61f44d-0f89-4133-bdbe-01ab4a6757cc","system_id":"levelo_inurba_marseille","lat":43.2936,"lon":5.37835,"is_reserved":false,"is_disabled":false,"rental_uris":{"android":"levelo://app?vid=cb61f44d-0f89-4133-bdbe-01ab4a6757cc","ios":"levelo://app?vid=cb61f44d-0f89-4133-bdbe-01ab4a6757cc"},"vehicle_type_id":"4","last_reported":1710356787,"current_range_meters":0,"station_id":"ce4bgjh2rcd13ifvqbf0","pricing_plan_id":"cebpf4jnsgd1na2vs0mg"},{"bike_id":"1ba0143d-4afd-477a-b6da-2bb23d3deb54","system_id":"levelo_inurba_marseille","lat":43.303002,"lon":5.392142,"is_reserved":false,"is_disabled":false,"rental_uris":{"android":"levelo://app?vid=1ba0143d-4afd-477a-b6da-2bb23d3deb54","ios":"levelo://app?vid=1ba0143d-4afd-477a-b6da-2bb23d3deb54"},"vehicle_type_id":"4","last_reported":1710356787,"current_range_meters":12800,"station_id":"ce4bgkh2rcd13ifvqbk0","pricing_plan_id":"cebpf4jnsgd1na2vs0mg"},{"bike_id":"d2e7809b-417d-497a-ac60-e909d77d1f04","system_id":"levelo_inurba_marseille","lat":43.293676,"lon":5.3784,"is_reserved":false,"is_disabled":false,"rental_uris":{"android":"levelo://app?vid=d2e7809b-417d-497a-ac60-e909d77d1f04","ios":"levelo://app?vid=d2e7809b-417d-497a-ac60-e909d77d1f04"},"vehicle_type_id":"4","last_reported":1710356787,"current_range_meters":0,"station_id":"ce4bgjh2rcd13ifvqbf0","pricing_plan_id":"cebpf4jnsgd1na2vs0mg"},{"bike_id":"987d3eee-231d-4193-9301-0506b2429c97","system_id":"levelo_inurba_marseille","lat":43.2936,"lon":5.37835,"is_reserved":false,"is_disabled":false,"rental_uris":{"android":"levelo://app?vid=987d3eee-231d-4193-9301-0506b2429c97","ios":"levelo://app?vid=987d3eee-231d-4193-9301-0506b2429c97"},"vehicle_type_id":"4","last_reported":1710356787,"current_range_meters":4800,"station_id":"ce4bgjh2rcd13ifvqbf0","pricing_plan_id":"cebpf4jnsgd1na2vs0mg"},{"bike_id":"881efccf-c4fb-47d5-a04e-a56fc054c76e","system_id":"levelo_inurba_marseille","lat":43.303002,"lon":5.392142,"is_reserved":false,"is_disabled":false,"rental_uris":{"android":"levelo://app?vid=881efccf-c4fb-47d5-a04e-a56fc054c76e","ios":"levelo://app?vid=881efccf-c4fb-47d5-a04e-a56fc054c76e"},"vehicle_type_id":"4","last_reported":1710356787,"current_range_meters":13600,"station_id":"ce4bgkh2rcd13ifvqbk0","pricing_plan_id":"cebpf4jnsgd1na2vs0mg"},{"bike_id":"37f7fc44-b9ce-4d85-addd-c1778e0a2448","system_id":"levelo_inurba_marseille","lat":43.300852,"lon":5.390859,"is_reserved":false,"is_disabled":false,"rental_uris":{"android":"levelo://app?vid=37f7fc44-b9ce-4d85-addd-c1778e0a2448","ios":"levelo://app?vid=37f7fc44-b9ce-4d85-addd-c1778e0a2448"},"vehicle_type_id":"4","last_reported":1710356787,"current_range_meters":2000,"station_id":"ce4bh192rcd13ifvqdb0","pricing_plan_id":"cebpf4jnsgd1na2vs0mg"},{"bike_id":"13d10789-081e-4551-85cd-0369e85fe974","system_id":"levelo_inurba_marseille","lat":43.300852,"lon":5.390859,"is_reserved":false,"is_disabled":false,"rental_uris":{"android":"levelo://app?vid=13d10789-081e-4551-85cd-0369e85fe974","ios":"levelo://app?vid=13d10789-081e-4551-85cd-0369e85fe974"},"vehicle_type_id":"4","last_reported":1710356787,"current_range_meters":0,"station_id":"ce4bh192rcd13ifvqdb0","pricing_plan_id":"cebpf4jnsgd1na2vs0mg"},{"bike_id":"07d808de-1657-4ec9-a609-78b91c27e16e","system_id":"levelo_inurba_marseille","lat":43.30085,"lon":5.390856,"is_reserved":false,"is_disabled":false,"rental_uris":{"android":"levelo://app?vid=07d808de-1657-4ec9-a609-78b91c27e16e","ios":"levelo://app?vid=07d808de-1657-4ec9-a609-78b91c27e16e"},"vehicle_type_id":"4","last_reported":1710356787,"current_range_meters":4000,"station_id":"ce4bh192rcd13ifvqdb0","pricing_plan_id":"cebpf4jnsgd1na2vs0mg"},{"bike_id":"26304616-23df-45cd-9f97-194b15d312ef","system_id":"levelo_inurba_marseille","lat":43.292311,"lon":5.360731,"is_reserved":false,"is_disabled":false,"rental_uris":{"android":"levelo://app?vid=26304616-23df-45cd-9f97-194b15d312ef","ios":"levelo://app?vid=26304616-23df-45cd-9f97-194b15d312ef"},"vehicle_type_id":"4","last_reported":1710356787,"current_range_meters":27200,"station_id":"ce4bhbh2rcd13ifvqeqg","pricing_plan_id":"cebpf4jnsgd1na2vs0mg"},{"bike_id":"4b474c79-87eb-43aa-92d7-a3b7e5bfee12","system_id":"levelo_inurba_marseille","lat":43.300852,"lon":5.390859,"is_reserved":false,"is_disabled":false,"rental_uris":{"android":"levelo://app?vid=4b474c79-87eb-43aa-92d7-a3b7e5bfee12","ios":"levelo://app?vid=4b474c79-87eb-43aa-92d7-a3b7e5bfee12"},"vehicle_type_id":"4","last_reported":1710356787,"current_range_meters":19200,"station_id":"ce4bh192rcd13ifvqdb0","pricing_plan_id":"cebpf4jnsgd1na2vs0mg"},{"bike_id":"20b96b9e-c997-4a32-9835-cdf704e1bfa4","system_id":"levelo_inurba_marseille","lat":43.30085,"lon":5.390856,"is_reserved":false,"is_disabled":false,"rental_uris":{"android":"levelo://app?vid=20b96b9e-c997-4a32-9835-cdf704e1bfa4","ios":"levelo://app?vid=20b96b9e-c997-4a32-9835-cdf704e1bfa4"},"vehicle_type_id":"4","last_reported":1710356787,"current_range_meters":14400,"station_id":"ce4bh192rcd13ifvqdb0","pricing_plan_id":"cebpf4jnsgd1na2vs0mg"},{"bike_id":"4f8b7c03-c09d-4c2b-8575-f707061e7c3b","system_id":"levelo_inurba_marseille","lat":43.30083,"lon":5.39083,"is_reserved":false,"is_disabled":false,"rental_uris":{"android":"levelo://app?vid=4f8b7c03-c09d-4c2b-8575-f707061e7c3b","ios":"levelo://app?vid=4f8b7c03-c09d-4c2b-8575-f707061e7c3b"},"vehicle_type_id":"4","last_reported":1710356787,"current_range_meters":0,"station_id":"","pricing_plan_id":"cebpf4jnsgd1na2vs0mg"},{"bike_id":"34433c93-787f-4306-9da8-502893c7eae2","system_id":"levelo_inurba_marseille","lat":43.298764,"lon":5.388973,"is_reserved":false,"is_disabled":false,"rental_uris":{"android":"levelo://app?vid=34433c93-787f-4306-9da8-502893c7eae2","ios":"levelo://app?vid=34433c93-787f-4306-9da8-502893c7eae2"},"vehicle_type_id":"4","last_reported":1710356787,"current_range_meters":11600,"station_id":"ce4bh392rcd13ifvqdl0","pricing_plan_id":"cebpf4jnsgd1na2vs0mg"},{"bike_id":"402d2101-e0b0-4c98-9511-8c58ed38fb24","system_id":"levelo_inurba_marseille","lat":43.298764,"lon":5.388973,"is_reserved":false,"is_disabled":false,"rental_uris":{"android":"levelo://app?vid=402d2101-e0b0-4c98-9511-8c58ed38fb24","ios":"levelo://app?vid=402d2101-e0b0-4c98-9511-8c58ed38fb24"},"vehicle_type_id":"4","last_reported":1710356787,"current_range_meters":400,"station_id":"ce4bh392rcd13ifvqdl0","pricing_plan_id":"cebpf4jnsgd1na2vs0mg"},{"bike_id":"7047288c-5cea-4dd8-8b7e-7e3808344ed3","system_id":"levelo_inurba_marseille","lat":43.29879,"lon":5.38889,"is_reserved":false,"is_disabled":false,"rental_uris":{"android":"levelo://app?vid=7047288c-5cea-4dd8-8b7e-7e3808344ed3","ios":"levelo://app?vid=7047288c-5cea-4dd8-8b7e-7e3808344ed3"},"vehicle_type_id":"4","last_reported":1710356787,"current_range_meters":0,"station_id":"ce4bh392rcd13ifvqdl0","pricing_plan_id":"cebpf4jnsgd1na2vs0mg"},{"bike_id":"7727e2ec-3cdd-49af-9094-43864130feed","system_id":"levelo_inurba_marseille","lat":43.29883,"lon":5.38905,"is_reserved":false,"is_disabled":false,"rental_uris":{"android":"levelo://app?vid=7727e2ec-3cdd-49af-9094-43864130feed","ios":"levelo://app?vid=7727e2ec-3cdd-49af-9094-43864130feed"},"vehicle_type_id":"4","last_reported":1710356787,"current_range_meters":16800,"station_id":"ce4bh392rcd13ifvqdl0","pricing_plan_id":"cebpf4jnsgd1na2vs0mg"},{"bike_id":"9a76df40-5a2f-42bc-9271-2cf77c838da0","system_id":"levelo_inurba_marseille","lat":43.2917,"lon":5.37143,"is_reserved":false,"is_disabled":false,"rental_uris":{"android":"levelo://app?vid=9a76df40-5a2f-42bc-9271-2cf77c838da0","ios":"levelo://app?vid=9a76df40-5a2f-42bc-9271-2cf77c838da0"},"vehicle_type_id":"4","last_reported":1710356787,"current_range_meters":0,"station_id":"ce4bha92rcd13ifvqeh0","pricing_plan_id":"cebpf4jnsgd1na2vs0mg"},{"bike_id":"50a2c68c-5ae7-4e1c-b04f-c1dd0a58a8da","system_id":"levelo_inurba_marseille","lat":43.298764,"lon":5.388973,"is_reserved":false,"is_disabled":false,"rental_uris":{"android":"levelo://app?vid=50a2c68c-5ae7-4e1c-b04f-c1dd0a58a8da","ios":"levelo://app?vid=50a2c68c-5ae7-4e1c-b04f-c1dd0a58a8da"},"vehicle_type_id":"4","last_reported":1710356787,"current_range_meters":800,"station_id":"ce4bh392rcd13ifvqdl0","pricing_plan_id":"cebpf4jnsgd1na2vs0mg"},{"bike_id":"473eb893-ccaa-4558-8780-49dfa28a26d2","system_id":"levelo_inurba_marseille","lat":43.298764,"lon":5.388973,"is_reserved":false,"is_disabled":false,"rental_uris":{"android":"levelo://app?vid=473eb893-ccaa-4558-8780-49dfa28a26d2","ios":"levelo://app?vid=473eb893-ccaa-4558-8780-49dfa28a26d2"},"vehicle_type_id":"4","last_reported":1710356787,"current_range_meters":18800,"station_id":"ce4bh392rcd13ifvqdl0","pricing_plan_id":"cebpf4jnsgd1na2vs0mg"},{"bike_id":"03e01d71-a0fd-4e40-b0b7-3c46b9f4caa9","system_id":"levelo_inurba_marseille","lat":43.2988,"lon":5.38919,"is_reserved":false,"is_disabled":false,"rental_uris":{"android":"levelo://app?vid=03e01d71-a0fd-4e40-b0b7-3c46b9f4caa9","ios":"levelo://app?vid=03e01d71-a0fd-4e40-b0b7-3c46b9f4caa9"},"vehicle_type_id":"4","last_reported":1710356787,"current_range_meters":8800,"station_id":"ce4bh392rcd13ifvqdl0","pricing_plan_id":"cebpf4jnsgd1na2vs0mg"},{"bike_id":"9567743a-2113-4355-a3ca-20c9e028b46d","system_id":"levelo_inurba_marseille","lat":43.298764,"lon":5.388973,"is_reserved":false,"is_disabled":false,"rental_uris":{"android":"levelo://app?vid=9567743a-2113-4355-a3ca-20c9e028b46d","ios":"levelo://app?vid=9567743a-2113-4355-a3ca-20c9e028b46d"},"vehicle_type_id":"4","last_reported":1710356787,"current_range_meters":4400,"station_id":"ce4bh392rcd13ifvqdl0","pricing_plan_id":"cebpf4jnsgd1na2vs0mg"},{"bike_id":"f0ac832d-9568-4784-8aaf-0bc752773863","system_id":"levelo_inurba_marseille","lat":43.29865,"lon":5.38908,"is_reserved":false,"is_disabled":false,"rental_uris":{"android":"levelo://app?vid=f0ac832d-9568-4784-8aaf-0bc752773863","ios":"levelo://app?vid=f0ac832d-9568-4784-8aaf-0bc752773863"},"vehicle_type_id":"4","last_reported":1710356787,"current_range_meters":29200,"station_id":"ce4bh392rcd13ifvqdl0","pricing_plan_id":"cebpf4jnsgd1na2vs0mg"},{"bike_id":"bdf80a15-6546-4dd6-af4b-b5b8d0460fb2","system_id":"levelo_inurba_marseille","lat":43.291562,"lon":5.371524,"is_reserved":false,"is_disabled":false,"rental_uris":{"android":"levelo://app?vid=bdf80a15-6546-4dd6-af4b-b5b8d0460fb2","ios":"levelo://app?vid=bdf80a15-6546-4dd6-af4b-b5b8d0460fb2"},"vehicle_type_id":"4","last_reported":1710356787,"current_range_meters":0,"station_id":"ce4bha92rcd13ifvqeh0","pricing_plan_id":"cebpf4jnsgd1na2vs0mg"},{"bike_id":"8ba9db81-d7f5-4d06-bc74-35e370f6a266","system_id":"levelo_inurba_marseille","lat":43.291994,"lon":5.357886,"is_reserved":false,"is_disabled":false,"rental_uris":{"android":"levelo://app?vid=8ba9db81-d7f5-4d06-bc74-35e370f6a266","ios":"levelo://app?vid=8ba9db81-d7f5-4d06-bc74-35e370f6a266"},"vehicle_type_id":"4","last_reported":1710356787,"current_range_meters":0,"station_id":"ce4bhb12rcd13ifvqel0","pricing_plan_id":"cebpf4jnsgd1na2vs0mg"},{"bike_id":"862f0399-c31f-41f6-bcef-db4767fedd54","system_id":"levelo_inurba_marseille","lat":43.309047,"lon":5.396551,"is_reserved":false,"is_disabled":false,"rental_uris":{"android":"levelo://app?vid=862f0399-c31f-41f6-bcef-db4767fedd54","ios":"levelo://app?vid=862f0399-c31f-41f6-bcef-db4767fedd54"},"vehicle_type_id":"4","last_reported":1710356787,"current_range_meters":4000,"station_id":"ce4bh012rcd13ifvqcv0","pricing_plan_id":"cebpf4jnsgd1na2vs0mg"},{"bike_id":"e1299490-cbd8-4dd3-9c53-d338cfaed0f1","system_id":"levelo_inurba_marseille","lat":43.29192,"lon":5.35798,"is_reserved":false,"is_disabled":false,"rental_uris":{"android":"levelo://app?vid=e1299490-cbd8-4dd3-9c53-d338cfaed0f1","ios":"levelo://app?vid=e1299490-cbd8-4dd3-9c53-d338cfaed0f1"},"vehicle_type_id":"4","last_reported":1710356787,"current_range_meters":0,"station_id":"ce4bhb12rcd13ifvqel0","pricing_plan_id":"cebpf4jnsgd1na2vs0mg"},{"bike_id":"73960a28-59ba-49c9-91d5-69ed04f83384","system_id":"levelo_inurba_marseille","lat":43.309047,"lon":5.396551,"is_reserved":false,"is_disabled":false,"rental_uris":{"android":"levelo://app?vid=73960a28-59ba-49c9-91d5-69ed04f83384","ios":"levelo://app?vid=73960a28-59ba-49c9-91d5-69ed04f83384"},"vehicle_type_id":"4","last_reported":1710356787,"current_range_meters":24000,"station_id":"ce4bh012rcd13ifvqcv0","pricing_plan_id":"cebpf4jnsgd1na2vs0mg"},{"bike_id":"d1b91d8d-7712-4712-9e15-e16150f35f50","system_id":"levelo_inurba_marseille","lat":43.309047,"lon":5.396551,"is_reserved":false,"is_disabled":false,"rental_uris":{"android":"levelo://app?vid=d1b91d8d-7712-4712-9e15-e16150f35f50","ios":"levelo://app?vid=d1b91d8d-7712-4712-9e15-e16150f35f50"},"vehicle_type_id":"4","last_reported":1710356787,"current_range_meters":11600,"station_id":"ce4bh012rcd13ifvqcv0","pricing_plan_id":"cebpf4jnsgd1na2vs0mg"},{"bike_id":"eb54f43e-eeba-4b5b-a894-515e732c8e09","system_id":"levelo_inurba_marseille","lat":43.29548,"lon":5.385375,"is_reserved":false,"is_disabled":false,"rental_uris":{"android":"levelo://app?vid=eb54f43e-eeba-4b5b-a894-515e732c8e09","ios":"levelo://app?vid=eb54f43e-eeba-4b5b-a894-515e732c8e09"},"vehicle_type_id":"4","last_reported":1710356787,"current_range_meters":1200,"station_id":"ce4bgih2rcd13ifvqba0","pricing_plan_id":"cebpf4jnsgd1na2vs0mg"},{"bike_id":"670445b6-d96e-4c67-b441-1f2b2cf5ab5f","system_id":"levelo_inurba_marseille","lat":43.29147,"lon":5.37391,"is_reserved":false,"is_disabled":false,"rental_uris":{"android":"levelo://app?vid=670445b6-d96e-4c67-b441-1f2b2cf5ab5f","ios":"levelo://app?vid=670445b6-d96e-4c67-b441-1f2b2cf5ab5f"},"vehicle_type_id":"4","last_reported":1710356787,"current_range_meters":800,"station_id":"ce4bh092rcd13ifvqd20","pricing_plan_id":"cebpf4jnsgd1na2vs0mg"},{"bike_id":"dbaec713-6c5a-4b2d-859c-57e81b198185","system_id":"levelo_inurba_marseille","lat":43.308814,"lon":5.39653,"is_reserved":false,"is_disabled":false,"rental_uris":{"android":"levelo://app?vid=dbaec713-6c5a-4b2d-859c-57e81b198185","ios":"levelo://app?vid=dbaec713-6c5a-4b2d-859c-57e81b198185"},"vehicle_type_id":"4","last_reported":1710356787,"current_range_meters":0,"station_id":"ce4bh012rcd13ifvqcv0","pricing_plan_id":"cebpf4jnsgd1na2vs0mg"},{"bike_id":"a6785555-8e87-4f89-b5be-f9ab80e2ab88","system_id":"levelo_inurba_marseille","lat":43.29536,"lon":5.38537,"is_reserved":false,"is_disabled":false,"rental_uris":{"android":"levelo://app?vid=a6785555-8e87-4f89-b5be-f9ab80e2ab88","ios":"levelo://app?vid=a6785555-8e87-4f89-b5be-f9ab80e2ab88"},"vehicle_type_id":"4","last_reported":1710356787,"current_range_meters":0,"station_id":"ce4bgih2rcd13ifvqba0","pricing_plan_id":"cebpf4jnsgd1na2vs0mg"},{"bike_id":"799bd1a3-c4aa-46dd-9bc9-819167dff962","system_id":"levelo_inurba_marseille","lat":43.29538,"lon":5.38543,"is_reserved":false,"is_disabled":false,"rental_uris":{"android":"levelo://app?vid=799bd1a3-c4aa-46dd-9bc9-819167dff962","ios":"levelo://app?vid=799bd1a3-c4aa-46dd-9bc9-819167dff962"},"vehicle_type_id":"4","last_reported":1710356787,"current_range_meters":0,"station_id":"ce4bgih2rcd13ifvqba0","pricing_plan_id":"cebpf4jnsgd1na2vs0mg"},{"bike_id":"76eee499-6652-4c5e-a9d9-295a59f0f053","system_id":"levelo_inurba_marseille","lat":43.292857,"lon":5.379834,"is_reserved":false,"is_disabled":false,"rental_uris":{"android":"levelo://app?vid=76eee499-6652-4c5e-a9d9-295a59f0f053","ios":"levelo://app?vid=76eee499-6652-4c5e-a9d9-295a59f0f053"},"vehicle_type_id":"4","last_reported":1710356787,"current_range_meters":18800,"station_id":"","pricing_plan_id":"cebpf4jnsgd1na2vs0mg"},{"bike_id":"6b0b6f75-686c-4dc7-bd8a-1d6e22c49cc7","system_id":"levelo_inurba_marseille","lat":43.29531,"lon":5.38536,"is_reserved":false,"is_disabled":false,"rental_uris":{"android":"levelo://app?vid=6b0b6f75-686c-4dc7-bd8a-1d6e22c49cc7","ios":"levelo://app?vid=6b0b6f75-686c-4dc7-bd8a-1d6e22c49cc7"},"vehicle_type_id":"4","last_reported":1710356787,"current_range_meters":16400,"station_id":"ce4bgih2rcd13ifvqba0","pricing_plan_id":"cebpf4jnsgd1na2vs0mg"},{"bike_id":"4ae2f4da-fcf4-42d4-995c-4aa8c454f052","system_id":"levelo_inurba_marseille","lat":43.29533,"lon":5.3854,"is_reserved":false,"is_disabled":false,"rental_uris":{"android":"levelo://app?vid=4ae2f4da-fcf4-42d4-995c-4aa8c454f052","ios":"levelo://app?vid=4ae2f4da-fcf4-42d4-995c-4aa8c454f052"},"vehicle_type_id":"4","last_reported":1710356787,"current_range_meters":1200,"station_id":"ce4bgih2rcd13ifvqba0","pricing_plan_id":"cebpf4jnsgd1na2vs0mg"},{"bike_id":"0b87ff22-c1d7-444b-bfb0-86dddd522ac8","system_id":"levelo_inurba_marseille","lat":43.29539,"lon":5.38552,"is_reserved":false,"is_disabled":false,"rental_uris":{"android":"levelo://app?vid=0b87ff22-c1d7-444b-bfb0-86dddd522ac8","ios":"levelo://app?vid=0b87ff22-c1d7-444b-bfb0-86dddd522ac8"},"vehicle_type_id":"4","last_reported":1710356787,"current_range_meters":400,"station_id":"ce4bgih2rcd13ifvqba0","pricing_plan_id":"cebpf4jnsgd1na2vs0mg"},{"bike_id":"b1757853-e8dd-4fdd-82fe-b2fb7cb26276","system_id":"levelo_inurba_marseille","lat":43.295368,"lon":5.385486,"is_reserved":false,"is_disabled":false,"rental_uris":{"android":"levelo://app?vid=b1757853-e8dd-4fdd-82fe-b2fb7cb26276","ios":"levelo://app?vid=b1757853-e8dd-4fdd-82fe-b2fb7cb26276"},"vehicle_type_id":"4","last_reported":1710356787,"current_range_meters":5200,"station_id":"ce4bgih2rcd13ifvqba0","pricing_plan_id":"cebpf4jnsgd1na2vs0mg"},{"bike_id":"cf6a31cc-fd9a-426e-8e02-cd4f6737c338","system_id":"levelo_inurba_marseille","lat":43.295277,"lon":5.385357,"is_reserved":false,"is_disabled":false,"rental_uris":{"android":"levelo://app?vid=cf6a31cc-fd9a-426e-8e02-cd4f6737c338","ios":"levelo://app?vid=cf6a31cc-fd9a-426e-8e02-cd4f6737c338"},"vehicle_type_id":"4","last_reported":1710356787,"current_range_meters":18800,"station_id":"ce4bgih2rcd13ifvqba0","pricing_plan_id":"cebpf4jnsgd1na2vs0mg"},{"bike_id":"0ce2c638-5193-4995-a888-02bcbd48bd29","system_id":"levelo_inurba_marseille","lat":43.29535,"lon":5.3855,"is_reserved":false,"is_disabled":false,"rental_uris":{"android":"levelo://app?vid=0ce2c638-5193-4995-a888-02bcbd48bd29","ios":"levelo://app?vid=0ce2c638-5193-4995-a888-02bcbd48bd29"},"vehicle_type_id":"4","last_reported":1710356787,"current_range_meters":0,"station_id":"ce4bgih2rcd13ifvqba0","pricing_plan_id":"cebpf4jnsgd1na2vs0mg"},{"bike_id":"6649d5da-bf3e-4ef1-9d6d-cfb1105dc98b","system_id":"levelo_inurba_marseille","lat":43.29529,"lon":5.385581,"is_reserved":false,"is_disabled":false,"rental_uris":{"android":"levelo://app?vid=6649d5da-bf3e-4ef1-9d6d-cfb1105dc98b","ios":"levelo://app?vid=6649d5da-bf3e-4ef1-9d6d-cfb1105dc98b"},"vehicle_type_id":"4","last_reported":1710356787,"current_range_meters":18000,"station_id":"ce4bgih2rcd13ifvqba0","pricing_plan_id":"cebpf4jnsgd1na2vs0mg"},{"bike_id":"b0252aef-7ef6-42a6-94a9-5d4d5007954a","system_id":"levelo_inurba_marseille","lat":43.295267,"lon":5.385397,"is_reserved":false,"is_disabled":false,"rental_uris":{"android":"levelo://app?vid=b0252aef-7ef6-42a6-94a9-5d4d5007954a","ios":"levelo://app?vid=b0252aef-7ef6-42a6-94a9-5d4d5007954a"},"vehicle_type_id":"4","last_reported":1710356787,"current_range_meters":0,"station_id":"ce4bgih2rcd13ifvqba0","pricing_plan_id":"cebpf4jnsgd1na2vs0mg"},{"bike_id":"9e0f41d8-d52b-47f9-812f-6e8aa8f833a6","system_id":"levelo_inurba_marseille","lat":43.29525,"lon":5.38538,"is_reserved":false,"is_disabled":false,"rental_uris":{"android":"levelo://app?vid=9e0f41d8-d52b-47f9-812f-6e8aa8f833a6","ios":"levelo://app?vid=9e0f41d8-d52b-47f9-812f-6e8aa8f833a6"},"vehicle_type_id":"4","last_reported":1710356787,"current_range_meters":0,"station_id":"ce4bgih2rcd13ifvqba0","pricing_plan_id":"cebpf4jnsgd1na2vs0mg"},{"bike_id":"47907c6f-9f0b-4d55-93b2-e9754eccf80e","system_id":"levelo_inurba_marseille","lat":43.295254,"lon":5.385424,"is_reserved":false,"is_disabled":false,"rental_uris":{"android":"levelo://app?vid=47907c6f-9f0b-4d55-93b2-e9754eccf80e","ios":"levelo://app?vid=47907c6f-9f0b-4d55-93b2-e9754eccf80e"},"vehicle_type_id":"4","last_reported":1710356787,"current_range_meters":0,"station_id":"ce4bgih2rcd13ifvqba0","pricing_plan_id":"cebpf4jnsgd1na2vs0mg"},{"bike_id":"765b1346-e382-4a96-b04e-9ad55deeb209","system_id":"levelo_inurba_marseille","lat":43.29529,"lon":5.38552,"is_reserved":false,"is_disabled":false,"rental_uris":{"android":"levelo://app?vid=765b1346-e382-4a96-b04e-9ad55deeb209","ios":"levelo://app?vid=765b1346-e382-4a96-b04e-9ad55deeb209"},"vehicle_type_id":"4","last_reported":1710356787,"current_range_meters":0,"station_id":"ce4bgih2rcd13ifvqba0","pricing_plan_id":"cebpf4jnsgd1na2vs0mg"},{"bike_id":"99577469-2827-4237-beb2-83d8a637b7bb","system_id":"levelo_inurba_marseille","lat":43.302008,"lon":5.394694,"is_reserved":false,"is_disabled":false,"rental_uris":{"android":"levelo://app?vid=99577469-2827-4237-beb2-83d8a637b7bb","ios":"levelo://app?vid=99577469-2827-4237-beb2-83d8a637b7bb"},"vehicle_type_id":"4","last_reported":1710356787,"current_range_meters":11200,"station_id":"ce4bh0p2rcd13ifvqd70","pricing_plan_id":"cebpf4jnsgd1na2vs0mg"},{"bike_id":"a7c5c7b5-2430-4744-a865-2adf65eb9033","system_id":"levelo_inurba_marseille","lat":43.289184,"lon":5.366408,"is_reserved":false,"is_disabled":false,"rental_uris":{"android":"levelo://app?vid=a7c5c7b5-2430-4744-a865-2adf65eb9033","ios":"levelo://app?vid=a7c5c7b5-2430-4744-a865-2adf65eb9033"},"vehicle_type_id":"4","last_reported":1710356787,"current_range_meters":0,"station_id":"ce4bhap2rcd13ifvqek0","pricing_plan_id":"cebpf4jnsgd1na2vs0mg"},{"bike_id":"f20eda54-e2bf-4c7a-8f11-fecdfbd065fa","system_id":"levelo_inurba_marseille","lat":43.294162,"lon":5.386292,"is_reserved":false,"is_disabled":false,"rental_uris":{"android":"levelo://app?vid=f20eda54-e2bf-4c7a-8f11-fecdfbd065fa","ios":"levelo://app?vid=f20eda54-e2bf-4c7a-8f11-fecdfbd065fa"},"vehicle_type_id":"4","last_reported":1710356787,"current_range_meters":0,"station_id":"ce4bh2h2rcd13ifvqdh0","pricing_plan_id":"cebpf4jnsgd1na2vs0mg"},{"bike_id":"f0a030bb-bf35-4b27-8c96-8d78c42d9522","system_id":"levelo_inurba_marseille","lat":43.290319,"lon":5.375732,"is_reserved":false,"is_disabled":false,"rental_uris":{"android":"levelo://app?vid=f0a030bb-bf35-4b27-8c96-8d78c42d9522","ios":"levelo://app?vid=f0a030bb-bf35-4b27-8c96-8d78c42d9522"},"vehicle_type_id":"4","last_reported":1710356787,"current_range_meters":23200,"station_id":"ce4bh692rcd13ifvqe90","pricing_plan_id":"cebpf4jnsgd1na2vs0mg"},{"bike_id":"d5d7c5c9-fe07-4882-b343-fa562c7b2025","system_id":"levelo_inurba_marseille","lat":43.294153,"lon":5.386305,"is_reserved":false,"is_disabled":false,"rental_uris":{"android":"levelo://app?vid=d5d7c5c9-fe07-4882-b343-fa562c7b2025","ios":"levelo://app?vid=d5d7c5c9-fe07-4882-b343-fa562c7b2025"},"vehicle_type_id":"4","last_reported":1710356787,"current_range_meters":3200,"station_id":"ce4bh2h2rcd13ifvqdh0","pricing_plan_id":"cebpf4jnsgd1na2vs0mg"},{"bike_id":"601e4082-2fe5-4d2c-9d9f-8c033b5eb87a","system_id":"levelo_inurba_marseille","lat":43.289184,"lon":5.366408,"is_reserved":false,"is_disabled":false,"rental_uris":{"android":"levelo://app?vid=601e4082-2fe5-4d2c-9d9f-8c033b5eb87a","ios":"levelo://app?vid=601e4082-2fe5-4d2c-9d9f-8c033b5eb87a"},"vehicle_type_id":"4","last_reported":1710356787,"current_range_meters":19200,"station_id":"ce4bhap2rcd13ifvqek0","pricing_plan_id":"cebpf4jnsgd1na2vs0mg"},{"bike_id":"17a8446d-dfeb-4e51-90bf-cc72e22af8bf","system_id":"levelo_inurba_marseille","lat":43.29417,"lon":5.38625,"is_reserved":false,"is_disabled":false,"rental_uris":{"android":"levelo://app?vid=17a8446d-dfeb-4e51-90bf-cc72e22af8bf","ios":"levelo://app?vid=17a8446d-dfeb-4e51-90bf-cc72e22af8bf"},"vehicle_type_id":"4","last_reported":1710356787,"current_range_meters":0,"station_id":"ce4bh2h2rcd13ifvqdh0","pricing_plan_id":"cebpf4jnsgd1na2vs0mg"},{"bike_id":"859755ed-bc0a-4b91-8697-92c1dc93762f","system_id":"levelo_inurba_marseille","lat":43.29419,"lon":5.38634,"is_reserved":false,"is_disabled":false,"rental_uris":{"android":"levelo://app?vid=859755ed-bc0a-4b91-8697-92c1dc93762f","ios":"levelo://app?vid=859755ed-bc0a-4b91-8697-92c1dc93762f"},"vehicle_type_id":"4","last_reported":1710356787,"current_range_meters":7600,"station_id":"ce4bh2h2rcd13ifvqdh0","pricing_plan_id":"cebpf4jnsgd1na2vs0mg"},{"bike_id":"83a38495-ef3d-4cfe-90cd-8ae39261a39c","system_id":"levelo_inurba_marseille","lat":43.29416,"lon":5.3863,"is_reserved":false,"is_disabled":false,"rental_uris":{"android":"levelo://app?vid=83a38495-ef3d-4cfe-90cd-8ae39261a39c","ios":"levelo://app?vid=83a38495-ef3d-4cfe-90cd-8ae39261a39c"},"vehicle_type_id":"4","last_reported":1710356787,"current_range_meters":0,"station_id":"ce4bh2h2rcd13ifvqdh0","pricing_plan_id":"cebpf4jnsgd1na2vs0mg"},{"bike_id":"5db2a44c-2c88-472f-98e7-788b883a09e8","system_id":"levelo_inurba_marseille","lat":43.29415,"lon":5.38629,"is_reserved":false,"is_disabled":false,"rental_uris":{"android":"levelo://app?vid=5db2a44c-2c88-472f-98e7-788b883a09e8","ios":"levelo://app?vid=5db2a44c-2c88-472f-98e7-788b883a09e8"},"vehicle_type_id":"4","last_reported":1710356787,"current_range_meters":0,"station_id":"ce4bh2h2rcd13ifvqdh0","pricing_plan_id":"cebpf4jnsgd1na2vs0mg"},{"bike_id":"51ba7f3b-5c14-4b54-9b6a-fb8a8a4f999f","system_id":"levelo_inurba_marseille","lat":43.289184,"lon":5.366408,"is_reserved":false,"is_disabled":false,"rental_uris":{"android":"levelo://app?vid=51ba7f3b-5c14-4b54-9b6a-fb8a8a4f999f","ios":"levelo://app?vid=51ba7f3b-5c14-4b54-9b6a-fb8a8a4f999f"},"vehicle_type_id":"4","last_reported":1710356787,"current_range_meters":0,"station_id":"ce4bhap2rcd13ifvqek0","pricing_plan_id":"cebpf4jnsgd1na2vs0mg"},{"bike_id":"8d4ddaa5-920b-4162-afc9-fbef5f20c872","system_id":"levelo_inurba_marseille","lat":43.29415,"lon":5.38631,"is_reserved":false,"is_disabled":false,"rental_uris":{"android":"levelo://app?vid=8d4ddaa5-920b-4162-afc9-fbef5f20c872","ios":"levelo://app?vid=8d4ddaa5-920b-4162-afc9-fbef5f20c872"},"vehicle_type_id":"4","last_reported":1710356787,"current_range_meters":0,"station_id":"ce4bh2h2rcd13ifvqdh0","pricing_plan_id":"cebpf4jnsgd1na2vs0mg"},{"bike_id":"eef681a3-f9c3-4bdf-b1ee-08d1f49f8601","system_id":"levelo_inurba_marseille","lat":43.294153,"lon":5.386305,"is_reserved":false,"is_disabled":false,"rental_uris":{"android":"levelo://app?vid=eef681a3-f9c3-4bdf-b1ee-08d1f49f8601","ios":"levelo://app?vid=eef681a3-f9c3-4bdf-b1ee-08d1f49f8601"},"vehicle_type_id":"4","last_reported":1710356787,"current_range_meters":17600,"station_id":"ce4bh2h2rcd13ifvqdh0","pricing_plan_id":"cebpf4jnsgd1na2vs0mg"},{"bike_id":"83126fc0-b1f0-4728-99c1-c349ecbca2d6","system_id":"levelo_inurba_marseille","lat":43.289184,"lon":5.366408,"is_reserved":false,"is_disabled":false,"rental_uris":{"android":"levelo://app?vid=83126fc0-b1f0-4728-99c1-c349ecbca2d6","ios":"levelo://app?vid=83126fc0-b1f0-4728-99c1-c349ecbca2d6"},"vehicle_type_id":"4","last_reported":1710356787,"current_range_meters":8800,"station_id":"ce4bhap2rcd13ifvqek0","pricing_plan_id":"cebpf4jnsgd1na2vs0mg"},