{"last_updated":1741896653,"ttl":60,"version":"2.2","data":{"bikes":[{"bike_id":"259e6539-ab0e-4ae3-b0c4-02eebfecae47","system_id":"levelo_inurba_marseille","lat":43.29538,"lon":5.38546,"is_reserved":false,"is_disabled":false,"rental_uris":{"android":"levelo://app?vid=259e6539-ab0e-4ae3-b0c4-02eebfecae47","ios":"levelo://app?vid=259e6539-ab0e-4ae3-b0c4-02eebfecae47"},"vehicle_type_id":"4","last_reported":1741896653,"current_range_meters":2800,"station_id":"ce4bgih2rcd13ifvqba0","pricing_plan_id":"cebpf4jnsgd1na2vs0mg"},{"bike_id":"54d97014-89bb-4f6a-85e6-7fd97f8a0def","system_id":"levelo_inurba_marseille","lat":43.33019,"lon":5.39043,"is_reserved":false,"is_disabled":false,"rental_uris":{"android":"levelo://app?vid=54d97014-89bb-4f6a-85e6-7fd97f8a0def","ios":"levelo://app?vid=54d97014-89bb-4f6a-85e6-7fd97f8a0def"},"vehicle_type_id":"4","last_reported":1741896653,"current_range_meters":2800,"station_id":"ce4bhr92rcd13ifvqhrg","pricing_plan_id":"cebpf4jnsgd1na2vs0mg"},{"bike_id":"11d6f710-6b09-461d-9c14-e06edd7838fa","system_id":"levelo_inurba_marseille","lat":43.31058,"lon":5.38356,"is_reserved":false,"is_disabled":false,"rental_uris":{"android":"levelo://app?vid=11d6f710-6b09-461d-9c14-e06edd7838fa","ios":"levelo://app?vid=11d6f710-6b09-461d-9c14-e06edd7838fa"},"vehicle_type_id":"4","last_reported":1741896653,"current_range_meters":2800,"station_id":"ce4bgv92rcd13ifvqcr0","pricing_plan_id":"cebpf4jnsgd1na2vs0mg"},{"bike_id":"8b83a773-8070-4922-ae6d-61dd2e61d681","system_id":"levelo_inurba_marseille","lat":43.30647,"lon":5.40088,"is_reserved":false,"is_disabled":false,"rental_uris":{"android":"levelo://app?vid=8b83a773-8070-4922-ae6d-61dd2e61d681","ios":"levelo://app?vid=8b83a773-8070-4922-ae6d-61dd2e61d681"},"vehicle_type_id":"4","last_reported":1741896653,"current_range_meters":2800,"station_id":"ce4bh112rcd13ifvqda0","pricing_plan_id":"cebpf4jnsgd1na2vs0mg"},{"bike_id":"b7750009-6836-4f4d-8e60-d86893e18e14","system_id":"levelo_inurba_marseille","lat":43.31044,"lon":5.37081,"is_reserved":false,"is_disabled":false,"rental_uris":{"android":"levelo://app?vid=b7750009-6836-4f4d-8e60-d86893e18e14","ios":"levelo://app?vid=b7750009-6836-4f4d-8e60-d86893e18e14"},"vehicle_type_id":"4","last_reported":1741896653,"current_range_meters":3200,"station_id":"","pricing_plan_id":"cebpf4jnsgd1na2vs0mg"},{"bike_id":"23b1dccb-114c-4848-8b76-9b39829ae4ec","system_id":"levelo_inurba_marseille","lat":43.30146,"lon":5.38076,"is_reserved":false,"is_disabled":false,"rental_uris":{"android":"levelo://app?vid=23b1dccb-114c-4848-8b76-9b39829ae4ec","ios":"levelo://app?vid=23b1dccb-114c-4848-8b76-9b39829ae4ec"},"vehicle_type_id":"4","last_reported":1741896653,"current_range_meters":3200,"station_id":"ce4bgjp2rcd13ifvqbh0","pricing_plan_id":"cebpf4jnsgd1na2vs0mg"},{"bike_id":"d506a175-d16b-417e-8a3a-f2241e0e262e","system_id":"levelo_inurba_marseille","lat":43.30907,"lon":5.37841,"is_reserved":false,"is_disabled":false,"rental_uris":{"android":"levelo://app?vid=d506a175-d16b-417e-8a3a-f2241e0e262e","ios":"levelo://app?vid=d506a175-d16b-417e-8a3a-f2241e0e262e"},"vehicle_type_id":"4","last_reported":1741896653,"current_range_meters":3600,"station_id":"","pricing_plan_id":"cebpf4jnsgd1na2vs0mg"},{"bike_id":"ede9cdcd-d1e4-4cc0-90bd-cfb7cc135dc4","system_id":"levelo_inurba_marseille","lat":43.2418,"lon":5.39698,"is_reserved":false,"is_disabled":true,"rental_uris":{"android":"levelo://app?vid=ede9cdcd-d1e4-4cc0-90bd-cfb7cc135dc4","ios":"levelo://app?vid=ede9cdcd-d1e4-4cc0-90bd-cfb7cc135dc4"},"vehicle_type_id":"4","last_reported":1741896653,"current_range_meters":4000,"station_id":"ce4bhn12rcd13ifvqgpg","pricing_plan_id":"cebpf4jnsgd1na2vs0mg"},{"bike_id":"ef59a186-82cd-422f-9f04-73109ac8d215","system_id":"levelo_inurba_marseille","lat":43.2511,"lon":5.40326,"is_reserved":false,"is_disabled":false,"rental_uris":{"android":"levelo://app?vid=ef59a186-82cd-422f-9f04-73109ac8d215","ios":"levelo://app?vid=ef59a186-82cd-422f-9f04-73109ac8d215"},"vehicle_type_id":"4","last_reported":1741896653,"current_range_meters":4000,"station_id":"ce4bhlh2rcd13ifvqgig","pricing_plan_id":"cebpf4jnsgd1na2vs0mg"},{"bike_id":"67c9f6a0-c74a-4619-8605-62ad6cf94874","system_id":"levelo_inurba_marseille","lat":43.31167,"lon":5.38711,"is_reserved":false,"is_disabled":false,"rental_uris":{"android":"levelo://app?vid=67c9f6a0-c74a-4619-8605-62ad6cf94874","ios":"levelo://app?vid=67c9f6a0-c74a-4619-8605-62ad6cf94874"},"vehicle_type_id":"4","last_reported":1741896653,"current_range_meters":4000,"station_id":"ce4bgv12rcd13ifvqcp0","pricing_plan_id":"cebpf4jnsgd1na2vs0mg"},{"bike_id":"5634b745-0e13-4e68-a287-5912b98e7795","system_id":"levelo_inurba_marseille","lat":43.29924,"lon":5.38163,"is_reserved":false,"is_disabled":false,"rental_uris":{"android":"levelo://app?vid=5634b745-0e13-4e68-a287-5912b98e7795","ios":"levelo://app?vid=5634b745-0e13-4e68-a287-5912b98e7795"},"vehicle_type_id":"4","last_reported":1741896653,"current_range_meters":4400,"station_id":"ce4bgj12rcd13ifvqbc0","pricing_plan_id":"cebpf4jnsgd1na2vs0mg"},{"bike_id":"ac8b8eff-e701-44db-bdc5-824d9eb4fb59","system_id":"levelo_inurba_marseille","lat":43.3095,"lon":5.39029,"is_reserved":false,"is_disabled":false,"rental_uris":{"android":"levelo://app?vid=ac8b8eff-e701-44db-bdc5-824d9eb4fb59","ios":"levelo://app?vid=ac8b8eff-e701-44db-bdc5-824d9eb4fb59"},"vehicle_type_id":"4","last_reported":1741896653,"current_range_meters":4400,"station_id":"ce4bgup2rcd13ifvqco0","pricing_plan_id":"cebpf4jnsgd1na2vs0mg"},{"bike_id":"db15fbfd-f47d-4001-8e32-720d63f11405","system_id":"levelo_inurba_marseille","lat":43.33413,"lon":5.40064,"is_reserved":false,"is_disabled":false,"rental_uris":{"android":"levelo://app?vid=db15fbfd-f47d-4001-8e32-720d63f11405","ios":"levelo://app?vid=db15fbfd-f47d-4001-8e32-720d63f11405"},"vehicle_type_id":"4","last_reported":1741896653,"current_range_meters":4800,"station_id":"","pricing_plan_id":"cebpf4jnsgd1na2vs0mg"},{"bike_id":"c90a3d95-3a8f-4d8e-96a4-e0902f8fa5e2","system_id":"levelo_inurba_marseille","lat":43.31079,"lon":5.37514,"is_reserved":false,"is_disabled":false,"rental_uris":{"android":"levelo://app?vid=c90a3d95-3a8f-4d8e-96a4-e0902f8fa5e2","ios":"levelo://app?vid=c90a3d95-3a8f-4d8e-96a4-e0902f8fa5e2"},"vehicle_type_id":"4","last_reported":1741896653,"current_range_meters":4800,"station_id":"","pricing_plan_id":"cebpf4jnsgd1na2vs0mg"},{"bike_id":"b852607e-7387-414a-b8ff-3137421e8ea5","system_id":"levelo_inurba_marseille","lat":43.29031,"lon":5.38648,"is_reserved":false,"is_disabled":false,"rental_uris":{"android":"levelo://app?vid=b852607e-7387-414a-b8ff-3137421e8ea5","ios":"levelo://app?vid=b852607e-7387-414a-b8ff-3137421e8ea5"},"vehicle_type_id":"4","last_reported":1741896653,"current_range_meters":4800,"station_id":"ce4bh4p2rcd13ifvqe0g","pricing_plan_id":"cebpf4jnsgd1na2vs0mg"},{"bike_id":"eabb6b0c-9939-42bf-968f-dc61fc77f9d9","system_id":"levelo_inurba_marseille","lat":43.28023,"lon":5.36554,"is_reserved":false,"is_disabled":false,"rental_uris":{"android":"levelo://app?vid=eabb6b0c-9939-42bf-968f-dc61fc77f9d9","ios":"levelo://app?vid=eabb6b0c-9939-42bf-968f-dc61fc77f9d9"},"vehicle_type_id":"4","last_reported":1741896653,"current_range_meters":4800,"station_id":"","pricing_plan_id":"cebpf4jnsgd1na2vs0mg"},{"bike_id":"69bf263b-aa9c-4526-b487-d5c01a0fee5e","system_id":"levelo_inurba_marseille","lat":43.268,"lon":5.40267,"is_reserved":false,"is_disabled":false,"rental_uris":{"android":"levelo://app?vid=69bf263b-aa9c-4526-b487-d5c01a0fee5e","ios":"levelo://app?vid=69bf263b-aa9c-4526-b487-d5c01a0fee5e"},"vehicle_type_id":"4","last_reported":1741896653,"current_range_meters":4800,"station_id":"ce501612rcd8frsf0b60","pricing_plan_id":"cebpf4jnsgd1na2vs0mg"},{"bike_id":"409c6cee-b0e3-440d-a6cd-57a71608f18f","system_id":"levelo_inurba_marseille","lat":43.26521,"lon":5.39537,"is_reserved":false,"is_disabled":false,"rental_uris":{"android":"levelo://app?vid=409c6cee-b0e3-440d-a6cd-57a71608f18f","ios":"levelo://app?vid=409c6cee-b0e3-440d-a6cd-57a71608f18f"},"vehicle_type_id":"4","last_reported":1741896653,"current_range_meters":4800,"station_id":"ce4bhi12rcd13ifvqfq0","pricing_plan_id":"cebpf4jnsgd1na2vs0mg"},{"bike_id":"dc9723fd-3e70-4120-95d0-379d97c4e726","system_id":"levelo_inurba_marseille","lat":43.30903,"lon":5.39638,"is_reserved":false,"is_disabled":false,"rental_uris":{"android":"levelo://app?vid=dc9723fd-3e70-4120-95d0-379d97c4e726","ios":"levelo://app?vid=dc9723fd-3e70-4120-95d0-379d97c4e726"},"vehicle_type_id":"4","last_reported":1741896653,"current_range_meters":4800,"station_id":"ce4bh012rcd13ifvqcv0","pricing_plan_id":"cebpf4jnsgd1na2vs0mg"},{"bike_id":"a3fd3e07-65be-4f58-bc5e-6ab23c59edbb","system_id":"levelo_inurba_marseille","lat":43.27056,"lon":5.40263,"is_reserved":false,"is_disabled":false,"rental_uris":{"android":"levelo://app?vid=a3fd3e07-65be-4f58-bc5e-6ab23c59edbb","ios":"levelo://app?vid=a3fd3e07-65be-4f58-bc5e-6ab23c59edbb"},"vehicle_type_id":"4","last_reported":1741896653,"current_range_meters":4800,"station_id":"ce4bhk92rcd13ifvqgc0","pricing_plan_id":"cebpf4jnsgd1na2vs0mg"},{"bike_id":"616a435f-89dc-43cc-870e-cd4d9550de2e","system_id":"levelo_inurba_marseille","lat":43.31411,"lon":5.37547,"is_reserved":false,"is_disabled":false,"rental_uris":{"android":"levelo://app?vid=616a435f-89dc-43cc-870e-cd4d9550de2e","ios":"levelo://app?vid=616a435f-89dc-43cc-870e-cd4d9550de2e"},"vehicle_type_id":"4","last_reported":1741896653,"current_range_meters":5600,"station_id":"","pricing_plan_id":"cebpf4jnsgd1na2vs0mg"},{"bike_id":"0e1454f0-c501-449b-b78c-ddfc8f4d9aab","system_id":"levelo_inurba_marseille","lat":43.33768,"lon":5.3749,"is_reserved":false,"is_disabled":false,"rental_uris":{"android":"levelo://app?vid=0e1454f0-c501-449b-b78c-ddfc8f4d9aab","ios":"levelo://app?vid=0e1454f0-c501-449b-b78c-ddfc8f4d9aab"},"vehicle_type_id":"4","last_reported":1741896653,"current_range_meters":5600,"station_id":"","pricing_plan_id":"cebpf4jnsgd1na2vs0mg"},{"bike_id":"1305a998-3c57-442e-bfd8-90943657057b","system_id":"levelo_inurba_marseille","lat":43.27844,"lon":5.39197,"is_reserved":false,"is_disabled":false,"rental_uris":{"android":"levelo://app?vid=1305a998-3c57-442e-bfd8-90943657057b","ios":"levelo://app?vid=1305a998-3c57-442e-bfd8-90943657057b"},"vehicle_type_id":"4","last_reported":1741896653,"current_range_meters":5600,"station_id":"ce4bhjp2rcd13ifvqga0","pricing_plan_id":"cebpf4jnsgd1na2vs0mg"},{"bike_id":"3a6f4a08-7097-425e-ba9b-503eb294df3b","system_id":"levelo_inurba_marseille","lat":43.27831,"lon":5.40746,"is_reserved":false,"is_disabled":true,"rental_uris":{"android":"levelo://app?vid=3a6f4a08-7097-425e-ba9b-503eb294df3b","ios":"levelo://app?vid=3a6f4a08-7097-425e-ba9b-503eb294df3b"},"vehicle_type_id":"4","last_reported":1741896653,"current_range_meters":5600,"station_id":"ce4bhnh2rcd13ifvqgtg","pricing_plan_id":"cebpf4jnsgd1na2vs0mg"},{"bike_id":"2f8251ec-dded-4501-8411-3a371642c4b1","system_id":"levelo_inurba_marseille","lat":43.3117,"lon":5.3872,"is_reserved":false,"is_disabled":false,"rental_uris":{"android":"levelo://app?vid=2f8251ec-dded-4501-8411-3a371642c4b1","ios":"levelo://app?vid=2f8251ec-dded-4501-8411-3a371642c4b1"},"vehicle_type_id":"4","last_reported":1741896653,"current_range_meters":5600,"station_id":"ce4bgv12rcd13ifvqcp0","pricing_plan_id":"cebpf4jnsgd1na2vs0mg"},{"bike_id":"3e593356-99f2-473b-bf2b-25f4ef73fc88","system_id":"levelo_inurba_marseille","lat":43.298512,"lon":5.39748,"is_reserved":false,"is_disabled":false,"rental_uris":{"android":"levelo://app?vid=3e593356-99f2-473b-bf2b-25f4ef73fc88","ios":"levelo://app?vid=3e593356-99f2-473b-bf2b-25f4ef73fc88"},"vehicle_type_id":"4","last_reported":1741896653,"current_range_meters":5600,"station_id":"ce4bh0h2rcd13ifvqd50","pricing_plan_id":"cebpf4jnsgd1na2vs0mg"},{"bike_id":"86677382-376a-4c7c-87f6-a48c9818ea7e","system_id":"levelo_inurba_marseille","lat":43.32557,"lon":5.41031,"is_reserved":false,"is_disabled":false,"rental_uris":{"android":"levelo://app?vid=86677382-376a-4c7c-87f6-a48c9818ea7e","ios":"levelo://app?vid=86677382-376a-4c7c-87f6-a48c9818ea7e"},"vehicle_type_id":"4","last_reported":1741896653,"current_range_meters":6000,"station_id":"","pricing_plan_id":"cebpf4jnsgd1na2vs0mg"},{"bike_id":"57dd54e3-4a62-4d62-a03b-5320a176e579","system_id":"levelo_inurba_marseille","lat":43.24165,"lon":5.36439,"is_reserved":false,"is_disabled":false,"rental_uris":{"android":"levelo://app?vid=57dd54e3-4a62-4d62-a03b-5320a176e579","ios":"levelo://app?vid=57dd54e3-4a62-4d62-a03b-5320a176e579"},"vehicle_type_id":"4","last_reported":1741896653,"current_range_meters":6000,"station_id":"cpo36qri1sfpv3e86is0","pricing_plan_id":"cebpf4jnsgd1na2vs0mg"},{"bike_id":"c0062d9b-1f26-4a71-8712-49686dc97146","system_id":"levelo_inurba_marseille","lat":43.27812,"lon":5.39193,"is_reserved":false,"is_disabled":false,"rental_uris":{"android":"levelo://app?vid=c0062d9b-1f26-4a71-8712-49686dc97146","ios":"levelo://app?vid=c0062d9b-1f26-4a71-8712-49686dc97146"},"vehicle_type_id":"4","last_reported":1741896653,"current_range_meters":6000,"station_id":"ce4bhjp2rcd13ifvqga0","pricing_plan_id":"cebpf4jnsgd1na2vs0mg"},{"bike_id":"7fdd32f0-b6f8-4067-bd4f-427256c9418f","system_id":"levelo_inurba_marseille","lat":43.30952,"lon":5.39026,"is_reserved":false,"is_disabled":false,"rental_uris":{"android":"levelo://app?vid=7fdd32f0-b6f8-4067-bd4f-427256c9418f","ios":"levelo://app?vid=7fdd32f0-b6f8-4067-bd4f-427256c9418f"},"vehicle_type_id":"4","last_reported":1741896653,"current_range_meters":6000,"station_id":"ce4bgup2rcd13ifvqco0","pricing_plan_id":"cebpf4jnsgd1na2vs0mg"},{"bike_id":"d7d1b461-2863-4f87-8c95-ed94bf7731ac","system_id":"levelo_inurba_marseille","lat":43.28722,"lon":5.36094,"is_reserved":false,"is_disabled":false,"rental_uris":{"android":"levelo://app?vid=d7d1b461-2863-4f87-8c95-ed94bf7731ac","ios":"levelo://app?vid=d7d1b461-2863-4f87-8c95-ed94bf7731ac"},"vehicle_type_id":"4","last_reported":1741896653,"current_range_meters":6000,"station_id":"cki0cbj6b192h4jlfktg","pricing_plan_id":"cebpf4jnsgd1na2vs0mg"},{"bike_id":"86863c3b-26d2-4646-815d-0597b187b81c","system_id":"levelo_inurba_marseille","lat":43.28839,"lon":5.35858,"is_reserved":false,"is_disabled":false,"rental_uris":{"android":"levelo://app?vid=86863c3b-26d2-4646-815d-0597b187b81c","ios":"levelo://app?vid=86863c3b-26d2-4646-815d-0597b187b81c"},"vehicle_type_id":"4","last_reported":1741896653,"current_range_meters":6400,"station_id":"ce4bhb12rcd13ifvqem0","pricing_plan_id":"cebpf4jnsgd1na2vs0mg"},{"bike_id":"14716e1b-20c5-4b2b-8f41-e2fbb4ae4967","system_id":"levelo_inurba_marseille","lat":43.30793,"lon":5.43543,"is_reserved":false,"is_disabled":false,"rental_uris":{"android":"levelo://app?vid=14716e1b-20c5-4b2b-8f41-e2fbb4ae4967","ios":"levelo://app?vid=14716e1b-20c5-4b2b-8f41-e2fbb4ae4967"},"vehicle_type_id":"4","last_reported":1741896653,"current_range_meters":6400,"station_id":"ce4bhph2rcd13ifvqheg","pricing_plan_id":"cebpf4jnsgd1na2vs0mg"},{"bike_id":"32aebc3a-14c2-412a-9dd1-139c73270c7f","system_id":"levelo_inurba_marseille","lat":43.24994,"lon":5.38927,"is_reserved":false,"is_disabled":false,"rental_uris":{"android":"levelo://app?vid=32aebc3a-14c2-412a-9dd1-139c73270c7f","ios":"levelo://app?vid=32aebc3a-14c2-412a-9dd1-139c73270c7f"},"vehicle_type_id":"4","last_reported":1741896653,"current_range_meters":6400,"station_id":"ce4bhgp2rcd13ifvqfd0","pricing_plan_id":"cebpf4jnsgd1na2vs0mg"},{"bike_id":"22d6ec44-6fdb-4724-8554-c293c64a164e","system_id":"levelo_inurba_marseille","lat":43.27496,"lon":5.42469,"is_reserved":false,"is_disabled":false,"rental_uris":{"android":"levelo://app?vid=22d6ec44-6fdb-4724-8554-c293c64a164e","ios":"levelo://app?vid=22d6ec44-6fdb-4724-8554-c293c64a164e"},"vehicle_type_id":"4","last_reported":1741896653,"current_range_meters":6400,"station_id":"ce4bhn92rcd13ifvqgrg","pricing_plan_id":"cebpf4jnsgd1na2vs0mg"},{"bike_id":"97676c6e-5b52-4f80-aa96-a59eb34f725a","system_id":"levelo_inurba_marseille","lat":43.2953,"lon":5.38539,"is_reserved":false,"is_disabled":false,"rental_uris":{"android":"levelo://app?vid=97676c6e-5b52-4f80-aa96-a59eb34f725a","ios":"levelo://app?vid=97676c6e-5b52-4f80-aa96-a59eb34f725a"},"vehicle_type_id":"4","last_reported":1741896653,"current_range_meters":6400,"station_id":"ce4bgih2rcd13ifvqba0","pricing_plan_id":"cebpf4jnsgd1na2vs0mg"},{"bike_id":"156c0eab-4bc1-46aa-9366-7c764416cfd1","system_id":"levelo_inurba_marseille","lat":43.31352,"lon":5.39758,"is_reserved":false,"is_disabled":false,"rental_uris":{"android":"levelo://app?vid=156c0eab-4bc1-46aa-9366-7c764416cfd1","ios":"levelo://app?vid=156c0eab-4bc1-46aa-9366-7c764416cfd1"},"vehicle_type_id":"4","last_reported":1741896653,"current_range_meters":6400,"station_id":"","pricing_plan_id":"cebpf4jnsgd1na2vs0mg"},{"bike_id":"196af0f0-ec08-4989-85e5-5804a2d6b2e4","system_id":"levelo_inurba_marseille","lat":43.29902,"lon":5.43665,"is_reserved":false,"is_disabled":false,"rental_uris":{"android":"levelo://app?vid=196af0f0-ec08-4989-85e5-5804a2d6b2e4","ios":"levelo://app?vid=196af0f0-ec08-4989-85e5-5804a2d6b2e4"},"vehicle_type_id":"4","last_reported":1741896653,"current_range_meters":6400,"station_id":"ce4bhpp2rcd13ifvqhfg","pricing_plan_id":"cebpf4jnsgd1na2vs0mg"},{"bike_id":"fa62e7ec-7147-46c0-be4f-553f88a41227","system_id":"levelo_inurba_marseille","lat":43.22973,"lon":5.35424,"is_reserved":false,"is_disabled":false,"rental_uris":{"android":"levelo://app?vid=fa62e7ec-7147-46c0-be4f-553f88a41227","ios":"levelo://app?vid=fa62e7ec-7147-46c0-be4f-553f88a41227"},"vehicle_type_id":"4","last_reported":1741896653,"current_range_meters":6400,"station_id":"cpo3532slgdg3j2ikp40","pricing_plan_id":"cebpf4jnsgd1na2vs0mg"},{"bike_id":"d0f37a2d-5920-4a00-ab9e-56f97581bf07","system_id":"levelo_inurba_marseille","lat":43.27826,"lon":5.40716,"is_reserved":false,"is_disabled":false,"rental_uris":{"android":"levelo://app?vid=d0f37a2d-5920-4a00-ab9e-56f97581bf07","ios":"levelo://app?vid=d0f37a2d-5920-4a00-ab9e-56f97581bf07"},"vehicle_type_id":"4","last_reported":1741896653,"current_range_meters":6800,"station_id":"ce4bhnh2rcd13ifvqgtg","pricing_plan_id":"cebpf4jnsgd1na2vs0mg"},{"bike_id":"d5ae4600-476e-4c8a-b248-76c73ec9f040","system_id":"levelo_inurba_marseille","lat":43.25003,"lon":5.38921,"is_reserved":false,"is_disabled":false,"rental_uris":{"android":"levelo://app?vid=d5ae4600-476e-4c8a-b248-76c73ec9f040","ios":"levelo://app?vid=d5ae4600-476e-4c8a-b248-76c73ec9f040"},"vehicle_type_id":"4","last_reported":1741896653,"current_range_meters":6800,"station_id":"ce4bhgp2rcd13ifvqfd0","pricing_plan_id":"cebpf4jnsgd1na2vs0mg"},{"bike_id":"ee6756dc-03a4-4b6f-b8f8-7b93f40e16e5","system_id":"levelo_inurba_marseille","lat":43.27812,"lon":5.40725,"is_reserved":false,"is_disabled":false,"rental_uris":{"android":"levelo://app?vid=ee6756dc-03a4-4b6f-b8f8-7b93f40e16e5","ios":"levelo://app?vid=ee6756dc-03a4-4b6f-b8f8-7b93f40e16e5"},"vehicle_type_id":"4","last_reported":1741896653,"current_range_meters":6800,"station_id":"ce4bhnh2rcd13ifvqgtg","pricing_plan_id":"cebpf4jnsgd1na2vs0mg"},{"bike_id":"81ac0329-83b7-4a31-b8d0-f379d17c3e01","system_id":"levelo_inurba_marseille","lat":43.32339,"lon":5.40624,"is_reserved":false,"is_disabled":false,"rental_uris":{"android":"levelo://app?vid=81ac0329-83b7-4a31-b8d0-f379d17c3e01","ios":"levelo://app?vid=81ac0329-83b7-4a31-b8d0-f379d17c3e01"},"vehicle_type_id":"4","last_reported":1741896653,"current_range_meters":6800,"station_id":"ce4bhq92rcd13ifvqhjg","pricing_plan_id":"cebpf4jnsgd1na2vs0mg"},{"bike_id":"05e8cc25-25f3-46ac-8f5f-38eae408bf93","system_id":"levelo_inurba_marseille","lat":43.31332,"lon":5.39711,"is_reserved":false,"is_disabled":false,"rental_uris":{"android":"levelo://app?vid=05e8cc25-25f3-46ac-8f5f-38eae408bf93","ios":"levelo://app?vid=05e8cc25-25f3-46ac-8f5f-38eae408bf93"},"vehicle_type_id":"4","last_reported":1741896653,"current_range_meters":6800,"station_id":"ce4bgvp2rcd13ifvqcu0","pricing_plan_id":"cebpf4jnsgd1na2vs0mg"},{"bike_id":"7f97dab3-6641-4c6a-9b12-3940cae11793","system_id":"levelo_inurba_marseille","lat":43.25001,"lon":5.38966,"is_reserved":false,"is_disabled":false,"rental_uris":{"android":"levelo://app?vid=7f97dab3-6641-4c6a-9b12-3940cae11793","ios":"levelo://app?vid=7f97dab3-6641-4c6a-9b12-3940cae11793"},"vehicle_type_id":"4","last_reported":1741896653,"current_range_meters":6800,"station_id":"ce4bhgp2rcd13ifvqfd0","pricing_plan_id":"cebpf4jnsgd1na2vs0mg"},{"bike_id":"2fe54254-5b11-4939-bb74-6fb31c1295ea","system_id":"levelo_inurba_marseille","lat":43.229334,"lon":5.35381,"is_reserved":false,"is_disabled":false,"rental_uris":{"android":"levelo://app?vid=2fe54254-5b11-4939-bb74-6fb31c1295ea","ios":"levelo://app?vid=2fe54254-5b11-4939-bb74-6fb31c1295ea"},"vehicle_type_id":"4","last_reported":1741896653,"current_range_meters":6800,"station_id":"cpo3532slgdg3j2ikp40","pricing_plan_id":"cebpf4jnsgd1na2vs0mg"},{"bike_id":"12d33aa8-d2f2-4825-bde9-dca5d397a94c","system_id":"levelo_inurba_marseille","lat":43.24788,"lon":5.37453,"is_reserved":false,"is_disabled":false,"rental_uris":{"android":"levelo://app?vid=12d33aa8-d2f2-4825-bde9-dca5d397a94c","ios":"levelo://app?vid=12d33aa8-d2f2-4825-bde9-dca5d397a94c"},"vehicle_type_id":"4","last_reported":1741896653,"current_range_meters":6800,"station_id":"ce4bhgh2rcd13ifvqfb0","pricing_plan_id":"cebpf4jnsgd1na2vs0mg"},{"bike_id":"e92a6219-166f-4a57-8085-bd46980ee1de","system_id":"levelo_inurba_marseille","lat":43.31274,"lon":5.40172,"is_reserved":false,"is_disabled":false,"rental_uris":{"android":"levelo://app?vid=e92a6219-166f-4a57-8085-bd46980ee1de","ios":"levelo://app?vid=e92a6219-166f-4a57-8085-bd46980ee1de"},"vehicle_type_id":"4","last_reported":1741896653,"current_range_meters":6800,"station_id":"ce4bh092rcd13ifvqd30","pricing_plan_id":"cebpf4jnsgd1na2vs0mg"},{"bike_id":"8ca720cf-8cc7-4201-a29c-e07b0ffda00a","system_id":"levelo_inurba_marseille","lat":43.23184,"lon":5.40016,"is_reserved":false,"is_disabled":false,"rental_uris":{"android":"levelo://app?vid=8ca720cf-8cc7-4201-a29c-e07b0ffda00a","ios":"levelo://app?vid=8ca720cf-8cc7-4201-a29c-e07b0ffda00a"},"vehicle_type_id":"4","last_reported":1741896653,"current_range_meters":6800,"station_id":"ce4bhn12rcd13ifvqgqg","pricing_plan_id":"cebpf4jnsgd1na2vs0mg"},{"bike_id":"282af5fb-8bbf-48fc-9036-e294f0d7b506","system_id":"levelo_inurba_marseille","lat":43.30544,"lon":5.3691,"is_reserved":false,"is_disabled":false,"rental_uris":{"android":"levelo://app?vid=282af5fb-8bbf-48fc-9036-e294f0d7b506","ios":"levelo://app?vid=282af5fb-8bbf-48fc-9036-e294f0d7b506"},"vehicle_type_id":"4","last_reported":1741896653,"current_range_meters":6800,"station_id":"","pricing_plan_id":"cebpf4jnsgd1na2vs0mg"},{"bike_id":"8e17715f-c74e-43f6-ada7-f6c63b953dbf","system_id":"levelo_inurba_marseille","lat":43.31034,"lon":5.37541,"is_reserved":false,"is_disabled":false,"rental_uris":{"android":"levelo://app?vid=8e17715f-c74e-43f6-ada7-f6c63b953dbf","ios":"levelo://app?vid=8e17715f-c74e-43f6-ada7-f6c63b953dbf"},"vehicle_type_id":"4","last_reported":1741896653,"current_range_meters":6800,"station_id":"","pricing_plan_id":"cebpf4jnsgd1na2vs0mg"},{"bike_id":"2db288d5-6a01-4940-8079-957d6ca37cb0","system_id":"levelo_inurba_marseille","lat":43.31755,"lon":5.39024,"is_reserved":false,"is_disabled":false,"rental_uris":{"android":"levelo://app?vid=2db288d5-6a01-4940-8079-957d6ca37cb0","ios":"levelo://app?vid=2db288d5-6a01-4940-8079-957d6ca37cb0"},"vehicle_type_id":"4","last_reported":1741896653,"current_range_meters":6800,"station_id":"ce4bhqp2rcd13ifvqhng","pricing_plan_id":"cebpf4jnsgd1na2vs0mg"},{"bike_id":"28cd2e82-5ec9-4af4-82a6-0279e5cdf721","system_id":"levelo_inurba_marseille","lat":43.27822,"lon":5.40718,"is_reserved":false,"is_disabled":false,"rental_uris":{"android":"levelo://app?vid=28cd2e82-5ec9-4af4-82a6-0279e5cdf721","ios":"levelo://app?vid=28cd2e82-5ec9-4af4-82a6-0279e5cdf721"},"vehicle_type_id":"4","last_reported":1741896653,"current_range_meters":6800,"station_id":"ce4bhnh2rcd13ifvqgtg","pricing_plan_id":"cebpf4jnsgd1na2vs0mg"},{"bike_id":"3248f2a4-d0ac-4e97-8558-71c1072fd105","system_id":"levelo_inurba_marseille","lat":43.31098,"lon":5.37768,"is_reserved":false,"is_disabled":false,"rental_uris":{"android":"levelo://app?vid=3248f2a4-d0ac-4e97-8558-71c1072fd105","ios":"levelo://app?vid=3248f2a4-d0ac-4e97-8558-71c1072fd105"},"vehicle_type_id":"4","last_reported":1741896653,"current_range_meters":7200,"station_id":"ce4bgt92rcd13ifvqcg0","pricing_plan_id":"cebpf4jnsgd1na2vs0mg"},{"bike_id":"d7cf3da4-03cf-4eae-b183-47670a6b872f","system_id":"levelo_inurba_marseille","lat":43.23186,"lon":5.35577,"is_reserved":false,"is_disabled":false,"rental_uris":{"android":"levelo://app?vid=d7cf3da4-03cf-4eae-b183-47670a6b872f","ios":"levelo://app?vid=d7cf3da4-03cf-4eae-b183-47670a6b872f"},"vehicle_type_id":"4","last_reported":1741896653,"current_range_meters":7200,"station_id":"ce4bhu92rcd13ifvqi70","pricing_plan_id":"cebpf4jnsgd1na2vs0mg"},{"bike_id":"ccde3be1-4144-427e-acc2-fed605e4915f","system_id":"levelo_inurba_marseille","lat":43.28083,"lon":5.39844,"is_reserved":false,"is_disabled":false,"rental_uris":{"android":"levelo://app?vid=ccde3be1-4144-427e-acc2-fed605e4915f","ios":"levelo://app?vid=ccde3be1-4144-427e-acc2-fed605e4915f"},"vehicle_type_id":"4","last_reported":1741896653,"current_range_meters":7200,"station_id":"","pricing_plan_id":"cebpf4jnsgd1na2vs0mg"},{"bike_id":"a081f3db-b088-489c-9bd0-f40a86452d9a","system_id":"levelo_inurba_marseille","lat":43.26507,"lon":5.39566,"is_reserved":false,"is_disabled":false,"rental_uris":{"android":"levelo://app?vid=a081f3db-b088-489c-9bd0-f40a86452d9a","ios":"levelo://app?vid=a081f3db-b088-489c-9bd0-f40a86452d9a"},"vehicle_type_id":"4","last_reported":1741896653,"current_range_meters":7200,"station_id":"ce4bhi12rcd13ifvqfq0","pricing_plan_id":"cebpf4jnsgd1na2vs0mg"},{"bike_id":"9fe8ba47-be57-43be-b757-1af1021ecf46","system_id":"levelo_inurba_marseille","lat":43.31072,"lon":5.38363,"is_reserved":false,"is_disabled":false,"rental_uris":{"android":"levelo://app?vid=9fe8ba47-be57-43be-b757-1af1021ecf46","ios":"levelo://app?vid=9fe8ba47-be57-43be-b757-1af1021ecf46"},"vehicle_type_id":"4","last_reported":1741896653,"current_range_meters":7200,"station_id":"ce4bgv92rcd13ifvqcr0","pricing_plan_id":"cebpf4jnsgd1na2vs0mg"},{"bike_id":"931a65f6-98be-4189-b167-a49aeaf4dc43","system_id":"levelo_inurba_marseille","lat":43.25016,"lon":5.3892,"is_reserved":false,"is_disabled":false,"rental_uris":{"android":"levelo://app?vid=931a65f6-98be-4189-b167-a49aeaf4dc43","ios":"levelo://app?vid=931a65f6-98be-4189-b167-a49aeaf4dc43"},"vehicle_type_id":"4","last_reported":1741896653,"current_range_meters":7200,"station_id":"ce4bhgp2rcd13ifvqfd0","pricing_plan_id":"cebpf4jnsgd1na2vs0mg"},{"bike_id":"0791e8ab-11df-4643-a85c-f2f103b26576","system_id":"levelo_inurba_marseille","lat":43.30954,"lon":5.39042,"is_reserved":false,"is_disabled":false,"rental_uris":{"android":"levelo://app?vid=0791e8ab-11df-4643-a85c-f2f103b26576","ios":"levelo://app?vid=0791e8ab-11df-4643-a85c-f2f103b26576"},"vehicle_type_id":"4","last_reported":1741896653,"current_range_meters":7200,"station_id":"ce4bgup2rcd13ifvqco0","pricing_plan_id":"cebpf4jnsgd1na2vs0mg"},{"bike_id":"38c96a38-330f-4ff3-9e6e-5c26787e2ba1","system_id":"levelo_inurba_marseille","lat":43.3106,"lon":5.38362,"is_reserved":false,"is_disabled":false,"rental_uris":{"android":"levelo://app?vid=38c96a38-330f-4ff3-9e6e-5c26787e2ba1","ios":"levelo://app?vid=38c96a38-330f-4ff3-9e6e-5c26787e2ba1"},"vehicle_type_id":"4","last_reported":1741896653,"current_range_meters":8000,"station_id":"ce4bgv92rcd13ifvqcr0","pricing_plan_id":"cebpf4jnsgd1na2vs0mg"},{"bike_id":"a4acc583-7b24-4665-929d-fada161a91f7","system_id":"levelo_inurba_marseille","lat":43.29488,"lon":5.44424,"is_reserved":false,"is_disabled":false,"rental_uris":{"android":"levelo://app?vid=a4acc583-7b24-4665-929d-fada161a91f7","ios":"levelo://app?vid=a4acc583-7b24-4665-929d-fada161a91f7"},"vehicle_type_id":"4","last_reported":1741896653,"current_range_meters":8000,"station_id":"","pricing_plan_id":"cebpf4jnsgd1na2vs0mg"},{"bike_id":"db7198b7-4986-487c-848f-b6fa2eea4556","system_id":"levelo_inurba_marseille","lat":43.31978,"lon":5.38132,"is_reserved":false,"is_disabled":false,"rental_uris":{"android":"levelo://app?vid=db7198b7-4986-487c-848f-b6fa2eea4556","ios":"levelo://app?vid=db7198b7-4986-487c-848f-b6fa2eea4556"},"vehicle_type_id":"4","last_reported":1741896653,"current_range_meters":8000,"station_id":"ce4bhr12rcd13ifvqhpg","pricing_plan_id":"cebpf4jnsgd1na2vs0mg"},{"bike_id":"cd80a725-bb18-48ba-9769-67249d6a51d1","system_id":"levelo_inurba_marseille","lat":43.28414,"lon":5.37515,"is_reserved":false,"is_disabled":false,"rental_uris":{"android":"levelo://app?vid=cd80a725-bb18-48ba-9769-67249d6a51d1","ios":"levelo://app?vid=cd80a725-bb18-48ba-9769-67249d6a51d1"},"vehicle_type_id":"4","last_reported":1741896653,"current_range_meters":8400,"station_id":"ce4bh412rcd13ifvqds0","pricing_plan_id":"cebpf4jnsgd1na2vs0mg"},{"bike_id":"7a5158c5-a332-40d9-b718-72571efee9d7","system_id":"levelo_inurba_marseille","lat":43.28122,"lon":5.4461,"is_reserved":false,"is_disabled":false,"rental_uris":{"android":"levelo://app?vid=7a5158c5-a332-40d9-b718-72571efee9d7","ios":"levelo://app?vid=7a5158c5-a332-40d9-b718-72571efee9d7"},"vehicle_type_id":"4","last_reported":1741896653,"current_range_meters":8400,"station_id":"","pricing_plan_id":"cebpf4jnsgd1na2vs0mg"},{"bike_id":"867ce339-ec44-46de-b242-200925a17d65","system_id":"levelo_inurba_marseille","lat":43.31198,"lon":5.38733,"is_reserved":false,"is_disabled":false,"rental_uris":{"android":"levelo://app?vid=867ce339-ec44-46de-b242-200925a17d65","ios":"levelo://app?vid=867ce339-ec44-46de-b242-200925a17d65"},"vehicle_type_id":"4","last_reported":1741896653,"current_range_meters":8400,"station_id":"ce4bgv12rcd13ifvqcp0","pricing_plan_id":"cebpf4jnsgd1na2vs0mg"},{"bike_id":"93c52f56-a548-459b-89af-fe4ff223cdb7","system_id":"levelo_inurba_marseille","lat":43.23191,"lon":5.40008,"is_reserved":false,"is_disabled":false,"rental_uris":{"android":"levelo://app?vid=93c52f56-a548-459b-89af-fe4ff223cdb7","ios":"levelo://app?vid=93c52f56-a548-459b-89af-fe4ff223cdb7"},"vehicle_type_id":"4","last_reported":1741896653,"current_range_meters":8400,"station_id":"ce4bhn12rcd13ifvqgqg","pricing_plan_id":"cebpf4jnsgd1na2vs0mg"},{"bike_id":"646b2372-b559-48b3-b87a-c986e2e1cd4d","system_id":"levelo_inurba_marseille","lat":43.250057,"lon":5.389233,"is_reserved":false,"is_disabled":false,"rental_uris":{"android":"levelo://app?vid=646b2372-b559-48b3-b87a-c986e2e1cd4d","ios":"levelo://app?vid=646b2372-b559-48b3-b87a-c986e2e1cd4d"},"vehicle_type_id":"4","last_reported":1741896653,"current_range_meters":8400,"station_id":"ce4bhgp2rcd13ifvqfd0","pricing_plan_id":"cebpf4jnsgd1na2vs0mg"},{"bike_id":"7e22af12-09a7-4346-be61-704585297b3e","system_id":"levelo_inurba_marseille","lat":43.30951,"lon":5.39029,"is_reserved":false,"is_disabled":false,"rental_uris":{"android":"levelo://app?vid=7e22af12-09a7-4346-be61-704585297b3e","ios":"levelo://app?vid=7e22af12-09a7-4346-be61-704585297b3e"},"vehicle_type_id":"4","last_reported":1741896653,"current_range_meters":8400,"station_id":"ce4bgup2rcd13ifvqco0","pricing_plan_id":"cebpf4jnsgd1na2vs0mg"},{"bike_id":"3a38c42e-d5be-406d-bade-16dfad377267","system_id":"levelo_inurba_marseille","lat":43.30958,"lon":5.39044,"is_reserved":false,"is_disabled":false,"rental_uris":{"android":"levelo://app?vid=3a38c42e-d5be-406d-bade-16dfad377267","ios":"levelo://app?vid=3a38c42e-d5be-406d-bade-16dfad377267"},"vehicle_type_id":"4","last_reported":1741896653,"current_range_meters":8400,"station_id":"ce4bgup2rcd13ifvqco0","pricing_plan_id":"cebpf4jnsgd1na2vs0mg"},{"bike_id":"14871522-af83-465b-a5e3-69fa0811fa67","system_id":"levelo_inurba_marseille","lat":43.29695,"lon":5.36612,"is_reserved":false,"is_disabled":true,"rental_uris":{"android":"levelo://app?vid=14871522-af83-465b-a5e3-69fa0811fa67","ios":"levelo://app?vid=14871522-af83-465b-a5e3-69fa0811fa67"},"vehicle_type_id":"4","last_reported":1741896653,"current_range_meters":8400,"station_id":"ce4bgn12rcd13ifvqbt0","pricing_plan_id":"cebpf4jnsgd1na2vs0mg"},{"bike_id":"c928c59f-d25d-4ead-a02d-c3284ea6096c","system_id":"levelo_inurba_marseille","lat":43.31324,"lon":5.39709,"is_reserved":false,"is_disabled":false,"rental_uris":{"android":"levelo://app?vid=c928c59f-d25d-4ead-a02d-c3284ea6096c","ios":"levelo://app?vid=c928c59f-d25d-4ead-a02d-c3284ea6096c"},"vehicle_type_id":"4","last_reported":1741896653,"current_range_meters":8400,"station_id":"ce4bgvp2rcd13ifvqcu0","pricing_plan_id":"cebpf4jnsgd1na2vs0mg"},{"bike_id":"c003fafc-f292-480c-9e51-d3db61b1be08","system_id":"levelo_inurba_marseille","lat":43.31166,"lon":5.38718,"is_reserved":false,"is_disabled":false,"rental_uris":{"android":"levelo://app?vid=c003fafc-f292-480c-9e51-d3db61b1be08","ios":"levelo://app?vid=c003fafc-f292-480c-9e51-d3db61b1be08"},"vehicle_type_id":"4","last_reported":1741896653,"current_range_meters":8400,"station_id":"ce4bgv12rcd13ifvqcp0","pricing_plan_id":"cebpf4jnsgd1na2vs0mg"},{"bike_id":"fe2dbfad-2b3c-45be-b26a-7ab6c0dcbc97","system_id":"levelo_inurba_marseille","lat":43.301543,"lon":5.377173,"is_reserved":false,"is_disabled":false,"rental_uris":{"android":"levelo://app?vid=fe2dbfad-2b3c-45be-b26a-7ab6c0dcbc97","ios":"levelo://app?vid=fe2dbfad-2b3c-45be-b26a-7ab6c0dcbc97"},"vehicle_type_id":"4","last_reported":1741896653,"current_range_meters":8400,"station_id":"","pricing_plan_id":"cebpf4jnsgd1na2vs0mg"},{"bike_id":"e350ce66-a995-469c-b4d1-ba6658fe49e2","system_id":"levelo_inurba_marseille","lat":43.27819,"lon":5.40731,"is_reserved":false,"is_disabled":false,"rental_uris":{"android":"levelo://app?vid=e350ce66-a995-469c-b4d1-ba6658fe49e2","ios":"levelo://app?vid=e350ce66-a995-469c-b4d1-ba6658fe49e2"},"vehicle_type_id":"4","last_reported":1741896653,"current_range_meters":8400,"station_id":"ce4bhnh2rcd13ifvqgtg","pricing_plan_id":"cebpf4jnsgd1na2vs0mg"},{"bike_id":"973ab199-0803-4e8d-be0d-01733228e4d0","system_id":"levelo_inurba_marseille","lat":43.32477,"lon":5.36568,"is_reserved":false,"is_disabled":false,"rental_uris":{"android":"levelo://app?vid=973ab199-0803-4e8d-be0d-01733228e4d0","ios":"levelo://app?vid=973ab199-0803-4e8d-be0d-01733228e4d0"},"vehicle_type_id":"4","last_reported":1741896653,"current_range_meters":8400,"station_id":"ce4bhs12rcd13ifvqhvg","pricing_plan_id":"cebpf4jnsgd1na2vs0mg"},{"bike_id":"155c7165-40f9-4638-84a1-91e91cddb9e0","system_id":"levelo_inurba_marseille","lat":43.30794,"lon":5.37336,"is_reserved":false,"is_disabled":true,"rental_uris":{"android":"levelo://app?vid=155c7165-40f9-4638-84a1-91e91cddb9e0","ios":"levelo://app?vid=155c7165-40f9-4638-84a1-91e91cddb9e0"},"vehicle_type_id":"4","last_reported":1741896653,"current_range_meters":8800,"station_id":"","pricing_plan_id":"cebpf4jnsgd1na2vs0mg"},{"bike_id":"5bb60675-343e-40e5-8ecc-6c8030ac3772","system_id":"levelo_inurba_marseille","lat":43.31081,"lon":5.38382,"is_reserved":false,"is_disabled":false,"rental_uris":{"android":"levelo://app?vid=5bb60675-343e-40e5-8ecc-6c8030ac3772","ios":"levelo://app?vid=5bb60675-343e-40e5-8ecc-6c8030ac3772"},"vehicle_type_id":"4","last_reported":1741896653,"current_range_meters":8800,"station_id":"ce4bgv92rcd13ifvqcr0","pricing_plan_id":"cebpf4jnsgd1na2vs0mg"},{"bike_id":"71d58b7f-1082-44b6-ae36-622f6323d2aa","system_id":"levelo_inurba_marseille","lat":43.25104,"lon":5.40327,"is_reserved":false,"is_disabled":false,"rental_uris":{"android":"levelo://app?vid=71d58b7f-1082-44b6-ae36-622f6323d2aa","ios":"levelo://app?vid=71d58b7f-1082-44b6-ae36-622f6323d2aa"},"vehicle_type_id":"4","last_reported":1741896653,"current_range_meters":8800,"station_id":"ce4bhlh2rcd13ifvqgig","pricing_plan_id":"cebpf4jnsgd1na2vs0mg"},{"bike_id":"43835326-78b9-42ff-a7b6-1bd4a9d2b66e","system_id":"levelo_inurba_marseille","lat":43.27949,"lon":5.41037,"is_reserved":false,"is_disabled":false,"rental_uris":{"android":"levelo://app?vid=43835326-78b9-42ff-a7b6-1bd4a9d2b66e","ios":"levelo://app?vid=43835326-78b9-42ff-a7b6-1bd4a9d2b66e"},"vehicle_type_id":"4","last_reported":1741896653,"current_range_meters":8800,"station_id":"ce4bhnp2rcd13ifvqh0g","pricing_plan_id":"cebpf4jnsgd1na2vs0mg"},{"bike_id":"b3fead73-4c4c-401e-81a0-a7fad437c748","system_id":"levelo_inurba_marseille","lat":43.25002,"lon":5.38918,"is_reserved":false,"is_disabled":false,"rental_uris":{"android":"levelo://app?vid=b3fead73-4c4c-401e-81a0-a7fad437c748","ios":"levelo://app?vid=b3fead73-4c4c-401e-81a0-a7fad437c748"},"vehicle_type_id":"4","last_reported":1741896653,"current_range_meters":8800,"station_id":"ce4bhgp2rcd13ifvqfd0","pricing_plan_id":"cebpf4jnsgd1na2vs0mg"},{"bike_id":"39df283f-35a5-4c44-9f0d-6dd6923a19a4","system_id":"levelo_inurba_marseille","lat":43.32122,"lon":5.36788,"is_reserved":false,"is_disabled":false,"rental_uris":{"android":"levelo://app?vid=39df283f-35a5-4c44-9f0d-6dd6923a19a4","ios":"levelo://app?vid=39df283f-35a5-4c44-9f0d-6dd6923a19a4"},"vehicle_type_id":"4","last_reported":1741896653,"current_range_meters":8800,"station_id":"ce4bhrh2rcd13ifvqhug","pricing_plan_id":"cebpf4jnsgd1na2vs0mg"},{"bike_id":"1674bf43-a9bc-4276-af37-35f17dfb3ffa","system_id":"levelo_inurba_marseille","lat":43.30967,"lon":5.37966,"is_reserved":false,"is_disabled":false,"rental_uris":{"android":"levelo://app?vid=1674bf43-a9bc-4276-af37-35f17dfb3ffa","ios":"levelo://app?vid=1674bf43-a9bc-4276-af37-35f17dfb3ffa"},"vehicle_type_id":"4","last_reported":1741896653,"current_range_meters":9200,"station_id":"","pricing_plan_id":"cebpf4jnsgd1na2vs0mg"},{"bike_id":"d0da08c1-6f2e-4548-8fc2-e9c8603b4e82","system_id":"levelo_inurba_marseille","lat":43.30944,"lon":5.39024,"is_reserved":false,"is_disabled":true,"rental_uris":{"android":"levelo://app?vid=d0da08c1-6f2e-4548-8fc2-e9c8603b4e82","ios":"levelo://app?vid=d0da08c1-6f2e-4548-8fc2-e9c8603b4e82"},"vehicle_type_id":"4","last_reported":1741896653,"current_range_meters":9200,"station_id":"ce4bgup2rcd13ifvqco0","pricing_plan_id":"cebpf4jnsgd1na2vs0mg"},{"bike_id":"5a50efc6-acaa-442f-a2eb-94a14db891a7","system_id":"levelo_inurba_marseille","lat":43.3127,"lon":5.40168,"is_reserved":false,"is_disabled":false,"rental_uris":{"android":"levelo://app?vid=5a50efc6-acaa-442f-a2eb-94a14db891a7","ios":"levelo://app?vid=5a50efc6-acaa-442f-a2eb-94a14db891a7"},"vehicle_type_id":"4","last_reported":1741896653,"current_range_meters":9200,"station_id":"ce4bh092rcd13ifvqd30","pricing_plan_id":"cebpf4jnsgd1na2vs0mg"},{"bike_id":"154d0f4a-7cf1-4b4a-8919-807104d462e1","system_id":"levelo_inurba_marseille","lat":43.266631,"lon":5.386141,"is_reserved":false,"is_disabled":false,"rental_uris":{"android":"levelo://app?vid=154d0f4a-7cf1-4b4a-8919-807104d462e1","ios":"levelo://app?vid=154d0f4a-7cf1-4b4a-8919-807104d462e1"},"vehicle_type_id":"4","last_reported":1741896653,"current_range_meters":9200,"station_id":"","pricing_plan_id":"cebpf4jnsgd1na2vs0mg"},{"bike_id":"36ebfc17-b6ab-4767-a5e0-c94c11aba8a2","system_id":"levelo_inurba_marseille","lat":43.32397,"lon":5.3888,"is_reserved":false,"is_disabled":false,"rental_uris":{"android":"levelo://app?vid=36ebfc17-b6ab-4767-a5e0-c94c11aba8a2","ios":"levelo://app?vid=36ebfc17-b6ab-4767-a5e0-c94c11aba8a2"},"vehicle_type_id":"4","last_reported":1741896653,"current_range_meters":9200,"station_id":"ce4bhqp2rcd13ifvqhog","pricing_plan_id":"cebpf4jnsgd1na2vs0mg"},{"bike_id":"1cbeb49c-8d51-46f2-ad03-8af78ea79d9a","system_id":"levelo_inurba_marseille","lat":43.24186,"lon":5.39684,"is_reserved":false,"is_disabled":false,"rental_uris":{"android":"levelo://app?vid=1cbeb49c-8d51-46f2-ad03-8af78ea79d9a","ios":"levelo://app?vid=1cbeb49c-8d51-46f2-ad03-8af78ea79d9a"},"vehicle_type_id":"4","last_reported":1741896653,"current_range_meters":9200,"station_id":"ce4bhn12rcd13ifvqgpg","pricing_plan_id":"cebpf4jnsgd1na2vs0mg"},{"bike_id":"d0be61ee-8c6c-4bf7-99b6-f099a281a656","system_id":"levelo_inurba_marseille","lat":43.25008,"lon":5.38953,"is_reserved":false,"is_disabled":false,"rental_uris":{"android":"levelo://app?vid=d0be61ee-8c6c-4bf7-99b6-f099a281a656","ios":"levelo://app?vid=d0be61ee-8c6c-4bf7-99b6-f099a281a656"},"vehicle_type_id":"4","last_reported":1741896653,"current_range_meters":9200,"station_id":"ce4bhgp2rcd13ifvqfd0","pricing_plan_id":"cebpf4jnsgd1na2vs0mg"},{"bike_id":"7e68ab91-64b1-4ca8-90d6-c2d2040b8729","system_id":"levelo_inurba_marseille","lat":43.23193,"lon":5.39989,"is_reserved":false,"is_disabled":false,"rental_uris":{"android":"levelo://app?vid=7e68ab91-64b1-4ca8-90d6-c2d2040b8729","ios":"levelo://app?vid=7e68ab91-64b1-4ca8-90d6-c2d2040b8729"},"vehicle_type_id":"4","last_reported":1741896653,"current_range_meters":9200,"station_id":"ce4bhn12rcd13ifvqgqg","pricing_plan_id":"cebpf4jnsgd1na2vs0mg"},{"bike_id":"1364704f-c9ba-4f42-a150-59df36918858","system_id":"levelo_inurba_marseille","lat":43.30659,"lon":5.40072,"is_reserved":false,"is_disabled":false,"rental_uris":{"android":"levelo://app?vid=1364704f-c9ba-4f42-a150-59df36918858","ios":"levelo://app?vid=1364704f-c9ba-4f42-a150-59df36918858"},"vehicle_type_id":"4","last_reported":1741896653,"current_range_meters":9200,"station_id":"ce4bh112rcd13ifvqda0","pricing_plan_id":"cebpf4jnsgd1na2vs0mg"},{"bike_id":"50b380bb-89c1-4784-bb85-891d5709afae","system_id":"levelo_inurba_marseille","lat":43.32337,"lon":5.40641,"is_reserved":false,"is_disabled":false,"rental_uris":{"android":"levelo://app?vid=50b380bb-89c1-4784-bb85-891d5709afae","ios":"levelo://app?vid=50b380bb-89c1-4784-bb85-891d5709afae"},"vehicle_type_id":"4","last_reported":1741896653,"current_range_meters":9600,"station_id":"ce4bhq92rcd13ifvqhjg","pricing_plan_id":"cebpf4jnsgd1na2vs0mg"},{"bike_id":"dc1a11bb-8cbd-4e87-91f7-12959996de29","system_id":"levelo_inurba_marseille","lat":43.27821,"lon":5.40716,"is_reserved":false,"is_disabled":false,"rental_uris":{"android":"levelo://app?vid=dc1a11bb-8cbd-4e87-91f7-12959996de29","ios":"levelo://app?vid=dc1a11bb-8cbd-4e87-91f7-12959996de29"},"vehicle_type_id":"4","last_reported":1741896653,"current_range_meters":9600,"station_id":"ce4bhnh2rcd13ifvqgtg","pricing_plan_id":"cebpf4jnsgd1na2vs0mg"},{"bike_id":"76a1a065-7414-4909-8e1f-d9664a62f90e","system_id":"levelo_inurba_marseille","lat":43.28021,"lon":5.36943,"is_reserved":false,"is_disabled":false,"rental_uris":{"android":"levelo://app?vid=76a1a065-7414-4909-8e1f-d9664a62f90e","ios":"levelo://app?vid=76a1a065-7414-4909-8e1f-d9664a62f90e"},"vehicle_type_id":"4","last_reported":1741896653,"current_range_meters":9600,"station_id":"ce4bha12rcd13ifvqef0","pricing_plan_id":"cebpf4jnsgd1na2vs0mg"},{"bike_id":"1179ea35-4831-4438-984a-d67269a5255b","system_id":"levelo_inurba_marseille","lat":43.23203,"lon":5.355508,"is_reserved":false,"is_disabled":false,"rental_uris":{"android":"levelo://app?vid=1179ea35-4831-4438-984a-d67269a5255b","ios":"levelo://app?vid=1179ea35-4831-4438-984a-d67269a5255b"},"vehicle_type_id":"4","last_reported":1741896653,"current_range_meters":9600,"station_id":"ce4bhu92rcd13ifvqi70","pricing_plan_id":"cebpf4jnsgd1na2vs0mg"},{"bike_id":"54184fa2-bc10-4430-9b0e-4e689a6e5eb5","system_id":"levelo_inurba_marseille","lat":43.30327,"lon":5.3691,"is_reserved":false,"is_disabled":true,"rental_uris":{"android":"levelo://app?vid=54184fa2-bc10-4430-9b0e-4e689a6e5eb5","ios":"levelo://app?vid=54184fa2-bc10-4430-9b0e-4e689a6e5eb5"},"vehicle_type_id":"4","last_reported":1741896653,"current_range_meters":9600,"station_id":"ce4bgqh2rcd13ifvqc5g","pricing_plan_id":"cebpf4jnsgd1na2vs0mg"},{"bike_id":"6307ec30-142e-4380-a1b4-79305fa6f44a","system_id":"levelo_inurba_marseille","lat":43.25757,"lon":5.41116,"is_reserved":false,"is_disabled":true,"rental_uris":{"android":"levelo://app?vid=6307ec30-142e-4380-a1b4-79305fa6f44a","ios":"levelo://app?vid=6307ec30-142e-4380-a1b4-79305fa6f44a"},"vehicle_type_id":"4","last_reported":1741896653,"current_range_meters":9600,"station_id":"","pricing_plan_id":"cebpf4jnsgd1na2vs0mg"},{"bike_id":"f1b6fdab-e0bf-48ff-8f7f-b762c90d4d0a","system_id":"levelo_inurba_marseille","lat":43.30967,"lon":5.3905,"is_reserved":false,"is_disabled":false,"rental_uris":{"android":"levelo://app?vid=f1b6fdab-e0bf-48ff-8f7f-b762c90d4d0a","ios":"levelo://app?vid=f1b6fdab-e0bf-48ff-8f7f-b762c90d4d0a"},"vehicle_type_id":"4","last_reported":1741896653,"current_range_meters":9600,"station_id":"ce4bgup2rcd13ifvqco0","pricing_plan_id":"cebpf4jnsgd1na2vs0mg"},{"bike_id":"212dfb8b-1a0a-47da-b9e2-5eac861c88c0","system_id":"levelo_inurba_marseille","lat":43.28452,"lon":5.35896,"is_reserved":false,"is_disabled":false,"rental_uris":{"android":"levelo://app?vid=212dfb8b-1a0a-47da-b9e2-5eac861c88c0","ios":"levelo://app?vid=212dfb8b-1a0a-47da-b9e2-5eac861c88c0"},"vehicle_type_id":"4","last_reported":1741896653,"current_range_meters":9600,"station_id":"ce4bhah2rcd13ifvqei0","pricing_plan_id":"cebpf4jnsgd1na2vs0mg"},{"bike_id":"8c4e2b01-9679-46b7-86e3-aa2306d13c64","system_id":"levelo_inurba_marseille","lat":43.27839,"lon":5.39214,"is_reserved":false,"is_disabled":false,"rental_uris":{"android":"levelo://app?vid=8c4e2b01-9679-46b7-86e3-aa2306d13c64","ios":"levelo://app?vid=8c4e2b01-9679-46b7-86e3-aa2306d13c64"},"vehicle_type_id":"4","last_reported":1741896653,"current_range_meters":9600,"station_id":"ce4bhjp2rcd13ifvqga0","pricing_plan_id":"cebpf4jnsgd1na2vs0mg"},{"bike_id":"db1d9945-452a-48d1-a218-9d250e8fb884","system_id":"levelo_inurba_marseille","lat":43.31332,"lon":5.397,"is_reserved":false,"is_disabled":false,"rental_uris":{"android":"levelo://app?vid=db1d9945-452a-48d1-a218-9d250e8fb884","ios":"levelo://app?vid=db1d9945-452a-48d1-a218-9d250e8fb884"},"vehicle_type_id":"4","last_reported":1741896653,"current_range_meters":9600,"station_id":"ce4bgvp2rcd13ifvqcu0","pricing_plan_id":"cebpf4jnsgd1na2vs0mg"},{"bike_id":"b1cf7d28-ad60-4026-a859-fbe1c16635e8","system_id":"levelo_inurba_marseille","lat":43.29254,"lon":5.37624,"is_reserved":false,"is_disabled":false,"rental_uris":{"android":"levelo://app?vid=b1cf7d28-ad60-4026-a859-fbe1c16635e8","ios":"levelo://app?vid=b1cf7d28-ad60-4026-a859-fbe1c16635e8"},"vehicle_type_id":"4","last_reported":1741896653,"current_range_meters":9600,"station_id":"ce4bgi12rcd13ifvqb80","pricing_plan_id":"cebpf4jnsgd1na2vs0mg"},{"bike_id":"66bd7c0a-ab4a-486e-bfaa-cafa91efd9cb","system_id":"levelo_inurba_marseille","lat":43.265493,"lon":5.372828,"is_reserved":false,"is_disabled":false,"rental_uris":{"android":"levelo://app?vid=66bd7c0a-ab4a-486e-bfaa-cafa91efd9cb","ios":"levelo://app?vid=66bd7c0a-ab4a-486e-bfaa-cafa91efd9cb"},"vehicle_type_id":"4","last_reported":1741896653,"current_range_meters":10000,"station_id":"ce4bhg12rcd13ifvqf70","pricing_plan_id":"cebpf4jnsgd1na2vs0mg"},{"bike_id":"c86e5fec-57ba-43cd-9720-fdc7c826c8d9","system_id":"levelo_inurba_marseille","lat":43.30414,"lon":5.41296,"is_reserved":false,"is_disabled":false,"rental_uris":{"android":"levelo://app?vid=c86e5fec-57ba-43cd-9720-fdc7c826c8d9","ios":"levelo://app?vid=c86e5fec-57ba-43cd-9720-fdc7c826c8d9"},"vehicle_type_id":"4","last_reported":1741896653,"current_range_meters":10000,"station_id":"ce4bhop2rcd13ifvqh8g","pricing_plan_id":"cebpf4jnsgd1na2vs0mg"},{"bike_id":"db60b9e6-9e31-4efa-bfd3-ba8909009906","system_id":"levelo_inurba_marseille","lat":43.29632,"lon":5.40601,"is_reserved":false,"is_disabled":false,"rental_uris":{"android":"levelo://app?vid=db60b9e6-9e31-4efa-bfd3-ba8909009906","ios":"levelo://app?vid=db60b9e6-9e31-4efa-bfd3-ba8909009906"},"vehicle_type_id":"4","last_reported":1741896653,"current_range_meters":10000,"station_id":"ce4bh0h2rcd13ifvqd60","pricing_plan_id":"cebpf4jnsgd1na2vs0mg"},{"bike_id":"c765147a-052b-41b2-a04c-bf6c1fe8a17d","system_id":"levelo_inurba_marseille","lat":43.29765,"lon":5.40383,"is_reserved":false,"is_disabled":false,"rental_uris":{"android":"levelo://app?vid=c765147a-052b-41b2-a04c-bf6c1fe8a17d","ios":"levelo://app?vid=c765147a-052b-41b2-a04c-bf6c1fe8a17d"},"vehicle_type_id":"4","last_reported":1741896653,"current_range_meters":10000,"station_id":"ce4bh0h2rcd13ifvqd60","pricing_plan_id":"cebpf4jnsgd1na2vs0mg"},{"bike_id":"202fc5a0-0ca0-419f-9257-4f9d603c3d2d","system_id":"levelo_inurba_marseille","lat":43.29188,"lon":5.37177,"is_reserved":false,"is_disabled":false,"rental_uris":{"android":"levelo://app?vid=202fc5a0-0ca0-419f-9257-4f9d603c3d2d","ios":"levelo://app?vid=202fc5a0-0ca0-419f-9257-4f9d603c3d2d"},"vehicle_type_id":"4","last_reported":1741896653,"current_range_meters":10000,"station_id":"ce4bha92rcd13ifvqeh0","pricing_plan_id":"cebpf4jnsgd1na2vs0mg"},{"bike_id":"4760c4a3-2ebc-4787-9bfd-517781e41b15","system_id":"levelo_inurba_marseille","lat":43.28624,"lon":5.37076,"is_reserved":false,"is_disabled":false,"rental_uris":{"android":"levelo://app?vid=4760c4a3-2ebc-4787-9bfd-517781e41b15","ios":"levelo://app?vid=4760c4a3-2ebc-4787-9bfd-517781e41b15"},"vehicle_type_id":"4","last_reported":1741896653,"current_range_meters":10000,"station_id":"ce4bht12rcd13ifvqi60","pricing_plan_id":"cebpf4jnsgd1na2vs0mg"},{"bike_id":"6b6ec52c-b806-49dc-b85a-3a98162ca254","system_id":"levelo_inurba_marseille","lat":43.29274,"lon":5.36843,"is_reserved":false,"is_disabled":false,"rental_uris":{"android":"levelo://app?vid=6b6ec52c-b806-49dc-b85a-3a98162ca254","ios":"levelo://app?vid=6b6ec52c-b806-49dc-b85a-3a98162ca254"},"vehicle_type_id":"4","last_reported":1741896653,"current_range_meters":10000,"station_id":"ce4bhbp2rcd13ifvqesg","pricing_plan_id":"cebpf4jnsgd1na2vs0mg"},{"bike_id":"c2100bd3-57ec-4820-992d-70841c2f886a","system_id":"levelo_inurba_marseille","lat":43.32094,"lon":5.36773,"is_reserved":false,"is_disabled":false,"rental_uris":{"android":"levelo://app?vid=c2100bd3-57ec-4820-992d-70841c2f886a","ios":"levelo://app?vid=c2100bd3-57ec-4820-992d-70841c2f886a"},"vehicle_type_id":"4","last_reported":1741896653,"current_range_meters":10000,"station_id":"ce4bhrh2rcd13ifvqhug","pricing_plan_id":"cebpf4jnsgd1na2vs0mg"},{"bike_id":"dbad5b5f-1e5a-4faa-87f5-f9527f055e0f","system_id":"levelo_inurba_marseille","lat":43.32658,"lon":5.40999,"is_reserved":false,"is_disabled":false,"rental_uris":{"android":"levelo://app?vid=dbad5b5f-1e5a-4faa-87f5-f9527f055e0f","ios":"levelo://app?vid=dbad5b5f-1e5a-4faa-87f5-f9527f055e0f"},"vehicle_type_id":"4","last_reported":1741896653,"current_range_meters":10000,"station_id":"ce4bhpp2rcd13ifvqhgg","pricing_plan_id":"cebpf4jnsgd1na2vs0mg"},{"bike_id":"0a581a48-970a-49cf-9abc-040e66b7a185","system_id":"levelo_inurba_marseille","lat":43.29517,"lon":5.39398,"is_reserved":false,"is_disabled":false,"rental_uris":{"android":"levelo://app?vid=0a581a48-970a-49cf-9abc-040e66b7a185","ios":"levelo://app?vid=0a581a48-970a-49cf-9abc-040e66b7a185"},"vehicle_type_id":"4","last_reported":1741896653,"current_range_meters":10000,"station_id":"ce4bh292rcd13ifvqdf0","pricing_plan_id":"cebpf4jnsgd1na2vs0mg"},{"bike_id":"a03bd33b-0c0a-46fb-bf17-fe85f148665f","system_id":"levelo_inurba_marseille","lat":43.30936,"lon":5.40141,"is_reserved":false,"is_disabled":false,"rental_uris":{"android":"levelo://app?vid=a03bd33b-0c0a-46fb-bf17-fe85f148665f","ios":"levelo://app?vid=a03bd33b-0c0a-46fb-bf17-fe85f148665f"},"vehicle_type_id":"4","last_reported":1741896653,"current_range_meters":10000,"station_id":"ce4bgvp2rcd13ifvqct0","pricing_plan_id":"cebpf4jnsgd1na2vs0mg"},{"bike_id":"13401a50-391f-44f9-b490-c74e2ad6dc53","system_id":"levelo_inurba_marseille","lat":43.27831,"lon":5.40724,"is_reserved":false,"is_disabled":false,"rental_uris":{"android":"levelo://app?vid=13401a50-391f-44f9-b490-c74e2ad6dc53","ios":"levelo://app?vid=13401a50-391f-44f9-b490-c74e2ad6dc53"},"vehicle_type_id":"4","last_reported":1741896653,"current_range_meters":10000,"station_id":"ce4bhnh2rcd13ifvqgtg","pricing_plan_id":"cebpf4jnsgd1na2vs0mg"},{"bike_id":"4f2ddad8-944b-4f7f-88fd-24992043188c","system_id":"levelo_inurba_marseille","lat":43.30954,"lon":5.4015,"is_reserved":false,"is_disabled":false,"rental_uris":{"android":"levelo://app?vid=4f2ddad8-944b-4f7f-88fd-24992043188c","ios":"levelo://app?vid=4f2ddad8-944b-4f7f-88fd-24992043188c"},"vehicle_type_id":"4","last_reported":1741896653,"current_range_meters":10800,"station_id":"ce4bgvp2rcd13ifvqct0","pricing_plan_id":"cebpf4jnsgd1na2vs0mg"},{"bike_id":"6713e28e-1653-4aa7-8df0-276d0831858a","system_id":"levelo_inurba_marseille","lat":43.29271,"lon":5.36847,"is_reserved":false,"is_disabled":false,"rental_uris":{"android":"levelo://app?vid=6713e28e-1653-4aa7-8df0-276d0831858a","ios":"levelo://app?vid=6713e28e-1653-4aa7-8df0-276d0831858a"},"vehicle_type_id":"4","last_reported":1741896653,"current_range_meters":10800,"station_id":"ce4bhbp2rcd13ifvqesg","pricing_plan_id":"cebpf4jnsgd1na2vs0mg"},{"bike_id":"be032bdf-fb9e-4a87-aa6d-ada034ed44e6","system_id":"levelo_inurba_marseille","lat":43.27823,"lon":5.40764,"is_reserved":false,"is_disabled":false,"rental_uris":{"android":"levelo://app?vid=be032bdf-fb9e-4a87-aa6d-ada034ed44e6","ios":"levelo://app?vid=be032bdf-fb9e-4a87-aa6d-ada034ed44e6"},"vehicle_type_id":"4","last_reported":1741896653,"current_range_meters":10800,"station_id":"ce4bhnh2rcd13ifvqgtg","pricing_plan_id":"cebpf4jnsgd1na2vs0mg"},{"bike_id":"02757fb8-8293-4514-b994-62c44c21925e","system_id":"levelo_inurba_marseille","lat":43.28719,"lon":5.3611,"is_reserved":false,"is_disabled":false,"rental_uris":{"android":"levelo://app?vid=02757fb8-8293-4514-b994-62c44c21925e","ios":"levelo://app?vid=02757fb8-8293-4514-b994-62c44c21925e"},"vehicle_type_id":"4","last_reported":1741896653,"current_range_meters":10800,"station_id":"cki0cbj6b192h4jlfktg","pricing_plan_id":"cebpf4jnsgd1na2vs0mg"},{"bike_id":"5ea021e9-0200-4434-a07e-adbb41017ac8","system_id":"levelo_inurba_marseille","lat":43.24072,"lon":5.37763,"is_reserved":false,"is_disabled":false,"rental_uris":{"android":"levelo://app?vid=5ea021e9-0200-4434-a07e-adbb41017ac8","ios":"levelo://app?vid=5ea021e9-0200-4434-a07e-adbb41017ac8"},"vehicle_type_id":"4","last_reported":1741896653,"current_range_meters":10800,"station_id":"ce4bhnp2rcd13ifvqgvg","pricing_plan_id":"cebpf4jnsgd1na2vs0mg"},{"bike_id":"6944bb06-8a8c-4cf4-86a1-ca9561cf4ee4","system_id":"levelo_inurba_marseille","lat":43.23055,"lon":5.355,"is_reserved":false,"is_disabled":false,"rental_uris":{"android":"levelo://app?vid=6944bb06-8a8c-4cf4-86a1-ca9561cf4ee4","ios":"levelo://app?vid=6944bb06-8a8c-4cf4-86a1-ca9561cf4ee4"},"vehicle_type_id":"4","last_reported":1741896653,"current_range_meters":10800,"station_id":"cpo3342slgdg3j2ifvpg","pricing_plan_id":"cebpf4jnsgd1na2vs0mg"},{"bike_id":"d2c1304d-c6de-4e19-a363-2c0c4bdd9fb1","system_id":"levelo_inurba_marseille","lat":43.24666,"lon":5.38955,"is_reserved":false,"is_disabled":false,"rental_uris":{"android":"levelo://app?vid=d2c1304d-c6de-4e19-a363-2c0c4bdd9fb1","ios":"levelo://app?vid=d2c1304d-c6de-4e19-a363-2c0c4bdd9fb1"},"vehicle_type_id":"4","last_reported":1741896653,"current_range_meters":10800,"station_id":"","pricing_plan_id":"cebpf4jnsgd1na2vs0mg"},{"bike_id":"96bae133-2c88-4f4f-a72b-a62518ed1b8a","system_id":"levelo_inurba_marseille","lat":43.27513,"lon":5.42457,"is_reserved":false,"is_disabled":false,"rental_uris":{"android":"levelo://app?vid=96bae133-2c88-4f4f-a72b-a62518ed1b8a","ios":"levelo://app?vid=96bae133-2c88-4f4f-a72b-a62518ed1b8a"},"vehicle_type_id":"4","last_reported":1741896653,"current_range_meters":10800,"station_id":"ce4bhn92rcd13ifvqgrg","pricing_plan_id":"cebpf4jnsgd1na2vs0mg"},{"bike_id":"4b112a33-2820-4625-96c9-8f07ae7ff329","system_id":"levelo_inurba_marseille","lat":43.30816,"lon":5.43543,"is_reserved":false,"is_disabled":false,"rental_uris":{"android":"levelo://app?vid=4b112a33-2820-4625-96c9-8f07ae7ff329","ios":"levelo://app?vid=4b112a33-2820-4625-96c9-8f07ae7ff329"},"vehicle_type_id":"4","last_reported":1741896653,"current_range_meters":10800,"station_id":"ce4bhph2rcd13ifvqheg","pricing_plan_id":"cebpf4jnsgd1na2vs0mg"},{"bike_id":"414a87d8-0320-4da5-94cb-1c2e9eb2c2e2","system_id":"levelo_inurba_marseille","lat":43.25824,"lon":5.39435,"is_reserved":false,"is_disabled":false,"rental_uris":{"android":"levelo://app?vid=414a87d8-0320-4da5-94cb-1c2e9eb2c2e2","ios":"levelo://app?vid=414a87d8-0320-4da5-94cb-1c2e9eb2c2e2"},"vehicle_type_id":"4","last_reported":1741896653,"current_range_meters":11200,"station_id":"ce4bhip2rcd13ifvqft0","pricing_plan_id":"cebpf4jnsgd1na2vs0mg"},{"bike_id":"ec96b214-56a6-4965-95d3-d0c013927455","system_id":"levelo_inurba_marseille","lat":43.27804,"lon":5.40718,"is_reserved":false,"is_disabled":false,"rental_uris":{"android":"levelo://app?vid=ec96b214-56a6-4965-95d3-d0c013927455","ios":"levelo://app?vid=ec96b214-56a6-4965-95d3-d0c013927455"},"vehicle_type_id":"4","last_reported":1741896653,"current_range_meters":11200,"station_id":"ce4bhnh2rcd13ifvqgtg","pricing_plan_id":"cebpf4jnsgd1na2vs0mg"},{"bike_id":"6cec560f-8635-4801-8462-637e6f2c72c5","system_id":"levelo_inurba_marseille","lat":43.23211,"lon":5.35564,"is_reserved":false,"is_disabled":false,"rental_uris":{"android":"levelo://app?vid=6cec560f-8635-4801-8462-637e6f2c72c5","ios":"levelo://app?vid=6cec560f-8635-4801-8462-637e6f2c72c5"},"vehicle_type_id":"4","last_reported":1741896653,"current_range_meters":11200,"station_id":"ce4bhu92rcd13ifvqi70","pricing_plan_id":"cebpf4jnsgd1na2vs0mg"},{"bike_id":"317454e4-dd48-4611-814d-533bcc596415","system_id":"levelo_inurba_marseille","lat":43.28934,"lon":5.37527,"is_reserved":false,"is_disabled":false,"rental_uris":{"android":"levelo://app?vid=317454e4-dd48-4611-814d-533bcc596415","ios":"levelo://app?vid=317454e4-dd48-4611-814d-533bcc596415"},"vehicle_type_id":"4","last_reported":1741896653,"current_range_meters":11200,"station_id":"ce4bh692rcd13ifvqe90","pricing_plan_id":"cebpf4jnsgd1na2vs0mg"},{"bike_id":"34a6b7c9-65cd-4cb9-bd4b-b4336f8953ec","system_id":"levelo_inurba_marseille","lat":43.31164,"lon":5.38717,"is_reserved":false,"is_disabled":false,"rental_uris":{"android":"levelo://app?vid=34a6b7c9-65cd-4cb9-bd4b-b4336f8953ec","ios":"levelo://app?vid=34a6b7c9-65cd-4cb9-bd4b-b4336f8953ec"},"vehicle_type_id":"4","last_reported":1741896653,"current_range_meters":11200,"station_id":"ce4bgv12rcd13ifvqcp0","pricing_plan_id":"cebpf4jnsgd1na2vs0mg"},{"bike_id":"97a3342f-3ca5-439d-8886-7bbabf5b6c98","system_id":"levelo_inurba_marseille","lat":43.32104,"lon":5.36763,"is_reserved":false,"is_disabled":false,"rental_uris":{"android":"levelo://app?vid=97a3342f-3ca5-439d-8886-7bbabf5b6c98","ios":"levelo://app?vid=97a3342f-3ca5-439d-8886-7bbabf5b6c98"},"vehicle_type_id":"4","last_reported":1741896653,"current_range_meters":11200,"station_id":"ce4bhrh2rcd13ifvqhug","pricing_plan_id":"cebpf4jnsgd1na2vs0mg"},{"bike_id":"8a7d6fbc-9324-4554-9abc-ceeffff483c4","system_id":"levelo_inurba_marseille","lat":43.32355,"lon":5.38891,"is_reserved":false,"is_disabled":false,"rental_uris":{"android":"levelo://app?vid=8a7d6fbc-9324-4554-9abc-ceeffff483c4","ios":"levelo://app?vid=8a7d6fbc-9324-4554-9abc-ceeffff483c4"},"vehicle_type_id":"4","last_reported":1741896653,"current_range_meters":11200,"station_id":"ce4bhqp2rcd13ifvqhog","pricing_plan_id":"cebpf4jnsgd1na2vs0mg"},{"bike_id":"a1865482-901a-461f-bbbf-89cc5aaa4978","system_id":"levelo_inurba_marseille","lat":43.31237,"lon":5.37857,"is_reserved":false,"is_disabled":false,"rental_uris":{"android":"levelo://app?vid=a1865482-901a-461f-bbbf-89cc5aaa4978","ios":"levelo://app?vid=a1865482-901a-461f-bbbf-89cc5aaa4978"},"vehicle_type_id":"4","last_reported":1741896653,"current_range_meters":11600,"station_id":"ce4bgj92rcd13ifvqbd0","pricing_plan_id":"cebpf4jnsgd1na2vs0mg"},{"bike_id":"93a558b9-b8dc-447e-a148-f78398e17dbb","system_id":"levelo_inurba_marseille","lat":43.33606,"lon":5.41011,"is_reserved":false,"is_disabled":false,"rental_uris":{"android":"levelo://app?vid=93a558b9-b8dc-447e-a148-f78398e17dbb","ios":"levelo://app?vid=93a558b9-b8dc-447e-a148-f78398e17dbb"},"vehicle_type_id":"4","last_reported":1741896653,"current_range_meters":11600,"station_id":"ce4bhqh2rcd13ifvqhmg","pricing_plan_id":"cebpf4jnsgd1na2vs0mg"},{"bike_id":"be63488c-59db-4701-a598-fb2c2bba0df2","system_id":"levelo_inurba_marseille","lat":43.30817,"lon":5.43534,"is_reserved":false,"is_disabled":false,"rental_uris":{"android":"levelo://app?vid=be63488c-59db-4701-a598-fb2c2bba0df2","ios":"levelo://app?vid=be63488c-59db-4701-a598-fb2c2bba0df2"},"vehicle_type_id":"4","last_reported":1741896653,"current_range_meters":11600,"station_id":"ce4bhph2rcd13ifvqheg","pricing_plan_id":"cebpf4jnsgd1na2vs0mg"},{"bike_id":"057e243d-bef4-47a8-82f5-d3ae1027082b","system_id":"levelo_inurba_marseille","lat":43.2985,"lon":5.36287,"is_reserved":false,"is_disabled":false,"rental_uris":{"android":"levelo://app?vid=057e243d-bef4-47a8-82f5-d3ae1027082b","ios":"levelo://app?vid=057e243d-bef4-47a8-82f5-d3ae1027082b"},"vehicle_type_id":"4","last_reported":1741896653,"current_range_meters":11600,"station_id":"ce4bgpp2rcd13ifvqc3g","pricing_plan_id":"cebpf4jnsgd1na2vs0mg"},{"bike_id":"7121d818-13e2-43ed-b445-7134fefdd64f","system_id":"levelo_inurba_marseille","lat":43.23198,"lon":5.35553,"is_reserved":false,"is_disabled":false,"rental_uris":{"android":"levelo://app?vid=7121d818-13e2-43ed-b445-7134fefdd64f","ios":"levelo://app?vid=7121d818-13e2-43ed-b445-7134fefdd64f"},"vehicle_type_id":"4","last_reported":1741896653,"current_range_meters":11600,"station_id":"ce4bhu92rcd13ifvqi70","pricing_plan_id":"cebpf4jnsgd1na2vs0mg"},{"bike_id":"946d36d3-2389-40bf-b05e-172aa0d939a5","system_id":"levelo_inurba_marseille","lat":43.30943,"lon":5.39039,"is_reserved":false,"is_disabled":false,"rental_uris":{"android":"levelo://app?vid=946d36d3-2389-40bf-b05e-172aa0d939a5","ios":"levelo://app?vid=946d36d3-2389-40bf-b05e-172aa0d939a5"},"vehicle_type_id":"4","last_reported":1741896653,"current_range_meters":11600,"station_id":"ce4bgup2rcd13ifvqco0","pricing_plan_id":"cebpf4jnsgd1na2vs0mg"},{"bike_id":"77c5059d-e18b-4169-9849-a973f1f035b1","system_id":"levelo_inurba_marseille","lat":43.27908,"lon":5.39575,"is_reserved":false,"is_disabled":false,"rental_uris":{"android":"levelo://app?vid=77c5059d-e18b-4169-9849-a973f1f035b1","ios":"levelo://app?vid=77c5059d-e18b-4169-9849-a973f1f035b1"},"vehicle_type_id":"4","last_reported":1741896653,"current_range_meters":11600,"station_id":"ce4bhf92rcd13ifvqf40","pricing_plan_id":"cebpf4jnsgd1na2vs0mg"},{"bike_id":"7ec560ba-5aa0-4004-9944-6b2f1978d1d2","system_id":"levelo_inurba_marseille","lat":43.27793,"lon":5.40719,"is_reserved":false,"is_disabled":false,"rental_uris":{"android":"levelo://app?vid=7ec560ba-5aa0-4004-9944-6b2f1978d1d2","ios":"levelo://app?vid=7ec560ba-5aa0-4004-9944-6b2f1978d1d2"},"vehicle_type_id":"4","last_reported":1741896653,"current_range_meters":11600,"station_id":"ce4bhnh2rcd13ifvqgtg","pricing_plan_id":"cebpf4jnsgd1na2vs0mg"},{"bike_id":"419aa6f6-0daa-4ec5-9ea2-c5e5e3e9ff07","system_id":"levelo_inurba_marseille","lat":43.30948,"lon":5.39031,"is_reserved":false,"is_disabled":false,"rental_uris":{"android":"levelo://app?vid=419aa6f6-0daa-4ec5-9ea2-c5e5e3e9ff07","ios":"levelo://app?vid=419aa6f6-0daa-4ec5-9ea2-c5e5e3e9ff07"},"vehicle_type_id":"4","last_reported":1741896653,"current_range_meters":11600,"station_id":"ce4bgup2rcd13ifvqco0","pricing_plan_id":"cebpf4jnsgd1na2vs0mg"},{"bike_id":"4eb8d83c-6175-49f1-bd57-aeef8f9324e3","system_id":"levelo_inurba_marseille","lat":43.28939,"lon":5.3964,"is_reserved":false,"is_disabled":false,"rental_uris":{"android":"levelo://app?vid=4eb8d83c-6175-49f1-bd57-aeef8f9324e3","ios":"levelo://app?vid=4eb8d83c-6175-49f1-bd57-aeef8f9324e3"},"vehicle_type_id":"4","last_reported":1741896653,"current_range_meters":12000,"station_id":"ce4bh3h2rcd13ifvqdn0","pricing_plan_id":"cebpf4jnsgd1na2vs0mg"},{"bike_id":"bf7035b0-43dc-4781-beb1-fc31690da7ef","system_id":"levelo_inurba_marseille","lat":43.23967,"lon":5.36636,"is_reserved":false,"is_disabled":false,"rental_uris":{"android":"levelo://app?vid=bf7035b0-43dc-4781-beb1-fc31690da7ef","ios":"levelo://app?vid=bf7035b0-43dc-4781-beb1-fc31690da7ef"},"vehicle_type_id":"4","last_reported":1741896653,"current_range_meters":12000,"station_id":"ce4bhi12rcd13ifvqfp0","pricing_plan_id":"cebpf4jnsgd1na2vs0mg"},{"bike_id":"63767377-c964-4303-951f-282b026ac978","system_id":"levelo_inurba_marseille","lat":43.31149,"lon":5.37794,"is_reserved":false,"is_disabled":false,"rental_uris":{"android":"levelo://app?vid=63767377-c964-4303-951f-282b026ac978","ios":"levelo://app?vid=63767377-c964-4303-951f-282b026ac978"},"vehicle_type_id":"4","last_reported":1741896653,"current_range_meters":12000,"station_id":"ce4bgt92rcd13ifvqcg0","pricing_plan_id":"cebpf4jnsgd1na2vs0mg"},{"bike_id":"1ae01e22-4c4d-4069-8bf6-0be88949011a","system_id":"levelo_inurba_marseille","lat":43.32368,"lon":5.38902,"is_reserved":false,"is_disabled":false,"rental_uris":{"android":"levelo://app?vid=1ae01e22-4c4d-4069-8bf6-0be88949011a","ios":"levelo://app?vid=1ae01e22-4c4d-4069-8bf6-0be88949011a"},"vehicle_type_id":"4","last_reported":1741896653,"current_range_meters":12000,"station_id":"ce4bhqp2rcd13ifvqhog","pricing_plan_id":"cebpf4jnsgd1na2vs0mg"},{"bike_id":"28b989ec-8586-4755-a142-6484cd3b8923","system_id":"levelo_inurba_marseille","lat":43.30954,"lon":5.39034,"is_reserved":false,"is_disabled":false,"rental_uris":{"android":"levelo://app?vid=28b989ec-8586-4755-a142-6484cd3b8923","ios":"levelo://app?vid=28b989ec-8586-4755-a142-6484cd3b8923"},"vehicle_type_id":"4","last_reported":1741896653,"current_range_meters":8400,"station_id":"ce4bgup2rcd13ifvqco0","pricing_plan_id":"cebpf4jnsgd1na2vs0mg"},{"bike_id":"f82329f9-2c3f-438b-a56f-d3260042d25d","system_id":"levelo_inurba_marseille","lat":43.278105,"lon":5.40712,"is_reserved":false,"is_disabled":false,"rental_uris":{"android":"levelo://app?vid=f82329f9-2c3f-438b-a56f-d3260042d25d","ios":"levelo://app?vid=f82329f9-2c3f-438b-a56f-d3260042d25d"},"vehicle_type_id":"4","last_reported":1741896653,"current_range_meters":12000,"station_id":"ce4bhnh2rcd13ifvqgtg","pricing_plan_id":"cebpf4jnsgd1na2vs0mg"},{"bike_id":"b634fcd7-4303-4fed-a2f8-fcd04ed2a4dd","system_id":"levelo_inurba_marseille","lat":43.23064,"lon":5.35514,"is_reserved":false,"is_disabled":false,"rental_uris":{"android":"levelo://app?vid=b634fcd7-4303-4fed-a2f8-fcd04ed2a4dd","ios":"levelo://app?vid=b634fcd7-4303-4fed-a2f8-fcd04ed2a4dd"},"vehicle_type_id":"4","last_reported":1741896653,"current_range_meters":12000,"station_id":"cpo3342slgdg3j2ifvpg","pricing_plan_id":"cebpf4jnsgd1na2vs0mg"},{"bike_id":"3363e5ed-aafd-4c83-9f97-12270e6ffcf4","system_id":"levelo_inurba_marseille","lat":43.24861,"lon":5.40643,"is_reserved":false,"is_disabled":false,"rental_uris":{"android":"levelo://app?vid=3363e5ed-aafd-4c83-9f97-12270e6ffcf4","ios":"levelo://app?vid=3363e5ed-aafd-4c83-9f97-12270e6ffcf4"},"vehicle_type_id":"4","last_reported":1741896653,"current_range_meters":12000,"station_id":"","pricing_plan_id":"cebpf4jnsgd1na2vs0mg"},{"bike_id":"fc4d434d-cedb-422a-899d-a371172f5640","system_id":"levelo_inurba_marseille","lat":43.31987,"lon":5.38134,"is_reserved":false,"is_disabled":false,"rental_uris":{"android":"levelo://app?vid=fc4d434d-cedb-422a-899d-a371172f5640","ios":"levelo://app?vid=fc4d434d-cedb-422a-899d-a371172f5640"},"vehicle_type_id":"4","last_reported":1741896653,"current_range_meters":12000,"station_id":"ce4bhr12rcd13ifvqhpg","pricing_plan_id":"cebpf4jnsgd1na2vs0mg"},{"bike_id":"421b8cd1-40e7-4178-b924-5030446c9a38","system_id":"levelo_inurba_marseille","lat":43.27937,"lon":5.41052,"is_reserved":false,"is_disabled":false,"rental_uris":{"android":"levelo://app?vid=421b8cd1-40e7-4178-b924-5030446c9a38","ios":"levelo://app?vid=421b8cd1-40e7-4178-b924-5030446c9a38"},"vehicle_type_id":"4","last_reported":1741896653,"current_range_meters":12000,"station_id":"ce4bhnp2rcd13ifvqh0g","pricing_plan_id":"cebpf4jnsgd1na2vs0mg"},{"bike_id":"36ec5a15-215b-4367-a3ca-336aadd9a251","system_id":"levelo_inurba_marseille","lat":43.33746,"lon":5.3745,"is_reserved":false,"is_disabled":false,"rental_uris":{"android":"levelo://app?vid=36ec5a15-215b-4367-a3ca-336aadd9a251","ios":"levelo://app?vid=36ec5a15-215b-4367-a3ca-336aadd9a251"},"vehicle_type_id":"4","last_reported":1741896653,"current_range_meters":12000,"station_id":"","pricing_plan_id":"cebpf4jnsgd1na2vs0mg"},{"bike_id":"436bf6fd-98f0-4c70-968c-7fcac8f398a5","system_id":"levelo_inurba_marseille","lat":43.25088,"lon":5.41071,"is_reserved":false,"is_disabled":false,"rental_uris":{"android":"levelo://app?vid=436bf6fd-98f0-4c70-968c-7fcac8f398a5","ios":"levelo://app?vid=436bf6fd-98f0-4c70-968c-7fcac8f398a5"},"vehicle_type_id":"4","last_reported":1741896653,"current_range_meters":12400,"station_id":"","pricing_plan_id":"cebpf4jnsgd1na2vs0mg"},{"bike_id":"a5c672ff-0d6f-4565-b2c7-94f7284c6604","system_id":"levelo_inurba_marseille","lat":43.27947,"lon":5.41057,"is_reserved":false,"is_disabled":false,"rental_uris":{"android":"levelo://app?vid=a5c672ff-0d6f-4565-b2c7-94f7284c6604","ios":"levelo://app?vid=a5c672ff-0d6f-4565-b2c7-94f7284c6604"},"vehicle_type_id":"4","last_reported":1741896653,"current_range_meters":12400,"station_id":"ce4bhnp2rcd13ifvqh0g","pricing_plan_id":"cebpf4jnsgd1na2vs0mg"},{"bike_id":"50d64403-c416-4d90-94df-47fc6304203d","system_id":"levelo_inurba_marseille","lat":43.29524,"lon":5.3752,"is_reserved":false,"is_disabled":false,"rental_uris":{"android":"levelo://app?vid=50d64403-c416-4d90-94df-47fc6304203d","ios":"levelo://app?vid=50d64403-c416-4d90-94df-47fc6304203d"},"vehicle_type_id":"4","last_reported":1741896653,"current_range_meters":12400,"station_id":"ce4bgkp2rcd13ifvqbmg","pricing_plan_id":"cebpf4jnsgd1na2vs0mg"},{"bike_id":"3baf0311-5218-4f92-980f-91500a79dbfa","system_id":"levelo_inurba_marseille","lat":43.33603,"lon":5.40973,"is_reserved":false,"is_disabled":false,"rental_uris":{"android":"levelo://app?vid=3baf0311-5218-4f92-980f-91500a79dbfa","ios":"levelo://app?vid=3baf0311-5218-4f92-980f-91500a79dbfa"},"vehicle_type_id":"4","last_reported":1741896653,"current_range_meters":12400,"station_id":"ce4bhqh2rcd13ifvqhmg","pricing_plan_id":"cebpf4jnsgd1na2vs0mg"},{"bike_id":"72ed60ce-55b0-476b-8773-5408a349a473","system_id":"levelo_inurba_marseille","lat":43.29008,"lon":5.38132,"is_reserved":false,"is_disabled":false,"rental_uris":{"android":"levelo://app?vid=72ed60ce-55b0-476b-8773-5408a349a473","ios":"levelo://app?vid=72ed60ce-55b0-476b-8773-5408a349a473"},"vehicle_type_id":"4","last_reported":1741896653,"current_range_meters":12400,"station_id":"ce4bh4p2rcd13ifvqe1g","pricing_plan_id":"cebpf4jnsgd1na2vs0mg"},{"bike_id":"b950f596-3a5b-4e51-8a51-28a21be6c2be","system_id":"levelo_inurba_marseille","lat":43.280763,"lon":5.396397,"is_reserved":false,"is_disabled":false,"rental_uris":{"android":"levelo://app?vid=b950f596-3a5b-4e51-8a51-28a21be6c2be","ios":"levelo://app?vid=b950f596-3a5b-4e51-8a51-28a21be6c2be"},"vehicle_type_id":"4","last_reported":1741896653,"current_range_meters":12400,"station_id":"ce4bho12rcd13ifvqh2g","pricing_plan_id":"cebpf4jnsgd1na2vs0mg"},{"bike_id":"c75624ab-8824-4f6a-bd1b-20bacca5a148","system_id":"levelo_inurba_marseille","lat":43.27841,"lon":5.40723,"is_reserved":false,"is_disabled":false,"rental_uris":{"android":"levelo://app?vid=c75624ab-8824-4f6a-bd1b-20bacca5a148","ios":"levelo://app?vid=c75624ab-8824-4f6a-bd1b-20bacca5a148"},"vehicle_type_id":"4","last_reported":1741896653,"current_range_meters":12400,"station_id":"ce4bhnh2rcd13ifvqgtg","pricing_plan_id":"cebpf4jnsgd1na2vs0mg"},{"bike_id":"4078ae31-3c28-4811-a96d-e5898683501c","system_id":"levelo_inurba_marseille","lat":43.278267,"lon":5.40715,"is_reserved":false,"is_disabled":false,"rental_uris":{"android":"levelo://app?vid=4078ae31-3c28-4811-a96d-e5898683501c","ios":"levelo://app?vid=4078ae31-3c28-4811-a96d-e5898683501c"},"vehicle_type_id":"4","last_reported":1741896653,"current_range_meters":12400,"station_id":"ce4bhnh2rcd13ifvqgtg","pricing_plan_id":"cebpf4jnsgd1na2vs0mg"},{"bike_id":"5cc7458f-f066-4511-ae2c-1f6d5a0e7158","system_id":"levelo_inurba_marseille","lat":43.27552,"lon":5.3841,"is_reserved":false,"is_disabled":false,"rental_uris":{"android":"levelo://app?vid=5cc7458f-f066-4511-ae2c-1f6d5a0e7158","ios":"levelo://app?vid=5cc7458f-f066-4511-ae2c-1f6d5a0e7158"},"vehicle_type_id":"4","last_reported":1741896653,"current_range_meters":12400,"station_id":"ce4bhh92rcd13ifvqfi0","pricing_plan_id":"cebpf4jnsgd1na2vs0mg"},{"bike_id":"9a719051-5115-4a08-8e7b-ae42f9cbb7fe","system_id":"levelo_inurba_marseille","lat":43.3111,"lon":5.37787,"is_reserved":false,"is_disabled":false,"rental_uris":{"android":"levelo://app?vid=9a719051-5115-4a08-8e7b-ae42f9cbb7fe","ios":"levelo://app?vid=9a719051-5115-4a08-8e7b-ae42f9cbb7fe"},"vehicle_type_id":"4","last_reported":1741896653,"current_range_meters":12400,"station_id":"ce4bgt92rcd13ifvqcg0","pricing_plan_id":"cebpf4jnsgd1na2vs0mg"},{"bike_id":"484d62e3-8e92-4d73-971b-41c613b66c1b","system_id":"levelo_inurba_marseille","lat":43.28842,"lon":5.35865,"is_reserved":false,"is_disabled":false,"rental_uris":{"android":"levelo://app?vid=484d62e3-8e92-4d73-971b-41c613b66c1b","ios":"levelo://app?vid=484d62e3-8e92-4d73-971b-41c613b66c1b"},"vehicle_type_id":"4","last_reported":1741896653,"current_range_meters":12400,"station_id":"ce4bhb12rcd13ifvqem0","pricing_plan_id":"cebpf4jnsgd1na2vs0mg"},{"bike_id":"b4b3ef83-ad79-4dfa-97e2-a6f24424db6a","system_id":"levelo_inurba_marseille","lat":43.32379,"lon":5.4063,"is_reserved":false,"is_disabled":false,"rental_uris":{"android":"levelo://app?vid=b4b3ef83-ad79-4dfa-97e2-a6f24424db6a","ios":"levelo://app?vid=b4b3ef83-ad79-4dfa-97e2-a6f24424db6a"},"vehicle_type_id":"4","last_reported":1741896653,"current_range_meters":12400,"station_id":"ce4bhq92rcd13ifvqhjg","pricing_plan_id":"cebpf4jnsgd1na2vs0mg"},{"bike_id":"dfa987b8-bcc4-417d-800d-2cc88b10be9a","system_id":"levelo_inurba_marseille","lat":43.29323,"lon":5.37172,"is_reserved":false,"is_disabled":false,"rental_uris":{"android":"levelo://app?vid=dfa987b8-bcc4-417d-800d-2cc88b10be9a","ios":"levelo://app?vid=dfa987b8-bcc4-417d-800d-2cc88b10be9a"},"vehicle_type_id":"4","last_reported":1741896653,"current_range_meters":12800,"station_id":"ce4bgh92rcd13ifvqb40","pricing_plan_id":"cebpf4jnsgd1na2vs0mg"},{"bike_id":"16bd8669-e8e5-4db9-8d19-b465f70492a2","system_id":"levelo_inurba_marseille","lat":43.31103,"lon":5.3777,"is_reserved":false,"is_disabled":false,"rental_uris":{"android":"levelo://app?vid=16bd8669-e8e5-4db9-8d19-b465f70492a2","ios":"levelo://app?vid=16bd8669-e8e5-4db9-8d19-b465f70492a2"},"vehicle_type_id":"4","last_reported":1741896653,"current_range_meters":13600,"station_id":"ce4bgt92rcd13ifvqcg0","pricing_plan_id":"cebpf4jnsgd1na2vs0mg"},{"bike_id":"2e351c03-3a13-4dcb-97c2-3573f2f6e096","system_id":"levelo_inurba_marseille","lat":43.23195,"lon":5.35551,"is_reserved":false,"is_disabled":false,"rental_uris":{"android":"levelo://app?vid=2e351c03-3a13-4dcb-97c2-3573f2f6e096","ios":"levelo://app?vid=2e351c03-3a13-4dcb-97c2-3573f2f6e096"},"vehicle_type_id":"4","last_reported":1741896653,"current_range_meters":13600,"station_id":"ce4bhu92rcd13ifvqi70","pricing_plan_id":"cebpf4jnsgd1na2vs0mg"},{"bike_id":"5ee5c71f-19cc-4016-be80-b97a40b538ca","system_id":"levelo_inurba_marseille","lat":43.28413,"lon":5.34983,"is_reserved":false,"is_disabled":false,"rental_uris":{"android":"levelo://app?vid=5ee5c71f-19cc-4016-be80-b97a40b538ca","ios":"levelo://app?vid=5ee5c71f-19cc-4016-be80-b97a40b538ca"},"vehicle_type_id":"4","last_reported":1741896653,"current_range_meters":13600,"station_id":"ce4bhbh2rcd13ifvqepg","pricing_plan_id":"cebpf4jnsgd1na2vs0mg"},{"bike_id":"a5e71948-735a-4229-b2ca-74d55fc62066","system_id":"levelo_inurba_marseille","lat":43.280393,"lon":5.369396,"is_reserved":false,"is_disabled":false,"rental_uris":{"android":"levelo://app?vid=a5e71948-735a-4229-b2ca-74d55fc62066","ios":"levelo://app?vid=a5e71948-735a-4229-b2ca-74d55fc62066"},"vehicle_type_id":"4","last_reported":1741896653,"current_range_meters":13600,"station_id":"ce4bha12rcd13ifvqef0","pricing_plan_id":"cebpf4jnsgd1na2vs0mg"},{"bike_id":"320ca91b-5cbf-4547-922c-16842260315a","system_id":"levelo_inurba_marseille","lat":43.29261,"lon":5.36851,"is_reserved":false,"is_disabled":false,"rental_uris":{"android":"levelo://app?vid=320ca91b-5cbf-4547-922c-16842260315a","ios":"levelo://app?vid=320ca91b-5cbf-4547-922c-16842260315a"},"vehicle_type_id":"4","last_reported":1741896653,"current_range_meters":13600,"station_id":"ce4bhbp2rcd13ifvqesg","pricing_plan_id":"cebpf4jnsgd1na2vs0mg"},{"bike_id":"4b9cd23c-174d-4102-af82-13a4a1e38300","system_id":"levelo_inurba_marseille","lat":43.29705,"lon":5.36614,"is_reserved":false,"is_disabled":false,"rental_uris":{"android":"levelo://app?vid=4b9cd23c-174d-4102-af82-13a4a1e38300","ios":"levelo://app?vid=4b9cd23c-174d-4102-af82-13a4a1e38300"},"vehicle_type_id":"4","last_reported":1741896653,"current_range_meters":13600,"station_id":"ce4bgn12rcd13ifvqbt0","pricing_plan_id":"cebpf4jnsgd1na2vs0mg"},{"bike_id":"de830bf4-91e4-4420-9b59-a4b88b0041d9","system_id":"levelo_inurba_marseille","lat":43.27824,"lon":5.40713,"is_reserved":false,"is_disabled":false,"rental_uris":{"android":"levelo://app?vid=de830bf4-91e4-4420-9b59-a4b88b0041d9","ios":"levelo://app?vid=de830bf4-91e4-4420-9b59-a4b88b0041d9"},"vehicle_type_id":"4","last_reported":1741896653,"current_range_meters":13600,"station_id":"ce4bhnh2rcd13ifvqgtg","pricing_plan_id":"cebpf4jnsgd1na2vs0mg"},{"bike_id":"840fe58d-702c-4643-802b-02b7904775ac","system_id":"levelo_inurba_marseille","lat":43.3081,"lon":5.43503,"is_reserved":false,"is_disabled":false,"rental_uris":{"android":"levelo://app?vid=840fe58d-702c-4643-802b-02b7904775ac","ios":"levelo://app?vid=840fe58d-702c-4643-802b-02b7904775ac"},"vehicle_type_id":"4","last_reported":1741896653,"current_range_meters":13600,"station_id":"ce4bhph2rcd13ifvqheg","pricing_plan_id":"cebpf4jnsgd1na2vs0mg"},{"bike_id":"78dce6e6-36eb-4d6b-a861-292dc7c9e479","system_id":"levelo_inurba_marseille","lat":43.25011,"lon":5.38937,"is_reserved":false,"is_disabled":false,"rental_uris":{"android":"levelo://app?vid=78dce6e6-36eb-4d6b-a861-292dc7c9e479","ios":"levelo://app?vid=78dce6e6-36eb-4d6b-a861-292dc7c9e479"},"vehicle_type_id":"4","last_reported":1741896653,"current_range_meters":14000,"station_id":"ce4bhgp2rcd13ifvqfd0","pricing_plan_id":"cebpf4jnsgd1na2vs0mg"},{"bike_id":"af39de9d-f4ad-4506-92d2-1da4e2e3a188","system_id":"levelo_inurba_marseille","lat":43.29034,"lon":5.38607,"is_reserved":false,"is_disabled":false,"rental_uris":{"android":"levelo://app?vid=af39de9d-f4ad-4506-92d2-1da4e2e3a188","ios":"levelo://app?vid=af39de9d-f4ad-4506-92d2-1da4e2e3a188"},"vehicle_type_id":"4","last_reported":1741896653,"current_range_meters":14000,"station_id":"ce4bh4p2rcd13ifvqe0g","pricing_plan_id":"cebpf4jnsgd1na2vs0mg"},{"bike_id":"d71c7109-41aa-4810-80b5-3941266d1101","system_id":"levelo_inurba_marseille","lat":43.26822,"lon":5.40227,"is_reserved":false,"is_disabled":false,"rental_uris":{"android":"levelo://app?vid=d71c7109-41aa-4810-80b5-3941266d1101","ios":"levelo://app?vid=d71c7109-41aa-4810-80b5-3941266d1101"},"vehicle_type_id":"4","last_reported":1741896653,"current_range_meters":14000,"station_id":"ce501612rcd8frsf0b60","pricing_plan_id":"cebpf4jnsgd1na2vs0mg"},{"bike_id":"5b14ac7e-3817-4136-9278-879c70200063","system_id":"levelo_inurba_marseille","lat":43.28971,"lon":5.3664,"is_reserved":false,"is_disabled":false,"rental_uris":{"android":"levelo://app?vid=5b14ac7e-3817-4136-9278-879c70200063","ios":"levelo://app?vid=5b14ac7e-3817-4136-9278-879c70200063"},"vehicle_type_id":"4","last_reported":1741896653,"current_range_meters":14000,"station_id":"","pricing_plan_id":"cebpf4jnsgd1na2vs0mg"},{"bike_id":"034009f6-c374-4946-be1c-fb4c52f63ade","system_id":"levelo_inurba_marseille","lat":43.29073,"lon":5.37216,"is_reserved":false,"is_disabled":false,"rental_uris":{"android":"levelo://app?vid=034009f6-c374-4946-be1c-fb4c52f63ade","ios":"levelo://app?vid=034009f6-c374-4946-be1c-fb4c52f63ade"},"vehicle_type_id":"4","last_reported":1741896653,"current_range_meters":13600,"station_id":"ce4bh5p2rcd13ifvqe4g","pricing_plan_id":"cebpf4jnsgd1na2vs0mg"},{"bike_id":"594a33ea-5c85-49b0-893b-48b1f5e1011a","system_id":"levelo_inurba_marseille","lat":43.30935,"lon":5.4017,"is_reserved":false,"is_disabled":true,"rental_uris":{"android":"levelo://app?vid=594a33ea-5c85-49b0-893b-48b1f5e1011a","ios":"levelo://app?vid=594a33ea-5c85-49b0-893b-48b1f5e1011a"},"vehicle_type_id":"4","last_reported":1741896653,"current_range_meters":14000,"station_id":"ce4bgvp2rcd13ifvqct0","pricing_plan_id":"cebpf4jnsgd1na2vs0mg"},{"bike_id":"68a34e8f-540a-4fe3-a5ff-deaa13caa845","system_id":"levelo_inurba_marseille","lat":43.29782,"lon":5.44751,"is_reserved":false,"is_disabled":false,"rental_uris":{"android":"levelo://app?vid=68a34e8f-540a-4fe3-a5ff-deaa13caa845","ios":"levelo://app?vid=68a34e8f-540a-4fe3-a5ff-deaa13caa845"},"vehicle_type_id":"4","last_reported":1741896653,"current_range_meters":14000,"station_id":"","pricing_plan_id":"cebpf4jnsgd1na2vs0mg"},{"bike_id":"76464198-e20c-4312-b2ed-ee7c574f9245","system_id":"levelo_inurba_marseille","lat":43.30245,"lon":5.40034,"is_reserved":false,"is_disabled":false,"rental_uris":{"android":"levelo://app?vid=76464198-e20c-4312-b2ed-ee7c574f9245","ios":"levelo://app?vid=76464198-e20c-4312-b2ed-ee7c574f9245"},"vehicle_type_id":"4","last_reported":1741896653,"current_range_meters":14400,"station_id":"ce4bgvh2rcd13ifvqcs0","pricing_plan_id":"cebpf4jnsgd1na2vs0mg"},{"bike_id":"c4006db0-8e07-460e-9e4c-ff036b891e60","system_id":"levelo_inurba_marseille","lat":43.295206,"lon":5.394038,"is_reserved":false,"is_disabled":false,"rental_uris":{"android":"levelo://app?vid=c4006db0-8e07-460e-9e4c-ff036b891e60","ios":"levelo://app?vid=c4006db0-8e07-460e-9e4c-ff036b891e60"},"vehicle_type_id":"4","last_reported":1741896653,"current_range_meters":14400,"station_id":"ce4bh292rcd13ifvqdf0","pricing_plan_id":"cebpf4jnsgd1na2vs0mg"},{"bike_id":"aeec4843-e0cf-441f-b4d2-907b0f5fbe59","system_id":"levelo_inurba_marseille","lat":43.25822,"lon":5.39414,"is_reserved":false,"is_disabled":false,"rental_uris":{"android":"levelo://app?vid=aeec4843-e0cf-441f-b4d2-907b0f5fbe59","ios":"levelo://app?vid=aeec4843-e0cf-441f-b4d2-907b0f5fbe59"},"vehicle_type_id":"4","last_reported":1741896653,"current_range_meters":14400,"station_id":"ce4bhip2rcd13ifvqft0","pricing_plan_id":"cebpf4jnsgd1na2vs0mg"},{"bike_id":"4d234660-a1cd-4531-9ad4-f900485ecf5e","system_id":"levelo_inurba_marseille","lat":43.30641,"lon":5.40086,"is_reserved":false,"is_disabled":false,"rental_uris":{"android":"levelo://app?vid=4d234660-a1cd-4531-9ad4-f900485ecf5e","ios":"levelo://app?vid=4d234660-a1cd-4531-9ad4-f900485ecf5e"},"vehicle_type_id":"4","last_reported":1741896653,"current_range_meters":14400,"station_id":"ce4bh112rcd13ifvqda0","pricing_plan_id":"cebpf4jnsgd1na2vs0mg"},{"bike_id":"e7a1fdf0-0135-478b-8578-70e0a71c71af","system_id":"levelo_inurba_marseille","lat":43.280029,"lon":5.387256,"is_reserved":false,"is_disabled":false,"rental_uris":{"android":"levelo://app?vid=e7a1fdf0-0135-478b-8578-70e0a71c71af","ios":"levelo://app?vid=e7a1fdf0-0135-478b-8578-70e0a71c71af"},"vehicle_type_id":"4","last_reported":1741896653,"current_range_meters":14400,"station_id":"ce4bgj92rcd13ifvqbd0","pricing_plan_id":"cebpf4jnsgd1na2vs0mg"},{"bike_id":"dc2dc920-7061-4611-9ad3-02d4898aaa15","system_id":"levelo_inurba_marseille","lat":43.23193,"lon":5.39998,"is_reserved":false,"is_disabled":false,"rental_uris":{"android":"levelo://app?vid=dc2dc920-7061-4611-9ad3-02d4898aaa15","ios":"levelo://app?vid=dc2dc920-7061-4611-9ad3-02d4898aaa15"},"vehicle_type_id":"4","last_reported":1741896653,"current_range_meters":14400,"station_id":"ce4bhn12rcd13ifvqgqg","pricing_plan_id":"cebpf4jnsgd1na2vs0mg"},{"bike_id":"e51d23ca-52f8-4b8f-a9e9-3fadcf38336e","system_id":"levelo_inurba_marseille","lat":43.29624,"lon":5.37171,"is_reserved":false,"is_disabled":false,"rental_uris":{"android":"levelo://app?vid=e51d23ca-52f8-4b8f-a9e9-3fadcf38336e","ios":"levelo://app?vid=e51d23ca-52f8-4b8f-a9e9-3fadcf38336e"},"vehicle_type_id":"4","last_reported":1741896653,"current_range_meters":14400,"station_id":"ce4bgnh2rcd13ifvqc0g","pricing_plan_id":"cebpf4jnsgd1na2vs0mg"},{"bike_id":"d7a5e33c-bc6d-479b-9401-5121dfd918cb","system_id":"levelo_inurba_marseille","lat":43.31127,"lon":5.37782,"is_reserved":false,"is_disabled":false,"rental_uris":{"android":"levelo://app?vid=d7a5e33c-bc6d-479b-9401-5121dfd918cb","ios":"levelo://app?vid=d7a5e33c-bc6d-479b-9401-5121dfd918cb"},"vehicle_type_id":"4","last_reported":1741896653,"current_range_meters":14400,"station_id":"ce4bgt92rcd13ifvqcg0","pricing_plan_id":"cebpf4jnsgd1na2vs0mg"},{"bike_id":"d9a03b36-8834-4ff0-a7a6-0aba8375e6fe","system_id":"levelo_inurba_marseille","lat":43.28446,"lon":5.39203,"is_reserved":false,"is_disabled":false,"rental_uris":{"android":"levelo://app?vid=d9a03b36-8834-4ff0-a7a6-0aba8375e6fe","ios":"levelo://app?vid=d9a03b36-8834-4ff0-a7a6-0aba8375e6fe"},"vehicle_type_id":"4","last_reported":1741896653,"current_range_meters":14400,"station_id":"ce4bhoh2rcd13ifvqh5g","pricing_plan_id":"cebpf4jnsgd1na2vs0mg"},{"bike_id":"3e33256a-d861-45c0-af01-75642132ca20","system_id":"levelo_inurba_marseille","lat":43.3304,"lon":5.39417,"is_reserved":false,"is_disabled":false,"rental_uris":{"android":"levelo://app?vid=3e33256a-d861-45c0-af01-75642132ca20","ios":"levelo://app?vid=3e33256a-d861-45c0-af01-75642132ca20"},"vehicle_type_id":"4","last_reported":1741896653,"current_range_meters":14400,"station_id":"","pricing_plan_id":"cebpf4jnsgd1na2vs0mg"},{"bike_id":"29832e81-b63f-44c3-a8ae-1ccbc505bd58","system_id":"levelo_inurba_marseille","lat":43.278211,"lon":5.407067,"is_reserved":false,"is_disabled":false,"rental_uris":{"android":"levelo://app?vid=29832e81-b63f-44c3-a8ae-1ccbc505bd58","ios":"levelo://app?vid=29832e81-b63f-44c3-a8ae-1ccbc505bd58"},"vehicle_type_id":"4","last_reported":1741896653,"current_range_meters":14800,"station_id":"ce4bhnh2rcd13ifvqgtg","pricing_plan_id":"cebpf4jnsgd1na2vs0mg"},{"bike_id":"e3f0bbde-33b9-4ef7-b743-1495cee8cacf","system_id":"levelo_inurba_marseille","lat":43.3061,"lon":5.37236,"is_reserved":false,"is_disabled":false,"rental_uris":{"android":"levelo://app?vid=e3f0bbde-33b9-4ef7-b743-1495cee8cacf","ios":"levelo://app?vid=e3f0bbde-33b9-4ef7-b743-1495cee8cacf"},"vehicle_type_id":"4","last_reported":1741896653,"current_range_meters":14800,"station_id":"ce4bgqh2rcd13ifvqc4g","pricing_plan_id":"cebpf4jnsgd1na2vs0mg"},{"bike_id":"ed203f5e-1c4e-4369-a015-48afb7899414","system_id":"levelo_inurba_marseille","lat":43.2467,"lon":5.38157,"is_reserved":false,"is_disabled":false,"rental_uris":{"android":"levelo://app?vid=ed203f5e-1c4e-4369-a015-48afb7899414","ios":"levelo://app?vid=ed203f5e-1c4e-4369-a015-48afb7899414"},"vehicle_type_id":"4","last_reported":1741896653,"current_range_meters":15200,"station_id":"ce4bhih2rcd13ifvqfr0","pricing_plan_id":"cebpf4jnsgd1na2vs0mg"},{"bike_id":"2a46023e-a3f5-4f78-954e-c48165c731b9","system_id":"levelo_inurba_marseille","lat":43.2861,"lon":5.35102,"is_reserved":false,"is_disabled":false,"rental_uris":{"android":"levelo://app?vid=2a46023e-a3f5-4f78-954e-c48165c731b9","ios":"levelo://app?vid=2a46023e-a3f5-4f78-954e-c48165c731b9"},"vehicle_type_id":"4","last_reported":1741896653,"current_range_meters":15200,"station_id":"ce4bhch2rcd13ifvqeug","pricing_plan_id":"cebpf4jnsgd1na2vs0mg"},{"bike_id":"6eed7ff6-a675-4f0c-a53b-11d41a2a526d","system_id":"levelo_inurba_marseille","lat":43.30134,"lon":5.38799,"is_reserved":false,"is_disabled":false,"rental_uris":{"android":"levelo://app?vid=6eed7ff6-a675-4f0c-a53b-11d41a2a526d","ios":"levelo://app?vid=6eed7ff6-a675-4f0c-a53b-11d41a2a526d"},"vehicle_type_id":"4","last_reported":1741896653,"current_range_meters":15200,"station_id":"ce4bghh2rcd13ifvqb60","pricing_plan_id":"cebpf4jnsgd1na2vs0mg"},{"bike_id":"cb2f4c1d-4562-4964-b08c-95d3e9dca5cc","system_id":"levelo_inurba_marseille","lat":43.290267,"lon":5.375363,"is_reserved":false,"is_disabled":false,"rental_uris":{"android":"levelo://app?vid=cb2f4c1d-4562-4964-b08c-95d3e9dca5cc","ios":"levelo://app?vid=cb2f4c1d-4562-4964-b08c-95d3e9dca5cc"},"vehicle_type_id":"4","last_reported":1741896653,"current_range_meters":15200,"station_id":"ce4bh692rcd13ifvqe90","pricing_plan_id":"cebpf4jnsgd1na2vs0mg"},{"bike_id":"320564be-2867-4ab5-80ba-99ed9100fc63","system_id":"levelo_inurba_marseille","lat":43.25818,"lon":5.39433,"is_reserved":false,"is_disabled":false,"rental_uris":{"android":"levelo://app?vid=320564be-2867-4ab5-80ba-99ed9100fc63","ios":"levelo://app?vid=320564be-2867-4ab5-80ba-99ed9100fc63"},"vehicle_type_id":"4","last_reported":1741896653,"current_range_meters":15200,"station_id":"","pricing_plan_id":"cebpf4jnsgd1na2vs0mg"},{"bike_id":"6a2aebc8-555f-4cac-9b9d-413e1513cfdb","system_id":"levelo_inurba_marseille","lat":43.33023,"lon":5.39045,"is_reserved":false,"is_disabled":false,"rental_uris":{"android":"levelo://app?vid=6a2aebc8-555f-4cac-9b9d-413e1513cfdb","ios":"levelo://app?vid=6a2aebc8-555f-4cac-9b9d-413e1513cfdb"},"vehicle_type_id":"4","last_reported":1741896653,"current_range_meters":16000,"station_id":"ce4bhr92rcd13ifvqhrg","pricing_plan_id":"cebpf4jnsgd1na2vs0mg"},{"bike_id":"2fcdbd2d-52b8-4841-9569-2b04b6707abc","system_id":"levelo_inurba_marseille","lat":43.23206,"lon":5.40001,"is_reserved":false,"is_disabled":false,"rental_uris":{"android":"levelo://app?vid=2fcdbd2d-52b8-4841-9569-2b04b6707abc","ios":"levelo://app?vid=2fcdbd2d-52b8-4841-9569-2b04b6707abc"},"vehicle_type_id":"4","last_reported":1741896653,"current_range_meters":16000,"station_id":"ce4bhn12rcd13ifvqgqg","pricing_plan_id":"cebpf4jnsgd1na2vs0mg"},{"bike_id":"3959c750-cc5b-4501-a9c1-aa26389cb4a3","system_id":"levelo_inurba_marseille","lat":43.2925,"lon":5.38428,"is_reserved":false,"is_disabled":true,"rental_uris":{"android":"levelo://app?vid=3959c750-cc5b-4501-a9c1-aa26389cb4a3","ios":"levelo://app?vid=3959c750-cc5b-4501-a9c1-aa26389cb4a3"},"vehicle_type_id":"4","last_reported":1741896653,"current_range_meters":16000,"station_id":"ce4bh692rcd13ifvqea0","pricing_plan_id":"cebpf4jnsgd1na2vs0mg"},{"bike_id":"e278c729-aab1-48e7-9d5d-f697d788eb0a","system_id":"levelo_inurba_marseille","lat":43.26806,"lon":5.40245,"is_reserved":false,"is_disabled":false,"rental_uris":{"android":"levelo://app?vid=e278c729-aab1-48e7-9d5d-f697d788eb0a","ios":"levelo://app?vid=e278c729-aab1-48e7-9d5d-f697d788eb0a"},"vehicle_type_id":"4","last_reported":1741896653,"current_range_meters":16000,"station_id":"ce501612rcd8frsf0b60","pricing_plan_id":"cebpf4jnsgd1na2vs0mg"},{"bike_id":"c6f9c2cc-8d82-4ef0-9c96-3fa68372f355","system_id":"levelo_inurba_marseille","lat":43.24996,"lon":5.3892,"is_reserved":false,"is_disabled":false,"rental_uris":{"android":"levelo://app?vid=c6f9c2cc-8d82-4ef0-9c96-3fa68372f355","ios":"levelo://app?vid=c6f9c2cc-8d82-4ef0-9c96-3fa68372f355"},"vehicle_type_id":"4","last_reported":1741896653,"current_range_meters":16000,"station_id":"ce4bhgp2rcd13ifvqfd0","pricing_plan_id":"cebpf4jnsgd1na2vs0mg"},{"bike_id":"9d6b308e-ebd9-4092-a113-85f8acb95462","system_id":"levelo_inurba_marseille","lat":43.28167,"lon":5.42623,"is_reserved":false,"is_disabled":false,"rental_uris":{"android":"levelo://app?vid=9d6b308e-ebd9-4092-a113-85f8acb95462","ios":"levelo://app?vid=9d6b308e-ebd9-4092-a113-85f8acb95462"},"vehicle_type_id":"4","last_reported":1741896653,"current_range_meters":16000,"station_id":"ce4bhnh2rcd13ifvqgug","pricing_plan_id":"cebpf4jnsgd1na2vs0mg"},{"bike_id":"9fa05bf3-fa1d-4f04-8a7e-1289acdb4e33","system_id":"levelo_inurba_marseille","lat":43.30132,"lon":5.38779,"is_reserved":false,"is_disabled":false,"rental_uris":{"android":"levelo://app?vid=9fa05bf3-fa1d-4f04-8a7e-1289acdb4e33","ios":"levelo://app?vid=9fa05bf3-fa1d-4f04-8a7e-1289acdb4e33"},"vehicle_type_id":"4","last_reported":1741896653,"current_range_meters":16000,"station_id":"ce4bghh2rcd13ifvqb60","pricing_plan_id":"cebpf4jnsgd1na2vs0mg"},{"bike_id":"04fe94a9-d172-4c64-bee5-a4be26d4d31a","system_id":"levelo_inurba_marseille","lat":43.303197,"lon":5.369001,"is_reserved":false,"is_disabled":false,"rental_uris":{"android":"levelo://app?vid=04fe94a9-d172-4c64-bee5-a4be26d4d31a","ios":"levelo://app?vid=04fe94a9-d172-4c64-bee5-a4be26d4d31a"},"vehicle_type_id":"4","last_reported":1741896653,"current_range_meters":16000,"station_id":"ce4bgt92rcd13ifvqcf0","pricing_plan_id":"cebpf4jnsgd1na2vs0mg"},{"bike_id":"84cb6d33-f7e4-496f-814a-303ce4453db0","system_id":"levelo_inurba_marseille","lat":43.29886,"lon":5.38295,"is_reserved":false,"is_disabled":false,"rental_uris":{"android":"levelo://app?vid=84cb6d33-f7e4-496f-814a-303ce4453db0","ios":"levelo://app?vid=84cb6d33-f7e4-496f-814a-303ce4453db0"},"vehicle_type_id":"4","last_reported":1741896653,"current_range_meters":16400,"station_id":"","pricing_plan_id":"cebpf4jnsgd1na2vs0mg"},{"bike_id":"8fc3cd23-ccc0-4813-a135-a70ce79a3ed7","system_id":"levelo_inurba_marseille","lat":43.26495,"lon":5.39536,"is_reserved":false,"is_disabled":false,"rental_uris":{"android":"levelo://app?vid=8fc3cd23-ccc0-4813-a135-a70ce79a3ed7","ios":"levelo://app?vid=8fc3cd23-ccc0-4813-a135-a70ce79a3ed7"},"vehicle_type_id":"4","last_reported":1741896653,"current_range_meters":16400,"station_id":"ce4bhi12rcd13ifvqfq0","pricing_plan_id":"cebpf4jnsgd1na2vs0mg"},{"bike_id":"8281182e-3b97-4e63-98db-dc9b26b2d772","system_id":"levelo_inurba_marseille","lat":43.29428,"lon":5.38634,"is_reserved":false,"is_disabled":false,"rental_uris":{"android":"levelo://app?vid=8281182e-3b97-4e63-98db-dc9b26b2d772","ios":"levelo://app?vid=8281182e-3b97-4e63-98db-dc9b26b2d772"},"vehicle_type_id":"4","last_reported":1741896653,"current_range_meters":16400,"station_id":"ce4bh2h2rcd13ifvqdh0","pricing_plan_id":"cebpf4jnsgd1na2vs0mg"},{"bike_id":"8819b5cf-a9f6-49d4-b7e3-3a755bf9ed8e","system_id":"levelo_inurba_marseille","lat":43.30805,"lon":5.38158,"is_reserved":false,"is_disabled":false,"rental_uris":{"android":"levelo://app?vid=8819b5cf-a9f6-49d4-b7e3-3a755bf9ed8e","ios":"levelo://app?vid=8819b5cf-a9f6-49d4-b7e3-3a755bf9ed8e"},"vehicle_type_id":"4","last_reported":1741896653,"current_range_meters":16400,"station_id":"ce4bgt12rcd13ifvqce0","pricing_plan_id":"cebpf4jnsgd1na2vs0mg"},{"bike_id":"f8e9787d-4c7f-4b26-a202-4ff55b4e451b","system_id":"levelo_inurba_marseille","lat":43.29882,"lon":5.37462,"is_reserved":false,"is_disabled":true,"rental_uris":{"android":"levelo://app?vid=f8e9787d-4c7f-4b26-a202-4ff55b4e451b","ios":"levelo://app?vid=f8e9787d-4c7f-4b26-a202-4ff55b4e451b"},"vehicle_type_id":"4","last_reported":1741896653,"current_range_meters":16400,"station_id":"","pricing_plan_id":"cebpf4jnsgd1na2vs0mg"},{"bike_id":"c7270f94-cd37-4cfa-9ef1-d0cdc754a19d","system_id":"levelo_inurba_marseille","lat":43.33057,"lon":5.39064,"is_reserved":false,"is_disabled":false,"rental_uris":{"android":"levelo://app?vid=c7270f94-cd37-4cfa-9ef1-d0cdc754a19d","ios":"levelo://app?vid=c7270f94-cd37-4cfa-9ef1-d0cdc754a19d"},"vehicle_type_id":"4","last_reported":1741896653,"current_range_meters":16400,"station_id":"ce4bhr92rcd13ifvqhrg","pricing_plan_id":"cebpf4jnsgd1na2vs0mg"},{"bike_id":"11de2bb2-7bda-44cd-8dad-489c3c5f73a4","system_id":"levelo_inurba_marseille","lat":43.31166,"lon":5.38707,"is_reserved":false,"is_disabled":false,"rental_uris":{"android":"levelo://app?vid=11de2bb2-7bda-44cd-8dad-489c3c5f73a4","ios":"levelo://app?vid=11de2bb2-7bda-44cd-8dad-489c3c5f73a4"},"vehicle_type_id":"4","last_reported":1741896653,"current_range_meters":16400,"station_id":"ce4bgv12rcd13ifvqcp0","pricing_plan_id":"cebpf4jnsgd1na2vs0mg"},{"bike_id":"ce06a747-dfc5-4afc-8c06-8358fffe4bb2","system_id":"levelo_inurba_marseille","lat":43.28413,"lon":5.34981,"is_reserved":false,"is_disabled":false,"rental_uris":{"android":"levelo://app?vid=ce06a747-dfc5-4afc-8c06-8358fffe4bb2","ios":"levelo://app?vid=ce06a747-dfc5-4afc-8c06-8358fffe4bb2"},"vehicle_type_id":"4","last_reported":1741896653,"current_range_meters":16400,"station_id":"ce4bhbh2rcd13ifvqepg","pricing_plan_id":"cebpf4jnsgd1na2vs0mg"},{"bike_id":"59822710-2d10-4517-868b-42cfab329759","system_id":"levelo_inurba_marseille","lat":43.23191,"lon":5.35576,"is_reserved":false,"is_disabled":false,"rental_uris":{"android":"levelo://app?vid=59822710-2d10-4517-868b-42cfab329759","ios":"levelo://app?vid=59822710-2d10-4517-868b-42cfab329759"},"vehicle_type_id":"4","last_reported":1741896653,"current_range_meters":16400,"station_id":"ce4bhu92rcd13ifvqi70","pricing_plan_id":"cebpf4jnsgd1na2vs0mg"},{"bike_id":"ac9829db-5826-4bcf-b26b-4776553d00ba","system_id":"levelo_inurba_marseille","lat":43.31686,"lon":5.40474,"is_reserved":false,"is_disabled":false,"rental_uris":{"android":"levelo://app?vid=ac9829db-5826-4bcf-b26b-4776553d00ba","ios":"levelo://app?vid=ac9829db-5826-4bcf-b26b-4776553d00ba"},"vehicle_type_id":"4","last_reported":1741896653,"current_range_meters":16400,"station_id":"ce4bh012rcd13ifvqd00","pricing_plan_id":"cebpf4jnsgd1na2vs0mg"},{"bike_id":"b10d6d7c-ffc3-42b7-8376-c266cc4e74f1","system_id":"levelo_inurba_marseille","lat":43.30877,"lon":5.39665,"is_reserved":false,"is_disabled":false,"rental_uris":{"android":"levelo://app?vid=b10d6d7c-ffc3-42b7-8376-c266cc4e74f1","ios":"levelo://app?vid=b10d6d7c-ffc3-42b7-8376-c266cc4e74f1"},"vehicle_type_id":"4","last_reported":1741896653,"current_range_meters":16400,"station_id":"ce4bh012rcd13ifvqcv0","pricing_plan_id":"cebpf4jnsgd1na2vs0mg"},{"bike_id":"31c8862d-1f7d-4f69-a37f-93c25c9ce4d5","system_id":"levelo_inurba_marseille","lat":43.25009,"lon":5.38943,"is_reserved":false,"is_disabled":false,"rental_uris":{"android":"levelo://app?vid=31c8862d-1f7d-4f69-a37f-93c25c9ce4d5","ios":"levelo://app?vid=31c8862d-1f7d-4f69-a37f-93c25c9ce4d5"},"vehicle_type_id":"4","last_reported":1741896653,"current_range_meters":16400,"station_id":"ce4bhgp2rcd13ifvqfd0","pricing_plan_id":"cebpf4jnsgd1na2vs0mg"},{"bike_id":"d98e5f37-4f71-4a36-9b3b-496f87de0d61","system_id":"levelo_inurba_marseille","lat":43.311053,"lon":5.375784,"is_reserved":false,"is_disabled":false,"rental_uris":{"android":"levelo://app?vid=d98e5f37-4f71-4a36-9b3b-496f87de0d61","ios":"levelo://app?vid=d98e5f37-4f71-4a36-9b3b-496f87de0d61"},"vehicle_type_id":"4","last_reported":1741896653,"current_range_meters":16400,"station_id":"","pricing_plan_id":"cebpf4jnsgd1na2vs0mg"},{"bike_id":"bd7fb638-a561-41df-90ca-f32685780427","system_id":"levelo_inurba_marseille","lat":43.22922,"lon":5.35376,"is_reserved":false,"is_disabled":false,"rental_uris":{"android":"levelo://app?vid=bd7fb638-a561-41df-90ca-f32685780427","ios":"levelo://app?vid=bd7fb638-a561-41df-90ca-f32685780427"},"vehicle_type_id":"4","last_reported":1741896653,"current_range_meters":16400,"station_id":"cpo3532slgdg3j2ikp40","pricing_plan_id":"cebpf4jnsgd1na2vs0mg"},{"bike_id":"588b6634-7842-4793-8895-13a81fc1ba17","system_id":"levelo_inurba_marseille","lat":43.31113,"lon":5.37775,"is_reserved":false,"is_disabled":false,"rental_uris":{"android":"levelo://app?vid=588b6634-7842-4793-8895-13a81fc1ba17","ios":"levelo://app?vid=588b6634-7842-4793-8895-13a81fc1ba17"},"vehicle_type_id":"4","last_reported":1741896653,"current_range_meters":16800,"station_id":"ce4bgt92rcd13ifvqcg0","pricing_plan_id":"cebpf4jnsgd1na2vs0mg"},{"bike_id":"a803a0b5-86f6-4693-bae3-0864c1372523","system_id":"levelo_inurba_marseille","lat":43.28066,"lon":5.39643,"is_reserved":false,"is_disabled":false,"rental_uris":{"android":"levelo://app?vid=a803a0b5-86f6-4693-bae3-0864c1372523","ios":"levelo://app?vid=a803a0b5-86f6-4693-bae3-0864c1372523"},"vehicle_type_id":"4","last_reported":1741896653,"current_range_meters":16800,"station_id":"ce4bho12rcd13ifvqh2g","pricing_plan_id":"cebpf4jnsgd1na2vs0mg"},{"bike_id":"d9e39b41-b67e-40bb-b7df-d3a0f57602c2","system_id":"levelo_inurba_marseille","lat":43.27946,"lon":5.41051,"is_reserved":false,"is_disabled":false,"rental_uris":{"android":"levelo://app?vid=d9e39b41-b67e-40bb-b7df-d3a0f57602c2","ios":"levelo://app?vid=d9e39b41-b67e-40bb-b7df-d3a0f57602c2"},"vehicle_type_id":"4","last_reported":1741896653,"current_range_meters":16800,"station_id":"ce4bhnp2rcd13ifvqh0g","pricing_plan_id":"cebpf4jnsgd1na2vs0mg"},