{"last_updated":1742040989,"ttl":60,"version":"2.2","data":{"bikes":[{"bike_id":"a2f6aa0b-6d79-4c9e-9879-5de4d6f174f0","system_id":"levelo_inurba_marseille","lat":43.29798,"lon":5.40394,"is_reserved":false,"is_disabled":false,"rental_uris":{"android":"levelo://app?vid=a2f6aa0b-6d79-4c9e-9879-5de4d6f174f0","ios":"levelo://app?vid=a2f6aa0b-6d79-4c9e-9879-5de4d6f174f0"},"vehicle_type_id":"4","last_reported":1742040989,"current_range_meters":2800,"station_id":"ce4bh112rcd13ifvqd90","pricing_plan_id":"cebpf4jnsgd1na2vs0mg"},{"bike_id":"39c584ce-d036-452d-afa5-034e3f8fb366","system_id":"levelo_inurba_marseille","lat":43.290283,"lon":5.386585,"is_reserved":false,"is_disabled":false,"rental_uris":{"android":"levelo://app?vid=39c584ce-d036-452d-afa5-034e3f8fb366","ios":"levelo://app?vid=39c584ce-d036-452d-afa5-034e3f8fb366"},"vehicle_type_id":"4","last_reported":1742040989,"current_range_meters":3200,"station_id":"","pricing_plan_id":"cebpf4jnsgd1na2vs0mg"},{"bike_id":"b172b001-be9b-4d6d-ac06-0270a1bf41f3","system_id":"levelo_inurba_marseille","lat":43.30319,"lon":5.40432,"is_reserved":false,"is_disabled":false,"rental_uris":{"android":"levelo://app?vid=b172b001-be9b-4d6d-ac06-0270a1bf41f3","ios":"levelo://app?vid=b172b001-be9b-4d6d-ac06-0270a1bf41f3"},"vehicle_type_id":"4","last_reported":1742040989,"current_range_meters":3600,"station_id":"ce4bh012rcd13ifvqd10","pricing_plan_id":"cebpf4jnsgd1na2vs0mg"},{"bike_id":"aa3c5349-766e-4992-8e95-c670f1f543fb","system_id":"levelo_inurba_marseille","lat":43.22937,"lon":5.40189,"is_reserved":false,"is_disabled":false,"rental_uris":{"android":"levelo://app?vid=aa3c5349-766e-4992-8e95-c670f1f543fb","ios":"levelo://app?vid=aa3c5349-766e-4992-8e95-c670f1f543fb"},"vehicle_type_id":"4","last_reported":1742040989,"current_range_meters":3600,"station_id":"","pricing_plan_id":"cebpf4jnsgd1na2vs0mg"},{"bike_id":"fb25c0f6-5882-4734-a76a-2aeb0b117f9b","system_id":"levelo_inurba_marseille","lat":43.31744,"lon":5.39041,"is_reserved":false,"is_disabled":false,"rental_uris":{"android":"levelo://app?vid=fb25c0f6-5882-4734-a76a-2aeb0b117f9b","ios":"levelo://app?vid=fb25c0f6-5882-4734-a76a-2aeb0b117f9b"},"vehicle_type_id":"4","last_reported":1742040989,"current_range_meters":4000,"station_id":"ce4bhqp2rcd13ifvqhng","pricing_plan_id":"cebpf4jnsgd1na2vs0mg"},{"bike_id":"c3c451ca-1f39-4c74-9c3b-89a5e361a2de","system_id":"levelo_inurba_marseille","lat":43.286077,"lon":5.351097,"is_reserved":false,"is_disabled":false,"rental_uris":{"android":"levelo://app?vid=c3c451ca-1f39-4c74-9c3b-89a5e361a2de","ios":"levelo://app?vid=c3c451ca-1f39-4c74-9c3b-89a5e361a2de"},"vehicle_type_id":"4","last_reported":1742040989,"current_range_meters":4000,"station_id":"ce4bhch2rcd13ifvqeug","pricing_plan_id":"cebpf4jnsgd1na2vs0mg"},{"bike_id":"8600e973-6bae-49e6-a541-074b0686e3d2","system_id":"levelo_inurba_marseille","lat":43.3236,"lon":5.3888,"is_reserved":false,"is_disabled":false,"rental_uris":{"android":"levelo://app?vid=8600e973-6bae-49e6-a541-074b0686e3d2","ios":"levelo://app?vid=8600e973-6bae-49e6-a541-074b0686e3d2"},"vehicle_type_id":"4","last_reported":1742040989,"current_range_meters":4400,"station_id":"ce4bhqp2rcd13ifvqhog","pricing_plan_id":"cebpf4jnsgd1na2vs0mg"},{"bike_id":"1126d67c-75f4-4f59-aee5-282c700e0578","system_id":"levelo_inurba_marseille","lat":43.3014,"lon":5.38773,"is_reserved":false,"is_disabled":false,"rental_uris":{"android":"levelo://app?vid=1126d67c-75f4-4f59-aee5-282c700e0578","ios":"levelo://app?vid=1126d67c-75f4-4f59-aee5-282c700e0578"},"vehicle_type_id":"4","last_reported":1742040989,"current_range_meters":4400,"station_id":"ce4bghh2rcd13ifvqb60","pricing_plan_id":"cebpf4jnsgd1na2vs0mg"},{"bike_id":"e3e2a69a-49d0-44dd-849a-f30f914d0909","system_id":"levelo_inurba_marseille","lat":43.29211,"lon":5.36056,"is_reserved":false,"is_disabled":false,"rental_uris":{"android":"levelo://app?vid=e3e2a69a-49d0-44dd-849a-f30f914d0909","ios":"levelo://app?vid=e3e2a69a-49d0-44dd-849a-f30f914d0909"},"vehicle_type_id":"4","last_reported":1742040989,"current_range_meters":4400,"station_id":"ce4bhbh2rcd13ifvqeqg","pricing_plan_id":"cebpf4jnsgd1na2vs0mg"},{"bike_id":"a4d266bf-40e1-46a8-8b3b-6bd1a57b5d45","system_id":"levelo_inurba_marseille","lat":43.26209,"lon":5.37447,"is_reserved":false,"is_disabled":false,"rental_uris":{"android":"levelo://app?vid=a4d266bf-40e1-46a8-8b3b-6bd1a57b5d45","ios":"levelo://app?vid=a4d266bf-40e1-46a8-8b3b-6bd1a57b5d45"},"vehicle_type_id":"4","last_reported":1742040989,"current_range_meters":4400,"station_id":"ce4bhgp2rcd13ifvqfc0","pricing_plan_id":"cebpf4jnsgd1na2vs0mg"},{"bike_id":"78f5a6d3-e858-4925-aa65-122bc6c65548","system_id":"levelo_inurba_marseille","lat":43.27368,"lon":5.36259,"is_reserved":false,"is_disabled":false,"rental_uris":{"android":"levelo://app?vid=78f5a6d3-e858-4925-aa65-122bc6c65548","ios":"levelo://app?vid=78f5a6d3-e858-4925-aa65-122bc6c65548"},"vehicle_type_id":"4","last_reported":1742040989,"current_range_meters":4000,"station_id":"ce4bhbh2rcd13ifvqeo0","pricing_plan_id":"cebpf4jnsgd1na2vs0mg"},{"bike_id":"4d26d788-f578-401a-a77d-fdf2c2b23fa1","system_id":"levelo_inurba_marseille","lat":43.22929,"lon":5.35376,"is_reserved":false,"is_disabled":false,"rental_uris":{"android":"levelo://app?vid=4d26d788-f578-401a-a77d-fdf2c2b23fa1","ios":"levelo://app?vid=4d26d788-f578-401a-a77d-fdf2c2b23fa1"},"vehicle_type_id":"4","last_reported":1742040989,"current_range_meters":4400,"station_id":"cpo3532slgdg3j2ikp40","pricing_plan_id":"cebpf4jnsgd1na2vs0mg"},{"bike_id":"36ec5a15-215b-4367-a3ca-336aadd9a251","system_id":"levelo_inurba_marseille","lat":43.33746,"lon":5.3745,"is_reserved":false,"is_disabled":false,"rental_uris":{"android":"levelo://app?vid=36ec5a15-215b-4367-a3ca-336aadd9a251","ios":"levelo://app?vid=36ec5a15-215b-4367-a3ca-336aadd9a251"},"vehicle_type_id":"4","last_reported":1742040989,"current_range_meters":4400,"station_id":"","pricing_plan_id":"cebpf4jnsgd1na2vs0mg"},{"bike_id":"06cc4641-08d2-42ba-9c97-1982c58d86ae","system_id":"levelo_inurba_marseille","lat":43.29521,"lon":5.39027,"is_reserved":false,"is_disabled":false,"rental_uris":{"android":"levelo://app?vid=06cc4641-08d2-42ba-9c97-1982c58d86ae","ios":"levelo://app?vid=06cc4641-08d2-42ba-9c97-1982c58d86ae"},"vehicle_type_id":"4","last_reported":1742040989,"current_range_meters":4800,"station_id":"ce4bh3p2rcd13ifvqdp0","pricing_plan_id":"cebpf4jnsgd1na2vs0mg"},{"bike_id":"68308827-578e-4747-bdc5-01bc32a2ab60","system_id":"levelo_inurba_marseille","lat":43.27989,"lon":5.4166,"is_reserved":false,"is_disabled":false,"rental_uris":{"android":"levelo://app?vid=68308827-578e-4747-bdc5-01bc32a2ab60","ios":"levelo://app?vid=68308827-578e-4747-bdc5-01bc32a2ab60"},"vehicle_type_id":"4","last_reported":1742040989,"current_range_meters":4800,"station_id":"ce4bho12rcd13ifvqh1g","pricing_plan_id":"cebpf4jnsgd1na2vs0mg"},{"bike_id":"cfbfae81-2b5a-4512-adc5-3545d5eb48ff","system_id":"levelo_inurba_marseille","lat":43.32358,"lon":5.38876,"is_reserved":false,"is_disabled":false,"rental_uris":{"android":"levelo://app?vid=cfbfae81-2b5a-4512-adc5-3545d5eb48ff","ios":"levelo://app?vid=cfbfae81-2b5a-4512-adc5-3545d5eb48ff"},"vehicle_type_id":"4","last_reported":1742040989,"current_range_meters":4800,"station_id":"ce4bhqp2rcd13ifvqhog","pricing_plan_id":"cebpf4jnsgd1na2vs0mg"},{"bike_id":"e6e8f8dd-dda0-43b3-bdd7-e5e81a312194","system_id":"levelo_inurba_marseille","lat":43.27206,"lon":5.39196,"is_reserved":false,"is_disabled":false,"rental_uris":{"android":"levelo://app?vid=e6e8f8dd-dda0-43b3-bdd7-e5e81a312194","ios":"levelo://app?vid=e6e8f8dd-dda0-43b3-bdd7-e5e81a312194"},"vehicle_type_id":"4","last_reported":1742040989,"current_range_meters":5600,"station_id":"ce4bhhp2rcd13ifvqfm0","pricing_plan_id":"cebpf4jnsgd1na2vs0mg"},{"bike_id":"be9a563e-432f-4741-a7bb-f425e82c6139","system_id":"levelo_inurba_marseille","lat":43.27844,"lon":5.40696,"is_reserved":false,"is_disabled":false,"rental_uris":{"android":"levelo://app?vid=be9a563e-432f-4741-a7bb-f425e82c6139","ios":"levelo://app?vid=be9a563e-432f-4741-a7bb-f425e82c6139"},"vehicle_type_id":"4","last_reported":1742040989,"current_range_meters":6000,"station_id":"ce4bhnh2rcd13ifvqgtg","pricing_plan_id":"cebpf4jnsgd1na2vs0mg"},{"bike_id":"f2d00548-a5af-43a5-9ad4-5205ddc617dc","system_id":"levelo_inurba_marseille","lat":43.30983,"lon":5.41735,"is_reserved":false,"is_disabled":false,"rental_uris":{"android":"levelo://app?vid=f2d00548-a5af-43a5-9ad4-5205ddc617dc","ios":"levelo://app?vid=f2d00548-a5af-43a5-9ad4-5205ddc617dc"},"vehicle_type_id":"4","last_reported":1742040989,"current_range_meters":6000,"station_id":"","pricing_plan_id":"cebpf4jnsgd1na2vs0mg"},{"bike_id":"703a27ab-78c1-4da2-9977-9c24f54834c8","system_id":"levelo_inurba_marseille","lat":43.32484,"lon":5.36567,"is_reserved":false,"is_disabled":false,"rental_uris":{"android":"levelo://app?vid=703a27ab-78c1-4da2-9977-9c24f54834c8","ios":"levelo://app?vid=703a27ab-78c1-4da2-9977-9c24f54834c8"},"vehicle_type_id":"4","last_reported":1742040989,"current_range_meters":6000,"station_id":"ce4bhs12rcd13ifvqhvg","pricing_plan_id":"cebpf4jnsgd1na2vs0mg"},{"bike_id":"9b9a2497-3d0b-4cdc-b2a2-0ca182509f57","system_id":"levelo_inurba_marseille","lat":43.2937,"lon":5.37858,"is_reserved":false,"is_disabled":false,"rental_uris":{"android":"levelo://app?vid=9b9a2497-3d0b-4cdc-b2a2-0ca182509f57","ios":"levelo://app?vid=9b9a2497-3d0b-4cdc-b2a2-0ca182509f57"},"vehicle_type_id":"4","last_reported":1742040989,"current_range_meters":6000,"station_id":"ce4bgjh2rcd13ifvqbf0","pricing_plan_id":"cebpf4jnsgd1na2vs0mg"},{"bike_id":"1999cecf-f38c-4961-9580-ef6a50d3e0be","system_id":"levelo_inurba_marseille","lat":43.24168,"lon":5.36395,"is_reserved":false,"is_disabled":false,"rental_uris":{"android":"levelo://app?vid=1999cecf-f38c-4961-9580-ef6a50d3e0be","ios":"levelo://app?vid=1999cecf-f38c-4961-9580-ef6a50d3e0be"},"vehicle_type_id":"4","last_reported":1742040989,"current_range_meters":6000,"station_id":"cpo36qri1sfpv3e86is0","pricing_plan_id":"cebpf4jnsgd1na2vs0mg"},{"bike_id":"f2ee8bc0-312d-4388-b78b-2fe33c2c7cb8","system_id":"levelo_inurba_marseille","lat":43.24544,"lon":5.39552,"is_reserved":false,"is_disabled":false,"rental_uris":{"android":"levelo://app?vid=f2ee8bc0-312d-4388-b78b-2fe33c2c7cb8","ios":"levelo://app?vid=f2ee8bc0-312d-4388-b78b-2fe33c2c7cb8"},"vehicle_type_id":"4","last_reported":1742040989,"current_range_meters":6000,"station_id":"ce4bhlp2rcd13ifvqgjg","pricing_plan_id":"cebpf4jnsgd1na2vs0mg"},{"bike_id":"bf5009aa-ecfe-43ef-a585-0425abe4d79d","system_id":"levelo_inurba_marseille","lat":43.28263,"lon":5.35065,"is_reserved":false,"is_disabled":false,"rental_uris":{"android":"levelo://app?vid=bf5009aa-ecfe-43ef-a585-0425abe4d79d","ios":"levelo://app?vid=bf5009aa-ecfe-43ef-a585-0425abe4d79d"},"vehicle_type_id":"4","last_reported":1742040989,"current_range_meters":6400,"station_id":"ce4bhbp2rcd13ifvqerg","pricing_plan_id":"cebpf4jnsgd1na2vs0mg"},{"bike_id":"e725db21-0ea0-44e2-a274-943779b1e6a4","system_id":"levelo_inurba_marseille","lat":43.24386,"lon":5.37056,"is_reserved":false,"is_disabled":false,"rental_uris":{"android":"levelo://app?vid=e725db21-0ea0-44e2-a274-943779b1e6a4","ios":"levelo://app?vid=e725db21-0ea0-44e2-a274-943779b1e6a4"},"vehicle_type_id":"4","last_reported":1742040989,"current_range_meters":6400,"station_id":"ce4bhhh2rcd13ifvqfk0","pricing_plan_id":"cebpf4jnsgd1na2vs0mg"},{"bike_id":"defbb8d8-907e-4dad-a27f-f4e2f4e1bddd","system_id":"levelo_inurba_marseille","lat":43.27618,"lon":5.36108,"is_reserved":false,"is_disabled":false,"rental_uris":{"android":"levelo://app?vid=defbb8d8-907e-4dad-a27f-f4e2f4e1bddd","ios":"levelo://app?vid=defbb8d8-907e-4dad-a27f-f4e2f4e1bddd"},"vehicle_type_id":"4","last_reported":1742040989,"current_range_meters":0,"station_id":"ce4bgj92rcd13ifvqbe0","pricing_plan_id":"cebpf4jnsgd1na2vs0mg"},{"bike_id":"faf4c27a-d7eb-4435-bbca-3d07a59b2d3c","system_id":"levelo_inurba_marseille","lat":43.31278,"lon":5.40182,"is_reserved":false,"is_disabled":false,"rental_uris":{"android":"levelo://app?vid=faf4c27a-d7eb-4435-bbca-3d07a59b2d3c","ios":"levelo://app?vid=faf4c27a-d7eb-4435-bbca-3d07a59b2d3c"},"vehicle_type_id":"4","last_reported":1742040989,"current_range_meters":6400,"station_id":"ce4bh092rcd13ifvqd30","pricing_plan_id":"cebpf4jnsgd1na2vs0mg"},{"bike_id":"2e9e3b33-3bd2-4302-9681-78d205935950","system_id":"levelo_inurba_marseille","lat":43.32337,"lon":5.40622,"is_reserved":false,"is_disabled":false,"rental_uris":{"android":"levelo://app?vid=2e9e3b33-3bd2-4302-9681-78d205935950","ios":"levelo://app?vid=2e9e3b33-3bd2-4302-9681-78d205935950"},"vehicle_type_id":"4","last_reported":1742040989,"current_range_meters":6800,"station_id":"ce4bhq92rcd13ifvqhjg","pricing_plan_id":"cebpf4jnsgd1na2vs0mg"},{"bike_id":"d0edcee3-126e-43cf-a565-60ed4a1f7e37","system_id":"levelo_inurba_marseille","lat":43.28478,"lon":5.3858,"is_reserved":false,"is_disabled":false,"rental_uris":{"android":"levelo://app?vid=d0edcee3-126e-43cf-a565-60ed4a1f7e37","ios":"levelo://app?vid=d0edcee3-126e-43cf-a565-60ed4a1f7e37"},"vehicle_type_id":"4","last_reported":1742040989,"current_range_meters":6800,"station_id":"ce4bh8p2rcd13ifvqeb0","pricing_plan_id":"cebpf4jnsgd1na2vs0mg"},{"bike_id":"a85b86be-929f-46e5-8304-b7dde75e37a6","system_id":"levelo_inurba_marseille","lat":43.24387,"lon":5.37062,"is_reserved":false,"is_disabled":false,"rental_uris":{"android":"levelo://app?vid=a85b86be-929f-46e5-8304-b7dde75e37a6","ios":"levelo://app?vid=a85b86be-929f-46e5-8304-b7dde75e37a6"},"vehicle_type_id":"4","last_reported":1742040989,"current_range_meters":6800,"station_id":"ce4bhhh2rcd13ifvqfk0","pricing_plan_id":"cebpf4jnsgd1na2vs0mg"},{"bike_id":"e7e70597-27c6-40d2-933e-14b37f695537","system_id":"levelo_inurba_marseille","lat":43.29167,"lon":5.37137,"is_reserved":false,"is_disabled":false,"rental_uris":{"android":"levelo://app?vid=e7e70597-27c6-40d2-933e-14b37f695537","ios":"levelo://app?vid=e7e70597-27c6-40d2-933e-14b37f695537"},"vehicle_type_id":"4","last_reported":1742040989,"current_range_meters":7200,"station_id":"ce4bha92rcd13ifvqeh0","pricing_plan_id":"cebpf4jnsgd1na2vs0mg"},{"bike_id":"520d2401-c656-4966-95b0-66ceb5f5a560","system_id":"levelo_inurba_marseille","lat":43.28609,"lon":5.35106,"is_reserved":false,"is_disabled":false,"rental_uris":{"android":"levelo://app?vid=520d2401-c656-4966-95b0-66ceb5f5a560","ios":"levelo://app?vid=520d2401-c656-4966-95b0-66ceb5f5a560"},"vehicle_type_id":"4","last_reported":1742040989,"current_range_meters":7200,"station_id":"ce4bhch2rcd13ifvqeug","pricing_plan_id":"cebpf4jnsgd1na2vs0mg"},{"bike_id":"a74faf44-03f9-4afe-9bde-cd30ed686213","system_id":"levelo_inurba_marseille","lat":43.26556,"lon":5.37281,"is_reserved":false,"is_disabled":false,"rental_uris":{"android":"levelo://app?vid=a74faf44-03f9-4afe-9bde-cd30ed686213","ios":"levelo://app?vid=a74faf44-03f9-4afe-9bde-cd30ed686213"},"vehicle_type_id":"4","last_reported":1742040989,"current_range_meters":7200,"station_id":"ce4bhg12rcd13ifvqf70","pricing_plan_id":"cebpf4jnsgd1na2vs0mg"},{"bike_id":"df69e910-b9c1-4e3a-8b3b-7d5edd0bb8a4","system_id":"levelo_inurba_marseille","lat":43.3063,"lon":5.40086,"is_reserved":false,"is_disabled":false,"rental_uris":{"android":"levelo://app?vid=df69e910-b9c1-4e3a-8b3b-7d5edd0bb8a4","ios":"levelo://app?vid=df69e910-b9c1-4e3a-8b3b-7d5edd0bb8a4"},"vehicle_type_id":"4","last_reported":1742040989,"current_range_meters":7200,"station_id":"ce4bh112rcd13ifvqda0","pricing_plan_id":"cebpf4jnsgd1na2vs0mg"},{"bike_id":"5efcdc6d-0fad-43e0-9e69-5807f2e3baf5","system_id":"levelo_inurba_marseille","lat":43.24799,"lon":5.37455,"is_reserved":false,"is_disabled":false,"rental_uris":{"android":"levelo://app?vid=5efcdc6d-0fad-43e0-9e69-5807f2e3baf5","ios":"levelo://app?vid=5efcdc6d-0fad-43e0-9e69-5807f2e3baf5"},"vehicle_type_id":"4","last_reported":1742040989,"current_range_meters":7200,"station_id":"ce4bhgh2rcd13ifvqfb0","pricing_plan_id":"cebpf4jnsgd1na2vs0mg"},{"bike_id":"2398a545-be6a-490e-bd1f-16e7b38d82a6","system_id":"levelo_inurba_marseille","lat":43.27902,"lon":5.38001,"is_reserved":false,"is_disabled":false,"rental_uris":{"android":"levelo://app?vid=2398a545-be6a-490e-bd1f-16e7b38d82a6","ios":"levelo://app?vid=2398a545-be6a-490e-bd1f-16e7b38d82a6"},"vehicle_type_id":"4","last_reported":1742040989,"current_range_meters":7200,"station_id":"ce4bhf92rcd13ifvqf50","pricing_plan_id":"cebpf4jnsgd1na2vs0mg"},{"bike_id":"77f0430f-3350-4963-ac6b-e35c49a943e2","system_id":"levelo_inurba_marseille","lat":43.31666,"lon":5.39579,"is_reserved":false,"is_disabled":false,"rental_uris":{"android":"levelo://app?vid=77f0430f-3350-4963-ac6b-e35c49a943e2","ios":"levelo://app?vid=77f0430f-3350-4963-ac6b-e35c49a943e2"},"vehicle_type_id":"4","last_reported":1742040989,"current_range_meters":7200,"station_id":"","pricing_plan_id":"cebpf4jnsgd1na2vs0mg"},{"bike_id":"48f968e9-2670-450c-9a50-b12a7ac1907f","system_id":"levelo_inurba_marseille","lat":43.2572,"lon":5.41039,"is_reserved":false,"is_disabled":false,"rental_uris":{"android":"levelo://app?vid=48f968e9-2670-450c-9a50-b12a7ac1907f","ios":"levelo://app?vid=48f968e9-2670-450c-9a50-b12a7ac1907f"},"vehicle_type_id":"4","last_reported":1742040989,"current_range_meters":8000,"station_id":"ce4bhkp2rcd13ifvqgd0","pricing_plan_id":"cebpf4jnsgd1na2vs0mg"},{"bike_id":"2f65ed80-6c16-4426-b63c-1981c1c225b9","system_id":"levelo_inurba_marseille","lat":43.29545,"lon":5.42286,"is_reserved":false,"is_disabled":false,"rental_uris":{"android":"levelo://app?vid=2f65ed80-6c16-4426-b63c-1981c1c225b9","ios":"levelo://app?vid=2f65ed80-6c16-4426-b63c-1981c1c225b9"},"vehicle_type_id":"4","last_reported":1742040989,"current_range_meters":8000,"station_id":"ce4bhph2rcd13ifvqhdg","pricing_plan_id":"cebpf4jnsgd1na2vs0mg"},{"bike_id":"a6eb1e71-43a0-4bb0-9471-0b64aab655f8","system_id":"levelo_inurba_marseille","lat":43.29576,"lon":5.37521,"is_reserved":false,"is_disabled":false,"rental_uris":{"android":"levelo://app?vid=a6eb1e71-43a0-4bb0-9471-0b64aab655f8","ios":"levelo://app?vid=a6eb1e71-43a0-4bb0-9471-0b64aab655f8"},"vehicle_type_id":"4","last_reported":1742040989,"current_range_meters":8000,"station_id":"ce4bgh92rcd13ifvqb50","pricing_plan_id":"cebpf4jnsgd1na2vs0mg"},{"bike_id":"2dbb0782-871b-415f-ba38-38909e380323","system_id":"levelo_inurba_marseille","lat":43.33605,"lon":5.41033,"is_reserved":false,"is_disabled":false,"rental_uris":{"android":"levelo://app?vid=2dbb0782-871b-415f-ba38-38909e380323","ios":"levelo://app?vid=2dbb0782-871b-415f-ba38-38909e380323"},"vehicle_type_id":"4","last_reported":1742040989,"current_range_meters":7200,"station_id":"ce4bhqh2rcd13ifvqhmg","pricing_plan_id":"cebpf4jnsgd1na2vs0mg"},{"bike_id":"909caf60-b016-45d9-adc4-c77b1b500bac","system_id":"levelo_inurba_marseille","lat":43.25172,"lon":5.37524,"is_reserved":false,"is_disabled":false,"rental_uris":{"android":"levelo://app?vid=909caf60-b016-45d9-adc4-c77b1b500bac","ios":"levelo://app?vid=909caf60-b016-45d9-adc4-c77b1b500bac"},"vehicle_type_id":"4","last_reported":1742040989,"current_range_meters":8000,"station_id":"ce4bhgh2rcd13ifvqfb0","pricing_plan_id":"cebpf4jnsgd1na2vs0mg"},{"bike_id":"a8e67676-89ba-43e0-82dc-5ef4b0a5e328","system_id":"levelo_inurba_marseille","lat":43.31653,"lon":5.38738,"is_reserved":false,"is_disabled":false,"rental_uris":{"android":"levelo://app?vid=a8e67676-89ba-43e0-82dc-5ef4b0a5e328","ios":"levelo://app?vid=a8e67676-89ba-43e0-82dc-5ef4b0a5e328"},"vehicle_type_id":"4","last_reported":1742040989,"current_range_meters":8000,"station_id":"","pricing_plan_id":"cebpf4jnsgd1na2vs0mg"},{"bike_id":"e9654db1-b8b8-43d6-a6ca-b3caffc21a67","system_id":"levelo_inurba_marseille","lat":43.24802,"lon":5.37452,"is_reserved":false,"is_disabled":false,"rental_uris":{"android":"levelo://app?vid=e9654db1-b8b8-43d6-a6ca-b3caffc21a67","ios":"levelo://app?vid=e9654db1-b8b8-43d6-a6ca-b3caffc21a67"},"vehicle_type_id":"4","last_reported":1742040989,"current_range_meters":8000,"station_id":"ce4bhgh2rcd13ifvqfb0","pricing_plan_id":"cebpf4jnsgd1na2vs0mg"},{"bike_id":"2ec0f046-4e68-4150-a618-5c892d6b2cb5","system_id":"levelo_inurba_marseille","lat":43.26243,"lon":5.40446,"is_reserved":false,"is_disabled":false,"rental_uris":{"android":"levelo://app?vid=2ec0f046-4e68-4150-a618-5c892d6b2cb5","ios":"levelo://app?vid=2ec0f046-4e68-4150-a618-5c892d6b2cb5"},"vehicle_type_id":"4","last_reported":1742040989,"current_range_meters":8000,"station_id":"ce4bhmh2rcd13ifvqgmg","pricing_plan_id":"cebpf4jnsgd1na2vs0mg"},{"bike_id":"d48badf8-f9ee-4833-b32a-a1ead714b7cc","system_id":"levelo_inurba_marseille","lat":43.26808,"lon":5.40265,"is_reserved":false,"is_disabled":false,"rental_uris":{"android":"levelo://app?vid=d48badf8-f9ee-4833-b32a-a1ead714b7cc","ios":"levelo://app?vid=d48badf8-f9ee-4833-b32a-a1ead714b7cc"},"vehicle_type_id":"4","last_reported":1742040989,"current_range_meters":8000,"station_id":"ce501612rcd8frsf0b60","pricing_plan_id":"cebpf4jnsgd1na2vs0mg"},{"bike_id":"67a4cd9f-cde1-4dd4-90b7-f8f65759b83a","system_id":"levelo_inurba_marseille","lat":43.24391,"lon":5.37056,"is_reserved":false,"is_disabled":false,"rental_uris":{"android":"levelo://app?vid=67a4cd9f-cde1-4dd4-90b7-f8f65759b83a","ios":"levelo://app?vid=67a4cd9f-cde1-4dd4-90b7-f8f65759b83a"},"vehicle_type_id":"4","last_reported":1742040989,"current_range_meters":8400,"station_id":"ce4bhhh2rcd13ifvqfk0","pricing_plan_id":"cebpf4jnsgd1na2vs0mg"},{"bike_id":"f145fb8a-76ed-4610-9aa2-4cd4bb3e0bc9","system_id":"levelo_inurba_marseille","lat":43.28076,"lon":5.39651,"is_reserved":false,"is_disabled":false,"rental_uris":{"android":"levelo://app?vid=f145fb8a-76ed-4610-9aa2-4cd4bb3e0bc9","ios":"levelo://app?vid=f145fb8a-76ed-4610-9aa2-4cd4bb3e0bc9"},"vehicle_type_id":"4","last_reported":1742040989,"current_range_meters":8400,"station_id":"ce4bho12rcd13ifvqh2g","pricing_plan_id":"cebpf4jnsgd1na2vs0mg"},{"bike_id":"2ada218c-4e3e-433b-a33e-91e0fed6090b","system_id":"levelo_inurba_marseille","lat":43.29437,"lon":5.39757,"is_reserved":false,"is_disabled":true,"rental_uris":{"android":"levelo://app?vid=2ada218c-4e3e-433b-a33e-91e0fed6090b","ios":"levelo://app?vid=2ada218c-4e3e-433b-a33e-91e0fed6090b"},"vehicle_type_id":"4","last_reported":1742040989,"current_range_meters":8400,"station_id":"ce4bh3h2rcd13ifvqdo0","pricing_plan_id":"cebpf4jnsgd1na2vs0mg"},{"bike_id":"1d74071e-3956-4715-9113-6e0aa891fff6","system_id":"levelo_inurba_marseille","lat":43.28477,"lon":5.38417,"is_reserved":false,"is_disabled":false,"rental_uris":{"android":"levelo://app?vid=1d74071e-3956-4715-9113-6e0aa891fff6","ios":"levelo://app?vid=1d74071e-3956-4715-9113-6e0aa891fff6"},"vehicle_type_id":"4","last_reported":1742040989,"current_range_meters":8400,"station_id":"ce4bh512rcd13ifvqe3g","pricing_plan_id":"cebpf4jnsgd1na2vs0mg"},{"bike_id":"bd7fb638-a561-41df-90ca-f32685780427","system_id":"levelo_inurba_marseille","lat":43.2293,"lon":5.35358,"is_reserved":false,"is_disabled":false,"rental_uris":{"android":"levelo://app?vid=bd7fb638-a561-41df-90ca-f32685780427","ios":"levelo://app?vid=bd7fb638-a561-41df-90ca-f32685780427"},"vehicle_type_id":"4","last_reported":1742040989,"current_range_meters":8400,"station_id":"cpo3532slgdg3j2ikp40","pricing_plan_id":"cebpf4jnsgd1na2vs0mg"},{"bike_id":"8a5bd971-61c1-4475-933b-dffdb284dd01","system_id":"levelo_inurba_marseille","lat":43.25001,"lon":5.38919,"is_reserved":false,"is_disabled":false,"rental_uris":{"android":"levelo://app?vid=8a5bd971-61c1-4475-933b-dffdb284dd01","ios":"levelo://app?vid=8a5bd971-61c1-4475-933b-dffdb284dd01"},"vehicle_type_id":"4","last_reported":1742040989,"current_range_meters":8800,"station_id":"ce4bhgp2rcd13ifvqfd0","pricing_plan_id":"cebpf4jnsgd1na2vs0mg"},{"bike_id":"9ae97f87-5988-434e-be02-4825dd7943b7","system_id":"levelo_inurba_marseille","lat":43.25925,"lon":5.40876,"is_reserved":false,"is_disabled":false,"rental_uris":{"android":"levelo://app?vid=9ae97f87-5988-434e-be02-4825dd7943b7","ios":"levelo://app?vid=9ae97f87-5988-434e-be02-4825dd7943b7"},"vehicle_type_id":"4","last_reported":1742040989,"current_range_meters":8800,"station_id":"ce4bhm92rcd13ifvqglg","pricing_plan_id":"cebpf4jnsgd1na2vs0mg"},{"bike_id":"9fd8a695-1141-48a7-a275-ae03aade4f9e","system_id":"levelo_inurba_marseille","lat":43.24551,"lon":5.39535,"is_reserved":false,"is_disabled":false,"rental_uris":{"android":"levelo://app?vid=9fd8a695-1141-48a7-a275-ae03aade4f9e","ios":"levelo://app?vid=9fd8a695-1141-48a7-a275-ae03aade4f9e"},"vehicle_type_id":"4","last_reported":1742040989,"current_range_meters":9200,"station_id":"ce4bhlp2rcd13ifvqgjg","pricing_plan_id":"cebpf4jnsgd1na2vs0mg"},{"bike_id":"1fa2c054-0357-481f-bf32-afbe27f59e33","system_id":"levelo_inurba_marseille","lat":43.23169,"lon":5.4371,"is_reserved":false,"is_disabled":false,"rental_uris":{"android":"levelo://app?vid=1fa2c054-0357-481f-bf32-afbe27f59e33","ios":"levelo://app?vid=1fa2c054-0357-481f-bf32-afbe27f59e33"},"vehicle_type_id":"4","last_reported":1742040989,"current_range_meters":9200,"station_id":"ce4bhmp2rcd13ifvqgog","pricing_plan_id":"cebpf4jnsgd1na2vs0mg"},{"bike_id":"adcfcf3a-4d2a-4756-9614-56f9a7b093cb","system_id":"levelo_inurba_marseille","lat":43.23179,"lon":5.39985,"is_reserved":false,"is_disabled":false,"rental_uris":{"android":"levelo://app?vid=adcfcf3a-4d2a-4756-9614-56f9a7b093cb","ios":"levelo://app?vid=adcfcf3a-4d2a-4756-9614-56f9a7b093cb"},"vehicle_type_id":"4","last_reported":1742040989,"current_range_meters":9200,"station_id":"ce4bhn12rcd13ifvqgqg","pricing_plan_id":"cebpf4jnsgd1na2vs0mg"},{"bike_id":"7f3eea40-1f86-4139-84a7-4dc1409186b6","system_id":"levelo_inurba_marseille","lat":43.295278,"lon":5.39049,"is_reserved":false,"is_disabled":false,"rental_uris":{"android":"levelo://app?vid=7f3eea40-1f86-4139-84a7-4dc1409186b6","ios":"levelo://app?vid=7f3eea40-1f86-4139-84a7-4dc1409186b6"},"vehicle_type_id":"4","last_reported":1742040989,"current_range_meters":10000,"station_id":"ce4bh0h2rcd13ifvqd40","pricing_plan_id":"cebpf4jnsgd1na2vs0mg"},{"bike_id":"2a069566-a5df-437d-bb2d-6e0c024e474a","system_id":"levelo_inurba_marseille","lat":43.29259,"lon":5.37613,"is_reserved":false,"is_disabled":false,"rental_uris":{"android":"levelo://app?vid=2a069566-a5df-437d-bb2d-6e0c024e474a","ios":"levelo://app?vid=2a069566-a5df-437d-bb2d-6e0c024e474a"},"vehicle_type_id":"4","last_reported":1742040989,"current_range_meters":9200,"station_id":"ce4bgi12rcd13ifvqb80","pricing_plan_id":"cebpf4jnsgd1na2vs0mg"},{"bike_id":"18a1cfa4-0583-4465-858e-41f769d09057","system_id":"levelo_inurba_marseille","lat":43.3127,"lon":5.40163,"is_reserved":false,"is_disabled":false,"rental_uris":{"android":"levelo://app?vid=18a1cfa4-0583-4465-858e-41f769d09057","ios":"levelo://app?vid=18a1cfa4-0583-4465-858e-41f769d09057"},"vehicle_type_id":"4","last_reported":1742040989,"current_range_meters":9200,"station_id":"ce4bh092rcd13ifvqd30","pricing_plan_id":"cebpf4jnsgd1na2vs0mg"},{"bike_id":"385ae15c-2c3c-4490-a507-5eb20fb883a5","system_id":"levelo_inurba_marseille","lat":43.25928,"lon":5.40885,"is_reserved":false,"is_disabled":false,"rental_uris":{"android":"levelo://app?vid=385ae15c-2c3c-4490-a507-5eb20fb883a5","ios":"levelo://app?vid=385ae15c-2c3c-4490-a507-5eb20fb883a5"},"vehicle_type_id":"4","last_reported":1742040989,"current_range_meters":9200,"station_id":"ce4bhm92rcd13ifvqglg","pricing_plan_id":"cebpf4jnsgd1na2vs0mg"},{"bike_id":"66f7e32f-3c95-41de-a44e-cd8857d1a810","system_id":"levelo_inurba_marseille","lat":43.27203,"lon":5.39195,"is_reserved":false,"is_disabled":false,"rental_uris":{"android":"levelo://app?vid=66f7e32f-3c95-41de-a44e-cd8857d1a810","ios":"levelo://app?vid=66f7e32f-3c95-41de-a44e-cd8857d1a810"},"vehicle_type_id":"4","last_reported":1742040989,"current_range_meters":9200,"station_id":"ce4bhhp2rcd13ifvqfm0","pricing_plan_id":"cebpf4jnsgd1na2vs0mg"},{"bike_id":"1ac0ebad-6828-4242-99b2-14a9f8209f79","system_id":"levelo_inurba_marseille","lat":43.232,"lon":5.35549,"is_reserved":false,"is_disabled":false,"rental_uris":{"android":"levelo://app?vid=1ac0ebad-6828-4242-99b2-14a9f8209f79","ios":"levelo://app?vid=1ac0ebad-6828-4242-99b2-14a9f8209f79"},"vehicle_type_id":"4","last_reported":1742040989,"current_range_meters":9600,"station_id":"ce4bhu92rcd13ifvqi70","pricing_plan_id":"cebpf4jnsgd1na2vs0mg"},{"bike_id":"2610bfa6-537c-44f6-ae39-c8db3f68d1a3","system_id":"levelo_inurba_marseille","lat":43.26188,"lon":5.37457,"is_reserved":false,"is_disabled":false,"rental_uris":{"android":"levelo://app?vid=2610bfa6-537c-44f6-ae39-c8db3f68d1a3","ios":"levelo://app?vid=2610bfa6-537c-44f6-ae39-c8db3f68d1a3"},"vehicle_type_id":"4","last_reported":1742040989,"current_range_meters":9600,"station_id":"ce4bhgp2rcd13ifvqfc0","pricing_plan_id":"cebpf4jnsgd1na2vs0mg"},{"bike_id":"b4616406-2d58-4f02-abf1-373bd2ebeed9","system_id":"levelo_inurba_marseille","lat":43.24392,"lon":5.37059,"is_reserved":false,"is_disabled":false,"rental_uris":{"android":"levelo://app?vid=b4616406-2d58-4f02-abf1-373bd2ebeed9","ios":"levelo://app?vid=b4616406-2d58-4f02-abf1-373bd2ebeed9"},"vehicle_type_id":"4","last_reported":1742040989,"current_range_meters":9600,"station_id":"ce4bhhh2rcd13ifvqfk0","pricing_plan_id":"cebpf4jnsgd1na2vs0mg"},{"bike_id":"51170319-f3fa-4b39-9592-6ab173dcfd10","system_id":"levelo_inurba_marseille","lat":43.31513,"lon":5.37287,"is_reserved":false,"is_disabled":false,"rental_uris":{"android":"levelo://app?vid=51170319-f3fa-4b39-9592-6ab173dcfd10","ios":"levelo://app?vid=51170319-f3fa-4b39-9592-6ab173dcfd10"},"vehicle_type_id":"4","last_reported":1742040989,"current_range_meters":9600,"station_id":"ce4bgt12rcd13ifvqcd0","pricing_plan_id":"cebpf4jnsgd1na2vs0mg"},{"bike_id":"a47e6c33-6f3e-4858-bb56-70e4acc391c5","system_id":"levelo_inurba_marseille","lat":43.23194,"lon":5.35551,"is_reserved":false,"is_disabled":false,"rental_uris":{"android":"levelo://app?vid=a47e6c33-6f3e-4858-bb56-70e4acc391c5","ios":"levelo://app?vid=a47e6c33-6f3e-4858-bb56-70e4acc391c5"},"vehicle_type_id":"4","last_reported":1742040989,"current_range_meters":9600,"station_id":"ce4bhu92rcd13ifvqi70","pricing_plan_id":"cebpf4jnsgd1na2vs0mg"},{"bike_id":"ce022a48-1357-45de-a1db-d68d8fb6a488","system_id":"levelo_inurba_marseille","lat":43.26206,"lon":5.37927,"is_reserved":false,"is_disabled":false,"rental_uris":{"android":"levelo://app?vid=ce022a48-1357-45de-a1db-d68d8fb6a488","ios":"levelo://app?vid=ce022a48-1357-45de-a1db-d68d8fb6a488"},"vehicle_type_id":"4","last_reported":1742040989,"current_range_meters":9600,"station_id":"ce4bhjp2rcd13ifvqg90","pricing_plan_id":"cebpf4jnsgd1na2vs0mg"},{"bike_id":"676e66c6-8e50-404c-b512-5f94c7d6a8fc","system_id":"levelo_inurba_marseille","lat":43.24161,"lon":5.36414,"is_reserved":false,"is_disabled":false,"rental_uris":{"android":"levelo://app?vid=676e66c6-8e50-404c-b512-5f94c7d6a8fc","ios":"levelo://app?vid=676e66c6-8e50-404c-b512-5f94c7d6a8fc"},"vehicle_type_id":"4","last_reported":1742040989,"current_range_meters":10000,"station_id":"cpo36qri1sfpv3e86is0","pricing_plan_id":"cebpf4jnsgd1na2vs0mg"},{"bike_id":"cabd3d2d-330e-43b2-8d0b-3e86699f79e1","system_id":"levelo_inurba_marseille","lat":43.24165,"lon":5.36392,"is_reserved":false,"is_disabled":false,"rental_uris":{"android":"levelo://app?vid=cabd3d2d-330e-43b2-8d0b-3e86699f79e1","ios":"levelo://app?vid=cabd3d2d-330e-43b2-8d0b-3e86699f79e1"},"vehicle_type_id":"4","last_reported":1742040989,"current_range_meters":10000,"station_id":"cpo36qri1sfpv3e86is0","pricing_plan_id":"cebpf4jnsgd1na2vs0mg"},{"bike_id":"cd2eb4ba-77cf-40ae-a991-34cec5701430","system_id":"levelo_inurba_marseille","lat":43.23149,"lon":5.43708,"is_reserved":false,"is_disabled":false,"rental_uris":{"android":"levelo://app?vid=cd2eb4ba-77cf-40ae-a991-34cec5701430","ios":"levelo://app?vid=cd2eb4ba-77cf-40ae-a991-34cec5701430"},"vehicle_type_id":"4","last_reported":1742040989,"current_range_meters":10000,"station_id":"ce4bhmp2rcd13ifvqgog","pricing_plan_id":"cebpf4jnsgd1na2vs0mg"},{"bike_id":"269491db-b98a-49e3-a3b5-e04159ff8cbf","system_id":"levelo_inurba_marseille","lat":43.26937,"lon":5.40248,"is_reserved":false,"is_disabled":false,"rental_uris":{"android":"levelo://app?vid=269491db-b98a-49e3-a3b5-e04159ff8cbf","ios":"levelo://app?vid=269491db-b98a-49e3-a3b5-e04159ff8cbf"},"vehicle_type_id":"4","last_reported":1742040989,"current_range_meters":10000,"station_id":"cjm6bp8fraef2m0cb0m0","pricing_plan_id":"cebpf4jnsgd1na2vs0mg"},{"bike_id":"49a173d9-c0ae-4f30-8906-a1ef20c838ce","system_id":"levelo_inurba_marseille","lat":43.29599,"lon":5.37715,"is_reserved":false,"is_disabled":false,"rental_uris":{"android":"levelo://app?vid=49a173d9-c0ae-4f30-8906-a1ef20c838ce","ios":"levelo://app?vid=49a173d9-c0ae-4f30-8906-a1ef20c838ce"},"vehicle_type_id":"4","last_reported":1742040989,"current_range_meters":10000,"station_id":"ce4bgi92rcd13ifvqb90","pricing_plan_id":"cebpf4jnsgd1na2vs0mg"},{"bike_id":"62750819-90ea-49db-b059-da19472d9390","system_id":"levelo_inurba_marseille","lat":43.31559,"lon":5.42285,"is_reserved":false,"is_disabled":false,"rental_uris":{"android":"levelo://app?vid=62750819-90ea-49db-b059-da19472d9390","ios":"levelo://app?vid=62750819-90ea-49db-b059-da19472d9390"},"vehicle_type_id":"4","last_reported":1742040989,"current_range_meters":10000,"station_id":"","pricing_plan_id":"cebpf4jnsgd1na2vs0mg"},{"bike_id":"ad8ecf6e-627d-42c4-94bd-5449153e9118","system_id":"levelo_inurba_marseille","lat":43.25586,"lon":5.38238,"is_reserved":false,"is_disabled":false,"rental_uris":{"android":"levelo://app?vid=ad8ecf6e-627d-42c4-94bd-5449153e9118","ios":"levelo://app?vid=ad8ecf6e-627d-42c4-94bd-5449153e9118"},"vehicle_type_id":"4","last_reported":1742040989,"current_range_meters":10000,"station_id":"ce4bhih2rcd13ifvqfs0","pricing_plan_id":"cebpf4jnsgd1na2vs0mg"},{"bike_id":"c9904f57-f210-40f9-aa37-bfa229a86496","system_id":"levelo_inurba_marseille","lat":43.27559,"lon":5.38427,"is_reserved":false,"is_disabled":false,"rental_uris":{"android":"levelo://app?vid=c9904f57-f210-40f9-aa37-bfa229a86496","ios":"levelo://app?vid=c9904f57-f210-40f9-aa37-bfa229a86496"},"vehicle_type_id":"4","last_reported":1742040989,"current_range_meters":10000,"station_id":"ce4bhh92rcd13ifvqfi0","pricing_plan_id":"cebpf4jnsgd1na2vs0mg"},{"bike_id":"9d9bd579-ca4a-49a8-84d8-e0a9c1600b5e","system_id":"levelo_inurba_marseille","lat":43.250844,"lon":5.395249,"is_reserved":false,"is_disabled":false,"rental_uris":{"android":"levelo://app?vid=9d9bd579-ca4a-49a8-84d8-e0a9c1600b5e","ios":"levelo://app?vid=9d9bd579-ca4a-49a8-84d8-e0a9c1600b5e"},"vehicle_type_id":"4","last_reported":1742040989,"current_range_meters":10800,"station_id":"ce4bhm12rcd13ifvqgkg","pricing_plan_id":"cebpf4jnsgd1na2vs0mg"},{"bike_id":"059d9ce4-cea1-432d-b781-d2628ed55a88","system_id":"levelo_inurba_marseille","lat":43.29897,"lon":5.43671,"is_reserved":false,"is_disabled":false,"rental_uris":{"android":"levelo://app?vid=059d9ce4-cea1-432d-b781-d2628ed55a88","ios":"levelo://app?vid=059d9ce4-cea1-432d-b781-d2628ed55a88"},"vehicle_type_id":"4","last_reported":1742040989,"current_range_meters":10800,"station_id":"ce4bhpp2rcd13ifvqhfg","pricing_plan_id":"cebpf4jnsgd1na2vs0mg"},{"bike_id":"d0915976-a2a8-41f1-a9d9-b0708b870040","system_id":"levelo_inurba_marseille","lat":43.231517,"lon":5.43722,"is_reserved":false,"is_disabled":false,"rental_uris":{"android":"levelo://app?vid=d0915976-a2a8-41f1-a9d9-b0708b870040","ios":"levelo://app?vid=d0915976-a2a8-41f1-a9d9-b0708b870040"},"vehicle_type_id":"4","last_reported":1742040989,"current_range_meters":10800,"station_id":"ce4bhmp2rcd13ifvqgog","pricing_plan_id":"cebpf4jnsgd1na2vs0mg"},{"bike_id":"83783ead-721f-4d82-86e9-a8ac641b2edd","system_id":"levelo_inurba_marseille","lat":43.26219,"lon":5.40449,"is_reserved":false,"is_disabled":false,"rental_uris":{"android":"levelo://app?vid=83783ead-721f-4d82-86e9-a8ac641b2edd","ios":"levelo://app?vid=83783ead-721f-4d82-86e9-a8ac641b2edd"},"vehicle_type_id":"4","last_reported":1742040989,"current_range_meters":10800,"station_id":"ce4bhmh2rcd13ifvqgmg","pricing_plan_id":"cebpf4jnsgd1na2vs0mg"},{"bike_id":"9cea6168-3f0c-4120-8dae-e7567f332437","system_id":"levelo_inurba_marseille","lat":43.27071,"lon":5.42293,"is_reserved":false,"is_disabled":false,"rental_uris":{"android":"levelo://app?vid=9cea6168-3f0c-4120-8dae-e7567f332437","ios":"levelo://app?vid=9cea6168-3f0c-4120-8dae-e7567f332437"},"vehicle_type_id":"4","last_reported":1742040989,"current_range_meters":10800,"station_id":"ce4bhk92rcd13ifvqgb0","pricing_plan_id":"cebpf4jnsgd1na2vs0mg"},{"bike_id":"7137f0c1-e937-471d-bfc2-9a2400fc4913","system_id":"levelo_inurba_marseille","lat":43.31283,"lon":5.40169,"is_reserved":false,"is_disabled":false,"rental_uris":{"android":"levelo://app?vid=7137f0c1-e937-471d-bfc2-9a2400fc4913","ios":"levelo://app?vid=7137f0c1-e937-471d-bfc2-9a2400fc4913"},"vehicle_type_id":"4","last_reported":1742040989,"current_range_meters":10800,"station_id":"ce4bh092rcd13ifvqd30","pricing_plan_id":"cebpf4jnsgd1na2vs0mg"},{"bike_id":"0da1c770-5687-4af1-9877-11ab2a164fbc","system_id":"levelo_inurba_marseille","lat":43.2827,"lon":5.35059,"is_reserved":false,"is_disabled":false,"rental_uris":{"android":"levelo://app?vid=0da1c770-5687-4af1-9877-11ab2a164fbc","ios":"levelo://app?vid=0da1c770-5687-4af1-9877-11ab2a164fbc"},"vehicle_type_id":"4","last_reported":1742040989,"current_range_meters":10800,"station_id":"ce4bhbp2rcd13ifvqerg","pricing_plan_id":"cebpf4jnsgd1na2vs0mg"},{"bike_id":"0b7bfdb8-fd03-4687-9225-8085184f929c","system_id":"levelo_inurba_marseille","lat":43.32357,"lon":5.36776,"is_reserved":false,"is_disabled":false,"rental_uris":{"android":"levelo://app?vid=0b7bfdb8-fd03-4687-9225-8085184f929c","ios":"levelo://app?vid=0b7bfdb8-fd03-4687-9225-8085184f929c"},"vehicle_type_id":"4","last_reported":1742040989,"current_range_meters":11200,"station_id":"ce4bhsh2rcd13ifvqi2g","pricing_plan_id":"cebpf4jnsgd1na2vs0mg"},{"bike_id":"add856bf-81a6-44ef-949e-dc12105b7198","system_id":"levelo_inurba_marseille","lat":43.294919,"lon":5.385782,"is_reserved":false,"is_disabled":false,"rental_uris":{"android":"levelo://app?vid=add856bf-81a6-44ef-949e-dc12105b7198","ios":"levelo://app?vid=add856bf-81a6-44ef-949e-dc12105b7198"},"vehicle_type_id":"4","last_reported":1742040989,"current_range_meters":11200,"station_id":"ce4bh292rcd13ifvqdf0","pricing_plan_id":"cebpf4jnsgd1na2vs0mg"},{"bike_id":"e52b41b5-52df-4c67-a85c-3cebb3bf7504","system_id":"levelo_inurba_marseille","lat":43.32405,"lon":5.3681,"is_reserved":false,"is_disabled":false,"rental_uris":{"android":"levelo://app?vid=e52b41b5-52df-4c67-a85c-3cebb3bf7504","ios":"levelo://app?vid=e52b41b5-52df-4c67-a85c-3cebb3bf7504"},"vehicle_type_id":"4","last_reported":1742040989,"current_range_meters":11200,"station_id":"","pricing_plan_id":"cebpf4jnsgd1na2vs0mg"},{"bike_id":"308caf01-1ffd-4b59-9b33-1a8cae2cad4b","system_id":"levelo_inurba_marseille","lat":43.24399,"lon":5.37065,"is_reserved":false,"is_disabled":false,"rental_uris":{"android":"levelo://app?vid=308caf01-1ffd-4b59-9b33-1a8cae2cad4b","ios":"levelo://app?vid=308caf01-1ffd-4b59-9b33-1a8cae2cad4b"},"vehicle_type_id":"4","last_reported":1742040989,"current_range_meters":11200,"station_id":"ce4bhhh2rcd13ifvqfk0","pricing_plan_id":"cebpf4jnsgd1na2vs0mg"},{"bike_id":"b3c05a42-cc78-43ba-8b54-ccb98dfe2b98","system_id":"levelo_inurba_marseille","lat":43.22929,"lon":5.35379,"is_reserved":false,"is_disabled":false,"rental_uris":{"android":"levelo://app?vid=b3c05a42-cc78-43ba-8b54-ccb98dfe2b98","ios":"levelo://app?vid=b3c05a42-cc78-43ba-8b54-ccb98dfe2b98"},"vehicle_type_id":"4","last_reported":1742040989,"current_range_meters":11200,"station_id":"cpo3532slgdg3j2ikp40","pricing_plan_id":"cebpf4jnsgd1na2vs0mg"},{"bike_id":"3fbdbed3-81eb-4ebd-99e8-fe7ae5272906","system_id":"levelo_inurba_marseille","lat":43.25823,"lon":5.39431,"is_reserved":false,"is_disabled":false,"rental_uris":{"android":"levelo://app?vid=3fbdbed3-81eb-4ebd-99e8-fe7ae5272906","ios":"levelo://app?vid=3fbdbed3-81eb-4ebd-99e8-fe7ae5272906"},"vehicle_type_id":"4","last_reported":1742040989,"current_range_meters":11200,"station_id":"ce4bhip2rcd13ifvqft0","pricing_plan_id":"cebpf4jnsgd1na2vs0mg"},{"bike_id":"8a50b35c-7853-4d1c-9ad1-45b999aa59a0","system_id":"levelo_inurba_marseille","lat":43.32984,"lon":5.38915,"is_reserved":false,"is_disabled":false,"rental_uris":{"android":"levelo://app?vid=8a50b35c-7853-4d1c-9ad1-45b999aa59a0","ios":"levelo://app?vid=8a50b35c-7853-4d1c-9ad1-45b999aa59a0"},"vehicle_type_id":"4","last_reported":1742040989,"current_range_meters":11600,"station_id":"","pricing_plan_id":"cebpf4jnsgd1na2vs0mg"},{"bike_id":"6998ecdf-09aa-4eff-b9e6-c298f075374e","system_id":"levelo_inurba_marseille","lat":43.3116,"lon":5.38725,"is_reserved":false,"is_disabled":false,"rental_uris":{"android":"levelo://app?vid=6998ecdf-09aa-4eff-b9e6-c298f075374e","ios":"levelo://app?vid=6998ecdf-09aa-4eff-b9e6-c298f075374e"},"vehicle_type_id":"4","last_reported":1742040989,"current_range_meters":11600,"station_id":"ce4bgv12rcd13ifvqcp0","pricing_plan_id":"cebpf4jnsgd1na2vs0mg"},{"bike_id":"5a6122e3-b2c5-4ead-8b6b-9083f582e517","system_id":"levelo_inurba_marseille","lat":43.26561,"lon":5.39007,"is_reserved":false,"is_disabled":false,"rental_uris":{"android":"levelo://app?vid=5a6122e3-b2c5-4ead-8b6b-9083f582e517","ios":"levelo://app?vid=5a6122e3-b2c5-4ead-8b6b-9083f582e517"},"vehicle_type_id":"4","last_reported":1742040989,"current_range_meters":11600,"station_id":"ce4bhe12rcd13ifvqf30","pricing_plan_id":"cebpf4jnsgd1na2vs0mg"},{"bike_id":"1742665e-3cf5-4d91-9f4d-8afacbb37c97","system_id":"levelo_inurba_marseille","lat":43.30329,"lon":5.39226,"is_reserved":false,"is_disabled":false,"rental_uris":{"android":"levelo://app?vid=1742665e-3cf5-4d91-9f4d-8afacbb37c97","ios":"levelo://app?vid=1742665e-3cf5-4d91-9f4d-8afacbb37c97"},"vehicle_type_id":"4","last_reported":1742040989,"current_range_meters":12000,"station_id":"ce4bgkh2rcd13ifvqbk0","pricing_plan_id":"cebpf4jnsgd1na2vs0mg"},{"bike_id":"57f16d46-9a26-4a0f-bbd4-4019fba41bd5","system_id":"levelo_inurba_marseille","lat":43.2397,"lon":5.36628,"is_reserved":false,"is_disabled":false,"rental_uris":{"android":"levelo://app?vid=57f16d46-9a26-4a0f-bbd4-4019fba41bd5","ios":"levelo://app?vid=57f16d46-9a26-4a0f-bbd4-4019fba41bd5"},"vehicle_type_id":"4","last_reported":1742040989,"current_range_meters":12000,"station_id":"ce4bhi12rcd13ifvqfp0","pricing_plan_id":"cebpf4jnsgd1na2vs0mg"},{"bike_id":"7fe472b2-6267-43dd-ae42-b1829b606907","system_id":"levelo_inurba_marseille","lat":43.24805,"lon":5.37454,"is_reserved":false,"is_disabled":false,"rental_uris":{"android":"levelo://app?vid=7fe472b2-6267-43dd-ae42-b1829b606907","ios":"levelo://app?vid=7fe472b2-6267-43dd-ae42-b1829b606907"},"vehicle_type_id":"4","last_reported":1742040989,"current_range_meters":12000,"station_id":"ce4bhgh2rcd13ifvqfb0","pricing_plan_id":"cebpf4jnsgd1na2vs0mg"},{"bike_id":"35170032-9fbd-466b-b080-21388ed7720a","system_id":"levelo_inurba_marseille","lat":43.25087,"lon":5.39509,"is_reserved":false,"is_disabled":false,"rental_uris":{"android":"levelo://app?vid=35170032-9fbd-466b-b080-21388ed7720a","ios":"levelo://app?vid=35170032-9fbd-466b-b080-21388ed7720a"},"vehicle_type_id":"4","last_reported":1742040989,"current_range_meters":12400,"station_id":"ce4bhm12rcd13ifvqgkg","pricing_plan_id":"cebpf4jnsgd1na2vs0mg"},{"bike_id":"d9a2ce6d-4825-4da9-9335-472c445a91d2","system_id":"levelo_inurba_marseille","lat":43.27497,"lon":5.42453,"is_reserved":false,"is_disabled":false,"rental_uris":{"android":"levelo://app?vid=d9a2ce6d-4825-4da9-9335-472c445a91d2","ios":"levelo://app?vid=d9a2ce6d-4825-4da9-9335-472c445a91d2"},"vehicle_type_id":"4","last_reported":1742040989,"current_range_meters":12400,"station_id":"ce4bhn92rcd13ifvqgrg","pricing_plan_id":"cebpf4jnsgd1na2vs0mg"},{"bike_id":"fcfb0226-b92a-48e1-8109-97d8670e0387","system_id":"levelo_inurba_marseille","lat":43.25932,"lon":5.40922,"is_reserved":false,"is_disabled":false,"rental_uris":{"android":"levelo://app?vid=fcfb0226-b92a-48e1-8109-97d8670e0387","ios":"levelo://app?vid=fcfb0226-b92a-48e1-8109-97d8670e0387"},"vehicle_type_id":"4","last_reported":1742040989,"current_range_meters":12400,"station_id":"ce4bhm92rcd13ifvqglg","pricing_plan_id":"cebpf4jnsgd1na2vs0mg"},{"bike_id":"df16d102-ab42-49f0-9f20-5c64a8cea447","system_id":"levelo_inurba_marseille","lat":43.28855,"lon":5.35854,"is_reserved":false,"is_disabled":false,"rental_uris":{"android":"levelo://app?vid=df16d102-ab42-49f0-9f20-5c64a8cea447","ios":"levelo://app?vid=df16d102-ab42-49f0-9f20-5c64a8cea447"},"vehicle_type_id":"4","last_reported":1742040989,"current_range_meters":12400,"station_id":"ce4bhb12rcd13ifvqem0","pricing_plan_id":"cebpf4jnsgd1na2vs0mg"},{"bike_id":"3f51f1f5-7a39-4364-adc9-c4c0ef6e90b0","system_id":"levelo_inurba_marseille","lat":43.28613,"lon":5.35108,"is_reserved":false,"is_disabled":false,"rental_uris":{"android":"levelo://app?vid=3f51f1f5-7a39-4364-adc9-c4c0ef6e90b0","ios":"levelo://app?vid=3f51f1f5-7a39-4364-adc9-c4c0ef6e90b0"},"vehicle_type_id":"4","last_reported":1742040989,"current_range_meters":12800,"station_id":"ce4bhch2rcd13ifvqeug","pricing_plan_id":"cebpf4jnsgd1na2vs0mg"},{"bike_id":"608f0462-484e-441f-9837-82475dce48ee","system_id":"levelo_inurba_marseille","lat":43.299,"lon":5.43678,"is_reserved":false,"is_disabled":false,"rental_uris":{"android":"levelo://app?vid=608f0462-484e-441f-9837-82475dce48ee","ios":"levelo://app?vid=608f0462-484e-441f-9837-82475dce48ee"},"vehicle_type_id":"4","last_reported":1742040989,"current_range_meters":12800,"station_id":"ce4bhpp2rcd13ifvqhfg","pricing_plan_id":"cebpf4jnsgd1na2vs0mg"},{"bike_id":"e2461e35-53b7-42f4-97f1-da527f694ed0","system_id":"levelo_inurba_marseille","lat":43.28414,"lon":5.34991,"is_reserved":false,"is_disabled":false,"rental_uris":{"android":"levelo://app?vid=e2461e35-53b7-42f4-97f1-da527f694ed0","ios":"levelo://app?vid=e2461e35-53b7-42f4-97f1-da527f694ed0"},"vehicle_type_id":"4","last_reported":1742040989,"current_range_meters":12800,"station_id":"ce4bhbh2rcd13ifvqepg","pricing_plan_id":"cebpf4jnsgd1na2vs0mg"},{"bike_id":"3e38d67c-c806-462c-a5d4-d87efc4d9f3b","system_id":"levelo_inurba_marseille","lat":43.3091,"lon":5.36871,"is_reserved":false,"is_disabled":false,"rental_uris":{"android":"levelo://app?vid=3e38d67c-c806-462c-a5d4-d87efc4d9f3b","ios":"levelo://app?vid=3e38d67c-c806-462c-a5d4-d87efc4d9f3b"},"vehicle_type_id":"4","last_reported":1742040989,"current_range_meters":13600,"station_id":"ce4bgn92rcd13ifvqbvg","pricing_plan_id":"cebpf4jnsgd1na2vs0mg"},{"bike_id":"f3dffae5-913a-4841-ad8f-c0af12c52f8d","system_id":"levelo_inurba_marseille","lat":43.29573,"lon":5.36763,"is_reserved":false,"is_disabled":false,"rental_uris":{"android":"levelo://app?vid=f3dffae5-913a-4841-ad8f-c0af12c52f8d","ios":"levelo://app?vid=f3dffae5-913a-4841-ad8f-c0af12c52f8d"},"vehicle_type_id":"4","last_reported":1742040989,"current_range_meters":13600,"station_id":"ce4bgph2rcd13ifvqc2g","pricing_plan_id":"cebpf4jnsgd1na2vs0mg"},{"bike_id":"d751a31e-a518-44cc-8641-315d036d1e06","system_id":"levelo_inurba_marseille","lat":43.29898,"lon":5.39733,"is_reserved":false,"is_disabled":false,"rental_uris":{"android":"levelo://app?vid=d751a31e-a518-44cc-8641-315d036d1e06","ios":"levelo://app?vid=d751a31e-a518-44cc-8641-315d036d1e06"},"vehicle_type_id":"4","last_reported":1742040989,"current_range_meters":13600,"station_id":"ce4bh0h2rcd13ifvqd50","pricing_plan_id":"cebpf4jnsgd1na2vs0mg"},{"bike_id":"ccc22d3b-593a-44d6-8102-8d12aff2273f","system_id":"levelo_inurba_marseille","lat":43.27175,"lon":5.41004,"is_reserved":false,"is_disabled":false,"rental_uris":{"android":"levelo://app?vid=ccc22d3b-593a-44d6-8102-8d12aff2273f","ios":"levelo://app?vid=ccc22d3b-593a-44d6-8102-8d12aff2273f"},"vehicle_type_id":"4","last_reported":1742040989,"current_range_meters":13600,"station_id":"ce4bhl12rcd13ifvqgf0","pricing_plan_id":"cebpf4jnsgd1na2vs0mg"},{"bike_id":"291f8505-5121-4b40-bbcd-011b348fb8dc","system_id":"levelo_inurba_marseille","lat":43.2903,"lon":5.37572,"is_reserved":false,"is_disabled":false,"rental_uris":{"android":"levelo://app?vid=291f8505-5121-4b40-bbcd-011b348fb8dc","ios":"levelo://app?vid=291f8505-5121-4b40-bbcd-011b348fb8dc"},"vehicle_type_id":"4","last_reported":1742040989,"current_range_meters":14000,"station_id":"ce4bh692rcd13ifvqe90","pricing_plan_id":"cebpf4jnsgd1na2vs0mg"},{"bike_id":"a8b7d882-995f-43bc-ac7f-c73fe2eb8e8e","system_id":"levelo_inurba_marseille","lat":43.29194,"lon":5.39313,"is_reserved":false,"is_disabled":false,"rental_uris":{"android":"levelo://app?vid=a8b7d882-995f-43bc-ac7f-c73fe2eb8e8e","ios":"levelo://app?vid=a8b7d882-995f-43bc-ac7f-c73fe2eb8e8e"},"vehicle_type_id":"4","last_reported":1742040989,"current_range_meters":12800,"station_id":"ce4bh192rcd13ifvqdd0","pricing_plan_id":"cebpf4jnsgd1na2vs0mg"},{"bike_id":"7bb762e8-e027-40a7-8655-372cbd1872d2","system_id":"levelo_inurba_marseille","lat":43.26057,"lon":5.3941,"is_reserved":false,"is_disabled":false,"rental_uris":{"android":"levelo://app?vid=7bb762e8-e027-40a7-8655-372cbd1872d2","ios":"levelo://app?vid=7bb762e8-e027-40a7-8655-372cbd1872d2"},"vehicle_type_id":"4","last_reported":1742040989,"current_range_meters":14000,"station_id":"ce4bhh92rcd13ifvqfj0","pricing_plan_id":"cebpf4jnsgd1na2vs0mg"},{"bike_id":"74f2950d-f639-4809-bff2-7e52cd116e06","system_id":"levelo_inurba_marseille","lat":43.23158,"lon":5.43695,"is_reserved":false,"is_disabled":false,"rental_uris":{"android":"levelo://app?vid=74f2950d-f639-4809-bff2-7e52cd116e06","ios":"levelo://app?vid=74f2950d-f639-4809-bff2-7e52cd116e06"},"vehicle_type_id":"4","last_reported":1742040989,"current_range_meters":14000,"station_id":"ce4bhmp2rcd13ifvqgog","pricing_plan_id":"cebpf4jnsgd1na2vs0mg"},{"bike_id":"90c707aa-0edc-4e94-a911-252e6bd4d4c2","system_id":"levelo_inurba_marseille","lat":43.28557,"lon":5.35119,"is_reserved":false,"is_disabled":false,"rental_uris":{"android":"levelo://app?vid=90c707aa-0edc-4e94-a911-252e6bd4d4c2","ios":"levelo://app?vid=90c707aa-0edc-4e94-a911-252e6bd4d4c2"},"vehicle_type_id":"4","last_reported":1742040989,"current_range_meters":14000,"station_id":"ce4bhch2rcd13ifvqeug","pricing_plan_id":"cebpf4jnsgd1na2vs0mg"},{"bike_id":"fc071de1-2cc0-488a-a43e-f8037a5a9a49","system_id":"levelo_inurba_marseille","lat":43.23069,"lon":5.35539,"is_reserved":false,"is_disabled":false,"rental_uris":{"android":"levelo://app?vid=fc071de1-2cc0-488a-a43e-f8037a5a9a49","ios":"levelo://app?vid=fc071de1-2cc0-488a-a43e-f8037a5a9a49"},"vehicle_type_id":"4","last_reported":1742040989,"current_range_meters":14000,"station_id":"cpo3342slgdg3j2ifvpg","pricing_plan_id":"cebpf4jnsgd1na2vs0mg"},{"bike_id":"1504e658-d922-44cd-b1b9-815c221c9ebe","system_id":"levelo_inurba_marseille","lat":43.29026,"lon":5.38645,"is_reserved":false,"is_disabled":false,"rental_uris":{"android":"levelo://app?vid=1504e658-d922-44cd-b1b9-815c221c9ebe","ios":"levelo://app?vid=1504e658-d922-44cd-b1b9-815c221c9ebe"},"vehicle_type_id":"4","last_reported":1742040989,"current_range_meters":14000,"station_id":"ce4bh4p2rcd13ifvqe0g","pricing_plan_id":"cebpf4jnsgd1na2vs0mg"},{"bike_id":"5040a28b-2948-44a5-b2ab-78cb99e37b1a","system_id":"levelo_inurba_marseille","lat":43.26463,"lon":5.39587,"is_reserved":false,"is_disabled":false,"rental_uris":{"android":"levelo://app?vid=5040a28b-2948-44a5-b2ab-78cb99e37b1a","ios":"levelo://app?vid=5040a28b-2948-44a5-b2ab-78cb99e37b1a"},"vehicle_type_id":"4","last_reported":1742040989,"current_range_meters":14000,"station_id":"","pricing_plan_id":"cebpf4jnsgd1na2vs0mg"},{"bike_id":"b9748790-2b1a-4179-954c-02892f1b43c3","system_id":"levelo_inurba_marseille","lat":43.30122,"lon":5.38791,"is_reserved":false,"is_disabled":false,"rental_uris":{"android":"levelo://app?vid=b9748790-2b1a-4179-954c-02892f1b43c3","ios":"levelo://app?vid=b9748790-2b1a-4179-954c-02892f1b43c3"},"vehicle_type_id":"4","last_reported":1742040989,"current_range_meters":14000,"station_id":"ce4bghh2rcd13ifvqb60","pricing_plan_id":"cebpf4jnsgd1na2vs0mg"},{"bike_id":"3a89315b-62de-4a2c-a0ba-c40dd86a913d","system_id":"levelo_inurba_marseille","lat":43.2705,"lon":5.4027,"is_reserved":false,"is_disabled":false,"rental_uris":{"android":"levelo://app?vid=3a89315b-62de-4a2c-a0ba-c40dd86a913d","ios":"levelo://app?vid=3a89315b-62de-4a2c-a0ba-c40dd86a913d"},"vehicle_type_id":"4","last_reported":1742040989,"current_range_meters":14000,"station_id":"ce4bhk92rcd13ifvqgc0","pricing_plan_id":"cebpf4jnsgd1na2vs0mg"},{"bike_id":"82de0703-de1d-4278-8ec2-c06289895ab8","system_id":"levelo_inurba_marseille","lat":43.30126,"lon":5.3742,"is_reserved":false,"is_disabled":false,"rental_uris":{"android":"levelo://app?vid=82de0703-de1d-4278-8ec2-c06289895ab8","ios":"levelo://app?vid=82de0703-de1d-4278-8ec2-c06289895ab8"},"vehicle_type_id":"4","last_reported":1742040989,"current_range_meters":14400,"station_id":"ce4bgs92rcd13ifvqcc0","pricing_plan_id":"cebpf4jnsgd1na2vs0mg"},{"bike_id":"71b342b8-694b-40d5-99e8-310baf77a970","system_id":"levelo_inurba_marseille","lat":43.23061,"lon":5.35496,"is_reserved":false,"is_disabled":false,"rental_uris":{"android":"levelo://app?vid=71b342b8-694b-40d5-99e8-310baf77a970","ios":"levelo://app?vid=71b342b8-694b-40d5-99e8-310baf77a970"},"vehicle_type_id":"4","last_reported":1742040989,"current_range_meters":14400,"station_id":"cpo3342slgdg3j2ifvpg","pricing_plan_id":"cebpf4jnsgd1na2vs0mg"},{"bike_id":"0380330c-8fb6-4835-87a7-136714a24f73","system_id":"levelo_inurba_marseille","lat":43.22926,"lon":5.35374,"is_reserved":false,"is_disabled":false,"rental_uris":{"android":"levelo://app?vid=0380330c-8fb6-4835-87a7-136714a24f73","ios":"levelo://app?vid=0380330c-8fb6-4835-87a7-136714a24f73"},"vehicle_type_id":"4","last_reported":1742040989,"current_range_meters":14400,"station_id":"cpo3532slgdg3j2ikp40","pricing_plan_id":"cebpf4jnsgd1na2vs0mg"},{"bike_id":"d71cd666-72df-4af0-ab88-9ae22fb7b749","system_id":"levelo_inurba_marseille","lat":43.24544,"lon":5.39521,"is_reserved":false,"is_disabled":false,"rental_uris":{"android":"levelo://app?vid=d71cd666-72df-4af0-ab88-9ae22fb7b749","ios":"levelo://app?vid=d71cd666-72df-4af0-ab88-9ae22fb7b749"},"vehicle_type_id":"4","last_reported":1742040989,"current_range_meters":14400,"station_id":"ce4bhlp2rcd13ifvqgjg","pricing_plan_id":"cebpf4jnsgd1na2vs0mg"},{"bike_id":"e1bc5517-89cc-4fbd-afdb-e8d3c61b8e55","system_id":"levelo_inurba_marseille","lat":43.32375,"lon":5.36744,"is_reserved":false,"is_disabled":false,"rental_uris":{"android":"levelo://app?vid=e1bc5517-89cc-4fbd-afdb-e8d3c61b8e55","ios":"levelo://app?vid=e1bc5517-89cc-4fbd-afdb-e8d3c61b8e55"},"vehicle_type_id":"4","last_reported":1742040989,"current_range_meters":14400,"station_id":"ce4bhsh2rcd13ifvqi2g","pricing_plan_id":"cebpf4jnsgd1na2vs0mg"},{"bike_id":"f313e511-70a9-4d28-9105-f80f9ce3e50c","system_id":"levelo_inurba_marseille","lat":43.23953,"lon":5.36635,"is_reserved":false,"is_disabled":false,"rental_uris":{"android":"levelo://app?vid=f313e511-70a9-4d28-9105-f80f9ce3e50c","ios":"levelo://app?vid=f313e511-70a9-4d28-9105-f80f9ce3e50c"},"vehicle_type_id":"4","last_reported":1742040989,"current_range_meters":14400,"station_id":"ce4bhi12rcd13ifvqfp0","pricing_plan_id":"cebpf4jnsgd1na2vs0mg"},{"bike_id":"d48dc7bd-6748-448b-b28e-4b19c06fcb94","system_id":"levelo_inurba_marseille","lat":43.29609,"lon":5.3773,"is_reserved":false,"is_disabled":false,"rental_uris":{"android":"levelo://app?vid=d48dc7bd-6748-448b-b28e-4b19c06fcb94","ios":"levelo://app?vid=d48dc7bd-6748-448b-b28e-4b19c06fcb94"},"vehicle_type_id":"4","last_reported":1742040989,"current_range_meters":14400,"station_id":"ce4bgi92rcd13ifvqb90","pricing_plan_id":"cebpf4jnsgd1na2vs0mg"},{"bike_id":"afeccc9b-1382-4490-ad86-d06c47a2013a","system_id":"levelo_inurba_marseille","lat":43.30531,"lon":5.36697,"is_reserved":false,"is_disabled":false,"rental_uris":{"android":"levelo://app?vid=afeccc9b-1382-4490-ad86-d06c47a2013a","ios":"levelo://app?vid=afeccc9b-1382-4490-ad86-d06c47a2013a"},"vehicle_type_id":"4","last_reported":1742040989,"current_range_meters":14400,"station_id":"ce4bgrp2rcd13ifvqc9g","pricing_plan_id":"cebpf4jnsgd1na2vs0mg"},{"bike_id":"7d6d0698-ff85-43d9-ac9c-4e6146725c4d","system_id":"levelo_inurba_marseille","lat":43.24386,"lon":5.37059,"is_reserved":false,"is_disabled":false,"rental_uris":{"android":"levelo://app?vid=7d6d0698-ff85-43d9-ac9c-4e6146725c4d","ios":"levelo://app?vid=7d6d0698-ff85-43d9-ac9c-4e6146725c4d"},"vehicle_type_id":"4","last_reported":1742040989,"current_range_meters":14800,"station_id":"ce4bhhh2rcd13ifvqfk0","pricing_plan_id":"cebpf4jnsgd1na2vs0mg"},{"bike_id":"df2bd365-182b-4a07-b573-1593f98b410a","system_id":"levelo_inurba_marseille","lat":43.28749,"lon":5.36071,"is_reserved":false,"is_disabled":true,"rental_uris":{"android":"levelo://app?vid=df2bd365-182b-4a07-b573-1593f98b410a","ios":"levelo://app?vid=df2bd365-182b-4a07-b573-1593f98b410a"},"vehicle_type_id":"4","last_reported":1742040989,"current_range_meters":14800,"station_id":"cki0cbj6b192h4jlfktg","pricing_plan_id":"cebpf4jnsgd1na2vs0mg"},{"bike_id":"689f0e72-8af9-41d8-94ec-715956b043fe","system_id":"levelo_inurba_marseille","lat":43.28352,"lon":5.38105,"is_reserved":false,"is_disabled":false,"rental_uris":{"android":"levelo://app?vid=689f0e72-8af9-41d8-94ec-715956b043fe","ios":"levelo://app?vid=689f0e72-8af9-41d8-94ec-715956b043fe"},"vehicle_type_id":"4","last_reported":1742040989,"current_range_meters":14800,"station_id":"ce4bh412rcd13ifvqdr0","pricing_plan_id":"cebpf4jnsgd1na2vs0mg"},{"bike_id":"a50f407a-033c-4c06-baf6-cfbe8716e9f3","system_id":"levelo_inurba_marseille","lat":43.2979,"lon":5.38109,"is_reserved":false,"is_disabled":false,"rental_uris":{"android":"levelo://app?vid=a50f407a-033c-4c06-baf6-cfbe8716e9f3","ios":"levelo://app?vid=a50f407a-033c-4c06-baf6-cfbe8716e9f3"},"vehicle_type_id":"4","last_reported":1742040989,"current_range_meters":14800,"station_id":"ce4bgip2rcd13ifvqbb0","pricing_plan_id":"cebpf4jnsgd1na2vs0mg"},{"bike_id":"9f72adf9-21e3-4b8b-b2e9-111538345ec9","system_id":"levelo_inurba_marseille","lat":43.29729,"lon":5.37693,"is_reserved":false,"is_disabled":false,"rental_uris":{"android":"levelo://app?vid=9f72adf9-21e3-4b8b-b2e9-111538345ec9","ios":"levelo://app?vid=9f72adf9-21e3-4b8b-b2e9-111538345ec9"},"vehicle_type_id":"4","last_reported":1742040989,"current_range_meters":14800,"station_id":"ce4bgkh2rcd13ifvqbl0","pricing_plan_id":"cebpf4jnsgd1na2vs0mg"},{"bike_id":"530dcf3f-baa5-4f42-b9c7-b4b5afe3c2c8","system_id":"levelo_inurba_marseille","lat":43.30339,"lon":5.40436,"is_reserved":false,"is_disabled":false,"rental_uris":{"android":"levelo://app?vid=530dcf3f-baa5-4f42-b9c7-b4b5afe3c2c8","ios":"levelo://app?vid=530dcf3f-baa5-4f42-b9c7-b4b5afe3c2c8"},"vehicle_type_id":"4","last_reported":1742040989,"current_range_meters":14800,"station_id":"ce4bh012rcd13ifvqd10","pricing_plan_id":"cebpf4jnsgd1na2vs0mg"},{"bike_id":"de2f4725-e1ca-47e7-88ff-86a86cef854f","system_id":"levelo_inurba_marseille","lat":43.313781,"lon":5.374207,"is_reserved":false,"is_disabled":false,"rental_uris":{"android":"levelo://app?vid=de2f4725-e1ca-47e7-88ff-86a86cef854f","ios":"levelo://app?vid=de2f4725-e1ca-47e7-88ff-86a86cef854f"},"vehicle_type_id":"4","last_reported":1742040989,"current_range_meters":14800,"station_id":"ce4bgqh2rcd13ifvqc4g","pricing_plan_id":"cebpf4jnsgd1na2vs0mg"},{"bike_id":"41d856e8-014d-42b4-85e9-2a0a980f469f","system_id":"levelo_inurba_marseille","lat":43.2319,"lon":5.35553,"is_reserved":false,"is_disabled":false,"rental_uris":{"android":"levelo://app?vid=41d856e8-014d-42b4-85e9-2a0a980f469f","ios":"levelo://app?vid=41d856e8-014d-42b4-85e9-2a0a980f469f"},"vehicle_type_id":"4","last_reported":1742040989,"current_range_meters":15200,"station_id":"ce4bhu92rcd13ifvqi70","pricing_plan_id":"cebpf4jnsgd1na2vs0mg"},{"bike_id":"f238c0df-d3c9-4577-a186-a5d3f05e229a","system_id":"levelo_inurba_marseille","lat":43.25826,"lon":5.39438,"is_reserved":false,"is_disabled":false,"rental_uris":{"android":"levelo://app?vid=f238c0df-d3c9-4577-a186-a5d3f05e229a","ios":"levelo://app?vid=f238c0df-d3c9-4577-a186-a5d3f05e229a"},"vehicle_type_id":"4","last_reported":1742040989,"current_range_meters":15200,"station_id":"ce4bhip2rcd13ifvqft0","pricing_plan_id":"cebpf4jnsgd1na2vs0mg"},{"bike_id":"174c9c66-b172-484e-b7f9-5752aa18aabf","system_id":"levelo_inurba_marseille","lat":43.2306,"lon":5.35491,"is_reserved":false,"is_disabled":false,"rental_uris":{"android":"levelo://app?vid=174c9c66-b172-484e-b7f9-5752aa18aabf","ios":"levelo://app?vid=174c9c66-b172-484e-b7f9-5752aa18aabf"},"vehicle_type_id":"4","last_reported":1742040989,"current_range_meters":15200,"station_id":"cpo3342slgdg3j2ifvpg","pricing_plan_id":"cebpf4jnsgd1na2vs0mg"},{"bike_id":"0264297b-0309-46cb-b205-09a47da4b716","system_id":"levelo_inurba_marseille","lat":43.291108,"lon":5.368792,"is_reserved":false,"is_disabled":false,"rental_uris":{"android":"levelo://app?vid=0264297b-0309-46cb-b205-09a47da4b716","ios":"levelo://app?vid=0264297b-0309-46cb-b205-09a47da4b716"},"vehicle_type_id":"4","last_reported":1742040989,"current_range_meters":15200,"station_id":"ce4bhah2rcd13ifvqej0","pricing_plan_id":"cebpf4jnsgd1na2vs0mg"},{"bike_id":"4d2519ba-19fa-4778-82e6-edd26aa805ba","system_id":"levelo_inurba_marseille","lat":43.30952,"lon":5.39037,"is_reserved":false,"is_disabled":false,"rental_uris":{"android":"levelo://app?vid=4d2519ba-19fa-4778-82e6-edd26aa805ba","ios":"levelo://app?vid=4d2519ba-19fa-4778-82e6-edd26aa805ba"},"vehicle_type_id":"4","last_reported":1742040989,"current_range_meters":15200,"station_id":"ce4bgup2rcd13ifvqco0","pricing_plan_id":"cebpf4jnsgd1na2vs0mg"},{"bike_id":"f4cb5dac-7ffc-47e4-89d7-13f0c91df11d","system_id":"levelo_inurba_marseille","lat":43.27206,"lon":5.39169,"is_reserved":false,"is_disabled":false,"rental_uris":{"android":"levelo://app?vid=f4cb5dac-7ffc-47e4-89d7-13f0c91df11d","ios":"levelo://app?vid=f4cb5dac-7ffc-47e4-89d7-13f0c91df11d"},"vehicle_type_id":"4","last_reported":1742040989,"current_range_meters":15200,"station_id":"ce4bhhp2rcd13ifvqfm0","pricing_plan_id":"cebpf4jnsgd1na2vs0mg"},{"bike_id":"efa182c5-e8bb-4316-9ac4-4d06270b10d4","system_id":"levelo_inurba_marseille","lat":43.32305,"lon":5.3894,"is_reserved":false,"is_disabled":false,"rental_uris":{"android":"levelo://app?vid=efa182c5-e8bb-4316-9ac4-4d06270b10d4","ios":"levelo://app?vid=efa182c5-e8bb-4316-9ac4-4d06270b10d4"},"vehicle_type_id":"4","last_reported":1742040989,"current_range_meters":15200,"station_id":"ce4bhqp2rcd13ifvqhog","pricing_plan_id":"cebpf4jnsgd1na2vs0mg"},{"bike_id":"46d3c2d9-1401-49e9-abbd-72fb88572b1c","system_id":"levelo_inurba_marseille","lat":43.284173,"lon":5.34983,"is_reserved":false,"is_disabled":false,"rental_uris":{"android":"levelo://app?vid=46d3c2d9-1401-49e9-abbd-72fb88572b1c","ios":"levelo://app?vid=46d3c2d9-1401-49e9-abbd-72fb88572b1c"},"vehicle_type_id":"4","last_reported":1742040989,"current_range_meters":16000,"station_id":"ce4bgpp2rcd13ifvqc3g","pricing_plan_id":"cebpf4jnsgd1na2vs0mg"},{"bike_id":"f695e80a-1919-40b7-8dd8-a27dc0c9d950","system_id":"levelo_inurba_marseille","lat":43.27756,"lon":5.40646,"is_reserved":false,"is_disabled":false,"rental_uris":{"android":"levelo://app?vid=f695e80a-1919-40b7-8dd8-a27dc0c9d950","ios":"levelo://app?vid=f695e80a-1919-40b7-8dd8-a27dc0c9d950"},"vehicle_type_id":"4","last_reported":1742040989,"current_range_meters":16000,"station_id":"ce4bhnh2rcd13ifvqgtg","pricing_plan_id":"cebpf4jnsgd1na2vs0mg"},{"bike_id":"295a3b8e-dab0-4cc1-aa7b-c713137bda6e","system_id":"levelo_inurba_marseille","lat":43.29298,"lon":5.37458,"is_reserved":false,"is_disabled":false,"rental_uris":{"android":"levelo://app?vid=295a3b8e-dab0-4cc1-aa7b-c713137bda6e","ios":"levelo://app?vid=295a3b8e-dab0-4cc1-aa7b-c713137bda6e"},"vehicle_type_id":"4","last_reported":1742040989,"current_range_meters":16000,"station_id":"ce4bgi12rcd13ifvqb70","pricing_plan_id":"cebpf4jnsgd1na2vs0mg"},{"bike_id":"4d20b878-6603-4328-ab6e-4a7ae0b08224","system_id":"levelo_inurba_marseille","lat":43.25947,"lon":5.4091,"is_reserved":false,"is_disabled":false,"rental_uris":{"android":"levelo://app?vid=4d20b878-6603-4328-ab6e-4a7ae0b08224","ios":"levelo://app?vid=4d20b878-6603-4328-ab6e-4a7ae0b08224"},"vehicle_type_id":"4","last_reported":1742040989,"current_range_meters":16000,"station_id":"ce4bhm92rcd13ifvqglg","pricing_plan_id":"cebpf4jnsgd1na2vs0mg"},{"bike_id":"d01f6054-2d44-47fa-b99c-153959717253","system_id":"levelo_inurba_marseille","lat":43.231778,"lon":5.399877,"is_reserved":false,"is_disabled":false,"rental_uris":{"android":"levelo://app?vid=d01f6054-2d44-47fa-b99c-153959717253","ios":"levelo://app?vid=d01f6054-2d44-47fa-b99c-153959717253"},"vehicle_type_id":"4","last_reported":1742040989,"current_range_meters":16000,"station_id":"ce4bhdp2rcd13ifvqf20","pricing_plan_id":"cebpf4jnsgd1na2vs0mg"},{"bike_id":"f709cb7e-4bd4-4503-ab85-447b0bd380b5","system_id":"levelo_inurba_marseille","lat":43.32335,"lon":5.389,"is_reserved":false,"is_disabled":false,"rental_uris":{"android":"levelo://app?vid=f709cb7e-4bd4-4503-ab85-447b0bd380b5","ios":"levelo://app?vid=f709cb7e-4bd4-4503-ab85-447b0bd380b5"},"vehicle_type_id":"4","last_reported":1742040989,"current_range_meters":16000,"station_id":"ce4bhqp2rcd13ifvqhog","pricing_plan_id":"cebpf4jnsgd1na2vs0mg"},{"bike_id":"25d0c1d8-6764-49ef-a6d8-1bed49df9fbd","system_id":"levelo_inurba_marseille","lat":43.2511,"lon":5.40331,"is_reserved":false,"is_disabled":false,"rental_uris":{"android":"levelo://app?vid=25d0c1d8-6764-49ef-a6d8-1bed49df9fbd","ios":"levelo://app?vid=25d0c1d8-6764-49ef-a6d8-1bed49df9fbd"},"vehicle_type_id":"4","last_reported":1742040989,"current_range_meters":16000,"station_id":"ce4bhlh2rcd13ifvqgig","pricing_plan_id":"cebpf4jnsgd1na2vs0mg"},{"bike_id":"b89eb48b-e97b-4abf-8014-42ec3603d979","system_id":"levelo_inurba_marseille","lat":43.26242,"lon":5.40444,"is_reserved":false,"is_disabled":false,"rental_uris":{"android":"levelo://app?vid=b89eb48b-e97b-4abf-8014-42ec3603d979","ios":"levelo://app?vid=b89eb48b-e97b-4abf-8014-42ec3603d979"},"vehicle_type_id":"4","last_reported":1742040989,"current_range_meters":16000,"station_id":"ce4bhmh2rcd13ifvqgmg","pricing_plan_id":"cebpf4jnsgd1na2vs0mg"},{"bike_id":"0cba6573-d715-4183-b9ae-696eb267a413","system_id":"levelo_inurba_marseille","lat":43.28613,"lon":5.35116,"is_reserved":false,"is_disabled":false,"rental_uris":{"android":"levelo://app?vid=0cba6573-d715-4183-b9ae-696eb267a413","ios":"levelo://app?vid=0cba6573-d715-4183-b9ae-696eb267a413"},"vehicle_type_id":"4","last_reported":1742040989,"current_range_meters":16000,"station_id":"ce4bhch2rcd13ifvqeug","pricing_plan_id":"cebpf4jnsgd1na2vs0mg"},{"bike_id":"b622042f-a145-4f75-8007-30b063cb3354","system_id":"levelo_inurba_marseille","lat":43.28074,"lon":5.39662,"is_reserved":false,"is_disabled":false,"rental_uris":{"android":"levelo://app?vid=b622042f-a145-4f75-8007-30b063cb3354","ios":"levelo://app?vid=b622042f-a145-4f75-8007-30b063cb3354"},"vehicle_type_id":"4","last_reported":1742040989,"current_range_meters":16000,"station_id":"ce4bho12rcd13ifvqh2g","pricing_plan_id":"cebpf4jnsgd1na2vs0mg"},{"bike_id":"35c2a7d8-c1fa-4a40-ba26-5ff9ae8023e8","system_id":"levelo_inurba_marseille","lat":43.28037,"lon":5.36952,"is_reserved":false,"is_disabled":false,"rental_uris":{"android":"levelo://app?vid=35c2a7d8-c1fa-4a40-ba26-5ff9ae8023e8","ios":"levelo://app?vid=35c2a7d8-c1fa-4a40-ba26-5ff9ae8023e8"},"vehicle_type_id":"4","last_reported":1742040989,"current_range_meters":16000,"station_id":"ce4bha12rcd13ifvqef0","pricing_plan_id":"cebpf4jnsgd1na2vs0mg"},{"bike_id":"e51eba22-620f-4676-b932-36442a1f7348","system_id":"levelo_inurba_marseille","lat":43.25717,"lon":5.4108,"is_reserved":false,"is_disabled":false,"rental_uris":{"android":"levelo://app?vid=e51eba22-620f-4676-b932-36442a1f7348","ios":"levelo://app?vid=e51eba22-620f-4676-b932-36442a1f7348"},"vehicle_type_id":"4","last_reported":1742040989,"current_range_meters":16000,"station_id":"ce4bhkp2rcd13ifvqgd0","pricing_plan_id":"cebpf4jnsgd1na2vs0mg"},{"bike_id":"2601e6fc-7ce4-49a6-b926-892447b63991","system_id":"levelo_inurba_marseille","lat":43.30279,"lon":5.37697,"is_reserved":false,"is_disabled":false,"rental_uris":{"android":"levelo://app?vid=2601e6fc-7ce4-49a6-b926-892447b63991","ios":"levelo://app?vid=2601e6fc-7ce4-49a6-b926-892447b63991"},"vehicle_type_id":"4","last_reported":1742040989,"current_range_meters":16000,"station_id":"ce4bguh2rcd13ifvqcj0","pricing_plan_id":"cebpf4jnsgd1na2vs0mg"},{"bike_id":"2b4c09e6-fbef-4dd8-b2e9-fa7f846e56df","system_id":"levelo_inurba_marseille","lat":43.3122,"lon":5.36866,"is_reserved":false,"is_disabled":false,"rental_uris":{"android":"levelo://app?vid=2b4c09e6-fbef-4dd8-b2e9-fa7f846e56df","ios":"levelo://app?vid=2b4c09e6-fbef-4dd8-b2e9-fa7f846e56df"},"vehicle_type_id":"4","last_reported":1742040989,"current_range_meters":16400,"station_id":"ce4bgl92rcd13ifvqbq0","pricing_plan_id":"cebpf4jnsgd1na2vs0mg"},{"bike_id":"e79fc578-3c3c-4a35-8a45-917973707e48","system_id":"levelo_inurba_marseille","lat":43.2956,"lon":5.37506,"is_reserved":false,"is_disabled":false,"rental_uris":{"android":"levelo://app?vid=e79fc578-3c3c-4a35-8a45-917973707e48","ios":"levelo://app?vid=e79fc578-3c3c-4a35-8a45-917973707e48"},"vehicle_type_id":"4","last_reported":1742040989,"current_range_meters":16400,"station_id":"ce4bgh92rcd13ifvqb50","pricing_plan_id":"cebpf4jnsgd1na2vs0mg"},{"bike_id":"8fcaeaf8-c64d-49de-b456-cf9178d1f09c","system_id":"levelo_inurba_marseille","lat":43.33022,"lon":5.39043,"is_reserved":false,"is_disabled":false,"rental_uris":{"android":"levelo://app?vid=8fcaeaf8-c64d-49de-b456-cf9178d1f09c","ios":"levelo://app?vid=8fcaeaf8-c64d-49de-b456-cf9178d1f09c"},"vehicle_type_id":"4","last_reported":1742040989,"current_range_meters":17200,"station_id":"ce4bhr92rcd13ifvqhrg","pricing_plan_id":"cebpf4jnsgd1na2vs0mg"},{"bike_id":"f9b00b61-c9f6-4519-8f8a-2ba116624fd1","system_id":"levelo_inurba_marseille","lat":43.23067,"lon":5.35496,"is_reserved":false,"is_disabled":false,"rental_uris":{"android":"levelo://app?vid=f9b00b61-c9f6-4519-8f8a-2ba116624fd1","ios":"levelo://app?vid=f9b00b61-c9f6-4519-8f8a-2ba116624fd1"},"vehicle_type_id":"4","last_reported":1742040989,"current_range_meters":16400,"station_id":"cpo3342slgdg3j2ifvpg","pricing_plan_id":"cebpf4jnsgd1na2vs0mg"},{"bike_id":"96744a18-3316-43e0-9153-7a6032ab1b09","system_id":"levelo_inurba_marseille","lat":43.25042,"lon":5.38887,"is_reserved":false,"is_disabled":false,"rental_uris":{"android":"levelo://app?vid=96744a18-3316-43e0-9153-7a6032ab1b09","ios":"levelo://app?vid=96744a18-3316-43e0-9153-7a6032ab1b09"},"vehicle_type_id":"4","last_reported":1742040989,"current_range_meters":16400,"station_id":"ce4bhgp2rcd13ifvqfd0","pricing_plan_id":"cebpf4jnsgd1na2vs0mg"},{"bike_id":"566e0489-1013-464c-941b-6fbcd4c26340","system_id":"levelo_inurba_marseille","lat":43.32115,"lon":5.36777,"is_reserved":false,"is_disabled":false,"rental_uris":{"android":"levelo://app?vid=566e0489-1013-464c-941b-6fbcd4c26340","ios":"levelo://app?vid=566e0489-1013-464c-941b-6fbcd4c26340"},"vehicle_type_id":"4","last_reported":1742040989,"current_range_meters":16400,"station_id":"ce4bhrh2rcd13ifvqhug","pricing_plan_id":"cebpf4jnsgd1na2vs0mg"},{"bike_id":"e047eb05-c84e-4eb9-a430-24d024850b6f","system_id":"levelo_inurba_marseille","lat":43.22938,"lon":5.35367,"is_reserved":false,"is_disabled":false,"rental_uris":{"android":"levelo://app?vid=e047eb05-c84e-4eb9-a430-24d024850b6f","ios":"levelo://app?vid=e047eb05-c84e-4eb9-a430-24d024850b6f"},"vehicle_type_id":"4","last_reported":1742040989,"current_range_meters":16400,"station_id":"cpo3532slgdg3j2ikp40","pricing_plan_id":"cebpf4jnsgd1na2vs0mg"},{"bike_id":"72e0b978-d2df-4180-a272-35356a966f65","system_id":"levelo_inurba_marseille","lat":43.30883,"lon":5.37168,"is_reserved":false,"is_disabled":false,"rental_uris":{"android":"levelo://app?vid=72e0b978-d2df-4180-a272-35356a966f65","ios":"levelo://app?vid=72e0b978-d2df-4180-a272-35356a966f65"},"vehicle_type_id":"4","last_reported":1742040989,"current_range_meters":16400,"station_id":"ce4bguh2rcd13ifvqckg","pricing_plan_id":"cebpf4jnsgd1na2vs0mg"},{"bike_id":"7099c38a-2986-4dc9-9398-307b562f7d30","system_id":"levelo_inurba_marseille","lat":43.25919,"lon":5.40888,"is_reserved":false,"is_disabled":false,"rental_uris":{"android":"levelo://app?vid=7099c38a-2986-4dc9-9398-307b562f7d30","ios":"levelo://app?vid=7099c38a-2986-4dc9-9398-307b562f7d30"},"vehicle_type_id":"4","last_reported":1742040989,"current_range_meters":16400,"station_id":"ce4bhm92rcd13ifvqglg","pricing_plan_id":"cebpf4jnsgd1na2vs0mg"},{"bike_id":"3c528f7f-712c-435c-b5d4-a5694a485d73","system_id":"levelo_inurba_marseille","lat":43.299,"lon":5.43679,"is_reserved":false,"is_disabled":false,"rental_uris":{"android":"levelo://app?vid=3c528f7f-712c-435c-b5d4-a5694a485d73","ios":"levelo://app?vid=3c528f7f-712c-435c-b5d4-a5694a485d73"},"vehicle_type_id":"4","last_reported":1742040989,"current_range_meters":16400,"station_id":"ce4bhpp2rcd13ifvqhfg","pricing_plan_id":"cebpf4jnsgd1na2vs0mg"},{"bike_id":"94905589-8ed4-425a-8ff1-6539faa4ac26","system_id":"levelo_inurba_marseille","lat":43.284499,"lon":5.358689,"is_reserved":false,"is_disabled":false,"rental_uris":{"android":"levelo://app?vid=94905589-8ed4-425a-8ff1-6539faa4ac26","ios":"levelo://app?vid=94905589-8ed4-425a-8ff1-6539faa4ac26"},"vehicle_type_id":"4","last_reported":1742040989,"current_range_meters":16400,"station_id":"ce4bhah2rcd13ifvqei0","pricing_plan_id":"cebpf4jnsgd1na2vs0mg"},{"bike_id":"960e1f0d-3125-435b-8c43-88a916cf6084","system_id":"levelo_inurba_marseille","lat":43.27423,"lon":5.39427,"is_reserved":false,"is_disabled":false,"rental_uris":{"android":"levelo://app?vid=960e1f0d-3125-435b-8c43-88a916cf6084","ios":"levelo://app?vid=960e1f0d-3125-435b-8c43-88a916cf6084"},"vehicle_type_id":"4","last_reported":1742040989,"current_range_meters":16400,"station_id":"ce4bhdp2rcd13ifvqf20","pricing_plan_id":"cebpf4jnsgd1na2vs0mg"},{"bike_id":"24eabb97-bbbd-4071-946e-7be7578ed00c","system_id":"levelo_inurba_marseille","lat":43.26568,"lon":5.39015,"is_reserved":false,"is_disabled":false,"rental_uris":{"android":"levelo://app?vid=24eabb97-bbbd-4071-946e-7be7578ed00c","ios":"levelo://app?vid=24eabb97-bbbd-4071-946e-7be7578ed00c"},"vehicle_type_id":"4","last_reported":1742040989,"current_range_meters":16400,"station_id":"ce4bhe12rcd13ifvqf30","pricing_plan_id":"cebpf4jnsgd1na2vs0mg"},{"bike_id":"c5782c67-b2e9-45ac-b65c-95ebf61807fb","system_id":"levelo_inurba_marseille","lat":43.29877,"lon":5.38903,"is_reserved":false,"is_disabled":false,"rental_uris":{"android":"levelo://app?vid=c5782c67-b2e9-45ac-b65c-95ebf61807fb","ios":"levelo://app?vid=c5782c67-b2e9-45ac-b65c-95ebf61807fb"},"vehicle_type_id":"4","last_reported":1742040989,"current_range_meters":16400,"station_id":"ce4bh392rcd13ifvqdl0","pricing_plan_id":"cebpf4jnsgd1na2vs0mg"},{"bike_id":"aab95aeb-f5d4-4bef-bcdc-d835ba6c3583","system_id":"levelo_inurba_marseille","lat":43.2306,"lon":5.35492,"is_reserved":false,"is_disabled":false,"rental_uris":{"android":"levelo://app?vid=aab95aeb-f5d4-4bef-bcdc-d835ba6c3583","ios":"levelo://app?vid=aab95aeb-f5d4-4bef-bcdc-d835ba6c3583"},"vehicle_type_id":"4","last_reported":1742040989,"current_range_meters":16800,"station_id":"cpo3342slgdg3j2ifvpg","pricing_plan_id":"cebpf4jnsgd1na2vs0mg"},{"bike_id":"75123447-2b69-42e2-be90-9aa99ce954e5","system_id":"levelo_inurba_marseille","lat":43.32366,"lon":5.38883,"is_reserved":false,"is_disabled":false,"rental_uris":{"android":"levelo://app?vid=75123447-2b69-42e2-be90-9aa99ce954e5","ios":"levelo://app?vid=75123447-2b69-42e2-be90-9aa99ce954e5"},"vehicle_type_id":"4","last_reported":1742040989,"current_range_meters":16800,"station_id":"ce4bhqp2rcd13ifvqhog","pricing_plan_id":"cebpf4jnsgd1na2vs0mg"},{"bike_id":"3e685809-8a98-470b-b8d1-c028716361a7","system_id":"levelo_inurba_marseille","lat":43.23965,"lon":5.36635,"is_reserved":false,"is_disabled":false,"rental_uris":{"android":"levelo://app?vid=3e685809-8a98-470b-b8d1-c028716361a7","ios":"levelo://app?vid=3e685809-8a98-470b-b8d1-c028716361a7"},"vehicle_type_id":"4","last_reported":1742040989,"current_range_meters":16800,"station_id":"ce4bhi12rcd13ifvqfp0","pricing_plan_id":"cebpf4jnsgd1na2vs0mg"},{"bike_id":"22b699ee-6f83-48a1-8b90-39cb337ef4d6","system_id":"levelo_inurba_marseille","lat":43.29937,"lon":5.36526,"is_reserved":false,"is_disabled":false,"rental_uris":{"android":"levelo://app?vid=22b699ee-6f83-48a1-8b90-39cb337ef4d6","ios":"levelo://app?vid=22b699ee-6f83-48a1-8b90-39cb337ef4d6"},"vehicle_type_id":"4","last_reported":1742040989,"current_range_meters":16800,"station_id":"ce4bgm92rcd13ifvqbr0","pricing_plan_id":"cebpf4jnsgd1na2vs0mg"},{"bike_id":"06f251a7-b00b-4959-a17f-a413aecaaba6","system_id":"levelo_inurba_marseille","lat":43.29163,"lon":5.37166,"is_reserved":false,"is_disabled":false,"rental_uris":{"android":"levelo://app?vid=06f251a7-b00b-4959-a17f-a413aecaaba6","ios":"levelo://app?vid=06f251a7-b00b-4959-a17f-a413aecaaba6"},"vehicle_type_id":"4","last_reported":1742040989,"current_range_meters":16800,"station_id":"ce4bha92rcd13ifvqeh0","pricing_plan_id":"cebpf4jnsgd1na2vs0mg"},{"bike_id":"c3533e87-f7a5-491d-ba4f-dd24a107e9ee","system_id":"levelo_inurba_marseille","lat":43.28854,"lon":5.39303,"is_reserved":false,"is_disabled":false,"rental_uris":{"android":"levelo://app?vid=c3533e87-f7a5-491d-ba4f-dd24a107e9ee","ios":"levelo://app?vid=c3533e87-f7a5-491d-ba4f-dd24a107e9ee"},"vehicle_type_id":"4","last_reported":1742040989,"current_range_meters":16800,"station_id":"ce4bh2p2rcd13ifvqdi0","pricing_plan_id":"cebpf4jnsgd1na2vs0mg"},{"bike_id":"9532dbbb-a4e4-4835-9b08-1a712cc3f75f","system_id":"levelo_inurba_marseille","lat":43.25107,"lon":5.40337,"is_reserved":false,"is_disabled":false,"rental_uris":{"android":"levelo://app?vid=9532dbbb-a4e4-4835-9b08-1a712cc3f75f","ios":"levelo://app?vid=9532dbbb-a4e4-4835-9b08-1a712cc3f75f"},"vehicle_type_id":"4","last_reported":1742040989,"current_range_meters":16800,"station_id":"ce4bhlh2rcd13ifvqgig","pricing_plan_id":"cebpf4jnsgd1na2vs0mg"},{"bike_id":"eb66939a-76d7-4644-b486-a213b4172dcc","system_id":"levelo_inurba_marseille","lat":43.27616,"lon":5.36112,"is_reserved":false,"is_disabled":false,"rental_uris":{"android":"levelo://app?vid=eb66939a-76d7-4644-b486-a213b4172dcc","ios":"levelo://app?vid=eb66939a-76d7-4644-b486-a213b4172dcc"},"vehicle_type_id":"4","last_reported":1742040989,"current_range_meters":16800,"station_id":"ce4bgj92rcd13ifvqbe0","pricing_plan_id":"cebpf4jnsgd1na2vs0mg"},{"bike_id":"bc38ec1f-0ac6-4da4-bdfb-a8bd1a951ab0","system_id":"levelo_inurba_marseille","lat":43.29052,"lon":5.37153,"is_reserved":false,"is_disabled":false,"rental_uris":{"android":"levelo://app?vid=bc38ec1f-0ac6-4da4-bdfb-a8bd1a951ab0","ios":"levelo://app?vid=bc38ec1f-0ac6-4da4-bdfb-a8bd1a951ab0"},"vehicle_type_id":"4","last_reported":1742040989,"current_range_meters":16800,"station_id":"ce4bh5p2rcd13ifvqe4g","pricing_plan_id":"cebpf4jnsgd1na2vs0mg"},{"bike_id":"10a5dfbf-3aa3-4cf3-ac17-cd4d12fd6782","system_id":"levelo_inurba_marseille","lat":43.32359,"lon":5.36783,"is_reserved":false,"is_disabled":false,"rental_uris":{"android":"levelo://app?vid=10a5dfbf-3aa3-4cf3-ac17-cd4d12fd6782","ios":"levelo://app?vid=10a5dfbf-3aa3-4cf3-ac17-cd4d12fd6782"},"vehicle_type_id":"4","last_reported":1742040989,"current_range_meters":16800,"station_id":"ce4bhsh2rcd13ifvqi2g","pricing_plan_id":"cebpf4jnsgd1na2vs0mg"},{"bike_id":"bafd57f9-42ca-4d51-b0a0-95f66f340e25","system_id":"levelo_inurba_marseille","lat":43.25816,"lon":5.39452,"is_reserved":false,"is_disabled":false,"rental_uris":{"android":"levelo://app?vid=bafd57f9-42ca-4d51-b0a0-95f66f340e25","ios":"levelo://app?vid=bafd57f9-42ca-4d51-b0a0-95f66f340e25"},"vehicle_type_id":"4","last_reported":1742040989,"current_range_meters":16800,"station_id":"ce4bhip2rcd13ifvqft0","pricing_plan_id":"cebpf4jnsgd1na2vs0mg"},{"bike_id":"562a9cfb-c415-4767-99db-0e6f0e981cde","system_id":"levelo_inurba_marseille","lat":43.32387,"lon":5.38869,"is_reserved":false,"is_disabled":false,"rental_uris":{"android":"levelo://app?vid=562a9cfb-c415-4767-99db-0e6f0e981cde","ios":"levelo://app?vid=562a9cfb-c415-4767-99db-0e6f0e981cde"},"vehicle_type_id":"4","last_reported":1742040989,"current_range_meters":16800,"station_id":"ce4bhqp2rcd13ifvqhog","pricing_plan_id":"cebpf4jnsgd1na2vs0mg"},{"bike_id":"1ba7685b-a2fb-4c9f-9209-8497e2999b48","system_id":"levelo_inurba_marseille","lat":43.23959,"lon":5.3663,"is_reserved":false,"is_disabled":false,"rental_uris":{"android":"levelo://app?vid=1ba7685b-a2fb-4c9f-9209-8497e2999b48","ios":"levelo://app?vid=1ba7685b-a2fb-4c9f-9209-8497e2999b48"},"vehicle_type_id":"4","last_reported":1742040989,"current_range_meters":16800,"station_id":"ce4bhi12rcd13ifvqfp0","pricing_plan_id":"cebpf4jnsgd1na2vs0mg"},{"bike_id":"22efbf7a-7b48-45b8-ae0e-d149f0b6408b","system_id":"levelo_inurba_marseille","lat":43.25723,"lon":5.41115,"is_reserved":false,"is_disabled":false,"rental_uris":{"android":"levelo://app?vid=22efbf7a-7b48-45b8-ae0e-d149f0b6408b","ios":"levelo://app?vid=22efbf7a-7b48-45b8-ae0e-d149f0b6408b"},"vehicle_type_id":"4","last_reported":1742040989,"current_range_meters":16800,"station_id":"ce4bhkp2rcd13ifvqgd0","pricing_plan_id":"cebpf4jnsgd1na2vs0mg"},{"bike_id":"df61fa5e-ba94-415f-bea4-78f3b42b13e6","system_id":"levelo_inurba_marseille","lat":43.27325,"lon":5.39079,"is_reserved":false,"is_disabled":false,"rental_uris":{"android":"levelo://app?vid=df61fa5e-ba94-415f-bea4-78f3b42b13e6","ios":"levelo://app?vid=df61fa5e-ba94-415f-bea4-78f3b42b13e6"},"vehicle_type_id":"4","last_reported":1742040989,"current_range_meters":16800,"station_id":"ce4bhgp2rcd13ifvqfe0","pricing_plan_id":"cebpf4jnsgd1na2vs0mg"},{"bike_id":"92ada443-c60e-4df6-a931-11dcb5876369","system_id":"levelo_inurba_marseille","lat":43.27808,"lon":5.40709,"is_reserved":false,"is_disabled":false,"rental_uris":{"android":"levelo://app?vid=92ada443-c60e-4df6-a931-11dcb5876369","ios":"levelo://app?vid=92ada443-c60e-4df6-a931-11dcb5876369"},"vehicle_type_id":"4","last_reported":1742040989,"current_range_meters":17200,"station_id":"ce4bhnh2rcd13ifvqgtg","pricing_plan_id":"cebpf4jnsgd1na2vs0mg"},{"bike_id":"cdf638cb-9734-436e-8417-ae7e9682febe","system_id":"levelo_inurba_marseille","lat":43.24385,"lon":5.37054,"is_reserved":false,"is_disabled":false,"rental_uris":{"android":"levelo://app?vid=cdf638cb-9734-436e-8417-ae7e9682febe","ios":"levelo://app?vid=cdf638cb-9734-436e-8417-ae7e9682febe"},"vehicle_type_id":"4","last_reported":1742040989,"current_range_meters":17200,"station_id":"ce4bhhh2rcd13ifvqfk0","pricing_plan_id":"cebpf4jnsgd1na2vs0mg"},{"bike_id":"a524570e-f10e-4565-90b6-06d4307a7b3c","system_id":"levelo_inurba_marseille","lat":43.2903,"lon":5.38638,"is_reserved":false,"is_disabled":false,"rental_uris":{"android":"levelo://app?vid=a524570e-f10e-4565-90b6-06d4307a7b3c","ios":"levelo://app?vid=a524570e-f10e-4565-90b6-06d4307a7b3c"},"vehicle_type_id":"4","last_reported":1742040989,"current_range_meters":17200,"station_id":"ce4bh4p2rcd13ifvqe0g","pricing_plan_id":"cebpf4jnsgd1na2vs0mg"},{"bike_id":"b11b3bdd-eabf-4fb9-8f71-afa5a9828c2e","system_id":"levelo_inurba_marseille","lat":43.27679,"lon":5.38899,"is_reserved":false,"is_disabled":false,"rental_uris":{"android":"levelo://app?vid=b11b3bdd-eabf-4fb9-8f71-afa5a9828c2e","ios":"levelo://app?vid=b11b3bdd-eabf-4fb9-8f71-afa5a9828c2e"},"vehicle_type_id":"4","last_reported":1742040989,"current_range_meters":17200,"station_id":"ce4bhi12rcd13ifvqfo0","pricing_plan_id":"cebpf4jnsgd1na2vs0mg"},{"bike_id":"84236ef6-e6d5-46cb-a70a-850be618151c","system_id":"levelo_inurba_marseille","lat":43.28154,"lon":5.42646,"is_reserved":false,"is_disabled":false,"rental_uris":{"android":"levelo://app?vid=84236ef6-e6d5-46cb-a70a-850be618151c","ios":"levelo://app?vid=84236ef6-e6d5-46cb-a70a-850be618151c"},"vehicle_type_id":"4","last_reported":1742040989,"current_range_meters":17200,"station_id":"ce4bhnh2rcd13ifvqgug","pricing_plan_id":"cebpf4jnsgd1na2vs0mg"},{"bike_id":"09217766-4f65-47b7-bd76-63ccd980dcf1","system_id":"levelo_inurba_marseille","lat":43.30542,"lon":5.36527,"is_reserved":false,"is_disabled":false,"rental_uris":{"android":"levelo://app?vid=09217766-4f65-47b7-bd76-63ccd980dcf1","ios":"levelo://app?vid=09217766-4f65-47b7-bd76-63ccd980dcf1"},"vehicle_type_id":"4","last_reported":1742040989,"current_range_meters":17200,"station_id":"ce4bgs12rcd13ifvqcag","pricing_plan_id":"cebpf4jnsgd1na2vs0mg"},{"bike_id":"1b02f7cb-4ff7-4c2c-b559-003d4595110f","system_id":"levelo_inurba_marseille","lat":43.27065,"lon":5.40248,"is_reserved":false,"is_disabled":false,"rental_uris":{"android":"levelo://app?vid=1b02f7cb-4ff7-4c2c-b559-003d4595110f","ios":"levelo://app?vid=1b02f7cb-4ff7-4c2c-b559-003d4595110f"},"vehicle_type_id":"4","last_reported":1742040989,"current_range_meters":17200,"station_id":"ce4bhk92rcd13ifvqgc0","pricing_plan_id":"cebpf4jnsgd1na2vs0mg"},{"bike_id":"827d67f0-08ee-4725-8eea-a095e8fb4263","system_id":"levelo_inurba_marseille","lat":43.30213,"lon":5.39471,"is_reserved":false,"is_disabled":false,"rental_uris":{"android":"levelo://app?vid=827d67f0-08ee-4725-8eea-a095e8fb4263","ios":"levelo://app?vid=827d67f0-08ee-4725-8eea-a095e8fb4263"},"vehicle_type_id":"4","last_reported":1742040989,"current_range_meters":17200,"station_id":"ce4bh0p2rcd13ifvqd70","pricing_plan_id":"cebpf4jnsgd1na2vs0mg"},{"bike_id":"742c86bb-c5b7-4ab4-8232-bc8cf0a8d010","system_id":"levelo_inurba_marseille","lat":43.29083,"lon":5.38138,"is_reserved":false,"is_disabled":false,"rental_uris":{"android":"levelo://app?vid=742c86bb-c5b7-4ab4-8232-bc8cf0a8d010","ios":"levelo://app?vid=742c86bb-c5b7-4ab4-8232-bc8cf0a8d010"},"vehicle_type_id":"4","last_reported":1742040989,"current_range_meters":17200,"station_id":"ce4bh512rcd13ifvqe2g","pricing_plan_id":"cebpf4jnsgd1na2vs0mg"},{"bike_id":"d4e6ea29-f084-4ceb-9ce8-06bff4ba19ed","system_id":"levelo_inurba_marseille","lat":43.30886,"lon":5.37198,"is_reserved":false,"is_disabled":false,"rental_uris":{"android":"levelo://app?vid=d4e6ea29-f084-4ceb-9ce8-06bff4ba19ed","ios":"levelo://app?vid=d4e6ea29-f084-4ceb-9ce8-06bff4ba19ed"},"vehicle_type_id":"4","last_reported":1742040989,"current_range_meters":17600,"station_id":"ce4bguh2rcd13ifvqckg","pricing_plan_id":"cebpf4jnsgd1na2vs0mg"},{"bike_id":"975b34a1-f22e-4954-a58a-62801f86a5e7","system_id":"levelo_inurba_marseille","lat":43.29503,"lon":5.3907,"is_reserved":false,"is_disabled":false,"rental_uris":{"android":"levelo://app?vid=975b34a1-f22e-4954-a58a-62801f86a5e7","ios":"levelo://app?vid=975b34a1-f22e-4954-a58a-62801f86a5e7"},"vehicle_type_id":"4","last_reported":1742040989,"current_range_meters":17600,"station_id":"ce4bh3p2rcd13ifvqdp0","pricing_plan_id":"cebpf4jnsgd1na2vs0mg"},{"bike_id":"5a61a616-683f-484d-83ae-d7f61143d634","system_id":"levelo_inurba_marseille","lat":43.29507,"lon":5.42494,"is_reserved":false,"is_disabled":false,"rental_uris":{"android":"levelo://app?vid=5a61a616-683f-484d-83ae-d7f61143d634","ios":"levelo://app?vid=5a61a616-683f-484d-83ae-d7f61143d634"},"vehicle_type_id":"4","last_reported":1742040989,"current_range_meters":17600,"station_id":"","pricing_plan_id":"cebpf4jnsgd1na2vs0mg"},{"bike_id":"594637a1-1882-49ab-a7ac-888bca05eefc","system_id":"levelo_inurba_marseille","lat":43.31073,"lon":5.42436,"is_reserved":false,"is_disabled":true,"rental_uris":{"android":"levelo://app?vid=594637a1-1882-49ab-a7ac-888bca05eefc","ios":"levelo://app?vid=594637a1-1882-49ab-a7ac-888bca05eefc"},"vehicle_type_id":"4","last_reported":1742040989,"current_range_meters":17600,"station_id":"ce4bhp92rcd13ifvqhag","pricing_plan_id":"cebpf4jnsgd1na2vs0mg"},{"bike_id":"5add3064-8388-4e9f-88f4-44eba9984748","system_id":"levelo_inurba_marseille","lat":43.29032,"lon":5.38654,"is_reserved":false,"is_disabled":false,"rental_uris":{"android":"levelo://app?vid=5add3064-8388-4e9f-88f4-44eba9984748","ios":"levelo://app?vid=5add3064-8388-4e9f-88f4-44eba9984748"},"vehicle_type_id":"4","last_reported":1742040989,"current_range_meters":17600,"station_id":"ce4bh4p2rcd13ifvqe0g","pricing_plan_id":"cebpf4jnsgd1na2vs0mg"},{"bike_id":"8d9ab165-14e4-48d5-83e3-6859b526961f","system_id":"levelo_inurba_marseille","lat":43.31053,"lon":5.38337,"is_reserved":false,"is_disabled":false,"rental_uris":{"android":"levelo://app?vid=8d9ab165-14e4-48d5-83e3-6859b526961f","ios":"levelo://app?vid=8d9ab165-14e4-48d5-83e3-6859b526961f"},"vehicle_type_id":"4","last_reported":1742040989,"current_range_meters":17600,"station_id":"ce4bgv92rcd13ifvqcr0","pricing_plan_id":"cebpf4jnsgd1na2vs0mg"},{"bike_id":"e431f6e7-c256-4a03-81b2-9044257b3488","system_id":"levelo_inurba_marseille","lat":43.23964,"lon":5.3663,"is_reserved":false,"is_disabled":false,"rental_uris":{"android":"levelo://app?vid=e431f6e7-c256-4a03-81b2-9044257b3488","ios":"levelo://app?vid=e431f6e7-c256-4a03-81b2-9044257b3488"},"vehicle_type_id":"4","last_reported":1742040989,"current_range_meters":17600,"station_id":"ce4bhi12rcd13ifvqfp0","pricing_plan_id":"cebpf4jnsgd1na2vs0mg"},{"bike_id":"cc47b019-4149-498d-ad28-d840c9ba8803","system_id":"levelo_inurba_marseille","lat":43.28703,"lon":5.39991,"is_reserved":false,"is_disabled":false,"rental_uris":{"android":"levelo://app?vid=cc47b019-4149-498d-ad28-d840c9ba8803","ios":"levelo://app?vid=cc47b019-4149-498d-ad28-d840c9ba8803"},"vehicle_type_id":"4","last_reported":1742040989,"current_range_meters":17600,"station_id":"ce4bho92rcd13ifvqh3g","pricing_plan_id":"cebpf4jnsgd1na2vs0mg"},{"bike_id":"84d18159-142d-47c3-b4a0-c0341fee9edd","system_id":"levelo_inurba_marseille","lat":43.2396,"lon":5.36638,"is_reserved":false,"is_disabled":false,"rental_uris":{"android":"levelo://app?vid=84d18159-142d-47c3-b4a0-c0341fee9edd","ios":"levelo://app?vid=84d18159-142d-47c3-b4a0-c0341fee9edd"},"vehicle_type_id":"4","last_reported":1742040989,"current_range_meters":18000,"station_id":"ce4bhi12rcd13ifvqfp0","pricing_plan_id":"cebpf4jnsgd1na2vs0mg"},{"bike_id":"a7fe2aac-0472-4855-894b-b219eb8fc25d","system_id":"levelo_inurba_marseille","lat":43.29295,"lon":5.37469,"is_reserved":false,"is_disabled":false,"rental_uris":{"android":"levelo://app?vid=a7fe2aac-0472-4855-894b-b219eb8fc25d","ios":"levelo://app?vid=a7fe2aac-0472-4855-894b-b219eb8fc25d"},"vehicle_type_id":"4","last_reported":1742040989,"current_range_meters":18000,"station_id":"ce4bgi12rcd13ifvqb70","pricing_plan_id":"cebpf4jnsgd1na2vs0mg"},{"bike_id":"0b2c588e-ad18-4b5f-909d-2d111e78fbae","system_id":"levelo_inurba_marseille","lat":43.284743,"lon":5.384194,"is_reserved":false,"is_disabled":true,"rental_uris":{"android":"levelo://app?vid=0b2c588e-ad18-4b5f-909d-2d111e78fbae","ios":"levelo://app?vid=0b2c588e-ad18-4b5f-909d-2d111e78fbae"},"vehicle_type_id":"4","last_reported":1742040989,"current_range_meters":18000,"station_id":"ce4bh512rcd13ifvqe3g","pricing_plan_id":"cebpf4jnsgd1na2vs0mg"},{"bike_id":"d261395a-d173-485a-98fd-3bc6c9cddfe8","system_id":"levelo_inurba_marseille","lat":43.25715,"lon":5.4111,"is_reserved":false,"is_disabled":false,"rental_uris":{"android":"levelo://app?vid=d261395a-d173-485a-98fd-3bc6c9cddfe8","ios":"levelo://app?vid=d261395a-d173-485a-98fd-3bc6c9cddfe8"},"vehicle_type_id":"4","last_reported":1742040989,"current_range_meters":18000,"station_id":"ce4bhkp2rcd13ifvqgd0","pricing_plan_id":"cebpf4jnsgd1na2vs0mg"},{"bike_id":"62763531-aa3e-4ca3-8c0c-a3cc8bf29903","system_id":"levelo_inurba_marseille","lat":43.24552,"lon":5.39539,"is_reserved":false,"is_disabled":false,"rental_uris":{"android":"levelo://app?vid=62763531-aa3e-4ca3-8c0c-a3cc8bf29903","ios":"levelo://app?vid=62763531-aa3e-4ca3-8c0c-a3cc8bf29903"},"vehicle_type_id":"4","last_reported":1742040989,"current_range_meters":18000,"station_id":"ce4bhlp2rcd13ifvqgjg","pricing_plan_id":"cebpf4jnsgd1na2vs0mg"},{"bike_id":"ce461d73-d5ef-47e5-bd96-066feda10ed7","system_id":"levelo_inurba_marseille","lat":43.231917,"lon":5.355555,"is_reserved":false,"is_disabled":false,"rental_uris":{"android":"levelo://app?vid=ce461d73-d5ef-47e5-bd96-066feda10ed7","ios":"levelo://app?vid=ce461d73-d5ef-47e5-bd96-066feda10ed7"},"vehicle_type_id":"4","last_reported":1742040989,"current_range_meters":18800,"station_id":"ce4bhu92rcd13ifvqi70","pricing_plan_id":"cebpf4jnsgd1na2vs0mg"},{"bike_id":"65357cc7-2329-424b-b711-99eb17da523d","system_id":"levelo_inurba_marseille","lat":43.30535,"lon":5.36532,"is_reserved":false,"is_disabled":false,"rental_uris":{"android":"levelo://app?vid=65357cc7-2329-424b-b711-99eb17da523d","ios":"levelo://app?vid=65357cc7-2329-424b-b711-99eb17da523d"},"vehicle_type_id":"4","last_reported":1742040989,"current_range_meters":18000,"station_id":"ce4bgs12rcd13ifvqcag","pricing_plan_id":"cebpf4jnsgd1na2vs0mg"},{"bike_id":"5deff3b1-7de0-4233-8bbb-77cee504cc6e","system_id":"levelo_inurba_marseille","lat":43.28608,"lon":5.35014,"is_reserved":false,"is_disabled":true,"rental_uris":{"android":"levelo://app?vid=5deff3b1-7de0-4233-8bbb-77cee504cc6e","ios":"levelo://app?vid=5deff3b1-7de0-4233-8bbb-77cee504cc6e"},"vehicle_type_id":"4","last_reported":1742040989,"current_range_meters":18000,"station_id":"","pricing_plan_id":"cebpf4jnsgd1na2vs0mg"},{"bike_id":"b8b58fd5-8696-452c-97af-9028dbaacc4e","system_id":"levelo_inurba_marseille","lat":43.27202,"lon":5.39189,"is_reserved":false,"is_disabled":false,"rental_uris":{"android":"levelo://app?vid=b8b58fd5-8696-452c-97af-9028dbaacc4e","ios":"levelo://app?vid=b8b58fd5-8696-452c-97af-9028dbaacc4e"},"vehicle_type_id":"4","last_reported":1742040989,"current_range_meters":18000,"station_id":"ce4bhhp2rcd13ifvqfm0","pricing_plan_id":"cebpf4jnsgd1na2vs0mg"},{"bike_id":"9f04d485-83b4-42da-a2bd-0b827863014b","system_id":"levelo_inurba_marseille","lat":43.24979,"lon":5.38975,"is_reserved":false,"is_disabled":false,"rental_uris":{"android":"levelo://app?vid=9f04d485-83b4-42da-a2bd-0b827863014b","ios":"levelo://app?vid=9f04d485-83b4-42da-a2bd-0b827863014b"},"vehicle_type_id":"4","last_reported":1742040989,"current_range_meters":18000,"station_id":"","pricing_plan_id":"cebpf4jnsgd1na2vs0mg"},{"bike_id":"80691301-7546-48d9-848c-8f29e6b17231","system_id":"levelo_inurba_marseille","lat":43.28617,"lon":5.35116,"is_reserved":false,"is_disabled":false,"rental_uris":{"android":"levelo://app?vid=80691301-7546-48d9-848c-8f29e6b17231","ios":"levelo://app?vid=80691301-7546-48d9-848c-8f29e6b17231"},"vehicle_type_id":"4","last_reported":1742040989,"current_range_meters":18000,"station_id":"ce4bhch2rcd13ifvqeug","pricing_plan_id":"cebpf4jnsgd1na2vs0mg"},{"bike_id":"cccd2dd0-7c54-4afa-ac48-f4bd23a65b2c","system_id":"levelo_inurba_marseille","lat":43.30206,"lon":5.39462,"is_reserved":false,"is_disabled":false,"rental_uris":{"android":"levelo://app?vid=cccd2dd0-7c54-4afa-ac48-f4bd23a65b2c","ios":"levelo://app?vid=cccd2dd0-7c54-4afa-ac48-f4bd23a65b2c"},"vehicle_type_id":"4","last_reported":1742040989,"current_range_meters":18800,"station_id":"ce4bh0p2rcd13ifvqd70","pricing_plan_id":"cebpf4jnsgd1na2vs0mg"},{"bike_id":"40b399a3-50a3-40e1-a6a6-c86dc00a2552","system_id":"levelo_inurba_marseille","lat":43.305375,"lon":5.365223,"is_reserved":false,"is_disabled":false,"rental_uris":{"android":"levelo://app?vid=40b399a3-50a3-40e1-a6a6-c86dc00a2552","ios":"levelo://app?vid=40b399a3-50a3-40e1-a6a6-c86dc00a2552"},"vehicle_type_id":"4","last_reported":1742040989,"current_range_meters":18800,"station_id":"ce4bgs12rcd13ifvqcag","pricing_plan_id":"cebpf4jnsgd1na2vs0mg"},{"bike_id":"d5c53d05-547b-4b62-816f-b940d51654f8","system_id":"levelo_inurba_marseille","lat":43.29192,"lon":5.35804,"is_reserved":false,"is_disabled":false,"rental_uris":{"android":"levelo://app?vid=d5c53d05-547b-4b62-816f-b940d51654f8","ios":"levelo://app?vid=d5c53d05-547b-4b62-816f-b940d51654f8"},"vehicle_type_id":"4","last_reported":1742040989,"current_range_meters":18800,"station_id":"ce4bhb12rcd13ifvqel0","pricing_plan_id":"cebpf4jnsgd1na2vs0mg"},{"bike_id":"fdf74b03-b9ca-49a1-80a8-a2b15aa193af","system_id":"levelo_inurba_marseille","lat":43.27208,"lon":5.39185,"is_reserved":false,"is_disabled":false,"rental_uris":{"android":"levelo://app?vid=fdf74b03-b9ca-49a1-80a8-a2b15aa193af","ios":"levelo://app?vid=fdf74b03-b9ca-49a1-80a8-a2b15aa193af"},"vehicle_type_id":"4","last_reported":1742040989,"current_range_meters":18800,"station_id":"ce4bhhp2rcd13ifvqfm0","pricing_plan_id":"cebpf4jnsgd1na2vs0mg"},{"bike_id":"a1b2b995-33bd-4d1a-bd8b-a4b05852220b","system_id":"levelo_inurba_marseille","lat":43.27427,"lon":5.39418,"is_reserved":false,"is_disabled":false,"rental_uris":{"android":"levelo://app?vid=a1b2b995-33bd-4d1a-bd8b-a4b05852220b","ios":"levelo://app?vid=a1b2b995-33bd-4d1a-bd8b-a4b05852220b"},"vehicle_type_id":"4","last_reported":1742040989,"current_range_meters":18000,"station_id":"ce4bhdp2rcd13ifvqf20","pricing_plan_id":"cebpf4jnsgd1na2vs0mg"},{"bike_id":"e484b4a2-4c23-4de7-abab-17ac7476c602","system_id":"levelo_inurba_marseille","lat":43.23194,"lon":5.35543,"is_reserved":false,"is_disabled":true,"rental_uris":{"android":"levelo://app?vid=e484b4a2-4c23-4de7-abab-17ac7476c602","ios":"levelo://app?vid=e484b4a2-4c23-4de7-abab-17ac7476c602"},"vehicle_type_id":"4","last_reported":1742040989,"current_range_meters":19200,"station_id":"ce4bhu92rcd13ifvqi70","pricing_plan_id":"cebpf4jnsgd1na2vs0mg"},{"bike_id":"7fdaba83-9e71-4d79-962d-8e9bcb4ba61b","system_id":"levelo_inurba_marseille","lat":43.2319,"lon":5.35552,"is_reserved":false,"is_disabled":false,"rental_uris":{"android":"levelo://app?vid=7fdaba83-9e71-4d79-962d-8e9bcb4ba61b","ios":"levelo://app?vid=7fdaba83-9e71-4d79-962d-8e9bcb4ba61b"},"vehicle_type_id":"4","last_reported":1742040989,"current_range_meters":19200,"station_id":"ce4bhu92rcd13ifvqi70","pricing_plan_id":"cebpf4jnsgd1na2vs0mg"},{"bike_id":"cc25066a-82d0-46ee-8c2a-846c11b5f03e","system_id":"levelo_inurba_marseille","lat":43.25005,"lon":5.38936,"is_reserved":false,"is_disabled":false,"rental_uris":{"android":"levelo://app?vid=cc25066a-82d0-46ee-8c2a-846c11b5f03e","ios":"levelo://app?vid=cc25066a-82d0-46ee-8c2a-846c11b5f03e"},"vehicle_type_id":"4","last_reported":1742040989,"current_range_meters":19200,"station_id":"ce4bhgp2rcd13ifvqfd0","pricing_plan_id":"cebpf4jnsgd1na2vs0mg"},{"bike_id":"4bbd5562-10a6-4dd3-9a68-9c2aa556700f","system_id":"levelo_inurba_marseille","lat":43.29886,"lon":5.38902,"is_reserved":false,"is_disabled":false,"rental_uris":{"android":"levelo://app?vid=4bbd5562-10a6-4dd3-9a68-9c2aa556700f","ios":"levelo://app?vid=4bbd5562-10a6-4dd3-9a68-9c2aa556700f"},"vehicle_type_id":"4","last_reported":1742040989,"current_range_meters":19200,"station_id":"ce4bh392rcd13ifvqdl0","pricing_plan_id":"cebpf4jnsgd1na2vs0mg"},{"bike_id":"14d6c6c2-1fd6-466e-bb8f-9d2fe36af76c","system_id":"levelo_inurba_marseille","lat":43.2977,"lon":5.37104,"is_reserved":false,"is_disabled":false,"rental_uris":{"android":"levelo://app?vid=14d6c6c2-1fd6-466e-bb8f-9d2fe36af76c","ios":"levelo://app?vid=14d6c6c2-1fd6-466e-bb8f-9d2fe36af76c"},"vehicle_type_id":"4","last_reported":1742040989,"current_range_meters":18800,"station_id":"ce4bgop2rcd13ifvqc1g","pricing_plan_id":"cebpf4jnsgd1na2vs0mg"},{"bike_id":"5189287a-880a-46a1-bc5e-d4c1d9f06a31","system_id":"levelo_inurba_marseille","lat":43.24066,"lon":5.37728,"is_reserved":false,"is_disabled":false,"rental_uris":{"android":"levelo://app?vid=5189287a-880a-46a1-bc5e-d4c1d9f06a31","ios":"levelo://app?vid=5189287a-880a-46a1-bc5e-d4c1d9f06a31"},"vehicle_type_id":"4","last_reported":1742040989,"current_range_meters":19200,"station_id":"ce4bhnp2rcd13ifvqgvg","pricing_plan_id":"cebpf4jnsgd1na2vs0mg"},{"bike_id":"bae91207-c53c-4099-b67b-b81c091dbd2c","system_id":"levelo_inurba_marseille","lat":43.32358,"lon":5.36752,"is_reserved":false,"is_disabled":false,"rental_uris":{"android":"levelo://app?vid=bae91207-c53c-4099-b67b-b81c091dbd2c","ios":"levelo://app?vid=bae91207-c53c-4099-b67b-b81c091dbd2c"},"vehicle_type_id":"4","last_reported":1742040989,"current_range_meters":19200,"station_id":"ce4bhsh2rcd13ifvqi2g","pricing_plan_id":"cebpf4jnsgd1na2vs0mg"},