{"last_updated":1741172912,"ttl":60,"version":"2.2","data":{"bikes":[{"bike_id":"236dae5d-5ce8-4df7-9e9b-4c4b2dd41f02","system_id":"levelo_inurba_marseille","lat":43.29258,"lon":5.40918,"is_reserved":false,"is_disabled":false,"rental_uris":{"android":"levelo://app?vid=236dae5d-5ce8-4df7-9e9b-4c4b2dd41f02","ios":"levelo://app?vid=236dae5d-5ce8-4df7-9e9b-4c4b2dd41f02"},"vehicle_type_id":"4","last_reported":1741172912,"current_range_meters":2800,"station_id":"ce4bh192rcd13ifvqdc0","pricing_plan_id":"cebpf4jnsgd1na2vs0mg"},{"bike_id":"11313dd0-b5c9-44fc-905c-0e94cd02f41d","system_id":"levelo_inurba_marseille","lat":43.26503,"lon":5.39538,"is_reserved":false,"is_disabled":false,"rental_uris":{"android":"levelo://app?vid=11313dd0-b5c9-44fc-905c-0e94cd02f41d","ios":"levelo://app?vid=11313dd0-b5c9-44fc-905c-0e94cd02f41d"},"vehicle_type_id":"4","last_reported":1741172912,"current_range_meters":2800,"station_id":"ce4bhi12rcd13ifvqfq0","pricing_plan_id":"cebpf4jnsgd1na2vs0mg"},{"bike_id":"67d28592-c291-46f6-a2fa-e4a15b0b8138","system_id":"levelo_inurba_marseille","lat":43.28706,"lon":5.3999,"is_reserved":false,"is_disabled":false,"rental_uris":{"android":"levelo://app?vid=67d28592-c291-46f6-a2fa-e4a15b0b8138","ios":"levelo://app?vid=67d28592-c291-46f6-a2fa-e4a15b0b8138"},"vehicle_type_id":"4","last_reported":1741172912,"current_range_meters":3600,"station_id":"ce4bho92rcd13ifvqh3g","pricing_plan_id":"cebpf4jnsgd1na2vs0mg"},{"bike_id":"3fe738ce-4d27-4f45-acc1-cc5f130546f4","system_id":"levelo_inurba_marseille","lat":43.24187,"lon":5.3972,"is_reserved":false,"is_disabled":false,"rental_uris":{"android":"levelo://app?vid=3fe738ce-4d27-4f45-acc1-cc5f130546f4","ios":"levelo://app?vid=3fe738ce-4d27-4f45-acc1-cc5f130546f4"},"vehicle_type_id":"4","last_reported":1741172912,"current_range_meters":3200,"station_id":"ce4bhn12rcd13ifvqgpg","pricing_plan_id":"cebpf4jnsgd1na2vs0mg"},{"bike_id":"f49357a3-3729-4028-babb-b001732b629f","system_id":"levelo_inurba_marseille","lat":43.29533,"lon":5.38551,"is_reserved":false,"is_disabled":false,"rental_uris":{"android":"levelo://app?vid=f49357a3-3729-4028-babb-b001732b629f","ios":"levelo://app?vid=f49357a3-3729-4028-babb-b001732b629f"},"vehicle_type_id":"4","last_reported":1741172912,"current_range_meters":800,"station_id":"ce4bgih2rcd13ifvqba0","pricing_plan_id":"cebpf4jnsgd1na2vs0mg"},{"bike_id":"02127be4-82df-42a9-b05d-aa5b78e8a87b","system_id":"levelo_inurba_marseille","lat":43.28275,"lon":5.35072,"is_reserved":false,"is_disabled":false,"rental_uris":{"android":"levelo://app?vid=02127be4-82df-42a9-b05d-aa5b78e8a87b","ios":"levelo://app?vid=02127be4-82df-42a9-b05d-aa5b78e8a87b"},"vehicle_type_id":"4","last_reported":1741172912,"current_range_meters":3200,"station_id":"ce4bhbp2rcd13ifvqerg","pricing_plan_id":"cebpf4jnsgd1na2vs0mg"},{"bike_id":"6c84e1f9-12fa-470f-a60a-952ad29b2d5e","system_id":"levelo_inurba_marseille","lat":43.32593,"lon":5.41459,"is_reserved":false,"is_disabled":false,"rental_uris":{"android":"levelo://app?vid=6c84e1f9-12fa-470f-a60a-952ad29b2d5e","ios":"levelo://app?vid=6c84e1f9-12fa-470f-a60a-952ad29b2d5e"},"vehicle_type_id":"4","last_reported":1741172912,"current_range_meters":4000,"station_id":"","pricing_plan_id":"cebpf4jnsgd1na2vs0mg"},{"bike_id":"4953908e-c12d-41ee-881a-cce039598782","system_id":"levelo_inurba_marseille","lat":43.30804,"lon":5.43528,"is_reserved":false,"is_disabled":false,"rental_uris":{"android":"levelo://app?vid=4953908e-c12d-41ee-881a-cce039598782","ios":"levelo://app?vid=4953908e-c12d-41ee-881a-cce039598782"},"vehicle_type_id":"4","last_reported":1741172912,"current_range_meters":4000,"station_id":"ce4bhph2rcd13ifvqheg","pricing_plan_id":"cebpf4jnsgd1na2vs0mg"},{"bike_id":"a8f83be2-1204-44f1-9486-14906e4d66c0","system_id":"levelo_inurba_marseille","lat":43.31333,"lon":5.39682,"is_reserved":false,"is_disabled":false,"rental_uris":{"android":"levelo://app?vid=a8f83be2-1204-44f1-9486-14906e4d66c0","ios":"levelo://app?vid=a8f83be2-1204-44f1-9486-14906e4d66c0"},"vehicle_type_id":"4","last_reported":1741172912,"current_range_meters":4400,"station_id":"ce4bgvp2rcd13ifvqcu0","pricing_plan_id":"cebpf4jnsgd1na2vs0mg"},{"bike_id":"06e194ae-6d67-40b7-a0e5-7a4d9b0e9e95","system_id":"levelo_inurba_marseille","lat":43.28,"lon":5.41661,"is_reserved":false,"is_disabled":false,"rental_uris":{"android":"levelo://app?vid=06e194ae-6d67-40b7-a0e5-7a4d9b0e9e95","ios":"levelo://app?vid=06e194ae-6d67-40b7-a0e5-7a4d9b0e9e95"},"vehicle_type_id":"4","last_reported":1741172912,"current_range_meters":4400,"station_id":"ce4bho12rcd13ifvqh1g","pricing_plan_id":"cebpf4jnsgd1na2vs0mg"},{"bike_id":"7f484cef-b5b1-417a-b9da-01c8fc2dc811","system_id":"levelo_inurba_marseille","lat":43.28835,"lon":5.3588,"is_reserved":false,"is_disabled":false,"rental_uris":{"android":"levelo://app?vid=7f484cef-b5b1-417a-b9da-01c8fc2dc811","ios":"levelo://app?vid=7f484cef-b5b1-417a-b9da-01c8fc2dc811"},"vehicle_type_id":"4","last_reported":1741172912,"current_range_meters":4800,"station_id":"ce4bhb12rcd13ifvqem0","pricing_plan_id":"cebpf4jnsgd1na2vs0mg"},{"bike_id":"87f1d084-cd37-42c3-97c1-f5a0183d1fc0","system_id":"levelo_inurba_marseille","lat":43.29266,"lon":5.37623,"is_reserved":false,"is_disabled":false,"rental_uris":{"android":"levelo://app?vid=87f1d084-cd37-42c3-97c1-f5a0183d1fc0","ios":"levelo://app?vid=87f1d084-cd37-42c3-97c1-f5a0183d1fc0"},"vehicle_type_id":"4","last_reported":1741172912,"current_range_meters":4800,"station_id":"ce4bgi12rcd13ifvqb80","pricing_plan_id":"cebpf4jnsgd1na2vs0mg"},{"bike_id":"2a727ccc-e7aa-420d-a349-4e24c75381d7","system_id":"levelo_inurba_marseille","lat":43.258991,"lon":5.398947,"is_reserved":false,"is_disabled":false,"rental_uris":{"android":"levelo://app?vid=2a727ccc-e7aa-420d-a349-4e24c75381d7","ios":"levelo://app?vid=2a727ccc-e7aa-420d-a349-4e24c75381d7"},"vehicle_type_id":"4","last_reported":1741172912,"current_range_meters":5600,"station_id":"ce4bhah2rcd13ifvqei0","pricing_plan_id":"cebpf4jnsgd1na2vs0mg"},{"bike_id":"1dd34812-175c-49e5-a6fe-53c6c1b3aa04","system_id":"levelo_inurba_marseille","lat":43.28072,"lon":5.39664,"is_reserved":false,"is_disabled":false,"rental_uris":{"android":"levelo://app?vid=1dd34812-175c-49e5-a6fe-53c6c1b3aa04","ios":"levelo://app?vid=1dd34812-175c-49e5-a6fe-53c6c1b3aa04"},"vehicle_type_id":"4","last_reported":1741172912,"current_range_meters":3600,"station_id":"ce4bho12rcd13ifvqh2g","pricing_plan_id":"cebpf4jnsgd1na2vs0mg"},{"bike_id":"32f349d7-3283-4ab2-b97b-25a080ba017e","system_id":"levelo_inurba_marseille","lat":43.29913,"lon":5.38166,"is_reserved":false,"is_disabled":false,"rental_uris":{"android":"levelo://app?vid=32f349d7-3283-4ab2-b97b-25a080ba017e","ios":"levelo://app?vid=32f349d7-3283-4ab2-b97b-25a080ba017e"},"vehicle_type_id":"4","last_reported":1741172912,"current_range_meters":6000,"station_id":"ce4bgj12rcd13ifvqbc0","pricing_plan_id":"cebpf4jnsgd1na2vs0mg"},{"bike_id":"effd7641-84f5-49ab-9688-1b3aa8501487","system_id":"levelo_inurba_marseille","lat":43.24668,"lon":5.38159,"is_reserved":false,"is_disabled":false,"rental_uris":{"android":"levelo://app?vid=effd7641-84f5-49ab-9688-1b3aa8501487","ios":"levelo://app?vid=effd7641-84f5-49ab-9688-1b3aa8501487"},"vehicle_type_id":"4","last_reported":1741172912,"current_range_meters":6000,"station_id":"ce4bhih2rcd13ifvqfr0","pricing_plan_id":"cebpf4jnsgd1na2vs0mg"},{"bike_id":"eacdbdb2-45fd-4d3a-97cf-86d40dae5359","system_id":"levelo_inurba_marseille","lat":43.302682,"lon":5.377171,"is_reserved":false,"is_disabled":false,"rental_uris":{"android":"levelo://app?vid=eacdbdb2-45fd-4d3a-97cf-86d40dae5359","ios":"levelo://app?vid=eacdbdb2-45fd-4d3a-97cf-86d40dae5359"},"vehicle_type_id":"4","last_reported":1741172912,"current_range_meters":3200,"station_id":"ce4bguh2rcd13ifvqcj0","pricing_plan_id":"cebpf4jnsgd1na2vs0mg"},{"bike_id":"346c5faf-5c6d-40f5-b832-4598b852a63c","system_id":"levelo_inurba_marseille","lat":43.26558,"lon":5.37279,"is_reserved":false,"is_disabled":false,"rental_uris":{"android":"levelo://app?vid=346c5faf-5c6d-40f5-b832-4598b852a63c","ios":"levelo://app?vid=346c5faf-5c6d-40f5-b832-4598b852a63c"},"vehicle_type_id":"4","last_reported":1741172912,"current_range_meters":6000,"station_id":"ce4bhg12rcd13ifvqf70","pricing_plan_id":"cebpf4jnsgd1na2vs0mg"},{"bike_id":"4023a6fd-b89c-4e19-9502-1f3fc1a085d9","system_id":"levelo_inurba_marseille","lat":43.27309,"lon":5.39093,"is_reserved":false,"is_disabled":false,"rental_uris":{"android":"levelo://app?vid=4023a6fd-b89c-4e19-9502-1f3fc1a085d9","ios":"levelo://app?vid=4023a6fd-b89c-4e19-9502-1f3fc1a085d9"},"vehicle_type_id":"4","last_reported":1741172912,"current_range_meters":6000,"station_id":"ce4bhgp2rcd13ifvqfe0","pricing_plan_id":"cebpf4jnsgd1na2vs0mg"},{"bike_id":"8a7a2607-988e-4f1a-8b1e-c47cb37473b4","system_id":"levelo_inurba_marseille","lat":43.30915,"lon":5.36869,"is_reserved":false,"is_disabled":false,"rental_uris":{"android":"levelo://app?vid=8a7a2607-988e-4f1a-8b1e-c47cb37473b4","ios":"levelo://app?vid=8a7a2607-988e-4f1a-8b1e-c47cb37473b4"},"vehicle_type_id":"4","last_reported":1741172912,"current_range_meters":6000,"station_id":"ce4bgn92rcd13ifvqbvg","pricing_plan_id":"cebpf4jnsgd1na2vs0mg"},{"bike_id":"4d031821-b90c-420c-be9f-756d9af38822","system_id":"levelo_inurba_marseille","lat":43.27723,"lon":5.40714,"is_reserved":false,"is_disabled":false,"rental_uris":{"android":"levelo://app?vid=4d031821-b90c-420c-be9f-756d9af38822","ios":"levelo://app?vid=4d031821-b90c-420c-be9f-756d9af38822"},"vehicle_type_id":"4","last_reported":1741172912,"current_range_meters":6400,"station_id":"","pricing_plan_id":"cebpf4jnsgd1na2vs0mg"},{"bike_id":"426a53b3-54da-4596-be58-1d1b9782a1f8","system_id":"levelo_inurba_marseille","lat":43.29441,"lon":5.39746,"is_reserved":false,"is_disabled":false,"rental_uris":{"android":"levelo://app?vid=426a53b3-54da-4596-be58-1d1b9782a1f8","ios":"levelo://app?vid=426a53b3-54da-4596-be58-1d1b9782a1f8"},"vehicle_type_id":"4","last_reported":1741172912,"current_range_meters":2000,"station_id":"ce4bh3h2rcd13ifvqdo0","pricing_plan_id":"cebpf4jnsgd1na2vs0mg"},{"bike_id":"3b336de7-f142-49c0-9eca-1aacc9a41df6","system_id":"levelo_inurba_marseille","lat":43.30897,"lon":5.36846,"is_reserved":false,"is_disabled":false,"rental_uris":{"android":"levelo://app?vid=3b336de7-f142-49c0-9eca-1aacc9a41df6","ios":"levelo://app?vid=3b336de7-f142-49c0-9eca-1aacc9a41df6"},"vehicle_type_id":"4","last_reported":1741172912,"current_range_meters":6400,"station_id":"ce4bgn92rcd13ifvqbvg","pricing_plan_id":"cebpf4jnsgd1na2vs0mg"},{"bike_id":"e9d6525c-8ad0-484d-affb-de8d50074c98","system_id":"levelo_inurba_marseille","lat":43.29557,"lon":5.42294,"is_reserved":false,"is_disabled":false,"rental_uris":{"android":"levelo://app?vid=e9d6525c-8ad0-484d-affb-de8d50074c98","ios":"levelo://app?vid=e9d6525c-8ad0-484d-affb-de8d50074c98"},"vehicle_type_id":"4","last_reported":1741172912,"current_range_meters":6800,"station_id":"ce4bhph2rcd13ifvqhdg","pricing_plan_id":"cebpf4jnsgd1na2vs0mg"},{"bike_id":"8e83f4d3-dd65-4542-8785-b15b9a5e7357","system_id":"levelo_inurba_marseille","lat":43.25916,"lon":5.40869,"is_reserved":false,"is_disabled":false,"rental_uris":{"android":"levelo://app?vid=8e83f4d3-dd65-4542-8785-b15b9a5e7357","ios":"levelo://app?vid=8e83f4d3-dd65-4542-8785-b15b9a5e7357"},"vehicle_type_id":"4","last_reported":1741172912,"current_range_meters":6800,"station_id":"ce4bhm92rcd13ifvqglg","pricing_plan_id":"cebpf4jnsgd1na2vs0mg"},{"bike_id":"a88c142e-d928-4561-88fe-ca6968b4c6c1","system_id":"levelo_inurba_marseille","lat":43.26233,"lon":5.40443,"is_reserved":false,"is_disabled":false,"rental_uris":{"android":"levelo://app?vid=a88c142e-d928-4561-88fe-ca6968b4c6c1","ios":"levelo://app?vid=a88c142e-d928-4561-88fe-ca6968b4c6c1"},"vehicle_type_id":"4","last_reported":1741172912,"current_range_meters":6800,"station_id":"ce4bhmh2rcd13ifvqgmg","pricing_plan_id":"cebpf4jnsgd1na2vs0mg"},{"bike_id":"2d3b3c09-42a9-4d38-ad3f-30c0062d2ff1","system_id":"levelo_inurba_marseille","lat":43.258196,"lon":5.394446,"is_reserved":false,"is_disabled":false,"rental_uris":{"android":"levelo://app?vid=2d3b3c09-42a9-4d38-ad3f-30c0062d2ff1","ios":"levelo://app?vid=2d3b3c09-42a9-4d38-ad3f-30c0062d2ff1"},"vehicle_type_id":"4","last_reported":1741172912,"current_range_meters":6800,"station_id":"ce4bhip2rcd13ifvqft0","pricing_plan_id":"cebpf4jnsgd1na2vs0mg"},{"bike_id":"1a2f5d31-7b52-48de-b331-53af9664690b","system_id":"levelo_inurba_marseille","lat":43.27821,"lon":5.40723,"is_reserved":false,"is_disabled":false,"rental_uris":{"android":"levelo://app?vid=1a2f5d31-7b52-48de-b331-53af9664690b","ios":"levelo://app?vid=1a2f5d31-7b52-48de-b331-53af9664690b"},"vehicle_type_id":"4","last_reported":1741172912,"current_range_meters":6800,"station_id":"ce4bhnh2rcd13ifvqgtg","pricing_plan_id":"cebpf4jnsgd1na2vs0mg"},{"bike_id":"997217d4-9110-4f1d-bb92-525e0e2d4061","system_id":"levelo_inurba_marseille","lat":43.23154,"lon":5.43709,"is_reserved":false,"is_disabled":false,"rental_uris":{"android":"levelo://app?vid=997217d4-9110-4f1d-bb92-525e0e2d4061","ios":"levelo://app?vid=997217d4-9110-4f1d-bb92-525e0e2d4061"},"vehicle_type_id":"4","last_reported":1741172912,"current_range_meters":6800,"station_id":"ce4bhmp2rcd13ifvqgog","pricing_plan_id":"cebpf4jnsgd1na2vs0mg"},{"bike_id":"bf327000-b21a-4e94-bc5d-183a4d10061d","system_id":"levelo_inurba_marseille","lat":43.2623,"lon":5.40461,"is_reserved":false,"is_disabled":false,"rental_uris":{"android":"levelo://app?vid=bf327000-b21a-4e94-bc5d-183a4d10061d","ios":"levelo://app?vid=bf327000-b21a-4e94-bc5d-183a4d10061d"},"vehicle_type_id":"4","last_reported":1741172912,"current_range_meters":6800,"station_id":"ce4bhmh2rcd13ifvqgmg","pricing_plan_id":"cebpf4jnsgd1na2vs0mg"},{"bike_id":"4d96a45d-8e1d-4f5c-846e-3a9ab83111fb","system_id":"levelo_inurba_marseille","lat":43.32359,"lon":5.36747,"is_reserved":false,"is_disabled":false,"rental_uris":{"android":"levelo://app?vid=4d96a45d-8e1d-4f5c-846e-3a9ab83111fb","ios":"levelo://app?vid=4d96a45d-8e1d-4f5c-846e-3a9ab83111fb"},"vehicle_type_id":"4","last_reported":1741172912,"current_range_meters":6800,"station_id":"ce4bhsh2rcd13ifvqi2g","pricing_plan_id":"cebpf4jnsgd1na2vs0mg"},{"bike_id":"b9f03359-6ec4-42b8-95eb-16479754f0e1","system_id":"levelo_inurba_marseille","lat":43.30943,"lon":5.36856,"is_reserved":false,"is_disabled":false,"rental_uris":{"android":"levelo://app?vid=b9f03359-6ec4-42b8-95eb-16479754f0e1","ios":"levelo://app?vid=b9f03359-6ec4-42b8-95eb-16479754f0e1"},"vehicle_type_id":"4","last_reported":1741172912,"current_range_meters":7200,"station_id":"ce4bgn92rcd13ifvqbvg","pricing_plan_id":"cebpf4jnsgd1na2vs0mg"},{"bike_id":"de229040-7623-4948-b2bf-79c7c7034c5c","system_id":"levelo_inurba_marseille","lat":43.26576,"lon":5.39032,"is_reserved":false,"is_disabled":false,"rental_uris":{"android":"levelo://app?vid=de229040-7623-4948-b2bf-79c7c7034c5c","ios":"levelo://app?vid=de229040-7623-4948-b2bf-79c7c7034c5c"},"vehicle_type_id":"4","last_reported":1741172912,"current_range_meters":7200,"station_id":"ce4bhe12rcd13ifvqf30","pricing_plan_id":"cebpf4jnsgd1na2vs0mg"},{"bike_id":"4bc22bc8-57d9-4e3e-bbf9-5bb2e57875a0","system_id":"levelo_inurba_marseille","lat":43.27828,"lon":5.40637,"is_reserved":false,"is_disabled":false,"rental_uris":{"android":"levelo://app?vid=4bc22bc8-57d9-4e3e-bbf9-5bb2e57875a0","ios":"levelo://app?vid=4bc22bc8-57d9-4e3e-bbf9-5bb2e57875a0"},"vehicle_type_id":"4","last_reported":1741172912,"current_range_meters":7200,"station_id":"","pricing_plan_id":"cebpf4jnsgd1na2vs0mg"},{"bike_id":"751215bd-b741-48bd-8799-c3dfaab7ef91","system_id":"levelo_inurba_marseille","lat":43.27372,"lon":5.3626,"is_reserved":false,"is_disabled":false,"rental_uris":{"android":"levelo://app?vid=751215bd-b741-48bd-8799-c3dfaab7ef91","ios":"levelo://app?vid=751215bd-b741-48bd-8799-c3dfaab7ef91"},"vehicle_type_id":"4","last_reported":1741172912,"current_range_meters":7200,"station_id":"ce4bhbh2rcd13ifvqeo0","pricing_plan_id":"cebpf4jnsgd1na2vs0mg"},{"bike_id":"21b19842-9ad9-4db0-bc46-3d2827c0069e","system_id":"levelo_inurba_marseille","lat":43.23183,"lon":5.35534,"is_reserved":false,"is_disabled":false,"rental_uris":{"android":"levelo://app?vid=21b19842-9ad9-4db0-bc46-3d2827c0069e","ios":"levelo://app?vid=21b19842-9ad9-4db0-bc46-3d2827c0069e"},"vehicle_type_id":"4","last_reported":1741172912,"current_range_meters":7200,"station_id":"ce4bhu92rcd13ifvqi70","pricing_plan_id":"cebpf4jnsgd1na2vs0mg"},{"bike_id":"acc909e7-3836-42b3-b51d-082940d4d9ec","system_id":"levelo_inurba_marseille","lat":43.26223,"lon":5.40446,"is_reserved":false,"is_disabled":false,"rental_uris":{"android":"levelo://app?vid=acc909e7-3836-42b3-b51d-082940d4d9ec","ios":"levelo://app?vid=acc909e7-3836-42b3-b51d-082940d4d9ec"},"vehicle_type_id":"4","last_reported":1741172912,"current_range_meters":7200,"station_id":"ce4bhmh2rcd13ifvqgmg","pricing_plan_id":"cebpf4jnsgd1na2vs0mg"},{"bike_id":"ee1d2ad1-36ca-49dd-a328-f2a9a9994ecb","system_id":"levelo_inurba_marseille","lat":43.31085,"lon":5.38156,"is_reserved":false,"is_disabled":false,"rental_uris":{"android":"levelo://app?vid=ee1d2ad1-36ca-49dd-a328-f2a9a9994ecb","ios":"levelo://app?vid=ee1d2ad1-36ca-49dd-a328-f2a9a9994ecb"},"vehicle_type_id":"4","last_reported":1741172912,"current_range_meters":8000,"station_id":"","pricing_plan_id":"cebpf4jnsgd1na2vs0mg"},{"bike_id":"e6a4f953-5895-4fa8-ac31-a0a59838afae","system_id":"levelo_inurba_marseille","lat":43.25932,"lon":5.40912,"is_reserved":false,"is_disabled":false,"rental_uris":{"android":"levelo://app?vid=e6a4f953-5895-4fa8-ac31-a0a59838afae","ios":"levelo://app?vid=e6a4f953-5895-4fa8-ac31-a0a59838afae"},"vehicle_type_id":"4","last_reported":1741172912,"current_range_meters":8000,"station_id":"ce4bhm92rcd13ifvqglg","pricing_plan_id":"cebpf4jnsgd1na2vs0mg"},{"bike_id":"6b4ccd0a-d8d4-47e8-a23e-db23c42b230c","system_id":"levelo_inurba_marseille","lat":43.25014,"lon":5.38923,"is_reserved":false,"is_disabled":false,"rental_uris":{"android":"levelo://app?vid=6b4ccd0a-d8d4-47e8-a23e-db23c42b230c","ios":"levelo://app?vid=6b4ccd0a-d8d4-47e8-a23e-db23c42b230c"},"vehicle_type_id":"4","last_reported":1741172912,"current_range_meters":8000,"station_id":"ce4bhgp2rcd13ifvqfd0","pricing_plan_id":"cebpf4jnsgd1na2vs0mg"},{"bike_id":"641a5b08-86ef-4d02-a208-992a6eb55a4d","system_id":"levelo_inurba_marseille","lat":43.25932,"lon":5.40895,"is_reserved":false,"is_disabled":false,"rental_uris":{"android":"levelo://app?vid=641a5b08-86ef-4d02-a208-992a6eb55a4d","ios":"levelo://app?vid=641a5b08-86ef-4d02-a208-992a6eb55a4d"},"vehicle_type_id":"4","last_reported":1741172912,"current_range_meters":8000,"station_id":"ce4bhm92rcd13ifvqglg","pricing_plan_id":"cebpf4jnsgd1na2vs0mg"},{"bike_id":"d69a3829-6254-4964-929b-686a557bf29f","system_id":"levelo_inurba_marseille","lat":43.30526,"lon":5.36711,"is_reserved":false,"is_disabled":false,"rental_uris":{"android":"levelo://app?vid=d69a3829-6254-4964-929b-686a557bf29f","ios":"levelo://app?vid=d69a3829-6254-4964-929b-686a557bf29f"},"vehicle_type_id":"4","last_reported":1741172912,"current_range_meters":8400,"station_id":"ce4bgrp2rcd13ifvqc9g","pricing_plan_id":"cebpf4jnsgd1na2vs0mg"},{"bike_id":"41da4b56-604c-4398-a7b9-104be2ad83f3","system_id":"levelo_inurba_marseille","lat":43.23145,"lon":5.43728,"is_reserved":false,"is_disabled":false,"rental_uris":{"android":"levelo://app?vid=41da4b56-604c-4398-a7b9-104be2ad83f3","ios":"levelo://app?vid=41da4b56-604c-4398-a7b9-104be2ad83f3"},"vehicle_type_id":"4","last_reported":1741172912,"current_range_meters":8400,"station_id":"ce4bhmp2rcd13ifvqgog","pricing_plan_id":"cebpf4jnsgd1na2vs0mg"},{"bike_id":"219471e1-65d4-4374-8b95-d5db4cc9eb54","system_id":"levelo_inurba_marseille","lat":43.29426,"lon":5.38623,"is_reserved":false,"is_disabled":false,"rental_uris":{"android":"levelo://app?vid=219471e1-65d4-4374-8b95-d5db4cc9eb54","ios":"levelo://app?vid=219471e1-65d4-4374-8b95-d5db4cc9eb54"},"vehicle_type_id":"4","last_reported":1741172912,"current_range_meters":6000,"station_id":"ce4bh2h2rcd13ifvqdh0","pricing_plan_id":"cebpf4jnsgd1na2vs0mg"},{"bike_id":"c82f8db4-5b8c-426c-bd31-ddbf17c5a92f","system_id":"levelo_inurba_marseille","lat":43.29011,"lon":5.35613,"is_reserved":false,"is_disabled":false,"rental_uris":{"android":"levelo://app?vid=c82f8db4-5b8c-426c-bd31-ddbf17c5a92f","ios":"levelo://app?vid=c82f8db4-5b8c-426c-bd31-ddbf17c5a92f"},"vehicle_type_id":"4","last_reported":1741172912,"current_range_meters":8800,"station_id":"ce4bhb92rcd13ifvqen0","pricing_plan_id":"cebpf4jnsgd1na2vs0mg"},{"bike_id":"a9215dee-0d74-4dd7-86e8-407aa6a9a48b","system_id":"levelo_inurba_marseille","lat":43.23986,"lon":5.36609,"is_reserved":false,"is_disabled":false,"rental_uris":{"android":"levelo://app?vid=a9215dee-0d74-4dd7-86e8-407aa6a9a48b","ios":"levelo://app?vid=a9215dee-0d74-4dd7-86e8-407aa6a9a48b"},"vehicle_type_id":"4","last_reported":1741172912,"current_range_meters":8400,"station_id":"ce4bhi12rcd13ifvqfp0","pricing_plan_id":"cebpf4jnsgd1na2vs0mg"},{"bike_id":"a6e5d009-7b30-4770-933d-1d4d8abeb595","system_id":"levelo_inurba_marseille","lat":43.26691,"lon":5.38265,"is_reserved":false,"is_disabled":false,"rental_uris":{"android":"levelo://app?vid=a6e5d009-7b30-4770-933d-1d4d8abeb595","ios":"levelo://app?vid=a6e5d009-7b30-4770-933d-1d4d8abeb595"},"vehicle_type_id":"4","last_reported":1741172912,"current_range_meters":8400,"station_id":"ce4bhg92rcd13ifvqf90","pricing_plan_id":"cebpf4jnsgd1na2vs0mg"},{"bike_id":"1251622a-c93e-431e-90d0-4106b158ac93","system_id":"levelo_inurba_marseille","lat":43.28425,"lon":5.34979,"is_reserved":false,"is_disabled":false,"rental_uris":{"android":"levelo://app?vid=1251622a-c93e-431e-90d0-4106b158ac93","ios":"levelo://app?vid=1251622a-c93e-431e-90d0-4106b158ac93"},"vehicle_type_id":"4","last_reported":1741172912,"current_range_meters":8400,"station_id":"ce4bhbh2rcd13ifvqepg","pricing_plan_id":"cebpf4jnsgd1na2vs0mg"},{"bike_id":"44a7153b-0fd7-4509-836b-676bbf84fb06","system_id":"levelo_inurba_marseille","lat":43.23199,"lon":5.35561,"is_reserved":false,"is_disabled":false,"rental_uris":{"android":"levelo://app?vid=44a7153b-0fd7-4509-836b-676bbf84fb06","ios":"levelo://app?vid=44a7153b-0fd7-4509-836b-676bbf84fb06"},"vehicle_type_id":"4","last_reported":1741172912,"current_range_meters":8400,"station_id":"ce4bhu92rcd13ifvqi70","pricing_plan_id":"cebpf4jnsgd1na2vs0mg"},{"bike_id":"332abda5-2296-4955-8d29-1593f717e1c9","system_id":"levelo_inurba_marseille","lat":43.2797,"lon":5.41578,"is_reserved":false,"is_disabled":false,"rental_uris":{"android":"levelo://app?vid=332abda5-2296-4955-8d29-1593f717e1c9","ios":"levelo://app?vid=332abda5-2296-4955-8d29-1593f717e1c9"},"vehicle_type_id":"4","last_reported":1741172912,"current_range_meters":8800,"station_id":"","pricing_plan_id":"cebpf4jnsgd1na2vs0mg"},{"bike_id":"875e8a70-b504-4210-b16b-025f0da5b5e7","system_id":"levelo_inurba_marseille","lat":43.27513,"lon":5.42461,"is_reserved":false,"is_disabled":false,"rental_uris":{"android":"levelo://app?vid=875e8a70-b504-4210-b16b-025f0da5b5e7","ios":"levelo://app?vid=875e8a70-b504-4210-b16b-025f0da5b5e7"},"vehicle_type_id":"4","last_reported":1741172912,"current_range_meters":8800,"station_id":"ce4bhn92rcd13ifvqgrg","pricing_plan_id":"cebpf4jnsgd1na2vs0mg"},{"bike_id":"cc3f65d2-6ea2-4fbd-8cb2-94f2bef05221","system_id":"levelo_inurba_marseille","lat":43.27216,"lon":5.3916,"is_reserved":false,"is_disabled":false,"rental_uris":{"android":"levelo://app?vid=cc3f65d2-6ea2-4fbd-8cb2-94f2bef05221","ios":"levelo://app?vid=cc3f65d2-6ea2-4fbd-8cb2-94f2bef05221"},"vehicle_type_id":"4","last_reported":1741172912,"current_range_meters":10000,"station_id":"ce4bhhp2rcd13ifvqfm0","pricing_plan_id":"cebpf4jnsgd1na2vs0mg"},{"bike_id":"a86912a4-4aea-4c6f-a422-2114b8dc3dcb","system_id":"levelo_inurba_marseille","lat":43.301538,"lon":5.380936,"is_reserved":false,"is_disabled":false,"rental_uris":{"android":"levelo://app?vid=a86912a4-4aea-4c6f-a422-2114b8dc3dcb","ios":"levelo://app?vid=a86912a4-4aea-4c6f-a422-2114b8dc3dcb"},"vehicle_type_id":"4","last_reported":1741172912,"current_range_meters":8800,"station_id":"ce4bgjp2rcd13ifvqbh0","pricing_plan_id":"cebpf4jnsgd1na2vs0mg"},{"bike_id":"64953142-7637-42b4-b0d1-c449e63f1db7","system_id":"levelo_inurba_marseille","lat":43.29658,"lon":5.36001,"is_reserved":false,"is_disabled":false,"rental_uris":{"android":"levelo://app?vid=64953142-7637-42b4-b0d1-c449e63f1db7","ios":"levelo://app?vid=64953142-7637-42b4-b0d1-c449e63f1db7"},"vehicle_type_id":"4","last_reported":1741172912,"current_range_meters":8800,"station_id":"","pricing_plan_id":"cebpf4jnsgd1na2vs0mg"},{"bike_id":"d5846449-7219-4265-90f9-a2ede6b6465f","system_id":"levelo_inurba_marseille","lat":43.24165,"lon":5.39723,"is_reserved":false,"is_disabled":false,"rental_uris":{"android":"levelo://app?vid=d5846449-7219-4265-90f9-a2ede6b6465f","ios":"levelo://app?vid=d5846449-7219-4265-90f9-a2ede6b6465f"},"vehicle_type_id":"4","last_reported":1741172912,"current_range_meters":8800,"station_id":"ce4bhn12rcd13ifvqgpg","pricing_plan_id":"cebpf4jnsgd1na2vs0mg"},{"bike_id":"886ada2f-5350-4428-9273-edb8d1eac6d4","system_id":"levelo_inurba_marseille","lat":43.28004,"lon":5.40016,"is_reserved":false,"is_disabled":false,"rental_uris":{"android":"levelo://app?vid=886ada2f-5350-4428-9273-edb8d1eac6d4","ios":"levelo://app?vid=886ada2f-5350-4428-9273-edb8d1eac6d4"},"vehicle_type_id":"4","last_reported":1741172912,"current_range_meters":8800,"station_id":"ce4bho92rcd13ifvqh4g","pricing_plan_id":"cebpf4jnsgd1na2vs0mg"},{"bike_id":"a242757b-3f67-43b7-a32d-35436fe3c957","system_id":"levelo_inurba_marseille","lat":43.30537,"lon":5.36564,"is_reserved":false,"is_disabled":false,"rental_uris":{"android":"levelo://app?vid=a242757b-3f67-43b7-a32d-35436fe3c957","ios":"levelo://app?vid=a242757b-3f67-43b7-a32d-35436fe3c957"},"vehicle_type_id":"4","last_reported":1741172912,"current_range_meters":8800,"station_id":"ce4bgs12rcd13ifvqcag","pricing_plan_id":"cebpf4jnsgd1na2vs0mg"},{"bike_id":"60941715-8975-4bc9-a01b-e4d9d25fa159","system_id":"levelo_inurba_marseille","lat":43.31518,"lon":5.37268,"is_reserved":false,"is_disabled":false,"rental_uris":{"android":"levelo://app?vid=60941715-8975-4bc9-a01b-e4d9d25fa159","ios":"levelo://app?vid=60941715-8975-4bc9-a01b-e4d9d25fa159"},"vehicle_type_id":"4","last_reported":1741172912,"current_range_meters":9200,"station_id":"","pricing_plan_id":"cebpf4jnsgd1na2vs0mg"},{"bike_id":"ad84434d-20fb-4dcc-8def-077a9f6fa45b","system_id":"levelo_inurba_marseille","lat":43.284076,"lon":5.374998,"is_reserved":false,"is_disabled":true,"rental_uris":{"android":"levelo://app?vid=ad84434d-20fb-4dcc-8def-077a9f6fa45b","ios":"levelo://app?vid=ad84434d-20fb-4dcc-8def-077a9f6fa45b"},"vehicle_type_id":"4","last_reported":1741172912,"current_range_meters":9200,"station_id":"ce4bh412rcd13ifvqds0","pricing_plan_id":"cebpf4jnsgd1na2vs0mg"},{"bike_id":"96794ea4-770a-4927-923a-493e9670ecf8","system_id":"levelo_inurba_marseille","lat":43.2842,"lon":5.34989,"is_reserved":false,"is_disabled":false,"rental_uris":{"android":"levelo://app?vid=96794ea4-770a-4927-923a-493e9670ecf8","ios":"levelo://app?vid=96794ea4-770a-4927-923a-493e9670ecf8"},"vehicle_type_id":"4","last_reported":1741172912,"current_range_meters":9200,"station_id":"ce4bhbh2rcd13ifvqepg","pricing_plan_id":"cebpf4jnsgd1na2vs0mg"},{"bike_id":"de44d09a-d4db-4ce3-a2dd-62f4dc2e96ab","system_id":"levelo_inurba_marseille","lat":43.27504,"lon":5.42448,"is_reserved":false,"is_disabled":false,"rental_uris":{"android":"levelo://app?vid=de44d09a-d4db-4ce3-a2dd-62f4dc2e96ab","ios":"levelo://app?vid=de44d09a-d4db-4ce3-a2dd-62f4dc2e96ab"},"vehicle_type_id":"4","last_reported":1741172912,"current_range_meters":9200,"station_id":"ce4bhn92rcd13ifvqgrg","pricing_plan_id":"cebpf4jnsgd1na2vs0mg"},{"bike_id":"48ca4e95-acb4-400e-8208-1e7b736cce43","system_id":"levelo_inurba_marseille","lat":43.24165,"lon":5.39721,"is_reserved":false,"is_disabled":false,"rental_uris":{"android":"levelo://app?vid=48ca4e95-acb4-400e-8208-1e7b736cce43","ios":"levelo://app?vid=48ca4e95-acb4-400e-8208-1e7b736cce43"},"vehicle_type_id":"4","last_reported":1741172912,"current_range_meters":9200,"station_id":"ce4bhn12rcd13ifvqgpg","pricing_plan_id":"cebpf4jnsgd1na2vs0mg"},{"bike_id":"e24b58cd-1c8e-4e08-8a60-cc65b8817bf3","system_id":"levelo_inurba_marseille","lat":43.309117,"lon":5.368542,"is_reserved":false,"is_disabled":false,"rental_uris":{"android":"levelo://app?vid=e24b58cd-1c8e-4e08-8a60-cc65b8817bf3","ios":"levelo://app?vid=e24b58cd-1c8e-4e08-8a60-cc65b8817bf3"},"vehicle_type_id":"4","last_reported":1741172912,"current_range_meters":9200,"station_id":"ce4bgn92rcd13ifvqbvg","pricing_plan_id":"cebpf4jnsgd1na2vs0mg"},{"bike_id":"c69e1cc5-0899-4738-ab9b-d12f1eee9335","system_id":"levelo_inurba_marseille","lat":43.26569,"lon":5.39029,"is_reserved":false,"is_disabled":false,"rental_uris":{"android":"levelo://app?vid=c69e1cc5-0899-4738-ab9b-d12f1eee9335","ios":"levelo://app?vid=c69e1cc5-0899-4738-ab9b-d12f1eee9335"},"vehicle_type_id":"4","last_reported":1741172912,"current_range_meters":9200,"station_id":"ce4bhe12rcd13ifvqf30","pricing_plan_id":"cebpf4jnsgd1na2vs0mg"},{"bike_id":"6c368705-69fd-4292-b047-849018b78a43","system_id":"levelo_inurba_marseille","lat":43.26551,"lon":5.39029,"is_reserved":false,"is_disabled":false,"rental_uris":{"android":"levelo://app?vid=6c368705-69fd-4292-b047-849018b78a43","ios":"levelo://app?vid=6c368705-69fd-4292-b047-849018b78a43"},"vehicle_type_id":"4","last_reported":1741172912,"current_range_meters":9600,"station_id":"ce4bhe12rcd13ifvqf30","pricing_plan_id":"cebpf4jnsgd1na2vs0mg"},{"bike_id":"3d19ebae-804a-4730-9704-5acdb3604e45","system_id":"levelo_inurba_marseille","lat":43.29305,"lon":5.37433,"is_reserved":false,"is_disabled":false,"rental_uris":{"android":"levelo://app?vid=3d19ebae-804a-4730-9704-5acdb3604e45","ios":"levelo://app?vid=3d19ebae-804a-4730-9704-5acdb3604e45"},"vehicle_type_id":"4","last_reported":1741172912,"current_range_meters":9600,"station_id":"ce4bgi12rcd13ifvqb70","pricing_plan_id":"cebpf4jnsgd1na2vs0mg"},{"bike_id":"a4550b2d-8807-4ff9-9307-d30e6d04b40a","system_id":"levelo_inurba_marseille","lat":43.27496,"lon":5.42447,"is_reserved":false,"is_disabled":false,"rental_uris":{"android":"levelo://app?vid=a4550b2d-8807-4ff9-9307-d30e6d04b40a","ios":"levelo://app?vid=a4550b2d-8807-4ff9-9307-d30e6d04b40a"},"vehicle_type_id":"4","last_reported":1741172912,"current_range_meters":9600,"station_id":"ce4bhn92rcd13ifvqgrg","pricing_plan_id":"cebpf4jnsgd1na2vs0mg"},{"bike_id":"9d5dc8dc-fafd-479b-a07b-141caa4a8395","system_id":"levelo_inurba_marseille","lat":43.25116,"lon":5.40326,"is_reserved":false,"is_disabled":false,"rental_uris":{"android":"levelo://app?vid=9d5dc8dc-fafd-479b-a07b-141caa4a8395","ios":"levelo://app?vid=9d5dc8dc-fafd-479b-a07b-141caa4a8395"},"vehicle_type_id":"4","last_reported":1741172912,"current_range_meters":9600,"station_id":"ce4bhlh2rcd13ifvqgig","pricing_plan_id":"cebpf4jnsgd1na2vs0mg"},{"bike_id":"847e7035-c466-45fb-af31-4ce8e01d0291","system_id":"levelo_inurba_marseille","lat":43.27998,"lon":5.41653,"is_reserved":false,"is_disabled":false,"rental_uris":{"android":"levelo://app?vid=847e7035-c466-45fb-af31-4ce8e01d0291","ios":"levelo://app?vid=847e7035-c466-45fb-af31-4ce8e01d0291"},"vehicle_type_id":"4","last_reported":1741172912,"current_range_meters":9200,"station_id":"ce4bho12rcd13ifvqh1g","pricing_plan_id":"cebpf4jnsgd1na2vs0mg"},{"bike_id":"c4545528-4b14-4956-8f84-da0302ced2af","system_id":"levelo_inurba_marseille","lat":43.259311,"lon":5.408986,"is_reserved":false,"is_disabled":false,"rental_uris":{"android":"levelo://app?vid=c4545528-4b14-4956-8f84-da0302ced2af","ios":"levelo://app?vid=c4545528-4b14-4956-8f84-da0302ced2af"},"vehicle_type_id":"4","last_reported":1741172912,"current_range_meters":9600,"station_id":"ce4bhm92rcd13ifvqglg","pricing_plan_id":"cebpf4jnsgd1na2vs0mg"},{"bike_id":"dc90d802-6064-4ac6-9eb9-4770e51ccc4d","system_id":"levelo_inurba_marseille","lat":43.30888,"lon":5.39658,"is_reserved":false,"is_disabled":false,"rental_uris":{"android":"levelo://app?vid=dc90d802-6064-4ac6-9eb9-4770e51ccc4d","ios":"levelo://app?vid=dc90d802-6064-4ac6-9eb9-4770e51ccc4d"},"vehicle_type_id":"4","last_reported":1741172912,"current_range_meters":12800,"station_id":"ce4bh012rcd13ifvqcv0","pricing_plan_id":"cebpf4jnsgd1na2vs0mg"},{"bike_id":"93533251-32e2-4dbf-9b05-e1a93f4b214e","system_id":"levelo_inurba_marseille","lat":43.28666,"lon":5.3635,"is_reserved":false,"is_disabled":false,"rental_uris":{"android":"levelo://app?vid=93533251-32e2-4dbf-9b05-e1a93f4b214e","ios":"levelo://app?vid=93533251-32e2-4dbf-9b05-e1a93f4b214e"},"vehicle_type_id":"4","last_reported":1741172912,"current_range_meters":9600,"station_id":"ce4bhah2rcd13ifvqej0","pricing_plan_id":"cebpf4jnsgd1na2vs0mg"},{"bike_id":"51f6f578-8898-487a-9da7-ff3d6d379d1b","system_id":"levelo_inurba_marseille","lat":43.32103,"lon":5.36783,"is_reserved":false,"is_disabled":false,"rental_uris":{"android":"levelo://app?vid=51f6f578-8898-487a-9da7-ff3d6d379d1b","ios":"levelo://app?vid=51f6f578-8898-487a-9da7-ff3d6d379d1b"},"vehicle_type_id":"4","last_reported":1741172912,"current_range_meters":9600,"station_id":"ce4bhrh2rcd13ifvqhug","pricing_plan_id":"cebpf4jnsgd1na2vs0mg"},{"bike_id":"4c0e314a-87e2-48f0-a7b0-ec6605046de8","system_id":"levelo_inurba_marseille","lat":43.32097,"lon":5.3675,"is_reserved":false,"is_disabled":false,"rental_uris":{"android":"levelo://app?vid=4c0e314a-87e2-48f0-a7b0-ec6605046de8","ios":"levelo://app?vid=4c0e314a-87e2-48f0-a7b0-ec6605046de8"},"vehicle_type_id":"4","last_reported":1741172912,"current_range_meters":9600,"station_id":"ce4bhrh2rcd13ifvqhug","pricing_plan_id":"cebpf4jnsgd1na2vs0mg"},{"bike_id":"da012e55-56aa-4836-97eb-401c7578f569","system_id":"levelo_inurba_marseille","lat":43.25928,"lon":5.40904,"is_reserved":false,"is_disabled":false,"rental_uris":{"android":"levelo://app?vid=da012e55-56aa-4836-97eb-401c7578f569","ios":"levelo://app?vid=da012e55-56aa-4836-97eb-401c7578f569"},"vehicle_type_id":"4","last_reported":1741172912,"current_range_meters":9600,"station_id":"ce4bhm92rcd13ifvqglg","pricing_plan_id":"cebpf4jnsgd1na2vs0mg"},{"bike_id":"895f4c40-8d49-47ad-ac3d-54bc4b80d81c","system_id":"levelo_inurba_marseille","lat":43.24402,"lon":5.37061,"is_reserved":false,"is_disabled":false,"rental_uris":{"android":"levelo://app?vid=895f4c40-8d49-47ad-ac3d-54bc4b80d81c","ios":"levelo://app?vid=895f4c40-8d49-47ad-ac3d-54bc4b80d81c"},"vehicle_type_id":"4","last_reported":1741172912,"current_range_meters":10000,"station_id":"ce4bhhh2rcd13ifvqfk0","pricing_plan_id":"cebpf4jnsgd1na2vs0mg"},{"bike_id":"8f8dda39-9454-47be-8b5d-d5ab2618eafe","system_id":"levelo_inurba_marseille","lat":43.2988,"lon":5.38131,"is_reserved":false,"is_disabled":false,"rental_uris":{"android":"levelo://app?vid=8f8dda39-9454-47be-8b5d-d5ab2618eafe","ios":"levelo://app?vid=8f8dda39-9454-47be-8b5d-d5ab2618eafe"},"vehicle_type_id":"4","last_reported":1741172912,"current_range_meters":10000,"station_id":"ce4bgj12rcd13ifvqbc0","pricing_plan_id":"cebpf4jnsgd1na2vs0mg"},{"bike_id":"3de42499-332f-4f37-855f-942539a949a7","system_id":"levelo_inurba_marseille","lat":43.29772,"lon":5.37135,"is_reserved":false,"is_disabled":false,"rental_uris":{"android":"levelo://app?vid=3de42499-332f-4f37-855f-942539a949a7","ios":"levelo://app?vid=3de42499-332f-4f37-855f-942539a949a7"},"vehicle_type_id":"4","last_reported":1741172912,"current_range_meters":10000,"station_id":"ce4bgop2rcd13ifvqc1g","pricing_plan_id":"cebpf4jnsgd1na2vs0mg"},{"bike_id":"2041c432-87fc-400f-b5fa-8b0f7bd67a1e","system_id":"levelo_inurba_marseille","lat":43.26488,"lon":5.39544,"is_reserved":false,"is_disabled":false,"rental_uris":{"android":"levelo://app?vid=2041c432-87fc-400f-b5fa-8b0f7bd67a1e","ios":"levelo://app?vid=2041c432-87fc-400f-b5fa-8b0f7bd67a1e"},"vehicle_type_id":"4","last_reported":1741172912,"current_range_meters":10000,"station_id":"ce4bhi12rcd13ifvqfq0","pricing_plan_id":"cebpf4jnsgd1na2vs0mg"},{"bike_id":"ac3c2907-c21b-431c-843c-6ccf66953381","system_id":"levelo_inurba_marseille","lat":43.28936,"lon":5.36632,"is_reserved":false,"is_disabled":false,"rental_uris":{"android":"levelo://app?vid=ac3c2907-c21b-431c-843c-6ccf66953381","ios":"levelo://app?vid=ac3c2907-c21b-431c-843c-6ccf66953381"},"vehicle_type_id":"4","last_reported":1741172912,"current_range_meters":10000,"station_id":"ce4bhap2rcd13ifvqek0","pricing_plan_id":"cebpf4jnsgd1na2vs0mg"},{"bike_id":"65454335-2b8f-41a7-9a83-ad755de99323","system_id":"levelo_inurba_marseille","lat":43.24818,"lon":5.3745,"is_reserved":false,"is_disabled":false,"rental_uris":{"android":"levelo://app?vid=65454335-2b8f-41a7-9a83-ad755de99323","ios":"levelo://app?vid=65454335-2b8f-41a7-9a83-ad755de99323"},"vehicle_type_id":"4","last_reported":1741172912,"current_range_meters":10000,"station_id":"ce4bhgh2rcd13ifvqfb0","pricing_plan_id":"cebpf4jnsgd1na2vs0mg"},{"bike_id":"c55557ad-1ed5-4997-aee7-ac92107f14b6","system_id":"levelo_inurba_marseille","lat":43.26472,"lon":5.375129,"is_reserved":false,"is_disabled":false,"rental_uris":{"android":"levelo://app?vid=c55557ad-1ed5-4997-aee7-ac92107f14b6","ios":"levelo://app?vid=c55557ad-1ed5-4997-aee7-ac92107f14b6"},"vehicle_type_id":"4","last_reported":1741172912,"current_range_meters":10800,"station_id":"","pricing_plan_id":"cebpf4jnsgd1na2vs0mg"},{"bike_id":"9664280c-ec19-44a4-9913-206ac50d66b9","system_id":"levelo_inurba_marseille","lat":43.26221,"lon":5.40476,"is_reserved":false,"is_disabled":false,"rental_uris":{"android":"levelo://app?vid=9664280c-ec19-44a4-9913-206ac50d66b9","ios":"levelo://app?vid=9664280c-ec19-44a4-9913-206ac50d66b9"},"vehicle_type_id":"4","last_reported":1741172912,"current_range_meters":10800,"station_id":"ce4bhmh2rcd13ifvqgmg","pricing_plan_id":"cebpf4jnsgd1na2vs0mg"},{"bike_id":"7cd5e07c-ad2a-4af8-99d9-77c41335ce79","system_id":"levelo_inurba_marseille","lat":43.24172,"lon":5.36389,"is_reserved":false,"is_disabled":false,"rental_uris":{"android":"levelo://app?vid=7cd5e07c-ad2a-4af8-99d9-77c41335ce79","ios":"levelo://app?vid=7cd5e07c-ad2a-4af8-99d9-77c41335ce79"},"vehicle_type_id":"4","last_reported":1741172912,"current_range_meters":10800,"station_id":"cpo36qri1sfpv3e86is0","pricing_plan_id":"cebpf4jnsgd1na2vs0mg"},{"bike_id":"e3d7bc68-e1c3-463f-8323-6b168c27cfde","system_id":"levelo_inurba_marseille","lat":43.23168,"lon":5.43709,"is_reserved":false,"is_disabled":false,"rental_uris":{"android":"levelo://app?vid=e3d7bc68-e1c3-463f-8323-6b168c27cfde","ios":"levelo://app?vid=e3d7bc68-e1c3-463f-8323-6b168c27cfde"},"vehicle_type_id":"4","last_reported":1741172912,"current_range_meters":10800,"station_id":"ce4bhmp2rcd13ifvqgog","pricing_plan_id":"cebpf4jnsgd1na2vs0mg"},{"bike_id":"d571166c-77a4-4a91-b051-9cc34ad31336","system_id":"levelo_inurba_marseille","lat":43.3022,"lon":5.39295,"is_reserved":false,"is_disabled":false,"rental_uris":{"android":"levelo://app?vid=d571166c-77a4-4a91-b051-9cc34ad31336","ios":"levelo://app?vid=d571166c-77a4-4a91-b051-9cc34ad31336"},"vehicle_type_id":"4","last_reported":1741172912,"current_range_meters":10800,"station_id":"","pricing_plan_id":"cebpf4jnsgd1na2vs0mg"},{"bike_id":"a328f9e0-bb95-4f12-a6cc-938afbb430ee","system_id":"levelo_inurba_marseille","lat":43.28464,"lon":5.35882,"is_reserved":false,"is_disabled":false,"rental_uris":{"android":"levelo://app?vid=a328f9e0-bb95-4f12-a6cc-938afbb430ee","ios":"levelo://app?vid=a328f9e0-bb95-4f12-a6cc-938afbb430ee"},"vehicle_type_id":"4","last_reported":1741172912,"current_range_meters":10800,"station_id":"ce4bhah2rcd13ifvqei0","pricing_plan_id":"cebpf4jnsgd1na2vs0mg"},{"bike_id":"3b219114-afa7-412a-84e6-60bc704150c0","system_id":"levelo_inurba_marseille","lat":43.23132,"lon":5.43726,"is_reserved":false,"is_disabled":false,"rental_uris":{"android":"levelo://app?vid=3b219114-afa7-412a-84e6-60bc704150c0","ios":"levelo://app?vid=3b219114-afa7-412a-84e6-60bc704150c0"},"vehicle_type_id":"4","last_reported":1741172912,"current_range_meters":10800,"station_id":"ce4bhmp2rcd13ifvqgog","pricing_plan_id":"cebpf4jnsgd1na2vs0mg"},{"bike_id":"e0e1d903-53d1-434c-9acd-0132349fb87e","system_id":"levelo_inurba_marseille","lat":43.23156,"lon":5.43715,"is_reserved":false,"is_disabled":false,"rental_uris":{"android":"levelo://app?vid=e0e1d903-53d1-434c-9acd-0132349fb87e","ios":"levelo://app?vid=e0e1d903-53d1-434c-9acd-0132349fb87e"},"vehicle_type_id":"4","last_reported":1741172912,"current_range_meters":10800,"station_id":"ce4bhmp2rcd13ifvqgog","pricing_plan_id":"cebpf4jnsgd1na2vs0mg"},{"bike_id":"3a596ab9-9103-4f48-9700-a5a62e1fc109","system_id":"levelo_inurba_marseille","lat":43.33605,"lon":5.41011,"is_reserved":false,"is_disabled":false,"rental_uris":{"android":"levelo://app?vid=3a596ab9-9103-4f48-9700-a5a62e1fc109","ios":"levelo://app?vid=3a596ab9-9103-4f48-9700-a5a62e1fc109"},"vehicle_type_id":"4","last_reported":1741172912,"current_range_meters":10800,"station_id":"ce4bhqh2rcd13ifvqhmg","pricing_plan_id":"cebpf4jnsgd1na2vs0mg"},{"bike_id":"ce158af8-0c78-4f59-aa06-010abe515e4d","system_id":"levelo_inurba_marseille","lat":43.30141,"lon":5.37397,"is_reserved":false,"is_disabled":false,"rental_uris":{"android":"levelo://app?vid=ce158af8-0c78-4f59-aa06-010abe515e4d","ios":"levelo://app?vid=ce158af8-0c78-4f59-aa06-010abe515e4d"},"vehicle_type_id":"4","last_reported":1741172912,"current_range_meters":10800,"station_id":"ce4bgs92rcd13ifvqcc0","pricing_plan_id":"cebpf4jnsgd1na2vs0mg"},{"bike_id":"6d5bed89-1a9c-419a-95e1-37947f961de9","system_id":"levelo_inurba_marseille","lat":43.3372,"lon":5.39182,"is_reserved":false,"is_disabled":false,"rental_uris":{"android":"levelo://app?vid=6d5bed89-1a9c-419a-95e1-37947f961de9","ios":"levelo://app?vid=6d5bed89-1a9c-419a-95e1-37947f961de9"},"vehicle_type_id":"4","last_reported":1741172912,"current_range_meters":11600,"station_id":"ce4bhr92rcd13ifvqhsg","pricing_plan_id":"cebpf4jnsgd1na2vs0mg"},{"bike_id":"5d7675d1-7639-48a3-a976-f5e921adf7e4","system_id":"levelo_inurba_marseille","lat":43.28266,"lon":5.35059,"is_reserved":false,"is_disabled":false,"rental_uris":{"android":"levelo://app?vid=5d7675d1-7639-48a3-a976-f5e921adf7e4","ios":"levelo://app?vid=5d7675d1-7639-48a3-a976-f5e921adf7e4"},"vehicle_type_id":"4","last_reported":1741172912,"current_range_meters":11600,"station_id":"ce4bhbp2rcd13ifvqerg","pricing_plan_id":"cebpf4jnsgd1na2vs0mg"},{"bike_id":"bf933193-4b31-4e4c-99f9-ee76a4681337","system_id":"levelo_inurba_marseille","lat":43.2408,"lon":5.37733,"is_reserved":false,"is_disabled":false,"rental_uris":{"android":"levelo://app?vid=bf933193-4b31-4e4c-99f9-ee76a4681337","ios":"levelo://app?vid=bf933193-4b31-4e4c-99f9-ee76a4681337"},"vehicle_type_id":"4","last_reported":1741172912,"current_range_meters":11600,"station_id":"ce4bhnp2rcd13ifvqgvg","pricing_plan_id":"cebpf4jnsgd1na2vs0mg"},{"bike_id":"1a76b14b-925f-469c-9303-f6690e02da20","system_id":"levelo_inurba_marseille","lat":43.29907,"lon":5.37476,"is_reserved":false,"is_disabled":false,"rental_uris":{"android":"levelo://app?vid=1a76b14b-925f-469c-9303-f6690e02da20","ios":"levelo://app?vid=1a76b14b-925f-469c-9303-f6690e02da20"},"vehicle_type_id":"4","last_reported":1741172912,"current_range_meters":11600,"station_id":"ce4bgjh2rcd13ifvqbg0","pricing_plan_id":"cebpf4jnsgd1na2vs0mg"},{"bike_id":"86e52291-1bb8-446f-9496-e9f12c982769","system_id":"levelo_inurba_marseille","lat":43.29573,"lon":5.39974,"is_reserved":false,"is_disabled":false,"rental_uris":{"android":"levelo://app?vid=86e52291-1bb8-446f-9496-e9f12c982769","ios":"levelo://app?vid=86e52291-1bb8-446f-9496-e9f12c982769"},"vehicle_type_id":"4","last_reported":1741172912,"current_range_meters":14400,"station_id":"ce4bh312rcd13ifvqdj0","pricing_plan_id":"cebpf4jnsgd1na2vs0mg"},{"bike_id":"a779ad18-ca56-4d89-afc4-19b5aa3f1bbf","system_id":"levelo_inurba_marseille","lat":43.23976,"lon":5.36621,"is_reserved":false,"is_disabled":false,"rental_uris":{"android":"levelo://app?vid=a779ad18-ca56-4d89-afc4-19b5aa3f1bbf","ios":"levelo://app?vid=a779ad18-ca56-4d89-afc4-19b5aa3f1bbf"},"vehicle_type_id":"4","last_reported":1741172912,"current_range_meters":12400,"station_id":"ce4bhi12rcd13ifvqfp0","pricing_plan_id":"cebpf4jnsgd1na2vs0mg"},{"bike_id":"4d16e378-9d66-4244-abed-6a06323b852d","system_id":"levelo_inurba_marseille","lat":43.27817,"lon":5.40709,"is_reserved":false,"is_disabled":false,"rental_uris":{"android":"levelo://app?vid=4d16e378-9d66-4244-abed-6a06323b852d","ios":"levelo://app?vid=4d16e378-9d66-4244-abed-6a06323b852d"},"vehicle_type_id":"4","last_reported":1741172912,"current_range_meters":12400,"station_id":"ce4bhnh2rcd13ifvqgtg","pricing_plan_id":"cebpf4jnsgd1na2vs0mg"},{"bike_id":"7af97423-5e21-41b0-a144-0f91ab7787c9","system_id":"levelo_inurba_marseille","lat":43.30303,"lon":5.37702,"is_reserved":false,"is_disabled":false,"rental_uris":{"android":"levelo://app?vid=7af97423-5e21-41b0-a144-0f91ab7787c9","ios":"levelo://app?vid=7af97423-5e21-41b0-a144-0f91ab7787c9"},"vehicle_type_id":"4","last_reported":1741172912,"current_range_meters":12400,"station_id":"ce4bguh2rcd13ifvqcj0","pricing_plan_id":"cebpf4jnsgd1na2vs0mg"},{"bike_id":"82d21fc7-a101-418f-9655-2b3c943bcdd1","system_id":"levelo_inurba_marseille","lat":43.33737,"lon":5.3918,"is_reserved":false,"is_disabled":false,"rental_uris":{"android":"levelo://app?vid=82d21fc7-a101-418f-9655-2b3c943bcdd1","ios":"levelo://app?vid=82d21fc7-a101-418f-9655-2b3c943bcdd1"},"vehicle_type_id":"4","last_reported":1741172912,"current_range_meters":12400,"station_id":"ce4bhr92rcd13ifvqhsg","pricing_plan_id":"cebpf4jnsgd1na2vs0mg"},{"bike_id":"57b8b035-f82d-4c6b-a6da-6802b465ec8d","system_id":"levelo_inurba_marseille","lat":43.22926,"lon":5.35377,"is_reserved":false,"is_disabled":false,"rental_uris":{"android":"levelo://app?vid=57b8b035-f82d-4c6b-a6da-6802b465ec8d","ios":"levelo://app?vid=57b8b035-f82d-4c6b-a6da-6802b465ec8d"},"vehicle_type_id":"4","last_reported":1741172912,"current_range_meters":12000,"station_id":"cpo3532slgdg3j2ikp40","pricing_plan_id":"cebpf4jnsgd1na2vs0mg"},{"bike_id":"126c5f4d-6394-48f8-b46f-c8077a52f4fc","system_id":"levelo_inurba_marseille","lat":43.24168,"lon":5.36395,"is_reserved":false,"is_disabled":false,"rental_uris":{"android":"levelo://app?vid=126c5f4d-6394-48f8-b46f-c8077a52f4fc","ios":"levelo://app?vid=126c5f4d-6394-48f8-b46f-c8077a52f4fc"},"vehicle_type_id":"4","last_reported":1741172912,"current_range_meters":12400,"station_id":"cpo36qri1sfpv3e86is0","pricing_plan_id":"cebpf4jnsgd1na2vs0mg"},{"bike_id":"88a22b1d-d9d1-4f92-ba32-0732f4e154bc","system_id":"levelo_inurba_marseille","lat":43.2316,"lon":5.43703,"is_reserved":false,"is_disabled":false,"rental_uris":{"android":"levelo://app?vid=88a22b1d-d9d1-4f92-ba32-0732f4e154bc","ios":"levelo://app?vid=88a22b1d-d9d1-4f92-ba32-0732f4e154bc"},"vehicle_type_id":"4","last_reported":1741172912,"current_range_meters":12400,"station_id":"ce4bhmp2rcd13ifvqgog","pricing_plan_id":"cebpf4jnsgd1na2vs0mg"},{"bike_id":"8e67c6c2-1f86-420e-855b-676e159ed831","system_id":"levelo_inurba_marseille","lat":43.230619,"lon":5.354969,"is_reserved":false,"is_disabled":false,"rental_uris":{"android":"levelo://app?vid=8e67c6c2-1f86-420e-855b-676e159ed831","ios":"levelo://app?vid=8e67c6c2-1f86-420e-855b-676e159ed831"},"vehicle_type_id":"4","last_reported":1741172912,"current_range_meters":12800,"station_id":"cpo3342slgdg3j2ifvpg","pricing_plan_id":"cebpf4jnsgd1na2vs0mg"},{"bike_id":"cba6a766-3158-4fdc-849a-5887af830bdc","system_id":"levelo_inurba_marseille","lat":43.29241,"lon":5.38214,"is_reserved":false,"is_disabled":false,"rental_uris":{"android":"levelo://app?vid=cba6a766-3158-4fdc-849a-5887af830bdc","ios":"levelo://app?vid=cba6a766-3158-4fdc-849a-5887af830bdc"},"vehicle_type_id":"4","last_reported":1741172912,"current_range_meters":12800,"station_id":"","pricing_plan_id":"cebpf4jnsgd1na2vs0mg"},{"bike_id":"330426bc-0af9-4c3e-8e4c-6ec10833df11","system_id":"levelo_inurba_marseille","lat":43.29917,"lon":5.43668,"is_reserved":false,"is_disabled":false,"rental_uris":{"android":"levelo://app?vid=330426bc-0af9-4c3e-8e4c-6ec10833df11","ios":"levelo://app?vid=330426bc-0af9-4c3e-8e4c-6ec10833df11"},"vehicle_type_id":"4","last_reported":1741172912,"current_range_meters":12800,"station_id":"ce4bhpp2rcd13ifvqhfg","pricing_plan_id":"cebpf4jnsgd1na2vs0mg"},{"bike_id":"e8fb3957-55aa-4712-b8af-a6da8b77890f","system_id":"levelo_inurba_marseille","lat":43.30191,"lon":5.38075,"is_reserved":false,"is_disabled":false,"rental_uris":{"android":"levelo://app?vid=e8fb3957-55aa-4712-b8af-a6da8b77890f","ios":"levelo://app?vid=e8fb3957-55aa-4712-b8af-a6da8b77890f"},"vehicle_type_id":"4","last_reported":1741172912,"current_range_meters":13600,"station_id":"","pricing_plan_id":"cebpf4jnsgd1na2vs0mg"},{"bike_id":"9cbb5914-3ce0-45a9-bfe4-895657d5f46f","system_id":"levelo_inurba_marseille","lat":43.232,"lon":5.35544,"is_reserved":false,"is_disabled":false,"rental_uris":{"android":"levelo://app?vid=9cbb5914-3ce0-45a9-bfe4-895657d5f46f","ios":"levelo://app?vid=9cbb5914-3ce0-45a9-bfe4-895657d5f46f"},"vehicle_type_id":"4","last_reported":1741172912,"current_range_meters":13600,"station_id":"ce4bhu92rcd13ifvqi70","pricing_plan_id":"cebpf4jnsgd1na2vs0mg"},{"bike_id":"12e18254-b863-444d-8925-63c2865f1afd","system_id":"levelo_inurba_marseille","lat":43.31342,"lon":5.36724,"is_reserved":false,"is_disabled":false,"rental_uris":{"android":"levelo://app?vid=12e18254-b863-444d-8925-63c2865f1afd","ios":"levelo://app?vid=12e18254-b863-444d-8925-63c2865f1afd"},"vehicle_type_id":"4","last_reported":1741172912,"current_range_meters":13600,"station_id":"ce4bgr92rcd13ifvqc6g","pricing_plan_id":"cebpf4jnsgd1na2vs0mg"},{"bike_id":"7e141603-5076-446b-a90d-8e44d6246006","system_id":"levelo_inurba_marseille","lat":43.31231,"lon":5.36883,"is_reserved":false,"is_disabled":false,"rental_uris":{"android":"levelo://app?vid=7e141603-5076-446b-a90d-8e44d6246006","ios":"levelo://app?vid=7e141603-5076-446b-a90d-8e44d6246006"},"vehicle_type_id":"4","last_reported":1741172912,"current_range_meters":13600,"station_id":"ce4bgl92rcd13ifvqbq0","pricing_plan_id":"cebpf4jnsgd1na2vs0mg"},{"bike_id":"9d446f7c-ee5a-453b-b8d4-a7573bc985a2","system_id":"levelo_inurba_marseille","lat":43.29284,"lon":5.37451,"is_reserved":false,"is_disabled":false,"rental_uris":{"android":"levelo://app?vid=9d446f7c-ee5a-453b-b8d4-a7573bc985a2","ios":"levelo://app?vid=9d446f7c-ee5a-453b-b8d4-a7573bc985a2"},"vehicle_type_id":"4","last_reported":1741172912,"current_range_meters":14000,"station_id":"ce4bgi12rcd13ifvqb70","pricing_plan_id":"cebpf4jnsgd1na2vs0mg"},{"bike_id":"258117e8-55c0-467f-b8b8-3ec3824ac367","system_id":"levelo_inurba_marseille","lat":43.30786,"lon":5.37676,"is_reserved":false,"is_disabled":false,"rental_uris":{"android":"levelo://app?vid=258117e8-55c0-467f-b8b8-3ec3824ac367","ios":"levelo://app?vid=258117e8-55c0-467f-b8b8-3ec3824ac367"},"vehicle_type_id":"4","last_reported":1741172912,"current_range_meters":12800,"station_id":"ce4bgv92rcd13ifvqcq0","pricing_plan_id":"cebpf4jnsgd1na2vs0mg"},{"bike_id":"95a7f661-84a3-41c8-b322-371de73d76ec","system_id":"levelo_inurba_marseille","lat":43.25947,"lon":5.40892,"is_reserved":false,"is_disabled":false,"rental_uris":{"android":"levelo://app?vid=95a7f661-84a3-41c8-b322-371de73d76ec","ios":"levelo://app?vid=95a7f661-84a3-41c8-b322-371de73d76ec"},"vehicle_type_id":"4","last_reported":1741172912,"current_range_meters":14000,"station_id":"ce4bhm92rcd13ifvqglg","pricing_plan_id":"cebpf4jnsgd1na2vs0mg"},{"bike_id":"ee59b3a3-0f87-489f-91b5-15c91569f1b2","system_id":"levelo_inurba_marseille","lat":43.24152,"lon":5.36404,"is_reserved":false,"is_disabled":false,"rental_uris":{"android":"levelo://app?vid=ee59b3a3-0f87-489f-91b5-15c91569f1b2","ios":"levelo://app?vid=ee59b3a3-0f87-489f-91b5-15c91569f1b2"},"vehicle_type_id":"4","last_reported":1741172912,"current_range_meters":14000,"station_id":"cpo36qri1sfpv3e86is0","pricing_plan_id":"cebpf4jnsgd1na2vs0mg"},{"bike_id":"5f6d576d-3667-46bc-85a4-77bd50db81bf","system_id":"levelo_inurba_marseille","lat":43.28142,"lon":5.42601,"is_reserved":false,"is_disabled":false,"rental_uris":{"android":"levelo://app?vid=5f6d576d-3667-46bc-85a4-77bd50db81bf","ios":"levelo://app?vid=5f6d576d-3667-46bc-85a4-77bd50db81bf"},"vehicle_type_id":"4","last_reported":1741172912,"current_range_meters":14000,"station_id":"ce4bhnh2rcd13ifvqgug","pricing_plan_id":"cebpf4jnsgd1na2vs0mg"},{"bike_id":"c3a15966-d6db-4a67-a176-541b2fe5f082","system_id":"levelo_inurba_marseille","lat":43.32405,"lon":5.38961,"is_reserved":false,"is_disabled":false,"rental_uris":{"android":"levelo://app?vid=c3a15966-d6db-4a67-a176-541b2fe5f082","ios":"levelo://app?vid=c3a15966-d6db-4a67-a176-541b2fe5f082"},"vehicle_type_id":"4","last_reported":1741172912,"current_range_meters":14000,"station_id":"","pricing_plan_id":"cebpf4jnsgd1na2vs0mg"},{"bike_id":"b4b09315-ca0d-463d-a346-2befbeda74a7","system_id":"levelo_inurba_marseille","lat":43.337444,"lon":5.374475,"is_reserved":false,"is_disabled":true,"rental_uris":{"android":"levelo://app?vid=b4b09315-ca0d-463d-a346-2befbeda74a7","ios":"levelo://app?vid=b4b09315-ca0d-463d-a346-2befbeda74a7"},"vehicle_type_id":"4","last_reported":1741172912,"current_range_meters":14000,"station_id":"","pricing_plan_id":"cebpf4jnsgd1na2vs0mg"},{"bike_id":"c11f530c-99ab-49c1-bdcc-785cd598698f","system_id":"levelo_inurba_marseille","lat":43.32539,"lon":5.41495,"is_reserved":false,"is_disabled":false,"rental_uris":{"android":"levelo://app?vid=c11f530c-99ab-49c1-bdcc-785cd598698f","ios":"levelo://app?vid=c11f530c-99ab-49c1-bdcc-785cd598698f"},"vehicle_type_id":"4","last_reported":1741172912,"current_range_meters":14800,"station_id":"","pricing_plan_id":"cebpf4jnsgd1na2vs0mg"},{"bike_id":"8a090317-3396-417d-bc9b-22951b4192e3","system_id":"levelo_inurba_marseille","lat":43.3054,"lon":5.36714,"is_reserved":false,"is_disabled":false,"rental_uris":{"android":"levelo://app?vid=8a090317-3396-417d-bc9b-22951b4192e3","ios":"levelo://app?vid=8a090317-3396-417d-bc9b-22951b4192e3"},"vehicle_type_id":"4","last_reported":1741172912,"current_range_meters":14800,"station_id":"ce4bgrp2rcd13ifvqc9g","pricing_plan_id":"cebpf4jnsgd1na2vs0mg"},{"bike_id":"e7a0f8ca-cd17-4a7c-a7ca-920b5ba32e2e","system_id":"levelo_inurba_marseille","lat":43.27233,"lon":5.39187,"is_reserved":false,"is_disabled":false,"rental_uris":{"android":"levelo://app?vid=e7a0f8ca-cd17-4a7c-a7ca-920b5ba32e2e","ios":"levelo://app?vid=e7a0f8ca-cd17-4a7c-a7ca-920b5ba32e2e"},"vehicle_type_id":"4","last_reported":1741172912,"current_range_meters":14800,"station_id":"ce4bhhp2rcd13ifvqfm0","pricing_plan_id":"cebpf4jnsgd1na2vs0mg"},{"bike_id":"a194ad29-8812-45f2-92b0-ff08b8aae0e0","system_id":"levelo_inurba_marseille","lat":43.30543,"lon":5.36694,"is_reserved":false,"is_disabled":false,"rental_uris":{"android":"levelo://app?vid=a194ad29-8812-45f2-92b0-ff08b8aae0e0","ios":"levelo://app?vid=a194ad29-8812-45f2-92b0-ff08b8aae0e0"},"vehicle_type_id":"4","last_reported":1741172912,"current_range_meters":14800,"station_id":"ce4bgrp2rcd13ifvqc9g","pricing_plan_id":"cebpf4jnsgd1na2vs0mg"},{"bike_id":"11fe9f17-96bb-4c3e-a194-89b161d7eded","system_id":"levelo_inurba_marseille","lat":43.26562,"lon":5.37262,"is_reserved":false,"is_disabled":false,"rental_uris":{"android":"levelo://app?vid=11fe9f17-96bb-4c3e-a194-89b161d7eded","ios":"levelo://app?vid=11fe9f17-96bb-4c3e-a194-89b161d7eded"},"vehicle_type_id":"4","last_reported":1741172912,"current_range_meters":14800,"station_id":"ce4bhg12rcd13ifvqf70","pricing_plan_id":"cebpf4jnsgd1na2vs0mg"},{"bike_id":"d702baed-cfe3-4df6-abc6-5adb4ac9225a","system_id":"levelo_inurba_marseille","lat":43.2919,"lon":5.35811,"is_reserved":false,"is_disabled":false,"rental_uris":{"android":"levelo://app?vid=d702baed-cfe3-4df6-abc6-5adb4ac9225a","ios":"levelo://app?vid=d702baed-cfe3-4df6-abc6-5adb4ac9225a"},"vehicle_type_id":"4","last_reported":1741172912,"current_range_meters":14000,"station_id":"ce4bhb12rcd13ifvqel0","pricing_plan_id":"cebpf4jnsgd1na2vs0mg"},{"bike_id":"684b0599-7acf-442f-ade1-5d3d4c8e8ab6","system_id":"levelo_inurba_marseille","lat":43.26923,"lon":5.40237,"is_reserved":false,"is_disabled":false,"rental_uris":{"android":"levelo://app?vid=684b0599-7acf-442f-ade1-5d3d4c8e8ab6","ios":"levelo://app?vid=684b0599-7acf-442f-ade1-5d3d4c8e8ab6"},"vehicle_type_id":"4","last_reported":1741172912,"current_range_meters":14800,"station_id":"cjm6bp8fraef2m0cb0m0","pricing_plan_id":"cebpf4jnsgd1na2vs0mg"},{"bike_id":"5cb3e475-d1c3-4bea-bb58-71ceaca27c06","system_id":"levelo_inurba_marseille","lat":43.28419,"lon":5.34988,"is_reserved":false,"is_disabled":false,"rental_uris":{"android":"levelo://app?vid=5cb3e475-d1c3-4bea-bb58-71ceaca27c06","ios":"levelo://app?vid=5cb3e475-d1c3-4bea-bb58-71ceaca27c06"},"vehicle_type_id":"4","last_reported":1741172912,"current_range_meters":15200,"station_id":"ce4bhbh2rcd13ifvqepg","pricing_plan_id":"cebpf4jnsgd1na2vs0mg"},{"bike_id":"711c196e-8aaa-440c-8d26-7681f4cb5a42","system_id":"levelo_inurba_marseille","lat":43.29094,"lon":5.38124,"is_reserved":false,"is_disabled":false,"rental_uris":{"android":"levelo://app?vid=711c196e-8aaa-440c-8d26-7681f4cb5a42","ios":"levelo://app?vid=711c196e-8aaa-440c-8d26-7681f4cb5a42"},"vehicle_type_id":"4","last_reported":1741172912,"current_range_meters":9200,"station_id":"ce4bh512rcd13ifvqe2g","pricing_plan_id":"cebpf4jnsgd1na2vs0mg"},{"bike_id":"922e7a1d-aa4f-4023-b6e9-602014b0ab35","system_id":"levelo_inurba_marseille","lat":43.30147,"lon":5.38085,"is_reserved":false,"is_disabled":false,"rental_uris":{"android":"levelo://app?vid=922e7a1d-aa4f-4023-b6e9-602014b0ab35","ios":"levelo://app?vid=922e7a1d-aa4f-4023-b6e9-602014b0ab35"},"vehicle_type_id":"4","last_reported":1741172912,"current_range_meters":15200,"station_id":"ce4bgjp2rcd13ifvqbh0","pricing_plan_id":"cebpf4jnsgd1na2vs0mg"},{"bike_id":"d45c1ff2-2da5-477c-861d-b1fda4d8956d","system_id":"levelo_inurba_marseille","lat":43.30544,"lon":5.36533,"is_reserved":false,"is_disabled":false,"rental_uris":{"android":"levelo://app?vid=d45c1ff2-2da5-477c-861d-b1fda4d8956d","ios":"levelo://app?vid=d45c1ff2-2da5-477c-861d-b1fda4d8956d"},"vehicle_type_id":"4","last_reported":1741172912,"current_range_meters":15200,"station_id":"ce4bgs12rcd13ifvqcag","pricing_plan_id":"cebpf4jnsgd1na2vs0mg"},{"bike_id":"582c2a00-2f0a-4448-b241-804b9569d8ed","system_id":"levelo_inurba_marseille","lat":43.27512,"lon":5.42482,"is_reserved":false,"is_disabled":false,"rental_uris":{"android":"levelo://app?vid=582c2a00-2f0a-4448-b241-804b9569d8ed","ios":"levelo://app?vid=582c2a00-2f0a-4448-b241-804b9569d8ed"},"vehicle_type_id":"4","last_reported":1741172912,"current_range_meters":15200,"station_id":"ce4bhn92rcd13ifvqgrg","pricing_plan_id":"cebpf4jnsgd1na2vs0mg"},{"bike_id":"5904a53a-156f-4190-a227-81ee6abe001e","system_id":"levelo_inurba_marseille","lat":43.23945,"lon":5.36636,"is_reserved":false,"is_disabled":false,"rental_uris":{"android":"levelo://app?vid=5904a53a-156f-4190-a227-81ee6abe001e","ios":"levelo://app?vid=5904a53a-156f-4190-a227-81ee6abe001e"},"vehicle_type_id":"4","last_reported":1741172912,"current_range_meters":15200,"station_id":"ce4bhi12rcd13ifvqfp0","pricing_plan_id":"cebpf4jnsgd1na2vs0mg"},{"bike_id":"e01955a4-91d8-4de2-9c8d-bbb965be7dd3","system_id":"levelo_inurba_marseille","lat":43.2979,"lon":5.39348,"is_reserved":false,"is_disabled":true,"rental_uris":{"android":"levelo://app?vid=e01955a4-91d8-4de2-9c8d-bbb965be7dd3","ios":"levelo://app?vid=e01955a4-91d8-4de2-9c8d-bbb965be7dd3"},"vehicle_type_id":"4","last_reported":1741172912,"current_range_meters":15200,"station_id":"chh1huq6cuj3fo74tm60","pricing_plan_id":"cebpf4jnsgd1na2vs0mg"},{"bike_id":"2f20fe16-3dfa-4f85-9620-feefc22192a9","system_id":"levelo_inurba_marseille","lat":43.24796,"lon":5.37449,"is_reserved":false,"is_disabled":false,"rental_uris":{"android":"levelo://app?vid=2f20fe16-3dfa-4f85-9620-feefc22192a9","ios":"levelo://app?vid=2f20fe16-3dfa-4f85-9620-feefc22192a9"},"vehicle_type_id":"4","last_reported":1741172912,"current_range_meters":16000,"station_id":"ce4bhgh2rcd13ifvqfb0","pricing_plan_id":"cebpf4jnsgd1na2vs0mg"},{"bike_id":"50eb3a7f-ec3f-4542-a0c5-0dead1bab79b","system_id":"levelo_inurba_marseille","lat":43.27915,"lon":5.39584,"is_reserved":false,"is_disabled":false,"rental_uris":{"android":"levelo://app?vid=50eb3a7f-ec3f-4542-a0c5-0dead1bab79b","ios":"levelo://app?vid=50eb3a7f-ec3f-4542-a0c5-0dead1bab79b"},"vehicle_type_id":"4","last_reported":1741172912,"current_range_meters":16000,"station_id":"ce4bhf92rcd13ifvqf40","pricing_plan_id":"cebpf4jnsgd1na2vs0mg"},{"bike_id":"c36e600a-eef8-46f8-9321-818d0021765c","system_id":"levelo_inurba_marseille","lat":43.309067,"lon":5.36854,"is_reserved":false,"is_disabled":false,"rental_uris":{"android":"levelo://app?vid=c36e600a-eef8-46f8-9321-818d0021765c","ios":"levelo://app?vid=c36e600a-eef8-46f8-9321-818d0021765c"},"vehicle_type_id":"4","last_reported":1741172912,"current_range_meters":16000,"station_id":"ce4bgn92rcd13ifvqbvg","pricing_plan_id":"cebpf4jnsgd1na2vs0mg"},{"bike_id":"0b3cb245-c1ab-4265-9e03-36f6b9bfa685","system_id":"levelo_inurba_marseille","lat":43.23064,"lon":5.35485,"is_reserved":false,"is_disabled":false,"rental_uris":{"android":"levelo://app?vid=0b3cb245-c1ab-4265-9e03-36f6b9bfa685","ios":"levelo://app?vid=0b3cb245-c1ab-4265-9e03-36f6b9bfa685"},"vehicle_type_id":"4","last_reported":1741172912,"current_range_meters":16000,"station_id":"cpo3342slgdg3j2ifvpg","pricing_plan_id":"cebpf4jnsgd1na2vs0mg"},{"bike_id":"253989d1-25d7-489a-ac11-cc48c3978782","system_id":"levelo_inurba_marseille","lat":43.31116,"lon":5.37766,"is_reserved":false,"is_disabled":false,"rental_uris":{"android":"levelo://app?vid=253989d1-25d7-489a-ac11-cc48c3978782","ios":"levelo://app?vid=253989d1-25d7-489a-ac11-cc48c3978782"},"vehicle_type_id":"4","last_reported":1741172912,"current_range_meters":16000,"station_id":"ce4bgt92rcd13ifvqcg0","pricing_plan_id":"cebpf4jnsgd1na2vs0mg"},{"bike_id":"9cdc0688-b476-4e47-b0c2-48124c4a767c","system_id":"levelo_inurba_marseille","lat":43.250032,"lon":5.389508,"is_reserved":false,"is_disabled":false,"rental_uris":{"android":"levelo://app?vid=9cdc0688-b476-4e47-b0c2-48124c4a767c","ios":"levelo://app?vid=9cdc0688-b476-4e47-b0c2-48124c4a767c"},"vehicle_type_id":"4","last_reported":1741172912,"current_range_meters":16000,"station_id":"ce4bhgp2rcd13ifvqfd0","pricing_plan_id":"cebpf4jnsgd1na2vs0mg"},{"bike_id":"c2b135d6-7171-41d4-bf2a-c31f105177e7","system_id":"levelo_inurba_marseille","lat":43.23156,"lon":5.43704,"is_reserved":false,"is_disabled":false,"rental_uris":{"android":"levelo://app?vid=c2b135d6-7171-41d4-bf2a-c31f105177e7","ios":"levelo://app?vid=c2b135d6-7171-41d4-bf2a-c31f105177e7"},"vehicle_type_id":"4","last_reported":1741172912,"current_range_meters":16400,"station_id":"ce4bhmp2rcd13ifvqgog","pricing_plan_id":"cebpf4jnsgd1na2vs0mg"},{"bike_id":"ba9d4a82-0ce6-487f-bc4b-86c56883a8c8","system_id":"levelo_inurba_marseille","lat":43.31216,"lon":5.36853,"is_reserved":false,"is_disabled":false,"rental_uris":{"android":"levelo://app?vid=ba9d4a82-0ce6-487f-bc4b-86c56883a8c8","ios":"levelo://app?vid=ba9d4a82-0ce6-487f-bc4b-86c56883a8c8"},"vehicle_type_id":"4","last_reported":1741172912,"current_range_meters":16400,"station_id":"ce4bgl92rcd13ifvqbq0","pricing_plan_id":"cebpf4jnsgd1na2vs0mg"},{"bike_id":"ba0569e5-d360-46bb-ada9-a8bef8eda250","system_id":"levelo_inurba_marseille","lat":43.30532,"lon":5.36693,"is_reserved":false,"is_disabled":false,"rental_uris":{"android":"levelo://app?vid=ba0569e5-d360-46bb-ada9-a8bef8eda250","ios":"levelo://app?vid=ba0569e5-d360-46bb-ada9-a8bef8eda250"},"vehicle_type_id":"4","last_reported":1741172912,"current_range_meters":16400,"station_id":"ce4bgrp2rcd13ifvqc9g","pricing_plan_id":"cebpf4jnsgd1na2vs0mg"},{"bike_id":"2f211e9f-9490-4679-9f88-05585197039f","system_id":"levelo_inurba_marseille","lat":43.23193,"lon":5.35546,"is_reserved":false,"is_disabled":false,"rental_uris":{"android":"levelo://app?vid=2f211e9f-9490-4679-9f88-05585197039f","ios":"levelo://app?vid=2f211e9f-9490-4679-9f88-05585197039f"},"vehicle_type_id":"4","last_reported":1741172912,"current_range_meters":16400,"station_id":"ce4bhu92rcd13ifvqi70","pricing_plan_id":"cebpf4jnsgd1na2vs0mg"},{"bike_id":"7f1905bf-da4d-4f13-af14-c5d46804e585","system_id":"levelo_inurba_marseille","lat":43.23185,"lon":5.35543,"is_reserved":false,"is_disabled":false,"rental_uris":{"android":"levelo://app?vid=7f1905bf-da4d-4f13-af14-c5d46804e585","ios":"levelo://app?vid=7f1905bf-da4d-4f13-af14-c5d46804e585"},"vehicle_type_id":"4","last_reported":1741172912,"current_range_meters":16400,"station_id":"ce4bhu92rcd13ifvqi70","pricing_plan_id":"cebpf4jnsgd1na2vs0mg"},{"bike_id":"15467364-8919-47e1-8568-d5b1778476a0","system_id":"levelo_inurba_marseille","lat":43.26949,"lon":5.38915,"is_reserved":false,"is_disabled":false,"rental_uris":{"android":"levelo://app?vid=15467364-8919-47e1-8568-d5b1778476a0","ios":"levelo://app?vid=15467364-8919-47e1-8568-d5b1778476a0"},"vehicle_type_id":"4","last_reported":1741172912,"current_range_meters":16400,"station_id":"ce4bhhh2rcd13ifvqfl0","pricing_plan_id":"cebpf4jnsgd1na2vs0mg"},{"bike_id":"72489898-2190-4836-97e3-c5e72db90d8e","system_id":"levelo_inurba_marseille","lat":43.29286,"lon":5.37453,"is_reserved":false,"is_disabled":false,"rental_uris":{"android":"levelo://app?vid=72489898-2190-4836-97e3-c5e72db90d8e","ios":"levelo://app?vid=72489898-2190-4836-97e3-c5e72db90d8e"},"vehicle_type_id":"4","last_reported":1741172912,"current_range_meters":16400,"station_id":"ce4bgi12rcd13ifvqb70","pricing_plan_id":"cebpf4jnsgd1na2vs0mg"},{"bike_id":"2e87a34f-01ff-45a1-847b-22122d5ad094","system_id":"levelo_inurba_marseille","lat":43.276634,"lon":5.388786,"is_reserved":false,"is_disabled":false,"rental_uris":{"android":"levelo://app?vid=2e87a34f-01ff-45a1-847b-22122d5ad094","ios":"levelo://app?vid=2e87a34f-01ff-45a1-847b-22122d5ad094"},"vehicle_type_id":"4","last_reported":1741172912,"current_range_meters":16400,"station_id":"ce4bgpp2rcd13ifvqc3g","pricing_plan_id":"cebpf4jnsgd1na2vs0mg"},{"bike_id":"7a4a9fca-a4db-4a2f-9666-4adc7290a5c2","system_id":"levelo_inurba_marseille","lat":43.29591,"lon":5.36727,"is_reserved":false,"is_disabled":false,"rental_uris":{"android":"levelo://app?vid=7a4a9fca-a4db-4a2f-9666-4adc7290a5c2","ios":"levelo://app?vid=7a4a9fca-a4db-4a2f-9666-4adc7290a5c2"},"vehicle_type_id":"4","last_reported":1741172912,"current_range_meters":16400,"station_id":"ce4bgph2rcd13ifvqc2g","pricing_plan_id":"cebpf4jnsgd1na2vs0mg"},{"bike_id":"ba60ddd0-090a-4921-a3fa-f07dc23829f3","system_id":"levelo_inurba_marseille","lat":43.2799,"lon":5.41659,"is_reserved":false,"is_disabled":false,"rental_uris":{"android":"levelo://app?vid=ba60ddd0-090a-4921-a3fa-f07dc23829f3","ios":"levelo://app?vid=ba60ddd0-090a-4921-a3fa-f07dc23829f3"},"vehicle_type_id":"4","last_reported":1741172912,"current_range_meters":16400,"station_id":"ce4bho12rcd13ifvqh1g","pricing_plan_id":"cebpf4jnsgd1na2vs0mg"},{"bike_id":"68e27736-ce24-42d9-8f43-94a65d6c43a4","system_id":"levelo_inurba_marseille","lat":43.28851,"lon":5.35868,"is_reserved":false,"is_disabled":false,"rental_uris":{"android":"levelo://app?vid=68e27736-ce24-42d9-8f43-94a65d6c43a4","ios":"levelo://app?vid=68e27736-ce24-42d9-8f43-94a65d6c43a4"},"vehicle_type_id":"4","last_reported":1741172912,"current_range_meters":16000,"station_id":"ce4bhb12rcd13ifvqem0","pricing_plan_id":"cebpf4jnsgd1na2vs0mg"},{"bike_id":"c991accf-af6c-4a13-b424-d08ddbf98d26","system_id":"levelo_inurba_marseille","lat":43.31359,"lon":5.38501,"is_reserved":false,"is_disabled":false,"rental_uris":{"android":"levelo://app?vid=c991accf-af6c-4a13-b424-d08ddbf98d26","ios":"levelo://app?vid=c991accf-af6c-4a13-b424-d08ddbf98d26"},"vehicle_type_id":"4","last_reported":1741172912,"current_range_meters":16800,"station_id":"ce4bgt92rcd13ifvqcf0","pricing_plan_id":"cebpf4jnsgd1na2vs0mg"},{"bike_id":"b76d7aba-1e37-44db-9081-60e450234201","system_id":"levelo_inurba_marseille","lat":43.27206,"lon":5.39181,"is_reserved":false,"is_disabled":true,"rental_uris":{"android":"levelo://app?vid=b76d7aba-1e37-44db-9081-60e450234201","ios":"levelo://app?vid=b76d7aba-1e37-44db-9081-60e450234201"},"vehicle_type_id":"4","last_reported":1741172912,"current_range_meters":16800,"station_id":"ce4bhhp2rcd13ifvqfm0","pricing_plan_id":"cebpf4jnsgd1na2vs0mg"},{"bike_id":"e5d41598-0b8c-4934-983a-bc2927772685","system_id":"levelo_inurba_marseille","lat":43.30971,"lon":5.3905,"is_reserved":false,"is_disabled":false,"rental_uris":{"android":"levelo://app?vid=e5d41598-0b8c-4934-983a-bc2927772685","ios":"levelo://app?vid=e5d41598-0b8c-4934-983a-bc2927772685"},"vehicle_type_id":"4","last_reported":1741172912,"current_range_meters":16800,"station_id":"ce4bgup2rcd13ifvqco0","pricing_plan_id":"cebpf4jnsgd1na2vs0mg"},{"bike_id":"34ed6e71-18d0-4cc7-8a80-83829c8ec821","system_id":"levelo_inurba_marseille","lat":43.31755,"lon":5.39017,"is_reserved":false,"is_disabled":false,"rental_uris":{"android":"levelo://app?vid=34ed6e71-18d0-4cc7-8a80-83829c8ec821","ios":"levelo://app?vid=34ed6e71-18d0-4cc7-8a80-83829c8ec821"},"vehicle_type_id":"4","last_reported":1741172912,"current_range_meters":16400,"station_id":"ce4bhqp2rcd13ifvqhng","pricing_plan_id":"cebpf4jnsgd1na2vs0mg"},{"bike_id":"743ff6c4-52bb-4441-83b1-6b735d48e06f","system_id":"levelo_inurba_marseille","lat":43.30913,"lon":5.36869,"is_reserved":false,"is_disabled":false,"rental_uris":{"android":"levelo://app?vid=743ff6c4-52bb-4441-83b1-6b735d48e06f","ios":"levelo://app?vid=743ff6c4-52bb-4441-83b1-6b735d48e06f"},"vehicle_type_id":"4","last_reported":1741172912,"current_range_meters":16800,"station_id":"ce4bgn92rcd13ifvqbvg","pricing_plan_id":"cebpf4jnsgd1na2vs0mg"},{"bike_id":"5981e5fd-8ca3-4e17-921d-10437ee17d35","system_id":"levelo_inurba_marseille","lat":43.24175,"lon":5.36401,"is_reserved":false,"is_disabled":false,"rental_uris":{"android":"levelo://app?vid=5981e5fd-8ca3-4e17-921d-10437ee17d35","ios":"levelo://app?vid=5981e5fd-8ca3-4e17-921d-10437ee17d35"},"vehicle_type_id":"4","last_reported":1741172912,"current_range_meters":16800,"station_id":"cpo36qri1sfpv3e86is0","pricing_plan_id":"cebpf4jnsgd1na2vs0mg"},{"bike_id":"c5e46d82-d9a0-452c-a125-bbbee3eb847e","system_id":"levelo_inurba_marseille","lat":43.28278,"lon":5.3508,"is_reserved":false,"is_disabled":false,"rental_uris":{"android":"levelo://app?vid=c5e46d82-d9a0-452c-a125-bbbee3eb847e","ios":"levelo://app?vid=c5e46d82-d9a0-452c-a125-bbbee3eb847e"},"vehicle_type_id":"4","last_reported":1741172912,"current_range_meters":16800,"station_id":"ce4bhbp2rcd13ifvqerg","pricing_plan_id":"cebpf4jnsgd1na2vs0mg"},{"bike_id":"ef9d72fc-54ba-481d-841a-0433a295da7a","system_id":"levelo_inurba_marseille","lat":43.3251,"lon":5.36567,"is_reserved":false,"is_disabled":false,"rental_uris":{"android":"levelo://app?vid=ef9d72fc-54ba-481d-841a-0433a295da7a","ios":"levelo://app?vid=ef9d72fc-54ba-481d-841a-0433a295da7a"},"vehicle_type_id":"4","last_reported":1741172912,"current_range_meters":16800,"station_id":"ce4bhs12rcd13ifvqhvg","pricing_plan_id":"cebpf4jnsgd1na2vs0mg"},{"bike_id":"1cf7ca02-4b9c-4989-b1b2-898e1e1529fc","system_id":"levelo_inurba_marseille","lat":43.26041,"lon":5.37533,"is_reserved":false,"is_disabled":false,"rental_uris":{"android":"levelo://app?vid=1cf7ca02-4b9c-4989-b1b2-898e1e1529fc","ios":"levelo://app?vid=1cf7ca02-4b9c-4989-b1b2-898e1e1529fc"},"vehicle_type_id":"4","last_reported":1741172912,"current_range_meters":16800,"station_id":"ce4bhgh2rcd13ifvqfa0","pricing_plan_id":"cebpf4jnsgd1na2vs0mg"},{"bike_id":"ff61ebb7-75bb-48ec-8243-e25ff909af70","system_id":"levelo_inurba_marseille","lat":43.2905,"lon":5.35913,"is_reserved":false,"is_disabled":false,"rental_uris":{"android":"levelo://app?vid=ff61ebb7-75bb-48ec-8243-e25ff909af70","ios":"levelo://app?vid=ff61ebb7-75bb-48ec-8243-e25ff909af70"},"vehicle_type_id":"4","last_reported":1741172912,"current_range_meters":16800,"station_id":"ce4bha92rcd13ifvqeg0","pricing_plan_id":"cebpf4jnsgd1na2vs0mg"},{"bike_id":"6b0cb687-810f-4280-9d9e-1ba36e77b56b","system_id":"levelo_inurba_marseille","lat":43.26233,"lon":5.40472,"is_reserved":false,"is_disabled":false,"rental_uris":{"android":"levelo://app?vid=6b0cb687-810f-4280-9d9e-1ba36e77b56b","ios":"levelo://app?vid=6b0cb687-810f-4280-9d9e-1ba36e77b56b"},"vehicle_type_id":"4","last_reported":1741172912,"current_range_meters":16800,"station_id":"ce4bhmh2rcd13ifvqgmg","pricing_plan_id":"cebpf4jnsgd1na2vs0mg"},{"bike_id":"0bc0a25e-7f91-4bb0-ab62-829038147ad6","system_id":"levelo_inurba_marseille","lat":43.292023,"lon":5.393379,"is_reserved":false,"is_disabled":false,"rental_uris":{"android":"levelo://app?vid=0bc0a25e-7f91-4bb0-ab62-829038147ad6","ios":"levelo://app?vid=0bc0a25e-7f91-4bb0-ab62-829038147ad6"},"vehicle_type_id":"4","last_reported":1741172912,"current_range_meters":17200,"station_id":"ce4bhp92rcd13ifvqhag","pricing_plan_id":"cebpf4jnsgd1na2vs0mg"},{"bike_id":"e3f0cb0c-5d48-41d7-baa2-fa450a2a8975","system_id":"levelo_inurba_marseille","lat":43.3154,"lon":5.38026,"is_reserved":false,"is_disabled":false,"rental_uris":{"android":"levelo://app?vid=e3f0cb0c-5d48-41d7-baa2-fa450a2a8975","ios":"levelo://app?vid=e3f0cb0c-5d48-41d7-baa2-fa450a2a8975"},"vehicle_type_id":"4","last_reported":1741172912,"current_range_meters":17200,"station_id":"ce4bhsp2rcd13ifvqi50","pricing_plan_id":"cebpf4jnsgd1na2vs0mg"},{"bike_id":"4a7d6524-f4fa-4d69-a2e1-57846c17ec7a","system_id":"levelo_inurba_marseille","lat":43.30919,"lon":5.36844,"is_reserved":false,"is_disabled":false,"rental_uris":{"android":"levelo://app?vid=4a7d6524-f4fa-4d69-a2e1-57846c17ec7a","ios":"levelo://app?vid=4a7d6524-f4fa-4d69-a2e1-57846c17ec7a"},"vehicle_type_id":"4","last_reported":1741172912,"current_range_meters":17200,"station_id":"ce4bgn92rcd13ifvqbvg","pricing_plan_id":"cebpf4jnsgd1na2vs0mg"},{"bike_id":"48dd4a66-c4e0-4334-8dbe-e71a1ce9eb4d","system_id":"levelo_inurba_marseille","lat":43.28119,"lon":5.37806,"is_reserved":false,"is_disabled":false,"rental_uris":{"android":"levelo://app?vid=48dd4a66-c4e0-4334-8dbe-e71a1ce9eb4d","ios":"levelo://app?vid=48dd4a66-c4e0-4334-8dbe-e71a1ce9eb4d"},"vehicle_type_id":"4","last_reported":1741172912,"current_range_meters":17200,"station_id":"ce4bha12rcd13ifvqee0","pricing_plan_id":"cebpf4jnsgd1na2vs0mg"},{"bike_id":"d024dcd4-73fa-4814-abdf-d4aad24a6982","system_id":"levelo_inurba_marseille","lat":43.29531,"lon":5.37497,"is_reserved":false,"is_disabled":false,"rental_uris":{"android":"levelo://app?vid=d024dcd4-73fa-4814-abdf-d4aad24a6982","ios":"levelo://app?vid=d024dcd4-73fa-4814-abdf-d4aad24a6982"},"vehicle_type_id":"4","last_reported":1741172912,"current_range_meters":17200,"station_id":"ce4bgkp2rcd13ifvqbmg","pricing_plan_id":"cebpf4jnsgd1na2vs0mg"},{"bike_id":"764d29c0-acc6-4b3d-94e6-686cf2b240dc","system_id":"levelo_inurba_marseille","lat":43.24158,"lon":5.39682,"is_reserved":false,"is_disabled":false,"rental_uris":{"android":"levelo://app?vid=764d29c0-acc6-4b3d-94e6-686cf2b240dc","ios":"levelo://app?vid=764d29c0-acc6-4b3d-94e6-686cf2b240dc"},"vehicle_type_id":"4","last_reported":1741172912,"current_range_meters":17200,"station_id":"ce4bhn12rcd13ifvqgpg","pricing_plan_id":"cebpf4jnsgd1na2vs0mg"},{"bike_id":"9afcea09-b249-460c-be6a-74a807e23e9b","system_id":"levelo_inurba_marseille","lat":43.31357,"lon":5.36772,"is_reserved":false,"is_disabled":false,"rental_uris":{"android":"levelo://app?vid=9afcea09-b249-460c-be6a-74a807e23e9b","ios":"levelo://app?vid=9afcea09-b249-460c-be6a-74a807e23e9b"},"vehicle_type_id":"4","last_reported":1741172912,"current_range_meters":17200,"station_id":"","pricing_plan_id":"cebpf4jnsgd1na2vs0mg"},{"bike_id":"0aaf0375-6aa9-4a0d-9886-6f6290ea127b","system_id":"levelo_inurba_marseille","lat":43.27369,"lon":5.36253,"is_reserved":false,"is_disabled":false,"rental_uris":{"android":"levelo://app?vid=0aaf0375-6aa9-4a0d-9886-6f6290ea127b","ios":"levelo://app?vid=0aaf0375-6aa9-4a0d-9886-6f6290ea127b"},"vehicle_type_id":"4","last_reported":1741172912,"current_range_meters":17200,"station_id":"ce4bhbh2rcd13ifvqeo0","pricing_plan_id":"cebpf4jnsgd1na2vs0mg"},{"bike_id":"06eb1ef9-9d50-46be-bcb2-fcef7a8aac9d","system_id":"levelo_inurba_marseille","lat":43.30786,"lon":5.37643,"is_reserved":false,"is_disabled":false,"rental_uris":{"android":"levelo://app?vid=06eb1ef9-9d50-46be-bcb2-fcef7a8aac9d","ios":"levelo://app?vid=06eb1ef9-9d50-46be-bcb2-fcef7a8aac9d"},"vehicle_type_id":"4","last_reported":1741172912,"current_range_meters":16800,"station_id":"ce4bgv92rcd13ifvqcq0","pricing_plan_id":"cebpf4jnsgd1na2vs0mg"},{"bike_id":"88a97269-1519-4a4a-93dd-fbb36e8afec0","system_id":"levelo_inurba_marseille","lat":43.23133,"lon":5.43732,"is_reserved":false,"is_disabled":false,"rental_uris":{"android":"levelo://app?vid=88a97269-1519-4a4a-93dd-fbb36e8afec0","ios":"levelo://app?vid=88a97269-1519-4a4a-93dd-fbb36e8afec0"},"vehicle_type_id":"4","last_reported":1741172912,"current_range_meters":17600,"station_id":"ce4bhmp2rcd13ifvqgog","pricing_plan_id":"cebpf4jnsgd1na2vs0mg"},{"bike_id":"6cec2e52-fdfc-469d-94d8-4eec463914ba","system_id":"levelo_inurba_marseille","lat":43.32662,"lon":5.4099,"is_reserved":false,"is_disabled":false,"rental_uris":{"android":"levelo://app?vid=6cec2e52-fdfc-469d-94d8-4eec463914ba","ios":"levelo://app?vid=6cec2e52-fdfc-469d-94d8-4eec463914ba"},"vehicle_type_id":"4","last_reported":1741172912,"current_range_meters":17600,"station_id":"ce4bhpp2rcd13ifvqhgg","pricing_plan_id":"cebpf4jnsgd1na2vs0mg"},{"bike_id":"e1520afc-da0b-43ee-a947-bfc1425d9ac4","system_id":"levelo_inurba_marseille","lat":43.30276,"lon":5.37706,"is_reserved":false,"is_disabled":false,"rental_uris":{"android":"levelo://app?vid=e1520afc-da0b-43ee-a947-bfc1425d9ac4","ios":"levelo://app?vid=e1520afc-da0b-43ee-a947-bfc1425d9ac4"},"vehicle_type_id":"4","last_reported":1741172912,"current_range_meters":17600,"station_id":"ce4bguh2rcd13ifvqcj0","pricing_plan_id":"cebpf4jnsgd1na2vs0mg"},{"bike_id":"e5c73a43-22f8-4211-9a6a-94cff42387fd","system_id":"levelo_inurba_marseille","lat":43.26572,"lon":5.39015,"is_reserved":false,"is_disabled":false,"rental_uris":{"android":"levelo://app?vid=e5c73a43-22f8-4211-9a6a-94cff42387fd","ios":"levelo://app?vid=e5c73a43-22f8-4211-9a6a-94cff42387fd"},"vehicle_type_id":"4","last_reported":1741172912,"current_range_meters":17600,"station_id":"ce4bhe12rcd13ifvqf30","pricing_plan_id":"cebpf4jnsgd1na2vs0mg"},{"bike_id":"b863a2f4-f641-4949-99dd-66f56827638e","system_id":"levelo_inurba_marseille","lat":43.29603,"lon":5.36743,"is_reserved":false,"is_disabled":false,"rental_uris":{"android":"levelo://app?vid=b863a2f4-f641-4949-99dd-66f56827638e","ios":"levelo://app?vid=b863a2f4-f641-4949-99dd-66f56827638e"},"vehicle_type_id":"4","last_reported":1741172912,"current_range_meters":17600,"station_id":"ce4bgph2rcd13ifvqc2g","pricing_plan_id":"cebpf4jnsgd1na2vs0mg"},{"bike_id":"e59f0a27-a36c-4e04-8fcf-5835d0e6e7cc","system_id":"levelo_inurba_marseille","lat":43.28269,"lon":5.35079,"is_reserved":false,"is_disabled":false,"rental_uris":{"android":"levelo://app?vid=e59f0a27-a36c-4e04-8fcf-5835d0e6e7cc","ios":"levelo://app?vid=e59f0a27-a36c-4e04-8fcf-5835d0e6e7cc"},"vehicle_type_id":"4","last_reported":1741172912,"current_range_meters":17600,"station_id":"ce4bhbp2rcd13ifvqerg","pricing_plan_id":"cebpf4jnsgd1na2vs0mg"},{"bike_id":"0dc2cc29-4f33-4938-8206-48318aa545c9","system_id":"levelo_inurba_marseille","lat":43.27377,"lon":5.36257,"is_reserved":false,"is_disabled":false,"rental_uris":{"android":"levelo://app?vid=0dc2cc29-4f33-4938-8206-48318aa545c9","ios":"levelo://app?vid=0dc2cc29-4f33-4938-8206-48318aa545c9"},"vehicle_type_id":"4","last_reported":1741172912,"current_range_meters":17200,"station_id":"ce4bhbh2rcd13ifvqeo0","pricing_plan_id":"cebpf4jnsgd1na2vs0mg"},{"bike_id":"f06989cd-e375-4cbd-a1a9-e07a5d2bd418","system_id":"levelo_inurba_marseille","lat":43.23133,"lon":5.43717,"is_reserved":false,"is_disabled":false,"rental_uris":{"android":"levelo://app?vid=f06989cd-e375-4cbd-a1a9-e07a5d2bd418","ios":"levelo://app?vid=f06989cd-e375-4cbd-a1a9-e07a5d2bd418"},"vehicle_type_id":"4","last_reported":1741172912,"current_range_meters":18000,"station_id":"ce4bhmp2rcd13ifvqgog","pricing_plan_id":"cebpf4jnsgd1na2vs0mg"},{"bike_id":"e07b6a40-7a9a-4502-8dd6-b0c384b406c8","system_id":"levelo_inurba_marseille","lat":43.31078,"lon":5.38362,"is_reserved":false,"is_disabled":false,"rental_uris":{"android":"levelo://app?vid=e07b6a40-7a9a-4502-8dd6-b0c384b406c8","ios":"levelo://app?vid=e07b6a40-7a9a-4502-8dd6-b0c384b406c8"},"vehicle_type_id":"4","last_reported":1741172912,"current_range_meters":18000,"station_id":"ce4bgv92rcd13ifvqcr0","pricing_plan_id":"cebpf4jnsgd1na2vs0mg"},{"bike_id":"7345e6f4-6df6-4a9e-867f-e90c853c5911","system_id":"levelo_inurba_marseille","lat":43.30473,"lon":5.36531,"is_reserved":false,"is_disabled":false,"rental_uris":{"android":"levelo://app?vid=7345e6f4-6df6-4a9e-867f-e90c853c5911","ios":"levelo://app?vid=7345e6f4-6df6-4a9e-867f-e90c853c5911"},"vehicle_type_id":"4","last_reported":1741172912,"current_range_meters":18000,"station_id":"","pricing_plan_id":"cebpf4jnsgd1na2vs0mg"},{"bike_id":"8f14b1f2-8348-4ec1-bf51-9b745b8d048a","system_id":"levelo_inurba_marseille","lat":43.27496,"lon":5.42445,"is_reserved":false,"is_disabled":false,"rental_uris":{"android":"levelo://app?vid=8f14b1f2-8348-4ec1-bf51-9b745b8d048a","ios":"levelo://app?vid=8f14b1f2-8348-4ec1-bf51-9b745b8d048a"},"vehicle_type_id":"4","last_reported":1741172912,"current_range_meters":18000,"station_id":"ce4bhn92rcd13ifvqgrg","pricing_plan_id":"cebpf4jnsgd1na2vs0mg"},{"bike_id":"61631f3e-8349-4ca2-9e9f-bf291304017a","system_id":"levelo_inurba_marseille","lat":43.31284,"lon":5.36831,"is_reserved":false,"is_disabled":false,"rental_uris":{"android":"levelo://app?vid=61631f3e-8349-4ca2-9e9f-bf291304017a","ios":"levelo://app?vid=61631f3e-8349-4ca2-9e9f-bf291304017a"},"vehicle_type_id":"4","last_reported":1741172912,"current_range_meters":18000,"station_id":"ce4bgl92rcd13ifvqbq0","pricing_plan_id":"cebpf4jnsgd1na2vs0mg"},{"bike_id":"bc5fd4cc-0d22-4945-930b-87b91f85e15e","system_id":"levelo_inurba_marseille","lat":43.28272,"lon":5.35069,"is_reserved":false,"is_disabled":false,"rental_uris":{"android":"levelo://app?vid=bc5fd4cc-0d22-4945-930b-87b91f85e15e","ios":"levelo://app?vid=bc5fd4cc-0d22-4945-930b-87b91f85e15e"},"vehicle_type_id":"4","last_reported":1741172912,"current_range_meters":18000,"station_id":"ce4bhbp2rcd13ifvqerg","pricing_plan_id":"cebpf4jnsgd1na2vs0mg"},{"bike_id":"6ed2a979-d99e-4ecc-a958-2385e8d1423a","system_id":"levelo_inurba_marseille","lat":43.29301,"lon":5.37461,"is_reserved":false,"is_disabled":false,"rental_uris":{"android":"levelo://app?vid=6ed2a979-d99e-4ecc-a958-2385e8d1423a","ios":"levelo://app?vid=6ed2a979-d99e-4ecc-a958-2385e8d1423a"},"vehicle_type_id":"4","last_reported":1741172912,"current_range_meters":18800,"station_id":"ce4bgi12rcd13ifvqb70","pricing_plan_id":"cebpf4jnsgd1na2vs0mg"},{"bike_id":"39b4b816-f862-4ea2-a386-1e041c43ef29","system_id":"levelo_inurba_marseille","lat":43.2597,"lon":5.40882,"is_reserved":false,"is_disabled":false,"rental_uris":{"android":"levelo://app?vid=39b4b816-f862-4ea2-a386-1e041c43ef29","ios":"levelo://app?vid=39b4b816-f862-4ea2-a386-1e041c43ef29"},"vehicle_type_id":"4","last_reported":1741172912,"current_range_meters":18800,"station_id":"ce4bhm92rcd13ifvqglg","pricing_plan_id":"cebpf4jnsgd1na2vs0mg"},{"bike_id":"0dc2e92c-371e-45c3-aba2-e4f1e0cd051b","system_id":"levelo_inurba_marseille","lat":43.25928,"lon":5.40867,"is_reserved":false,"is_disabled":false,"rental_uris":{"android":"levelo://app?vid=0dc2e92c-371e-45c3-aba2-e4f1e0cd051b","ios":"levelo://app?vid=0dc2e92c-371e-45c3-aba2-e4f1e0cd051b"},"vehicle_type_id":"4","last_reported":1741172912,"current_range_meters":18800,"station_id":"ce4bhm92rcd13ifvqglg","pricing_plan_id":"cebpf4jnsgd1na2vs0mg"},{"bike_id":"c4494a12-4434-42b1-9e23-17fa59284679","system_id":"levelo_inurba_marseille","lat":43.305394,"lon":5.366956,"is_reserved":false,"is_disabled":false,"rental_uris":{"android":"levelo://app?vid=c4494a12-4434-42b1-9e23-17fa59284679","ios":"levelo://app?vid=c4494a12-4434-42b1-9e23-17fa59284679"},"vehicle_type_id":"4","last_reported":1741172912,"current_range_meters":18800,"station_id":"ce4bgrp2rcd13ifvqc9g","pricing_plan_id":"cebpf4jnsgd1na2vs0mg"},{"bike_id":"cdccb4a2-fea1-4418-b795-03652d688c89","system_id":"levelo_inurba_marseille","lat":43.32055,"lon":5.41541,"is_reserved":false,"is_disabled":false,"rental_uris":{"android":"levelo://app?vid=cdccb4a2-fea1-4418-b795-03652d688c89","ios":"levelo://app?vid=cdccb4a2-fea1-4418-b795-03652d688c89"},"vehicle_type_id":"4","last_reported":1741172912,"current_range_meters":18800,"station_id":"ce4bhq92rcd13ifvqhkg","pricing_plan_id":"cebpf4jnsgd1na2vs0mg"},{"bike_id":"bd5a009c-cc51-4a19-852c-189d1ff9748f","system_id":"levelo_inurba_marseille","lat":43.25932,"lon":5.40875,"is_reserved":false,"is_disabled":false,"rental_uris":{"android":"levelo://app?vid=bd5a009c-cc51-4a19-852c-189d1ff9748f","ios":"levelo://app?vid=bd5a009c-cc51-4a19-852c-189d1ff9748f"},"vehicle_type_id":"4","last_reported":1741172912,"current_range_meters":18800,"station_id":"ce4bhm92rcd13ifvqglg","pricing_plan_id":"cebpf4jnsgd1na2vs0mg"},{"bike_id":"d6023b6b-8278-41c6-89f0-3ed5e4288b59","system_id":"levelo_inurba_marseille","lat":43.30926,"lon":5.36856,"is_reserved":false,"is_disabled":false,"rental_uris":{"android":"levelo://app?vid=d6023b6b-8278-41c6-89f0-3ed5e4288b59","ios":"levelo://app?vid=d6023b6b-8278-41c6-89f0-3ed5e4288b59"},"vehicle_type_id":"4","last_reported":1741172912,"current_range_meters":18800,"station_id":"ce4bgn92rcd13ifvqbvg","pricing_plan_id":"cebpf4jnsgd1na2vs0mg"},{"bike_id":"31643a0f-b120-4714-86fe-29fd09fe5152","system_id":"levelo_inurba_marseille","lat":43.26568,"lon":5.3902,"is_reserved":false,"is_disabled":false,"rental_uris":{"android":"levelo://app?vid=31643a0f-b120-4714-86fe-29fd09fe5152","ios":"levelo://app?vid=31643a0f-b120-4714-86fe-29fd09fe5152"},"vehicle_type_id":"4","last_reported":1741172912,"current_range_meters":19200,"station_id":"ce4bhe12rcd13ifvqf30","pricing_plan_id":"cebpf4jnsgd1na2vs0mg"},{"bike_id":"52b19b0a-896e-4508-971e-9b8862ef11d0","system_id":"levelo_inurba_marseille","lat":43.2306,"lon":5.35498,"is_reserved":false,"is_disabled":false,"rental_uris":{"android":"levelo://app?vid=52b19b0a-896e-4508-971e-9b8862ef11d0","ios":"levelo://app?vid=52b19b0a-896e-4508-971e-9b8862ef11d0"},"vehicle_type_id":"4","last_reported":1741172912,"current_range_meters":19200,"station_id":"cpo3342slgdg3j2ifvpg","pricing_plan_id":"cebpf4jnsgd1na2vs0mg"},{"bike_id":"e7926fce-c1b1-4c65-a59d-12b145877898","system_id":"levelo_inurba_marseille","lat":43.23147,"lon":5.436,"is_reserved":false,"is_disabled":false,"rental_uris":{"android":"levelo://app?vid=e7926fce-c1b1-4c65-a59d-12b145877898","ios":"levelo://app?vid=e7926fce-c1b1-4c65-a59d-12b145877898"},"vehicle_type_id":"4","last_reported":1741172912,"current_range_meters":19200,"station_id":"","pricing_plan_id":"cebpf4jnsgd1na2vs0mg"},{"bike_id":"24b82526-1639-45aa-baec-34065dd21848","system_id":"levelo_inurba_marseille","lat":43.30893,"lon":5.37195,"is_reserved":false,"is_disabled":false,"rental_uris":{"android":"levelo://app?vid=24b82526-1639-45aa-baec-34065dd21848","ios":"levelo://app?vid=24b82526-1639-45aa-baec-34065dd21848"},"vehicle_type_id":"4","last_reported":1741172912,"current_range_meters":19200,"station_id":"ce4bguh2rcd13ifvqckg","pricing_plan_id":"cebpf4jnsgd1na2vs0mg"},{"bike_id":"f21d0f55-6868-42d8-9820-718a55389d2d","system_id":"levelo_inurba_marseille","lat":43.26782,"lon":5.39416,"is_reserved":false,"is_disabled":false,"rental_uris":{"android":"levelo://app?vid=f21d0f55-6868-42d8-9820-718a55389d2d","ios":"levelo://app?vid=f21d0f55-6868-42d8-9820-718a55389d2d"},"vehicle_type_id":"4","last_reported":1741172912,"current_range_meters":18000,"station_id":"ce4bhh12rcd13ifvqfg0","pricing_plan_id":"cebpf4jnsgd1na2vs0mg"},{"bike_id":"7d0a469a-f300-418f-845e-075fba38aabc","system_id":"levelo_inurba_marseille","lat":43.28466,"lon":5.35888,"is_reserved":false,"is_disabled":false,"rental_uris":{"android":"levelo://app?vid=7d0a469a-f300-418f-845e-075fba38aabc","ios":"levelo://app?vid=7d0a469a-f300-418f-845e-075fba38aabc"},"vehicle_type_id":"4","last_reported":1741172912,"current_range_meters":18800,"station_id":"ce4bhah2rcd13ifvqei0","pricing_plan_id":"cebpf4jnsgd1na2vs0mg"},{"bike_id":"9f29270e-e3e0-4f6c-9810-ffbd26af91a3","system_id":"levelo_inurba_marseille","lat":43.33615,"lon":5.41017,"is_reserved":false,"is_disabled":false,"rental_uris":{"android":"levelo://app?vid=9f29270e-e3e0-4f6c-9810-ffbd26af91a3","ios":"levelo://app?vid=9f29270e-e3e0-4f6c-9810-ffbd26af91a3"},"vehicle_type_id":"4","last_reported":1741172912,"current_range_meters":19600,"station_id":"ce4bhqh2rcd13ifvqhmg","pricing_plan_id":"cebpf4jnsgd1na2vs0mg"},{"bike_id":"88f790c7-c6c9-4883-872e-e49d73223d0d","system_id":"levelo_inurba_marseille","lat":43.27001,"lon":5.40951,"is_reserved":false,"is_disabled":false,"rental_uris":{"android":"levelo://app?vid=88f790c7-c6c9-4883-872e-e49d73223d0d","ios":"levelo://app?vid=88f790c7-c6c9-4883-872e-e49d73223d0d"},"vehicle_type_id":"4","last_reported":1741172912,"current_range_meters":19600,"station_id":"","pricing_plan_id":"cebpf4jnsgd1na2vs0mg"},{"bike_id":"7940066d-cd24-41b6-836e-1355fc2b9e03","system_id":"levelo_inurba_marseille","lat":43.23186,"lon":5.35518,"is_reserved":false,"is_disabled":false,"rental_uris":{"android":"levelo://app?vid=7940066d-cd24-41b6-836e-1355fc2b9e03","ios":"levelo://app?vid=7940066d-cd24-41b6-836e-1355fc2b9e03"},"vehicle_type_id":"4","last_reported":1741172912,"current_range_meters":19600,"station_id":"ce4bhu92rcd13ifvqi70","pricing_plan_id":"cebpf4jnsgd1na2vs0mg"},{"bike_id":"e3a3d938-7aaa-4111-841c-944dbd32d237","system_id":"levelo_inurba_marseille","lat":43.30428,"lon":5.39741,"is_reserved":false,"is_disabled":false,"rental_uris":{"android":"levelo://app?vid=e3a3d938-7aaa-4111-841c-944dbd32d237","ios":"levelo://app?vid=e3a3d938-7aaa-4111-841c-944dbd32d237"},"vehicle_type_id":"4","last_reported":1741172912,"current_range_meters":19600,"station_id":"ce4bh092rcd13ifvqd20","pricing_plan_id":"cebpf4jnsgd1na2vs0mg"},{"bike_id":"96043b7b-1194-42cd-a711-3704d24f97b4","system_id":"levelo_inurba_marseille","lat":43.23154,"lon":5.43712,"is_reserved":false,"is_disabled":false,"rental_uris":{"android":"levelo://app?vid=96043b7b-1194-42cd-a711-3704d24f97b4","ios":"levelo://app?vid=96043b7b-1194-42cd-a711-3704d24f97b4"},"vehicle_type_id":"4","last_reported":1741172912,"current_range_meters":19600,"station_id":"ce4bhmp2rcd13ifvqgog","pricing_plan_id":"cebpf4jnsgd1na2vs0mg"},{"bike_id":"7fc291e9-c5b7-4da5-a883-539036e975a9","system_id":"levelo_inurba_marseille","lat":43.23142,"lon":5.43698,"is_reserved":false,"is_disabled":false,"rental_uris":{"android":"levelo://app?vid=7fc291e9-c5b7-4da5-a883-539036e975a9","ios":"levelo://app?vid=7fc291e9-c5b7-4da5-a883-539036e975a9"},"vehicle_type_id":"4","last_reported":1741172912,"current_range_meters":19600,"station_id":"ce4bhmp2rcd13ifvqgog","pricing_plan_id":"cebpf4jnsgd1na2vs0mg"},{"bike_id":"5cffe3cf-93d2-4f38-b163-a14b394b0c9d","system_id":"levelo_inurba_marseille","lat":43.26939,"lon":5.40255,"is_reserved":false,"is_disabled":false,"rental_uris":{"android":"levelo://app?vid=5cffe3cf-93d2-4f38-b163-a14b394b0c9d","ios":"levelo://app?vid=5cffe3cf-93d2-4f38-b163-a14b394b0c9d"},"vehicle_type_id":"4","last_reported":1741172912,"current_range_meters":19200,"station_id":"cjm6bp8fraef2m0cb0m0","pricing_plan_id":"cebpf4jnsgd1na2vs0mg"},{"bike_id":"08168798-e346-4bae-8b25-fb2ccb95f67d","system_id":"levelo_inurba_marseille","lat":43.30147,"lon":5.37414,"is_reserved":false,"is_disabled":false,"rental_uris":{"android":"levelo://app?vid=08168798-e346-4bae-8b25-fb2ccb95f67d","ios":"levelo://app?vid=08168798-e346-4bae-8b25-fb2ccb95f67d"},"vehicle_type_id":"4","last_reported":1741172912,"current_range_meters":19200,"station_id":"ce4bgs92rcd13ifvqcc0","pricing_plan_id":"cebpf4jnsgd1na2vs0mg"},{"bike_id":"e27a9228-e903-4e81-8a75-8c3821165abe","system_id":"levelo_inurba_marseille","lat":43.28155,"lon":5.42649,"is_reserved":false,"is_disabled":false,"rental_uris":{"android":"levelo://app?vid=e27a9228-e903-4e81-8a75-8c3821165abe","ios":"levelo://app?vid=e27a9228-e903-4e81-8a75-8c3821165abe"},"vehicle_type_id":"4","last_reported":1741172912,"current_range_meters":19600,"station_id":"ce4bhnh2rcd13ifvqgug","pricing_plan_id":"cebpf4jnsgd1na2vs0mg"},{"bike_id":"7090348e-6aa7-4996-861b-b47a306fa84b","system_id":"levelo_inurba_marseille","lat":43.27187,"lon":5.40983,"is_reserved":false,"is_disabled":false,"rental_uris":{"android":"levelo://app?vid=7090348e-6aa7-4996-861b-b47a306fa84b","ios":"levelo://app?vid=7090348e-6aa7-4996-861b-b47a306fa84b"},"vehicle_type_id":"4","last_reported":1741172912,"current_range_meters":19200,"station_id":"ce4bhl12rcd13ifvqgf0","pricing_plan_id":"cebpf4jnsgd1na2vs0mg"},{"bike_id":"fd1cc631-3dce-44d0-8400-ae515369dc1f","system_id":"levelo_inurba_marseille","lat":43.25943,"lon":5.40909,"is_reserved":false,"is_disabled":false,"rental_uris":{"android":"levelo://app?vid=fd1cc631-3dce-44d0-8400-ae515369dc1f","ios":"levelo://app?vid=fd1cc631-3dce-44d0-8400-ae515369dc1f"},"vehicle_type_id":"4","last_reported":1741172912,"current_range_meters":20000,"station_id":"ce4bhm92rcd13ifvqglg","pricing_plan_id":"cebpf4jnsgd1na2vs0mg"},{"bike_id":"e896dc3a-b84d-49ee-8c0d-a289abcd52db","system_id":"levelo_inurba_marseille","lat":43.27301,"lon":5.39107,"is_reserved":false,"is_disabled":false,"rental_uris":{"android":"levelo://app?vid=e896dc3a-b84d-49ee-8c0d-a289abcd52db","ios":"levelo://app?vid=e896dc3a-b84d-49ee-8c0d-a289abcd52db"},"vehicle_type_id":"4","last_reported":1741172912,"current_range_meters":19600,"station_id":"ce4bhgp2rcd13ifvqfe0","pricing_plan_id":"cebpf4jnsgd1na2vs0mg"},{"bike_id":"a3938738-4023-4e72-84e8-e28a5d00a7bd","system_id":"levelo_inurba_marseille","lat":43.2549,"lon":5.37643,"is_reserved":false,"is_disabled":false,"rental_uris":{"android":"levelo://app?vid=a3938738-4023-4e72-84e8-e28a5d00a7bd","ios":"levelo://app?vid=a3938738-4023-4e72-84e8-e28a5d00a7bd"},"vehicle_type_id":"4","last_reported":1741172912,"current_range_meters":20000,"station_id":"ce4bhh12rcd13ifvqff0","pricing_plan_id":"cebpf4jnsgd1na2vs0mg"},{"bike_id":"4f3efc1e-6e54-4db1-8b9e-94bda6fce534","system_id":"levelo_inurba_marseille","lat":43.24544,"lon":5.39521,"is_reserved":false,"is_disabled":false,"rental_uris":{"android":"levelo://app?vid=4f3efc1e-6e54-4db1-8b9e-94bda6fce534","ios":"levelo://app?vid=4f3efc1e-6e54-4db1-8b9e-94bda6fce534"},"vehicle_type_id":"4","last_reported":1741172912,"current_range_meters":18800,"station_id":"ce4bhlp2rcd13ifvqgjg","pricing_plan_id":"cebpf4jnsgd1na2vs0mg"},{"bike_id":"f46fec90-7666-45e7-bc9e-4cf66077eea3","system_id":"levelo_inurba_marseille","lat":43.27213,"lon":5.3918,"is_reserved":false,"is_disabled":false,"rental_uris":{"android":"levelo://app?vid=f46fec90-7666-45e7-bc9e-4cf66077eea3","ios":"levelo://app?vid=f46fec90-7666-45e7-bc9e-4cf66077eea3"},"vehicle_type_id":"4","last_reported":1741172912,"current_range_meters":20400,"station_id":"ce4bhhp2rcd13ifvqfm0","pricing_plan_id":"cebpf4jnsgd1na2vs0mg"},{"bike_id":"c0e6cd28-c848-4db4-bec7-261aab49251d","system_id":"levelo_inurba_marseille","lat":43.23195,"lon":5.35553,"is_reserved":false,"is_disabled":false,"rental_uris":{"android":"levelo://app?vid=c0e6cd28-c848-4db4-bec7-261aab49251d","ios":"levelo://app?vid=c0e6cd28-c848-4db4-bec7-261aab49251d"},"vehicle_type_id":"4","last_reported":1741172912,"current_range_meters":20400,"station_id":"ce4bhu92rcd13ifvqi70","pricing_plan_id":"cebpf4jnsgd1na2vs0mg"},{"bike_id":"18df62d8-8796-4792-a0ff-c530baddde1e","system_id":"levelo_inurba_marseille","lat":43.24081,"lon":5.3775,"is_reserved":false,"is_disabled":false,"rental_uris":{"android":"levelo://app?vid=18df62d8-8796-4792-a0ff-c530baddde1e","ios":"levelo://app?vid=18df62d8-8796-4792-a0ff-c530baddde1e"},"vehicle_type_id":"4","last_reported":1741172912,"current_range_meters":20400,"station_id":"ce4bhnp2rcd13ifvqgvg","pricing_plan_id":"cebpf4jnsgd1na2vs0mg"},{"bike_id":"da985ea8-240c-49fb-b1e4-bfd283ab34a2","system_id":"levelo_inurba_marseille","lat":43.31271,"lon":5.40171,"is_reserved":false,"is_disabled":false,"rental_uris":{"android":"levelo://app?vid=da985ea8-240c-49fb-b1e4-bfd283ab34a2","ios":"levelo://app?vid=da985ea8-240c-49fb-b1e4-bfd283ab34a2"},"vehicle_type_id":"4","last_reported":1741172912,"current_range_meters":18800,"station_id":"ce4bh092rcd13ifvqd30","pricing_plan_id":"cebpf4jnsgd1na2vs0mg"},{"bike_id":"baaffc29-01b5-4446-a04e-fc3717df8f99","system_id":"levelo_inurba_marseille","lat":43.2816,"lon":5.42634,"is_reserved":false,"is_disabled":false,"rental_uris":{"android":"levelo://app?vid=baaffc29-01b5-4446-a04e-fc3717df8f99","ios":"levelo://app?vid=baaffc29-01b5-4446-a04e-fc3717df8f99"},"vehicle_type_id":"4","last_reported":1741172912,"current_range_meters":20400,"station_id":"ce4bhnh2rcd13ifvqgug","pricing_plan_id":"cebpf4jnsgd1na2vs0mg"},{"bike_id":"9b568c11-b4c7-496b-9f7e-f26b7592ef35","system_id":"levelo_inurba_marseille","lat":43.33607,"lon":5.41041,"is_reserved":false,"is_disabled":false,"rental_uris":{"android":"levelo://app?vid=9b568c11-b4c7-496b-9f7e-f26b7592ef35","ios":"levelo://app?vid=9b568c11-b4c7-496b-9f7e-f26b7592ef35"},"vehicle_type_id":"4","last_reported":1741172912,"current_range_meters":20400,"station_id":"ce4bhqh2rcd13ifvqhmg","pricing_plan_id":"cebpf4jnsgd1na2vs0mg"},{"bike_id":"33b56ff3-5998-418f-9a76-bd6f3530874e","system_id":"levelo_inurba_marseille","lat":43.23175,"lon":5.39988,"is_reserved":false,"is_disabled":false,"rental_uris":{"android":"levelo://app?vid=33b56ff3-5998-418f-9a76-bd6f3530874e","ios":"levelo://app?vid=33b56ff3-5998-418f-9a76-bd6f3530874e"},"vehicle_type_id":"4","last_reported":1741172912,"current_range_meters":20400,"station_id":"ce4bhn12rcd13ifvqgqg","pricing_plan_id":"cebpf4jnsgd1na2vs0mg"},{"bike_id":"bec5ffb3-6f2c-42af-8396-6a6cc132458c","system_id":"levelo_inurba_marseille","lat":43.29037,"lon":5.37559,"is_reserved":false,"is_disabled":false,"rental_uris":{"android":"levelo://app?vid=bec5ffb3-6f2c-42af-8396-6a6cc132458c","ios":"levelo://app?vid=bec5ffb3-6f2c-42af-8396-6a6cc132458c"},"vehicle_type_id":"4","last_reported":1741172912,"current_range_meters":20400,"station_id":"ce4bh692rcd13ifvqe90","pricing_plan_id":"cebpf4jnsgd1na2vs0mg"},{"bike_id":"4e75d6ad-937a-4796-82f7-b795199c4848","system_id":"levelo_inurba_marseille","lat":43.25878,"lon":5.39924,"is_reserved":false,"is_disabled":true,"rental_uris":{"android":"levelo://app?vid=4e75d6ad-937a-4796-82f7-b795199c4848","ios":"levelo://app?vid=4e75d6ad-937a-4796-82f7-b795199c4848"},"vehicle_type_id":"4","last_reported":1741172912,"current_range_meters":20800,"station_id":"ce4bhl92rcd13ifvqghg","pricing_plan_id":"cebpf4jnsgd1na2vs0mg"},{"bike_id":"e7bac5ce-6b7e-4619-a095-ec83a0cbcf16","system_id":"levelo_inurba_marseille","lat":43.26031,"lon":5.37547,"is_reserved":false,"is_disabled":false,"rental_uris":{"android":"levelo://app?vid=e7bac5ce-6b7e-4619-a095-ec83a0cbcf16","ios":"levelo://app?vid=e7bac5ce-6b7e-4619-a095-ec83a0cbcf16"},"vehicle_type_id":"4","last_reported":1741172912,"current_range_meters":20000,"station_id":"ce4bhgh2rcd13ifvqfa0","pricing_plan_id":"cebpf4jnsgd1na2vs0mg"},{"bike_id":"d076340a-f0ff-412f-881d-f3197c5f2d10","system_id":"levelo_inurba_marseille","lat":43.27202,"lon":5.39185,"is_reserved":false,"is_disabled":true,"rental_uris":{"android":"levelo://app?vid=d076340a-f0ff-412f-881d-f3197c5f2d10","ios":"levelo://app?vid=d076340a-f0ff-412f-881d-f3197c5f2d10"},"vehicle_type_id":"4","last_reported":1741172912,"current_range_meters":20800,"station_id":"ce4bhhp2rcd13ifvqfm0","pricing_plan_id":"cebpf4jnsgd1na2vs0mg"},{"bike_id":"967b5113-e4cd-4e01-9f7b-198e1a71fcd9","system_id":"levelo_inurba_marseille","lat":43.27992,"lon":5.41658,"is_reserved":false,"is_disabled":false,"rental_uris":{"android":"levelo://app?vid=967b5113-e4cd-4e01-9f7b-198e1a71fcd9","ios":"levelo://app?vid=967b5113-e4cd-4e01-9f7b-198e1a71fcd9"},