{"last_updated":1745939437,"ttl":60,"version":"2.2","data":{"bikes":[{"bike_id":"37c7fc01-fce7-4a5d-8306-e5beebfed4e5","system_id":"levelo_inurba_marseille","lat":43.29628,"lon":5.40589,"is_reserved":false,"is_disabled":false,"rental_uris":{"android":"levelo://app?vid=37c7fc01-fce7-4a5d-8306-e5beebfed4e5","ios":"levelo://app?vid=37c7fc01-fce7-4a5d-8306-e5beebfed4e5"},"vehicle_type_id":"4","last_reported":1745939438,"current_range_meters":2800,"station_id":"ce4bh0h2rcd13ifvqd60","pricing_plan_id":"cebpf4jnsgd1na2vs0mg"},{"bike_id":"fa6dd776-f82c-46df-8fe0-7a82a80d9a1a","system_id":"levelo_inurba_marseille","lat":43.25114,"lon":5.4032,"is_reserved":false,"is_disabled":false,"rental_uris":{"android":"levelo://app?vid=fa6dd776-f82c-46df-8fe0-7a82a80d9a1a","ios":"levelo://app?vid=fa6dd776-f82c-46df-8fe0-7a82a80d9a1a"},"vehicle_type_id":"4","last_reported":1745939438,"current_range_meters":3200,"station_id":"ce4bhlh2rcd13ifvqgig","pricing_plan_id":"cebpf4jnsgd1na2vs0mg"},{"bike_id":"a4c8a335-745b-4d95-97e0-7bac3cb18549","system_id":"levelo_inurba_marseille","lat":43.28118,"lon":5.39891,"is_reserved":false,"is_disabled":false,"rental_uris":{"android":"levelo://app?vid=a4c8a335-745b-4d95-97e0-7bac3cb18549","ios":"levelo://app?vid=a4c8a335-745b-4d95-97e0-7bac3cb18549"},"vehicle_type_id":"4","last_reported":1745939438,"current_range_meters":3200,"station_id":"","pricing_plan_id":"cebpf4jnsgd1na2vs0mg"},{"bike_id":"5661d853-c2ab-49d1-b2b0-dec6922e5b5d","system_id":"levelo_inurba_marseille","lat":43.23071,"lon":5.3549,"is_reserved":false,"is_disabled":false,"rental_uris":{"android":"levelo://app?vid=5661d853-c2ab-49d1-b2b0-dec6922e5b5d","ios":"levelo://app?vid=5661d853-c2ab-49d1-b2b0-dec6922e5b5d"},"vehicle_type_id":"4","last_reported":1745939438,"current_range_meters":4000,"station_id":"cpo3342slgdg3j2ifvpg","pricing_plan_id":"cebpf4jnsgd1na2vs0mg"},{"bike_id":"b1040775-cdbd-4461-a120-155006f740eb","system_id":"levelo_inurba_marseille","lat":43.21196,"lon":5.35071,"is_reserved":false,"is_disabled":false,"rental_uris":{"android":"levelo://app?vid=b1040775-cdbd-4461-a120-155006f740eb","ios":"levelo://app?vid=b1040775-cdbd-4461-a120-155006f740eb"},"vehicle_type_id":"4","last_reported":1745939438,"current_range_meters":4000,"station_id":"st_cvj6sg6p6f1abm77japg","pricing_plan_id":"cebpf4jnsgd1na2vs0mg"},{"bike_id":"b707c69f-add4-4336-99b4-5bb9a1ddb669","system_id":"levelo_inurba_marseille","lat":43.26499,"lon":5.39549,"is_reserved":false,"is_disabled":false,"rental_uris":{"android":"levelo://app?vid=b707c69f-add4-4336-99b4-5bb9a1ddb669","ios":"levelo://app?vid=b707c69f-add4-4336-99b4-5bb9a1ddb669"},"vehicle_type_id":"4","last_reported":1745939438,"current_range_meters":4000,"station_id":"ce4bhi12rcd13ifvqfq0","pricing_plan_id":"cebpf4jnsgd1na2vs0mg"},{"bike_id":"935207da-41f5-49b0-bbaf-460ac771c5ea","system_id":"levelo_inurba_marseille","lat":43.273712,"lon":5.362432,"is_reserved":false,"is_disabled":false,"rental_uris":{"android":"levelo://app?vid=935207da-41f5-49b0-bbaf-460ac771c5ea","ios":"levelo://app?vid=935207da-41f5-49b0-bbaf-460ac771c5ea"},"vehicle_type_id":"4","last_reported":1745939438,"current_range_meters":4000,"station_id":"ce4bhbh2rcd13ifvqeo0","pricing_plan_id":"cebpf4jnsgd1na2vs0mg"},{"bike_id":"716a6f71-9f37-4c69-b133-22230692d046","system_id":"levelo_inurba_marseille","lat":43.27222,"lon":5.39175,"is_reserved":false,"is_disabled":false,"rental_uris":{"android":"levelo://app?vid=716a6f71-9f37-4c69-b133-22230692d046","ios":"levelo://app?vid=716a6f71-9f37-4c69-b133-22230692d046"},"vehicle_type_id":"4","last_reported":1745939438,"current_range_meters":4000,"station_id":"ce4bhhp2rcd13ifvqfm0","pricing_plan_id":"cebpf4jnsgd1na2vs0mg"},{"bike_id":"2a30d6e7-6e52-45a8-834f-813dfc355524","system_id":"levelo_inurba_marseille","lat":43.305707,"lon":5.373305,"is_reserved":false,"is_disabled":false,"rental_uris":{"android":"levelo://app?vid=2a30d6e7-6e52-45a8-834f-813dfc355524","ios":"levelo://app?vid=2a30d6e7-6e52-45a8-834f-813dfc355524"},"vehicle_type_id":"4","last_reported":1745939438,"current_range_meters":4000,"station_id":"ce4bgqh2rcd13ifvqc4g","pricing_plan_id":"cebpf4jnsgd1na2vs0mg"},{"bike_id":"e8a9e3fb-0c36-4b43-a8e3-856d24db42de","system_id":"levelo_inurba_marseille","lat":43.30888,"lon":5.39643,"is_reserved":false,"is_disabled":false,"rental_uris":{"android":"levelo://app?vid=e8a9e3fb-0c36-4b43-a8e3-856d24db42de","ios":"levelo://app?vid=e8a9e3fb-0c36-4b43-a8e3-856d24db42de"},"vehicle_type_id":"4","last_reported":1745939438,"current_range_meters":4400,"station_id":"ce4bh012rcd13ifvqcv0","pricing_plan_id":"cebpf4jnsgd1na2vs0mg"},{"bike_id":"2607154a-de4a-49c9-b88f-070219f583c6","system_id":"levelo_inurba_marseille","lat":43.27377,"lon":5.36245,"is_reserved":false,"is_disabled":false,"rental_uris":{"android":"levelo://app?vid=2607154a-de4a-49c9-b88f-070219f583c6","ios":"levelo://app?vid=2607154a-de4a-49c9-b88f-070219f583c6"},"vehicle_type_id":"4","last_reported":1745939438,"current_range_meters":4400,"station_id":"ce4bhbh2rcd13ifvqeo0","pricing_plan_id":"cebpf4jnsgd1na2vs0mg"},{"bike_id":"10baf2db-d437-4273-978a-d40970cee559","system_id":"levelo_inurba_marseille","lat":43.27618,"lon":5.36103,"is_reserved":false,"is_disabled":false,"rental_uris":{"android":"levelo://app?vid=10baf2db-d437-4273-978a-d40970cee559","ios":"levelo://app?vid=10baf2db-d437-4273-978a-d40970cee559"},"vehicle_type_id":"4","last_reported":1745939438,"current_range_meters":4400,"station_id":"ce4bgj92rcd13ifvqbe0","pricing_plan_id":"cebpf4jnsgd1na2vs0mg"},{"bike_id":"26deac1f-c435-40bc-9469-9ae0b266bb77","system_id":"levelo_inurba_marseille","lat":43.302029,"lon":5.3844,"is_reserved":false,"is_disabled":false,"rental_uris":{"android":"levelo://app?vid=26deac1f-c435-40bc-9469-9ae0b266bb77","ios":"levelo://app?vid=26deac1f-c435-40bc-9469-9ae0b266bb77"},"vehicle_type_id":"4","last_reported":1745939438,"current_range_meters":4400,"station_id":"","pricing_plan_id":"cebpf4jnsgd1na2vs0mg"},{"bike_id":"44aaef12-5a17-4442-b7a0-52a1fdc31c87","system_id":"levelo_inurba_marseille","lat":43.30152,"lon":5.37413,"is_reserved":false,"is_disabled":false,"rental_uris":{"android":"levelo://app?vid=44aaef12-5a17-4442-b7a0-52a1fdc31c87","ios":"levelo://app?vid=44aaef12-5a17-4442-b7a0-52a1fdc31c87"},"vehicle_type_id":"4","last_reported":1745939438,"current_range_meters":3600,"station_id":"ce4bgs92rcd13ifvqcc0","pricing_plan_id":"cebpf4jnsgd1na2vs0mg"},{"bike_id":"eb233b8d-7bed-49ff-88df-87011e34be9f","system_id":"levelo_inurba_marseille","lat":43.30887,"lon":5.39649,"is_reserved":false,"is_disabled":false,"rental_uris":{"android":"levelo://app?vid=eb233b8d-7bed-49ff-88df-87011e34be9f","ios":"levelo://app?vid=eb233b8d-7bed-49ff-88df-87011e34be9f"},"vehicle_type_id":"4","last_reported":1745939438,"current_range_meters":4800,"station_id":"ce4bh012rcd13ifvqcv0","pricing_plan_id":"cebpf4jnsgd1na2vs0mg"},{"bike_id":"767c60c2-104b-4e7a-a6bc-8a04531f79e9","system_id":"levelo_inurba_marseille","lat":43.32548,"lon":5.4147,"is_reserved":false,"is_disabled":false,"rental_uris":{"android":"levelo://app?vid=767c60c2-104b-4e7a-a6bc-8a04531f79e9","ios":"levelo://app?vid=767c60c2-104b-4e7a-a6bc-8a04531f79e9"},"vehicle_type_id":"4","last_reported":1745939438,"current_range_meters":4800,"station_id":"ce4bhq12rcd13ifvqhhg","pricing_plan_id":"cebpf4jnsgd1na2vs0mg"},{"bike_id":"f486658c-6679-4e2a-9353-05e00f1c3878","system_id":"levelo_inurba_marseille","lat":43.29046,"lon":5.39942,"is_reserved":false,"is_disabled":false,"rental_uris":{"android":"levelo://app?vid=f486658c-6679-4e2a-9353-05e00f1c3878","ios":"levelo://app?vid=f486658c-6679-4e2a-9353-05e00f1c3878"},"vehicle_type_id":"4","last_reported":1745939438,"current_range_meters":6400,"station_id":"ce4bh392rcd13ifvqdm0","pricing_plan_id":"cebpf4jnsgd1na2vs0mg"},{"bike_id":"5e89e9af-c6d4-4af3-8197-03d05433315e","system_id":"levelo_inurba_marseille","lat":43.24545,"lon":5.39523,"is_reserved":false,"is_disabled":false,"rental_uris":{"android":"levelo://app?vid=5e89e9af-c6d4-4af3-8197-03d05433315e","ios":"levelo://app?vid=5e89e9af-c6d4-4af3-8197-03d05433315e"},"vehicle_type_id":"4","last_reported":1745939438,"current_range_meters":5600,"station_id":"ce4bhlp2rcd13ifvqgjg","pricing_plan_id":"cebpf4jnsgd1na2vs0mg"},{"bike_id":"5a9e7384-c6f3-46e3-afd4-07e76d42b9a1","system_id":"levelo_inurba_marseille","lat":43.2761,"lon":5.36118,"is_reserved":false,"is_disabled":false,"rental_uris":{"android":"levelo://app?vid=5a9e7384-c6f3-46e3-afd4-07e76d42b9a1","ios":"levelo://app?vid=5a9e7384-c6f3-46e3-afd4-07e76d42b9a1"},"vehicle_type_id":"4","last_reported":1745939438,"current_range_meters":5600,"station_id":"ce4bgj92rcd13ifvqbe0","pricing_plan_id":"cebpf4jnsgd1na2vs0mg"},{"bike_id":"af4f0c69-e62d-4155-b1d1-a67b45271ae1","system_id":"levelo_inurba_marseille","lat":43.2477,"lon":5.41164,"is_reserved":false,"is_disabled":false,"rental_uris":{"android":"levelo://app?vid=af4f0c69-e62d-4155-b1d1-a67b45271ae1","ios":"levelo://app?vid=af4f0c69-e62d-4155-b1d1-a67b45271ae1"},"vehicle_type_id":"4","last_reported":1745939438,"current_range_meters":6000,"station_id":"","pricing_plan_id":"cebpf4jnsgd1na2vs0mg"},{"bike_id":"110d42e0-e455-49c3-ba2f-a13b1f51573a","system_id":"levelo_inurba_marseille","lat":43.2965,"lon":5.41174,"is_reserved":false,"is_disabled":false,"rental_uris":{"android":"levelo://app?vid=110d42e0-e455-49c3-ba2f-a13b1f51573a","ios":"levelo://app?vid=110d42e0-e455-49c3-ba2f-a13b1f51573a"},"vehicle_type_id":"4","last_reported":1745939438,"current_range_meters":4400,"station_id":"","pricing_plan_id":"cebpf4jnsgd1na2vs0mg"},{"bike_id":"bf05d069-2ec5-4246-9d82-6d6f716d8264","system_id":"levelo_inurba_marseille","lat":43.24171,"lon":5.36389,"is_reserved":false,"is_disabled":false,"rental_uris":{"android":"levelo://app?vid=bf05d069-2ec5-4246-9d82-6d6f716d8264","ios":"levelo://app?vid=bf05d069-2ec5-4246-9d82-6d6f716d8264"},"vehicle_type_id":"4","last_reported":1745939438,"current_range_meters":6000,"station_id":"cpo36qri1sfpv3e86is0","pricing_plan_id":"cebpf4jnsgd1na2vs0mg"},{"bike_id":"f91803f0-bbd8-446e-9794-07b90f39d756","system_id":"levelo_inurba_marseille","lat":43.25828,"lon":5.39433,"is_reserved":false,"is_disabled":false,"rental_uris":{"android":"levelo://app?vid=f91803f0-bbd8-446e-9794-07b90f39d756","ios":"levelo://app?vid=f91803f0-bbd8-446e-9794-07b90f39d756"},"vehicle_type_id":"4","last_reported":1745939438,"current_range_meters":6000,"station_id":"ce4bhip2rcd13ifvqft0","pricing_plan_id":"cebpf4jnsgd1na2vs0mg"},{"bike_id":"5b7bfbe9-ca1f-436c-bd1d-5edc820441b4","system_id":"levelo_inurba_marseille","lat":43.262085,"lon":5.374405,"is_reserved":false,"is_disabled":false,"rental_uris":{"android":"levelo://app?vid=5b7bfbe9-ca1f-436c-bd1d-5edc820441b4","ios":"levelo://app?vid=5b7bfbe9-ca1f-436c-bd1d-5edc820441b4"},"vehicle_type_id":"4","last_reported":1745939438,"current_range_meters":6000,"station_id":"ce4bhgp2rcd13ifvqfc0","pricing_plan_id":"cebpf4jnsgd1na2vs0mg"},{"bike_id":"a927ad15-b129-4085-9072-8cc54f2c8cf2","system_id":"levelo_inurba_marseille","lat":43.321011,"lon":5.36778,"is_reserved":false,"is_disabled":false,"rental_uris":{"android":"levelo://app?vid=a927ad15-b129-4085-9072-8cc54f2c8cf2","ios":"levelo://app?vid=a927ad15-b129-4085-9072-8cc54f2c8cf2"},"vehicle_type_id":"4","last_reported":1745939438,"current_range_meters":6000,"station_id":"","pricing_plan_id":"cebpf4jnsgd1na2vs0mg"},{"bike_id":"bd6e644c-9303-4a58-b353-19e78c75ef6d","system_id":"levelo_inurba_marseille","lat":43.29426,"lon":5.38616,"is_reserved":false,"is_disabled":false,"rental_uris":{"android":"levelo://app?vid=bd6e644c-9303-4a58-b353-19e78c75ef6d","ios":"levelo://app?vid=bd6e644c-9303-4a58-b353-19e78c75ef6d"},"vehicle_type_id":"4","last_reported":1745939438,"current_range_meters":4800,"station_id":"ce4bh2h2rcd13ifvqdh0","pricing_plan_id":"cebpf4jnsgd1na2vs0mg"},{"bike_id":"c48b470d-d331-434e-94ae-4d44b05a6b8d","system_id":"levelo_inurba_marseille","lat":43.30132,"lon":5.38591,"is_reserved":false,"is_disabled":false,"rental_uris":{"android":"levelo://app?vid=c48b470d-d331-434e-94ae-4d44b05a6b8d","ios":"levelo://app?vid=c48b470d-d331-434e-94ae-4d44b05a6b8d"},"vehicle_type_id":"4","last_reported":1745939438,"current_range_meters":6400,"station_id":"","pricing_plan_id":"cebpf4jnsgd1na2vs0mg"},{"bike_id":"eb8337e6-8cfd-4713-8613-b59f7f5f2e32","system_id":"levelo_inurba_marseille","lat":43.255797,"lon":5.38238,"is_reserved":false,"is_disabled":false,"rental_uris":{"android":"levelo://app?vid=eb8337e6-8cfd-4713-8613-b59f7f5f2e32","ios":"levelo://app?vid=eb8337e6-8cfd-4713-8613-b59f7f5f2e32"},"vehicle_type_id":"4","last_reported":1745939438,"current_range_meters":6400,"station_id":"ce4bhih2rcd13ifvqfs0","pricing_plan_id":"cebpf4jnsgd1na2vs0mg"},{"bike_id":"669de8df-47b7-471d-ab94-96a6d55f8a1b","system_id":"levelo_inurba_marseille","lat":43.26504,"lon":5.39541,"is_reserved":false,"is_disabled":false,"rental_uris":{"android":"levelo://app?vid=669de8df-47b7-471d-ab94-96a6d55f8a1b","ios":"levelo://app?vid=669de8df-47b7-471d-ab94-96a6d55f8a1b"},"vehicle_type_id":"4","last_reported":1745939438,"current_range_meters":6400,"station_id":"ce4bhi12rcd13ifvqfq0","pricing_plan_id":"cebpf4jnsgd1na2vs0mg"},{"bike_id":"b3904e8e-3be8-4700-8616-25e4274c5318","system_id":"levelo_inurba_marseille","lat":43.29197,"lon":5.35799,"is_reserved":false,"is_disabled":true,"rental_uris":{"android":"levelo://app?vid=b3904e8e-3be8-4700-8616-25e4274c5318","ios":"levelo://app?vid=b3904e8e-3be8-4700-8616-25e4274c5318"},"vehicle_type_id":"4","last_reported":1745939438,"current_range_meters":6400,"station_id":"ce4bhb12rcd13ifvqel0","pricing_plan_id":"cebpf4jnsgd1na2vs0mg"},{"bike_id":"ef3fa524-dd70-4f58-8ffb-fb4c8102c2ca","system_id":"levelo_inurba_marseille","lat":43.32545,"lon":5.41464,"is_reserved":false,"is_disabled":false,"rental_uris":{"android":"levelo://app?vid=ef3fa524-dd70-4f58-8ffb-fb4c8102c2ca","ios":"levelo://app?vid=ef3fa524-dd70-4f58-8ffb-fb4c8102c2ca"},"vehicle_type_id":"4","last_reported":1745939438,"current_range_meters":6400,"station_id":"ce4bhq12rcd13ifvqhhg","pricing_plan_id":"cebpf4jnsgd1na2vs0mg"},{"bike_id":"a60a3c60-1b3a-4813-8839-4214a1bf60d8","system_id":"levelo_inurba_marseille","lat":43.29585,"lon":5.36739,"is_reserved":false,"is_disabled":false,"rental_uris":{"android":"levelo://app?vid=a60a3c60-1b3a-4813-8839-4214a1bf60d8","ios":"levelo://app?vid=a60a3c60-1b3a-4813-8839-4214a1bf60d8"},"vehicle_type_id":"4","last_reported":1745939438,"current_range_meters":6400,"station_id":"ce4bgph2rcd13ifvqc2g","pricing_plan_id":"cebpf4jnsgd1na2vs0mg"},{"bike_id":"b98dfd15-785b-40a1-bae6-f418e8a8e5c3","system_id":"levelo_inurba_marseille","lat":43.28417,"lon":5.3498,"is_reserved":false,"is_disabled":false,"rental_uris":{"android":"levelo://app?vid=b98dfd15-785b-40a1-bae6-f418e8a8e5c3","ios":"levelo://app?vid=b98dfd15-785b-40a1-bae6-f418e8a8e5c3"},"vehicle_type_id":"4","last_reported":1745939438,"current_range_meters":6400,"station_id":"ce4bhbh2rcd13ifvqepg","pricing_plan_id":"cebpf4jnsgd1na2vs0mg"},{"bike_id":"7d1d70d7-b1d1-4ee8-8f11-65760bbe497f","system_id":"levelo_inurba_marseille","lat":43.27379,"lon":5.36259,"is_reserved":false,"is_disabled":false,"rental_uris":{"android":"levelo://app?vid=7d1d70d7-b1d1-4ee8-8f11-65760bbe497f","ios":"levelo://app?vid=7d1d70d7-b1d1-4ee8-8f11-65760bbe497f"},"vehicle_type_id":"4","last_reported":1745939438,"current_range_meters":6800,"station_id":"ce4bhbh2rcd13ifvqeo0","pricing_plan_id":"cebpf4jnsgd1na2vs0mg"},{"bike_id":"862b929b-59b3-4279-bfef-b67f0f2a92db","system_id":"levelo_inurba_marseille","lat":43.26956,"lon":5.38638,"is_reserved":false,"is_disabled":false,"rental_uris":{"android":"levelo://app?vid=862b929b-59b3-4279-bfef-b67f0f2a92db","ios":"levelo://app?vid=862b929b-59b3-4279-bfef-b67f0f2a92db"},"vehicle_type_id":"4","last_reported":1745939438,"current_range_meters":6800,"station_id":"ce4bhh92rcd13ifvqfh0","pricing_plan_id":"cebpf4jnsgd1na2vs0mg"},{"bike_id":"06b9d8a1-cc18-4fda-a6e1-9f15898d47fe","system_id":"levelo_inurba_marseille","lat":43.24073,"lon":5.37694,"is_reserved":false,"is_disabled":false,"rental_uris":{"android":"levelo://app?vid=06b9d8a1-cc18-4fda-a6e1-9f15898d47fe","ios":"levelo://app?vid=06b9d8a1-cc18-4fda-a6e1-9f15898d47fe"},"vehicle_type_id":"4","last_reported":1745939438,"current_range_meters":6800,"station_id":"","pricing_plan_id":"cebpf4jnsgd1na2vs0mg"},{"bike_id":"2f7e4a41-6a1d-4c0a-ab91-1e74dabf0032","system_id":"levelo_inurba_marseille","lat":43.32298,"lon":5.38262,"is_reserved":false,"is_disabled":false,"rental_uris":{"android":"levelo://app?vid=2f7e4a41-6a1d-4c0a-ab91-1e74dabf0032","ios":"levelo://app?vid=2f7e4a41-6a1d-4c0a-ab91-1e74dabf0032"},"vehicle_type_id":"4","last_reported":1745939438,"current_range_meters":6800,"station_id":"ce4bhr12rcd13ifvqhqg","pricing_plan_id":"cebpf4jnsgd1na2vs0mg"},{"bike_id":"11beab31-c7c5-4dd2-a927-f48a7ff7bce4","system_id":"levelo_inurba_marseille","lat":43.32479,"lon":5.36592,"is_reserved":false,"is_disabled":false,"rental_uris":{"android":"levelo://app?vid=11beab31-c7c5-4dd2-a927-f48a7ff7bce4","ios":"levelo://app?vid=11beab31-c7c5-4dd2-a927-f48a7ff7bce4"},"vehicle_type_id":"4","last_reported":1745939438,"current_range_meters":7200,"station_id":"ce4bhs12rcd13ifvqhvg","pricing_plan_id":"cebpf4jnsgd1na2vs0mg"},{"bike_id":"daa9fbcb-da10-4e6c-b51c-3acd9525dd77","system_id":"levelo_inurba_marseille","lat":43.273743,"lon":5.362595,"is_reserved":false,"is_disabled":false,"rental_uris":{"android":"levelo://app?vid=daa9fbcb-da10-4e6c-b51c-3acd9525dd77","ios":"levelo://app?vid=daa9fbcb-da10-4e6c-b51c-3acd9525dd77"},"vehicle_type_id":"4","last_reported":1745939438,"current_range_meters":7200,"station_id":"ce4bhbh2rcd13ifvqeo0","pricing_plan_id":"cebpf4jnsgd1na2vs0mg"},{"bike_id":"b76afebf-546c-49b2-be2b-f7c938b60f5f","system_id":"levelo_inurba_marseille","lat":43.26206,"lon":5.37453,"is_reserved":false,"is_disabled":false,"rental_uris":{"android":"levelo://app?vid=b76afebf-546c-49b2-be2b-f7c938b60f5f","ios":"levelo://app?vid=b76afebf-546c-49b2-be2b-f7c938b60f5f"},"vehicle_type_id":"4","last_reported":1745939438,"current_range_meters":7200,"station_id":"ce4bhgp2rcd13ifvqfc0","pricing_plan_id":"cebpf4jnsgd1na2vs0mg"},{"bike_id":"6123c5c4-1e14-4045-b4ff-b578448293cb","system_id":"levelo_inurba_marseille","lat":43.29037,"lon":5.37566,"is_reserved":false,"is_disabled":false,"rental_uris":{"android":"levelo://app?vid=6123c5c4-1e14-4045-b4ff-b578448293cb","ios":"levelo://app?vid=6123c5c4-1e14-4045-b4ff-b578448293cb"},"vehicle_type_id":"4","last_reported":1745939438,"current_range_meters":6800,"station_id":"ce4bh692rcd13ifvqe90","pricing_plan_id":"cebpf4jnsgd1na2vs0mg"},{"bike_id":"4b52c573-05e9-47be-be05-7ab975c643a5","system_id":"levelo_inurba_marseille","lat":43.23064,"lon":5.35488,"is_reserved":false,"is_disabled":false,"rental_uris":{"android":"levelo://app?vid=4b52c573-05e9-47be-be05-7ab975c643a5","ios":"levelo://app?vid=4b52c573-05e9-47be-be05-7ab975c643a5"},"vehicle_type_id":"4","last_reported":1745939438,"current_range_meters":7200,"station_id":"cpo3342slgdg3j2ifvpg","pricing_plan_id":"cebpf4jnsgd1na2vs0mg"},{"bike_id":"ddfa4dad-dca7-48d1-b460-95d767bf418e","system_id":"levelo_inurba_marseille","lat":43.30146,"lon":5.38751,"is_reserved":false,"is_disabled":false,"rental_uris":{"android":"levelo://app?vid=ddfa4dad-dca7-48d1-b460-95d767bf418e","ios":"levelo://app?vid=ddfa4dad-dca7-48d1-b460-95d767bf418e"},"vehicle_type_id":"4","last_reported":1745939438,"current_range_meters":8000,"station_id":"ce4bghh2rcd13ifvqb60","pricing_plan_id":"cebpf4jnsgd1na2vs0mg"},{"bike_id":"93251e01-5f28-43f9-bfe6-eb0f94bfc421","system_id":"levelo_inurba_marseille","lat":43.29289,"lon":5.37486,"is_reserved":false,"is_disabled":false,"rental_uris":{"android":"levelo://app?vid=93251e01-5f28-43f9-bfe6-eb0f94bfc421","ios":"levelo://app?vid=93251e01-5f28-43f9-bfe6-eb0f94bfc421"},"vehicle_type_id":"4","last_reported":1745939438,"current_range_meters":6800,"station_id":"ce4bgi12rcd13ifvqb70","pricing_plan_id":"cebpf4jnsgd1na2vs0mg"},{"bike_id":"786292e2-47c0-41be-b6c6-89e6e95a41d8","system_id":"levelo_inurba_marseille","lat":43.27951,"lon":5.41048,"is_reserved":false,"is_disabled":false,"rental_uris":{"android":"levelo://app?vid=786292e2-47c0-41be-b6c6-89e6e95a41d8","ios":"levelo://app?vid=786292e2-47c0-41be-b6c6-89e6e95a41d8"},"vehicle_type_id":"4","last_reported":1745939438,"current_range_meters":8000,"station_id":"ce4bhnp2rcd13ifvqh0g","pricing_plan_id":"cebpf4jnsgd1na2vs0mg"},{"bike_id":"45a12d81-38a8-418d-8909-9622e837ef3e","system_id":"levelo_inurba_marseille","lat":43.29918,"lon":5.38139,"is_reserved":false,"is_disabled":false,"rental_uris":{"android":"levelo://app?vid=45a12d81-38a8-418d-8909-9622e837ef3e","ios":"levelo://app?vid=45a12d81-38a8-418d-8909-9622e837ef3e"},"vehicle_type_id":"4","last_reported":1745939438,"current_range_meters":8400,"station_id":"ce4bgj12rcd13ifvqbc0","pricing_plan_id":"cebpf4jnsgd1na2vs0mg"},{"bike_id":"a29c8c7c-91d1-46ef-967b-7829006b22a5","system_id":"levelo_inurba_marseille","lat":43.27379,"lon":5.36258,"is_reserved":false,"is_disabled":false,"rental_uris":{"android":"levelo://app?vid=a29c8c7c-91d1-46ef-967b-7829006b22a5","ios":"levelo://app?vid=a29c8c7c-91d1-46ef-967b-7829006b22a5"},"vehicle_type_id":"4","last_reported":1745939438,"current_range_meters":8400,"station_id":"ce4bhbh2rcd13ifvqeo0","pricing_plan_id":"cebpf4jnsgd1na2vs0mg"},{"bike_id":"8663b10c-1e24-428c-bec4-66fabeba84de","system_id":"levelo_inurba_marseille","lat":43.28472,"lon":5.35852,"is_reserved":false,"is_disabled":false,"rental_uris":{"android":"levelo://app?vid=8663b10c-1e24-428c-bec4-66fabeba84de","ios":"levelo://app?vid=8663b10c-1e24-428c-bec4-66fabeba84de"},"vehicle_type_id":"4","last_reported":1745939438,"current_range_meters":8800,"station_id":"","pricing_plan_id":"cebpf4jnsgd1na2vs0mg"},{"bike_id":"82202e6d-0630-4f0e-8042-9617c3e81e2f","system_id":"levelo_inurba_marseille","lat":43.28616,"lon":5.35108,"is_reserved":false,"is_disabled":false,"rental_uris":{"android":"levelo://app?vid=82202e6d-0630-4f0e-8042-9617c3e81e2f","ios":"levelo://app?vid=82202e6d-0630-4f0e-8042-9617c3e81e2f"},"vehicle_type_id":"4","last_reported":1745939438,"current_range_meters":8400,"station_id":"ce4bhch2rcd13ifvqeug","pricing_plan_id":"cebpf4jnsgd1na2vs0mg"},{"bike_id":"e5b4b90d-e268-4de2-98f4-f6d0513f8801","system_id":"levelo_inurba_marseille","lat":43.26569,"lon":5.42186,"is_reserved":false,"is_disabled":false,"rental_uris":{"android":"levelo://app?vid=e5b4b90d-e268-4de2-98f4-f6d0513f8801","ios":"levelo://app?vid=e5b4b90d-e268-4de2-98f4-f6d0513f8801"},"vehicle_type_id":"4","last_reported":1745939438,"current_range_meters":8400,"station_id":"","pricing_plan_id":"cebpf4jnsgd1na2vs0mg"},{"bike_id":"7a28935e-7dd3-4cb0-8455-a6d9e62144b0","system_id":"levelo_inurba_marseille","lat":43.30885,"lon":5.37193,"is_reserved":false,"is_disabled":false,"rental_uris":{"android":"levelo://app?vid=7a28935e-7dd3-4cb0-8455-a6d9e62144b0","ios":"levelo://app?vid=7a28935e-7dd3-4cb0-8455-a6d9e62144b0"},"vehicle_type_id":"4","last_reported":1745939438,"current_range_meters":8400,"station_id":"ce4bguh2rcd13ifvqckg","pricing_plan_id":"cebpf4jnsgd1na2vs0mg"},{"bike_id":"fd0b60e0-a6f2-449e-8ae4-790e16e53f7b","system_id":"levelo_inurba_marseille","lat":43.28618,"lon":5.35107,"is_reserved":false,"is_disabled":false,"rental_uris":{"android":"levelo://app?vid=fd0b60e0-a6f2-449e-8ae4-790e16e53f7b","ios":"levelo://app?vid=fd0b60e0-a6f2-449e-8ae4-790e16e53f7b"},"vehicle_type_id":"4","last_reported":1745939438,"current_range_meters":8400,"station_id":"ce4bhch2rcd13ifvqeug","pricing_plan_id":"cebpf4jnsgd1na2vs0mg"},{"bike_id":"9d0ad739-fc33-4bbb-acd8-5f56d0e38c8a","system_id":"levelo_inurba_marseille","lat":43.2481,"lon":5.37462,"is_reserved":false,"is_disabled":false,"rental_uris":{"android":"levelo://app?vid=9d0ad739-fc33-4bbb-acd8-5f56d0e38c8a","ios":"levelo://app?vid=9d0ad739-fc33-4bbb-acd8-5f56d0e38c8a"},"vehicle_type_id":"4","last_reported":1745939438,"current_range_meters":8000,"station_id":"ce4bhgh2rcd13ifvqfb0","pricing_plan_id":"cebpf4jnsgd1na2vs0mg"},{"bike_id":"caed5f97-be76-48b8-b287-1698477aa67c","system_id":"levelo_inurba_marseille","lat":43.29039,"lon":5.37541,"is_reserved":false,"is_disabled":false,"rental_uris":{"android":"levelo://app?vid=caed5f97-be76-48b8-b287-1698477aa67c","ios":"levelo://app?vid=caed5f97-be76-48b8-b287-1698477aa67c"},"vehicle_type_id":"4","last_reported":1745939438,"current_range_meters":8800,"station_id":"ce4bh692rcd13ifvqe90","pricing_plan_id":"cebpf4jnsgd1na2vs0mg"},{"bike_id":"81f9c1c3-ccd2-4957-8a83-41b1def00392","system_id":"levelo_inurba_marseille","lat":43.287231,"lon":5.360826,"is_reserved":false,"is_disabled":false,"rental_uris":{"android":"levelo://app?vid=81f9c1c3-ccd2-4957-8a83-41b1def00392","ios":"levelo://app?vid=81f9c1c3-ccd2-4957-8a83-41b1def00392"},"vehicle_type_id":"4","last_reported":1745939438,"current_range_meters":8800,"station_id":"cki0cbj6b192h4jlfktg","pricing_plan_id":"cebpf4jnsgd1na2vs0mg"},{"bike_id":"8e1767fb-0588-473b-9b1a-887853c93c04","system_id":"levelo_inurba_marseille","lat":43.26555,"lon":5.37283,"is_reserved":false,"is_disabled":false,"rental_uris":{"android":"levelo://app?vid=8e1767fb-0588-473b-9b1a-887853c93c04","ios":"levelo://app?vid=8e1767fb-0588-473b-9b1a-887853c93c04"},"vehicle_type_id":"4","last_reported":1745939438,"current_range_meters":8800,"station_id":"ce4bhg12rcd13ifvqf70","pricing_plan_id":"cebpf4jnsgd1na2vs0mg"},{"bike_id":"9830ffbf-8059-40c0-8be0-b226b6661fe2","system_id":"levelo_inurba_marseille","lat":43.26209,"lon":5.37454,"is_reserved":false,"is_disabled":false,"rental_uris":{"android":"levelo://app?vid=9830ffbf-8059-40c0-8be0-b226b6661fe2","ios":"levelo://app?vid=9830ffbf-8059-40c0-8be0-b226b6661fe2"},"vehicle_type_id":"4","last_reported":1745939438,"current_range_meters":9200,"station_id":"ce4bhgp2rcd13ifvqfc0","pricing_plan_id":"cebpf4jnsgd1na2vs0mg"},{"bike_id":"216fa090-f0ac-46fb-b926-1047d4c52e81","system_id":"levelo_inurba_marseille","lat":43.321414,"lon":5.382926,"is_reserved":false,"is_disabled":false,"rental_uris":{"android":"levelo://app?vid=216fa090-f0ac-46fb-b926-1047d4c52e81","ios":"levelo://app?vid=216fa090-f0ac-46fb-b926-1047d4c52e81"},"vehicle_type_id":"4","last_reported":1745939438,"current_range_meters":9200,"station_id":"ce4bhr12rcd13ifvqhqg","pricing_plan_id":"cebpf4jnsgd1na2vs0mg"},{"bike_id":"4927fbe5-fb7c-46b9-aca1-1ddda635737a","system_id":"levelo_inurba_marseille","lat":43.24647,"lon":5.38891,"is_reserved":false,"is_disabled":false,"rental_uris":{"android":"levelo://app?vid=4927fbe5-fb7c-46b9-aca1-1ddda635737a","ios":"levelo://app?vid=4927fbe5-fb7c-46b9-aca1-1ddda635737a"},"vehicle_type_id":"4","last_reported":1745939438,"current_range_meters":9600,"station_id":"ce4bhg12rcd13ifvqf60","pricing_plan_id":"cebpf4jnsgd1na2vs0mg"},{"bike_id":"f36096b5-26dd-4ce4-9556-d4e44efa0ffc","system_id":"levelo_inurba_marseille","lat":43.27072,"lon":5.42277,"is_reserved":false,"is_disabled":false,"rental_uris":{"android":"levelo://app?vid=f36096b5-26dd-4ce4-9556-d4e44efa0ffc","ios":"levelo://app?vid=f36096b5-26dd-4ce4-9556-d4e44efa0ffc"},"vehicle_type_id":"4","last_reported":1745939438,"current_range_meters":9600,"station_id":"ce4bhk92rcd13ifvqgb0","pricing_plan_id":"cebpf4jnsgd1na2vs0mg"},{"bike_id":"c115ad31-fb08-442b-9219-c0a13f9b706a","system_id":"levelo_inurba_marseille","lat":43.28954,"lon":5.37868,"is_reserved":false,"is_disabled":false,"rental_uris":{"android":"levelo://app?vid=c115ad31-fb08-442b-9219-c0a13f9b706a","ios":"levelo://app?vid=c115ad31-fb08-442b-9219-c0a13f9b706a"},"vehicle_type_id":"4","last_reported":1745939438,"current_range_meters":9200,"station_id":"ce4bh9p2rcd13ifvqed0","pricing_plan_id":"cebpf4jnsgd1na2vs0mg"},{"bike_id":"4583f0d8-357a-4c93-9b15-344cab2995ad","system_id":"levelo_inurba_marseille","lat":43.29787,"lon":5.37123,"is_reserved":false,"is_disabled":false,"rental_uris":{"android":"levelo://app?vid=4583f0d8-357a-4c93-9b15-344cab2995ad","ios":"levelo://app?vid=4583f0d8-357a-4c93-9b15-344cab2995ad"},"vehicle_type_id":"4","last_reported":1745939438,"current_range_meters":9600,"station_id":"ce4bgop2rcd13ifvqc1g","pricing_plan_id":"cebpf4jnsgd1na2vs0mg"},{"bike_id":"d04734c6-5a6a-4855-9a9a-ca7a9797da22","system_id":"levelo_inurba_marseille","lat":43.31764,"lon":5.3902,"is_reserved":false,"is_disabled":false,"rental_uris":{"android":"levelo://app?vid=d04734c6-5a6a-4855-9a9a-ca7a9797da22","ios":"levelo://app?vid=d04734c6-5a6a-4855-9a9a-ca7a9797da22"},"vehicle_type_id":"4","last_reported":1745939438,"current_range_meters":9600,"station_id":"ce4bhqp2rcd13ifvqhng","pricing_plan_id":"cebpf4jnsgd1na2vs0mg"},{"bike_id":"89a213b2-0751-44ce-a450-227c1f964c29","system_id":"levelo_inurba_marseille","lat":43.31366,"lon":5.38489,"is_reserved":false,"is_disabled":false,"rental_uris":{"android":"levelo://app?vid=89a213b2-0751-44ce-a450-227c1f964c29","ios":"levelo://app?vid=89a213b2-0751-44ce-a450-227c1f964c29"},"vehicle_type_id":"4","last_reported":1745939438,"current_range_meters":9200,"station_id":"ce4bgt92rcd13ifvqcf0","pricing_plan_id":"cebpf4jnsgd1na2vs0mg"},{"bike_id":"28894e81-ede6-4351-84e3-e6b48081a345","system_id":"levelo_inurba_marseille","lat":43.33447,"lon":5.40045,"is_reserved":false,"is_disabled":false,"rental_uris":{"android":"levelo://app?vid=28894e81-ede6-4351-84e3-e6b48081a345","ios":"levelo://app?vid=28894e81-ede6-4351-84e3-e6b48081a345"},"vehicle_type_id":"4","last_reported":1745939438,"current_range_meters":10000,"station_id":"","pricing_plan_id":"cebpf4jnsgd1na2vs0mg"},{"bike_id":"b24d099b-c213-4d0e-8bed-0a6b1553f715","system_id":"levelo_inurba_marseille","lat":43.32489,"lon":5.36578,"is_reserved":false,"is_disabled":false,"rental_uris":{"android":"levelo://app?vid=b24d099b-c213-4d0e-8bed-0a6b1553f715","ios":"levelo://app?vid=b24d099b-c213-4d0e-8bed-0a6b1553f715"},"vehicle_type_id":"4","last_reported":1745939438,"current_range_meters":10000,"station_id":"ce4bhs12rcd13ifvqhvg","pricing_plan_id":"cebpf4jnsgd1na2vs0mg"},{"bike_id":"ada76a0d-a18c-4682-b6ad-0105f5731f0e","system_id":"levelo_inurba_marseille","lat":43.23967,"lon":5.36626,"is_reserved":false,"is_disabled":false,"rental_uris":{"android":"levelo://app?vid=ada76a0d-a18c-4682-b6ad-0105f5731f0e","ios":"levelo://app?vid=ada76a0d-a18c-4682-b6ad-0105f5731f0e"},"vehicle_type_id":"4","last_reported":1745939438,"current_range_meters":10000,"station_id":"ce4bhi12rcd13ifvqfp0","pricing_plan_id":"cebpf4jnsgd1na2vs0mg"},{"bike_id":"5836a6ba-325a-41e2-92c0-3359d340dd3d","system_id":"levelo_inurba_marseille","lat":43.29197,"lon":5.35797,"is_reserved":false,"is_disabled":true,"rental_uris":{"android":"levelo://app?vid=5836a6ba-325a-41e2-92c0-3359d340dd3d","ios":"levelo://app?vid=5836a6ba-325a-41e2-92c0-3359d340dd3d"},"vehicle_type_id":"4","last_reported":1745939438,"current_range_meters":10000,"station_id":"ce4bhb12rcd13ifvqel0","pricing_plan_id":"cebpf4jnsgd1na2vs0mg"},{"bike_id":"a89bce23-a8c6-4e74-94c8-70b2f6dcb958","system_id":"levelo_inurba_marseille","lat":43.26216,"lon":5.37441,"is_reserved":false,"is_disabled":false,"rental_uris":{"android":"levelo://app?vid=a89bce23-a8c6-4e74-94c8-70b2f6dcb958","ios":"levelo://app?vid=a89bce23-a8c6-4e74-94c8-70b2f6dcb958"},"vehicle_type_id":"4","last_reported":1745939438,"current_range_meters":10000,"station_id":"ce4bhgp2rcd13ifvqfc0","pricing_plan_id":"cebpf4jnsgd1na2vs0mg"},{"bike_id":"36609c8f-1883-467c-9698-c5700ae0aab2","system_id":"levelo_inurba_marseille","lat":43.27375,"lon":5.36258,"is_reserved":false,"is_disabled":false,"rental_uris":{"android":"levelo://app?vid=36609c8f-1883-467c-9698-c5700ae0aab2","ios":"levelo://app?vid=36609c8f-1883-467c-9698-c5700ae0aab2"},"vehicle_type_id":"4","last_reported":1745939438,"current_range_meters":10000,"station_id":"ce4bhbh2rcd13ifvqeo0","pricing_plan_id":"cebpf4jnsgd1na2vs0mg"},{"bike_id":"15e21529-6419-422f-8ae8-a321bdc6c0f5","system_id":"levelo_inurba_marseille","lat":43.26215,"lon":5.37446,"is_reserved":false,"is_disabled":false,"rental_uris":{"android":"levelo://app?vid=15e21529-6419-422f-8ae8-a321bdc6c0f5","ios":"levelo://app?vid=15e21529-6419-422f-8ae8-a321bdc6c0f5"},"vehicle_type_id":"4","last_reported":1745939438,"current_range_meters":10000,"station_id":"ce4bhgp2rcd13ifvqfc0","pricing_plan_id":"cebpf4jnsgd1na2vs0mg"},{"bike_id":"7a1cdc63-e2fa-4ca7-9690-53d3edb768f1","system_id":"levelo_inurba_marseille","lat":43.29522,"lon":5.39396,"is_reserved":false,"is_disabled":false,"rental_uris":{"android":"levelo://app?vid=7a1cdc63-e2fa-4ca7-9690-53d3edb768f1","ios":"levelo://app?vid=7a1cdc63-e2fa-4ca7-9690-53d3edb768f1"},"vehicle_type_id":"4","last_reported":1745939438,"current_range_meters":10000,"station_id":"ce4bh292rcd13ifvqdf0","pricing_plan_id":"cebpf4jnsgd1na2vs0mg"},{"bike_id":"0c3026f9-92b9-415a-927c-6137e985645e","system_id":"levelo_inurba_marseille","lat":43.25499,"lon":5.37648,"is_reserved":false,"is_disabled":false,"rental_uris":{"android":"levelo://app?vid=0c3026f9-92b9-415a-927c-6137e985645e","ios":"levelo://app?vid=0c3026f9-92b9-415a-927c-6137e985645e"},"vehicle_type_id":"4","last_reported":1745939438,"current_range_meters":10000,"station_id":"ce4bhh12rcd13ifvqff0","pricing_plan_id":"cebpf4jnsgd1na2vs0mg"},{"bike_id":"36961c4c-0917-4b16-895d-e001a72b5b1c","system_id":"levelo_inurba_marseille","lat":43.24393,"lon":5.37053,"is_reserved":false,"is_disabled":false,"rental_uris":{"android":"levelo://app?vid=36961c4c-0917-4b16-895d-e001a72b5b1c","ios":"levelo://app?vid=36961c4c-0917-4b16-895d-e001a72b5b1c"},"vehicle_type_id":"4","last_reported":1745939438,"current_range_meters":10800,"station_id":"ce4bhhh2rcd13ifvqfk0","pricing_plan_id":"cebpf4jnsgd1na2vs0mg"},{"bike_id":"1e2125e8-1ef7-4c96-ae95-711f7965b412","system_id":"levelo_inurba_marseille","lat":43.2862,"lon":5.35098,"is_reserved":false,"is_disabled":false,"rental_uris":{"android":"levelo://app?vid=1e2125e8-1ef7-4c96-ae95-711f7965b412","ios":"levelo://app?vid=1e2125e8-1ef7-4c96-ae95-711f7965b412"},"vehicle_type_id":"4","last_reported":1745939438,"current_range_meters":10800,"station_id":"ce4bhch2rcd13ifvqeug","pricing_plan_id":"cebpf4jnsgd1na2vs0mg"},{"bike_id":"2be81853-e8ea-4d98-ac15-431a8897fa92","system_id":"levelo_inurba_marseille","lat":43.24164,"lon":5.36397,"is_reserved":false,"is_disabled":false,"rental_uris":{"android":"levelo://app?vid=2be81853-e8ea-4d98-ac15-431a8897fa92","ios":"levelo://app?vid=2be81853-e8ea-4d98-ac15-431a8897fa92"},"vehicle_type_id":"4","last_reported":1745939438,"current_range_meters":10800,"station_id":"cpo36qri1sfpv3e86is0","pricing_plan_id":"cebpf4jnsgd1na2vs0mg"},{"bike_id":"b13f9913-27dd-4197-ba83-0d6b671b36d4","system_id":"levelo_inurba_marseille","lat":43.32467,"lon":5.36625,"is_reserved":false,"is_disabled":false,"rental_uris":{"android":"levelo://app?vid=b13f9913-27dd-4197-ba83-0d6b671b36d4","ios":"levelo://app?vid=b13f9913-27dd-4197-ba83-0d6b671b36d4"},"vehicle_type_id":"4","last_reported":1745939438,"current_range_meters":10800,"station_id":"","pricing_plan_id":"cebpf4jnsgd1na2vs0mg"},{"bike_id":"f6afadf8-e6ff-4c7a-8692-5caf68fd0b71","system_id":"levelo_inurba_marseille","lat":43.229274,"lon":5.353727,"is_reserved":false,"is_disabled":true,"rental_uris":{"android":"levelo://app?vid=f6afadf8-e6ff-4c7a-8692-5caf68fd0b71","ios":"levelo://app?vid=f6afadf8-e6ff-4c7a-8692-5caf68fd0b71"},"vehicle_type_id":"4","last_reported":1745939438,"current_range_meters":10800,"station_id":"cpo3532slgdg3j2ikp40","pricing_plan_id":"cebpf4jnsgd1na2vs0mg"},{"bike_id":"b116a4d7-babe-485e-9540-c0107c127931","system_id":"levelo_inurba_marseille","lat":43.29262,"lon":5.3762,"is_reserved":false,"is_disabled":false,"rental_uris":{"android":"levelo://app?vid=b116a4d7-babe-485e-9540-c0107c127931","ios":"levelo://app?vid=b116a4d7-babe-485e-9540-c0107c127931"},"vehicle_type_id":"4","last_reported":1745939438,"current_range_meters":10800,"station_id":"ce4bgi12rcd13ifvqb80","pricing_plan_id":"cebpf4jnsgd1na2vs0mg"},{"bike_id":"3fb6c137-f48b-49e7-bcfa-3f6fab443e90","system_id":"levelo_inurba_marseille","lat":43.29976,"lon":5.38491,"is_reserved":false,"is_disabled":false,"rental_uris":{"android":"levelo://app?vid=3fb6c137-f48b-49e7-bcfa-3f6fab443e90","ios":"levelo://app?vid=3fb6c137-f48b-49e7-bcfa-3f6fab443e90"},"vehicle_type_id":"4","last_reported":1745939438,"current_range_meters":10800,"station_id":"ce4bgj92rcd13ifvqbd0","pricing_plan_id":"cebpf4jnsgd1na2vs0mg"},{"bike_id":"8ad407ae-f97c-4f42-97ad-f1c826dc47d3","system_id":"levelo_inurba_marseille","lat":43.23156,"lon":5.4372,"is_reserved":false,"is_disabled":false,"rental_uris":{"android":"levelo://app?vid=8ad407ae-f97c-4f42-97ad-f1c826dc47d3","ios":"levelo://app?vid=8ad407ae-f97c-4f42-97ad-f1c826dc47d3"},"vehicle_type_id":"4","last_reported":1745939438,"current_range_meters":11200,"station_id":"ce4bhmp2rcd13ifvqgog","pricing_plan_id":"cebpf4jnsgd1na2vs0mg"},{"bike_id":"780cce11-83a8-412b-9ac5-56a550403116","system_id":"levelo_inurba_marseille","lat":43.26557,"lon":5.37286,"is_reserved":false,"is_disabled":false,"rental_uris":{"android":"levelo://app?vid=780cce11-83a8-412b-9ac5-56a550403116","ios":"levelo://app?vid=780cce11-83a8-412b-9ac5-56a550403116"},"vehicle_type_id":"4","last_reported":1745939438,"current_range_meters":11200,"station_id":"ce4bhg12rcd13ifvqf70","pricing_plan_id":"cebpf4jnsgd1na2vs0mg"},{"bike_id":"3a81cd2e-1e1a-45c0-99d1-9fab4b2081d3","system_id":"levelo_inurba_marseille","lat":43.24663,"lon":5.38925,"is_reserved":false,"is_disabled":false,"rental_uris":{"android":"levelo://app?vid=3a81cd2e-1e1a-45c0-99d1-9fab4b2081d3","ios":"levelo://app?vid=3a81cd2e-1e1a-45c0-99d1-9fab4b2081d3"},"vehicle_type_id":"4","last_reported":1745939438,"current_range_meters":10800,"station_id":"ce4bhg12rcd13ifvqf60","pricing_plan_id":"cebpf4jnsgd1na2vs0mg"},{"bike_id":"72eb2882-4154-4c8c-bd8a-3c6d42601eb6","system_id":"levelo_inurba_marseille","lat":43.289636,"lon":5.399968,"is_reserved":false,"is_disabled":false,"rental_uris":{"android":"levelo://app?vid=72eb2882-4154-4c8c-bd8a-3c6d42601eb6","ios":"levelo://app?vid=72eb2882-4154-4c8c-bd8a-3c6d42601eb6"},"vehicle_type_id":"4","last_reported":1745939438,"current_range_meters":10800,"station_id":"ce4bho92rcd13ifvqh3g","pricing_plan_id":"cebpf4jnsgd1na2vs0mg"},{"bike_id":"a4e908cc-ce4b-4ed0-9d8d-022b2dd7de70","system_id":"levelo_inurba_marseille","lat":43.22927,"lon":5.35405,"is_reserved":false,"is_disabled":false,"rental_uris":{"android":"levelo://app?vid=a4e908cc-ce4b-4ed0-9d8d-022b2dd7de70","ios":"levelo://app?vid=a4e908cc-ce4b-4ed0-9d8d-022b2dd7de70"},"vehicle_type_id":"4","last_reported":1745939438,"current_range_meters":11200,"station_id":"cpo3532slgdg3j2ikp40","pricing_plan_id":"cebpf4jnsgd1na2vs0mg"},{"bike_id":"308a0858-7782-4816-8962-95080a2043e4","system_id":"levelo_inurba_marseille","lat":43.284068,"lon":5.375122,"is_reserved":false,"is_disabled":false,"rental_uris":{"android":"levelo://app?vid=308a0858-7782-4816-8962-95080a2043e4","ios":"levelo://app?vid=308a0858-7782-4816-8962-95080a2043e4"},"vehicle_type_id":"4","last_reported":1745939438,"current_range_meters":11200,"station_id":"ce4bh412rcd13ifvqds0","pricing_plan_id":"cebpf4jnsgd1na2vs0mg"},{"bike_id":"53354a16-cb44-4575-8bec-0e84713acd01","system_id":"levelo_inurba_marseille","lat":43.28107,"lon":5.37835,"is_reserved":false,"is_disabled":false,"rental_uris":{"android":"levelo://app?vid=53354a16-cb44-4575-8bec-0e84713acd01","ios":"levelo://app?vid=53354a16-cb44-4575-8bec-0e84713acd01"},"vehicle_type_id":"4","last_reported":1745939438,"current_range_meters":11600,"station_id":"ce4bha12rcd13ifvqee0","pricing_plan_id":"cebpf4jnsgd1na2vs0mg"},{"bike_id":"ddab8bf9-8a41-488c-8cae-66f00d723146","system_id":"levelo_inurba_marseille","lat":43.29869,"lon":5.39739,"is_reserved":false,"is_disabled":false,"rental_uris":{"android":"levelo://app?vid=ddab8bf9-8a41-488c-8cae-66f00d723146","ios":"levelo://app?vid=ddab8bf9-8a41-488c-8cae-66f00d723146"},"vehicle_type_id":"4","last_reported":1745939438,"current_range_meters":12000,"station_id":"ce4bh0h2rcd13ifvqd50","pricing_plan_id":"cebpf4jnsgd1na2vs0mg"},{"bike_id":"d5d5aca6-f06b-45b6-b88e-ea4d9696a691","system_id":"levelo_inurba_marseille","lat":43.281054,"lon":5.378281,"is_reserved":false,"is_disabled":false,"rental_uris":{"android":"levelo://app?vid=d5d5aca6-f06b-45b6-b88e-ea4d9696a691","ios":"levelo://app?vid=d5d5aca6-f06b-45b6-b88e-ea4d9696a691"},"vehicle_type_id":"4","last_reported":1745939438,"current_range_meters":12000,"station_id":"ce4bha12rcd13ifvqee0","pricing_plan_id":"cebpf4jnsgd1na2vs0mg"},{"bike_id":"4b49f04b-a54a-444f-a078-a07b0278c3dc","system_id":"levelo_inurba_marseille","lat":43.28272,"lon":5.35056,"is_reserved":false,"is_disabled":false,"rental_uris":{"android":"levelo://app?vid=4b49f04b-a54a-444f-a078-a07b0278c3dc","ios":"levelo://app?vid=4b49f04b-a54a-444f-a078-a07b0278c3dc"},"vehicle_type_id":"4","last_reported":1745939438,"current_range_meters":12000,"station_id":"ce4bhbp2rcd13ifvqerg","pricing_plan_id":"cebpf4jnsgd1na2vs0mg"},{"bike_id":"a299c2a5-2ef4-4120-9c76-0707816c5247","system_id":"levelo_inurba_marseille","lat":43.28265,"lon":5.35077,"is_reserved":false,"is_disabled":false,"rental_uris":{"android":"levelo://app?vid=a299c2a5-2ef4-4120-9c76-0707816c5247","ios":"levelo://app?vid=a299c2a5-2ef4-4120-9c76-0707816c5247"},"vehicle_type_id":"4","last_reported":1745939438,"current_range_meters":12000,"station_id":"ce4bhbp2rcd13ifvqerg","pricing_plan_id":"cebpf4jnsgd1na2vs0mg"},{"bike_id":"b4c6cca8-2e10-4fc8-a0ad-ad89366af1a1","system_id":"levelo_inurba_marseille","lat":43.23076,"lon":5.35502,"is_reserved":false,"is_disabled":false,"rental_uris":{"android":"levelo://app?vid=b4c6cca8-2e10-4fc8-a0ad-ad89366af1a1","ios":"levelo://app?vid=b4c6cca8-2e10-4fc8-a0ad-ad89366af1a1"},"vehicle_type_id":"4","last_reported":1745939438,"current_range_meters":12000,"station_id":"cpo3342slgdg3j2ifvpg","pricing_plan_id":"cebpf4jnsgd1na2vs0mg"},{"bike_id":"340527a2-0f35-4a44-8a0b-05d17dfe443d","system_id":"levelo_inurba_marseille","lat":43.30775,"lon":5.36786,"is_reserved":false,"is_disabled":false,"rental_uris":{"android":"levelo://app?vid=340527a2-0f35-4a44-8a0b-05d17dfe443d","ios":"levelo://app?vid=340527a2-0f35-4a44-8a0b-05d17dfe443d"},"vehicle_type_id":"4","last_reported":1745939438,"current_range_meters":12000,"station_id":"","pricing_plan_id":"cebpf4jnsgd1na2vs0mg"},{"bike_id":"454771c8-4b5e-42ba-8e63-770323505f8a","system_id":"levelo_inurba_marseille","lat":43.27916,"lon":5.39576,"is_reserved":false,"is_disabled":false,"rental_uris":{"android":"levelo://app?vid=454771c8-4b5e-42ba-8e63-770323505f8a","ios":"levelo://app?vid=454771c8-4b5e-42ba-8e63-770323505f8a"},"vehicle_type_id":"4","last_reported":1745939438,"current_range_meters":12000,"station_id":"ce4bhf92rcd13ifvqf40","pricing_plan_id":"cebpf4jnsgd1na2vs0mg"},{"bike_id":"0a6e69ee-d2f2-47c2-9294-da937f8a3c6e","system_id":"levelo_inurba_marseille","lat":43.23965,"lon":5.36628,"is_reserved":false,"is_disabled":false,"rental_uris":{"android":"levelo://app?vid=0a6e69ee-d2f2-47c2-9294-da937f8a3c6e","ios":"levelo://app?vid=0a6e69ee-d2f2-47c2-9294-da937f8a3c6e"},"vehicle_type_id":"4","last_reported":1745939438,"current_range_meters":12000,"station_id":"ce4bhi12rcd13ifvqfp0","pricing_plan_id":"cebpf4jnsgd1na2vs0mg"},{"bike_id":"54588ea7-d9b8-4be7-a5c1-9b1755e61b84","system_id":"levelo_inurba_marseille","lat":43.28364,"lon":5.381,"is_reserved":false,"is_disabled":false,"rental_uris":{"android":"levelo://app?vid=54588ea7-d9b8-4be7-a5c1-9b1755e61b84","ios":"levelo://app?vid=54588ea7-d9b8-4be7-a5c1-9b1755e61b84"},"vehicle_type_id":"4","last_reported":1745939438,"current_range_meters":12400,"station_id":"ce4bh412rcd13ifvqdr0","pricing_plan_id":"cebpf4jnsgd1na2vs0mg"},{"bike_id":"77c59250-8359-4942-8c07-a9c82964e824","system_id":"levelo_inurba_marseille","lat":43.28469,"lon":5.35893,"is_reserved":false,"is_disabled":true,"rental_uris":{"android":"levelo://app?vid=77c59250-8359-4942-8c07-a9c82964e824","ios":"levelo://app?vid=77c59250-8359-4942-8c07-a9c82964e824"},"vehicle_type_id":"4","last_reported":1745939438,"current_range_meters":12400,"station_id":"ce4bhah2rcd13ifvqei0","pricing_plan_id":"cebpf4jnsgd1na2vs0mg"},{"bike_id":"a1ad0b11-fe5c-47fe-adf9-07fef8e45298","system_id":"levelo_inurba_marseille","lat":43.27612,"lon":5.3614,"is_reserved":false,"is_disabled":false,"rental_uris":{"android":"levelo://app?vid=a1ad0b11-fe5c-47fe-adf9-07fef8e45298","ios":"levelo://app?vid=a1ad0b11-fe5c-47fe-adf9-07fef8e45298"},"vehicle_type_id":"4","last_reported":1745939438,"current_range_meters":12400,"station_id":"ce4bgj92rcd13ifvqbe0","pricing_plan_id":"cebpf4jnsgd1na2vs0mg"},{"bike_id":"726f15c7-21f6-46be-a1a9-b8aec4db26f9","system_id":"levelo_inurba_marseille","lat":43.25581,"lon":5.38235,"is_reserved":false,"is_disabled":false,"rental_uris":{"android":"levelo://app?vid=726f15c7-21f6-46be-a1a9-b8aec4db26f9","ios":"levelo://app?vid=726f15c7-21f6-46be-a1a9-b8aec4db26f9"},"vehicle_type_id":"4","last_reported":1745939438,"current_range_meters":12400,"station_id":"ce4bhih2rcd13ifvqfs0","pricing_plan_id":"cebpf4jnsgd1na2vs0mg"},{"bike_id":"520293c9-4b69-41fc-9022-d13c1df06614","system_id":"levelo_inurba_marseille","lat":43.29571,"lon":5.39969,"is_reserved":false,"is_disabled":false,"rental_uris":{"android":"levelo://app?vid=520293c9-4b69-41fc-9022-d13c1df06614","ios":"levelo://app?vid=520293c9-4b69-41fc-9022-d13c1df06614"},"vehicle_type_id":"4","last_reported":1745939438,"current_range_meters":14000,"station_id":"ce4bh312rcd13ifvqdj0","pricing_plan_id":"cebpf4jnsgd1na2vs0mg"},{"bike_id":"32b45f93-aadb-4674-8647-91a5128d3d9c","system_id":"levelo_inurba_marseille","lat":43.262,"lon":5.37932,"is_reserved":false,"is_disabled":false,"rental_uris":{"android":"levelo://app?vid=32b45f93-aadb-4674-8647-91a5128d3d9c","ios":"levelo://app?vid=32b45f93-aadb-4674-8647-91a5128d3d9c"},"vehicle_type_id":"4","last_reported":1745939438,"current_range_meters":12800,"station_id":"ce4bhjp2rcd13ifvqg90","pricing_plan_id":"cebpf4jnsgd1na2vs0mg"},{"bike_id":"a7b4f882-d40b-42c7-a1a5-d4b708976dc3","system_id":"levelo_inurba_marseille","lat":43.288793,"lon":5.353921,"is_reserved":false,"is_disabled":false,"rental_uris":{"android":"levelo://app?vid=a7b4f882-d40b-42c7-a1a5-d4b708976dc3","ios":"levelo://app?vid=a7b4f882-d40b-42c7-a1a5-d4b708976dc3"},"vehicle_type_id":"4","last_reported":1745939438,"current_range_meters":12800,"station_id":"ce4bhch2rcd13ifvqeug","pricing_plan_id":"cebpf4jnsgd1na2vs0mg"},{"bike_id":"853260e8-24d5-4f25-adbc-bb937e85dd33","system_id":"levelo_inurba_marseille","lat":43.30785,"lon":5.43521,"is_reserved":false,"is_disabled":false,"rental_uris":{"android":"levelo://app?vid=853260e8-24d5-4f25-adbc-bb937e85dd33","ios":"levelo://app?vid=853260e8-24d5-4f25-adbc-bb937e85dd33"},"vehicle_type_id":"4","last_reported":1745939438,"current_range_meters":2800,"station_id":"ce4bhph2rcd13ifvqheg","pricing_plan_id":"cebpf4jnsgd1na2vs0mg"},{"bike_id":"489415b8-9254-45c1-b00c-e7554d56755c","system_id":"levelo_inurba_marseille","lat":43.245215,"lon":5.412156,"is_reserved":false,"is_disabled":false,"rental_uris":{"android":"levelo://app?vid=489415b8-9254-45c1-b00c-e7554d56755c","ios":"levelo://app?vid=489415b8-9254-45c1-b00c-e7554d56755c"},"vehicle_type_id":"4","last_reported":1745939438,"current_range_meters":13600,"station_id":"","pricing_plan_id":"cebpf4jnsgd1na2vs0mg"},{"bike_id":"af45288a-96a0-449e-b171-78d953ba8c27","system_id":"levelo_inurba_marseille","lat":43.30892,"lon":5.39662,"is_reserved":false,"is_disabled":false,"rental_uris":{"android":"levelo://app?vid=af45288a-96a0-449e-b171-78d953ba8c27","ios":"levelo://app?vid=af45288a-96a0-449e-b171-78d953ba8c27"},"vehicle_type_id":"4","last_reported":1745939438,"current_range_meters":13600,"station_id":"ce4bh012rcd13ifvqcv0","pricing_plan_id":"cebpf4jnsgd1na2vs0mg"},{"bike_id":"2d303286-1748-405f-b5c7-c9d6c2ec111c","system_id":"levelo_inurba_marseille","lat":43.24409,"lon":5.37101,"is_reserved":false,"is_disabled":false,"rental_uris":{"android":"levelo://app?vid=2d303286-1748-405f-b5c7-c9d6c2ec111c","ios":"levelo://app?vid=2d303286-1748-405f-b5c7-c9d6c2ec111c"},"vehicle_type_id":"4","last_reported":1745939438,"current_range_meters":13600,"station_id":"ce4bhhh2rcd13ifvqfk0","pricing_plan_id":"cebpf4jnsgd1na2vs0mg"},{"bike_id":"e27c9434-7cad-426a-accf-7de8131c5123","system_id":"levelo_inurba_marseille","lat":43.286171,"lon":5.351017,"is_reserved":false,"is_disabled":false,"rental_uris":{"android":"levelo://app?vid=e27c9434-7cad-426a-accf-7de8131c5123","ios":"levelo://app?vid=e27c9434-7cad-426a-accf-7de8131c5123"},"vehicle_type_id":"4","last_reported":1745939438,"current_range_meters":13600,"station_id":"ce4bhch2rcd13ifvqeug","pricing_plan_id":"cebpf4jnsgd1na2vs0mg"},{"bike_id":"4bed7454-68f1-4ae2-8a0e-37691f7ee3a3","system_id":"levelo_inurba_marseille","lat":43.30541,"lon":5.3843,"is_reserved":false,"is_disabled":false,"rental_uris":{"android":"levelo://app?vid=4bed7454-68f1-4ae2-8a0e-37691f7ee3a3","ios":"levelo://app?vid=4bed7454-68f1-4ae2-8a0e-37691f7ee3a3"},"vehicle_type_id":"4","last_reported":1745939438,"current_range_meters":13600,"station_id":"ce4bgg92rcd13ifvqb30","pricing_plan_id":"cebpf4jnsgd1na2vs0mg"},{"bike_id":"32e3bfed-e918-45ce-ae18-d121d0ed4e0f","system_id":"levelo_inurba_marseille","lat":43.29182,"lon":5.35808,"is_reserved":false,"is_disabled":false,"rental_uris":{"android":"levelo://app?vid=32e3bfed-e918-45ce-ae18-d121d0ed4e0f","ios":"levelo://app?vid=32e3bfed-e918-45ce-ae18-d121d0ed4e0f"},"vehicle_type_id":"4","last_reported":1745939438,"current_range_meters":13600,"station_id":"ce4bhb12rcd13ifvqel0","pricing_plan_id":"cebpf4jnsgd1na2vs0mg"},{"bike_id":"071a671b-fb53-468b-ba8f-96ef79b57233","system_id":"levelo_inurba_marseille","lat":43.32353,"lon":5.36752,"is_reserved":false,"is_disabled":false,"rental_uris":{"android":"levelo://app?vid=071a671b-fb53-468b-ba8f-96ef79b57233","ios":"levelo://app?vid=071a671b-fb53-468b-ba8f-96ef79b57233"},"vehicle_type_id":"4","last_reported":1745939438,"current_range_meters":14000,"station_id":"ce4bhsh2rcd13ifvqi2g","pricing_plan_id":"cebpf4jnsgd1na2vs0mg"},{"bike_id":"f06eddb5-c89b-4844-b56c-b5be4d7474e7","system_id":"levelo_inurba_marseille","lat":43.27908,"lon":5.38023,"is_reserved":false,"is_disabled":false,"rental_uris":{"android":"levelo://app?vid=f06eddb5-c89b-4844-b56c-b5be4d7474e7","ios":"levelo://app?vid=f06eddb5-c89b-4844-b56c-b5be4d7474e7"},"vehicle_type_id":"4","last_reported":1745939438,"current_range_meters":13600,"station_id":"ce4bhf92rcd13ifvqf50","pricing_plan_id":"cebpf4jnsgd1na2vs0mg"},{"bike_id":"f3c13f83-d3c6-475a-8022-4e2d3a939c3b","system_id":"levelo_inurba_marseille","lat":43.23183,"lon":5.39987,"is_reserved":false,"is_disabled":false,"rental_uris":{"android":"levelo://app?vid=f3c13f83-d3c6-475a-8022-4e2d3a939c3b","ios":"levelo://app?vid=f3c13f83-d3c6-475a-8022-4e2d3a939c3b"},"vehicle_type_id":"4","last_reported":1745939438,"current_range_meters":14400,"station_id":"ce4bhn12rcd13ifvqgqg","pricing_plan_id":"cebpf4jnsgd1na2vs0mg"},{"bike_id":"e0d941d2-02b4-42a0-a9cf-f270bd1b41d8","system_id":"levelo_inurba_marseille","lat":43.26028,"lon":5.37558,"is_reserved":false,"is_disabled":true,"rental_uris":{"android":"levelo://app?vid=e0d941d2-02b4-42a0-a9cf-f270bd1b41d8","ios":"levelo://app?vid=e0d941d2-02b4-42a0-a9cf-f270bd1b41d8"},"vehicle_type_id":"4","last_reported":1745939438,"current_range_meters":14000,"station_id":"ce4bhgh2rcd13ifvqfa0","pricing_plan_id":"cebpf4jnsgd1na2vs0mg"},{"bike_id":"3a9bd96a-1d84-454e-b55b-a4ef583e3749","system_id":"levelo_inurba_marseille","lat":43.267,"lon":5.3833,"is_reserved":false,"is_disabled":true,"rental_uris":{"android":"levelo://app?vid=3a9bd96a-1d84-454e-b55b-a4ef583e3749","ios":"levelo://app?vid=3a9bd96a-1d84-454e-b55b-a4ef583e3749"},"vehicle_type_id":"4","last_reported":1745939438,"current_range_meters":14400,"station_id":"","pricing_plan_id":"cebpf4jnsgd1na2vs0mg"},{"bike_id":"28a604ef-98c1-4aff-ab31-a10d3a8eae96","system_id":"levelo_inurba_marseille","lat":43.29521,"lon":5.37504,"is_reserved":false,"is_disabled":true,"rental_uris":{"android":"levelo://app?vid=28a604ef-98c1-4aff-ab31-a10d3a8eae96","ios":"levelo://app?vid=28a604ef-98c1-4aff-ab31-a10d3a8eae96"},"vehicle_type_id":"4","last_reported":1745939438,"current_range_meters":14400,"station_id":"ce4bgkp2rcd13ifvqbmg","pricing_plan_id":"cebpf4jnsgd1na2vs0mg"},{"bike_id":"47e67c1f-9c93-4eee-ad5a-479fd8ba4f9f","system_id":"levelo_inurba_marseille","lat":43.23057,"lon":5.35488,"is_reserved":false,"is_disabled":false,"rental_uris":{"android":"levelo://app?vid=47e67c1f-9c93-4eee-ad5a-479fd8ba4f9f","ios":"levelo://app?vid=47e67c1f-9c93-4eee-ad5a-479fd8ba4f9f"},"vehicle_type_id":"4","last_reported":1745939438,"current_range_meters":14800,"station_id":"cpo3342slgdg3j2ifvpg","pricing_plan_id":"cebpf4jnsgd1na2vs0mg"},{"bike_id":"ddf42e2f-5ba3-456f-b6b9-71a4fb220f7c","system_id":"levelo_inurba_marseille","lat":43.217517,"lon":5.346039,"is_reserved":false,"is_disabled":false,"rental_uris":{"android":"levelo://app?vid=ddf42e2f-5ba3-456f-b6b9-71a4fb220f7c","ios":"levelo://app?vid=ddf42e2f-5ba3-456f-b6b9-71a4fb220f7c"},"vehicle_type_id":"4","last_reported":1745939438,"current_range_meters":14800,"station_id":"","pricing_plan_id":"cebpf4jnsgd1na2vs0mg"},{"bike_id":"5b69ebdf-e55e-40e1-93b7-04c10b716507","system_id":"levelo_inurba_marseille","lat":43.24398,"lon":5.37052,"is_reserved":false,"is_disabled":false,"rental_uris":{"android":"levelo://app?vid=5b69ebdf-e55e-40e1-93b7-04c10b716507","ios":"levelo://app?vid=5b69ebdf-e55e-40e1-93b7-04c10b716507"},"vehicle_type_id":"4","last_reported":1745939438,"current_range_meters":14800,"station_id":"ce4bhhh2rcd13ifvqfk0","pricing_plan_id":"cebpf4jnsgd1na2vs0mg"},{"bike_id":"acb987e1-64fe-46f5-898a-e0a889967a2d","system_id":"levelo_inurba_marseille","lat":43.28429,"lon":5.35009,"is_reserved":false,"is_disabled":false,"rental_uris":{"android":"levelo://app?vid=acb987e1-64fe-46f5-898a-e0a889967a2d","ios":"levelo://app?vid=acb987e1-64fe-46f5-898a-e0a889967a2d"},"vehicle_type_id":"4","last_reported":1745939438,"current_range_meters":14800,"station_id":"ce4bhbh2rcd13ifvqepg","pricing_plan_id":"cebpf4jnsgd1na2vs0mg"},{"bike_id":"1cb3da76-f497-49e4-a8a6-5a0629444d60","system_id":"levelo_inurba_marseille","lat":43.29952,"lon":5.36718,"is_reserved":false,"is_disabled":false,"rental_uris":{"android":"levelo://app?vid=1cb3da76-f497-49e4-a8a6-5a0629444d60","ios":"levelo://app?vid=1cb3da76-f497-49e4-a8a6-5a0629444d60"},"vehicle_type_id":"4","last_reported":1745939438,"current_range_meters":14800,"station_id":"","pricing_plan_id":"cebpf4jnsgd1na2vs0mg"},{"bike_id":"aded9c91-29f0-4b8b-82de-7869644499ba","system_id":"levelo_inurba_marseille","lat":43.28257,"lon":5.35059,"is_reserved":false,"is_disabled":false,"rental_uris":{"android":"levelo://app?vid=aded9c91-29f0-4b8b-82de-7869644499ba","ios":"levelo://app?vid=aded9c91-29f0-4b8b-82de-7869644499ba"},"vehicle_type_id":"4","last_reported":1745939438,"current_range_meters":14800,"station_id":"ce4bhbp2rcd13ifvqerg","pricing_plan_id":"cebpf4jnsgd1na2vs0mg"},{"bike_id":"16b070da-483d-408b-8447-9fb1e7bac9f4","system_id":"levelo_inurba_marseille","lat":43.31527,"lon":5.3803,"is_reserved":false,"is_disabled":false,"rental_uris":{"android":"levelo://app?vid=16b070da-483d-408b-8447-9fb1e7bac9f4","ios":"levelo://app?vid=16b070da-483d-408b-8447-9fb1e7bac9f4"},"vehicle_type_id":"4","last_reported":1745939438,"current_range_meters":14400,"station_id":"ce4bhsp2rcd13ifvqi50","pricing_plan_id":"cebpf4jnsgd1na2vs0mg"},{"bike_id":"d669cb91-aec5-42f7-ab66-a1eb60fa9404","system_id":"levelo_inurba_marseille","lat":43.282656,"lon":5.350672,"is_reserved":false,"is_disabled":false,"rental_uris":{"android":"levelo://app?vid=d669cb91-aec5-42f7-ab66-a1eb60fa9404","ios":"levelo://app?vid=d669cb91-aec5-42f7-ab66-a1eb60fa9404"},"vehicle_type_id":"4","last_reported":1745939438,"current_range_meters":15200,"station_id":"ce4bhbp2rcd13ifvqerg","pricing_plan_id":"cebpf4jnsgd1na2vs0mg"},{"bike_id":"05091a91-fc03-470c-9db3-f828e73a95c9","system_id":"levelo_inurba_marseille","lat":43.29262,"lon":5.40908,"is_reserved":false,"is_disabled":false,"rental_uris":{"android":"levelo://app?vid=05091a91-fc03-470c-9db3-f828e73a95c9","ios":"levelo://app?vid=05091a91-fc03-470c-9db3-f828e73a95c9"},"vehicle_type_id":"4","last_reported":1745939438,"current_range_meters":15200,"station_id":"ce4bh192rcd13ifvqdc0","pricing_plan_id":"cebpf4jnsgd1na2vs0mg"},{"bike_id":"11d5d43a-e812-47f7-b832-2e1a60e860f7","system_id":"levelo_inurba_marseille","lat":43.27396,"lon":5.36305,"is_reserved":false,"is_disabled":false,"rental_uris":{"android":"levelo://app?vid=11d5d43a-e812-47f7-b832-2e1a60e860f7","ios":"levelo://app?vid=11d5d43a-e812-47f7-b832-2e1a60e860f7"},"vehicle_type_id":"4","last_reported":1745939438,"current_range_meters":15200,"station_id":"ce4bhbh2rcd13ifvqeo0","pricing_plan_id":"cebpf4jnsgd1na2vs0mg"},{"bike_id":"b4df43af-d789-4d31-b874-2fb7b7365bb7","system_id":"levelo_inurba_marseille","lat":43.30798,"lon":5.43534,"is_reserved":false,"is_disabled":false,"rental_uris":{"android":"levelo://app?vid=b4df43af-d789-4d31-b874-2fb7b7365bb7","ios":"levelo://app?vid=b4df43af-d789-4d31-b874-2fb7b7365bb7"},"vehicle_type_id":"4","last_reported":1745939438,"current_range_meters":15200,"station_id":"ce4bhph2rcd13ifvqheg","pricing_plan_id":"cebpf4jnsgd1na2vs0mg"},{"bike_id":"91419b51-a87b-438c-9e3a-9cc8bd0db318","system_id":"levelo_inurba_marseille","lat":43.32115,"lon":5.36763,"is_reserved":false,"is_disabled":false,"rental_uris":{"android":"levelo://app?vid=91419b51-a87b-438c-9e3a-9cc8bd0db318","ios":"levelo://app?vid=91419b51-a87b-438c-9e3a-9cc8bd0db318"},"vehicle_type_id":"4","last_reported":1745939438,"current_range_meters":16000,"station_id":"ce4bhrh2rcd13ifvqhug","pricing_plan_id":"cebpf4jnsgd1na2vs0mg"},{"bike_id":"952e3afd-2100-4395-8d46-9ee01618bf6d","system_id":"levelo_inurba_marseille","lat":43.30093,"lon":5.39078,"is_reserved":false,"is_disabled":false,"rental_uris":{"android":"levelo://app?vid=952e3afd-2100-4395-8d46-9ee01618bf6d","ios":"levelo://app?vid=952e3afd-2100-4395-8d46-9ee01618bf6d"},"vehicle_type_id":"4","last_reported":1745939438,"current_range_meters":16000,"station_id":"ce4bh192rcd13ifvqdb0","pricing_plan_id":"cebpf4jnsgd1na2vs0mg"},{"bike_id":"31d4c581-b828-40c4-9dbf-b7e8aa236c70","system_id":"levelo_inurba_marseille","lat":43.29535,"lon":5.38542,"is_reserved":false,"is_disabled":false,"rental_uris":{"android":"levelo://app?vid=31d4c581-b828-40c4-9dbf-b7e8aa236c70","ios":"levelo://app?vid=31d4c581-b828-40c4-9dbf-b7e8aa236c70"},"vehicle_type_id":"4","last_reported":1745939438,"current_range_meters":16000,"station_id":"ce4bgih2rcd13ifvqba0","pricing_plan_id":"cebpf4jnsgd1na2vs0mg"},{"bike_id":"0b283a14-f8a9-45eb-b704-e8d2dbfdaa26","system_id":"levelo_inurba_marseille","lat":43.27997,"lon":5.41664,"is_reserved":false,"is_disabled":false,"rental_uris":{"android":"levelo://app?vid=0b283a14-f8a9-45eb-b704-e8d2dbfdaa26","ios":"levelo://app?vid=0b283a14-f8a9-45eb-b704-e8d2dbfdaa26"},"vehicle_type_id":"4","last_reported":1745939438,"current_range_meters":16400,"station_id":"ce4bho12rcd13ifvqh1g","pricing_plan_id":"cebpf4jnsgd1na2vs0mg"},{"bike_id":"63865676-de96-4f20-ba56-39fadf0b8343","system_id":"levelo_inurba_marseille","lat":43.2862,"lon":5.35103,"is_reserved":false,"is_disabled":false,"rental_uris":{"android":"levelo://app?vid=63865676-de96-4f20-ba56-39fadf0b8343","ios":"levelo://app?vid=63865676-de96-4f20-ba56-39fadf0b8343"},"vehicle_type_id":"4","last_reported":1745939438,"current_range_meters":16400,"station_id":"ce4bhch2rcd13ifvqeug","pricing_plan_id":"cebpf4jnsgd1na2vs0mg"},{"bike_id":"f6cc9f07-3c77-4d06-8a2b-249d25ed3711","system_id":"levelo_inurba_marseille","lat":43.2657,"lon":5.39006,"is_reserved":false,"is_disabled":false,"rental_uris":{"android":"levelo://app?vid=f6cc9f07-3c77-4d06-8a2b-249d25ed3711","ios":"levelo://app?vid=f6cc9f07-3c77-4d06-8a2b-249d25ed3711"},"vehicle_type_id":"4","last_reported":1745939438,"current_range_meters":16800,"station_id":"ce4bhe12rcd13ifvqf30","pricing_plan_id":"cebpf4jnsgd1na2vs0mg"},{"bike_id":"19bc52c3-74db-454f-9839-b056878a7608","system_id":"levelo_inurba_marseille","lat":43.2671,"lon":5.38265,"is_reserved":false,"is_disabled":true,"rental_uris":{"android":"levelo://app?vid=19bc52c3-74db-454f-9839-b056878a7608","ios":"levelo://app?vid=19bc52c3-74db-454f-9839-b056878a7608"},"vehicle_type_id":"4","last_reported":1745939438,"current_range_meters":16800,"station_id":"ce4bhg92rcd13ifvqf90","pricing_plan_id":"cebpf4jnsgd1na2vs0mg"},{"bike_id":"4958d449-c7d8-4d41-b08d-ff11ddaaee41","system_id":"levelo_inurba_marseille","lat":43.28286,"lon":5.35067,"is_reserved":false,"is_disabled":false,"rental_uris":{"android":"levelo://app?vid=4958d449-c7d8-4d41-b08d-ff11ddaaee41","ios":"levelo://app?vid=4958d449-c7d8-4d41-b08d-ff11ddaaee41"},"vehicle_type_id":"4","last_reported":1745939438,"current_range_meters":16800,"station_id":"ce4bhbp2rcd13ifvqerg","pricing_plan_id":"cebpf4jnsgd1na2vs0mg"},{"bike_id":"666ed8a1-21fa-4ef1-a269-1f75e7858b2e","system_id":"levelo_inurba_marseille","lat":43.27616,"lon":5.36108,"is_reserved":false,"is_disabled":false,"rental_uris":{"android":"levelo://app?vid=666ed8a1-21fa-4ef1-a269-1f75e7858b2e","ios":"levelo://app?vid=666ed8a1-21fa-4ef1-a269-1f75e7858b2e"},"vehicle_type_id":"4","last_reported":1745939438,"current_range_meters":16800,"station_id":"ce4bgj92rcd13ifvqbe0","pricing_plan_id":"cebpf4jnsgd1na2vs0mg"},{"bike_id":"178c7b07-cd23-450e-b06f-11f8975f8d8a","system_id":"levelo_inurba_marseille","lat":43.29041,"lon":5.39965,"is_reserved":false,"is_disabled":false,"rental_uris":{"android":"levelo://app?vid=178c7b07-cd23-450e-b06f-11f8975f8d8a","ios":"levelo://app?vid=178c7b07-cd23-450e-b06f-11f8975f8d8a"},"vehicle_type_id":"4","last_reported":1745939438,"current_range_meters":16400,"station_id":"ce4bh392rcd13ifvqdm0","pricing_plan_id":"cebpf4jnsgd1na2vs0mg"},{"bike_id":"22e68cd3-34a8-49e4-8e1b-ea907ab02bbd","system_id":"levelo_inurba_marseille","lat":43.28276,"lon":5.35078,"is_reserved":false,"is_disabled":false,"rental_uris":{"android":"levelo://app?vid=22e68cd3-34a8-49e4-8e1b-ea907ab02bbd","ios":"levelo://app?vid=22e68cd3-34a8-49e4-8e1b-ea907ab02bbd"},"vehicle_type_id":"4","last_reported":1745939438,"current_range_meters":17200,"station_id":"ce4bhbp2rcd13ifvqerg","pricing_plan_id":"cebpf4jnsgd1na2vs0mg"},{"bike_id":"92efdd62-9d80-4f35-ab55-1f0850a21911","system_id":"levelo_inurba_marseille","lat":43.26572,"lon":5.37302,"is_reserved":false,"is_disabled":false,"rental_uris":{"android":"levelo://app?vid=92efdd62-9d80-4f35-ab55-1f0850a21911","ios":"levelo://app?vid=92efdd62-9d80-4f35-ab55-1f0850a21911"},"vehicle_type_id":"4","last_reported":1745939438,"current_range_meters":17200,"station_id":"ce4bhg12rcd13ifvqf70","pricing_plan_id":"cebpf4jnsgd1na2vs0mg"},{"bike_id":"438dd3b5-5d4f-4756-aaf8-5dbe868b6871","system_id":"levelo_inurba_marseille","lat":43.30379,"lon":5.42484,"is_reserved":false,"is_disabled":false,"rental_uris":{"android":"levelo://app?vid=438dd3b5-5d4f-4756-aaf8-5dbe868b6871","ios":"levelo://app?vid=438dd3b5-5d4f-4756-aaf8-5dbe868b6871"},"vehicle_type_id":"4","last_reported":1745939438,"current_range_meters":17200,"station_id":"ce4bhoh2rcd13ifvqh6g","pricing_plan_id":"cebpf4jnsgd1na2vs0mg"},{"bike_id":"2f2ee64f-49ef-489b-ae79-fba23835c12d","system_id":"levelo_inurba_marseille","lat":43.28614,"lon":5.35111,"is_reserved":false,"is_disabled":false,"rental_uris":{"android":"levelo://app?vid=2f2ee64f-49ef-489b-ae79-fba23835c12d","ios":"levelo://app?vid=2f2ee64f-49ef-489b-ae79-fba23835c12d"},"vehicle_type_id":"4","last_reported":1745939438,"current_range_meters":17200,"station_id":"ce4bhch2rcd13ifvqeug","pricing_plan_id":"cebpf4jnsgd1na2vs0mg"},{"bike_id":"0283710b-d630-4bf5-a136-14935fbe3ff2","system_id":"levelo_inurba_marseille","lat":43.28672,"lon":5.36339,"is_reserved":false,"is_disabled":false,"rental_uris":{"android":"levelo://app?vid=0283710b-d630-4bf5-a136-14935fbe3ff2","ios":"levelo://app?vid=0283710b-d630-4bf5-a136-14935fbe3ff2"},"vehicle_type_id":"4","last_reported":1745939438,"current_range_meters":17200,"station_id":"ce4bhah2rcd13ifvqej0","pricing_plan_id":"cebpf4jnsgd1na2vs0mg"},{"bike_id":"64b34570-a068-49bb-bad3-93d00c6f7d2c","system_id":"levelo_inurba_marseille","lat":43.28622,"lon":5.35109,"is_reserved":false,"is_disabled":false,"rental_uris":{"android":"levelo://app?vid=64b34570-a068-49bb-bad3-93d00c6f7d2c","ios":"levelo://app?vid=64b34570-a068-49bb-bad3-93d00c6f7d2c"},"vehicle_type_id":"4","last_reported":1745939438,"current_range_meters":17200,"station_id":"ce4bhch2rcd13ifvqeug","pricing_plan_id":"cebpf4jnsgd1na2vs0mg"},{"bike_id":"bc35661b-3e43-4440-8d80-6407875fa872","system_id":"levelo_inurba_marseille","lat":43.292955,"lon":5.374619,"is_reserved":false,"is_disabled":false,"rental_uris":{"android":"levelo://app?vid=bc35661b-3e43-4440-8d80-6407875fa872","ios":"levelo://app?vid=bc35661b-3e43-4440-8d80-6407875fa872"},"vehicle_type_id":"4","last_reported":1745939438,"current_range_meters":16800,"station_id":"ce4bgi12rcd13ifvqb70","pricing_plan_id":"cebpf4jnsgd1na2vs0mg"},{"bike_id":"942acbdf-4dfa-4feb-b334-f999a9e66d77","system_id":"levelo_inurba_marseille","lat":43.25583,"lon":5.38238,"is_reserved":false,"is_disabled":false,"rental_uris":{"android":"levelo://app?vid=942acbdf-4dfa-4feb-b334-f999a9e66d77","ios":"levelo://app?vid=942acbdf-4dfa-4feb-b334-f999a9e66d77"},"vehicle_type_id":"4","last_reported":1745939438,"current_range_meters":18800,"station_id":"ce4bhih2rcd13ifvqfs0","pricing_plan_id":"cebpf4jnsgd1na2vs0mg"},{"bike_id":"2a1d695f-0a97-40b3-9258-e04ab52d811b","system_id":"levelo_inurba_marseille","lat":43.280366,"lon":5.369467,"is_reserved":false,"is_disabled":false,"rental_uris":{"android":"levelo://app?vid=2a1d695f-0a97-40b3-9258-e04ab52d811b","ios":"levelo://app?vid=2a1d695f-0a97-40b3-9258-e04ab52d811b"},"vehicle_type_id":"4","last_reported":1745939438,"current_range_meters":17200,"station_id":"ce4bha12rcd13ifvqef0","pricing_plan_id":"cebpf4jnsgd1na2vs0mg"},{"bike_id":"b7bc6524-edb5-4b66-9d9c-1df3f611f673","system_id":"levelo_inurba_marseille","lat":43.290205,"lon":5.386285,"is_reserved":false,"is_disabled":false,"rental_uris":{"android":"levelo://app?vid=b7bc6524-edb5-4b66-9d9c-1df3f611f673","ios":"levelo://app?vid=b7bc6524-edb5-4b66-9d9c-1df3f611f673"},"vehicle_type_id":"4","last_reported":1745939438,"current_range_meters":17200,"station_id":"ce4bh4p2rcd13ifvqe0g","pricing_plan_id":"cebpf4jnsgd1na2vs0mg"},{"bike_id":"bf31f3ab-91de-42fd-a4ff-c62208f61393","system_id":"levelo_inurba_marseille","lat":43.321018,"lon":5.36799,"is_reserved":false,"is_disabled":false,"rental_uris":{"android":"levelo://app?vid=bf31f3ab-91de-42fd-a4ff-c62208f61393","ios":"levelo://app?vid=bf31f3ab-91de-42fd-a4ff-c62208f61393"},"vehicle_type_id":"4","last_reported":1745939438,"current_range_meters":17200,"station_id":"ce4bhrh2rcd13ifvqhug","pricing_plan_id":"cebpf4jnsgd1na2vs0mg"},{"bike_id":"8fcb91f0-94d9-49ea-9c55-b5fc209634ee","system_id":"levelo_inurba_marseille","lat":43.27614,"lon":5.3611,"is_reserved":false,"is_disabled":false,"rental_uris":{"android":"levelo://app?vid=8fcb91f0-94d9-49ea-9c55-b5fc209634ee","ios":"levelo://app?vid=8fcb91f0-94d9-49ea-9c55-b5fc209634ee"},"vehicle_type_id":"4","last_reported":1745939438,"current_range_meters":17200,"station_id":"ce4bgj92rcd13ifvqbe0","pricing_plan_id":"cebpf4jnsgd1na2vs0mg"},{"bike_id":"e5e92a64-e709-4b1a-a9b1-cbffe85789ca","system_id":"levelo_inurba_marseille","lat":43.25536,"lon":5.38161,"is_reserved":false,"is_disabled":false,"rental_uris":{"android":"levelo://app?vid=e5e92a64-e709-4b1a-a9b1-cbffe85789ca","ios":"levelo://app?vid=e5e92a64-e709-4b1a-a9b1-cbffe85789ca"},"vehicle_type_id":"4","last_reported":1745939438,"current_range_meters":17200,"station_id":"","pricing_plan_id":"cebpf4jnsgd1na2vs0mg"},{"bike_id":"58505bbd-07de-4b77-afe6-6ed045b4c50b","system_id":"levelo_inurba_marseille","lat":43.2828,"lon":5.35076,"is_reserved":false,"is_disabled":false,"rental_uris":{"android":"levelo://app?vid=58505bbd-07de-4b77-afe6-6ed045b4c50b","ios":"levelo://app?vid=58505bbd-07de-4b77-afe6-6ed045b4c50b"},"vehicle_type_id":"4","last_reported":1745939438,"current_range_meters":17600,"station_id":"ce4bhbp2rcd13ifvqerg","pricing_plan_id":"cebpf4jnsgd1na2vs0mg"},{"bike_id":"6a169abf-1300-4de6-9df8-f0c244509f77","system_id":"levelo_inurba_marseille","lat":43.21738,"lon":5.34617,"is_reserved":false,"is_disabled":false,"rental_uris":{"android":"levelo://app?vid=6a169abf-1300-4de6-9df8-f0c244509f77","ios":"levelo://app?vid=6a169abf-1300-4de6-9df8-f0c244509f77"},"vehicle_type_id":"4","last_reported":1745939438,"current_range_meters":17600,"station_id":"","pricing_plan_id":"cebpf4jnsgd1na2vs0mg"},{"bike_id":"074e05b9-ed0f-4274-9d08-69afad57ec3a","system_id":"levelo_inurba_marseille","lat":43.31081,"lon":5.38358,"is_reserved":false,"is_disabled":false,"rental_uris":{"android":"levelo://app?vid=074e05b9-ed0f-4274-9d08-69afad57ec3a","ios":"levelo://app?vid=074e05b9-ed0f-4274-9d08-69afad57ec3a"},"vehicle_type_id":"4","last_reported":1745939438,"current_range_meters":17600,"station_id":"ce4bgv92rcd13ifvqcr0","pricing_plan_id":"cebpf4jnsgd1na2vs0mg"},{"bike_id":"4678f98c-9605-485e-9f52-d38650b7e3f9","system_id":"levelo_inurba_marseille","lat":43.324776,"lon":5.3656,"is_reserved":false,"is_disabled":false,"rental_uris":{"android":"levelo://app?vid=4678f98c-9605-485e-9f52-d38650b7e3f9","ios":"levelo://app?vid=4678f98c-9605-485e-9f52-d38650b7e3f9"},"vehicle_type_id":"4","last_reported":1745939438,"current_range_meters":17600,"station_id":"ce4bhs12rcd13ifvqhvg","pricing_plan_id":"cebpf4jnsgd1na2vs0mg"},{"bike_id":"ef17fbf3-37f0-4577-830f-4cbd77aad8ef","system_id":"levelo_inurba_marseille","lat":43.28412,"lon":5.34991,"is_reserved":false,"is_disabled":false,"rental_uris":{"android":"levelo://app?vid=ef17fbf3-37f0-4577-830f-4cbd77aad8ef","ios":"levelo://app?vid=ef17fbf3-37f0-4577-830f-4cbd77aad8ef"},"vehicle_type_id":"4","last_reported":1745939438,"current_range_meters":17600,"station_id":"ce4bhbh2rcd13ifvqepg","pricing_plan_id":"cebpf4jnsgd1na2vs0mg"},{"bike_id":"13270fb3-286c-4b24-b4da-5836bda19035","system_id":"levelo_inurba_marseille","lat":43.28416,"lon":5.34997,"is_reserved":false,"is_disabled":false,"rental_uris":{"android":"levelo://app?vid=13270fb3-286c-4b24-b4da-5836bda19035","ios":"levelo://app?vid=13270fb3-286c-4b24-b4da-5836bda19035"},"vehicle_type_id":"4","last_reported":1745939438,"current_range_meters":17600,"station_id":"ce4bhbh2rcd13ifvqepg","pricing_plan_id":"cebpf4jnsgd1na2vs0mg"},{"bike_id":"ce2710b2-8aee-43d8-8ef3-2843f2527c66","system_id":"levelo_inurba_marseille","lat":43.24192,"lon":5.36391,"is_reserved":false,"is_disabled":false,"rental_uris":{"android":"levelo://app?vid=ce2710b2-8aee-43d8-8ef3-2843f2527c66","ios":"levelo://app?vid=ce2710b2-8aee-43d8-8ef3-2843f2527c66"},"vehicle_type_id":"4","last_reported":1745939438,"current_range_meters":17600,"station_id":"cpo36qri1sfpv3e86is0","pricing_plan_id":"cebpf4jnsgd1na2vs0mg"},{"bike_id":"d9b174e1-75e3-4b57-a27a-9f2dbe8af2c4","system_id":"levelo_inurba_marseille","lat":43.24651,"lon":5.38894,"is_reserved":false,"is_disabled":false,"rental_uris":{"android":"levelo://app?vid=d9b174e1-75e3-4b57-a27a-9f2dbe8af2c4","ios":"levelo://app?vid=d9b174e1-75e3-4b57-a27a-9f2dbe8af2c4"},"vehicle_type_id":"4","last_reported":1745939438,"current_range_meters":18000,"station_id":"ce4bhg12rcd13ifvqf60","pricing_plan_id":"cebpf4jnsgd1na2vs0mg"},{"bike_id":"455dfde0-ee00-4454-8173-fd4da0f209e8","system_id":"levelo_inurba_marseille","lat":43.2737,"lon":5.36258,"is_reserved":false,"is_disabled":false,"rental_uris":{"android":"levelo://app?vid=455dfde0-ee00-4454-8173-fd4da0f209e8","ios":"levelo://app?vid=455dfde0-ee00-4454-8173-fd4da0f209e8"},"vehicle_type_id":"4","last_reported":1745939438,"current_range_meters":18000,"station_id":"ce4bhbh2rcd13ifvqeo0","pricing_plan_id":"cebpf4jnsgd1na2vs0mg"},{"bike_id":"4284d4a1-3f10-41e9-9514-d4a9dff4fb69","system_id":"levelo_inurba_marseille","lat":43.27374,"lon":5.3626,"is_reserved":false,"is_disabled":false,"rental_uris":{"android":"levelo://app?vid=4284d4a1-3f10-41e9-9514-d4a9dff4fb69","ios":"levelo://app?vid=4284d4a1-3f10-41e9-9514-d4a9dff4fb69"},"vehicle_type_id":"4","last_reported":1745939438,"current_range_meters":18000,"station_id":"ce4bhbh2rcd13ifvqeo0","pricing_plan_id":"cebpf4jnsgd1na2vs0mg"},{"bike_id":"a5cc040c-a647-4257-b96d-e9d8a3584909","system_id":"levelo_inurba_marseille","lat":43.28464,"lon":5.35886,"is_reserved":false,"is_disabled":false,"rental_uris":{"android":"levelo://app?vid=a5cc040c-a647-4257-b96d-e9d8a3584909","ios":"levelo://app?vid=a5cc040c-a647-4257-b96d-e9d8a3584909"},"vehicle_type_id":"4","last_reported":1745939438,"current_range_meters":18000,"station_id":"ce4bhah2rcd13ifvqei0","pricing_plan_id":"cebpf4jnsgd1na2vs0mg"},{"bike_id":"44b00a8d-24c0-4c7b-b220-961ce5597fd2","system_id":"levelo_inurba_marseille","lat":43.28632,"lon":5.35104,"is_reserved":false,"is_disabled":false,"rental_uris":{"android":"levelo://app?vid=44b00a8d-24c0-4c7b-b220-961ce5597fd2","ios":"levelo://app?vid=44b00a8d-24c0-4c7b-b220-961ce5597fd2"},"vehicle_type_id":"4","last_reported":1745939438,"current_range_meters":18800,"station_id":"ce4bhch2rcd13ifvqeug","pricing_plan_id":"cebpf4jnsgd1na2vs0mg"},{"bike_id":"fce2c520-92d3-4d18-810b-8d643fc15a1a","system_id":"levelo_inurba_marseille","lat":43.230647,"lon":5.354972,"is_reserved":false,"is_disabled":false,"rental_uris":{"android":"levelo://app?vid=fce2c520-92d3-4d18-810b-8d643fc15a1a","ios":"levelo://app?vid=fce2c520-92d3-4d18-810b-8d643fc15a1a"},"vehicle_type_id":"4","last_reported":1745939438,"current_range_meters":18800,"station_id":"cpo3342slgdg3j2ifvpg","pricing_plan_id":"cebpf4jnsgd1na2vs0mg"},{"bike_id":"d790bba5-0573-4c47-8999-23421e069bf8","system_id":"levelo_inurba_marseille","lat":43.23976,"lon":5.3663,"is_reserved":false,"is_disabled":false,"rental_uris":{"android":"levelo://app?vid=d790bba5-0573-4c47-8999-23421e069bf8","ios":"levelo://app?vid=d790bba5-0573-4c47-8999-23421e069bf8"},"vehicle_type_id":"4","last_reported":1745939438,"current_range_meters":19200,"station_id":"ce4bhi12rcd13ifvqfp0","pricing_plan_id":"cebpf4jnsgd1na2vs0mg"},{"bike_id":"86c2979e-8cf6-48ed-bdb1-835ff11e3adc","system_id":"levelo_inurba_marseille","lat":43.25389,"lon":5.41855,"is_reserved":false,"is_disabled":false,"rental_uris":{"android":"levelo://app?vid=86c2979e-8cf6-48ed-bdb1-835ff11e3adc","ios":"levelo://app?vid=86c2979e-8cf6-48ed-bdb1-835ff11e3adc"},"vehicle_type_id":"4","last_reported":1745939438,"current_range_meters":19200,"station_id":"","pricing_plan_id":"cebpf4jnsgd1na2vs0mg"},{"bike_id":"cd820e3d-14c0-4e15-81ca-6b310804f84f","system_id":"levelo_inurba_marseille","lat":43.28416,"lon":5.34983,"is_reserved":false,"is_disabled":false,"rental_uris":{"android":"levelo://app?vid=cd820e3d-14c0-4e15-81ca-6b310804f84f","ios":"levelo://app?vid=cd820e3d-14c0-4e15-81ca-6b310804f84f"},"vehicle_type_id":"4","last_reported":1745939438,"current_range_meters":19200,"station_id":"ce4bhbh2rcd13ifvqepg","pricing_plan_id":"cebpf4jnsgd1na2vs0mg"},{"bike_id":"64ce655b-d2b8-41dd-96a7-b2f77425541d","system_id":"levelo_inurba_marseille","lat":43.28412,"lon":5.34995,"is_reserved":false,"is_disabled":false,"rental_uris":{"android":"levelo://app?vid=64ce655b-d2b8-41dd-96a7-b2f77425541d","ios":"levelo://app?vid=64ce655b-d2b8-41dd-96a7-b2f77425541d"},"vehicle_type_id":"4","last_reported":1745939438,"current_range_meters":19200,"station_id":"ce4bhbh2rcd13ifvqepg","pricing_plan_id":"cebpf4jnsgd1na2vs0mg"},{"bike_id":"bb00f7e1-496b-4b87-ac02-16f80132091c","system_id":"levelo_inurba_marseille","lat":43.24169,"lon":5.36394,"is_reserved":false,"is_disabled":false,"rental_uris":{"android":"levelo://app?vid=bb00f7e1-496b-4b87-ac02-16f80132091c","ios":"levelo://app?vid=bb00f7e1-496b-4b87-ac02-16f80132091c"},"vehicle_type_id":"4","last_reported":1745939438,"current_range_meters":19200,"station_id":"cpo36qri1sfpv3e86is0","pricing_plan_id":"cebpf4jnsgd1na2vs0mg"},{"bike_id":"404f8bb0-e61e-473d-84e3-ad9a44a44b05","system_id":"levelo_inurba_marseille","lat":43.28439,"lon":5.3498,"is_reserved":false,"is_disabled":false,"rental_uris":{"android":"levelo://app?vid=404f8bb0-e61e-473d-84e3-ad9a44a44b05","ios":"levelo://app?vid=404f8bb0-e61e-473d-84e3-ad9a44a44b05"},"vehicle_type_id":"4","last_reported":1745939438,"current_range_meters":19200,"station_id":"ce4bhbh2rcd13ifvqepg","pricing_plan_id":"cebpf4jnsgd1na2vs0mg"},{"bike_id":"b3a2d562-7309-4d96-9262-cb327ec4be34","system_id":"levelo_inurba_marseille","lat":43.26574,"lon":5.39015,"is_reserved":false,"is_disabled":false,"rental_uris":{"android":"levelo://app?vid=b3a2d562-7309-4d96-9262-cb327ec4be34","ios":"levelo://app?vid=b3a2d562-7309-4d96-9262-cb327ec4be34"},"vehicle_type_id":"4","last_reported":1745939438,"current_range_meters":19600,"station_id":"ce4bhe12rcd13ifvqf30","pricing_plan_id":"cebpf4jnsgd1na2vs0mg"},{"bike_id":"637f17b1-a980-4bc5-993d-9a9de04fb5bf","system_id":"levelo_inurba_marseille","lat":43.31665,"lon":5.36921,"is_reserved":false,"is_disabled":false,"rental_uris":{"android":"levelo://app?vid=637f17b1-a980-4bc5-993d-9a9de04fb5bf","ios":"levelo://app?vid=637f17b1-a980-4bc5-993d-9a9de04fb5bf"},"vehicle_type_id":"4","last_reported":1745939438,"current_range_meters":19600,"station_id":"","pricing_plan_id":"cebpf4jnsgd1na2vs0mg"},{"bike_id":"a33a99f1-2499-4466-8a20-94e1db48d19e","system_id":"levelo_inurba_marseille","lat":43.28428,"lon":5.34997,"is_reserved":false,"is_disabled":false,"rental_uris":{"android":"levelo://app?vid=a33a99f1-2499-4466-8a20-94e1db48d19e","ios":"levelo://app?vid=a33a99f1-2499-4466-8a20-94e1db48d19e"},"vehicle_type_id":"4","last_reported":1745939438,"current_range_meters":19600,"station_id":"ce4bhbh2rcd13ifvqepg","pricing_plan_id":"cebpf4jnsgd1na2vs0mg"},{"bike_id":"d8f7b2e9-5866-46eb-ab67-eb6ea7b939da","system_id":"levelo_inurba_marseille","lat":43.26039,"lon":5.3754,"is_reserved":false,"is_disabled":false,"rental_uris":{"android":"levelo://app?vid=d8f7b2e9-5866-46eb-ab67-eb6ea7b939da","ios":"levelo://app?vid=d8f7b2e9-5866-46eb-ab67-eb6ea7b939da"},"vehicle_type_id":"4","last_reported":1745939438,"current_range_meters":19600,"station_id":"ce4bhgh2rcd13ifvqfa0","pricing_plan_id":"cebpf4jnsgd1na2vs0mg"},{"bike_id":"da238281-dc76-4013-9cbc-c9dbb2795121","system_id":"levelo_inurba_marseille","lat":43.28261,"lon":5.35074,"is_reserved":false,"is_disabled":false,"rental_uris":{"android":"levelo://app?vid=da238281-dc76-4013-9cbc-c9dbb2795121","ios":"levelo://app?vid=da238281-dc76-4013-9cbc-c9dbb2795121"},"vehicle_type_id":"4","last_reported":1745939438,"current_range_meters":19600,"station_id":"ce4bhbp2rcd13ifvqerg","pricing_plan_id":"cebpf4jnsgd1na2vs0mg"},{"bike_id":"54ddf794-b55d-4302-80a0-e14104acd458","system_id":"levelo_inurba_marseille","lat":43.29269,"lon":5.37628,"is_reserved":false,"is_disabled":false,"rental_uris":{"android":"levelo://app?vid=54ddf794-b55d-4302-80a0-e14104acd458","ios":"levelo://app?vid=54ddf794-b55d-4302-80a0-e14104acd458"},"vehicle_type_id":"4","last_reported":1745939438,"current_range_meters":19600,"station_id":"ce4bgi12rcd13ifvqb80","pricing_plan_id":"cebpf4jnsgd1na2vs0mg"},{"bike_id":"413870a0-84a9-4857-aee6-fde271b5d85e","system_id":"levelo_inurba_marseille","lat":43.30687,"lon":5.36848,"is_reserved":false,"is_disabled":false,"rental_uris":{"android":"levelo://app?vid=413870a0-84a9-4857-aee6-fde271b5d85e","ios":"levelo://app?vid=413870a0-84a9-4857-aee6-fde271b5d85e"},"vehicle_type_id":"4","last_reported":1745939438,"current_range_meters":19600,"station_id":"","pricing_plan_id":"cebpf4jnsgd1na2vs0mg"},{"bike_id":"c1b90703-8838-4506-8f91-e08f5bb69141","system_id":"levelo_inurba_marseille","lat":43.30143,"lon":5.398639,"is_reserved":false,"is_disabled":false,"rental_uris":{"android":"levelo://app?vid=c1b90703-8838-4506-8f91-e08f5bb69141","ios":"levelo://app?vid=c1b90703-8838-4506-8f91-e08f5bb69141"},"vehicle_type_id":"4","last_reported":1745939438,"current_range_meters":19600,"station_id":"ce4bh0h2rcd13ifvqd40","pricing_plan_id":"cebpf4jnsgd1na2vs0mg"},{"bike_id":"207e84ee-ca9f-4c74-af9a-39822e601e91","system_id":"levelo_inurba_marseille","lat":43.303757,"lon":5.424893,"is_reserved":false,"is_disabled":false,"rental_uris":{"android":"levelo://app?vid=207e84ee-ca9f-4c74-af9a-39822e601e91","ios":"levelo://app?vid=207e84ee-ca9f-4c74-af9a-39822e601e91"},"vehicle_type_id":"4","last_reported":1745939438,"current_range_meters":19600,"station_id":"ce4bhoh2rcd13ifvqh6g","pricing_plan_id":"cebpf4jnsgd1na2vs0mg"},{"bike_id":"97019c75-de42-401c-851d-535e6b68eafe","system_id":"levelo_inurba_marseille","lat":43.26567,"lon":5.39016,"is_reserved":false,"is_disabled":false,"rental_uris":{"android":"levelo://app?vid=97019c75-de42-401c-851d-535e6b68eafe","ios":"levelo://app?vid=97019c75-de42-401c-851d-535e6b68eafe"},"vehicle_type_id":"4","last_reported":1745939438,"current_range_meters":20000,"station_id":"ce4bhe12rcd13ifvqf30","pricing_plan_id":"cebpf4jnsgd1na2vs0mg"},{"bike_id":"38a5a22d-9811-4d50-a706-fc42be78732b","system_id":"levelo_inurba_marseille","lat":43.249986,"lon":5.3892,"is_reserved":false,"is_disabled":false,"rental_uris":{"android":"levelo://app?vid=38a5a22d-9811-4d50-a706-fc42be78732b","ios":"levelo://app?vid=38a5a22d-9811-4d50-a706-fc42be78732b"},"vehicle_type_id":"4","last_reported":1745939438,"current_range_meters":20000,"station_id":"ce4bhgp2rcd13ifvqfd0","pricing_plan_id":"cebpf4jnsgd1na2vs0mg"},{"bike_id":"f1529ac1-443a-4a0f-a2b9-5a818f3ad7de","system_id":"levelo_inurba_marseille","lat":43.281689,"lon":5.426916,"is_reserved":false,"is_disabled":false,"rental_uris":{"android":"levelo://app?vid=f1529ac1-443a-4a0f-a2b9-5a818f3ad7de","ios":"levelo://app?vid=f1529ac1-443a-4a0f-a2b9-5a818f3ad7de"},"vehicle_type_id":"4","last_reported":1745939438,"current_range_meters":20000,"station_id":"ce4bhnh2rcd13ifvqgug","pricing_plan_id":"cebpf4jnsgd1na2vs0mg"},{"bike_id":"9bfe6821-b569-461d-b21b-20646d93475e","system_id":"levelo_inurba_marseille","lat":43.32478,"lon":5.36603,"is_reserved":false,"is_disabled":false,"rental_uris":{"android":"levelo://app?vid=9bfe6821-b569-461d-b21b-20646d93475e","ios":"levelo://app?vid=9bfe6821-b569-461d-b21b-20646d93475e"},"vehicle_type_id":"4","last_reported":1745939438,"current_range_meters":20400,"station_id":"ce4bhs12rcd13ifvqhvg","pricing_plan_id":"cebpf4jnsgd1na2vs0mg"},{"bike_id":"7940bc1b-eaa7-4f49-a435-46dc9391f6a1","system_id":"levelo_inurba_marseille","lat":43.21202,"lon":5.35068,"is_reserved":false,"is_disabled":false,"rental_uris":{"android":"levelo://app?vid=7940bc1b-eaa7-4f49-a435-46dc9391f6a1","ios":"levelo://app?vid=7940bc1b-eaa7-4f49-a435-46dc9391f6a1"},"vehicle_type_id":"4","last_reported":1745939438,"current_range_meters":20400,"station_id":"st_cvj6sg6p6f1abm77japg","pricing_plan_id":"cebpf4jnsgd1na2vs0mg"},{"bike_id":"2372f7c6-1089-4c13-bafe-c3d7862aadcc","system_id":"levelo_inurba_marseille","lat":43.317092,"lon":5.437075,"is_reserved":false,"is_disabled":false,"rental_uris":{"android":"levelo://app?vid=2372f7c6-1089-4c13-bafe-c3d7862aadcc","ios":"levelo://app?vid=2372f7c6-1089-4c13-bafe-c3d7862aadcc"},"vehicle_type_id":"4","last_reported":1745939438,"current_range_meters":20800,"station_id":"ce4bhp92rcd13ifvqhcg","pricing_plan_id":"cebpf4jnsgd1na2vs0mg"},{"bike_id":"362195f2-1338-42b2-a32d-9e062f1f234b","system_id":"levelo_inurba_marseille","lat":43.29894,"lon":5.43663,"is_reserved":false,"is_disabled":false,"rental_uris":{"android":"levelo://app?vid=362195f2-1338-42b2-a32d-9e062f1f234b","ios":"levelo://app?vid=362195f2-1338-42b2-a32d-9e062f1f234b"},"vehicle_type_id":"4","last_reported":1745939438,"current_range_meters":20400,"station_id":"ce4bhpp2rcd13ifvqhfg","pricing_plan_id":"cebpf4jnsgd1na2vs0mg"},{"bike_id":"dbc498b8-550c-4802-b3cb-99d53e388518","system_id":"levelo_inurba_marseille","lat":43.26226,"lon":5.40455,"is_reserved":false,"is_disabled":false,"rental_uris":{"android":"levelo://app?vid=dbc498b8-550c-4802-b3cb-99d53e388518","ios":"levelo://app?vid=dbc498b8-550c-4802-b3cb-99d53e388518"},"vehicle_type_id":"4","last_reported":1745939438,"current_range_meters":20800,"station_id":"ce4bhmh2rcd13ifvqgmg","pricing_plan_id":"cebpf4jnsgd1na2vs0mg"},{"bike_id":"b2ca022a-4b38-4d3a-9700-14a54f259604","system_id":"levelo_inurba_marseille","lat":43.25491,"lon":5.37642,"is_reserved":false,"is_disabled":false,"rental_uris":{"android":"levelo://app?vid=b2ca022a-4b38-4d3a-9700-14a54f259604","ios":"levelo://app?vid=b2ca022a-4b38-4d3a-9700-14a54f259604"},"vehicle_type_id":"4","last_reported":1745939438,"current_range_meters":20800,"station_id":"ce4bhh12rcd13ifvqff0","pricing_plan_id":"cebpf4jnsgd1na2vs0mg"},{"bike_id":"39089e5b-adfa-4663-816f-59cf0daa187e","system_id":"levelo_inurba_marseille","lat":43.28275,"lon":5.35067,"is_reserved":false,"is_disabled":false,"rental_uris":{"android":"levelo://app?vid=39089e5b-adfa-4663-816f-59cf0daa187e","ios":"levelo://app?vid=39089e5b-adfa-4663-816f-59cf0daa187e"},"vehicle_type_id":"4","last_reported":1745939438,"current_range_meters":20800,"station_id":"ce4bhbp2rcd13ifvqerg","pricing_plan_id":"cebpf4jnsgd1na2vs0mg"},{"bike_id":"d8f483ba-f45f-44cc-a46b-b994636eb69b","system_id":"levelo_inurba_marseille","lat":43.28414,"lon":5.34983,"is_reserved":false,"is_disabled":false,"rental_uris":{"android":"levelo://app?vid=d8f483ba-f45f-44cc-a46b-b994636eb69b","ios":"levelo://app?vid=d8f483ba-f45f-44cc-a46b-b994636eb69b"},"vehicle_type_id":"4","last_reported":1745939438,"current_range_meters":20800,"station_id":"ce4bhbh2rcd13ifvqepg","pricing_plan_id":"cebpf4jnsgd1na2vs0mg"},{"bike_id":"c45c975c-eac0-440e-9430-ec99f4e7eaa5","system_id":"levelo_inurba_marseille","lat":43.27369,"lon":5.36255,"is_reserved":false,"is_disabled":false,"rental_uris":{"android":"levelo://app?vid=c45c975c-eac0-440e-9430-ec99f4e7eaa5","ios":"levelo://app?vid=c45c975c-eac0-440e-9430-ec99f4e7eaa5"},"vehicle_type_id":"4","last_reported":1745939438,"current_range_meters":21600,"station_id":"ce4bhbh2rcd13ifvqeo0","pricing_plan_id":"cebpf4jnsgd1na2vs0mg"},{"bike_id":"89d8209b-5cbd-449b-8ad8-ad8a77a0cf36","system_id":"levelo_inurba_marseille","lat":43.284446,"lon":5.391961,"is_reserved":false,"is_disabled":false,"rental_uris":{"android":"levelo://app?vid=89d8209b-5cbd-449b-8ad8-ad8a77a0cf36","ios":"levelo://app?vid=89d8209b-5cbd-449b-8ad8-ad8a77a0cf36"},"vehicle_type_id":"4","last_reported":1745939438,"current_range_meters":21600,"station_id":"ce4bhoh2rcd13ifvqh5g","pricing_plan_id":"cebpf4jnsgd1na2vs0mg"},{"bike_id":"48c83750-486b-4690-9bde-80f760ff63a9","system_id":"levelo_inurba_marseille","lat":43.27072,"lon":5.42279,"is_reserved":false,"is_disabled":false,"rental_uris":{"android":"levelo://app?vid=48c83750-486b-4690-9bde-80f760ff63a9","ios":"levelo://app?vid=48c83750-486b-4690-9bde-80f760ff63a9"},"vehicle_type_id":"4","last_reported":1745939438,"current_range_meters":21600,"station_id":"","pricing_plan_id":"cebpf4jnsgd1na2vs0mg"},{"bike_id":"4004d313-835d-4ed6-9ff1-ac6e7544e522","system_id":"levelo_inurba_marseille","lat":43.27923,"lon":5.39579,"is_reserved":false,"is_disabled":false,"rental_uris":{"android":"levelo://app?vid=4004d313-835d-4ed6-9ff1-ac6e7544e522","ios":"levelo://app?vid=4004d313-835d-4ed6-9ff1-ac6e7544e522"},"vehicle_type_id":"4","last_reported":1745939438,"current_range_meters":21600,"station_id":"ce4bhf92rcd13ifvqf40","pricing_plan_id":"cebpf4jnsgd1na2vs0mg"},{"bike_id":"791117ef-60ad-4a8d-b16b-ad72480af3b8","system_id":"levelo_inurba_marseille","lat":43.31488,"lon":5.37307,"is_reserved":false,"is_disabled":false,"rental_uris":{"android":"levelo://app?vid=791117ef-60ad-4a8d-b16b-ad72480af3b8","ios":"levelo://app?vid=791117ef-60ad-4a8d-b16b-ad72480af3b8"},"vehicle_type_id":"4","last_reported":1745939438,"current_range_meters":21600,"station_id":"ce4bgt12rcd13ifvqcd0","pricing_plan_id":"cebpf4jnsgd1na2vs0mg"},{"bike_id":"e5896fa6-36da-4b6a-8c2a-2286758f4bb1","system_id":"levelo_inurba_marseille","lat":43.27565,"lon":5.38429,"is_reserved":false,"is_disabled":false,"rental_uris":{"android":"levelo://app?vid=e5896fa6-36da-4b6a-8c2a-2286758f4bb1","ios":"levelo://app?vid=e5896fa6-36da-4b6a-8c2a-2286758f4bb1"},"vehicle_type_id":"4","last_reported":1745939438,"current_range_meters":22000,"station_id":"ce4bhh92rcd13ifvqfi0","pricing_plan_id":"cebpf4jnsgd1na2vs0mg"},{"bike_id":"6fc88077-bf07-4ed7-b510-02c278211b56","system_id":"levelo_inurba_marseille","lat":43.29259,"lon":5.37618,"is_reserved":false,"is_disabled":false,"rental_uris":{"android":"levelo://app?vid=6fc88077-bf07-4ed7-b510-02c278211b56","ios":"levelo://app?vid=6fc88077-bf07-4ed7-b510-02c278211b56"},"vehicle_type_id":"4","last_reported":1745939438,"current_range_meters":22400,"station_id":"ce4bgi12rcd13ifvqb80","pricing_plan_id":"cebpf4jnsgd1na2vs0mg"},{"bike_id":"4bf6b69b-e08a-490c-9b07-d13072b37d89","system_id":"levelo_inurba_marseille","lat":43.241649,"lon":5.363963,"is_reserved":false,"is_disabled":false,"rental_uris":{"android":"levelo://app?vid=4bf6b69b-e08a-490c-9b07-d13072b37d89","ios":"levelo://app?vid=4bf6b69b-e08a-490c-9b07-d13072b37d89"},"vehicle_type_id":"4","last_reported":1745939438,"current_range_meters":22800,"station_id":"cpo36qri1sfpv3e86is0","pricing_plan_id":"cebpf4jnsgd1na2vs0mg"},{"bike_id":"01272e16-a2d8-4ba4-abf3-1096c5def890","system_id":"levelo_inurba_marseille","lat":43.26568,"lon":5.39006,"is_reserved":false,"is_disabled":false,"rental_uris":{"android":"levelo://app?vid=01272e16-a2d8-4ba4-abf3-1096c5def890","ios":"levelo://app?vid=01272e16-a2d8-4ba4-abf3-1096c5def890"},"vehicle_type_id":"4","last_reported":1745939438,"current_range_meters":20400,"station_id":"ce4bhe12rcd13ifvqf30","pricing_plan_id":"cebpf4jnsgd1na2vs0mg"},{"bike_id":"98b0f810-01b2-402d-9ffc-77cf02c4c603","system_id":"levelo_inurba_marseille","lat":43.30438,"lon":5.3889,"is_reserved":false,"is_disabled":false,"rental_uris":{"android":"levelo://app?vid=98b0f810-01b2-402d-9ffc-77cf02c4c603","ios":"levelo://app?vid=98b0f810-01b2-402d-9ffc-77cf02c4c603"},"vehicle_type_id":"4","last_reported":1745939438,"current_range_meters":22800,"station_id":"ce4bgk12rcd13ifvqbi0","pricing_plan_id":"cebpf4jnsgd1na2vs0mg"},{"bike_id":"9a6d1a0d-0520-4c44-b0a9-74ddbe754418","system_id":"levelo_inurba_marseille","lat":43.27107,"lon":5.40708,"is_reserved":false,"is_disabled":false,"rental_uris":{"android":"levelo://app?vid=9a6d1a0d-0520-4c44-b0a9-74ddbe754418","ios":"levelo://app?vid=9a6d1a0d-0520-4c44-b0a9-74ddbe754418"},"vehicle_type_id":"4","last_reported":1745939438,"current_range_meters":22800,"station_id":"","pricing_plan_id":"cebpf4jnsgd1na2vs0mg"},{"bike_id":"8916c04b-6f4f-464b-9238-b13179d54666","system_id":"levelo_inurba_marseille","lat":43.2862,"lon":5.35109,"is_reserved":false,"is_disabled":false,"rental_uris":{"android":"levelo://app?vid=8916c04b-6f4f-464b-9238-b13179d54666","ios":"levelo://app?vid=8916c04b-6f4f-464b-9238-b13179d54666"},"vehicle_type_id":"4","last_reported":1745939438,"current_range_meters":22800,"station_id":"ce4bhch2rcd13ifvqeug","pricing_plan_id":"cebpf4jnsgd1na2vs0mg"},{"bike_id":"ca854131-1306-4bce-be4e-ae3e46c3443e","system_id":"levelo_inurba_marseille","lat":43.32289,"lon":5.38274,"is_reserved":false,"is_disabled":false,"rental_uris":{"android":"levelo://app?vid=ca854131-1306-4bce-be4e-ae3e46c3443e","ios":"levelo://app?vid=ca854131-1306-4bce-be4e-ae3e46c3443e"},"vehicle_type_id":"4","last_reported":1745939438,"current_range_meters":22800,"station_id":"ce4bhr12rcd13ifvqhqg","pricing_plan_id":"cebpf4jnsgd1na2vs0mg"},{"bike_id":"ac07cebd-eeb0-4e8f-9cf4-800065f43d08","system_id":"levelo_inurba_marseille","lat":43.267792,"lon":5.383597,"is_reserved":false,"is_disabled":false,"rental_uris":{"android":"levelo://app?vid=ac07cebd-eeb0-4e8f-9cf4-800065f43d08","ios":"levelo://app?vid=ac07cebd-eeb0-4e8f-9cf4-800065f43d08"},"vehicle_type_id":"4","last_reported":1745939438,"current_range_meters":23200,"station_id":"","pricing_plan_id":"cebpf4jnsgd1na2vs0mg"},{"bike_id":"2f417bf1-7a41-4556-9744-dcfdb7e46877","system_id":"levelo_inurba_marseille","lat":43.27376,"lon":5.36242,"is_reserved":false,"is_disabled":false,"rental_uris":{"android":"levelo://app?vid=2f417bf1-7a41-4556-9744-dcfdb7e46877","ios":"levelo://app?vid=2f417bf1-7a41-4556-9744-dcfdb7e46877"},"vehicle_type_id":"4","last_reported":1745939438,"current_range_meters":23200,"station_id":"ce4bhbh2rcd13ifvqeo0","pricing_plan_id":"cebpf4jnsgd1na2vs0mg"},{"bike_id":"a8eaead4-58f4-473d-b838-5c708b333126","system_id":"levelo_inurba_marseille","lat":43.24169,"lon":5.36396,"is_reserved":false,"is_disabled":false,"rental_uris":{"android":"levelo://app?vid=a8eaead4-58f4-473d-b838-5c708b333126","ios":"levelo://app?vid=a8eaead4-58f4-473d-b838-5c708b333126"},"vehicle_type_id":"4","last_reported":1745939438,"current_range_meters":23200,"station_id":"cpo36qri1sfpv3e86is0","pricing_plan_id":"cebpf4jnsgd1na2vs0mg"},{"bike_id":"21750b3c-aeb8-478f-ab9e-1ecfb16de705","system_id":"levelo_inurba_marseille","lat":43.30911,"lon":5.36854,"is_reserved":false,"is_disabled":false,"rental_uris":{"android":"levelo://app?vid=21750b3c-aeb8-478f-ab9e-1ecfb16de705","ios":"levelo://app?vid=21750b3c-aeb8-478f-ab9e-1ecfb16de705"},"vehicle_type_id":"4","last_reported":1745939438,"current_range_meters":23200,"station_id":"ce4bgn92rcd13ifvqbvg","pricing_plan_id":"cebpf4jnsgd1na2vs0mg"},{"bike_id":"4894d620-196f-4979-9613-6448e92851e5","system_id":"levelo_inurba_marseille","lat":43.29784,"lon":5.37114,"is_reserved":false,"is_disabled":false,"rental_uris":{"android":"levelo://app?vid=4894d620-196f-4979-9613-6448e92851e5","ios":"levelo://app?vid=4894d620-196f-4979-9613-6448e92851e5"},"vehicle_type_id":"4","last_reported":1745939438,"current_range_meters":23200,"station_id":"ce4bgop2rcd13ifvqc1g","pricing_plan_id":"cebpf4jnsgd1na2vs0mg"},{"bike_id":"c33eb9f3-dff4-4285-aed8-8085b9868846","system_id":"levelo_inurba_marseille","lat":43.28409,"lon":5.34994,"is_reserved":false,"is_disabled":false,"rental_uris":{"android":"levelo://app?vid=c33eb9f3-dff4-4285-aed8-8085b9868846","ios":"levelo://app?vid=c33eb9f3-dff4-4285-aed8-8085b9868846"},"vehicle_type_id":"4","last_reported":1745939438,"current_range_meters":23200,"station_id":"ce4bhbh2rcd13ifvqepg","pricing_plan_id":"cebpf4jnsgd1na2vs0mg"},{"bike_id":"dc088dcc-e751-4748-9cb8-66839a6c6c35","system_id":"levelo_inurba_marseille","lat":43.32367,"lon":5.38887,"is_reserved":false,"is_disabled":false,"rental_uris":{"android":"levelo://app?vid=dc088dcc-e751-4748-9cb8-66839a6c6c35","ios":"levelo://app?vid=dc088dcc-e751-4748-9cb8-66839a6c6c35"},"vehicle_type_id":"4","last_reported":1745939438,"current_range_meters":23200,"station_id":"ce4bhqp2rcd13ifvqhog","pricing_plan_id":"cebpf4jnsgd1na2vs0mg"},{"bike_id":"3173d421-a88b-4df4-99c7-c67f298c0e34","system_id":"levelo_inurba_marseille","lat":43.28416,"lon":5.34989,"is_reserved":false,"is_disabled":false,"rental_uris":{"android":"levelo://app?vid=3173d421-a88b-4df4-99c7-c67f298c0e34","ios":"levelo://app?vid=3173d421-a88b-4df4-99c7-c67f298c0e34"},"vehicle_type_id":"4","last_reported":1745939438,"current_range_meters":23200,"station_id":"ce4bhbh2rcd13ifvqepg","pricing_plan_id":"cebpf4jnsgd1na2vs0mg"},{"bike_id":"c3cfac4c-9f0e-4dac-8b96-0d077551016f","system_id":"levelo_inurba_marseille","lat":43.33023,"lon":5.39036,"is_reserved":false,"is_disabled":false,"rental_uris":{"android":"levelo://app?vid=c3cfac4c-9f0e-4dac-8b96-0d077551016f","ios":"levelo://app?vid=c3cfac4c-9f0e-4dac-8b96-0d077551016f"},"vehicle_type_id":"4","last_reported":1745939438,"current_range_meters":23200,"station_id":"ce4bhr92rcd13ifvqhrg","pricing_plan_id":"cebpf4jnsgd1na2vs0mg"},{"bike_id":"054b0626-97ed-4389-a54d-f0db72a8fd35","system_id":"levelo_inurba_marseille","lat":43.27376,"lon":5.36256,"is_reserved":false,"is_disabled":false,"rental_uris":{"android":"levelo://app?vid=054b0626-97ed-4389-a54d-f0db72a8fd35","ios":"levelo://app?vid=054b0626-97ed-4389-a54d-f0db72a8fd35"},"vehicle_type_id":"4","last_reported":1745939438,"current_range_meters":22800,"station_id":"ce4bhbh2rcd13ifvqeo0","pricing_plan_id":"cebpf4jnsgd1na2vs0mg"},{"bike_id":"9202f5d5-89fc-4e38-94ae-03e0f7e5e679","system_id":"levelo_inurba_marseille","lat":43.28936,"lon":5.38392,"is_reserved":false,"is_disabled":false,"rental_uris":{"android":"levelo://app?vid=9202f5d5-89fc-4e38-94ae-03e0f7e5e679","ios":"levelo://app?vid=9202f5d5-89fc-4e38-94ae-03e0f7e5e679"},"vehicle_type_id":"4","last_reported":1745939438,"current_range_meters":23200,"station_id":"ce4bh612rcd13ifvqe6g","pricing_plan_id":"cebpf4jnsgd1na2vs0mg"},{"bike_id":"45863e3c-c555-49a1-9842-43ecd03180d1","system_id":"levelo_inurba_marseille","lat":43.26037,"lon":5.37567,"is_reserved":false,"is_disabled":false,"rental_uris":{"android":"levelo://app?vid=45863e3c-c555-49a1-9842-43ecd03180d1","ios":"levelo://app?vid=45863e3c-c555-49a1-9842-43ecd03180d1"},"vehicle_type_id":"4","last_reported":1745939438,"current_range_meters":24000,"station_id":"ce4bhgh2rcd13ifvqfa0","pricing_plan_id":"cebpf4jnsgd1na2vs0mg"},{"bike_id":"40e7a7a8-2242-42d4-83c4-9e87beecc733","system_id":"levelo_inurba_marseille","lat":43.30602,"lon":5.37234,"is_reserved":false,"is_disabled":false,"rental_uris":{"android":"levelo://app?vid=40e7a7a8-2242-42d4-83c4-9e87beecc733","ios":"levelo://app?vid=40e7a7a8-2242-42d4-83c4-9e87beecc733"},"vehicle_type_id":"4","last_reported":1745939438,"current_range_meters":24000,"station_id":"ce4bgqh2rcd13ifvqc4g","pricing_plan_id":"cebpf4jnsgd1na2vs0mg"},{"bike_id":"cdcf7480-a7be-4e92-a9b2-d8d2ba50c500","system_id":"levelo_inurba_marseille","lat":43.26214,"lon":5.37443,"is_reserved":false,"is_disabled":false,"rental_uris":{"android":"levelo://app?vid=cdcf7480-a7be-4e92-a9b2-d8d2ba50c500","ios":"levelo://app?vid=cdcf7480-a7be-4e92-a9b2-d8d2ba50c500"},"vehicle_type_id":"4","last_reported":1745939438,"current_range_meters":24000,"station_id":"ce4bhgp2rcd13ifvqfc0","pricing_plan_id":"cebpf4jnsgd1na2vs0mg"},{"bike_id":"288b5399-540d-470c-af94-6957e7dabf20","system_id":"levelo_inurba_marseille","lat":43.24169,"lon":5.36394,"is_reserved":false,"is_disabled":false,"rental_uris":{"android":"levelo://app?vid=288b5399-540d-470c-af94-6957e7dabf20","ios":"levelo://app?vid=288b5399-540d-470c-af94-6957e7dabf20"},"vehicle_type_id":"4","last_reported":1745939438,"current_range_meters":24000,"station_id":"cpo36qri1sfpv3e86is0","pricing_plan_id":"cebpf4jnsgd1na2vs0mg"},{"bike_id":"0ebf2320-e449-4b75-8bfe-22815f80e29c","system_id":"levelo_inurba_marseille","lat":43.26553,"lon":5.37286,"is_reserved":false,"is_disabled":false,"rental_uris":{"android":"levelo://app?vid=0ebf2320-e449-4b75-8bfe-22815f80e29c","ios":"levelo://app?vid=0ebf2320-e449-4b75-8bfe-22815f80e29c"},"vehicle_type_id":"4","last_reported":1745939438,"current_range_meters":24000,"station_id":"ce4bhg12rcd13ifvqf70","pricing_plan_id":"cebpf4jnsgd1na2vs0mg"},{"bike_id":"c3607625-be2f-467c-8e9c-377d3ce3b634","system_id":"levelo_inurba_marseille","lat":43.31072,"lon":5.3836,"is_reserved":false,"is_disabled":false,"rental_uris":{"android":"levelo://app?vid=c3607625-be2f-467c-8e9c-377d3ce3b634","ios":"levelo://app?vid=c3607625-be2f-467c-8e9c-377d3ce3b634"},"vehicle_type_id":"4","last_reported":1745939438,"current_range_meters":24000,"station_id":"ce4bgv92rcd13ifvqcr0","pricing_plan_id":"cebpf4jnsgd1na2vs0mg"},{"bike_id":"4d633a48-3a45-4716-8b96-447cc7573a6a","system_id":"levelo_inurba_marseille","lat":43.25091,"lon":5.39527,"is_reserved":false,"is_disabled":false,"rental_uris":{"android":"levelo://app?vid=4d633a48-3a45-4716-8b96-447cc7573a6a","ios":"levelo://app?vid=4d633a48-3a45-4716-8b96-447cc7573a6a"},"vehicle_type_id":"4","last_reported":1745939438,"current_range_meters":23200,"station_id":"ce4bhm12rcd13ifvqgkg","pricing_plan_id":"cebpf4jnsgd1na2vs0mg"},{"bike_id":"9f2a6638-7715-49b7-9a99-08ed519fedbc","system_id":"levelo_inurba_marseille","lat":43.29715,"lon":5.36609,"is_reserved":false,"is_disabled":false,"rental_uris":{"android":"levelo://app?vid=9f2a6638-7715-49b7-9a99-08ed519fedbc","ios":"levelo://app?vid=9f2a6638-7715-49b7-9a99-08ed519fedbc"},