{"last_updated":1750979424,"ttl":60,"version":"2.2","data":{"bikes":[{"bike_id":"3da29fb8-fc97-44c6-b9ac-31dd456b2fd4","system_id":"levelo_inurba_marseille","lat":43.33771,"lon":5.37424,"is_reserved":false,"is_disabled":true,"rental_uris":{"android":"levelo://app?vid=3da29fb8-fc97-44c6-b9ac-31dd456b2fd4","ios":"levelo://app?vid=3da29fb8-fc97-44c6-b9ac-31dd456b2fd4"},"vehicle_type_id":"4","last_reported":1750979424,"current_range_meters":0,"station_id":"","pricing_plan_id":"cebpf4jnsgd1na2vs0mg"},{"bike_id":"01861ad8-a8d7-4be6-816e-651927c87584","system_id":"levelo_inurba_marseille","lat":43.33751,"lon":5.37456,"is_reserved":false,"is_disabled":true,"rental_uris":{"android":"levelo://app?vid=01861ad8-a8d7-4be6-816e-651927c87584","ios":"levelo://app?vid=01861ad8-a8d7-4be6-816e-651927c87584"},"vehicle_type_id":"4","last_reported":1750979424,"current_range_meters":0,"station_id":"","pricing_plan_id":"cebpf4jnsgd1na2vs0mg"},{"bike_id":"307719d8-858f-4aa2-9777-bb1fd3e52674","system_id":"levelo_inurba_marseille","lat":43.26218,"lon":5.37047,"is_reserved":false,"is_disabled":true,"rental_uris":{"android":"levelo://app?vid=307719d8-858f-4aa2-9777-bb1fd3e52674","ios":"levelo://app?vid=307719d8-858f-4aa2-9777-bb1fd3e52674"},"vehicle_type_id":"4","last_reported":1750979424,"current_range_meters":0,"station_id":"","pricing_plan_id":"cebpf4jnsgd1na2vs0mg"},{"bike_id":"7d5d4f17-3bf3-4858-860d-f62ae939381f","system_id":"levelo_inurba_marseille","lat":43.309,"lon":5.40526,"is_reserved":false,"is_disabled":true,"rental_uris":{"android":"levelo://app?vid=7d5d4f17-3bf3-4858-860d-f62ae939381f","ios":"levelo://app?vid=7d5d4f17-3bf3-4858-860d-f62ae939381f"},"vehicle_type_id":"4","last_reported":1750979424,"current_range_meters":0,"station_id":"","pricing_plan_id":"cebpf4jnsgd1na2vs0mg"},{"bike_id":"a147e67d-e0b1-425e-bbda-ae9524df353e","system_id":"levelo_inurba_marseille","lat":43.337541,"lon":5.374577,"is_reserved":false,"is_disabled":true,"rental_uris":{"android":"levelo://app?vid=a147e67d-e0b1-425e-bbda-ae9524df353e","ios":"levelo://app?vid=a147e67d-e0b1-425e-bbda-ae9524df353e"},"vehicle_type_id":"4","last_reported":1750979424,"current_range_meters":0,"station_id":"","pricing_plan_id":"cebpf4jnsgd1na2vs0mg"},{"bike_id":"0920ffba-c87a-4096-802d-7079b4c3631d","system_id":"levelo_inurba_marseille","lat":43.301434,"lon":5.374194,"is_reserved":false,"is_disabled":true,"rental_uris":{"android":"levelo://app?vid=0920ffba-c87a-4096-802d-7079b4c3631d","ios":"levelo://app?vid=0920ffba-c87a-4096-802d-7079b4c3631d"},"vehicle_type_id":"4","last_reported":1750979424,"current_range_meters":0,"station_id":"","pricing_plan_id":"cebpf4jnsgd1na2vs0mg"},{"bike_id":"4d064f95-6dcb-4234-9e98-7c70fbb74351","system_id":"levelo_inurba_marseille","lat":43.337444,"lon":5.374475,"is_reserved":false,"is_disabled":true,"rental_uris":{"android":"levelo://app?vid=4d064f95-6dcb-4234-9e98-7c70fbb74351","ios":"levelo://app?vid=4d064f95-6dcb-4234-9e98-7c70fbb74351"},"vehicle_type_id":"4","last_reported":1750979424,"current_range_meters":0,"station_id":"","pricing_plan_id":"cebpf4jnsgd1na2vs0mg"},{"bike_id":"06b961c7-f3ce-4c1c-a618-db74d23ebaea","system_id":"levelo_inurba_marseille","lat":43.288848,"lon":5.378648,"is_reserved":false,"is_disabled":true,"rental_uris":{"android":"levelo://app?vid=06b961c7-f3ce-4c1c-a618-db74d23ebaea","ios":"levelo://app?vid=06b961c7-f3ce-4c1c-a618-db74d23ebaea"},"vehicle_type_id":"4","last_reported":1750979424,"current_range_meters":0,"station_id":"","pricing_plan_id":"cebpf4jnsgd1na2vs0mg"},{"bike_id":"d6609b4f-333b-43c1-9ebe-8726f5e76e88","system_id":"levelo_inurba_marseille","lat":43.337444,"lon":5.374475,"is_reserved":false,"is_disabled":true,"rental_uris":{"android":"levelo://app?vid=d6609b4f-333b-43c1-9ebe-8726f5e76e88","ios":"levelo://app?vid=d6609b4f-333b-43c1-9ebe-8726f5e76e88"},"vehicle_type_id":"4","last_reported":1750979424,"current_range_meters":0,"station_id":"","pricing_plan_id":"cebpf4jnsgd1na2vs0mg"},{"bike_id":"3583f331-6c0b-49be-9913-9dde300034d9","system_id":"levelo_inurba_marseille","lat":43.24625,"lon":5.40214,"is_reserved":false,"is_disabled":true,"rental_uris":{"android":"levelo://app?vid=3583f331-6c0b-49be-9913-9dde300034d9","ios":"levelo://app?vid=3583f331-6c0b-49be-9913-9dde300034d9"},"vehicle_type_id":"4","last_reported":1750979424,"current_range_meters":0,"station_id":"","pricing_plan_id":"cebpf4jnsgd1na2vs0mg"},{"bike_id":"bf027107-0fe5-47a2-8fef-6473f83bb647","system_id":"levelo_inurba_marseille","lat":43.329533,"lon":5.363863,"is_reserved":false,"is_disabled":true,"rental_uris":{"android":"levelo://app?vid=bf027107-0fe5-47a2-8fef-6473f83bb647","ios":"levelo://app?vid=bf027107-0fe5-47a2-8fef-6473f83bb647"},"vehicle_type_id":"4","last_reported":1750979424,"current_range_meters":0,"station_id":"","pricing_plan_id":"cebpf4jnsgd1na2vs0mg"},{"bike_id":"b17b6606-336a-4606-9b65-af139c49de26","system_id":"levelo_inurba_marseille","lat":43.25675,"lon":5.42695,"is_reserved":false,"is_disabled":true,"rental_uris":{"android":"levelo://app?vid=b17b6606-336a-4606-9b65-af139c49de26","ios":"levelo://app?vid=b17b6606-336a-4606-9b65-af139c49de26"},"vehicle_type_id":"4","last_reported":1750979424,"current_range_meters":0,"station_id":"","pricing_plan_id":"cebpf4jnsgd1na2vs0mg"},{"bike_id":"9d3724b1-0dc8-4689-9d6a-55005a9503cb","system_id":"levelo_inurba_marseille","lat":43.286154,"lon":5.428172,"is_reserved":false,"is_disabled":true,"rental_uris":{"android":"levelo://app?vid=9d3724b1-0dc8-4689-9d6a-55005a9503cb","ios":"levelo://app?vid=9d3724b1-0dc8-4689-9d6a-55005a9503cb"},"vehicle_type_id":"4","last_reported":1750979424,"current_range_meters":0,"station_id":"","pricing_plan_id":"cebpf4jnsgd1na2vs0mg"},{"bike_id":"ce774a04-a4be-4eca-a30f-78eb921955bd","system_id":"levelo_inurba_marseille","lat":43.33878,"lon":5.35544,"is_reserved":false,"is_disabled":true,"rental_uris":{"android":"levelo://app?vid=ce774a04-a4be-4eca-a30f-78eb921955bd","ios":"levelo://app?vid=ce774a04-a4be-4eca-a30f-78eb921955bd"},"vehicle_type_id":"4","last_reported":1750979424,"current_range_meters":0,"station_id":"","pricing_plan_id":"cebpf4jnsgd1na2vs0mg"},{"bike_id":"479aa0bd-0750-43c9-a904-e911c8e7fc23","system_id":"levelo_inurba_marseille","lat":43.311462,"lon":5.382868,"is_reserved":false,"is_disabled":true,"rental_uris":{"android":"levelo://app?vid=479aa0bd-0750-43c9-a904-e911c8e7fc23","ios":"levelo://app?vid=479aa0bd-0750-43c9-a904-e911c8e7fc23"},"vehicle_type_id":"4","last_reported":1750979424,"current_range_meters":0,"station_id":"","pricing_plan_id":"cebpf4jnsgd1na2vs0mg"},{"bike_id":"27a4d250-b213-4baa-95f2-bbf2f0bb8804","system_id":"levelo_inurba_marseille","lat":43.28577,"lon":5.3949,"is_reserved":false,"is_disabled":true,"rental_uris":{"android":"levelo://app?vid=27a4d250-b213-4baa-95f2-bbf2f0bb8804","ios":"levelo://app?vid=27a4d250-b213-4baa-95f2-bbf2f0bb8804"},"vehicle_type_id":"4","last_reported":1750979424,"current_range_meters":0,"station_id":"ce4bh292rcd13ifvqdg0","pricing_plan_id":"cebpf4jnsgd1na2vs0mg"},{"bike_id":"20dd67de-e69b-46be-a01d-6ed746d238b6","system_id":"levelo_inurba_marseille","lat":43.28477,"lon":5.38426,"is_reserved":false,"is_disabled":true,"rental_uris":{"android":"levelo://app?vid=20dd67de-e69b-46be-a01d-6ed746d238b6","ios":"levelo://app?vid=20dd67de-e69b-46be-a01d-6ed746d238b6"},"vehicle_type_id":"4","last_reported":1750979424,"current_range_meters":0,"station_id":"ce4bh512rcd13ifvqe3g","pricing_plan_id":"cebpf4jnsgd1na2vs0mg"},{"bike_id":"4cf84769-0dc7-4755-b1bd-81e46cc80894","system_id":"levelo_inurba_marseille","lat":43.28934,"lon":5.36641,"is_reserved":false,"is_disabled":true,"rental_uris":{"android":"levelo://app?vid=4cf84769-0dc7-4755-b1bd-81e46cc80894","ios":"levelo://app?vid=4cf84769-0dc7-4755-b1bd-81e46cc80894"},"vehicle_type_id":"4","last_reported":1750979424,"current_range_meters":0,"station_id":"ce4bhap2rcd13ifvqek0","pricing_plan_id":"cebpf4jnsgd1na2vs0mg"},{"bike_id":"01ad2112-1a6e-4e87-a406-3d7338c4ea8c","system_id":"levelo_inurba_marseille","lat":43.231454,"lon":5.437269,"is_reserved":false,"is_disabled":true,"rental_uris":{"android":"levelo://app?vid=01ad2112-1a6e-4e87-a406-3d7338c4ea8c","ios":"levelo://app?vid=01ad2112-1a6e-4e87-a406-3d7338c4ea8c"},"vehicle_type_id":"4","last_reported":1750979424,"current_range_meters":0,"station_id":"ce4bhmp2rcd13ifvqgog","pricing_plan_id":"cebpf4jnsgd1na2vs0mg"},{"bike_id":"5a3dab73-c126-4de6-a97f-f9ca71f0b35f","system_id":"levelo_inurba_marseille","lat":43.21759,"lon":5.34591,"is_reserved":false,"is_disabled":true,"rental_uris":{"android":"levelo://app?vid=5a3dab73-c126-4de6-a97f-f9ca71f0b35f","ios":"levelo://app?vid=5a3dab73-c126-4de6-a97f-f9ca71f0b35f"},"vehicle_type_id":"4","last_reported":1750979424,"current_range_meters":0,"station_id":"st_cvj6r9ubvosntc0bgbag","pricing_plan_id":"cebpf4jnsgd1na2vs0mg"},{"bike_id":"9fadf070-1086-4b7b-a999-d69cb737ac07","system_id":"levelo_inurba_marseille","lat":43.21746,"lon":5.34616,"is_reserved":false,"is_disabled":true,"rental_uris":{"android":"levelo://app?vid=9fadf070-1086-4b7b-a999-d69cb737ac07","ios":"levelo://app?vid=9fadf070-1086-4b7b-a999-d69cb737ac07"},"vehicle_type_id":"4","last_reported":1750979424,"current_range_meters":0,"station_id":"st_cvj6r9ubvosntc0bgbag","pricing_plan_id":"cebpf4jnsgd1na2vs0mg"},{"bike_id":"cdb687b2-0322-480a-b17b-d5f5160446f9","system_id":"levelo_inurba_marseille","lat":43.21749,"lon":5.34596,"is_reserved":false,"is_disabled":true,"rental_uris":{"android":"levelo://app?vid=cdb687b2-0322-480a-b17b-d5f5160446f9","ios":"levelo://app?vid=cdb687b2-0322-480a-b17b-d5f5160446f9"},"vehicle_type_id":"4","last_reported":1750979424,"current_range_meters":0,"station_id":"st_cvj6r9ubvosntc0bgbag","pricing_plan_id":"cebpf4jnsgd1na2vs0mg"},{"bike_id":"2ae278c9-8939-43b6-ae64-1735e91cccaf","system_id":"levelo_inurba_marseille","lat":43.21189,"lon":5.35068,"is_reserved":false,"is_disabled":true,"rental_uris":{"android":"levelo://app?vid=2ae278c9-8939-43b6-ae64-1735e91cccaf","ios":"levelo://app?vid=2ae278c9-8939-43b6-ae64-1735e91cccaf"},"vehicle_type_id":"4","last_reported":1750979424,"current_range_meters":0,"station_id":"st_cvj6sg6p6f1abm77japg","pricing_plan_id":"cebpf4jnsgd1na2vs0mg"},{"bike_id":"98d8cec0-6d70-4a89-ad60-af277c5dbe03","system_id":"levelo_inurba_marseille","lat":43.29991,"lon":5.38481,"is_reserved":false,"is_disabled":false,"rental_uris":{"android":"levelo://app?vid=98d8cec0-6d70-4a89-ad60-af277c5dbe03","ios":"levelo://app?vid=98d8cec0-6d70-4a89-ad60-af277c5dbe03"},"vehicle_type_id":"4","last_reported":1750979424,"current_range_meters":400,"station_id":"ce4bgj92rcd13ifvqbd0","pricing_plan_id":"cebpf4jnsgd1na2vs0mg"},{"bike_id":"50031447-80da-487f-93e7-82c30e284787","system_id":"levelo_inurba_marseille","lat":43.305268,"lon":5.372927,"is_reserved":false,"is_disabled":true,"rental_uris":{"android":"levelo://app?vid=50031447-80da-487f-93e7-82c30e284787","ios":"levelo://app?vid=50031447-80da-487f-93e7-82c30e284787"},"vehicle_type_id":"4","last_reported":1750979424,"current_range_meters":800,"station_id":"ce4bgqh2rcd13ifvqc4g","pricing_plan_id":"cebpf4jnsgd1na2vs0mg"},{"bike_id":"f9548be8-358e-4b8e-be1e-47fe2c345e29","system_id":"levelo_inurba_marseille","lat":43.28033,"lon":5.36957,"is_reserved":false,"is_disabled":true,"rental_uris":{"android":"levelo://app?vid=f9548be8-358e-4b8e-be1e-47fe2c345e29","ios":"levelo://app?vid=f9548be8-358e-4b8e-be1e-47fe2c345e29"},"vehicle_type_id":"4","last_reported":1750979424,"current_range_meters":800,"station_id":"ce4bha12rcd13ifvqef0","pricing_plan_id":"cebpf4jnsgd1na2vs0mg"},{"bike_id":"b6ffa45c-b8dc-412c-b3df-7e11b77d0d02","system_id":"levelo_inurba_marseille","lat":43.260331,"lon":5.375436,"is_reserved":false,"is_disabled":true,"rental_uris":{"android":"levelo://app?vid=b6ffa45c-b8dc-412c-b3df-7e11b77d0d02","ios":"levelo://app?vid=b6ffa45c-b8dc-412c-b3df-7e11b77d0d02"},"vehicle_type_id":"4","last_reported":1750979424,"current_range_meters":800,"station_id":"ce4bhgh2rcd13ifvqfa0","pricing_plan_id":"cebpf4jnsgd1na2vs0mg"},{"bike_id":"4da07065-f6cd-4388-89a3-ec67efe90a65","system_id":"levelo_inurba_marseille","lat":43.31267,"lon":5.401778,"is_reserved":false,"is_disabled":true,"rental_uris":{"android":"levelo://app?vid=4da07065-f6cd-4388-89a3-ec67efe90a65","ios":"levelo://app?vid=4da07065-f6cd-4388-89a3-ec67efe90a65"},"vehicle_type_id":"4","last_reported":1750979424,"current_range_meters":1200,"station_id":"ce4bh092rcd13ifvqd30","pricing_plan_id":"cebpf4jnsgd1na2vs0mg"},{"bike_id":"ecb10be1-2d02-4296-9efb-15da2d4b062b","system_id":"levelo_inurba_marseille","lat":43.30639,"lon":5.40095,"is_reserved":false,"is_disabled":false,"rental_uris":{"android":"levelo://app?vid=ecb10be1-2d02-4296-9efb-15da2d4b062b","ios":"levelo://app?vid=ecb10be1-2d02-4296-9efb-15da2d4b062b"},"vehicle_type_id":"4","last_reported":1750979424,"current_range_meters":2800,"station_id":"ce4bh112rcd13ifvqda0","pricing_plan_id":"cebpf4jnsgd1na2vs0mg"},{"bike_id":"67a5051a-b32e-408a-8389-c22b54eb81f6","system_id":"levelo_inurba_marseille","lat":43.33003,"lon":5.4561,"is_reserved":false,"is_disabled":false,"rental_uris":{"android":"levelo://app?vid=67a5051a-b32e-408a-8389-c22b54eb81f6","ios":"levelo://app?vid=67a5051a-b32e-408a-8389-c22b54eb81f6"},"vehicle_type_id":"4","last_reported":1750979424,"current_range_meters":3200,"station_id":"","pricing_plan_id":"cebpf4jnsgd1na2vs0mg"},{"bike_id":"8878b779-0320-4ea8-8162-5906d108fd32","system_id":"levelo_inurba_marseille","lat":43.306037,"lon":5.372233,"is_reserved":false,"is_disabled":false,"rental_uris":{"android":"levelo://app?vid=8878b779-0320-4ea8-8162-5906d108fd32","ios":"levelo://app?vid=8878b779-0320-4ea8-8162-5906d108fd32"},"vehicle_type_id":"4","last_reported":1750979424,"current_range_meters":3200,"station_id":"ce4bgqh2rcd13ifvqc4g","pricing_plan_id":"cebpf4jnsgd1na2vs0mg"},{"bike_id":"f481f26f-2e6e-412d-b6b6-894e46876d2d","system_id":"levelo_inurba_marseille","lat":43.3134,"lon":5.39682,"is_reserved":false,"is_disabled":false,"rental_uris":{"android":"levelo://app?vid=f481f26f-2e6e-412d-b6b6-894e46876d2d","ios":"levelo://app?vid=f481f26f-2e6e-412d-b6b6-894e46876d2d"},"vehicle_type_id":"4","last_reported":1750979424,"current_range_meters":3200,"station_id":"ce4bgvp2rcd13ifvqcu0","pricing_plan_id":"cebpf4jnsgd1na2vs0mg"},{"bike_id":"a409df2d-7f3a-4193-a819-c77e0040573a","system_id":"levelo_inurba_marseille","lat":43.28333,"lon":5.38086,"is_reserved":false,"is_disabled":false,"rental_uris":{"android":"levelo://app?vid=a409df2d-7f3a-4193-a819-c77e0040573a","ios":"levelo://app?vid=a409df2d-7f3a-4193-a819-c77e0040573a"},"vehicle_type_id":"4","last_reported":1750979424,"current_range_meters":3200,"station_id":"ce4bh412rcd13ifvqdr0","pricing_plan_id":"cebpf4jnsgd1na2vs0mg"},{"bike_id":"056a9844-b1ec-48ec-ac98-569ce39622b8","system_id":"levelo_inurba_marseille","lat":43.28421,"lon":5.39242,"is_reserved":false,"is_disabled":false,"rental_uris":{"android":"levelo://app?vid=056a9844-b1ec-48ec-ac98-569ce39622b8","ios":"levelo://app?vid=056a9844-b1ec-48ec-ac98-569ce39622b8"},"vehicle_type_id":"4","last_reported":1750979424,"current_range_meters":3200,"station_id":"ce4bhoh2rcd13ifvqh5g","pricing_plan_id":"cebpf4jnsgd1na2vs0mg"},{"bike_id":"03038edd-0e4e-4dcd-a0da-821338252049","system_id":"levelo_inurba_marseille","lat":43.29422,"lon":5.386347,"is_reserved":false,"is_disabled":false,"rental_uris":{"android":"levelo://app?vid=03038edd-0e4e-4dcd-a0da-821338252049","ios":"levelo://app?vid=03038edd-0e4e-4dcd-a0da-821338252049"},"vehicle_type_id":"4","last_reported":1750979424,"current_range_meters":3600,"station_id":"ce4bh292rcd13ifvqdf0","pricing_plan_id":"cebpf4jnsgd1na2vs0mg"},{"bike_id":"ae0e967e-5653-42ae-bc28-e921a2a4018e","system_id":"levelo_inurba_marseille","lat":43.28458,"lon":5.35882,"is_reserved":false,"is_disabled":false,"rental_uris":{"android":"levelo://app?vid=ae0e967e-5653-42ae-bc28-e921a2a4018e","ios":"levelo://app?vid=ae0e967e-5653-42ae-bc28-e921a2a4018e"},"vehicle_type_id":"4","last_reported":1750979424,"current_range_meters":3600,"station_id":"ce4bhah2rcd13ifvqei0","pricing_plan_id":"cebpf4jnsgd1na2vs0mg"},{"bike_id":"a86d2f9f-83d8-4f17-8422-d08e982c4a2a","system_id":"levelo_inurba_marseille","lat":43.29745,"lon":5.44858,"is_reserved":false,"is_disabled":false,"rental_uris":{"android":"levelo://app?vid=a86d2f9f-83d8-4f17-8422-d08e982c4a2a","ios":"levelo://app?vid=a86d2f9f-83d8-4f17-8422-d08e982c4a2a"},"vehicle_type_id":"4","last_reported":1750979424,"current_range_meters":4000,"station_id":"","pricing_plan_id":"cebpf4jnsgd1na2vs0mg"},{"bike_id":"6b04cc5b-0ab7-451f-a211-3a67da071d94","system_id":"levelo_inurba_marseille","lat":43.2978,"lon":5.39335,"is_reserved":false,"is_disabled":false,"rental_uris":{"android":"levelo://app?vid=6b04cc5b-0ab7-451f-a211-3a67da071d94","ios":"levelo://app?vid=6b04cc5b-0ab7-451f-a211-3a67da071d94"},"vehicle_type_id":"4","last_reported":1750979424,"current_range_meters":4000,"station_id":"chh1huq6cuj3fo74tm60","pricing_plan_id":"cebpf4jnsgd1na2vs0mg"},{"bike_id":"0b6418a8-8bf3-444d-9eb4-0a83b1a8b4b2","system_id":"levelo_inurba_marseille","lat":43.30597,"lon":5.38357,"is_reserved":false,"is_disabled":false,"rental_uris":{"android":"levelo://app?vid=0b6418a8-8bf3-444d-9eb4-0a83b1a8b4b2","ios":"levelo://app?vid=0b6418a8-8bf3-444d-9eb4-0a83b1a8b4b2"},"vehicle_type_id":"4","last_reported":1750979424,"current_range_meters":4800,"station_id":"","pricing_plan_id":"cebpf4jnsgd1na2vs0mg"},{"bike_id":"e1c0ceeb-44db-4bd4-82f3-ad5376ea464c","system_id":"levelo_inurba_marseille","lat":43.30889,"lon":5.39649,"is_reserved":false,"is_disabled":false,"rental_uris":{"android":"levelo://app?vid=e1c0ceeb-44db-4bd4-82f3-ad5376ea464c","ios":"levelo://app?vid=e1c0ceeb-44db-4bd4-82f3-ad5376ea464c"},"vehicle_type_id":"4","last_reported":1750979424,"current_range_meters":4800,"station_id":"ce4bh012rcd13ifvqcv0","pricing_plan_id":"cebpf4jnsgd1na2vs0mg"},{"bike_id":"ec40e3cc-66c5-4e03-ab63-f45ba7687d92","system_id":"levelo_inurba_marseille","lat":43.292773,"lon":5.401219,"is_reserved":false,"is_disabled":false,"rental_uris":{"android":"levelo://app?vid=ec40e3cc-66c5-4e03-ab63-f45ba7687d92","ios":"levelo://app?vid=ec40e3cc-66c5-4e03-ab63-f45ba7687d92"},"vehicle_type_id":"4","last_reported":1750979424,"current_range_meters":6000,"station_id":"","pricing_plan_id":"cebpf4jnsgd1na2vs0mg"},{"bike_id":"4893b7db-7478-4cdb-86e3-fd64a694c508","system_id":"levelo_inurba_marseille","lat":43.25111,"lon":5.40324,"is_reserved":false,"is_disabled":false,"rental_uris":{"android":"levelo://app?vid=4893b7db-7478-4cdb-86e3-fd64a694c508","ios":"levelo://app?vid=4893b7db-7478-4cdb-86e3-fd64a694c508"},"vehicle_type_id":"4","last_reported":1750979424,"current_range_meters":6000,"station_id":"ce4bhlh2rcd13ifvqgig","pricing_plan_id":"cebpf4jnsgd1na2vs0mg"},{"bike_id":"af112b62-19de-41d4-b8d7-e14d0172315d","system_id":"levelo_inurba_marseille","lat":43.326821,"lon":5.392654,"is_reserved":false,"is_disabled":false,"rental_uris":{"android":"levelo://app?vid=af112b62-19de-41d4-b8d7-e14d0172315d","ios":"levelo://app?vid=af112b62-19de-41d4-b8d7-e14d0172315d"},"vehicle_type_id":"4","last_reported":1750979424,"current_range_meters":6400,"station_id":"","pricing_plan_id":"cebpf4jnsgd1na2vs0mg"},{"bike_id":"0966d482-f604-42c8-8b78-ee492d399438","system_id":"levelo_inurba_marseille","lat":43.31071,"lon":5.3835,"is_reserved":false,"is_disabled":false,"rental_uris":{"android":"levelo://app?vid=0966d482-f604-42c8-8b78-ee492d399438","ios":"levelo://app?vid=0966d482-f604-42c8-8b78-ee492d399438"},"vehicle_type_id":"4","last_reported":1750979424,"current_range_meters":6400,"station_id":"ce4bgv92rcd13ifvqcr0","pricing_plan_id":"cebpf4jnsgd1na2vs0mg"},{"bike_id":"5eeee7b6-b14d-4ef7-88dd-aa18cdfd96b0","system_id":"levelo_inurba_marseille","lat":43.296246,"lon":5.405943,"is_reserved":false,"is_disabled":false,"rental_uris":{"android":"levelo://app?vid=5eeee7b6-b14d-4ef7-88dd-aa18cdfd96b0","ios":"levelo://app?vid=5eeee7b6-b14d-4ef7-88dd-aa18cdfd96b0"},"vehicle_type_id":"4","last_reported":1750979424,"current_range_meters":6400,"station_id":"ce4bh0h2rcd13ifvqd60","pricing_plan_id":"cebpf4jnsgd1na2vs0mg"},{"bike_id":"e311149d-7283-4d1b-ad7a-069950396529","system_id":"levelo_inurba_marseille","lat":43.29025,"lon":5.3815,"is_reserved":false,"is_disabled":false,"rental_uris":{"android":"levelo://app?vid=e311149d-7283-4d1b-ad7a-069950396529","ios":"levelo://app?vid=e311149d-7283-4d1b-ad7a-069950396529"},"vehicle_type_id":"4","last_reported":1750979424,"current_range_meters":6400,"station_id":"ce4bh4p2rcd13ifvqe1g","pricing_plan_id":"cebpf4jnsgd1na2vs0mg"},{"bike_id":"fab74838-fc36-4b4b-b40a-98be925ef3e6","system_id":"levelo_inurba_marseille","lat":43.241757,"lon":5.397472,"is_reserved":false,"is_disabled":false,"rental_uris":{"android":"levelo://app?vid=fab74838-fc36-4b4b-b40a-98be925ef3e6","ios":"levelo://app?vid=fab74838-fc36-4b4b-b40a-98be925ef3e6"},"vehicle_type_id":"4","last_reported":1750979424,"current_range_meters":6400,"station_id":"ce4bhn12rcd13ifvqgpg","pricing_plan_id":"cebpf4jnsgd1na2vs0mg"},{"bike_id":"d6f678fd-0a68-42c1-b67e-a414caceb240","system_id":"levelo_inurba_marseille","lat":43.30419,"lon":5.41282,"is_reserved":false,"is_disabled":false,"rental_uris":{"android":"levelo://app?vid=d6f678fd-0a68-42c1-b67e-a414caceb240","ios":"levelo://app?vid=d6f678fd-0a68-42c1-b67e-a414caceb240"},"vehicle_type_id":"4","last_reported":1750979424,"current_range_meters":6400,"station_id":"ce4bhop2rcd13ifvqh8g","pricing_plan_id":"cebpf4jnsgd1na2vs0mg"},{"bike_id":"26a14eba-87a9-47b8-9607-30bd0042d428","system_id":"levelo_inurba_marseille","lat":43.314778,"lon":5.394186,"is_reserved":false,"is_disabled":false,"rental_uris":{"android":"levelo://app?vid=26a14eba-87a9-47b8-9607-30bd0042d428","ios":"levelo://app?vid=26a14eba-87a9-47b8-9607-30bd0042d428"},"vehicle_type_id":"4","last_reported":1750979424,"current_range_meters":6800,"station_id":"","pricing_plan_id":"cebpf4jnsgd1na2vs0mg"},{"bike_id":"0ad24ab5-c5a2-42d6-92b3-dcf94779f33e","system_id":"levelo_inurba_marseille","lat":43.30151,"lon":5.374083,"is_reserved":false,"is_disabled":false,"rental_uris":{"android":"levelo://app?vid=0ad24ab5-c5a2-42d6-92b3-dcf94779f33e","ios":"levelo://app?vid=0ad24ab5-c5a2-42d6-92b3-dcf94779f33e"},"vehicle_type_id":"4","last_reported":1750979424,"current_range_meters":6800,"station_id":"ce4bgs92rcd13ifvqcc0","pricing_plan_id":"cebpf4jnsgd1na2vs0mg"},{"bike_id":"231a1f3e-6b83-4e4d-a3e8-72fe6116153f","system_id":"levelo_inurba_marseille","lat":43.31174,"lon":5.38733,"is_reserved":false,"is_disabled":false,"rental_uris":{"android":"levelo://app?vid=231a1f3e-6b83-4e4d-a3e8-72fe6116153f","ios":"levelo://app?vid=231a1f3e-6b83-4e4d-a3e8-72fe6116153f"},"vehicle_type_id":"4","last_reported":1750979424,"current_range_meters":6800,"station_id":"ce4bgv12rcd13ifvqcp0","pricing_plan_id":"cebpf4jnsgd1na2vs0mg"},{"bike_id":"9c8cd588-812a-4772-9aea-ccdca8d5c516","system_id":"levelo_inurba_marseille","lat":43.32121,"lon":5.40807,"is_reserved":false,"is_disabled":false,"rental_uris":{"android":"levelo://app?vid=9c8cd588-812a-4772-9aea-ccdca8d5c516","ios":"levelo://app?vid=9c8cd588-812a-4772-9aea-ccdca8d5c516"},"vehicle_type_id":"4","last_reported":1750979424,"current_range_meters":6800,"station_id":"ce4bgvh2rcd13ifvqcs0","pricing_plan_id":"cebpf4jnsgd1na2vs0mg"},{"bike_id":"52507bd6-0f52-4593-902a-07e9a8e74ff8","system_id":"levelo_inurba_marseille","lat":43.284134,"lon":5.375061,"is_reserved":false,"is_disabled":false,"rental_uris":{"android":"levelo://app?vid=52507bd6-0f52-4593-902a-07e9a8e74ff8","ios":"levelo://app?vid=52507bd6-0f52-4593-902a-07e9a8e74ff8"},"vehicle_type_id":"4","last_reported":1750979424,"current_range_meters":6800,"station_id":"ce4bh412rcd13ifvqds0","pricing_plan_id":"cebpf4jnsgd1na2vs0mg"},{"bike_id":"cd2362eb-6d8b-4904-9538-6a6a92d57f08","system_id":"levelo_inurba_marseille","lat":43.27424,"lon":5.39414,"is_reserved":false,"is_disabled":false,"rental_uris":{"android":"levelo://app?vid=cd2362eb-6d8b-4904-9538-6a6a92d57f08","ios":"levelo://app?vid=cd2362eb-6d8b-4904-9538-6a6a92d57f08"},"vehicle_type_id":"4","last_reported":1750979424,"current_range_meters":6800,"station_id":"ce4bhdp2rcd13ifvqf20","pricing_plan_id":"cebpf4jnsgd1na2vs0mg"},{"bike_id":"8c3af7af-45dc-4873-983b-b8926e736e48","system_id":"levelo_inurba_marseille","lat":43.31192,"lon":5.3676,"is_reserved":false,"is_disabled":false,"rental_uris":{"android":"levelo://app?vid=8c3af7af-45dc-4873-983b-b8926e736e48","ios":"levelo://app?vid=8c3af7af-45dc-4873-983b-b8926e736e48"},"vehicle_type_id":"4","last_reported":1750979424,"current_range_meters":7200,"station_id":"","pricing_plan_id":"cebpf4jnsgd1na2vs0mg"},{"bike_id":"f5bed570-7d51-4f3b-8db2-78d801a26901","system_id":"levelo_inurba_marseille","lat":43.29267,"lon":5.384375,"is_reserved":false,"is_disabled":false,"rental_uris":{"android":"levelo://app?vid=f5bed570-7d51-4f3b-8db2-78d801a26901","ios":"levelo://app?vid=f5bed570-7d51-4f3b-8db2-78d801a26901"},"vehicle_type_id":"4","last_reported":1750979424,"current_range_meters":7200,"station_id":"ce4bh692rcd13ifvqea0","pricing_plan_id":"cebpf4jnsgd1na2vs0mg"},{"bike_id":"74d6a32c-ae11-424d-b3ba-47a322469c58","system_id":"levelo_inurba_marseille","lat":43.304,"lon":5.39757,"is_reserved":false,"is_disabled":false,"rental_uris":{"android":"levelo://app?vid=74d6a32c-ae11-424d-b3ba-47a322469c58","ios":"levelo://app?vid=74d6a32c-ae11-424d-b3ba-47a322469c58"},"vehicle_type_id":"4","last_reported":1750979424,"current_range_meters":8000,"station_id":"ce4bh092rcd13ifvqd20","pricing_plan_id":"cebpf4jnsgd1na2vs0mg"},{"bike_id":"28e3a5a3-009d-4556-b052-14d9eba578aa","system_id":"levelo_inurba_marseille","lat":43.29625,"lon":5.37163,"is_reserved":false,"is_disabled":false,"rental_uris":{"android":"levelo://app?vid=28e3a5a3-009d-4556-b052-14d9eba578aa","ios":"levelo://app?vid=28e3a5a3-009d-4556-b052-14d9eba578aa"},"vehicle_type_id":"4","last_reported":1750979424,"current_range_meters":8400,"station_id":"ce4bgnh2rcd13ifvqc0g","pricing_plan_id":"cebpf4jnsgd1na2vs0mg"},{"bike_id":"884495b8-3589-4d4c-8e48-ede2d633d0af","system_id":"levelo_inurba_marseille","lat":43.30417,"lon":5.39774,"is_reserved":false,"is_disabled":false,"rental_uris":{"android":"levelo://app?vid=884495b8-3589-4d4c-8e48-ede2d633d0af","ios":"levelo://app?vid=884495b8-3589-4d4c-8e48-ede2d633d0af"},"vehicle_type_id":"4","last_reported":1750979424,"current_range_meters":8400,"station_id":"ce4bh092rcd13ifvqd20","pricing_plan_id":"cebpf4jnsgd1na2vs0mg"},{"bike_id":"d44646c8-2f9d-4556-9e6a-f320162758bb","system_id":"levelo_inurba_marseille","lat":43.28344,"lon":5.38115,"is_reserved":false,"is_disabled":false,"rental_uris":{"android":"levelo://app?vid=d44646c8-2f9d-4556-9e6a-f320162758bb","ios":"levelo://app?vid=d44646c8-2f9d-4556-9e6a-f320162758bb"},"vehicle_type_id":"4","last_reported":1750979424,"current_range_meters":8400,"station_id":"ce4bh412rcd13ifvqdr0","pricing_plan_id":"cebpf4jnsgd1na2vs0mg"},{"bike_id":"5014922d-8185-46af-a203-a91cc2e06b36","system_id":"levelo_inurba_marseille","lat":43.283654,"lon":5.386362,"is_reserved":false,"is_disabled":false,"rental_uris":{"android":"levelo://app?vid=5014922d-8185-46af-a203-a91cc2e06b36","ios":"levelo://app?vid=5014922d-8185-46af-a203-a91cc2e06b36"},"vehicle_type_id":"4","last_reported":1750979424,"current_range_meters":8400,"station_id":"ce4bh492rcd13ifvqdvg","pricing_plan_id":"cebpf4jnsgd1na2vs0mg"},{"bike_id":"2b9a93b0-78b6-49bf-a282-1555cccb811e","system_id":"levelo_inurba_marseille","lat":43.28699,"lon":5.39971,"is_reserved":false,"is_disabled":false,"rental_uris":{"android":"levelo://app?vid=2b9a93b0-78b6-49bf-a282-1555cccb811e","ios":"levelo://app?vid=2b9a93b0-78b6-49bf-a282-1555cccb811e"},"vehicle_type_id":"4","last_reported":1750979424,"current_range_meters":8400,"station_id":"ce4bho92rcd13ifvqh3g","pricing_plan_id":"cebpf4jnsgd1na2vs0mg"},{"bike_id":"6b7cfd75-9f46-4bac-9a61-7ed145f17214","system_id":"levelo_inurba_marseille","lat":43.322878,"lon":5.382677,"is_reserved":false,"is_disabled":false,"rental_uris":{"android":"levelo://app?vid=6b7cfd75-9f46-4bac-9a61-7ed145f17214","ios":"levelo://app?vid=6b7cfd75-9f46-4bac-9a61-7ed145f17214"},"vehicle_type_id":"4","last_reported":1750979424,"current_range_meters":8400,"station_id":"ce4bhr12rcd13ifvqhqg","pricing_plan_id":"cebpf4jnsgd1na2vs0mg"},{"bike_id":"ad0de2af-f202-4008-b993-c8f3283bd7d8","system_id":"levelo_inurba_marseille","lat":43.29782,"lon":5.39354,"is_reserved":false,"is_disabled":false,"rental_uris":{"android":"levelo://app?vid=ad0de2af-f202-4008-b993-c8f3283bd7d8","ios":"levelo://app?vid=ad0de2af-f202-4008-b993-c8f3283bd7d8"},"vehicle_type_id":"4","last_reported":1750979424,"current_range_meters":8400,"station_id":"chh1huq6cuj3fo74tm60","pricing_plan_id":"cebpf4jnsgd1na2vs0mg"},{"bike_id":"e2f5b300-4a63-4778-aada-c29a8a0ea1e8","system_id":"levelo_inurba_marseille","lat":43.327984,"lon":5.391949,"is_reserved":false,"is_disabled":false,"rental_uris":{"android":"levelo://app?vid=e2f5b300-4a63-4778-aada-c29a8a0ea1e8","ios":"levelo://app?vid=e2f5b300-4a63-4778-aada-c29a8a0ea1e8"},"vehicle_type_id":"4","last_reported":1750979424,"current_range_meters":8800,"station_id":"","pricing_plan_id":"cebpf4jnsgd1na2vs0mg"},{"bike_id":"2a1b6331-d27f-4c02-917e-0c21dda0fde8","system_id":"levelo_inurba_marseille","lat":43.30791,"lon":5.38168,"is_reserved":false,"is_disabled":false,"rental_uris":{"android":"levelo://app?vid=2a1b6331-d27f-4c02-917e-0c21dda0fde8","ios":"levelo://app?vid=2a1b6331-d27f-4c02-917e-0c21dda0fde8"},"vehicle_type_id":"4","last_reported":1750979424,"current_range_meters":8800,"station_id":"ce4bgt12rcd13ifvqce0","pricing_plan_id":"cebpf4jnsgd1na2vs0mg"},{"bike_id":"55be7fc2-3223-44ec-899c-decb89870efa","system_id":"levelo_inurba_marseille","lat":43.287779,"lon":5.378841,"is_reserved":false,"is_disabled":false,"rental_uris":{"android":"levelo://app?vid=55be7fc2-3223-44ec-899c-decb89870efa","ios":"levelo://app?vid=55be7fc2-3223-44ec-899c-decb89870efa"},"vehicle_type_id":"4","last_reported":1750979424,"current_range_meters":8800,"station_id":"ce4bh9p2rcd13ifvqec0","pricing_plan_id":"cebpf4jnsgd1na2vs0mg"},{"bike_id":"d9482133-9ab6-4ad0-b33c-03179d809ace","system_id":"levelo_inurba_marseille","lat":43.26803,"lon":5.40267,"is_reserved":false,"is_disabled":false,"rental_uris":{"android":"levelo://app?vid=d9482133-9ab6-4ad0-b33c-03179d809ace","ios":"levelo://app?vid=d9482133-9ab6-4ad0-b33c-03179d809ace"},"vehicle_type_id":"4","last_reported":1750979424,"current_range_meters":8800,"station_id":"ce501612rcd8frsf0b60","pricing_plan_id":"cebpf4jnsgd1na2vs0mg"},{"bike_id":"9f44f9d9-354a-4864-8001-b4688a250896","system_id":"levelo_inurba_marseille","lat":43.303226,"lon":5.404383,"is_reserved":false,"is_disabled":false,"rental_uris":{"android":"levelo://app?vid=9f44f9d9-354a-4864-8001-b4688a250896","ios":"levelo://app?vid=9f44f9d9-354a-4864-8001-b4688a250896"},"vehicle_type_id":"4","last_reported":1750979424,"current_range_meters":9200,"station_id":"ce4bh012rcd13ifvqd10","pricing_plan_id":"cebpf4jnsgd1na2vs0mg"},{"bike_id":"83a3448f-1f4d-4d87-b7cb-6f8ab7dec6e2","system_id":"levelo_inurba_marseille","lat":43.29198,"lon":5.3933,"is_reserved":false,"is_disabled":false,"rental_uris":{"android":"levelo://app?vid=83a3448f-1f4d-4d87-b7cb-6f8ab7dec6e2","ios":"levelo://app?vid=83a3448f-1f4d-4d87-b7cb-6f8ab7dec6e2"},"vehicle_type_id":"4","last_reported":1750979424,"current_range_meters":9200,"station_id":"ce4bh192rcd13ifvqdd0","pricing_plan_id":"cebpf4jnsgd1na2vs0mg"},{"bike_id":"63169709-ff10-4ad4-bec0-0245f18a2897","system_id":"levelo_inurba_marseille","lat":43.2709,"lon":5.4023,"is_reserved":false,"is_disabled":false,"rental_uris":{"android":"levelo://app?vid=63169709-ff10-4ad4-bec0-0245f18a2897","ios":"levelo://app?vid=63169709-ff10-4ad4-bec0-0245f18a2897"},"vehicle_type_id":"4","last_reported":1750979424,"current_range_meters":9200,"station_id":"ce4bhk92rcd13ifvqgc0","pricing_plan_id":"cebpf4jnsgd1na2vs0mg"},{"bike_id":"f3541171-70f9-4e3f-abed-5c6c3c4d9c21","system_id":"levelo_inurba_marseille","lat":43.304143,"lon":5.41282,"is_reserved":false,"is_disabled":false,"rental_uris":{"android":"levelo://app?vid=f3541171-70f9-4e3f-abed-5c6c3c4d9c21","ios":"levelo://app?vid=f3541171-70f9-4e3f-abed-5c6c3c4d9c21"},"vehicle_type_id":"4","last_reported":1750979424,"current_range_meters":9200,"station_id":"ce4bhop2rcd13ifvqh8g","pricing_plan_id":"cebpf4jnsgd1na2vs0mg"},{"bike_id":"db4e2ea3-c22f-48f0-b53e-224aec501d16","system_id":"levelo_inurba_marseille","lat":43.32358,"lon":5.3675,"is_reserved":false,"is_disabled":false,"rental_uris":{"android":"levelo://app?vid=db4e2ea3-c22f-48f0-b53e-224aec501d16","ios":"levelo://app?vid=db4e2ea3-c22f-48f0-b53e-224aec501d16"},"vehicle_type_id":"4","last_reported":1750979424,"current_range_meters":9200,"station_id":"ce4bhsh2rcd13ifvqi2g","pricing_plan_id":"cebpf4jnsgd1na2vs0mg"},{"bike_id":"a9d25cad-d480-4c75-aec5-3969f1a4e6c7","system_id":"levelo_inurba_marseille","lat":43.32937,"lon":5.39064,"is_reserved":false,"is_disabled":false,"rental_uris":{"android":"levelo://app?vid=a9d25cad-d480-4c75-aec5-3969f1a4e6c7","ios":"levelo://app?vid=a9d25cad-d480-4c75-aec5-3969f1a4e6c7"},"vehicle_type_id":"4","last_reported":1750979424,"current_range_meters":9600,"station_id":"","pricing_plan_id":"cebpf4jnsgd1na2vs0mg"},{"bike_id":"9ea5f347-6ebf-42c3-93f4-45f1951dd202","system_id":"levelo_inurba_marseille","lat":43.29272,"lon":5.40119,"is_reserved":false,"is_disabled":false,"rental_uris":{"android":"levelo://app?vid=9ea5f347-6ebf-42c3-93f4-45f1951dd202","ios":"levelo://app?vid=9ea5f347-6ebf-42c3-93f4-45f1951dd202"},"vehicle_type_id":"4","last_reported":1750979424,"current_range_meters":9600,"station_id":"ce4bh312rcd13ifvqdk0","pricing_plan_id":"cebpf4jnsgd1na2vs0mg"},{"bike_id":"8604fc9f-cc9f-4a5a-b413-1bb0c90f306b","system_id":"levelo_inurba_marseille","lat":43.264429,"lon":5.390433,"is_reserved":false,"is_disabled":false,"rental_uris":{"android":"levelo://app?vid=8604fc9f-cc9f-4a5a-b413-1bb0c90f306b","ios":"levelo://app?vid=8604fc9f-cc9f-4a5a-b413-1bb0c90f306b"},"vehicle_type_id":"4","last_reported":1750979424,"current_range_meters":10000,"station_id":"","pricing_plan_id":"cebpf4jnsgd1na2vs0mg"},{"bike_id":"f47876d7-9c85-474e-92c5-7a242e08b67c","system_id":"levelo_inurba_marseille","lat":43.305584,"lon":5.375476,"is_reserved":false,"is_disabled":false,"rental_uris":{"android":"levelo://app?vid=f47876d7-9c85-474e-92c5-7a242e08b67c","ios":"levelo://app?vid=f47876d7-9c85-474e-92c5-7a242e08b67c"},"vehicle_type_id":"4","last_reported":1750979424,"current_range_meters":10000,"station_id":"","pricing_plan_id":"cebpf4jnsgd1na2vs0mg"},{"bike_id":"b6843e54-00ab-457d-8a35-7caeb1492fb0","system_id":"levelo_inurba_marseille","lat":43.299015,"lon":5.37489,"is_reserved":false,"is_disabled":false,"rental_uris":{"android":"levelo://app?vid=b6843e54-00ab-457d-8a35-7caeb1492fb0","ios":"levelo://app?vid=b6843e54-00ab-457d-8a35-7caeb1492fb0"},"vehicle_type_id":"4","last_reported":1750979424,"current_range_meters":10000,"station_id":"ce4bgjh2rcd13ifvqbg0","pricing_plan_id":"cebpf4jnsgd1na2vs0mg"},{"bike_id":"58f10d9a-2d37-41e1-99c3-cbf217a513e1","system_id":"levelo_inurba_marseille","lat":43.3042,"lon":5.39782,"is_reserved":false,"is_disabled":false,"rental_uris":{"android":"levelo://app?vid=58f10d9a-2d37-41e1-99c3-cbf217a513e1","ios":"levelo://app?vid=58f10d9a-2d37-41e1-99c3-cbf217a513e1"},"vehicle_type_id":"4","last_reported":1750979424,"current_range_meters":10000,"station_id":"ce4bh092rcd13ifvqd20","pricing_plan_id":"cebpf4jnsgd1na2vs0mg"},{"bike_id":"b9cecf20-a045-4072-97d1-3cff68695400","system_id":"levelo_inurba_marseille","lat":43.240631,"lon":5.377655,"is_reserved":false,"is_disabled":false,"rental_uris":{"android":"levelo://app?vid=b9cecf20-a045-4072-97d1-3cff68695400","ios":"levelo://app?vid=b9cecf20-a045-4072-97d1-3cff68695400"},"vehicle_type_id":"4","last_reported":1750979424,"current_range_meters":10000,"station_id":"ce4bhnp2rcd13ifvqgvg","pricing_plan_id":"cebpf4jnsgd1na2vs0mg"},{"bike_id":"03b5348c-ee39-4d54-8f25-73a9c6bc36df","system_id":"levelo_inurba_marseille","lat":43.30375,"lon":5.42493,"is_reserved":false,"is_disabled":false,"rental_uris":{"android":"levelo://app?vid=03b5348c-ee39-4d54-8f25-73a9c6bc36df","ios":"levelo://app?vid=03b5348c-ee39-4d54-8f25-73a9c6bc36df"},"vehicle_type_id":"4","last_reported":1750979424,"current_range_meters":10000,"station_id":"ce4bhoh2rcd13ifvqh6g","pricing_plan_id":"cebpf4jnsgd1na2vs0mg"},{"bike_id":"7684d37d-9075-4167-86cf-b3f231463012","system_id":"levelo_inurba_marseille","lat":43.246582,"lon":5.381624,"is_reserved":false,"is_disabled":false,"rental_uris":{"android":"levelo://app?vid=7684d37d-9075-4167-86cf-b3f231463012","ios":"levelo://app?vid=7684d37d-9075-4167-86cf-b3f231463012"},"vehicle_type_id":"4","last_reported":1750979424,"current_range_meters":10800,"station_id":"","pricing_plan_id":"cebpf4jnsgd1na2vs0mg"},{"bike_id":"9d8431d9-c6c6-4eb7-b688-4652954d22ce","system_id":"levelo_inurba_marseille","lat":43.29306,"lon":5.37182,"is_reserved":false,"is_disabled":false,"rental_uris":{"android":"levelo://app?vid=9d8431d9-c6c6-4eb7-b688-4652954d22ce","ios":"levelo://app?vid=9d8431d9-c6c6-4eb7-b688-4652954d22ce"},"vehicle_type_id":"4","last_reported":1750979424,"current_range_meters":10800,"station_id":"ce4bgh92rcd13ifvqb40","pricing_plan_id":"cebpf4jnsgd1na2vs0mg"},{"bike_id":"cdb01a4e-8ac1-4745-abf4-366c880634f1","system_id":"levelo_inurba_marseille","lat":43.31223,"lon":5.3686,"is_reserved":false,"is_disabled":false,"rental_uris":{"android":"levelo://app?vid=cdb01a4e-8ac1-4745-abf4-366c880634f1","ios":"levelo://app?vid=cdb01a4e-8ac1-4745-abf4-366c880634f1"},"vehicle_type_id":"4","last_reported":1750979424,"current_range_meters":10800,"station_id":"ce4bgl92rcd13ifvqbq0","pricing_plan_id":"cebpf4jnsgd1na2vs0mg"},{"bike_id":"799a9248-8856-411f-a19f-7273928ce133","system_id":"levelo_inurba_marseille","lat":43.30133,"lon":5.3743,"is_reserved":false,"is_disabled":false,"rental_uris":{"android":"levelo://app?vid=799a9248-8856-411f-a19f-7273928ce133","ios":"levelo://app?vid=799a9248-8856-411f-a19f-7273928ce133"},"vehicle_type_id":"4","last_reported":1750979424,"current_range_meters":10800,"station_id":"ce4bgs92rcd13ifvqcc0","pricing_plan_id":"cebpf4jnsgd1na2vs0mg"},{"bike_id":"94e84186-d780-461a-b647-8d1cf3f036ad","system_id":"levelo_inurba_marseille","lat":43.317023,"lon":5.377773,"is_reserved":false,"is_disabled":false,"rental_uris":{"android":"levelo://app?vid=94e84186-d780-461a-b647-8d1cf3f036ad","ios":"levelo://app?vid=94e84186-d780-461a-b647-8d1cf3f036ad"},"vehicle_type_id":"4","last_reported":1750979424,"current_range_meters":10800,"station_id":"ce4bgth2rcd13ifvqch0","pricing_plan_id":"cebpf4jnsgd1na2vs0mg"},{"bike_id":"eca567fa-3b36-4839-b23f-23a229a40751","system_id":"levelo_inurba_marseille","lat":43.30886,"lon":5.39652,"is_reserved":false,"is_disabled":false,"rental_uris":{"android":"levelo://app?vid=eca567fa-3b36-4839-b23f-23a229a40751","ios":"levelo://app?vid=eca567fa-3b36-4839-b23f-23a229a40751"},"vehicle_type_id":"4","last_reported":1750979424,"current_range_meters":10800,"station_id":"ce4bh012rcd13ifvqcv0","pricing_plan_id":"cebpf4jnsgd1na2vs0mg"},{"bike_id":"24daf3a3-5be9-4b38-8e0d-85d8a182966a","system_id":"levelo_inurba_marseille","lat":43.30884,"lon":5.39653,"is_reserved":false,"is_disabled":false,"rental_uris":{"android":"levelo://app?vid=24daf3a3-5be9-4b38-8e0d-85d8a182966a","ios":"levelo://app?vid=24daf3a3-5be9-4b38-8e0d-85d8a182966a"},"vehicle_type_id":"4","last_reported":1750979424,"current_range_meters":10800,"station_id":"ce4bh012rcd13ifvqcv0","pricing_plan_id":"cebpf4jnsgd1na2vs0mg"},{"bike_id":"01b439f7-787c-4d60-8a36-9fcbe3432f1c","system_id":"levelo_inurba_marseille","lat":43.2919,"lon":5.39325,"is_reserved":false,"is_disabled":false,"rental_uris":{"android":"levelo://app?vid=01b439f7-787c-4d60-8a36-9fcbe3432f1c","ios":"levelo://app?vid=01b439f7-787c-4d60-8a36-9fcbe3432f1c"},"vehicle_type_id":"4","last_reported":1750979424,"current_range_meters":10800,"station_id":"ce4bh192rcd13ifvqdd0","pricing_plan_id":"cebpf4jnsgd1na2vs0mg"},{"bike_id":"918c5c4b-189b-48d7-9290-4502baef939a","system_id":"levelo_inurba_marseille","lat":43.29568,"lon":5.39976,"is_reserved":false,"is_disabled":false,"rental_uris":{"android":"levelo://app?vid=918c5c4b-189b-48d7-9290-4502baef939a","ios":"levelo://app?vid=918c5c4b-189b-48d7-9290-4502baef939a"},"vehicle_type_id":"4","last_reported":1750979424,"current_range_meters":10800,"station_id":"ce4bh312rcd13ifvqdj0","pricing_plan_id":"cebpf4jnsgd1na2vs0mg"},{"bike_id":"edeed20b-41ff-4c74-9f96-a22f9242cb8a","system_id":"levelo_inurba_marseille","lat":43.28432,"lon":5.39199,"is_reserved":false,"is_disabled":false,"rental_uris":{"android":"levelo://app?vid=edeed20b-41ff-4c74-9f96-a22f9242cb8a","ios":"levelo://app?vid=edeed20b-41ff-4c74-9f96-a22f9242cb8a"},"vehicle_type_id":"4","last_reported":1750979424,"current_range_meters":10800,"station_id":"ce4bhoh2rcd13ifvqh5g","pricing_plan_id":"cebpf4jnsgd1na2vs0mg"},{"bike_id":"84cbc78c-464a-4826-a662-a254a051373d","system_id":"levelo_inurba_marseille","lat":43.28428,"lon":5.3919,"is_reserved":false,"is_disabled":false,"rental_uris":{"android":"levelo://app?vid=84cbc78c-464a-4826-a662-a254a051373d","ios":"levelo://app?vid=84cbc78c-464a-4826-a662-a254a051373d"},"vehicle_type_id":"4","last_reported":1750979424,"current_range_meters":10800,"station_id":"ce4bhoh2rcd13ifvqh5g","pricing_plan_id":"cebpf4jnsgd1na2vs0mg"},{"bike_id":"b2f65b77-6c4d-463a-b12d-03ec0ed31397","system_id":"levelo_inurba_marseille","lat":43.21752,"lon":5.34628,"is_reserved":false,"is_disabled":false,"rental_uris":{"android":"levelo://app?vid=b2f65b77-6c4d-463a-b12d-03ec0ed31397","ios":"levelo://app?vid=b2f65b77-6c4d-463a-b12d-03ec0ed31397"},"vehicle_type_id":"4","last_reported":1750979424,"current_range_meters":10800,"station_id":"st_cvj6r9ubvosntc0bgbag","pricing_plan_id":"cebpf4jnsgd1na2vs0mg"},{"bike_id":"69a9b7bf-69b2-47a2-8bc4-bb00821e8199","system_id":"levelo_inurba_marseille","lat":43.211875,"lon":5.350727,"is_reserved":false,"is_disabled":false,"rental_uris":{"android":"levelo://app?vid=69a9b7bf-69b2-47a2-8bc4-bb00821e8199","ios":"levelo://app?vid=69a9b7bf-69b2-47a2-8bc4-bb00821e8199"},"vehicle_type_id":"4","last_reported":1750979424,"current_range_meters":10800,"station_id":"st_cvj6sg6p6f1abm77japg","pricing_plan_id":"cebpf4jnsgd1na2vs0mg"},{"bike_id":"b4f2b905-6273-4161-bdfd-356e8f69d331","system_id":"levelo_inurba_marseille","lat":43.3054,"lon":5.38449,"is_reserved":false,"is_disabled":false,"rental_uris":{"android":"levelo://app?vid=b4f2b905-6273-4161-bdfd-356e8f69d331","ios":"levelo://app?vid=b4f2b905-6273-4161-bdfd-356e8f69d331"},"vehicle_type_id":"4","last_reported":1750979424,"current_range_meters":11200,"station_id":"ce4bgg92rcd13ifvqb30","pricing_plan_id":"cebpf4jnsgd1na2vs0mg"},{"bike_id":"9a333930-ad02-43be-b131-a3d57109bc12","system_id":"levelo_inurba_marseille","lat":43.30886,"lon":5.39652,"is_reserved":false,"is_disabled":false,"rental_uris":{"android":"levelo://app?vid=9a333930-ad02-43be-b131-a3d57109bc12","ios":"levelo://app?vid=9a333930-ad02-43be-b131-a3d57109bc12"},"vehicle_type_id":"4","last_reported":1750979424,"current_range_meters":11200,"station_id":"ce4bh012rcd13ifvqcv0","pricing_plan_id":"cebpf4jnsgd1na2vs0mg"},{"bike_id":"50b9d5b5-cb40-467f-b52c-9b3c5d76732e","system_id":"levelo_inurba_marseille","lat":43.29413,"lon":5.38613,"is_reserved":false,"is_disabled":false,"rental_uris":{"android":"levelo://app?vid=50b9d5b5-cb40-467f-b52c-9b3c5d76732e","ios":"levelo://app?vid=50b9d5b5-cb40-467f-b52c-9b3c5d76732e"},"vehicle_type_id":"4","last_reported":1750979424,"current_range_meters":11200,"station_id":"ce4bh2h2rcd13ifvqdh0","pricing_plan_id":"cebpf4jnsgd1na2vs0mg"},{"bike_id":"f15a2dd8-3329-4647-87f1-16eee51cf672","system_id":"levelo_inurba_marseille","lat":43.30532,"lon":5.38441,"is_reserved":false,"is_disabled":false,"rental_uris":{"android":"levelo://app?vid=f15a2dd8-3329-4647-87f1-16eee51cf672","ios":"levelo://app?vid=f15a2dd8-3329-4647-87f1-16eee51cf672"},"vehicle_type_id":"4","last_reported":1750979424,"current_range_meters":11600,"station_id":"ce4bgg92rcd13ifvqb30","pricing_plan_id":"cebpf4jnsgd1na2vs0mg"},{"bike_id":"7dd5c882-449a-4b1e-9156-ed7025f46855","system_id":"levelo_inurba_marseille","lat":43.30882,"lon":5.39646,"is_reserved":false,"is_disabled":false,"rental_uris":{"android":"levelo://app?vid=7dd5c882-449a-4b1e-9156-ed7025f46855","ios":"levelo://app?vid=7dd5c882-449a-4b1e-9156-ed7025f46855"},"vehicle_type_id":"4","last_reported":1750979424,"current_range_meters":11600,"station_id":"ce4bh012rcd13ifvqcv0","pricing_plan_id":"cebpf4jnsgd1na2vs0mg"},{"bike_id":"4b8da722-ee9e-48a4-a5e5-3a8a10364708","system_id":"levelo_inurba_marseille","lat":43.3121,"lon":5.37812,"is_reserved":false,"is_disabled":false,"rental_uris":{"android":"levelo://app?vid=4b8da722-ee9e-48a4-a5e5-3a8a10364708","ios":"levelo://app?vid=4b8da722-ee9e-48a4-a5e5-3a8a10364708"},"vehicle_type_id":"4","last_reported":1750979424,"current_range_meters":12000,"station_id":"","pricing_plan_id":"cebpf4jnsgd1na2vs0mg"},{"bike_id":"dac11718-b9e3-4c0a-a5c4-4aedb4038ad0","system_id":"levelo_inurba_marseille","lat":43.30149,"lon":5.37427,"is_reserved":false,"is_disabled":false,"rental_uris":{"android":"levelo://app?vid=dac11718-b9e3-4c0a-a5c4-4aedb4038ad0","ios":"levelo://app?vid=dac11718-b9e3-4c0a-a5c4-4aedb4038ad0"},"vehicle_type_id":"4","last_reported":1750979424,"current_range_meters":12000,"station_id":"ce4bgs92rcd13ifvqcc0","pricing_plan_id":"cebpf4jnsgd1na2vs0mg"},{"bike_id":"0b4c91da-77a5-4784-bad4-0e3754270e1d","system_id":"levelo_inurba_marseille","lat":43.29197,"lon":5.39337,"is_reserved":false,"is_disabled":false,"rental_uris":{"android":"levelo://app?vid=0b4c91da-77a5-4784-bad4-0e3754270e1d","ios":"levelo://app?vid=0b4c91da-77a5-4784-bad4-0e3754270e1d"},"vehicle_type_id":"4","last_reported":1750979424,"current_range_meters":12000,"station_id":"ce4bh192rcd13ifvqdd0","pricing_plan_id":"cebpf4jnsgd1na2vs0mg"},{"bike_id":"38ee6c99-ed1c-4320-bb3c-b1d717388b30","system_id":"levelo_inurba_marseille","lat":43.22949,"lon":5.35407,"is_reserved":false,"is_disabled":false,"rental_uris":{"android":"levelo://app?vid=38ee6c99-ed1c-4320-bb3c-b1d717388b30","ios":"levelo://app?vid=38ee6c99-ed1c-4320-bb3c-b1d717388b30"},"vehicle_type_id":"4","last_reported":1750979424,"current_range_meters":12000,"station_id":"cpo3532slgdg3j2ikp40","pricing_plan_id":"cebpf4jnsgd1na2vs0mg"},{"bike_id":"1c4f4d93-3352-4cc5-a14c-5609809dd41a","system_id":"levelo_inurba_marseille","lat":43.30884,"lon":5.39665,"is_reserved":false,"is_disabled":false,"rental_uris":{"android":"levelo://app?vid=1c4f4d93-3352-4cc5-a14c-5609809dd41a","ios":"levelo://app?vid=1c4f4d93-3352-4cc5-a14c-5609809dd41a"},"vehicle_type_id":"4","last_reported":1750979424,"current_range_meters":12400,"station_id":"ce4bh012rcd13ifvqcv0","pricing_plan_id":"cebpf4jnsgd1na2vs0mg"},{"bike_id":"d2541864-294e-4fa8-8ed4-da3902bb58d5","system_id":"levelo_inurba_marseille","lat":43.22932,"lon":5.35389,"is_reserved":false,"is_disabled":false,"rental_uris":{"android":"levelo://app?vid=d2541864-294e-4fa8-8ed4-da3902bb58d5","ios":"levelo://app?vid=d2541864-294e-4fa8-8ed4-da3902bb58d5"},"vehicle_type_id":"4","last_reported":1750979424,"current_range_meters":12400,"station_id":"cpo3532slgdg3j2ikp40","pricing_plan_id":"cebpf4jnsgd1na2vs0mg"},{"bike_id":"6e333cad-8154-4d5d-9ce4-405ad8359f75","system_id":"levelo_inurba_marseille","lat":43.22931,"lon":5.35369,"is_reserved":false,"is_disabled":false,"rental_uris":{"android":"levelo://app?vid=6e333cad-8154-4d5d-9ce4-405ad8359f75","ios":"levelo://app?vid=6e333cad-8154-4d5d-9ce4-405ad8359f75"},"vehicle_type_id":"4","last_reported":1750979424,"current_range_meters":12400,"station_id":"cpo3532slgdg3j2ikp40","pricing_plan_id":"cebpf4jnsgd1na2vs0mg"},{"bike_id":"ae3a704d-70c9-4d03-ba6c-d2ab085b93b3","system_id":"levelo_inurba_marseille","lat":43.31328,"lon":5.39693,"is_reserved":false,"is_disabled":false,"rental_uris":{"android":"levelo://app?vid=ae3a704d-70c9-4d03-ba6c-d2ab085b93b3","ios":"levelo://app?vid=ae3a704d-70c9-4d03-ba6c-d2ab085b93b3"},"vehicle_type_id":"4","last_reported":1750979424,"current_range_meters":12800,"station_id":"ce4bgvp2rcd13ifvqcu0","pricing_plan_id":"cebpf4jnsgd1na2vs0mg"},{"bike_id":"c8e6ab1e-a41b-4246-b78a-9e20b3b7e354","system_id":"levelo_inurba_marseille","lat":43.246606,"lon":5.381547,"is_reserved":false,"is_disabled":false,"rental_uris":{"android":"levelo://app?vid=c8e6ab1e-a41b-4246-b78a-9e20b3b7e354","ios":"levelo://app?vid=c8e6ab1e-a41b-4246-b78a-9e20b3b7e354"},"vehicle_type_id":"4","last_reported":1750979424,"current_range_meters":12800,"station_id":"ce4bhih2rcd13ifvqfr0","pricing_plan_id":"cebpf4jnsgd1na2vs0mg"},{"bike_id":"90204bca-e88d-4966-9ce9-fc19f23a519e","system_id":"levelo_inurba_marseille","lat":43.318828,"lon":5.407347,"is_reserved":false,"is_disabled":false,"rental_uris":{"android":"levelo://app?vid=90204bca-e88d-4966-9ce9-fc19f23a519e","ios":"levelo://app?vid=90204bca-e88d-4966-9ce9-fc19f23a519e"},"vehicle_type_id":"4","last_reported":1750979424,"current_range_meters":12800,"station_id":"ce4bhq12rcd13ifvqhig","pricing_plan_id":"cebpf4jnsgd1na2vs0mg"},{"bike_id":"cb272c7a-8d6c-40e3-9049-f21ccce2189f","system_id":"levelo_inurba_marseille","lat":43.297062,"lon":5.377089,"is_reserved":false,"is_disabled":false,"rental_uris":{"android":"levelo://app?vid=cb272c7a-8d6c-40e3-9049-f21ccce2189f","ios":"levelo://app?vid=cb272c7a-8d6c-40e3-9049-f21ccce2189f"},"vehicle_type_id":"4","last_reported":1750979424,"current_range_meters":13600,"station_id":"ce4bguh2rcd13ifvqcj0","pricing_plan_id":"cebpf4jnsgd1na2vs0mg"},{"bike_id":"dbb96a66-e756-42d9-8b8f-fdcb2c747ae1","system_id":"levelo_inurba_marseille","lat":43.30423,"lon":5.39749,"is_reserved":false,"is_disabled":false,"rental_uris":{"android":"levelo://app?vid=dbb96a66-e756-42d9-8b8f-fdcb2c747ae1","ios":"levelo://app?vid=dbb96a66-e756-42d9-8b8f-fdcb2c747ae1"},"vehicle_type_id":"4","last_reported":1750979424,"current_range_meters":13600,"station_id":"ce4bh092rcd13ifvqd20","pricing_plan_id":"cebpf4jnsgd1na2vs0mg"},{"bike_id":"c80cd637-3504-4e24-87fc-21a53e278e6a","system_id":"levelo_inurba_marseille","lat":43.29274,"lon":5.40114,"is_reserved":false,"is_disabled":false,"rental_uris":{"android":"levelo://app?vid=c80cd637-3504-4e24-87fc-21a53e278e6a","ios":"levelo://app?vid=c80cd637-3504-4e24-87fc-21a53e278e6a"},"vehicle_type_id":"4","last_reported":1750979424,"current_range_meters":13600,"station_id":"ce4bh312rcd13ifvqdk0","pricing_plan_id":"cebpf4jnsgd1na2vs0mg"},{"bike_id":"1d1640f2-f31d-42d8-babe-9e5050991d65","system_id":"levelo_inurba_marseille","lat":43.26786,"lon":5.39421,"is_reserved":false,"is_disabled":false,"rental_uris":{"android":"levelo://app?vid=1d1640f2-f31d-42d8-babe-9e5050991d65","ios":"levelo://app?vid=1d1640f2-f31d-42d8-babe-9e5050991d65"},"vehicle_type_id":"4","last_reported":1750979424,"current_range_meters":13600,"station_id":"ce4bhh12rcd13ifvqfg0","pricing_plan_id":"cebpf4jnsgd1na2vs0mg"},{"bike_id":"31510367-8d07-4833-b086-737daec24014","system_id":"levelo_inurba_marseille","lat":43.24658,"lon":5.38162,"is_reserved":false,"is_disabled":false,"rental_uris":{"android":"levelo://app?vid=31510367-8d07-4833-b086-737daec24014","ios":"levelo://app?vid=31510367-8d07-4833-b086-737daec24014"},"vehicle_type_id":"4","last_reported":1750979424,"current_range_meters":13600,"station_id":"ce4bhih2rcd13ifvqfr0","pricing_plan_id":"cebpf4jnsgd1na2vs0mg"},{"bike_id":"277d6f3a-b9b5-4d88-bf0d-6c597782848e","system_id":"levelo_inurba_marseille","lat":43.23196,"lon":5.35557,"is_reserved":false,"is_disabled":false,"rental_uris":{"android":"levelo://app?vid=277d6f3a-b9b5-4d88-bf0d-6c597782848e","ios":"levelo://app?vid=277d6f3a-b9b5-4d88-bf0d-6c597782848e"},"vehicle_type_id":"4","last_reported":1750979424,"current_range_meters":13600,"station_id":"ce4bhu92rcd13ifvqi70","pricing_plan_id":"cebpf4jnsgd1na2vs0mg"},{"bike_id":"fcc41bf5-4e14-42f1-b8dd-c3e24c4fa115","system_id":"levelo_inurba_marseille","lat":43.30122,"lon":5.38765,"is_reserved":false,"is_disabled":false,"rental_uris":{"android":"levelo://app?vid=fcc41bf5-4e14-42f1-b8dd-c3e24c4fa115","ios":"levelo://app?vid=fcc41bf5-4e14-42f1-b8dd-c3e24c4fa115"},"vehicle_type_id":"4","last_reported":1750979424,"current_range_meters":14000,"station_id":"ce4bghh2rcd13ifvqb60","pricing_plan_id":"cebpf4jnsgd1na2vs0mg"},{"bike_id":"6634971f-3528-4c98-aab7-cdff14d37a4f","system_id":"levelo_inurba_marseille","lat":43.308786,"lon":5.371872,"is_reserved":false,"is_disabled":false,"rental_uris":{"android":"levelo://app?vid=6634971f-3528-4c98-aab7-cdff14d37a4f","ios":"levelo://app?vid=6634971f-3528-4c98-aab7-cdff14d37a4f"},"vehicle_type_id":"4","last_reported":1750979424,"current_range_meters":14000,"station_id":"ce4bguh2rcd13ifvqckg","pricing_plan_id":"cebpf4jnsgd1na2vs0mg"},{"bike_id":"7f8d1799-8c92-472a-96a7-1cfbd5434beb","system_id":"levelo_inurba_marseille","lat":43.2804,"lon":5.36949,"is_reserved":false,"is_disabled":false,"rental_uris":{"android":"levelo://app?vid=7f8d1799-8c92-472a-96a7-1cfbd5434beb","ios":"levelo://app?vid=7f8d1799-8c92-472a-96a7-1cfbd5434beb"},"vehicle_type_id":"4","last_reported":1750979424,"current_range_meters":14000,"station_id":"ce4bha12rcd13ifvqef0","pricing_plan_id":"cebpf4jnsgd1na2vs0mg"},{"bike_id":"ab875138-c754-4b3b-82d7-2da5a11b45cf","system_id":"levelo_inurba_marseille","lat":43.21748,"lon":5.34595,"is_reserved":false,"is_disabled":false,"rental_uris":{"android":"levelo://app?vid=ab875138-c754-4b3b-82d7-2da5a11b45cf","ios":"levelo://app?vid=ab875138-c754-4b3b-82d7-2da5a11b45cf"},"vehicle_type_id":"4","last_reported":1750979424,"current_range_meters":14000,"station_id":"st_cvj6r9ubvosntc0bgbag","pricing_plan_id":"cebpf4jnsgd1na2vs0mg"},{"bike_id":"48f8163e-5279-44fe-9bb8-bd9c94f993bd","system_id":"levelo_inurba_marseille","lat":43.25575,"lon":5.38252,"is_reserved":false,"is_disabled":false,"rental_uris":{"android":"levelo://app?vid=48f8163e-5279-44fe-9bb8-bd9c94f993bd","ios":"levelo://app?vid=48f8163e-5279-44fe-9bb8-bd9c94f993bd"},"vehicle_type_id":"4","last_reported":1750979424,"current_range_meters":14400,"station_id":"ce4bhih2rcd13ifvqfs0","pricing_plan_id":"cebpf4jnsgd1na2vs0mg"},{"bike_id":"7cdab114-5660-4171-9a30-f1d789408f90","system_id":"levelo_inurba_marseille","lat":43.262274,"lon":5.404563,"is_reserved":false,"is_disabled":false,"rental_uris":{"android":"levelo://app?vid=7cdab114-5660-4171-9a30-f1d789408f90","ios":"levelo://app?vid=7cdab114-5660-4171-9a30-f1d789408f90"},"vehicle_type_id":"4","last_reported":1750979424,"current_range_meters":14400,"station_id":"ce4bhlp2rcd13ifvqgjg","pricing_plan_id":"cebpf4jnsgd1na2vs0mg"},{"bike_id":"27fda73d-ecf8-479a-a5f9-9bb6563c8086","system_id":"levelo_inurba_marseille","lat":43.32106,"lon":5.36799,"is_reserved":false,"is_disabled":false,"rental_uris":{"android":"levelo://app?vid=27fda73d-ecf8-479a-a5f9-9bb6563c8086","ios":"levelo://app?vid=27fda73d-ecf8-479a-a5f9-9bb6563c8086"},"vehicle_type_id":"4","last_reported":1750979424,"current_range_meters":14400,"station_id":"ce4bhrh2rcd13ifvqhug","pricing_plan_id":"cebpf4jnsgd1na2vs0mg"},{"bike_id":"87a40aa7-4daf-4893-8804-f396452b9860","system_id":"levelo_inurba_marseille","lat":43.31737,"lon":5.4053,"is_reserved":false,"is_disabled":false,"rental_uris":{"android":"levelo://app?vid=87a40aa7-4daf-4893-8804-f396452b9860","ios":"levelo://app?vid=87a40aa7-4daf-4893-8804-f396452b9860"},"vehicle_type_id":"4","last_reported":1750979424,"current_range_meters":14800,"station_id":"","pricing_plan_id":"cebpf4jnsgd1na2vs0mg"},{"bike_id":"4edbee88-c893-4693-9e88-2a0cf4418998","system_id":"levelo_inurba_marseille","lat":43.31152,"lon":5.38724,"is_reserved":false,"is_disabled":false,"rental_uris":{"android":"levelo://app?vid=4edbee88-c893-4693-9e88-2a0cf4418998","ios":"levelo://app?vid=4edbee88-c893-4693-9e88-2a0cf4418998"},"vehicle_type_id":"4","last_reported":1750979424,"current_range_meters":14800,"station_id":"ce4bgv12rcd13ifvqcp0","pricing_plan_id":"cebpf4jnsgd1na2vs0mg"},{"bike_id":"f4b94c45-7091-401c-8f54-f05d8872c9bb","system_id":"levelo_inurba_marseille","lat":43.30874,"lon":5.39646,"is_reserved":false,"is_disabled":false,"rental_uris":{"android":"levelo://app?vid=f4b94c45-7091-401c-8f54-f05d8872c9bb","ios":"levelo://app?vid=f4b94c45-7091-401c-8f54-f05d8872c9bb"},"vehicle_type_id":"4","last_reported":1750979424,"current_range_meters":14800,"station_id":"ce4bh012rcd13ifvqcv0","pricing_plan_id":"cebpf4jnsgd1na2vs0mg"},{"bike_id":"f5b5dd12-7b47-4a89-bf2e-615cdb78bc34","system_id":"levelo_inurba_marseille","lat":43.28703,"lon":5.40006,"is_reserved":false,"is_disabled":false,"rental_uris":{"android":"levelo://app?vid=f5b5dd12-7b47-4a89-bf2e-615cdb78bc34","ios":"levelo://app?vid=f5b5dd12-7b47-4a89-bf2e-615cdb78bc34"},"vehicle_type_id":"4","last_reported":1750979424,"current_range_meters":14800,"station_id":"ce4bho92rcd13ifvqh3g","pricing_plan_id":"cebpf4jnsgd1na2vs0mg"},{"bike_id":"dbbda218-da6f-4c4d-8cf9-8f643bf219fc","system_id":"levelo_inurba_marseille","lat":43.3361,"lon":5.41036,"is_reserved":false,"is_disabled":false,"rental_uris":{"android":"levelo://app?vid=dbbda218-da6f-4c4d-8cf9-8f643bf219fc","ios":"levelo://app?vid=dbbda218-da6f-4c4d-8cf9-8f643bf219fc"},"vehicle_type_id":"4","last_reported":1750979424,"current_range_meters":14800,"station_id":"ce4bhqh2rcd13ifvqhmg","pricing_plan_id":"cebpf4jnsgd1na2vs0mg"},{"bike_id":"a440f2f6-8cf8-4348-9ba1-e21002a18a07","system_id":"levelo_inurba_marseille","lat":43.32107,"lon":5.36763,"is_reserved":false,"is_disabled":false,"rental_uris":{"android":"levelo://app?vid=a440f2f6-8cf8-4348-9ba1-e21002a18a07","ios":"levelo://app?vid=a440f2f6-8cf8-4348-9ba1-e21002a18a07"},"vehicle_type_id":"4","last_reported":1750979424,"current_range_meters":14800,"station_id":"ce4bhrh2rcd13ifvqhug","pricing_plan_id":"cebpf4jnsgd1na2vs0mg"},{"bike_id":"348936c8-7c8d-4b8a-988e-b0a979920804","system_id":"levelo_inurba_marseille","lat":43.21176,"lon":5.35087,"is_reserved":false,"is_disabled":false,"rental_uris":{"android":"levelo://app?vid=348936c8-7c8d-4b8a-988e-b0a979920804","ios":"levelo://app?vid=348936c8-7c8d-4b8a-988e-b0a979920804"},"vehicle_type_id":"4","last_reported":1750979424,"current_range_meters":14800,"station_id":"st_cvj6sg6p6f1abm77japg","pricing_plan_id":"cebpf4jnsgd1na2vs0mg"},{"bike_id":"9975cbac-894b-4265-a766-4602ab9b8a4b","system_id":"levelo_inurba_marseille","lat":43.29695,"lon":5.3729,"is_reserved":false,"is_disabled":false,"rental_uris":{"android":"levelo://app?vid=9975cbac-894b-4265-a766-4602ab9b8a4b","ios":"levelo://app?vid=9975cbac-894b-4265-a766-4602ab9b8a4b"},"vehicle_type_id":"4","last_reported":1750979424,"current_range_meters":15200,"station_id":"ce4bgk12rcd13ifvqbj0","pricing_plan_id":"cebpf4jnsgd1na2vs0mg"},{"bike_id":"88ceeb2a-f80a-44b0-a996-252a11e48bfd","system_id":"levelo_inurba_marseille","lat":43.307963,"lon":5.381582,"is_reserved":false,"is_disabled":false,"rental_uris":{"android":"levelo://app?vid=88ceeb2a-f80a-44b0-a996-252a11e48bfd","ios":"levelo://app?vid=88ceeb2a-f80a-44b0-a996-252a11e48bfd"},"vehicle_type_id":"4","last_reported":1750979424,"current_range_meters":15200,"station_id":"ce4bgt12rcd13ifvqce0","pricing_plan_id":"cebpf4jnsgd1na2vs0mg"},{"bike_id":"35266dd7-fc2b-4197-8a03-8e87bae8fb27","system_id":"levelo_inurba_marseille","lat":43.261953,"lon":5.379313,"is_reserved":false,"is_disabled":false,"rental_uris":{"android":"levelo://app?vid=35266dd7-fc2b-4197-8a03-8e87bae8fb27","ios":"levelo://app?vid=35266dd7-fc2b-4197-8a03-8e87bae8fb27"},"vehicle_type_id":"4","last_reported":1750979424,"current_range_meters":15200,"station_id":"ce4bhjp2rcd13ifvqg90","pricing_plan_id":"cebpf4jnsgd1na2vs0mg"},{"bike_id":"415f7382-f2b8-467c-a70e-e22e4c99b6f8","system_id":"levelo_inurba_marseille","lat":43.24082,"lon":5.37792,"is_reserved":false,"is_disabled":false,"rental_uris":{"android":"levelo://app?vid=415f7382-f2b8-467c-a70e-e22e4c99b6f8","ios":"levelo://app?vid=415f7382-f2b8-467c-a70e-e22e4c99b6f8"},"vehicle_type_id":"4","last_reported":1750979424,"current_range_meters":15200,"station_id":"ce4bhnp2rcd13ifvqgvg","pricing_plan_id":"cebpf4jnsgd1na2vs0mg"},{"bike_id":"1c8ab180-05fd-405f-9922-b2b2c2d5142f","system_id":"levelo_inurba_marseille","lat":43.32116,"lon":5.36778,"is_reserved":false,"is_disabled":false,"rental_uris":{"android":"levelo://app?vid=1c8ab180-05fd-405f-9922-b2b2c2d5142f","ios":"levelo://app?vid=1c8ab180-05fd-405f-9922-b2b2c2d5142f"},"vehicle_type_id":"4","last_reported":1750979424,"current_range_meters":15200,"station_id":"ce4bhrh2rcd13ifvqhug","pricing_plan_id":"cebpf4jnsgd1na2vs0mg"},{"bike_id":"23bbf6f5-3303-4a8a-81da-20b5be420bc5","system_id":"levelo_inurba_marseille","lat":43.28222,"lon":5.39058,"is_reserved":false,"is_disabled":false,"rental_uris":{"android":"levelo://app?vid=23bbf6f5-3303-4a8a-81da-20b5be420bc5","ios":"levelo://app?vid=23bbf6f5-3303-4a8a-81da-20b5be420bc5"},"vehicle_type_id":"4","last_reported":1750979424,"current_range_meters":16000,"station_id":"","pricing_plan_id":"cebpf4jnsgd1na2vs0mg"},{"bike_id":"6f923103-95c7-4178-9a7f-07111b96b1be","system_id":"levelo_inurba_marseille","lat":43.29191,"lon":5.40081,"is_reserved":false,"is_disabled":false,"rental_uris":{"android":"levelo://app?vid=6f923103-95c7-4178-9a7f-07111b96b1be","ios":"levelo://app?vid=6f923103-95c7-4178-9a7f-07111b96b1be"},"vehicle_type_id":"4","last_reported":1750979424,"current_range_meters":16000,"station_id":"","pricing_plan_id":"cebpf4jnsgd1na2vs0mg"},{"bike_id":"7b36dc56-2f0e-491c-b927-d5f8bb805b5d","system_id":"levelo_inurba_marseille","lat":43.30954,"lon":5.3904,"is_reserved":false,"is_disabled":false,"rental_uris":{"android":"levelo://app?vid=7b36dc56-2f0e-491c-b927-d5f8bb805b5d","ios":"levelo://app?vid=7b36dc56-2f0e-491c-b927-d5f8bb805b5d"},"vehicle_type_id":"4","last_reported":1750979424,"current_range_meters":16000,"station_id":"ce4bgup2rcd13ifvqco0","pricing_plan_id":"cebpf4jnsgd1na2vs0mg"},{"bike_id":"76b4d2e2-9a89-4dec-862c-5d14d357bcc9","system_id":"levelo_inurba_marseille","lat":43.30419,"lon":5.39758,"is_reserved":false,"is_disabled":false,"rental_uris":{"android":"levelo://app?vid=76b4d2e2-9a89-4dec-862c-5d14d357bcc9","ios":"levelo://app?vid=76b4d2e2-9a89-4dec-862c-5d14d357bcc9"},"vehicle_type_id":"4","last_reported":1750979424,"current_range_meters":16000,"station_id":"ce4bh092rcd13ifvqd20","pricing_plan_id":"cebpf4jnsgd1na2vs0mg"},{"bike_id":"b8954a9f-7ce8-456c-a0b7-ca33c9473361","system_id":"levelo_inurba_marseille","lat":43.319866,"lon":5.38164,"is_reserved":false,"is_disabled":false,"rental_uris":{"android":"levelo://app?vid=b8954a9f-7ce8-456c-a0b7-ca33c9473361","ios":"levelo://app?vid=b8954a9f-7ce8-456c-a0b7-ca33c9473361"},"vehicle_type_id":"4","last_reported":1750979424,"current_range_meters":16000,"station_id":"ce4bhr12rcd13ifvqhpg","pricing_plan_id":"cebpf4jnsgd1na2vs0mg"},{"bike_id":"3f2e5038-cd5f-466d-9578-2783163f088e","system_id":"levelo_inurba_marseille","lat":43.32109,"lon":5.36775,"is_reserved":false,"is_disabled":false,"rental_uris":{"android":"levelo://app?vid=3f2e5038-cd5f-466d-9578-2783163f088e","ios":"levelo://app?vid=3f2e5038-cd5f-466d-9578-2783163f088e"},"vehicle_type_id":"4","last_reported":1750979424,"current_range_meters":16000,"station_id":"ce4bhrh2rcd13ifvqhug","pricing_plan_id":"cebpf4jnsgd1na2vs0mg"},{"bike_id":"ce348039-2683-4d38-b343-6b6d0b17ec97","system_id":"levelo_inurba_marseille","lat":43.30435,"lon":5.38957,"is_reserved":false,"is_disabled":false,"rental_uris":{"android":"levelo://app?vid=ce348039-2683-4d38-b343-6b6d0b17ec97","ios":"levelo://app?vid=ce348039-2683-4d38-b343-6b6d0b17ec97"},"vehicle_type_id":"4","last_reported":1750979424,"current_range_meters":16400,"station_id":"","pricing_plan_id":"cebpf4jnsgd1na2vs0mg"},{"bike_id":"4680b3e2-9e9c-40d4-8e0d-f060fdcf1d41","system_id":"levelo_inurba_marseille","lat":43.30135,"lon":5.37416,"is_reserved":false,"is_disabled":false,"rental_uris":{"android":"levelo://app?vid=4680b3e2-9e9c-40d4-8e0d-f060fdcf1d41","ios":"levelo://app?vid=4680b3e2-9e9c-40d4-8e0d-f060fdcf1d41"},"vehicle_type_id":"4","last_reported":1750979424,"current_range_meters":16400,"station_id":"ce4bgs92rcd13ifvqcc0","pricing_plan_id":"cebpf4jnsgd1na2vs0mg"},{"bike_id":"b6ab7f5e-0c8c-4f38-8961-e2a86166f305","system_id":"levelo_inurba_marseille","lat":43.28676,"lon":5.36364,"is_reserved":false,"is_disabled":false,"rental_uris":{"android":"levelo://app?vid=b6ab7f5e-0c8c-4f38-8961-e2a86166f305","ios":"levelo://app?vid=b6ab7f5e-0c8c-4f38-8961-e2a86166f305"},"vehicle_type_id":"4","last_reported":1750979424,"current_range_meters":16400,"station_id":"ce4bhah2rcd13ifvqej0","pricing_plan_id":"cebpf4jnsgd1na2vs0mg"},{"bike_id":"d3f8489f-d084-411d-99ad-0303c0a03eaa","system_id":"levelo_inurba_marseille","lat":43.281594,"lon":5.426455,"is_reserved":false,"is_disabled":false,"rental_uris":{"android":"levelo://app?vid=d3f8489f-d084-411d-99ad-0303c0a03eaa","ios":"levelo://app?vid=d3f8489f-d084-411d-99ad-0303c0a03eaa"},"vehicle_type_id":"4","last_reported":1750979424,"current_range_meters":16400,"station_id":"ce4bhnh2rcd13ifvqgug","pricing_plan_id":"cebpf4jnsgd1na2vs0mg"},{"bike_id":"5a01ae6d-9064-484c-8d77-2d9e141e2313","system_id":"levelo_inurba_marseille","lat":43.24474,"lon":5.390025,"is_reserved":false,"is_disabled":false,"rental_uris":{"android":"levelo://app?vid=5a01ae6d-9064-484c-8d77-2d9e141e2313","ios":"levelo://app?vid=5a01ae6d-9064-484c-8d77-2d9e141e2313"},"vehicle_type_id":"4","last_reported":1750979424,"current_range_meters":16800,"station_id":"","pricing_plan_id":"cebpf4jnsgd1na2vs0mg"},{"bike_id":"776e87ab-1e54-4c6b-83df-367b380f1651","system_id":"levelo_inurba_marseille","lat":43.299757,"lon":5.371796,"is_reserved":false,"is_disabled":false,"rental_uris":{"android":"levelo://app?vid=776e87ab-1e54-4c6b-83df-367b380f1651","ios":"levelo://app?vid=776e87ab-1e54-4c6b-83df-367b380f1651"},"vehicle_type_id":"4","last_reported":1750979424,"current_range_meters":16800,"station_id":"ce4bgr92rcd13ifvqc7g","pricing_plan_id":"cebpf4jnsgd1na2vs0mg"},{"bike_id":"78727748-7263-4e99-b999-f5b850448234","system_id":"levelo_inurba_marseille","lat":43.28559,"lon":5.39513,"is_reserved":false,"is_disabled":false,"rental_uris":{"android":"levelo://app?vid=78727748-7263-4e99-b999-f5b850448234","ios":"levelo://app?vid=78727748-7263-4e99-b999-f5b850448234"},"vehicle_type_id":"4","last_reported":1750979424,"current_range_meters":16800,"station_id":"ce4bh292rcd13ifvqdg0","pricing_plan_id":"cebpf4jnsgd1na2vs0mg"},{"bike_id":"f3ea15c8-46f2-4a73-900e-f3e862876411","system_id":"levelo_inurba_marseille","lat":43.29175,"lon":5.37157,"is_reserved":false,"is_disabled":false,"rental_uris":{"android":"levelo://app?vid=f3ea15c8-46f2-4a73-900e-f3e862876411","ios":"levelo://app?vid=f3ea15c8-46f2-4a73-900e-f3e862876411"},"vehicle_type_id":"4","last_reported":1750979424,"current_range_meters":16800,"station_id":"ce4bha92rcd13ifvqeh0","pricing_plan_id":"cebpf4jnsgd1na2vs0mg"},{"bike_id":"40b19a43-7568-4070-8cfa-6d78b27578ba","system_id":"levelo_inurba_marseille","lat":43.254751,"lon":5.3765,"is_reserved":false,"is_disabled":false,"rental_uris":{"android":"levelo://app?vid=40b19a43-7568-4070-8cfa-6d78b27578ba","ios":"levelo://app?vid=40b19a43-7568-4070-8cfa-6d78b27578ba"},"vehicle_type_id":"4","last_reported":1750979424,"current_range_meters":16800,"station_id":"ce4bhh12rcd13ifvqff0","pricing_plan_id":"cebpf4jnsgd1na2vs0mg"},{"bike_id":"7baace4b-1fc9-448f-ae90-35197a8507bf","system_id":"levelo_inurba_marseille","lat":43.31883,"lon":5.40737,"is_reserved":false,"is_disabled":false,"rental_uris":{"android":"levelo://app?vid=7baace4b-1fc9-448f-ae90-35197a8507bf","ios":"levelo://app?vid=7baace4b-1fc9-448f-ae90-35197a8507bf"},"vehicle_type_id":"4","last_reported":1750979424,"current_range_meters":16800,"station_id":"ce4bhq12rcd13ifvqhig","pricing_plan_id":"cebpf4jnsgd1na2vs0mg"},{"bike_id":"d25c92ba-9c07-4124-b372-b971bba7515e","system_id":"levelo_inurba_marseille","lat":43.250004,"lon":5.389368,"is_reserved":false,"is_disabled":false,"rental_uris":{"android":"levelo://app?vid=d25c92ba-9c07-4124-b372-b971bba7515e","ios":"levelo://app?vid=d25c92ba-9c07-4124-b372-b971bba7515e"},"vehicle_type_id":"4","last_reported":1750979424,"current_range_meters":17200,"station_id":"","pricing_plan_id":"cebpf4jnsgd1na2vs0mg"},{"bike_id":"c7095e65-72e6-4907-9ffb-bdd6027da7f5","system_id":"levelo_inurba_marseille","lat":43.3042,"lon":5.39763,"is_reserved":false,"is_disabled":false,"rental_uris":{"android":"levelo://app?vid=c7095e65-72e6-4907-9ffb-bdd6027da7f5","ios":"levelo://app?vid=c7095e65-72e6-4907-9ffb-bdd6027da7f5"},"vehicle_type_id":"4","last_reported":1750979424,"current_range_meters":17200,"station_id":"ce4bh092rcd13ifvqd20","pricing_plan_id":"cebpf4jnsgd1na2vs0mg"},{"bike_id":"fc33e78c-0b86-48a3-b7c2-725cf7c6d2f4","system_id":"levelo_inurba_marseille","lat":43.28401,"lon":5.37521,"is_reserved":false,"is_disabled":false,"rental_uris":{"android":"levelo://app?vid=fc33e78c-0b86-48a3-b7c2-725cf7c6d2f4","ios":"levelo://app?vid=fc33e78c-0b86-48a3-b7c2-725cf7c6d2f4"},"vehicle_type_id":"4","last_reported":1750979424,"current_range_meters":17200,"station_id":"ce4bh412rcd13ifvqds0","pricing_plan_id":"cebpf4jnsgd1na2vs0mg"},{"bike_id":"045ad28b-273a-4cf6-a34e-97c3600d5209","system_id":"levelo_inurba_marseille","lat":43.29528,"lon":5.42339,"is_reserved":false,"is_disabled":false,"rental_uris":{"android":"levelo://app?vid=045ad28b-273a-4cf6-a34e-97c3600d5209","ios":"levelo://app?vid=045ad28b-273a-4cf6-a34e-97c3600d5209"},"vehicle_type_id":"4","last_reported":1750979424,"current_range_meters":17200,"station_id":"ce4bhph2rcd13ifvqhdg","pricing_plan_id":"cebpf4jnsgd1na2vs0mg"},{"bike_id":"9c125cfc-c13b-457e-9450-130dcf45770a","system_id":"levelo_inurba_marseille","lat":43.293108,"lon":5.371679,"is_reserved":false,"is_disabled":false,"rental_uris":{"android":"levelo://app?vid=9c125cfc-c13b-457e-9450-130dcf45770a","ios":"levelo://app?vid=9c125cfc-c13b-457e-9450-130dcf45770a"},"vehicle_type_id":"4","last_reported":1750979424,"current_range_meters":17600,"station_id":"ce4bgh92rcd13ifvqb40","pricing_plan_id":"cebpf4jnsgd1na2vs0mg"},{"bike_id":"e557aa8a-7b2f-4b5f-87a5-63b37037e12f","system_id":"levelo_inurba_marseille","lat":43.292557,"lon":5.40913,"is_reserved":false,"is_disabled":false,"rental_uris":{"android":"levelo://app?vid=e557aa8a-7b2f-4b5f-87a5-63b37037e12f","ios":"levelo://app?vid=e557aa8a-7b2f-4b5f-87a5-63b37037e12f"},"vehicle_type_id":"4","last_reported":1750979424,"current_range_meters":17600,"station_id":"ce4bh192rcd13ifvqdc0","pricing_plan_id":"cebpf4jnsgd1na2vs0mg"},{"bike_id":"fb5ce017-08e7-4b30-a3fb-a547f1b88f0f","system_id":"levelo_inurba_marseille","lat":43.254837,"lon":5.38212,"is_reserved":false,"is_disabled":false,"rental_uris":{"android":"levelo://app?vid=fb5ce017-08e7-4b30-a3fb-a547f1b88f0f","ios":"levelo://app?vid=fb5ce017-08e7-4b30-a3fb-a547f1b88f0f"},"vehicle_type_id":"4","last_reported":1750979424,"current_range_meters":17600,"station_id":"ce4bhlh2rcd13ifvqgig","pricing_plan_id":"cebpf4jnsgd1na2vs0mg"},{"bike_id":"eebc8c04-6388-4bf2-a909-67fcaf1982c1","system_id":"levelo_inurba_marseille","lat":43.27995,"lon":5.40013,"is_reserved":false,"is_disabled":false,"rental_uris":{"android":"levelo://app?vid=eebc8c04-6388-4bf2-a909-67fcaf1982c1","ios":"levelo://app?vid=eebc8c04-6388-4bf2-a909-67fcaf1982c1"},"vehicle_type_id":"4","last_reported":1750979424,"current_range_meters":17600,"station_id":"ce4bho92rcd13ifvqh4g","pricing_plan_id":"cebpf4jnsgd1na2vs0mg"},{"bike_id":"ffcd8813-36b8-43e0-a09c-be564129c646","system_id":"levelo_inurba_marseille","lat":43.31994,"lon":5.38145,"is_reserved":false,"is_disabled":false,"rental_uris":{"android":"levelo://app?vid=ffcd8813-36b8-43e0-a09c-be564129c646","ios":"levelo://app?vid=ffcd8813-36b8-43e0-a09c-be564129c646"},"vehicle_type_id":"4","last_reported":1750979424,"current_range_meters":17600,"station_id":"ce4bhr12rcd13ifvqhpg","pricing_plan_id":"cebpf4jnsgd1na2vs0mg"},{"bike_id":"59ddddb7-7ec9-4967-b1b9-dfe72f864225","system_id":"levelo_inurba_marseille","lat":43.24155,"lon":5.36436,"is_reserved":false,"is_disabled":false,"rental_uris":{"android":"levelo://app?vid=59ddddb7-7ec9-4967-b1b9-dfe72f864225","ios":"levelo://app?vid=59ddddb7-7ec9-4967-b1b9-dfe72f864225"},"vehicle_type_id":"4","last_reported":1750979424,"current_range_meters":17600,"station_id":"cpo36qri1sfpv3e86is0","pricing_plan_id":"cebpf4jnsgd1na2vs0mg"},{"bike_id":"b670c318-5520-4fcf-bf0f-267e72db97a8","system_id":"levelo_inurba_marseille","lat":43.217555,"lon":5.34597,"is_reserved":false,"is_disabled":false,"rental_uris":{"android":"levelo://app?vid=b670c318-5520-4fcf-bf0f-267e72db97a8","ios":"levelo://app?vid=b670c318-5520-4fcf-bf0f-267e72db97a8"},"vehicle_type_id":"4","last_reported":1750979424,"current_range_meters":17600,"station_id":"st_cvj6r9ubvosntc0bgbag","pricing_plan_id":"cebpf4jnsgd1na2vs0mg"},{"bike_id":"0cc875de-910f-4dc9-a95a-929fe03cda28","system_id":"levelo_inurba_marseille","lat":43.30143,"lon":5.3877,"is_reserved":false,"is_disabled":false,"rental_uris":{"android":"levelo://app?vid=0cc875de-910f-4dc9-a95a-929fe03cda28","ios":"levelo://app?vid=0cc875de-910f-4dc9-a95a-929fe03cda28"},"vehicle_type_id":"4","last_reported":1750979424,"current_range_meters":18000,"station_id":"ce4bghh2rcd13ifvqb60","pricing_plan_id":"cebpf4jnsgd1na2vs0mg"},{"bike_id":"4f04c17f-28e6-4cb9-a296-b2ca40a8ba3b","system_id":"levelo_inurba_marseille","lat":43.30632,"lon":5.40076,"is_reserved":false,"is_disabled":false,"rental_uris":{"android":"levelo://app?vid=4f04c17f-28e6-4cb9-a296-b2ca40a8ba3b","ios":"levelo://app?vid=4f04c17f-28e6-4cb9-a296-b2ca40a8ba3b"},"vehicle_type_id":"4","last_reported":1750979424,"current_range_meters":18000,"station_id":"ce4bh112rcd13ifvqda0","pricing_plan_id":"cebpf4jnsgd1na2vs0mg"},{"bike_id":"051a5969-7253-4de1-958c-a45604f9439f","system_id":"levelo_inurba_marseille","lat":43.29255,"lon":5.40907,"is_reserved":false,"is_disabled":false,"rental_uris":{"android":"levelo://app?vid=051a5969-7253-4de1-958c-a45604f9439f","ios":"levelo://app?vid=051a5969-7253-4de1-958c-a45604f9439f"},"vehicle_type_id":"4","last_reported":1750979424,"current_range_meters":18000,"station_id":"ce4bh192rcd13ifvqdc0","pricing_plan_id":"cebpf4jnsgd1na2vs0mg"},{"bike_id":"d5629044-8b3b-41c3-b33b-a2ce383a6d65","system_id":"levelo_inurba_marseille","lat":43.29278,"lon":5.40167,"is_reserved":false,"is_disabled":false,"rental_uris":{"android":"levelo://app?vid=d5629044-8b3b-41c3-b33b-a2ce383a6d65","ios":"levelo://app?vid=d5629044-8b3b-41c3-b33b-a2ce383a6d65"},"vehicle_type_id":"4","last_reported":1750979424,"current_range_meters":18000,"station_id":"ce4bh312rcd13ifvqdk0","pricing_plan_id":"cebpf4jnsgd1na2vs0mg"},{"bike_id":"804b3ada-f235-4bce-8ddf-cab6d8d5c496","system_id":"levelo_inurba_marseille","lat":43.31533,"lon":5.38027,"is_reserved":false,"is_disabled":false,"rental_uris":{"android":"levelo://app?vid=804b3ada-f235-4bce-8ddf-cab6d8d5c496","ios":"levelo://app?vid=804b3ada-f235-4bce-8ddf-cab6d8d5c496"},"vehicle_type_id":"4","last_reported":1750979424,"current_range_meters":18000,"station_id":"ce4bhsp2rcd13ifvqi50","pricing_plan_id":"cebpf4jnsgd1na2vs0mg"},{"bike_id":"c65cf773-4af5-4807-915f-fef9071dede4","system_id":"levelo_inurba_marseille","lat":43.23201,"lon":5.35555,"is_reserved":false,"is_disabled":false,"rental_uris":{"android":"levelo://app?vid=c65cf773-4af5-4807-915f-fef9071dede4","ios":"levelo://app?vid=c65cf773-4af5-4807-915f-fef9071dede4"},"vehicle_type_id":"4","last_reported":1750979424,"current_range_meters":18000,"station_id":"ce4bhu92rcd13ifvqi70","pricing_plan_id":"cebpf4jnsgd1na2vs0mg"},{"bike_id":"facfcf93-ab85-4d16-b148-8bc9369e6f17","system_id":"levelo_inurba_marseille","lat":43.21182,"lon":5.35095,"is_reserved":false,"is_disabled":false,"rental_uris":{"android":"levelo://app?vid=facfcf93-ab85-4d16-b148-8bc9369e6f17","ios":"levelo://app?vid=facfcf93-ab85-4d16-b148-8bc9369e6f17"},"vehicle_type_id":"4","last_reported":1750979424,"current_range_meters":18000,"station_id":"st_cvj6sg6p6f1abm77japg","pricing_plan_id":"cebpf4jnsgd1na2vs0mg"},{"bike_id":"f0057ca2-de2d-4464-8902-068dc3677e00","system_id":"levelo_inurba_marseille","lat":43.2118,"lon":5.35094,"is_reserved":false,"is_disabled":false,"rental_uris":{"android":"levelo://app?vid=f0057ca2-de2d-4464-8902-068dc3677e00","ios":"levelo://app?vid=f0057ca2-de2d-4464-8902-068dc3677e00"},"vehicle_type_id":"4","last_reported":1750979424,"current_range_meters":18000,"station_id":"st_cvj6sg6p6f1abm77japg","pricing_plan_id":"cebpf4jnsgd1na2vs0mg"},{"bike_id":"e6ce70f7-9138-485c-a4db-2c9174614cff","system_id":"levelo_inurba_marseille","lat":43.31775,"lon":5.36861,"is_reserved":false,"is_disabled":false,"rental_uris":{"android":"levelo://app?vid=e6ce70f7-9138-485c-a4db-2c9174614cff","ios":"levelo://app?vid=e6ce70f7-9138-485c-a4db-2c9174614cff"},"vehicle_type_id":"4","last_reported":1750979424,"current_range_meters":18800,"station_id":"","pricing_plan_id":"cebpf4jnsgd1na2vs0mg"},{"bike_id":"df95d488-ee87-4541-94da-edc0f805b427","system_id":"levelo_inurba_marseille","lat":43.31228,"lon":5.36852,"is_reserved":false,"is_disabled":false,"rental_uris":{"android":"levelo://app?vid=df95d488-ee87-4541-94da-edc0f805b427","ios":"levelo://app?vid=df95d488-ee87-4541-94da-edc0f805b427"},"vehicle_type_id":"4","last_reported":1750979424,"current_range_meters":18800,"station_id":"ce4bgl92rcd13ifvqbq0","pricing_plan_id":"cebpf4jnsgd1na2vs0mg"},{"bike_id":"aea1e28a-5ff3-4233-b871-d16a66ed2b10","system_id":"levelo_inurba_marseille","lat":43.30211,"lon":5.39472,"is_reserved":false,"is_disabled":false,"rental_uris":{"android":"levelo://app?vid=aea1e28a-5ff3-4233-b871-d16a66ed2b10","ios":"levelo://app?vid=aea1e28a-5ff3-4233-b871-d16a66ed2b10"},"vehicle_type_id":"4","last_reported":1750979424,"current_range_meters":18800,"station_id":"ce4bh0p2rcd13ifvqd70","pricing_plan_id":"cebpf4jnsgd1na2vs0mg"},{"bike_id":"7c27c2dc-b755-42d0-aaf8-12dca0ae8036","system_id":"levelo_inurba_marseille","lat":43.29274,"lon":5.40157,"is_reserved":false,"is_disabled":false,"rental_uris":{"android":"levelo://app?vid=7c27c2dc-b755-42d0-aaf8-12dca0ae8036","ios":"levelo://app?vid=7c27c2dc-b755-42d0-aaf8-12dca0ae8036"},"vehicle_type_id":"4","last_reported":1750979424,"current_range_meters":18800,"station_id":"ce4bh312rcd13ifvqdk0","pricing_plan_id":"cebpf4jnsgd1na2vs0mg"},{"bike_id":"2ef09bad-a398-4935-afc0-f6959bcb25bf","system_id":"levelo_inurba_marseille","lat":43.284121,"lon":5.375047,"is_reserved":false,"is_disabled":false,"rental_uris":{"android":"levelo://app?vid=2ef09bad-a398-4935-afc0-f6959bcb25bf","ios":"levelo://app?vid=2ef09bad-a398-4935-afc0-f6959bcb25bf"},"vehicle_type_id":"4","last_reported":1750979424,"current_range_meters":18800,"station_id":"ce4bhbh2rcd13ifvqepg","pricing_plan_id":"cebpf4jnsgd1na2vs0mg"},{"bike_id":"a2a77698-b9bc-4f96-83a9-97a8d75bac6a","system_id":"levelo_inurba_marseille","lat":43.25721,"lon":5.41119,"is_reserved":false,"is_disabled":false,"rental_uris":{"android":"levelo://app?vid=a2a77698-b9bc-4f96-83a9-97a8d75bac6a","ios":"levelo://app?vid=a2a77698-b9bc-4f96-83a9-97a8d75bac6a"},"vehicle_type_id":"4","last_reported":1750979424,"current_range_meters":18800,"station_id":"ce4bhkp2rcd13ifvqgd0","pricing_plan_id":"cebpf4jnsgd1na2vs0mg"},{"bike_id":"68ba553f-21c6-4e54-95b0-38cf227ee3c9","system_id":"levelo_inurba_marseille","lat":43.26232,"lon":5.401631,"is_reserved":false,"is_disabled":false,"rental_uris":{"android":"levelo://app?vid=68ba553f-21c6-4e54-95b0-38cf227ee3c9","ios":"levelo://app?vid=68ba553f-21c6-4e54-95b0-38cf227ee3c9"},"vehicle_type_id":"4","last_reported":1750979424,"current_range_meters":19200,"station_id":"","pricing_plan_id":"cebpf4jnsgd1na2vs0mg"},{"bike_id":"6386d50e-3ba0-44fe-a7f7-db5381a89376","system_id":"levelo_inurba_marseille","lat":43.29514,"lon":5.3877,"is_reserved":false,"is_disabled":false,"rental_uris":{"android":"levelo://app?vid=6386d50e-3ba0-44fe-a7f7-db5381a89376","ios":"levelo://app?vid=6386d50e-3ba0-44fe-a7f7-db5381a89376"},"vehicle_type_id":"4","last_reported":1750979424,"current_range_meters":19200,"station_id":"","pricing_plan_id":"cebpf4jnsgd1na2vs0mg"},{"bike_id":"9fd15b51-c27a-4a76-996a-644caac9cee1","system_id":"levelo_inurba_marseille","lat":43.29923,"lon":5.40087,"is_reserved":false,"is_disabled":false,"rental_uris":{"android":"levelo://app?vid=9fd15b51-c27a-4a76-996a-644caac9cee1","ios":"levelo://app?vid=9fd15b51-c27a-4a76-996a-644caac9cee1"},"vehicle_type_id":"4","last_reported":1750979424,"current_range_meters":19200,"station_id":"","pricing_plan_id":"cebpf4jnsgd1na2vs0mg"},{"bike_id":"d4d69eb6-0cd1-4983-8dae-734539779b72","system_id":"levelo_inurba_marseille","lat":43.30894,"lon":5.39673,"is_reserved":false,"is_disabled":false,"rental_uris":{"android":"levelo://app?vid=d4d69eb6-0cd1-4983-8dae-734539779b72","ios":"levelo://app?vid=d4d69eb6-0cd1-4983-8dae-734539779b72"},"vehicle_type_id":"4","last_reported":1750979424,"current_range_meters":19200,"station_id":"ce4bh012rcd13ifvqcv0","pricing_plan_id":"cebpf4jnsgd1na2vs0mg"},{"bike_id":"5fc28c27-25a1-4d96-8961-4e23f6121a50","system_id":"levelo_inurba_marseille","lat":43.28575,"lon":5.394954,"is_reserved":false,"is_disabled":false,"rental_uris":{"android":"levelo://app?vid=5fc28c27-25a1-4d96-8961-4e23f6121a50","ios":"levelo://app?vid=5fc28c27-25a1-4d96-8961-4e23f6121a50"},"vehicle_type_id":"4","last_reported":1750979424,"current_range_meters":19200,"station_id":"ce4bh292rcd13ifvqdg0","pricing_plan_id":"cebpf4jnsgd1na2vs0mg"},{"bike_id":"f43751a6-558d-4b4c-a656-80c4a01e6e2f","system_id":"levelo_inurba_marseille","lat":43.29077,"lon":5.37162,"is_reserved":false,"is_disabled":false,"rental_uris":{"android":"levelo://app?vid=f43751a6-558d-4b4c-a656-80c4a01e6e2f","ios":"levelo://app?vid=f43751a6-558d-4b4c-a656-80c4a01e6e2f"},"vehicle_type_id":"4","last_reported":1750979424,"current_range_meters":19200,"station_id":"ce4bh5p2rcd13ifvqe4g","pricing_plan_id":"cebpf4jnsgd1na2vs0mg"},{"bike_id":"9dde7890-ac49-4329-a548-d1fa6b7c7163","system_id":"levelo_inurba_marseille","lat":43.28427,"lon":5.39207,"is_reserved":false,"is_disabled":false,"rental_uris":{"android":"levelo://app?vid=9dde7890-ac49-4329-a548-d1fa6b7c7163","ios":"levelo://app?vid=9dde7890-ac49-4329-a548-d1fa6b7c7163"},"vehicle_type_id":"4","last_reported":1750979424,"current_range_meters":19200,"station_id":"ce4bhoh2rcd13ifvqh5g","pricing_plan_id":"cebpf4jnsgd1na2vs0mg"},{"bike_id":"d7d82f11-0b94-4074-bc71-6b53b83fa5ff","system_id":"levelo_inurba_marseille","lat":43.30375,"lon":5.42493,"is_reserved":false,"is_disabled":false,"rental_uris":{"android":"levelo://app?vid=d7d82f11-0b94-4074-bc71-6b53b83fa5ff","ios":"levelo://app?vid=d7d82f11-0b94-4074-bc71-6b53b83fa5ff"},"vehicle_type_id":"4","last_reported":1750979424,"current_range_meters":19200,"station_id":"ce4bhoh2rcd13ifvqh6g","pricing_plan_id":"cebpf4jnsgd1na2vs0mg"},{"bike_id":"57d6eb9e-33e5-482e-9465-914c364d7397","system_id":"levelo_inurba_marseille","lat":43.322874,"lon":5.38269,"is_reserved":false,"is_disabled":false,"rental_uris":{"android":"levelo://app?vid=57d6eb9e-33e5-482e-9465-914c364d7397","ios":"levelo://app?vid=57d6eb9e-33e5-482e-9465-914c364d7397"},"vehicle_type_id":"4","last_reported":1750979424,"current_range_meters":19200,"station_id":"ce4bhr12rcd13ifvqhqg","pricing_plan_id":"cebpf4jnsgd1na2vs0mg"},{"bike_id":"935c8062-ae25-46e0-901d-4b81929b99b7","system_id":"levelo_inurba_marseille","lat":43.217599,"lon":5.345872,"is_reserved":false,"is_disabled":false,"rental_uris":{"android":"levelo://app?vid=935c8062-ae25-46e0-901d-4b81929b99b7","ios":"levelo://app?vid=935c8062-ae25-46e0-901d-4b81929b99b7"},"vehicle_type_id":"4","last_reported":1750979424,"current_range_meters":19200,"station_id":"st_cvj6r9ubvosntc0bgbag","pricing_plan_id":"cebpf4jnsgd1na2vs0mg"},{"bike_id":"815201a7-dbbe-4827-ab77-bd49f80ea5ee","system_id":"levelo_inurba_marseille","lat":43.29743,"lon":5.46021,"is_reserved":false,"is_disabled":false,"rental_uris":{"android":"levelo://app?vid=815201a7-dbbe-4827-ab77-bd49f80ea5ee","ios":"levelo://app?vid=815201a7-dbbe-4827-ab77-bd49f80ea5ee"},"vehicle_type_id":"4","last_reported":1750979424,"current_range_meters":19600,"station_id":"","pricing_plan_id":"cebpf4jnsgd1na2vs0mg"},{"bike_id":"94d4705c-ca53-4e90-900a-15e2a65f553f","system_id":"levelo_inurba_marseille","lat":43.292625,"lon":5.384461,"is_reserved":false,"is_disabled":false,"rental_uris":{"android":"levelo://app?vid=94d4705c-ca53-4e90-900a-15e2a65f553f","ios":"levelo://app?vid=94d4705c-ca53-4e90-900a-15e2a65f553f"},"vehicle_type_id":"4","last_reported":1750979424,"current_range_meters":19600,"station_id":"ce4bh192rcd13ifvqdc0","pricing_plan_id":"cebpf4jnsgd1na2vs0mg"},{"bike_id":"ea1eae92-b55c-4011-9a6e-1af6008a5d60","system_id":"levelo_inurba_marseille","lat":43.29442,"lon":5.39747,"is_reserved":false,"is_disabled":false,"rental_uris":{"android":"levelo://app?vid=ea1eae92-b55c-4011-9a6e-1af6008a5d60","ios":"levelo://app?vid=ea1eae92-b55c-4011-9a6e-1af6008a5d60"},"vehicle_type_id":"4","last_reported":1750979424,"current_range_meters":19600,"station_id":"ce4bh3h2rcd13ifvqdo0","pricing_plan_id":"cebpf4jnsgd1na2vs0mg"},{"bike_id":"51529891-c4e6-4f67-95f4-5f2ec123f70e","system_id":"levelo_inurba_marseille","lat":43.29426,"lon":5.39733,"is_reserved":false,"is_disabled":false,"rental_uris":{"android":"levelo://app?vid=51529891-c4e6-4f67-95f4-5f2ec123f70e","ios":"levelo://app?vid=51529891-c4e6-4f67-95f4-5f2ec123f70e"},"vehicle_type_id":"4","last_reported":1750979424,"current_range_meters":19600,"station_id":"ce4bh3h2rcd13ifvqdo0","pricing_plan_id":"cebpf4jnsgd1na2vs0mg"},{"bike_id":"2f83003f-e743-431a-ab5a-149d4bc5e3e1","system_id":"levelo_inurba_marseille","lat":43.28343,"lon":5.381,"is_reserved":false,"is_disabled":false,"rental_uris":{"android":"levelo://app?vid=2f83003f-e743-431a-ab5a-149d4bc5e3e1","ios":"levelo://app?vid=2f83003f-e743-431a-ab5a-149d4bc5e3e1"},"vehicle_type_id":"4","last_reported":1750979424,"current_range_meters":19600,"station_id":"ce4bh412rcd13ifvqdr0","pricing_plan_id":"cebpf4jnsgd1na2vs0mg"},{"bike_id":"c682d158-3e88-4672-9273-2aeb1ef15689","system_id":"levelo_inurba_marseille","lat":43.27893,"lon":5.38004,"is_reserved":false,"is_disabled":false,"rental_uris":{"android":"levelo://app?vid=c682d158-3e88-4672-9273-2aeb1ef15689","ios":"levelo://app?vid=c682d158-3e88-4672-9273-2aeb1ef15689"},"vehicle_type_id":"4","last_reported":1750979424,"current_range_meters":19600,"station_id":"ce4bhf92rcd13ifvqf50","pricing_plan_id":"cebpf4jnsgd1na2vs0mg"},{"bike_id":"37243060-4231-4916-9fed-fa7e9205f858","system_id":"levelo_inurba_marseille","lat":43.24647,"lon":5.38163,"is_reserved":false,"is_disabled":false,"rental_uris":{"android":"levelo://app?vid=37243060-4231-4916-9fed-fa7e9205f858","ios":"levelo://app?vid=37243060-4231-4916-9fed-fa7e9205f858"},"vehicle_type_id":"4","last_reported":1750979424,"current_range_meters":19600,"station_id":"ce4bhih2rcd13ifvqfr0","pricing_plan_id":"cebpf4jnsgd1na2vs0mg"},{"bike_id":"4adff291-15d4-4438-9ab8-d46dfa9348a8","system_id":"levelo_inurba_marseille","lat":43.27496,"lon":5.42456,"is_reserved":false,"is_disabled":false,"rental_uris":{"android":"levelo://app?vid=4adff291-15d4-4438-9ab8-d46dfa9348a8","ios":"levelo://app?vid=4adff291-15d4-4438-9ab8-d46dfa9348a8"},"vehicle_type_id":"4","last_reported":1750979424,"current_range_meters":19600,"station_id":"ce4bhn92rcd13ifvqgrg","pricing_plan_id":"cebpf4jnsgd1na2vs0mg"},{"bike_id":"c5a58de5-faca-4f4b-8a6f-ce53de7f8ecd","system_id":"levelo_inurba_marseille","lat":43.28716,"lon":5.39984,"is_reserved":false,"is_disabled":false,"rental_uris":{"android":"levelo://app?vid=c5a58de5-faca-4f4b-8a6f-ce53de7f8ecd","ios":"levelo://app?vid=c5a58de5-faca-4f4b-8a6f-ce53de7f8ecd"},"vehicle_type_id":"4","last_reported":1750979424,"current_range_meters":19600,"station_id":"ce4bho92rcd13ifvqh3g","pricing_plan_id":"cebpf4jnsgd1na2vs0mg"},{"bike_id":"cc02801f-87a2-4eae-add0-f8332bd8641a","system_id":"levelo_inurba_marseille","lat":43.268,"lon":5.40269,"is_reserved":false,"is_disabled":false,"rental_uris":{"android":"levelo://app?vid=cc02801f-87a2-4eae-add0-f8332bd8641a","ios":"levelo://app?vid=cc02801f-87a2-4eae-add0-f8332bd8641a"},"vehicle_type_id":"4","last_reported":1750979424,"current_range_meters":19600,"station_id":"ce501612rcd8frsf0b60","pricing_plan_id":"cebpf4jnsgd1na2vs0mg"},{"bike_id":"065171bb-9a87-4ffe-a2e4-e33c00112538","system_id":"levelo_inurba_marseille","lat":43.29969,"lon":5.37175,"is_reserved":false,"is_disabled":false,"rental_uris":{"android":"levelo://app?vid=065171bb-9a87-4ffe-a2e4-e33c00112538","ios":"levelo://app?vid=065171bb-9a87-4ffe-a2e4-e33c00112538"},"vehicle_type_id":"4","last_reported":1750979424,"current_range_meters":20000,"station_id":"ce4bgr92rcd13ifvqc7g","pricing_plan_id":"cebpf4jnsgd1na2vs0mg"},{"bike_id":"8508c2a4-2e1a-4d75-a0f7-93dc6fa6e57c","system_id":"levelo_inurba_marseille","lat":43.28407,"lon":5.3752,"is_reserved":false,"is_disabled":false,"rental_uris":{"android":"levelo://app?vid=8508c2a4-2e1a-4d75-a0f7-93dc6fa6e57c","ios":"levelo://app?vid=8508c2a4-2e1a-4d75-a0f7-93dc6fa6e57c"},"vehicle_type_id":"4","last_reported":1750979424,"current_range_meters":20000,"station_id":"ce4bh412rcd13ifvqds0","pricing_plan_id":"cebpf4jnsgd1na2vs0mg"},{"bike_id":"a649ffd2-2ecc-45d5-9e5b-897b30e83208","system_id":"levelo_inurba_marseille","lat":43.289368,"lon":5.396286,"is_reserved":false,"is_disabled":false,"rental_uris":{"android":"levelo://app?vid=a649ffd2-2ecc-45d5-9e5b-897b30e83208","ios":"levelo://app?vid=a649ffd2-2ecc-45d5-9e5b-897b30e83208"},"vehicle_type_id":"4","last_reported":1750979424,"current_range_meters":20000,"station_id":"ce4bhg92rcd13ifvqf90","pricing_plan_id":"cebpf4jnsgd1na2vs0mg"},{"bike_id":"fda9b1eb-f67a-4724-85d4-2e5888b25150","system_id":"levelo_inurba_marseille","lat":43.27998,"lon":5.40009,"is_reserved":false,"is_disabled":false,"rental_uris":{"android":"levelo://app?vid=fda9b1eb-f67a-4724-85d4-2e5888b25150","ios":"levelo://app?vid=fda9b1eb-f67a-4724-85d4-2e5888b25150"},"vehicle_type_id":"4","last_reported":1750979424,"current_range_meters":20000,"station_id":"ce4bho92rcd13ifvqh4g","pricing_plan_id":"cebpf4jnsgd1na2vs0mg"},{"bike_id":"682141d1-75d6-4c6a-8ef5-a4a71ea61b17","system_id":"levelo_inurba_marseille","lat":43.33022,"lon":5.39038,"is_reserved":false,"is_disabled":false,"rental_uris":{"android":"levelo://app?vid=682141d1-75d6-4c6a-8ef5-a4a71ea61b17","ios":"levelo://app?vid=682141d1-75d6-4c6a-8ef5-a4a71ea61b17"},"vehicle_type_id":"4","last_reported":1750979424,"current_range_meters":20000,"station_id":"ce4bhr92rcd13ifvqhrg","pricing_plan_id":"cebpf4jnsgd1na2vs0mg"},{"bike_id":"06cac583-9fa7-4dae-9061-944fc86d6229","system_id":"levelo_inurba_marseille","lat":43.23193,"lon":5.35564,"is_reserved":false,"is_disabled":false,"rental_uris":{"android":"levelo://app?vid=06cac583-9fa7-4dae-9061-944fc86d6229","ios":"levelo://app?vid=06cac583-9fa7-4dae-9061-944fc86d6229"},"vehicle_type_id":"4","last_reported":1750979424,"current_range_meters":20000,"station_id":"ce4bhu92rcd13ifvqi70","pricing_plan_id":"cebpf4jnsgd1na2vs0mg"},{"bike_id":"6883d98b-54b6-4226-8d33-f8176497b951","system_id":"levelo_inurba_marseille","lat":43.3046,"lon":5.37909,"is_reserved":false,"is_disabled":false,"rental_uris":{"android":"levelo://app?vid=6883d98b-54b6-4226-8d33-f8176497b951","ios":"levelo://app?vid=6883d98b-54b6-4226-8d33-f8176497b951"},"vehicle_type_id":"4","last_reported":1750979424,"current_range_meters":20400,"station_id":"ce4bgup2rcd13ifvqcn0","pricing_plan_id":"cebpf4jnsgd1na2vs0mg"},{"bike_id":"5908d616-0427-4460-aca8-5452e26f4f43","system_id":"levelo_inurba_marseille","lat":43.30592,"lon":5.39364,"is_reserved":false,"is_disabled":false,"rental_uris":{"android":"levelo://app?vid=5908d616-0427-4460-aca8-5452e26f4f43","ios":"levelo://app?vid=5908d616-0427-4460-aca8-5452e26f4f43"},"vehicle_type_id":"4","last_reported":1750979424,"current_range_meters":20400,"station_id":"ce4bh0p2rcd13ifvqd80","pricing_plan_id":"cebpf4jnsgd1na2vs0mg"},{"bike_id":"ff955ae5-0ad9-4529-8abb-0f1183467e84","system_id":"levelo_inurba_marseille","lat":43.29262,"lon":5.40932,"is_reserved":false,"is_disabled":false,"rental_uris":{"android":"levelo://app?vid=ff955ae5-0ad9-4529-8abb-0f1183467e84","ios":"levelo://app?vid=ff955ae5-0ad9-4529-8abb-0f1183467e84"},"vehicle_type_id":"4","last_reported":1750979424,"current_range_meters":20400,"station_id":"ce4bh192rcd13ifvqdc0","pricing_plan_id":"cebpf4jnsgd1na2vs0mg"},{"bike_id":"65f17a22-ba3e-4cbd-b456-7322a9250b1c","system_id":"levelo_inurba_marseille","lat":43.283417,"lon":5.38115,"is_reserved":false,"is_disabled":false,"rental_uris":{"android":"levelo://app?vid=65f17a22-ba3e-4cbd-b456-7322a9250b1c","ios":"levelo://app?vid=65f17a22-ba3e-4cbd-b456-7322a9250b1c"},"vehicle_type_id":"4","last_reported":1750979424,"current_range_meters":20400,"station_id":"ce4bh412rcd13ifvqdr0","pricing_plan_id":"cebpf4jnsgd1na2vs0mg"},{"bike_id":"bb720056-94b8-47fb-b1bc-f56ab9237954","system_id":"levelo_inurba_marseille","lat":43.27914,"lon":5.39612,"is_reserved":false,"is_disabled":false,"rental_uris":{"android":"levelo://app?vid=bb720056-94b8-47fb-b1bc-f56ab9237954","ios":"levelo://app?vid=bb720056-94b8-47fb-b1bc-f56ab9237954"},"vehicle_type_id":"4","last_reported":1750979424,"current_range_meters":20400,"station_id":"ce4bhf92rcd13ifvqf40","pricing_plan_id":"cebpf4jnsgd1na2vs0mg"},{"bike_id":"e982d198-c531-43c3-8c06-bed3168e8f05","system_id":"levelo_inurba_marseille","lat":43.27519,"lon":5.39431,"is_reserved":false,"is_disabled":false,"rental_uris":{"android":"levelo://app?vid=e982d198-c531-43c3-8c06-bed3168e8f05","ios":"levelo://app?vid=e982d198-c531-43c3-8c06-bed3168e8f05"},"vehicle_type_id":"4","last_reported":1750979424,"current_range_meters":20800,"station_id":"","pricing_plan_id":"cebpf4jnsgd1na2vs0mg"},{"bike_id":"ec3b19d0-feec-4a86-b966-7829278872e1","system_id":"levelo_inurba_marseille","lat":43.301443,"lon":5.374108,"is_reserved":false,"is_disabled":false,"rental_uris":{"android":"levelo://app?vid=ec3b19d0-feec-4a86-b966-7829278872e1","ios":"levelo://app?vid=ec3b19d0-feec-4a86-b966-7829278872e1"},"vehicle_type_id":"4","last_reported":1750979424,"current_range_meters":20800,"station_id":"ce4bgs92rcd13ifvqcc0","pricing_plan_id":"cebpf4jnsgd1na2vs0mg"},{"bike_id":"f9f1f7c5-fc8c-4fe8-ae79-c7eff5eaf6cd","system_id":"levelo_inurba_marseille","lat":43.30423,"lon":5.39746,"is_reserved":false,"is_disabled":false,"rental_uris":{"android":"levelo://app?vid=f9f1f7c5-fc8c-4fe8-ae79-c7eff5eaf6cd","ios":"levelo://app?vid=f9f1f7c5-fc8c-4fe8-ae79-c7eff5eaf6cd"},"vehicle_type_id":"4","last_reported":1750979424,"current_range_meters":20800,"station_id":"ce4bh092rcd13ifvqd20","pricing_plan_id":"cebpf4jnsgd1na2vs0mg"},{"bike_id":"12c7fc9f-7c7b-4185-9b2f-badd0c17e36b","system_id":"levelo_inurba_marseille","lat":43.24743,"lon":5.3746,"is_reserved":false,"is_disabled":false,"rental_uris":{"android":"levelo://app?vid=12c7fc9f-7c7b-4185-9b2f-badd0c17e36b","ios":"levelo://app?vid=12c7fc9f-7c7b-4185-9b2f-badd0c17e36b"},"vehicle_type_id":"4","last_reported":1750979424,"current_range_meters":21600,"station_id":"","pricing_plan_id":"cebpf4jnsgd1na2vs0mg"},{"bike_id":"2ff084fb-001f-47d9-a180-feb441cc7431","system_id":"levelo_inurba_marseille","lat":43.30423,"lon":5.39751,"is_reserved":false,"is_disabled":false,"rental_uris":{"android":"levelo://app?vid=2ff084fb-001f-47d9-a180-feb441cc7431","ios":"levelo://app?vid=2ff084fb-001f-47d9-a180-feb441cc7431"},"vehicle_type_id":"4","last_reported":1750979424,"current_range_meters":21600,"station_id":"ce4bh092rcd13ifvqd20","pricing_plan_id":"cebpf4jnsgd1na2vs0mg"},{"bike_id":"481ca817-a08d-4eda-ad04-4900bf874466","system_id":"levelo_inurba_marseille","lat":43.27826,"lon":5.39204,"is_reserved":false,"is_disabled":false,"rental_uris":{"android":"levelo://app?vid=481ca817-a08d-4eda-ad04-4900bf874466","ios":"levelo://app?vid=481ca817-a08d-4eda-ad04-4900bf874466"},"vehicle_type_id":"4","last_reported":1750979424,"current_range_meters":21600,"station_id":"ce4bhjp2rcd13ifvqga0","pricing_plan_id":"cebpf4jnsgd1na2vs0mg"},{"bike_id":"d8d52743-e308-4447-9b7c-7c3289fffa70","system_id":"levelo_inurba_marseille","lat":43.31523,"lon":5.38045,"is_reserved":false,"is_disabled":false,"rental_uris":{"android":"levelo://app?vid=d8d52743-e308-4447-9b7c-7c3289fffa70","ios":"levelo://app?vid=d8d52743-e308-4447-9b7c-7c3289fffa70"},"vehicle_type_id":"4","last_reported":1750979424,"current_range_meters":21600,"station_id":"ce4bhsp2rcd13ifvqi50","pricing_plan_id":"cebpf4jnsgd1na2vs0mg"},{"bike_id":"14e8ef37-e834-4d76-9946-e98f7a083a2f","system_id":"levelo_inurba_marseille","lat":43.21128,"lon":5.35066,"is_reserved":false,"is_disabled":false,"rental_uris":{"android":"levelo://app?vid=14e8ef37-e834-4d76-9946-e98f7a083a2f","ios":"levelo://app?vid=14e8ef37-e834-4d76-9946-e98f7a083a2f"},"vehicle_type_id":"4","last_reported":1750979424,"current_range_meters":21600,"station_id":"st_cvj6sg6p6f1abm77japg","pricing_plan_id":"cebpf4jnsgd1na2vs0mg"},{"bike_id":"6380dde4-1ea0-4a3a-81b5-8bf3eb162799","system_id":"levelo_inurba_marseille","lat":43.30646,"lon":5.40091,"is_reserved":false,"is_disabled":false,"rental_uris":{"android":"levelo://app?vid=6380dde4-1ea0-4a3a-81b5-8bf3eb162799","ios":"levelo://app?vid=6380dde4-1ea0-4a3a-81b5-8bf3eb162799"},"vehicle_type_id":"4","last_reported":1750979424,"current_range_meters":22000,"station_id":"ce4bh112rcd13ifvqda0","pricing_plan_id":"cebpf4jnsgd1na2vs0mg"},{"bike_id":"cc83cb3f-dea0-4e60-9b05-f53d48891d6c","system_id":"levelo_inurba_marseille","lat":43.30636,"lon":5.40093,"is_reserved":false,"is_disabled":false,"rental_uris":{"android":"levelo://app?vid=cc83cb3f-dea0-4e60-9b05-f53d48891d6c","ios":"levelo://app?vid=cc83cb3f-dea0-4e60-9b05-f53d48891d6c"},"vehicle_type_id":"4","last_reported":1750979424,"current_range_meters":22000,"station_id":"ce4bh112rcd13ifvqda0","pricing_plan_id":"cebpf4jnsgd1na2vs0mg"},{"bike_id":"ce89f7f5-170b-460a-84db-9798be13424d","system_id":"levelo_inurba_marseille","lat":43.258593,"lon":5.398978,"is_reserved":false,"is_disabled":false,"rental_uris":{"android":"levelo://app?vid=ce89f7f5-170b-460a-84db-9798be13424d","ios":"levelo://app?vid=ce89f7f5-170b-460a-84db-9798be13424d"},"vehicle_type_id":"4","last_reported":1750979424,"current_range_meters":22000,"station_id":"ce4bh512rcd13ifvqe3g","pricing_plan_id":"cebpf4jnsgd1na2vs0mg"},{"bike_id":"a3678f4f-4b49-4ff2-9023-4219e7d70da4","system_id":"levelo_inurba_marseille","lat":43.246609,"lon":5.38162,"is_reserved":false,"is_disabled":false,"rental_uris":{"android":"levelo://app?vid=a3678f4f-4b49-4ff2-9023-4219e7d70da4","ios":"levelo://app?vid=a3678f4f-4b49-4ff2-9023-4219e7d70da4"},"vehicle_type_id":"4","last_reported":1750979424,"current_range_meters":22000,"station_id":"ce4bhih2rcd13ifvqfr0","pricing_plan_id":"cebpf4jnsgd1na2vs0mg"},{"bike_id":"417bbdac-4506-4ac4-ad56-fc4983ea84ae","system_id":"levelo_inurba_marseille","lat":43.27179,"lon":5.40993,"is_reserved":false,"is_disabled":false,"rental_uris":{"android":"levelo://app?vid=417bbdac-4506-4ac4-ad56-fc4983ea84ae","ios":"levelo://app?vid=417bbdac-4506-4ac4-ad56-fc4983ea84ae"},"vehicle_type_id":"4","last_reported":1750979424,"current_range_meters":22000,"station_id":"ce4bhl12rcd13ifvqgf0","pricing_plan_id":"cebpf4jnsgd1na2vs0mg"},{"bike_id":"f1ff4f78-6d1b-435f-8777-a24085f5b111","system_id":"levelo_inurba_marseille","lat":43.23218,"lon":5.35582,"is_reserved":false,"is_disabled":false,"rental_uris":{"android":"levelo://app?vid=f1ff4f78-6d1b-435f-8777-a24085f5b111","ios":"levelo://app?vid=f1ff4f78-6d1b-435f-8777-a24085f5b111"},"vehicle_type_id":"4","last_reported":1750979424,"current_range_meters":22000,"station_id":"ce4bhu92rcd13ifvqi70","pricing_plan_id":"cebpf4jnsgd1na2vs0mg"},