{"last_updated":1691276761,"ttl":30,"version":"2.2","data":{"bikes":[{"bike_id":"5c9d617d-982c-44be-a622-2b6ac4978f36","system_id":"levelo_inurba_marseille","lat":43.31492,"lon":5.37307,"is_reserved":false,"is_disabled":false,"rental_uris":{"android":"levelo://app?vid=5c9d617d-982c-44be-a622-2b6ac4978f36","ios":"levelo://app?vid=5c9d617d-982c-44be-a622-2b6ac4978f36"},"vehicle_type_id":"4","last_reported":1691276761,"current_range_meters":16800,"station_id":"ce4bgt12rcd13ifvqcd0","pricing_plan_id":"free"},{"bike_id":"fadb3db9-a274-40d3-bd4f-7271133456b8","system_id":"levelo_inurba_marseille","lat":43.30754,"lon":5.36805,"is_reserved":false,"is_disabled":false,"rental_uris":{"android":"levelo://app?vid=fadb3db9-a274-40d3-bd4f-7271133456b8","ios":"levelo://app?vid=fadb3db9-a274-40d3-bd4f-7271133456b8"},"vehicle_type_id":"4","last_reported":1691276761,"current_range_meters":25200,"station_id":"","pricing_plan_id":"free"},{"bike_id":"cefe6475-c382-474d-8f7c-903baaf2725e","system_id":"levelo_inurba_marseille","lat":43.309039,"lon":5.371797,"is_reserved":false,"is_disabled":false,"rental_uris":{"android":"levelo://app?vid=cefe6475-c382-474d-8f7c-903baaf2725e","ios":"levelo://app?vid=cefe6475-c382-474d-8f7c-903baaf2725e"},"vehicle_type_id":"4","last_reported":1691276761,"current_range_meters":0,"station_id":"ce4bguh2rcd13ifvqckg","pricing_plan_id":"free"},{"bike_id":"7cfb81a3-fd7f-41d1-987d-c1037b7c6b4a","system_id":"levelo_inurba_marseille","lat":43.31428,"lon":5.37429,"is_reserved":false,"is_disabled":false,"rental_uris":{"android":"levelo://app?vid=7cfb81a3-fd7f-41d1-987d-c1037b7c6b4a","ios":"levelo://app?vid=7cfb81a3-fd7f-41d1-987d-c1037b7c6b4a"},"vehicle_type_id":"4","last_reported":1691276761,"current_range_meters":10800,"station_id":"","pricing_plan_id":"free"},{"bike_id":"7cd2cfdc-c3d5-4161-8654-05e0945ffa2c","system_id":"levelo_inurba_marseille","lat":43.317075,"lon":5.377367,"is_reserved":false,"is_disabled":false,"rental_uris":{"android":"levelo://app?vid=7cd2cfdc-c3d5-4161-8654-05e0945ffa2c","ios":"levelo://app?vid=7cd2cfdc-c3d5-4161-8654-05e0945ffa2c"},"vehicle_type_id":"4","last_reported":1691276761,"current_range_meters":25200,"station_id":"ce4bgth2rcd13ifvqch0","pricing_plan_id":"free"},{"bike_id":"d1d33c09-2099-4b8f-8d65-9d145993d2ad","system_id":"levelo_inurba_marseille","lat":43.305989,"lon":5.37225,"is_reserved":false,"is_disabled":false,"rental_uris":{"android":"levelo://app?vid=d1d33c09-2099-4b8f-8d65-9d145993d2ad","ios":"levelo://app?vid=d1d33c09-2099-4b8f-8d65-9d145993d2ad"},"vehicle_type_id":"4","last_reported":1691276761,"current_range_meters":21600,"station_id":"ce4bgqh2rcd13ifvqc4g","pricing_plan_id":"free"},{"bike_id":"f96b54ac-dfd6-4c96-9dd1-99d3c97ef6f9","system_id":"levelo_inurba_marseille","lat":43.30595,"lon":5.37219,"is_reserved":false,"is_disabled":false,"rental_uris":{"android":"levelo://app?vid=f96b54ac-dfd6-4c96-9dd1-99d3c97ef6f9","ios":"levelo://app?vid=f96b54ac-dfd6-4c96-9dd1-99d3c97ef6f9"},"vehicle_type_id":"4","last_reported":1691276761,"current_range_meters":13600,"station_id":"","pricing_plan_id":"free"},{"bike_id":"aa5d6de3-6e1b-4ca5-ba33-400edf8e29e5","system_id":"levelo_inurba_marseille","lat":43.305989,"lon":5.37225,"is_reserved":false,"is_disabled":false,"rental_uris":{"android":"levelo://app?vid=aa5d6de3-6e1b-4ca5-ba33-400edf8e29e5","ios":"levelo://app?vid=aa5d6de3-6e1b-4ca5-ba33-400edf8e29e5"},"vehicle_type_id":"4","last_reported":1691276761,"current_range_meters":18400,"station_id":"ce4bgqh2rcd13ifvqc4g","pricing_plan_id":"free"},{"bike_id":"d3c73d49-52fd-49a7-89cc-d0719eb56767","system_id":"levelo_inurba_marseille","lat":43.305989,"lon":5.37225,"is_reserved":false,"is_disabled":false,"rental_uris":{"android":"levelo://app?vid=d3c73d49-52fd-49a7-89cc-d0719eb56767","ios":"levelo://app?vid=d3c73d49-52fd-49a7-89cc-d0719eb56767"},"vehicle_type_id":"4","last_reported":1691276761,"current_range_meters":8400,"station_id":"ce4bgqh2rcd13ifvqc4g","pricing_plan_id":"free"},{"bike_id":"f20ea888-8740-440b-bfeb-8eb2a7c1f652","system_id":"levelo_inurba_marseille","lat":43.305989,"lon":5.37225,"is_reserved":false,"is_disabled":false,"rental_uris":{"android":"levelo://app?vid=f20ea888-8740-440b-bfeb-8eb2a7c1f652","ios":"levelo://app?vid=f20ea888-8740-440b-bfeb-8eb2a7c1f652"},"vehicle_type_id":"4","last_reported":1691276761,"current_range_meters":31200,"station_id":"ce4bgqh2rcd13ifvqc4g","pricing_plan_id":"free"},{"bike_id":"694c99e6-2a15-40f1-b444-f9f956fde505","system_id":"levelo_inurba_marseille","lat":43.305989,"lon":5.37225,"is_reserved":false,"is_disabled":false,"rental_uris":{"android":"levelo://app?vid=694c99e6-2a15-40f1-b444-f9f956fde505","ios":"levelo://app?vid=694c99e6-2a15-40f1-b444-f9f956fde505"},"vehicle_type_id":"4","last_reported":1691276761,"current_range_meters":20400,"station_id":"ce4bgqh2rcd13ifvqc4g","pricing_plan_id":"free"},{"bike_id":"a826897b-3e98-4d6a-a0e2-61de49957f7d","system_id":"levelo_inurba_marseille","lat":43.305989,"lon":5.37225,"is_reserved":false,"is_disabled":false,"rental_uris":{"android":"levelo://app?vid=a826897b-3e98-4d6a-a0e2-61de49957f7d","ios":"levelo://app?vid=a826897b-3e98-4d6a-a0e2-61de49957f7d"},"vehicle_type_id":"4","last_reported":1691276761,"current_range_meters":9600,"station_id":"ce4bgqh2rcd13ifvqc4g","pricing_plan_id":"free"},{"bike_id":"a6f661df-6eab-41ca-91cb-a4a48e38e50e","system_id":"levelo_inurba_marseille","lat":43.305989,"lon":5.37225,"is_reserved":false,"is_disabled":false,"rental_uris":{"android":"levelo://app?vid=a6f661df-6eab-41ca-91cb-a4a48e38e50e","ios":"levelo://app?vid=a6f661df-6eab-41ca-91cb-a4a48e38e50e"},"vehicle_type_id":"4","last_reported":1691276761,"current_range_meters":24800,"station_id":"ce4bgqh2rcd13ifvqc4g","pricing_plan_id":"free"},{"bike_id":"e9eb0069-1671-4a91-b949-164ecccff20b","system_id":"levelo_inurba_marseille","lat":43.305989,"lon":5.37225,"is_reserved":false,"is_disabled":false,"rental_uris":{"android":"levelo://app?vid=e9eb0069-1671-4a91-b949-164ecccff20b","ios":"levelo://app?vid=e9eb0069-1671-4a91-b949-164ecccff20b"},"vehicle_type_id":"4","last_reported":1691276761,"current_range_meters":16400,"station_id":"ce4bgqh2rcd13ifvqc4g","pricing_plan_id":"free"},{"bike_id":"506d8c2a-2e5e-4034-a941-dabf0269718a","system_id":"levelo_inurba_marseille","lat":43.311125,"lon":5.377624,"is_reserved":false,"is_disabled":false,"rental_uris":{"android":"levelo://app?vid=506d8c2a-2e5e-4034-a941-dabf0269718a","ios":"levelo://app?vid=506d8c2a-2e5e-4034-a941-dabf0269718a"},"vehicle_type_id":"4","last_reported":1691276761,"current_range_meters":11200,"station_id":"ce4bgt92rcd13ifvqcg0","pricing_plan_id":"free"},{"bike_id":"591aa1cb-7a78-44db-9ad6-c69a54afd6f9","system_id":"levelo_inurba_marseille","lat":43.311125,"lon":5.377624,"is_reserved":false,"is_disabled":false,"rental_uris":{"android":"levelo://app?vid=591aa1cb-7a78-44db-9ad6-c69a54afd6f9","ios":"levelo://app?vid=591aa1cb-7a78-44db-9ad6-c69a54afd6f9"},"vehicle_type_id":"4","last_reported":1691276761,"current_range_meters":8400,"station_id":"ce4bgt92rcd13ifvqcg0","pricing_plan_id":"free"},{"bike_id":"93626d4a-6b1a-4865-b45b-df4bfbf1621f","system_id":"levelo_inurba_marseille","lat":43.311125,"lon":5.377624,"is_reserved":false,"is_disabled":false,"rental_uris":{"android":"levelo://app?vid=93626d4a-6b1a-4865-b45b-df4bfbf1621f","ios":"levelo://app?vid=93626d4a-6b1a-4865-b45b-df4bfbf1621f"},"vehicle_type_id":"4","last_reported":1691276761,"current_range_meters":14000,"station_id":"ce4bgt92rcd13ifvqcg0","pricing_plan_id":"free"},{"bike_id":"3d6b73d8-82fa-48c4-82d1-e1a12b623ea5","system_id":"levelo_inurba_marseille","lat":43.3111,"lon":5.37777,"is_reserved":false,"is_disabled":false,"rental_uris":{"android":"levelo://app?vid=3d6b73d8-82fa-48c4-82d1-e1a12b623ea5","ios":"levelo://app?vid=3d6b73d8-82fa-48c4-82d1-e1a12b623ea5"},"vehicle_type_id":"4","last_reported":1691276761,"current_range_meters":15200,"station_id":"ce4bgt92rcd13ifvqcg0","pricing_plan_id":"free"},{"bike_id":"ed961738-a13e-4b6c-94bc-c60a892d9925","system_id":"levelo_inurba_marseille","lat":43.311125,"lon":5.377624,"is_reserved":false,"is_disabled":false,"rental_uris":{"android":"levelo://app?vid=ed961738-a13e-4b6c-94bc-c60a892d9925","ios":"levelo://app?vid=ed961738-a13e-4b6c-94bc-c60a892d9925"},"vehicle_type_id":"4","last_reported":1691276761,"current_range_meters":2800,"station_id":"ce4bgt92rcd13ifvqcg0","pricing_plan_id":"free"},{"bike_id":"65cd0448-34e9-41af-a372-0b3626f08dfb","system_id":"levelo_inurba_marseille","lat":43.307945,"lon":5.376487,"is_reserved":false,"is_disabled":false,"rental_uris":{"android":"levelo://app?vid=65cd0448-34e9-41af-a372-0b3626f08dfb","ios":"levelo://app?vid=65cd0448-34e9-41af-a372-0b3626f08dfb"},"vehicle_type_id":"4","last_reported":1691276761,"current_range_meters":29600,"station_id":"ce4bgv92rcd13ifvqcq0","pricing_plan_id":"free"},{"bike_id":"1ce43a96-66fe-45fb-9865-a4c13827cd1a","system_id":"levelo_inurba_marseille","lat":43.30795,"lon":5.37639,"is_reserved":false,"is_disabled":false,"rental_uris":{"android":"levelo://app?vid=1ce43a96-66fe-45fb-9865-a4c13827cd1a","ios":"levelo://app?vid=1ce43a96-66fe-45fb-9865-a4c13827cd1a"},"vehicle_type_id":"4","last_reported":1691276761,"current_range_meters":5600,"station_id":"ce4bgv92rcd13ifvqcq0","pricing_plan_id":"free"},{"bike_id":"27ff5d3a-47ea-4a6b-9da8-9e5ebe3ae4c3","system_id":"levelo_inurba_marseille","lat":43.317075,"lon":5.377367,"is_reserved":false,"is_disabled":false,"rental_uris":{"android":"levelo://app?vid=27ff5d3a-47ea-4a6b-9da8-9e5ebe3ae4c3","ios":"levelo://app?vid=27ff5d3a-47ea-4a6b-9da8-9e5ebe3ae4c3"},"vehicle_type_id":"4","last_reported":1691276761,"current_range_meters":22400,"station_id":"ce4bgth2rcd13ifvqch0","pricing_plan_id":"free"},{"bike_id":"d65f31fd-588e-4e32-b675-72af623a8dac","system_id":"levelo_inurba_marseille","lat":43.31712,"lon":5.37756,"is_reserved":false,"is_disabled":false,"rental_uris":{"android":"levelo://app?vid=d65f31fd-588e-4e32-b675-72af623a8dac","ios":"levelo://app?vid=d65f31fd-588e-4e32-b675-72af623a8dac"},"vehicle_type_id":"4","last_reported":1691276761,"current_range_meters":4000,"station_id":"ce4bgth2rcd13ifvqch0","pricing_plan_id":"free"},{"bike_id":"928f2754-927d-4108-b6f4-26a2c4126f8e","system_id":"levelo_inurba_marseille","lat":43.303046,"lon":5.368981,"is_reserved":false,"is_disabled":false,"rental_uris":{"android":"levelo://app?vid=928f2754-927d-4108-b6f4-26a2c4126f8e","ios":"levelo://app?vid=928f2754-927d-4108-b6f4-26a2c4126f8e"},"vehicle_type_id":"4","last_reported":1691276761,"current_range_meters":30400,"station_id":"ce4bgqh2rcd13ifvqc5g","pricing_plan_id":"free"},{"bike_id":"2dcfb817-b7bf-40b0-9209-2d61b46940cb","system_id":"levelo_inurba_marseille","lat":43.31528,"lon":5.38029,"is_reserved":false,"is_disabled":false,"rental_uris":{"android":"levelo://app?vid=2dcfb817-b7bf-40b0-9209-2d61b46940cb","ios":"levelo://app?vid=2dcfb817-b7bf-40b0-9209-2d61b46940cb"},"vehicle_type_id":"4","last_reported":1691276761,"current_range_meters":20400,"station_id":"ce4bhsp2rcd13ifvqi50","pricing_plan_id":"free"},{"bike_id":"8c19fac9-0322-484f-8e7d-9982d5b54555","system_id":"levelo_inurba_marseille","lat":43.315289,"lon":5.380349,"is_reserved":false,"is_disabled":false,"rental_uris":{"android":"levelo://app?vid=8c19fac9-0322-484f-8e7d-9982d5b54555","ios":"levelo://app?vid=8c19fac9-0322-484f-8e7d-9982d5b54555"},"vehicle_type_id":"4","last_reported":1691276761,"current_range_meters":4400,"station_id":"ce4bhsp2rcd13ifvqi50","pricing_plan_id":"free"},{"bike_id":"2d62ee3e-da9d-42a5-8fbc-e2e45cffdaab","system_id":"levelo_inurba_marseille","lat":43.304606,"lon":5.379026,"is_reserved":false,"is_disabled":false,"rental_uris":{"android":"levelo://app?vid=2d62ee3e-da9d-42a5-8fbc-e2e45cffdaab","ios":"levelo://app?vid=2d62ee3e-da9d-42a5-8fbc-e2e45cffdaab"},"vehicle_type_id":"4","last_reported":1691276761,"current_range_meters":6000,"station_id":"ce4bgup2rcd13ifvqcn0","pricing_plan_id":"free"},{"bike_id":"13dd8517-9186-480b-8403-18b3b56b785e","system_id":"levelo_inurba_marseille","lat":43.304606,"lon":5.379026,"is_reserved":false,"is_disabled":false,"rental_uris":{"android":"levelo://app?vid=13dd8517-9186-480b-8403-18b3b56b785e","ios":"levelo://app?vid=13dd8517-9186-480b-8403-18b3b56b785e"},"vehicle_type_id":"4","last_reported":1691276761,"current_range_meters":0,"station_id":"ce4bgup2rcd13ifvqcn0","pricing_plan_id":"free"},{"bike_id":"6d0973e3-498e-4edc-a020-b9705ed6523d","system_id":"levelo_inurba_marseille","lat":43.302784,"lon":5.377158,"is_reserved":false,"is_disabled":false,"rental_uris":{"android":"levelo://app?vid=6d0973e3-498e-4edc-a020-b9705ed6523d","ios":"levelo://app?vid=6d0973e3-498e-4edc-a020-b9705ed6523d"},"vehicle_type_id":"4","last_reported":1691276761,"current_range_meters":18000,"station_id":"ce4bguh2rcd13ifvqcj0","pricing_plan_id":"free"},{"bike_id":"df4d9cb4-aaea-465f-bf05-6d654326ea11","system_id":"levelo_inurba_marseille","lat":43.319935,"lon":5.381699,"is_reserved":false,"is_disabled":false,"rental_uris":{"android":"levelo://app?vid=df4d9cb4-aaea-465f-bf05-6d654326ea11","ios":"levelo://app?vid=df4d9cb4-aaea-465f-bf05-6d654326ea11"},"vehicle_type_id":"4","last_reported":1691276761,"current_range_meters":7200,"station_id":"ce4bhr12rcd13ifvqhpg","pricing_plan_id":"free"},{"bike_id":"c0283abc-775b-4d62-b0de-3d1c1cfb78f7","system_id":"levelo_inurba_marseille","lat":43.319935,"lon":5.381699,"is_reserved":false,"is_disabled":false,"rental_uris":{"android":"levelo://app?vid=c0283abc-775b-4d62-b0de-3d1c1cfb78f7","ios":"levelo://app?vid=c0283abc-775b-4d62-b0de-3d1c1cfb78f7"},"vehicle_type_id":"4","last_reported":1691276761,"current_range_meters":400,"station_id":"ce4bhr12rcd13ifvqhpg","pricing_plan_id":"free"},{"bike_id":"cb31e567-1f56-4c43-a0bd-9189e49b78a1","system_id":"levelo_inurba_marseille","lat":43.31998,"lon":5.38151,"is_reserved":false,"is_disabled":false,"rental_uris":{"android":"levelo://app?vid=cb31e567-1f56-4c43-a0bd-9189e49b78a1","ios":"levelo://app?vid=cb31e567-1f56-4c43-a0bd-9189e49b78a1"},"vehicle_type_id":"4","last_reported":1691276761,"current_range_meters":14800,"station_id":"ce4bhr12rcd13ifvqhpg","pricing_plan_id":"free"},{"bike_id":"91c1e68c-072c-41ed-ab7d-e40ec14976ba","system_id":"levelo_inurba_marseille","lat":43.31991,"lon":5.38165,"is_reserved":false,"is_disabled":false,"rental_uris":{"android":"levelo://app?vid=91c1e68c-072c-41ed-ab7d-e40ec14976ba","ios":"levelo://app?vid=91c1e68c-072c-41ed-ab7d-e40ec14976ba"},"vehicle_type_id":"4","last_reported":1691276761,"current_range_meters":2000,"station_id":"ce4bhr12rcd13ifvqhpg","pricing_plan_id":"free"},{"bike_id":"3eb01849-aafd-44a9-be05-e4facfacfbe0","system_id":"levelo_inurba_marseille","lat":43.313571,"lon":5.384829,"is_reserved":false,"is_disabled":false,"rental_uris":{"android":"levelo://app?vid=3eb01849-aafd-44a9-be05-e4facfacfbe0","ios":"levelo://app?vid=3eb01849-aafd-44a9-be05-e4facfacfbe0"},"vehicle_type_id":"4","last_reported":1691276761,"current_range_meters":26800,"station_id":"ce4bgt92rcd13ifvqcf0","pricing_plan_id":"free"},{"bike_id":"8e111114-836d-470b-bc07-d3b7b96ac4a1","system_id":"levelo_inurba_marseille","lat":43.31357,"lon":5.38493,"is_reserved":false,"is_disabled":false,"rental_uris":{"android":"levelo://app?vid=8e111114-836d-470b-bc07-d3b7b96ac4a1","ios":"levelo://app?vid=8e111114-836d-470b-bc07-d3b7b96ac4a1"},"vehicle_type_id":"4","last_reported":1691276761,"current_range_meters":28000,"station_id":"","pricing_plan_id":"free"},{"bike_id":"9b40a275-b756-410b-abad-a12336f113c3","system_id":"levelo_inurba_marseille","lat":43.313571,"lon":5.384829,"is_reserved":false,"is_disabled":false,"rental_uris":{"android":"levelo://app?vid=9b40a275-b756-410b-abad-a12336f113c3","ios":"levelo://app?vid=9b40a275-b756-410b-abad-a12336f113c3"},"vehicle_type_id":"4","last_reported":1691276761,"current_range_meters":23600,"station_id":"ce4bgt92rcd13ifvqcf0","pricing_plan_id":"free"},{"bike_id":"02342254-36b5-439d-9568-ac7a1ef70a50","system_id":"levelo_inurba_marseille","lat":43.313571,"lon":5.384829,"is_reserved":false,"is_disabled":false,"rental_uris":{"android":"levelo://app?vid=02342254-36b5-439d-9568-ac7a1ef70a50","ios":"levelo://app?vid=02342254-36b5-439d-9568-ac7a1ef70a50"},"vehicle_type_id":"4","last_reported":1691276761,"current_range_meters":8800,"station_id":"ce4bgt92rcd13ifvqcf0","pricing_plan_id":"free"},{"bike_id":"314de0ae-89e2-496b-a0ff-f87ff29c7d22","system_id":"levelo_inurba_marseille","lat":43.313571,"lon":5.384829,"is_reserved":false,"is_disabled":false,"rental_uris":{"android":"levelo://app?vid=314de0ae-89e2-496b-a0ff-f87ff29c7d22","ios":"levelo://app?vid=314de0ae-89e2-496b-a0ff-f87ff29c7d22"},"vehicle_type_id":"4","last_reported":1691276761,"current_range_meters":23600,"station_id":"ce4bgt92rcd13ifvqcf0","pricing_plan_id":"free"},{"bike_id":"83759acb-245b-427d-8f1f-6db30f7a8148","system_id":"levelo_inurba_marseille","lat":43.313571,"lon":5.384829,"is_reserved":false,"is_disabled":false,"rental_uris":{"android":"levelo://app?vid=83759acb-245b-427d-8f1f-6db30f7a8148","ios":"levelo://app?vid=83759acb-245b-427d-8f1f-6db30f7a8148"},"vehicle_type_id":"4","last_reported":1691276761,"current_range_meters":29200,"station_id":"ce4bgt92rcd13ifvqcf0","pricing_plan_id":"free"},{"bike_id":"9fc1f9aa-cd4c-4d6d-9725-d00fdd98b993","system_id":"levelo_inurba_marseille","lat":43.313571,"lon":5.384829,"is_reserved":false,"is_disabled":false,"rental_uris":{"android":"levelo://app?vid=9fc1f9aa-cd4c-4d6d-9725-d00fdd98b993","ios":"levelo://app?vid=9fc1f9aa-cd4c-4d6d-9725-d00fdd98b993"},"vehicle_type_id":"4","last_reported":1691276761,"current_range_meters":30400,"station_id":"ce4bgt92rcd13ifvqcf0","pricing_plan_id":"free"},{"bike_id":"abeba45f-7c8d-440c-9db4-6c43e9c73375","system_id":"levelo_inurba_marseille","lat":43.313571,"lon":5.384829,"is_reserved":false,"is_disabled":false,"rental_uris":{"android":"levelo://app?vid=abeba45f-7c8d-440c-9db4-6c43e9c73375","ios":"levelo://app?vid=abeba45f-7c8d-440c-9db4-6c43e9c73375"},"vehicle_type_id":"4","last_reported":1691276761,"current_range_meters":16400,"station_id":"ce4bgt92rcd13ifvqcf0","pricing_plan_id":"free"},{"bike_id":"76e9dba2-8410-44a1-a050-0c2a160a88b6","system_id":"levelo_inurba_marseille","lat":43.313571,"lon":5.384829,"is_reserved":false,"is_disabled":false,"rental_uris":{"android":"levelo://app?vid=76e9dba2-8410-44a1-a050-0c2a160a88b6","ios":"levelo://app?vid=76e9dba2-8410-44a1-a050-0c2a160a88b6"},"vehicle_type_id":"4","last_reported":1691276761,"current_range_meters":29600,"station_id":"ce4bgt92rcd13ifvqcf0","pricing_plan_id":"free"},{"bike_id":"3e76ada0-5d72-4dd4-a406-81875221f849","system_id":"levelo_inurba_marseille","lat":43.31368,"lon":5.38498,"is_reserved":false,"is_disabled":false,"rental_uris":{"android":"levelo://app?vid=3e76ada0-5d72-4dd4-a406-81875221f849","ios":"levelo://app?vid=3e76ada0-5d72-4dd4-a406-81875221f849"},"vehicle_type_id":"4","last_reported":1691276761,"current_range_meters":7600,"station_id":"ce4bgt92rcd13ifvqcf0","pricing_plan_id":"free"},{"bike_id":"0298831f-6135-4cf3-9b49-8a7680a313dc","system_id":"levelo_inurba_marseille","lat":43.313571,"lon":5.384829,"is_reserved":false,"is_disabled":false,"rental_uris":{"android":"levelo://app?vid=0298831f-6135-4cf3-9b49-8a7680a313dc","ios":"levelo://app?vid=0298831f-6135-4cf3-9b49-8a7680a313dc"},"vehicle_type_id":"4","last_reported":1691276761,"current_range_meters":31200,"station_id":"ce4bgt92rcd13ifvqcf0","pricing_plan_id":"free"},{"bike_id":"f7528f18-5b76-4a4e-93cd-148f0cdbb041","system_id":"levelo_inurba_marseille","lat":43.313571,"lon":5.384829,"is_reserved":false,"is_disabled":false,"rental_uris":{"android":"levelo://app?vid=f7528f18-5b76-4a4e-93cd-148f0cdbb041","ios":"levelo://app?vid=f7528f18-5b76-4a4e-93cd-148f0cdbb041"},"vehicle_type_id":"4","last_reported":1691276761,"current_range_meters":28400,"station_id":"ce4bgt92rcd13ifvqcf0","pricing_plan_id":"free"},{"bike_id":"387973be-e422-4866-b969-2adac5bcb646","system_id":"levelo_inurba_marseille","lat":43.313571,"lon":5.384829,"is_reserved":false,"is_disabled":false,"rental_uris":{"android":"levelo://app?vid=387973be-e422-4866-b969-2adac5bcb646","ios":"levelo://app?vid=387973be-e422-4866-b969-2adac5bcb646"},"vehicle_type_id":"4","last_reported":1691276761,"current_range_meters":23200,"station_id":"ce4bgt92rcd13ifvqcf0","pricing_plan_id":"free"},{"bike_id":"eda9c8c8-747d-40a0-9a04-a52c97381244","system_id":"levelo_inurba_marseille","lat":43.313571,"lon":5.384829,"is_reserved":false,"is_disabled":false,"rental_uris":{"android":"levelo://app?vid=eda9c8c8-747d-40a0-9a04-a52c97381244","ios":"levelo://app?vid=eda9c8c8-747d-40a0-9a04-a52c97381244"},"vehicle_type_id":"4","last_reported":1691276761,"current_range_meters":5600,"station_id":"ce4bgt92rcd13ifvqcf0","pricing_plan_id":"free"},{"bike_id":"68f5ce44-4b02-49a1-ba1f-2821234a34c8","system_id":"levelo_inurba_marseille","lat":43.299885,"lon":5.371723,"is_reserved":false,"is_disabled":false,"rental_uris":{"android":"levelo://app?vid=68f5ce44-4b02-49a1-ba1f-2821234a34c8","ios":"levelo://app?vid=68f5ce44-4b02-49a1-ba1f-2821234a34c8"},"vehicle_type_id":"4","last_reported":1691276761,"current_range_meters":24400,"station_id":"","pricing_plan_id":"free"},{"bike_id":"3cb7fd70-121e-4eb5-9a01-ecc8718aa1bb","system_id":"levelo_inurba_marseille","lat":43.29929,"lon":5.36571,"is_reserved":false,"is_disabled":false,"rental_uris":{"android":"levelo://app?vid=3cb7fd70-121e-4eb5-9a01-ecc8718aa1bb","ios":"levelo://app?vid=3cb7fd70-121e-4eb5-9a01-ecc8718aa1bb"},"vehicle_type_id":"4","last_reported":1691276761,"current_range_meters":21200,"station_id":"ce4bgm92rcd13ifvqbr0","pricing_plan_id":"free"},{"bike_id":"d848742c-be88-4dc0-8d3c-8cf33dc45a1d","system_id":"levelo_inurba_marseille","lat":43.298433,"lon":5.362774,"is_reserved":false,"is_disabled":false,"rental_uris":{"android":"levelo://app?vid=d848742c-be88-4dc0-8d3c-8cf33dc45a1d","ios":"levelo://app?vid=d848742c-be88-4dc0-8d3c-8cf33dc45a1d"},"vehicle_type_id":"4","last_reported":1691276761,"current_range_meters":5200,"station_id":"ce4bgpp2rcd13ifvqc3g","pricing_plan_id":"free"},{"bike_id":"480801d0-9d8d-4c31-9deb-287754a5a112","system_id":"levelo_inurba_marseille","lat":43.305364,"lon":5.384119,"is_reserved":false,"is_disabled":false,"rental_uris":{"android":"levelo://app?vid=480801d0-9d8d-4c31-9deb-287754a5a112","ios":"levelo://app?vid=480801d0-9d8d-4c31-9deb-287754a5a112"},"vehicle_type_id":"4","last_reported":1691276761,"current_range_meters":4000,"station_id":"ce4bgg92rcd13ifvqb30","pricing_plan_id":"free"},{"bike_id":"5bb022c6-5b33-4ba5-ba29-958219ab4519","system_id":"levelo_inurba_marseille","lat":43.311722,"lon":5.387247,"is_reserved":false,"is_disabled":false,"rental_uris":{"android":"levelo://app?vid=5bb022c6-5b33-4ba5-ba29-958219ab4519","ios":"levelo://app?vid=5bb022c6-5b33-4ba5-ba29-958219ab4519"},"vehicle_type_id":"4","last_reported":1691276761,"current_range_meters":20400,"station_id":"ce4bgv12rcd13ifvqcp0","pricing_plan_id":"free"},{"bike_id":"30537d43-af02-4a10-b928-7b9b8cf633d2","system_id":"levelo_inurba_marseille","lat":43.30532,"lon":5.38433,"is_reserved":false,"is_disabled":false,"rental_uris":{"android":"levelo://app?vid=30537d43-af02-4a10-b928-7b9b8cf633d2","ios":"levelo://app?vid=30537d43-af02-4a10-b928-7b9b8cf633d2"},"vehicle_type_id":"4","last_reported":1691276761,"current_range_meters":30800,"station_id":"ce4bgg92rcd13ifvqb30","pricing_plan_id":"free"},{"bike_id":"e6c0dee2-8d03-44fe-84dd-bcefd8c55cbe","system_id":"levelo_inurba_marseille","lat":43.31165,"lon":5.38717,"is_reserved":false,"is_disabled":false,"rental_uris":{"android":"levelo://app?vid=e6c0dee2-8d03-44fe-84dd-bcefd8c55cbe","ios":"levelo://app?vid=e6c0dee2-8d03-44fe-84dd-bcefd8c55cbe"},"vehicle_type_id":"4","last_reported":1691276761,"current_range_meters":6800,"station_id":"ce4bgv12rcd13ifvqcp0","pricing_plan_id":"free"},{"bike_id":"d5f9ea08-33c6-4c0a-99ea-49038d2cc6be","system_id":"levelo_inurba_marseille","lat":43.311722,"lon":5.387247,"is_reserved":false,"is_disabled":false,"rental_uris":{"android":"levelo://app?vid=d5f9ea08-33c6-4c0a-99ea-49038d2cc6be","ios":"levelo://app?vid=d5f9ea08-33c6-4c0a-99ea-49038d2cc6be"},"vehicle_type_id":"4","last_reported":1691276761,"current_range_meters":30800,"station_id":"ce4bgv12rcd13ifvqcp0","pricing_plan_id":"free"},{"bike_id":"3eb96d9e-77e8-4223-88c3-5d7450b31671","system_id":"levelo_inurba_marseille","lat":43.311722,"lon":5.387247,"is_reserved":false,"is_disabled":false,"rental_uris":{"android":"levelo://app?vid=3eb96d9e-77e8-4223-88c3-5d7450b31671","ios":"levelo://app?vid=3eb96d9e-77e8-4223-88c3-5d7450b31671"},"vehicle_type_id":"4","last_reported":1691276761,"current_range_meters":31600,"station_id":"ce4bgv12rcd13ifvqcp0","pricing_plan_id":"free"},{"bike_id":"36b6d3aa-15f7-4e81-82df-c46a36562bac","system_id":"levelo_inurba_marseille","lat":43.299243,"lon":5.374807,"is_reserved":false,"is_disabled":false,"rental_uris":{"android":"levelo://app?vid=36b6d3aa-15f7-4e81-82df-c46a36562bac","ios":"levelo://app?vid=36b6d3aa-15f7-4e81-82df-c46a36562bac"},"vehicle_type_id":"4","last_reported":1691276761,"current_range_meters":1600,"station_id":"ce4bgjh2rcd13ifvqbg0","pricing_plan_id":"free"},{"bike_id":"1639a184-f31c-43fd-b0c9-65e1fa9f0add","system_id":"levelo_inurba_marseille","lat":43.311722,"lon":5.387247,"is_reserved":false,"is_disabled":false,"rental_uris":{"android":"levelo://app?vid=1639a184-f31c-43fd-b0c9-65e1fa9f0add","ios":"levelo://app?vid=1639a184-f31c-43fd-b0c9-65e1fa9f0add"},"vehicle_type_id":"4","last_reported":1691276761,"current_range_meters":17600,"station_id":"ce4bgv12rcd13ifvqcp0","pricing_plan_id":"free"},{"bike_id":"84314a39-b5e3-4891-ab6e-5f2e11ac075f","system_id":"levelo_inurba_marseille","lat":43.311722,"lon":5.387247,"is_reserved":false,"is_disabled":false,"rental_uris":{"android":"levelo://app?vid=84314a39-b5e3-4891-ab6e-5f2e11ac075f","ios":"levelo://app?vid=84314a39-b5e3-4891-ab6e-5f2e11ac075f"},"vehicle_type_id":"4","last_reported":1691276761,"current_range_meters":17600,"station_id":"ce4bgv12rcd13ifvqcp0","pricing_plan_id":"free"},{"bike_id":"15ceaea5-176b-4eca-9c06-9419ea87bb7b","system_id":"levelo_inurba_marseille","lat":43.311722,"lon":5.387247,"is_reserved":false,"is_disabled":false,"rental_uris":{"android":"levelo://app?vid=15ceaea5-176b-4eca-9c06-9419ea87bb7b","ios":"levelo://app?vid=15ceaea5-176b-4eca-9c06-9419ea87bb7b"},"vehicle_type_id":"4","last_reported":1691276761,"current_range_meters":29600,"station_id":"ce4bgv12rcd13ifvqcp0","pricing_plan_id":"free"},{"bike_id":"d53c697e-69d8-4d6c-8ff1-f280fe280863","system_id":"levelo_inurba_marseille","lat":43.311722,"lon":5.387247,"is_reserved":false,"is_disabled":false,"rental_uris":{"android":"levelo://app?vid=d53c697e-69d8-4d6c-8ff1-f280fe280863","ios":"levelo://app?vid=d53c697e-69d8-4d6c-8ff1-f280fe280863"},"vehicle_type_id":"4","last_reported":1691276761,"current_range_meters":30400,"station_id":"ce4bgv12rcd13ifvqcp0","pricing_plan_id":"free"},{"bike_id":"54af0d74-1de2-450f-8445-78b5259f2d29","system_id":"levelo_inurba_marseille","lat":43.309589,"lon":5.390258,"is_reserved":false,"is_disabled":false,"rental_uris":{"android":"levelo://app?vid=54af0d74-1de2-450f-8445-78b5259f2d29","ios":"levelo://app?vid=54af0d74-1de2-450f-8445-78b5259f2d29"},"vehicle_type_id":"4","last_reported":1691276761,"current_range_meters":26000,"station_id":"ce4bgup2rcd13ifvqco0","pricing_plan_id":"free"},{"bike_id":"3235488a-5abe-4f27-a56a-50e7b9989127","system_id":"levelo_inurba_marseille","lat":43.32283,"lon":5.38277,"is_reserved":false,"is_disabled":false,"rental_uris":{"android":"levelo://app?vid=3235488a-5abe-4f27-a56a-50e7b9989127","ios":"levelo://app?vid=3235488a-5abe-4f27-a56a-50e7b9989127"},"vehicle_type_id":"4","last_reported":1691276761,"current_range_meters":29600,"station_id":"ce4bhr12rcd13ifvqhqg","pricing_plan_id":"free"},{"bike_id":"278aec95-cb1b-40c2-a896-dd31d3be48c2","system_id":"levelo_inurba_marseille","lat":43.297774,"lon":5.370875,"is_reserved":false,"is_disabled":false,"rental_uris":{"android":"levelo://app?vid=278aec95-cb1b-40c2-a896-dd31d3be48c2","ios":"levelo://app?vid=278aec95-cb1b-40c2-a896-dd31d3be48c2"},"vehicle_type_id":"4","last_reported":1691276761,"current_range_meters":21200,"station_id":"ce4bgop2rcd13ifvqc1g","pricing_plan_id":"free"},{"bike_id":"b817d5ed-7bfc-4b4f-ab91-d197cc36525d","system_id":"levelo_inurba_marseille","lat":43.32819,"lon":5.36683,"is_reserved":false,"is_disabled":false,"rental_uris":{"android":"levelo://app?vid=b817d5ed-7bfc-4b4f-ab91-d197cc36525d","ios":"levelo://app?vid=b817d5ed-7bfc-4b4f-ab91-d197cc36525d"},"vehicle_type_id":"4","last_reported":1691276761,"current_range_meters":26800,"station_id":"ce4bhs92rcd13ifvqi0g","pricing_plan_id":"free"},{"bike_id":"74a86e2c-954b-4d57-a26c-57d53973ee2c","system_id":"levelo_inurba_marseille","lat":43.32821,"lon":5.36684,"is_reserved":false,"is_disabled":false,"rental_uris":{"android":"levelo://app?vid=74a86e2c-954b-4d57-a26c-57d53973ee2c","ios":"levelo://app?vid=74a86e2c-954b-4d57-a26c-57d53973ee2c"},"vehicle_type_id":"4","last_reported":1691276761,"current_range_meters":19200,"station_id":"ce4bhs92rcd13ifvqi0g","pricing_plan_id":"free"},{"bike_id":"1978f8e7-0ba9-4d32-8a0a-3849b4985817","system_id":"levelo_inurba_marseille","lat":43.32822,"lon":5.36685,"is_reserved":false,"is_disabled":false,"rental_uris":{"android":"levelo://app?vid=1978f8e7-0ba9-4d32-8a0a-3849b4985817","ios":"levelo://app?vid=1978f8e7-0ba9-4d32-8a0a-3849b4985817"},"vehicle_type_id":"4","last_reported":1691276761,"current_range_meters":7200,"station_id":"ce4bhs92rcd13ifvqi0g","pricing_plan_id":"free"},{"bike_id":"8ae2a292-4b68-4114-8267-e4d284ceb76e","system_id":"levelo_inurba_marseille","lat":43.32825,"lon":5.36676,"is_reserved":false,"is_disabled":false,"rental_uris":{"android":"levelo://app?vid=8ae2a292-4b68-4114-8267-e4d284ceb76e","ios":"levelo://app?vid=8ae2a292-4b68-4114-8267-e4d284ceb76e"},"vehicle_type_id":"4","last_reported":1691276761,"current_range_meters":21600,"station_id":"ce4bhs92rcd13ifvqi0g","pricing_plan_id":"free"},{"bike_id":"f3a2ce3e-e2ec-4940-9eb3-9ecf5bedfd7e","system_id":"levelo_inurba_marseille","lat":43.32826,"lon":5.36695,"is_reserved":false,"is_disabled":false,"rental_uris":{"android":"levelo://app?vid=f3a2ce3e-e2ec-4940-9eb3-9ecf5bedfd7e","ios":"levelo://app?vid=f3a2ce3e-e2ec-4940-9eb3-9ecf5bedfd7e"},"vehicle_type_id":"4","last_reported":1691276761,"current_range_meters":16000,"station_id":"ce4bhs92rcd13ifvqi0g","pricing_plan_id":"free"},{"bike_id":"5a1615d2-24e1-4219-b84b-ec593666fc81","system_id":"levelo_inurba_marseille","lat":43.328371,"lon":5.366909,"is_reserved":false,"is_disabled":false,"rental_uris":{"android":"levelo://app?vid=5a1615d2-24e1-4219-b84b-ec593666fc81","ios":"levelo://app?vid=5a1615d2-24e1-4219-b84b-ec593666fc81"},"vehicle_type_id":"4","last_reported":1691276761,"current_range_meters":18000,"station_id":"ce4bhs92rcd13ifvqi0g","pricing_plan_id":"free"},{"bike_id":"6f02e09a-b26c-49fa-bf68-b76cd9d4ceff","system_id":"levelo_inurba_marseille","lat":43.328371,"lon":5.366909,"is_reserved":false,"is_disabled":false,"rental_uris":{"android":"levelo://app?vid=6f02e09a-b26c-49fa-bf68-b76cd9d4ceff","ios":"levelo://app?vid=6f02e09a-b26c-49fa-bf68-b76cd9d4ceff"},"vehicle_type_id":"4","last_reported":1691276761,"current_range_meters":4800,"station_id":"ce4bhs92rcd13ifvqi0g","pricing_plan_id":"free"},{"bike_id":"925d80fe-dd88-4a52-a938-71d3f7293e55","system_id":"levelo_inurba_marseille","lat":43.32834,"lon":5.36679,"is_reserved":false,"is_disabled":false,"rental_uris":{"android":"levelo://app?vid=925d80fe-dd88-4a52-a938-71d3f7293e55","ios":"levelo://app?vid=925d80fe-dd88-4a52-a938-71d3f7293e55"},"vehicle_type_id":"4","last_reported":1691276761,"current_range_meters":12800,"station_id":"ce4bhs92rcd13ifvqi0g","pricing_plan_id":"free"},{"bike_id":"dd789220-e7b5-42c1-b9dc-dc4243148021","system_id":"levelo_inurba_marseille","lat":43.297163,"lon":5.365866,"is_reserved":false,"is_disabled":false,"rental_uris":{"android":"levelo://app?vid=dd789220-e7b5-42c1-b9dc-dc4243148021","ios":"levelo://app?vid=dd789220-e7b5-42c1-b9dc-dc4243148021"},"vehicle_type_id":"4","last_reported":1691276761,"current_range_meters":31200,"station_id":"ce4bgn12rcd13ifvqbt0","pricing_plan_id":"free"},{"bike_id":"4eb5c08d-9a70-4c6c-a0e8-3b6a0d1e083e","system_id":"levelo_inurba_marseille","lat":43.32735,"lon":5.37736,"is_reserved":false,"is_disabled":false,"rental_uris":{"android":"levelo://app?vid=4eb5c08d-9a70-4c6c-a0e8-3b6a0d1e083e","ios":"levelo://app?vid=4eb5c08d-9a70-4c6c-a0e8-3b6a0d1e083e"},"vehicle_type_id":"4","last_reported":1691276761,"current_range_meters":13200,"station_id":"","pricing_plan_id":"free"},{"bike_id":"7b7eb336-40dc-4548-96a2-75654424b6e7","system_id":"levelo_inurba_marseille","lat":43.309589,"lon":5.390258,"is_reserved":false,"is_disabled":false,"rental_uris":{"android":"levelo://app?vid=7b7eb336-40dc-4548-96a2-75654424b6e7","ios":"levelo://app?vid=7b7eb336-40dc-4548-96a2-75654424b6e7"},"vehicle_type_id":"4","last_reported":1691276761,"current_range_meters":27600,"station_id":"ce4bgup2rcd13ifvqco0","pricing_plan_id":"free"},{"bike_id":"36d140a3-7557-4b5f-886c-dfa66ffb0c28","system_id":"levelo_inurba_marseille","lat":43.296935,"lon":5.376544,"is_reserved":false,"is_disabled":false,"rental_uris":{"android":"levelo://app?vid=36d140a3-7557-4b5f-886c-dfa66ffb0c28","ios":"levelo://app?vid=36d140a3-7557-4b5f-886c-dfa66ffb0c28"},"vehicle_type_id":"4","last_reported":1691276761,"current_range_meters":20000,"station_id":"ce4bgkh2rcd13ifvqbl0","pricing_plan_id":"free"},{"bike_id":"312c9c72-0c5d-459d-bab6-8e74e09f1101","system_id":"levelo_inurba_marseille","lat":43.296935,"lon":5.376544,"is_reserved":false,"is_disabled":false,"rental_uris":{"android":"levelo://app?vid=312c9c72-0c5d-459d-bab6-8e74e09f1101","ios":"levelo://app?vid=312c9c72-0c5d-459d-bab6-8e74e09f1101"},"vehicle_type_id":"4","last_reported":1691276761,"current_range_meters":20800,"station_id":"ce4bgkh2rcd13ifvqbl0","pricing_plan_id":"free"},{"bike_id":"cd5c1ea8-acf4-457e-afa7-ebdd2a586deb","system_id":"levelo_inurba_marseille","lat":43.309589,"lon":5.390258,"is_reserved":false,"is_disabled":false,"rental_uris":{"android":"levelo://app?vid=cd5c1ea8-acf4-457e-afa7-ebdd2a586deb","ios":"levelo://app?vid=cd5c1ea8-acf4-457e-afa7-ebdd2a586deb"},"vehicle_type_id":"4","last_reported":1691276761,"current_range_meters":31600,"station_id":"ce4bgup2rcd13ifvqco0","pricing_plan_id":"free"},{"bike_id":"9123f51d-28af-4b6c-affc-3673eacf1da5","system_id":"levelo_inurba_marseille","lat":43.299028,"lon":5.381509,"is_reserved":false,"is_disabled":false,"rental_uris":{"android":"levelo://app?vid=9123f51d-28af-4b6c-affc-3673eacf1da5","ios":"levelo://app?vid=9123f51d-28af-4b6c-affc-3673eacf1da5"},"vehicle_type_id":"4","last_reported":1691276761,"current_range_meters":5200,"station_id":"ce4bgj12rcd13ifvqbc0","pricing_plan_id":"free"},{"bike_id":"33f5c517-79f1-4002-a72c-b41e4db2fa81","system_id":"levelo_inurba_marseille","lat":43.309589,"lon":5.390258,"is_reserved":false,"is_disabled":false,"rental_uris":{"android":"levelo://app?vid=33f5c517-79f1-4002-a72c-b41e4db2fa81","ios":"levelo://app?vid=33f5c517-79f1-4002-a72c-b41e4db2fa81"},"vehicle_type_id":"4","last_reported":1691276761,"current_range_meters":4000,"station_id":"ce4bgup2rcd13ifvqco0","pricing_plan_id":"free"},{"bike_id":"4b934249-aa57-465f-8c6c-fce1955f730c","system_id":"levelo_inurba_marseille","lat":43.29897,"lon":5.38136,"is_reserved":false,"is_disabled":false,"rental_uris":{"android":"levelo://app?vid=4b934249-aa57-465f-8c6c-fce1955f730c","ios":"levelo://app?vid=4b934249-aa57-465f-8c6c-fce1955f730c"},"vehicle_type_id":"4","last_reported":1691276761,"current_range_meters":30800,"station_id":"ce4bgj12rcd13ifvqbc0","pricing_plan_id":"free"},{"bike_id":"f0b1921d-8fc5-42f6-8214-26455e772ce5","system_id":"levelo_inurba_marseille","lat":43.30953,"lon":5.39042,"is_reserved":false,"is_disabled":false,"rental_uris":{"android":"levelo://app?vid=f0b1921d-8fc5-42f6-8214-26455e772ce5","ios":"levelo://app?vid=f0b1921d-8fc5-42f6-8214-26455e772ce5"},"vehicle_type_id":"4","last_reported":1691276761,"current_range_meters":25200,"station_id":"ce4bgup2rcd13ifvqco0","pricing_plan_id":"free"},{"bike_id":"e9d3ed70-78b7-45ae-936b-66937bdf9b40","system_id":"levelo_inurba_marseille","lat":43.309589,"lon":5.390258,"is_reserved":false,"is_disabled":false,"rental_uris":{"android":"levelo://app?vid=e9d3ed70-78b7-45ae-936b-66937bdf9b40","ios":"levelo://app?vid=e9d3ed70-78b7-45ae-936b-66937bdf9b40"},"vehicle_type_id":"4","last_reported":1691276761,"current_range_meters":15200,"station_id":"ce4bgup2rcd13ifvqco0","pricing_plan_id":"free"},{"bike_id":"4879b09e-5533-49cc-808c-be115b214b19","system_id":"levelo_inurba_marseille","lat":43.317557,"lon":5.390173,"is_reserved":false,"is_disabled":false,"rental_uris":{"android":"levelo://app?vid=4879b09e-5533-49cc-808c-be115b214b19","ios":"levelo://app?vid=4879b09e-5533-49cc-808c-be115b214b19"},"vehicle_type_id":"4","last_reported":1691276761,"current_range_meters":31600,"station_id":"ce4bhqp2rcd13ifvqhng","pricing_plan_id":"free"},{"bike_id":"90569ba5-8bb9-4d2d-b876-dc35e42f9a0c","system_id":"levelo_inurba_marseille","lat":43.317557,"lon":5.390173,"is_reserved":false,"is_disabled":false,"rental_uris":{"android":"levelo://app?vid=90569ba5-8bb9-4d2d-b876-dc35e42f9a0c","ios":"levelo://app?vid=90569ba5-8bb9-4d2d-b876-dc35e42f9a0c"},"vehicle_type_id":"4","last_reported":1691276761,"current_range_meters":31600,"station_id":"ce4bhqp2rcd13ifvqhng","pricing_plan_id":"free"},{"bike_id":"c070a522-6c17-4333-a9ee-bbef4dc643ed","system_id":"levelo_inurba_marseille","lat":43.317557,"lon":5.390173,"is_reserved":false,"is_disabled":false,"rental_uris":{"android":"levelo://app?vid=c070a522-6c17-4333-a9ee-bbef4dc643ed","ios":"levelo://app?vid=c070a522-6c17-4333-a9ee-bbef4dc643ed"},"vehicle_type_id":"4","last_reported":1691276761,"current_range_meters":31600,"station_id":"ce4bhqp2rcd13ifvqhng","pricing_plan_id":"free"},{"bike_id":"33289ce5-1059-4419-aac6-0b635209ed94","system_id":"levelo_inurba_marseille","lat":43.317557,"lon":5.390173,"is_reserved":false,"is_disabled":false,"rental_uris":{"android":"levelo://app?vid=33289ce5-1059-4419-aac6-0b635209ed94","ios":"levelo://app?vid=33289ce5-1059-4419-aac6-0b635209ed94"},"vehicle_type_id":"4","last_reported":1691276761,"current_range_meters":21200,"station_id":"ce4bhqp2rcd13ifvqhng","pricing_plan_id":"free"},{"bike_id":"fb5d1b63-b2f2-4d34-b700-b062bf6b4e69","system_id":"levelo_inurba_marseille","lat":43.317557,"lon":5.390173,"is_reserved":false,"is_disabled":false,"rental_uris":{"android":"levelo://app?vid=fb5d1b63-b2f2-4d34-b700-b062bf6b4e69","ios":"levelo://app?vid=fb5d1b63-b2f2-4d34-b700-b062bf6b4e69"},"vehicle_type_id":"4","last_reported":1691276761,"current_range_meters":31200,"station_id":"ce4bhqp2rcd13ifvqhng","pricing_plan_id":"free"},{"bike_id":"37440da6-a52c-4d8b-bad8-8479cc4c329c","system_id":"levelo_inurba_marseille","lat":43.317557,"lon":5.390173,"is_reserved":false,"is_disabled":false,"rental_uris":{"android":"levelo://app?vid=37440da6-a52c-4d8b-bad8-8479cc4c329c","ios":"levelo://app?vid=37440da6-a52c-4d8b-bad8-8479cc4c329c"},"vehicle_type_id":"4","last_reported":1691276761,"current_range_meters":29600,"station_id":"ce4bhqp2rcd13ifvqhng","pricing_plan_id":"free"},{"bike_id":"ffe83563-fe7b-4abd-90a1-b737e09347c0","system_id":"levelo_inurba_marseille","lat":43.317557,"lon":5.390173,"is_reserved":false,"is_disabled":false,"rental_uris":{"android":"levelo://app?vid=ffe83563-fe7b-4abd-90a1-b737e09347c0","ios":"levelo://app?vid=ffe83563-fe7b-4abd-90a1-b737e09347c0"},"vehicle_type_id":"4","last_reported":1691276761,"current_range_meters":31600,"station_id":"ce4bhqp2rcd13ifvqhng","pricing_plan_id":"free"},{"bike_id":"ea01d5ca-46b8-4e12-9d73-863370000a06","system_id":"levelo_inurba_marseille","lat":43.317557,"lon":5.390173,"is_reserved":false,"is_disabled":false,"rental_uris":{"android":"levelo://app?vid=ea01d5ca-46b8-4e12-9d73-863370000a06","ios":"levelo://app?vid=ea01d5ca-46b8-4e12-9d73-863370000a06"},"vehicle_type_id":"4","last_reported":1691276761,"current_range_meters":31600,"station_id":"ce4bhqp2rcd13ifvqhng","pricing_plan_id":"free"},{"bike_id":"aeba4117-4324-492b-b05b-37bcc45b3f39","system_id":"levelo_inurba_marseille","lat":43.317557,"lon":5.390173,"is_reserved":false,"is_disabled":false,"rental_uris":{"android":"levelo://app?vid=aeba4117-4324-492b-b05b-37bcc45b3f39","ios":"levelo://app?vid=aeba4117-4324-492b-b05b-37bcc45b3f39"},"vehicle_type_id":"4","last_reported":1691276761,"current_range_meters":18800,"station_id":"ce4bhqp2rcd13ifvqhng","pricing_plan_id":"free"},{"bike_id":"4cf68d2a-b4ad-4f51-904b-2694afa4f784","system_id":"levelo_inurba_marseille","lat":43.298037,"lon":5.381066,"is_reserved":false,"is_disabled":false,"rental_uris":{"android":"levelo://app?vid=4cf68d2a-b4ad-4f51-904b-2694afa4f784","ios":"levelo://app?vid=4cf68d2a-b4ad-4f51-904b-2694afa4f784"},"vehicle_type_id":"4","last_reported":1691276761,"current_range_meters":27600,"station_id":"ce4bgip2rcd13ifvqbb0","pricing_plan_id":"free"},{"bike_id":"5d9154f8-0f14-48d0-8425-e41c5cabaa72","system_id":"levelo_inurba_marseille","lat":43.295748,"lon":5.37522,"is_reserved":false,"is_disabled":false,"rental_uris":{"android":"levelo://app?vid=5d9154f8-0f14-48d0-8425-e41c5cabaa72","ios":"levelo://app?vid=5d9154f8-0f14-48d0-8425-e41c5cabaa72"},"vehicle_type_id":"4","last_reported":1691276761,"current_range_meters":18400,"station_id":"ce4bgh92rcd13ifvqb50","pricing_plan_id":"free"},{"bike_id":"a4df99ce-0488-49dd-a888-94686f562e88","system_id":"levelo_inurba_marseille","lat":43.295748,"lon":5.37522,"is_reserved":false,"is_disabled":false,"rental_uris":{"android":"levelo://app?vid=a4df99ce-0488-49dd-a888-94686f562e88","ios":"levelo://app?vid=a4df99ce-0488-49dd-a888-94686f562e88"},"vehicle_type_id":"4","last_reported":1691276761,"current_range_meters":32000,"station_id":"ce4bgh92rcd13ifvqb50","pricing_plan_id":"free"},{"bike_id":"c51386f6-2037-41e7-9b3e-a8a3b929f304","system_id":"levelo_inurba_marseille","lat":43.295748,"lon":5.37522,"is_reserved":false,"is_disabled":false,"rental_uris":{"android":"levelo://app?vid=c51386f6-2037-41e7-9b3e-a8a3b929f304","ios":"levelo://app?vid=c51386f6-2037-41e7-9b3e-a8a3b929f304"},"vehicle_type_id":"4","last_reported":1691276761,"current_range_meters":12000,"station_id":"ce4bgh92rcd13ifvqb50","pricing_plan_id":"free"},{"bike_id":"aeaf2246-272f-45e9-b07a-65b2b4a64088","system_id":"levelo_inurba_marseille","lat":43.295748,"lon":5.37522,"is_reserved":false,"is_disabled":false,"rental_uris":{"android":"levelo://app?vid=aeaf2246-272f-45e9-b07a-65b2b4a64088","ios":"levelo://app?vid=aeaf2246-272f-45e9-b07a-65b2b4a64088"},"vehicle_type_id":"4","last_reported":1691276761,"current_range_meters":20000,"station_id":"ce4bgh92rcd13ifvqb50","pricing_plan_id":"free"},{"bike_id":"9730408f-558e-46a1-b8ef-b2787da87c39","system_id":"levelo_inurba_marseille","lat":43.30409,"lon":5.389,"is_reserved":false,"is_disabled":false,"rental_uris":{"android":"levelo://app?vid=9730408f-558e-46a1-b8ef-b2787da87c39","ios":"levelo://app?vid=9730408f-558e-46a1-b8ef-b2787da87c39"},"vehicle_type_id":"4","last_reported":1691276761,"current_range_meters":13200,"station_id":"ce4bgk12rcd13ifvqbi0","pricing_plan_id":"free"},{"bike_id":"0a86dba6-0716-4b6b-80d7-946ab403efef","system_id":"levelo_inurba_marseille","lat":43.296277,"lon":5.377108,"is_reserved":false,"is_disabled":false,"rental_uris":{"android":"levelo://app?vid=0a86dba6-0716-4b6b-80d7-946ab403efef","ios":"levelo://app?vid=0a86dba6-0716-4b6b-80d7-946ab403efef"},"vehicle_type_id":"4","last_reported":1691276761,"current_range_meters":0,"station_id":"ce4bgi92rcd13ifvqb90","pricing_plan_id":"free"},{"bike_id":"e58937b0-f584-452a-87e5-536df956208f","system_id":"levelo_inurba_marseille","lat":43.30405,"lon":5.38906,"is_reserved":false,"is_disabled":false,"rental_uris":{"android":"levelo://app?vid=e58937b0-f584-452a-87e5-536df956208f","ios":"levelo://app?vid=e58937b0-f584-452a-87e5-536df956208f"},"vehicle_type_id":"4","last_reported":1691276761,"current_range_meters":13600,"station_id":"ce4bgk12rcd13ifvqbi0","pricing_plan_id":"free"},{"bike_id":"7e12b858-d94d-4eb9-ae1e-1ddf8105ae2b","system_id":"levelo_inurba_marseille","lat":43.29973,"lon":5.38491,"is_reserved":false,"is_disabled":false,"rental_uris":{"android":"levelo://app?vid=7e12b858-d94d-4eb9-ae1e-1ddf8105ae2b","ios":"levelo://app?vid=7e12b858-d94d-4eb9-ae1e-1ddf8105ae2b"},"vehicle_type_id":"4","last_reported":1691276761,"current_range_meters":1200,"station_id":"ce4bgj92rcd13ifvqbd0","pricing_plan_id":"free"},{"bike_id":"5f1c231d-5549-420b-a974-1b1406435a60","system_id":"levelo_inurba_marseille","lat":43.32355,"lon":5.38884,"is_reserved":false,"is_disabled":false,"rental_uris":{"android":"levelo://app?vid=5f1c231d-5549-420b-a974-1b1406435a60","ios":"levelo://app?vid=5f1c231d-5549-420b-a974-1b1406435a60"},"vehicle_type_id":"4","last_reported":1691276761,"current_range_meters":19600,"station_id":"ce4bhqp2rcd13ifvqhog","pricing_plan_id":"free"},{"bike_id":"fbc3a92c-f948-48e9-a3fc-f0e8af1a9259","system_id":"levelo_inurba_marseille","lat":43.32367,"lon":5.388836,"is_reserved":false,"is_disabled":false,"rental_uris":{"android":"levelo://app?vid=fbc3a92c-f948-48e9-a3fc-f0e8af1a9259","ios":"levelo://app?vid=fbc3a92c-f948-48e9-a3fc-f0e8af1a9259"},"vehicle_type_id":"4","last_reported":1691276761,"current_range_meters":29200,"station_id":"ce4bhqp2rcd13ifvqhog","pricing_plan_id":"free"},{"bike_id":"31c4ebe8-2a4f-41b7-966a-7ad502ff3d8a","system_id":"levelo_inurba_marseille","lat":43.32367,"lon":5.388836,"is_reserved":false,"is_disabled":false,"rental_uris":{"android":"levelo://app?vid=31c4ebe8-2a4f-41b7-966a-7ad502ff3d8a","ios":"levelo://app?vid=31c4ebe8-2a4f-41b7-966a-7ad502ff3d8a"},"vehicle_type_id":"4","last_reported":1691276761,"current_range_meters":18000,"station_id":"ce4bhqp2rcd13ifvqhog","pricing_plan_id":"free"},{"bike_id":"ed5b971a-2b8a-4f89-9487-7e8342d0b66b","system_id":"levelo_inurba_marseille","lat":43.32362,"lon":5.38882,"is_reserved":false,"is_disabled":false,"rental_uris":{"android":"levelo://app?vid=ed5b971a-2b8a-4f89-9487-7e8342d0b66b","ios":"levelo://app?vid=ed5b971a-2b8a-4f89-9487-7e8342d0b66b"},"vehicle_type_id":"4","last_reported":1691276761,"current_range_meters":19600,"station_id":"ce4bhqp2rcd13ifvqhog","pricing_plan_id":"free"},{"bike_id":"5bdf8c20-9c72-47ab-afc6-2b84567e0617","system_id":"levelo_inurba_marseille","lat":43.32363,"lon":5.38883,"is_reserved":false,"is_disabled":false,"rental_uris":{"android":"levelo://app?vid=5bdf8c20-9c72-47ab-afc6-2b84567e0617","ios":"levelo://app?vid=5bdf8c20-9c72-47ab-afc6-2b84567e0617"},"vehicle_type_id":"4","last_reported":1691276761,"current_range_meters":17600,"station_id":"ce4bhqp2rcd13ifvqhog","pricing_plan_id":"free"},{"bike_id":"34ef5601-8765-4b80-bdc1-e9818152ffab","system_id":"levelo_inurba_marseille","lat":43.32367,"lon":5.388836,"is_reserved":false,"is_disabled":false,"rental_uris":{"android":"levelo://app?vid=34ef5601-8765-4b80-bdc1-e9818152ffab","ios":"levelo://app?vid=34ef5601-8765-4b80-bdc1-e9818152ffab"},"vehicle_type_id":"4","last_reported":1691276761,"current_range_meters":23200,"station_id":"ce4bhqp2rcd13ifvqhog","pricing_plan_id":"free"},{"bike_id":"b47ca02a-40ba-4dc8-abeb-b1a2c4b62cd0","system_id":"levelo_inurba_marseille","lat":43.32362,"lon":5.38885,"is_reserved":false,"is_disabled":false,"rental_uris":{"android":"levelo://app?vid=b47ca02a-40ba-4dc8-abeb-b1a2c4b62cd0","ios":"levelo://app?vid=b47ca02a-40ba-4dc8-abeb-b1a2c4b62cd0"},"vehicle_type_id":"4","last_reported":1691276761,"current_range_meters":28000,"station_id":"ce4bhqp2rcd13ifvqhog","pricing_plan_id":"free"},{"bike_id":"153806a9-c106-4acb-8efe-f81ba29b58d3","system_id":"levelo_inurba_marseille","lat":43.32366,"lon":5.38882,"is_reserved":false,"is_disabled":false,"rental_uris":{"android":"levelo://app?vid=153806a9-c106-4acb-8efe-f81ba29b58d3","ios":"levelo://app?vid=153806a9-c106-4acb-8efe-f81ba29b58d3"},"vehicle_type_id":"4","last_reported":1691276761,"current_range_meters":22000,"station_id":"ce4bhqp2rcd13ifvqhog","pricing_plan_id":"free"},{"bike_id":"d31122e6-e65b-4e35-b9ad-0bae407fb5a5","system_id":"levelo_inurba_marseille","lat":43.32367,"lon":5.388836,"is_reserved":false,"is_disabled":false,"rental_uris":{"android":"levelo://app?vid=d31122e6-e65b-4e35-b9ad-0bae407fb5a5","ios":"levelo://app?vid=d31122e6-e65b-4e35-b9ad-0bae407fb5a5"},"vehicle_type_id":"4","last_reported":1691276761,"current_range_meters":15600,"station_id":"ce4bhqp2rcd13ifvqhog","pricing_plan_id":"free"},{"bike_id":"22bed36d-b2d5-4351-a2a0-3bcc3d1e349e","system_id":"levelo_inurba_marseille","lat":43.32369,"lon":5.3888,"is_reserved":false,"is_disabled":false,"rental_uris":{"android":"levelo://app?vid=22bed36d-b2d5-4351-a2a0-3bcc3d1e349e","ios":"levelo://app?vid=22bed36d-b2d5-4351-a2a0-3bcc3d1e349e"},"vehicle_type_id":"4","last_reported":1691276761,"current_range_meters":800,"station_id":"ce4bhqp2rcd13ifvqhog","pricing_plan_id":"free"},{"bike_id":"51a94a8b-791c-4738-b220-ee8689f99230","system_id":"levelo_inurba_marseille","lat":43.32364,"lon":5.38885,"is_reserved":false,"is_disabled":false,"rental_uris":{"android":"levelo://app?vid=51a94a8b-791c-4738-b220-ee8689f99230","ios":"levelo://app?vid=51a94a8b-791c-4738-b220-ee8689f99230"},"vehicle_type_id":"4","last_reported":1691276761,"current_range_meters":400,"station_id":"ce4bhqp2rcd13ifvqhog","pricing_plan_id":"free"},{"bike_id":"6be534a9-96c6-4989-b3bb-e9dea76376c4","system_id":"levelo_inurba_marseille","lat":43.32361,"lon":5.38889,"is_reserved":false,"is_disabled":false,"rental_uris":{"android":"levelo://app?vid=6be534a9-96c6-4989-b3bb-e9dea76376c4","ios":"levelo://app?vid=6be534a9-96c6-4989-b3bb-e9dea76376c4"},"vehicle_type_id":"4","last_reported":1691276761,"current_range_meters":30000,"station_id":"ce4bhqp2rcd13ifvqhog","pricing_plan_id":"free"},{"bike_id":"05d8e89b-ad73-461b-a850-aa6b7bd3087a","system_id":"levelo_inurba_marseille","lat":43.32367,"lon":5.388836,"is_reserved":false,"is_disabled":false,"rental_uris":{"android":"levelo://app?vid=05d8e89b-ad73-461b-a850-aa6b7bd3087a","ios":"levelo://app?vid=05d8e89b-ad73-461b-a850-aa6b7bd3087a"},"vehicle_type_id":"4","last_reported":1691276761,"current_range_meters":18000,"station_id":"ce4bhqp2rcd13ifvqhog","pricing_plan_id":"free"},{"bike_id":"696ed9b6-9beb-423c-9d06-defcf66f30b9","system_id":"levelo_inurba_marseille","lat":43.32367,"lon":5.388836,"is_reserved":false,"is_disabled":false,"rental_uris":{"android":"levelo://app?vid=696ed9b6-9beb-423c-9d06-defcf66f30b9","ios":"levelo://app?vid=696ed9b6-9beb-423c-9d06-defcf66f30b9"},"vehicle_type_id":"4","last_reported":1691276761,"current_range_meters":8800,"station_id":"ce4bhqp2rcd13ifvqhog","pricing_plan_id":"free"},{"bike_id":"22bfc647-f501-4f33-bd30-a1435481dbd5","system_id":"levelo_inurba_marseille","lat":43.29602,"lon":5.381084,"is_reserved":false,"is_disabled":false,"rental_uris":{"android":"levelo://app?vid=22bfc647-f501-4f33-bd30-a1435481dbd5","ios":"levelo://app?vid=22bfc647-f501-4f33-bd30-a1435481dbd5"},"vehicle_type_id":"4","last_reported":1691276761,"current_range_meters":2000,"station_id":"ce4bgl12rcd13ifvqbo0","pricing_plan_id":"free"},{"bike_id":"77c62815-5d25-4af2-ba7c-c8432aabacad","system_id":"levelo_inurba_marseille","lat":43.29602,"lon":5.381084,"is_reserved":false,"is_disabled":false,"rental_uris":{"android":"levelo://app?vid=77c62815-5d25-4af2-ba7c-c8432aabacad","ios":"levelo://app?vid=77c62815-5d25-4af2-ba7c-c8432aabacad"},"vehicle_type_id":"4","last_reported":1691276761,"current_range_meters":25200,"station_id":"ce4bgl12rcd13ifvqbo0","pricing_plan_id":"free"},{"bike_id":"660e75c8-af2c-4908-941b-1209dfdb6848","system_id":"levelo_inurba_marseille","lat":43.323612,"lon":5.389752,"is_reserved":false,"is_disabled":false,"rental_uris":{"android":"levelo://app?vid=660e75c8-af2c-4908-941b-1209dfdb6848","ios":"levelo://app?vid=660e75c8-af2c-4908-941b-1209dfdb6848"},"vehicle_type_id":"4","last_reported":1691276761,"current_range_meters":19200,"station_id":"ce4bhqp2rcd13ifvqhog","pricing_plan_id":"free"},{"bike_id":"4faf0c5a-0862-453c-8a63-1ae3c4a01377","system_id":"levelo_inurba_marseille","lat":43.292749,"lon":5.368402,"is_reserved":false,"is_disabled":false,"rental_uris":{"android":"levelo://app?vid=4faf0c5a-0862-453c-8a63-1ae3c4a01377","ios":"levelo://app?vid=4faf0c5a-0862-453c-8a63-1ae3c4a01377"},"vehicle_type_id":"4","last_reported":1691276761,"current_range_meters":10000,"station_id":"ce4bhbp2rcd13ifvqesg","pricing_plan_id":"free"},{"bike_id":"dbda8c31-e928-4bbc-8fa4-e895db2fd89f","system_id":"levelo_inurba_marseille","lat":43.305994,"lon":5.393687,"is_reserved":false,"is_disabled":false,"rental_uris":{"android":"levelo://app?vid=dbda8c31-e928-4bbc-8fa4-e895db2fd89f","ios":"levelo://app?vid=dbda8c31-e928-4bbc-8fa4-e895db2fd89f"},"vehicle_type_id":"4","last_reported":1691276761,"current_range_meters":31200,"station_id":"ce4bh0p2rcd13ifvqd80","pricing_plan_id":"free"},{"bike_id":"ba87bc7f-08e9-4c70-82c7-20a999c9914c","system_id":"levelo_inurba_marseille","lat":43.305894,"lon":5.393571,"is_reserved":false,"is_disabled":false,"rental_uris":{"android":"levelo://app?vid=ba87bc7f-08e9-4c70-82c7-20a999c9914c","ios":"levelo://app?vid=ba87bc7f-08e9-4c70-82c7-20a999c9914c"},"vehicle_type_id":"4","last_reported":1691276761,"current_range_meters":30400,"station_id":"ce4bh0p2rcd13ifvqd80","pricing_plan_id":"free"},{"bike_id":"615d74b7-3baf-4373-ab98-afc9fed852f3","system_id":"levelo_inurba_marseille","lat":43.305884,"lon":5.39358,"is_reserved":false,"is_disabled":false,"rental_uris":{"android":"levelo://app?vid=615d74b7-3baf-4373-ab98-afc9fed852f3","ios":"levelo://app?vid=615d74b7-3baf-4373-ab98-afc9fed852f3"},"vehicle_type_id":"4","last_reported":1691276761,"current_range_meters":17600,"station_id":"ce4bh0p2rcd13ifvqd80","pricing_plan_id":"free"},{"bike_id":"b72040a7-875a-4299-9e03-96c92fd92b30","system_id":"levelo_inurba_marseille","lat":43.305994,"lon":5.393687,"is_reserved":false,"is_disabled":false,"rental_uris":{"android":"levelo://app?vid=b72040a7-875a-4299-9e03-96c92fd92b30","ios":"levelo://app?vid=b72040a7-875a-4299-9e03-96c92fd92b30"},"vehicle_type_id":"4","last_reported":1691276761,"current_range_meters":20400,"station_id":"ce4bh0p2rcd13ifvqd80","pricing_plan_id":"free"},{"bike_id":"5f778ecd-7090-4aba-ab3a-2d03b24e03e6","system_id":"levelo_inurba_marseille","lat":43.305981,"lon":5.393638,"is_reserved":false,"is_disabled":false,"rental_uris":{"android":"levelo://app?vid=5f778ecd-7090-4aba-ab3a-2d03b24e03e6","ios":"levelo://app?vid=5f778ecd-7090-4aba-ab3a-2d03b24e03e6"},"vehicle_type_id":"4","last_reported":1691276761,"current_range_meters":31200,"station_id":"ce4bh0p2rcd13ifvqd80","pricing_plan_id":"free"},{"bike_id":"2890ec75-8a56-442c-94d1-c9f01aa5fa94","system_id":"levelo_inurba_marseille","lat":43.305994,"lon":5.393687,"is_reserved":false,"is_disabled":false,"rental_uris":{"android":"levelo://app?vid=2890ec75-8a56-442c-94d1-c9f01aa5fa94","ios":"levelo://app?vid=2890ec75-8a56-442c-94d1-c9f01aa5fa94"},"vehicle_type_id":"4","last_reported":1691276761,"current_range_meters":12000,"station_id":"ce4bh0p2rcd13ifvqd80","pricing_plan_id":"free"},{"bike_id":"f77a255f-1719-48f1-a321-2b4c9d03ccd5","system_id":"levelo_inurba_marseille","lat":43.30592,"lon":5.39364,"is_reserved":false,"is_disabled":false,"rental_uris":{"android":"levelo://app?vid=f77a255f-1719-48f1-a321-2b4c9d03ccd5","ios":"levelo://app?vid=f77a255f-1719-48f1-a321-2b4c9d03ccd5"},"vehicle_type_id":"4","last_reported":1691276761,"current_range_meters":11600,"station_id":"ce4bh0p2rcd13ifvqd80","pricing_plan_id":"free"},{"bike_id":"abc5cc92-5fd1-429c-9add-5c858fb5513e","system_id":"levelo_inurba_marseille","lat":43.305822,"lon":5.393723,"is_reserved":false,"is_disabled":false,"rental_uris":{"android":"levelo://app?vid=abc5cc92-5fd1-429c-9add-5c858fb5513e","ios":"levelo://app?vid=abc5cc92-5fd1-429c-9add-5c858fb5513e"},"vehicle_type_id":"4","last_reported":1691276761,"current_range_meters":30000,"station_id":"ce4bh0p2rcd13ifvqd80","pricing_plan_id":"free"},{"bike_id":"1169c79a-da3e-4915-81d8-569ec7e6e698","system_id":"levelo_inurba_marseille","lat":43.300852,"lon":5.390859,"is_reserved":false,"is_disabled":false,"rental_uris":{"android":"levelo://app?vid=1169c79a-da3e-4915-81d8-569ec7e6e698","ios":"levelo://app?vid=1169c79a-da3e-4915-81d8-569ec7e6e698"},"vehicle_type_id":"4","last_reported":1691276761,"current_range_meters":22800,"station_id":"ce4bh192rcd13ifvqdb0","pricing_plan_id":"free"},{"bike_id":"138e468d-33b7-4977-acd2-2cae832e9edc","system_id":"levelo_inurba_marseille","lat":43.302992,"lon":5.392136,"is_reserved":false,"is_disabled":false,"rental_uris":{"android":"levelo://app?vid=138e468d-33b7-4977-acd2-2cae832e9edc","ios":"levelo://app?vid=138e468d-33b7-4977-acd2-2cae832e9edc"},"vehicle_type_id":"4","last_reported":1691276761,"current_range_meters":7600,"station_id":"ce4bgkh2rcd13ifvqbk0","pricing_plan_id":"free"},{"bike_id":"5e123521-3baa-42d5-b11f-4cffbdbef4b3","system_id":"levelo_inurba_marseille","lat":43.30085,"lon":5.390856,"is_reserved":false,"is_disabled":false,"rental_uris":{"android":"levelo://app?vid=5e123521-3baa-42d5-b11f-4cffbdbef4b3","ios":"levelo://app?vid=5e123521-3baa-42d5-b11f-4cffbdbef4b3"},"vehicle_type_id":"4","last_reported":1691276761,"current_range_meters":2000,"station_id":"ce4bh192rcd13ifvqdb0","pricing_plan_id":"free"},{"bike_id":"16d9a6dc-67df-42b0-a49e-5202ace21ab6","system_id":"levelo_inurba_marseille","lat":43.300852,"lon":5.390859,"is_reserved":false,"is_disabled":false,"rental_uris":{"android":"levelo://app?vid=16d9a6dc-67df-42b0-a49e-5202ace21ab6","ios":"levelo://app?vid=16d9a6dc-67df-42b0-a49e-5202ace21ab6"},"vehicle_type_id":"4","last_reported":1691276761,"current_range_meters":14800,"station_id":"ce4bh192rcd13ifvqdb0","pricing_plan_id":"free"},{"bike_id":"59f210c7-b876-423e-a302-ad8b5681a71e","system_id":"levelo_inurba_marseille","lat":43.291671,"lon":5.371575,"is_reserved":false,"is_disabled":false,"rental_uris":{"android":"levelo://app?vid=59f210c7-b876-423e-a302-ad8b5681a71e","ios":"levelo://app?vid=59f210c7-b876-423e-a302-ad8b5681a71e"},"vehicle_type_id":"4","last_reported":1691276761,"current_range_meters":23600,"station_id":"ce4bha92rcd13ifvqeh0","pricing_plan_id":"free"},{"bike_id":"0d88fcbe-9ab8-4bbf-988c-7dbfb7770f6b","system_id":"levelo_inurba_marseille","lat":43.29878,"lon":5.38909,"is_reserved":false,"is_disabled":false,"rental_uris":{"android":"levelo://app?vid=0d88fcbe-9ab8-4bbf-988c-7dbfb7770f6b","ios":"levelo://app?vid=0d88fcbe-9ab8-4bbf-988c-7dbfb7770f6b"},"vehicle_type_id":"4","last_reported":1691276761,"current_range_meters":18800,"station_id":"ce4bh392rcd13ifvqdl0","pricing_plan_id":"free"},{"bike_id":"0a9e434b-0578-4320-abce-705ec59c9f19","system_id":"levelo_inurba_marseille","lat":43.298764,"lon":5.388973,"is_reserved":false,"is_disabled":false,"rental_uris":{"android":"levelo://app?vid=0a9e434b-0578-4320-abce-705ec59c9f19","ios":"levelo://app?vid=0a9e434b-0578-4320-abce-705ec59c9f19"},"vehicle_type_id":"4","last_reported":1691276761,"current_range_meters":28000,"station_id":"ce4bh392rcd13ifvqdl0","pricing_plan_id":"free"},{"bike_id":"22fc2429-bcbd-411f-9695-40d4ffd328a5","system_id":"levelo_inurba_marseille","lat":43.298681,"lon":5.397225,"is_reserved":false,"is_disabled":false,"rental_uris":{"android":"levelo://app?vid=22fc2429-bcbd-411f-9695-40d4ffd328a5","ios":"levelo://app?vid=22fc2429-bcbd-411f-9695-40d4ffd328a5"},"vehicle_type_id":"4","last_reported":1691276761,"current_range_meters":20000,"station_id":"ce4bh0h2rcd13ifvqd50","pricing_plan_id":"free"},{"bike_id":"fed21c79-fa7d-4c11-9db6-385eb38d528c","system_id":"levelo_inurba_marseille","lat":43.30878,"lon":5.3964,"is_reserved":false,"is_disabled":false,"rental_uris":{"android":"levelo://app?vid=fed21c79-fa7d-4c11-9db6-385eb38d528c","ios":"levelo://app?vid=fed21c79-fa7d-4c11-9db6-385eb38d528c"},"vehicle_type_id":"4","last_reported":1691276761,"current_range_meters":9200,"station_id":"ce4bh012rcd13ifvqcv0","pricing_plan_id":"free"},{"bike_id":"ea7a9fbd-79bf-4fc5-9cf5-600ce47a3c6f","system_id":"levelo_inurba_marseille","lat":43.31328,"lon":5.3969,"is_reserved":false,"is_disabled":false,"rental_uris":{"android":"levelo://app?vid=ea7a9fbd-79bf-4fc5-9cf5-600ce47a3c6f","ios":"levelo://app?vid=ea7a9fbd-79bf-4fc5-9cf5-600ce47a3c6f"},"vehicle_type_id":"4","last_reported":1691276761,"current_range_meters":9600,"station_id":"ce4bgvp2rcd13ifvqcu0","pricing_plan_id":"free"},{"bike_id":"f5579448-b294-4091-8f53-7de8c1a965df","system_id":"levelo_inurba_marseille","lat":43.309038,"lon":5.396546,"is_reserved":false,"is_disabled":false,"rental_uris":{"android":"levelo://app?vid=f5579448-b294-4091-8f53-7de8c1a965df","ios":"levelo://app?vid=f5579448-b294-4091-8f53-7de8c1a965df"},"vehicle_type_id":"4","last_reported":1691276761,"current_range_meters":6800,"station_id":"ce4bh012rcd13ifvqcv0","pricing_plan_id":"free"},{"bike_id":"238b3634-f982-4047-8311-136c0e2287e8","system_id":"levelo_inurba_marseille","lat":43.29529,"lon":5.385581,"is_reserved":false,"is_disabled":false,"rental_uris":{"android":"levelo://app?vid=238b3634-f982-4047-8311-136c0e2287e8","ios":"levelo://app?vid=238b3634-f982-4047-8311-136c0e2287e8"},"vehicle_type_id":"4","last_reported":1691276761,"current_range_meters":28000,"station_id":"ce4bgih2rcd13ifvqba0","pricing_plan_id":"free"},{"bike_id":"d224958a-d589-4ced-8f11-f5c3aeb03ae2","system_id":"levelo_inurba_marseille","lat":43.29528,"lon":5.38546,"is_reserved":false,"is_disabled":false,"rental_uris":{"android":"levelo://app?vid=d224958a-d589-4ced-8f11-f5c3aeb03ae2","ios":"levelo://app?vid=d224958a-d589-4ced-8f11-f5c3aeb03ae2"},"vehicle_type_id":"4","last_reported":1691276761,"current_range_meters":29600,"station_id":"ce4bgih2rcd13ifvqba0","pricing_plan_id":"free"},{"bike_id":"3d14bc3e-eabc-44e1-b5c3-5da3969f1f31","system_id":"levelo_inurba_marseille","lat":43.29529,"lon":5.385581,"is_reserved":false,"is_disabled":false,"rental_uris":{"android":"levelo://app?vid=3d14bc3e-eabc-44e1-b5c3-5da3969f1f31","ios":"levelo://app?vid=3d14bc3e-eabc-44e1-b5c3-5da3969f1f31"},"vehicle_type_id":"4","last_reported":1691276761,"current_range_meters":31200,"station_id":"ce4bgih2rcd13ifvqba0","pricing_plan_id":"free"},{"bike_id":"817010df-ab60-4b89-983c-60f8b4ff357d","system_id":"levelo_inurba_marseille","lat":43.302008,"lon":5.394694,"is_reserved":false,"is_disabled":false,"rental_uris":{"android":"levelo://app?vid=817010df-ab60-4b89-983c-60f8b4ff357d","ios":"levelo://app?vid=817010df-ab60-4b89-983c-60f8b4ff357d"},"vehicle_type_id":"4","last_reported":1691276761,"current_range_meters":16800,"station_id":"ce4bh0p2rcd13ifvqd70","pricing_plan_id":"free"},{"bike_id":"0ea04346-3373-4834-8248-d83c722ec587","system_id":"levelo_inurba_marseille","lat":43.302008,"lon":5.394694,"is_reserved":false,"is_disabled":false,"rental_uris":{"android":"levelo://app?vid=0ea04346-3373-4834-8248-d83c722ec587","ios":"levelo://app?vid=0ea04346-3373-4834-8248-d83c722ec587"},"vehicle_type_id":"4","last_reported":1691276761,"current_range_meters":5200,"station_id":"ce4bh0p2rcd13ifvqd70","pricing_plan_id":"free"},{"bike_id":"d5a51e2c-fdea-4000-9b7b-df640045f554","system_id":"levelo_inurba_marseille","lat":43.290631,"lon":5.359244,"is_reserved":false,"is_disabled":false,"rental_uris":{"android":"levelo://app?vid=d5a51e2c-fdea-4000-9b7b-df640045f554","ios":"levelo://app?vid=d5a51e2c-fdea-4000-9b7b-df640045f554"},"vehicle_type_id":"4","last_reported":1691276761,"current_range_meters":16400,"station_id":"ce4bha92rcd13ifvqeg0","pricing_plan_id":"free"},{"bike_id":"0dcbd5aa-4aa9-4690-88b4-7e3684e58472","system_id":"levelo_inurba_marseille","lat":43.29409,"lon":5.38627,"is_reserved":false,"is_disabled":false,"rental_uris":{"android":"levelo://app?vid=0dcbd5aa-4aa9-4690-88b4-7e3684e58472","ios":"levelo://app?vid=0dcbd5aa-4aa9-4690-88b4-7e3684e58472"},"vehicle_type_id":"4","last_reported":1691276761,"current_range_meters":6400,"station_id":"ce4bh2h2rcd13ifvqdh0","pricing_plan_id":"free"},{"bike_id":"ffdb2c8f-9f82-4cf8-8c5f-620b8deca70f","system_id":"levelo_inurba_marseille","lat":43.289184,"lon":5.366408,"is_reserved":false,"is_disabled":false,"rental_uris":{"android":"levelo://app?vid=ffdb2c8f-9f82-4cf8-8c5f-620b8deca70f","ios":"levelo://app?vid=ffdb2c8f-9f82-4cf8-8c5f-620b8deca70f"},"vehicle_type_id":"4","last_reported":1691276761,"current_range_meters":18400,"station_id":"ce4bhap2rcd13ifvqek0","pricing_plan_id":"free"},{"bike_id":"f1a00a33-1c4e-4c88-920b-787d693e995e","system_id":"levelo_inurba_marseille","lat":43.304296,"lon":5.397513,"is_reserved":false,"is_disabled":false,"rental_uris":{"android":"levelo://app?vid=f1a00a33-1c4e-4c88-920b-787d693e995e","ios":"levelo://app?vid=f1a00a33-1c4e-4c88-920b-787d693e995e"},"vehicle_type_id":"4","last_reported":1691276761,"current_range_meters":0,"station_id":"ce4bh092rcd13ifvqd20","pricing_plan_id":"free"},{"bike_id":"2f2d42a2-8de0-405f-9429-d3eae654394c","system_id":"levelo_inurba_marseille","lat":43.33037,"lon":5.38912,"is_reserved":false,"is_disabled":false,"rental_uris":{"android":"levelo://app?vid=2f2d42a2-8de0-405f-9429-d3eae654394c","ios":"levelo://app?vid=2f2d42a2-8de0-405f-9429-d3eae654394c"},"vehicle_type_id":"4","last_reported":1691276761,"current_range_meters":15200,"station_id":"ce4bhr92rcd13ifvqhrg","pricing_plan_id":"free"},{"bike_id":"f67edc25-bcc7-41fb-8431-1add679b0933","system_id":"levelo_inurba_marseille","lat":43.33043,"lon":5.38909,"is_reserved":false,"is_disabled":false,"rental_uris":{"android":"levelo://app?vid=f67edc25-bcc7-41fb-8431-1add679b0933","ios":"levelo://app?vid=f67edc25-bcc7-41fb-8431-1add679b0933"},"vehicle_type_id":"4","last_reported":1691276761,"current_range_meters":14000,"station_id":"ce4bhr92rcd13ifvqhrg","pricing_plan_id":"free"},{"bike_id":"20cf3f6d-acf4-4653-bf24-baa04253f77a","system_id":"levelo_inurba_marseille","lat":43.33037,"lon":5.38919,"is_reserved":false,"is_disabled":false,"rental_uris":{"android":"levelo://app?vid=20cf3f6d-acf4-4653-bf24-baa04253f77a","ios":"levelo://app?vid=20cf3f6d-acf4-4653-bf24-baa04253f77a"},"vehicle_type_id":"4","last_reported":1691276761,"current_range_meters":12400,"station_id":"ce4bhr92rcd13ifvqhrg","pricing_plan_id":"free"},{"bike_id":"38c1adea-6867-4940-9699-a628b1958570","system_id":"levelo_inurba_marseille","lat":43.33044,"lon":5.38909,"is_reserved":false,"is_disabled":false,"rental_uris":{"android":"levelo://app?vid=38c1adea-6867-4940-9699-a628b1958570","ios":"levelo://app?vid=38c1adea-6867-4940-9699-a628b1958570"},"vehicle_type_id":"4","last_reported":1691276761,"current_range_meters":26400,"station_id":"ce4bhr92rcd13ifvqhrg","pricing_plan_id":"free"},{"bike_id":"976f718a-bfdb-4480-a757-e5b9a5d1a5d6","system_id":"levelo_inurba_marseille","lat":43.33043,"lon":5.38911,"is_reserved":false,"is_disabled":false,"rental_uris":{"android":"levelo://app?vid=976f718a-bfdb-4480-a757-e5b9a5d1a5d6","ios":"levelo://app?vid=976f718a-bfdb-4480-a757-e5b9a5d1a5d6"},"vehicle_type_id":"4","last_reported":1691276761,"current_range_meters":23200,"station_id":"ce4bhr92rcd13ifvqhrg","pricing_plan_id":"free"},{"bike_id":"9ce62819-7d94-47c9-aff2-f56e39f0ba59","system_id":"levelo_inurba_marseille","lat":43.33035,"lon":5.38926,"is_reserved":false,"is_disabled":false,"rental_uris":{"android":"levelo://app?vid=9ce62819-7d94-47c9-aff2-f56e39f0ba59","ios":"levelo://app?vid=9ce62819-7d94-47c9-aff2-f56e39f0ba59"},"vehicle_type_id":"4","last_reported":1691276761,"current_range_meters":26000,"station_id":"ce4bhr92rcd13ifvqhrg","pricing_plan_id":"free"},{"bike_id":"3468d6ee-41ad-4796-b726-52055f3c03fd","system_id":"levelo_inurba_marseille","lat":43.33045,"lon":5.38915,"is_reserved":false,"is_disabled":false,"rental_uris":{"android":"levelo://app?vid=3468d6ee-41ad-4796-b726-52055f3c03fd","ios":"levelo://app?vid=3468d6ee-41ad-4796-b726-52055f3c03fd"},"vehicle_type_id":"4","last_reported":1691276761,"current_range_meters":25600,"station_id":"ce4bhr92rcd13ifvqhrg","pricing_plan_id":"free"},{"bike_id":"aa4222fd-f0c2-4695-b97d-5f2ef476c423","system_id":"levelo_inurba_marseille","lat":43.33043,"lon":5.38919,"is_reserved":false,"is_disabled":false,"rental_uris":{"android":"levelo://app?vid=aa4222fd-f0c2-4695-b97d-5f2ef476c423","ios":"levelo://app?vid=aa4222fd-f0c2-4695-b97d-5f2ef476c423"},"vehicle_type_id":"4","last_reported":1691276761,"current_range_meters":4400,"station_id":"ce4bhr92rcd13ifvqhrg","pricing_plan_id":"free"},{"bike_id":"0ad39b2d-5ea7-4993-88d6-88a772550ebb","system_id":"levelo_inurba_marseille","lat":43.330459,"lon":5.389198,"is_reserved":false,"is_disabled":false,"rental_uris":{"android":"levelo://app?vid=0ad39b2d-5ea7-4993-88d6-88a772550ebb","ios":"levelo://app?vid=0ad39b2d-5ea7-4993-88d6-88a772550ebb"},"vehicle_type_id":"4","last_reported":1691276761,"current_range_meters":14800,"station_id":"ce4bhr92rcd13ifvqhrg","pricing_plan_id":"free"},{"bike_id":"05bf2cc0-c80b-4d3b-9303-5cea93148e89","system_id":"levelo_inurba_marseille","lat":43.290995,"lon":5.381361,"is_reserved":false,"is_disabled":false,"rental_uris":{"android":"levelo://app?vid=05bf2cc0-c80b-4d3b-9303-5cea93148e89","ios":"levelo://app?vid=05bf2cc0-c80b-4d3b-9303-5cea93148e89"},"vehicle_type_id":"4","last_reported":1691276761,"current_range_meters":30400,"station_id":"ce4bh512rcd13ifvqe2g","pricing_plan_id":"free"},{"bike_id":"f10737fe-47c0-4e8e-ac84-3cce78667a9c","system_id":"levelo_inurba_marseille","lat":43.290995,"lon":5.381361,"is_reserved":false,"is_disabled":false,"rental_uris":{"android":"levelo://app?vid=f10737fe-47c0-4e8e-ac84-3cce78667a9c","ios":"levelo://app?vid=f10737fe-47c0-4e8e-ac84-3cce78667a9c"},"vehicle_type_id":"4","last_reported":1691276761,"current_range_meters":28800,"station_id":"ce4bh512rcd13ifvqe2g","pricing_plan_id":"free"},{"bike_id":"70cd4430-0593-4237-90e3-fc86e3a1c764","system_id":"levelo_inurba_marseille","lat":43.297815,"lon":5.393548,"is_reserved":false,"is_disabled":false,"rental_uris":{"android":"levelo://app?vid=70cd4430-0593-4237-90e3-fc86e3a1c764","ios":"levelo://app?vid=70cd4430-0593-4237-90e3-fc86e3a1c764"},"vehicle_type_id":"4","last_reported":1691276761,"current_range_meters":20000,"station_id":"chh1huq6cuj3fo74tm60","pricing_plan_id":"free"},{"bike_id":"2ed81f45-6bd8-493a-a8be-d39a67edfe78","system_id":"levelo_inurba_marseille","lat":43.289741,"lon":5.378306,"is_reserved":false,"is_disabled":false,"rental_uris":{"android":"levelo://app?vid=2ed81f45-6bd8-493a-a8be-d39a67edfe78","ios":"levelo://app?vid=2ed81f45-6bd8-493a-a8be-d39a67edfe78"},"vehicle_type_id":"4","last_reported":1691276761,"current_range_meters":12400,"station_id":"ce4bh9p2rcd13ifvqed0","pricing_plan_id":"free"},{"bike_id":"7ba1ac26-17a6-4d42-b025-6fb572a93933","system_id":"levelo_inurba_marseille","lat":43.28856,"lon":5.358371,"is_reserved":false,"is_disabled":false,"rental_uris":{"android":"levelo://app?vid=7ba1ac26-17a6-4d42-b025-6fb572a93933","ios":"levelo://app?vid=7ba1ac26-17a6-4d42-b025-6fb572a93933"},"vehicle_type_id":"4","last_reported":1691276761,"current_range_meters":23200,"station_id":"ce4bhb12rcd13ifvqem0","pricing_plan_id":"free"},{"bike_id":"7cd30040-4152-4b33-b1dd-c7214e2b0464","system_id":"levelo_inurba_marseille","lat":43.29012,"lon":5.3815,"is_reserved":false,"is_disabled":false,"rental_uris":{"android":"levelo://app?vid=7cd30040-4152-4b33-b1dd-c7214e2b0464","ios":"levelo://app?vid=7cd30040-4152-4b33-b1dd-c7214e2b0464"},"vehicle_type_id":"4","last_reported":1691276761,"current_range_meters":800,"station_id":"ce4bh4p2rcd13ifvqe1g","pricing_plan_id":"free"},{"bike_id":"d00cca18-e1f8-452d-b8d9-36ee5f883ef8","system_id":"levelo_inurba_marseille","lat":43.28846,"lon":5.35854,"is_reserved":false,"is_disabled":false,"rental_uris":{"android":"levelo://app?vid=d00cca18-e1f8-452d-b8d9-36ee5f883ef8","ios":"levelo://app?vid=d00cca18-e1f8-452d-b8d9-36ee5f883ef8"},"vehicle_type_id":"4","last_reported":1691276761,"current_range_meters":29600,"station_id":"","pricing_plan_id":"free"},{"bike_id":"59faea16-6e4b-4846-98d2-b1324adf1d76","system_id":"levelo_inurba_marseille","lat":43.306412,"lon":5.401035,"is_reserved":false,"is_disabled":false,"rental_uris":{"android":"levelo://app?vid=59faea16-6e4b-4846-98d2-b1324adf1d76","ios":"levelo://app?vid=59faea16-6e4b-4846-98d2-b1324adf1d76"},"vehicle_type_id":"4","last_reported":1691276761,"current_range_meters":4000,"station_id":"ce4bh112rcd13ifvqda0","pricing_plan_id":"free"},{"bike_id":"c7069878-3e01-42ac-a4c3-7b7a0eb893e7","system_id":"levelo_inurba_marseille","lat":43.309371,"lon":5.401449,"is_reserved":false,"is_disabled":false,"rental_uris":{"android":"levelo://app?vid=c7069878-3e01-42ac-a4c3-7b7a0eb893e7","ios":"levelo://app?vid=c7069878-3e01-42ac-a4c3-7b7a0eb893e7"},"vehicle_type_id":"4","last_reported":1691276761,"current_range_meters":2400,"station_id":"ce4bgvp2rcd13ifvqct0","pricing_plan_id":"free"},{"bike_id":"6f0b6a7e-24ef-4dc5-a163-412ff98e69d5","system_id":"levelo_inurba_marseille","lat":43.31265,"lon":5.40186,"is_reserved":false,"is_disabled":false,"rental_uris":{"android":"levelo://app?vid=6f0b6a7e-24ef-4dc5-a163-412ff98e69d5","ios":"levelo://app?vid=6f0b6a7e-24ef-4dc5-a163-412ff98e69d5"},"vehicle_type_id":"4","last_reported":1691276761,"current_range_meters":0,"station_id":"ce4bh092rcd13ifvqd30","pricing_plan_id":"free"},{"bike_id":"d186ee9f-0c20-42ee-bb5c-79a92afbbb9e","system_id":"levelo_inurba_marseille","lat":43.298681,"lon":5.397225,"is_reserved":false,"is_disabled":false,"rental_uris":{"android":"levelo://app?vid=d186ee9f-0c20-42ee-bb5c-79a92afbbb9e","ios":"levelo://app?vid=d186ee9f-0c20-42ee-bb5c-79a92afbbb9e"},"vehicle_type_id":"4","last_reported":1691276761,"current_range_meters":28400,"station_id":"ce4bh0h2rcd13ifvqd50","pricing_plan_id":"free"},{"bike_id":"1c36dda7-527c-4467-963a-5bac0ce4cf4d","system_id":"levelo_inurba_marseille","lat":43.298681,"lon":5.397225,"is_reserved":false,"is_disabled":false,"rental_uris":{"android":"levelo://app?vid=1c36dda7-527c-4467-963a-5bac0ce4cf4d","ios":"levelo://app?vid=1c36dda7-527c-4467-963a-5bac0ce4cf4d"},"vehicle_type_id":"4","last_reported":1691276761,"current_range_meters":30800,"station_id":"ce4bh0h2rcd13ifvqd50","pricing_plan_id":"free"},{"bike_id":"75199276-b705-4ad7-b6a9-49aeaa84628a","system_id":"levelo_inurba_marseille","lat":43.286591,"lon":5.363346,"is_reserved":false,"is_disabled":false,"rental_uris":{"android":"levelo://app?vid=75199276-b705-4ad7-b6a9-49aeaa84628a","ios":"levelo://app?vid=75199276-b705-4ad7-b6a9-49aeaa84628a"},"vehicle_type_id":"4","last_reported":1691276761,"current_range_meters":31200,"station_id":"ce4bhah2rcd13ifvqej0","pricing_plan_id":"free"},{"bike_id":"00a5563b-f888-4d60-9e6c-de6103dc081a","system_id":"levelo_inurba_marseille","lat":43.298681,"lon":5.397225,"is_reserved":false,"is_disabled":false,"rental_uris":{"android":"levelo://app?vid=00a5563b-f888-4d60-9e6c-de6103dc081a","ios":"levelo://app?vid=00a5563b-f888-4d60-9e6c-de6103dc081a"},"vehicle_type_id":"4","last_reported":1691276761,"current_range_meters":7200,"station_id":"ce4bh0h2rcd13ifvqd50","pricing_plan_id":"free"},{"bike_id":"5b931eb0-04ac-4378-bd86-0baa737d30e3","system_id":"levelo_inurba_marseille","lat":43.286961,"lon":5.373785,"is_reserved":false,"is_disabled":false,"rental_uris":{"android":"levelo://app?vid=5b931eb0-04ac-4378-bd86-0baa737d30e3","ios":"levelo://app?vid=5b931eb0-04ac-4378-bd86-0baa737d30e3"},"vehicle_type_id":"4","last_reported":1691276761,"current_range_meters":31600,"station_id":"ce4bh3p2rcd13ifvqdq0","pricing_plan_id":"free"},{"bike_id":"1d71d7d5-c455-4a7e-a603-6f45ab8cee52","system_id":"levelo_inurba_marseille","lat":43.302759,"lon":5.400793,"is_reserved":false,"is_disabled":false,"rental_uris":{"android":"levelo://app?vid=1d71d7d5-c455-4a7e-a603-6f45ab8cee52","ios":"levelo://app?vid=1d71d7d5-c455-4a7e-a603-6f45ab8cee52"},"vehicle_type_id":"4","last_reported":1691276761,"current_range_meters":0,"station_id":"ce4bgvh2rcd13ifvqcs0","pricing_plan_id":"free"},{"bike_id":"e1208c0b-dd54-49a7-9f07-54e70b20c1cd","system_id":"levelo_inurba_marseille","lat":43.302759,"lon":5.400793,"is_reserved":false,"is_disabled":false,"rental_uris":{"android":"levelo://app?vid=e1208c0b-dd54-49a7-9f07-54e70b20c1cd","ios":"levelo://app?vid=e1208c0b-dd54-49a7-9f07-54e70b20c1cd"},"vehicle_type_id":"4","last_reported":1691276761,"current_range_meters":6800,"station_id":"ce4bgvh2rcd13ifvqcs0","pricing_plan_id":"free"},{"bike_id":"7b9e2d57-7c2f-4652-8ec0-ee4d147afe24","system_id":"levelo_inurba_marseille","lat":43.302548,"lon":5.400568,"is_reserved":false,"is_disabled":false,"rental_uris":{"android":"levelo://app?vid=7b9e2d57-7c2f-4652-8ec0-ee4d147afe24","ios":"levelo://app?vid=7b9e2d57-7c2f-4652-8ec0-ee4d147afe24"},"vehicle_type_id":"4","last_reported":1691276761,"current_range_meters":9200,"station_id":"","pricing_plan_id":"free"},{"bike_id":"dc65feb0-a77e-4f6b-aeea-2f2a1d8db4cc","system_id":"levelo_inurba_marseille","lat":43.29025,"lon":5.38643,"is_reserved":false,"is_disabled":false,"rental_uris":{"android":"levelo://app?vid=dc65feb0-a77e-4f6b-aeea-2f2a1d8db4cc","ios":"levelo://app?vid=dc65feb0-a77e-4f6b-aeea-2f2a1d8db4cc"},"vehicle_type_id":"4","last_reported":1691276761,"current_range_meters":25200,"station_id":"ce4bh4p2rcd13ifvqe0g","pricing_plan_id":"free"},{"bike_id":"9bad5d98-793c-44d0-adc3-b0b7a4e685bf","system_id":"levelo_inurba_marseille","lat":43.302759,"lon":5.400793,"is_reserved":false,"is_disabled":false,"rental_uris":{"android":"levelo://app?vid=9bad5d98-793c-44d0-adc3-b0b7a4e685bf","ios":"levelo://app?vid=9bad5d98-793c-44d0-adc3-b0b7a4e685bf"},"vehicle_type_id":"4","last_reported":1691276761,"current_range_meters":25600,"station_id":"ce4bgvh2rcd13ifvqcs0","pricing_plan_id":"free"},{"bike_id":"4e406a78-90db-4d4a-ae25-b37bf5980fbe","system_id":"levelo_inurba_marseille","lat":43.290336,"lon":5.386425,"is_reserved":false,"is_disabled":false,"rental_uris":{"android":"levelo://app?vid=4e406a78-90db-4d4a-ae25-b37bf5980fbe","ios":"levelo://app?vid=4e406a78-90db-4d4a-ae25-b37bf5980fbe"},"vehicle_type_id":"4","last_reported":1691276761,"current_range_meters":31600,"station_id":"ce4bh4p2rcd13ifvqe0g","pricing_plan_id":"free"},{"bike_id":"6a4ba4e6-2428-477c-9be3-959f2d0639cd","system_id":"levelo_inurba_marseille","lat":43.302759,"lon":5.400793,"is_reserved":false,"is_disabled":false,"rental_uris":{"android":"levelo://app?vid=6a4ba4e6-2428-477c-9be3-959f2d0639cd","ios":"levelo://app?vid=6a4ba4e6-2428-477c-9be3-959f2d0639cd"},"vehicle_type_id":"4","last_reported":1691276761,"current_range_meters":0,"station_id":"ce4bgvh2rcd13ifvqcs0","pricing_plan_id":"free"},{"bike_id":"0e8af9e0-979d-4465-9c6a-9ae2efd44c34","system_id":"levelo_inurba_marseille","lat":43.302759,"lon":5.400793,"is_reserved":false,"is_disabled":false,"rental_uris":{"android":"levelo://app?vid=0e8af9e0-979d-4465-9c6a-9ae2efd44c34","ios":"levelo://app?vid=0e8af9e0-979d-4465-9c6a-9ae2efd44c34"},"vehicle_type_id":"4","last_reported":1691276761,"current_range_meters":4800,"station_id":"ce4bgvh2rcd13ifvqcs0","pricing_plan_id":"free"},{"bike_id":"86364951-0d5a-4978-a0ed-93b25f2e7cae","system_id":"levelo_inurba_marseille","lat":43.290336,"lon":5.386425,"is_reserved":false,"is_disabled":false,"rental_uris":{"android":"levelo://app?vid=86364951-0d5a-4978-a0ed-93b25f2e7cae","ios":"levelo://app?vid=86364951-0d5a-4978-a0ed-93b25f2e7cae"},"vehicle_type_id":"4","last_reported":1691276761,"current_range_meters":30800,"station_id":"ce4bh4p2rcd13ifvqe0g","pricing_plan_id":"free"},{"bike_id":"d0a0565a-8ba1-4570-acea-2f5266376318","system_id":"levelo_inurba_marseille","lat":43.287184,"lon":5.37937,"is_reserved":false,"is_disabled":false,"rental_uris":{"android":"levelo://app?vid=d0a0565a-8ba1-4570-acea-2f5266376318","ios":"levelo://app?vid=d0a0565a-8ba1-4570-acea-2f5266376318"},"vehicle_type_id":"4","last_reported":1691276761,"current_range_meters":10000,"station_id":"ce4bh9p2rcd13ifvqec0","pricing_plan_id":"free"},{"bike_id":"ee8e2d37-85d1-4d14-a895-cd1cc85cae52","system_id":"levelo_inurba_marseille","lat":43.287185,"lon":5.379373,"is_reserved":false,"is_disabled":false,"rental_uris":{"android":"levelo://app?vid=ee8e2d37-85d1-4d14-a895-cd1cc85cae52","ios":"levelo://app?vid=ee8e2d37-85d1-4d14-a895-cd1cc85cae52"},"vehicle_type_id":"4","last_reported":1691276761,"current_range_meters":31200,"station_id":"ce4bh9p2rcd13ifvqec0","pricing_plan_id":"free"},{"bike_id":"76fcf537-e932-4c1b-bb16-5723b7a62547","system_id":"levelo_inurba_marseille","lat":43.287185,"lon":5.379373,"is_reserved":false,"is_disabled":false,"rental_uris":{"android":"levelo://app?vid=76fcf537-e932-4c1b-bb16-5723b7a62547","ios":"levelo://app?vid=76fcf537-e932-4c1b-bb16-5723b7a62547"},"vehicle_type_id":"4","last_reported":1691276761,"current_range_meters":23600,"station_id":"ce4bh9p2rcd13ifvqec0","pricing_plan_id":"free"},{"bike_id":"5e57bb74-cce3-4948-b27a-3a96af0e5833","system_id":"levelo_inurba_marseille","lat":43.291994,"lon":5.392907,"is_reserved":false,"is_disabled":false,"rental_uris":{"android":"levelo://app?vid=5e57bb74-cce3-4948-b27a-3a96af0e5833","ios":"levelo://app?vid=5e57bb74-cce3-4948-b27a-3a96af0e5833"},"vehicle_type_id":"4","last_reported":1691276761,"current_range_meters":29200,"station_id":"ce4bh192rcd13ifvqdd0","pricing_plan_id":"free"},{"bike_id":"e85777b9-2c85-4b24-a914-bdf725451723","system_id":"levelo_inurba_marseille","lat":43.284538,"lon":5.358657,"is_reserved":false,"is_disabled":false,"rental_uris":{"android":"levelo://app?vid=e85777b9-2c85-4b24-a914-bdf725451723","ios":"levelo://app?vid=e85777b9-2c85-4b24-a914-bdf725451723"},"vehicle_type_id":"4","last_reported":1691276761,"current_range_meters":0,"station_id":"ce4bhah2rcd13ifvqei0","pricing_plan_id":"free"},{"bike_id":"e38507b1-c65f-412e-8c7d-3ae28dfcf60f","system_id":"levelo_inurba_marseille","lat":43.284538,"lon":5.358657,"is_reserved":false,"is_disabled":false,"rental_uris":{"android":"levelo://app?vid=e38507b1-c65f-412e-8c7d-3ae28dfcf60f","ios":"levelo://app?vid=e38507b1-c65f-412e-8c7d-3ae28dfcf60f"},"vehicle_type_id":"4","last_reported":1691276761,"current_range_meters":4800,"station_id":"ce4bhah2rcd13ifvqei0","pricing_plan_id":"free"},{"bike_id":"14bf830d-c8ef-45cd-9e51-8e37eadd5778","system_id":"levelo_inurba_marseille","lat":43.284534,"lon":5.358662,"is_reserved":false,"is_disabled":false,"rental_uris":{"android":"levelo://app?vid=14bf830d-c8ef-45cd-9e51-8e37eadd5778","ios":"levelo://app?vid=14bf830d-c8ef-45cd-9e51-8e37eadd5778"},"vehicle_type_id":"4","last_reported":1691276761,"current_range_meters":28000,"station_id":"ce4bhah2rcd13ifvqei0","pricing_plan_id":"free"},{"bike_id":"7b78d55e-e99c-4fa7-968a-c672d6912f00","system_id":"levelo_inurba_marseille","lat":43.284534,"lon":5.358662,"is_reserved":false,"is_disabled":false,"rental_uris":{"android":"levelo://app?vid=7b78d55e-e99c-4fa7-968a-c672d6912f00","ios":"levelo://app?vid=7b78d55e-e99c-4fa7-968a-c672d6912f00"},"vehicle_type_id":"4","last_reported":1691276761,"current_range_meters":31600,"station_id":"ce4bhah2rcd13ifvqei0","pricing_plan_id":"free"},{"bike_id":"1e9e48e3-0499-497b-a2da-a7b1fd9e1aac","system_id":"levelo_inurba_marseille","lat":43.294314,"lon":5.397498,"is_reserved":false,"is_disabled":false,"rental_uris":{"android":"levelo://app?vid=1e9e48e3-0499-497b-a2da-a7b1fd9e1aac","ios":"levelo://app?vid=1e9e48e3-0499-497b-a2da-a7b1fd9e1aac"},"vehicle_type_id":"4","last_reported":1691276761,"current_range_meters":28400,"station_id":"ce4bh3h2rcd13ifvqdo0","pricing_plan_id":"free"},{"bike_id":"31cd5f0c-be53-43ec-bcb5-5ca74c6518a4","system_id":"levelo_inurba_marseille","lat":43.284534,"lon":5.358662,"is_reserved":false,"is_disabled":false,"rental_uris":{"android":"levelo://app?vid=31cd5f0c-be53-43ec-bcb5-5ca74c6518a4","ios":"levelo://app?vid=31cd5f0c-be53-43ec-bcb5-5ca74c6518a4"},"vehicle_type_id":"4","last_reported":1691276761,"current_range_meters":18400,"station_id":"ce4bhah2rcd13ifvqei0","pricing_plan_id":"free"},{"bike_id":"79cedb3a-a601-4ec3-a2de-fc35273e6eee","system_id":"levelo_inurba_marseille","lat":43.294314,"lon":5.397498,"is_reserved":false,"is_disabled":false,"rental_uris":{"android":"levelo://app?vid=79cedb3a-a601-4ec3-a2de-fc35273e6eee","ios":"levelo://app?vid=79cedb3a-a601-4ec3-a2de-fc35273e6eee"},"vehicle_type_id":"4","last_reported":1691276761,"current_range_meters":28400,"station_id":"ce4bh3h2rcd13ifvqdo0","pricing_plan_id":"free"},{"bike_id":"2706098a-7918-4427-9048-6734f89dc26b","system_id":"levelo_inurba_marseille","lat":43.28609,"lon":5.35106,"is_reserved":false,"is_disabled":false,"rental_uris":{"android":"levelo://app?vid=2706098a-7918-4427-9048-6734f89dc26b","ios":"levelo://app?vid=2706098a-7918-4427-9048-6734f89dc26b"},"vehicle_type_id":"4","last_reported":1691276761,"current_range_meters":0,"station_id":"ce4bhch2rcd13ifvqeug","pricing_plan_id":"free"},{"bike_id":"f71ac8d7-e7f1-49e9-a213-1e5886f25cd1","system_id":"levelo_inurba_marseille","lat":43.286595,"lon":5.386795,"is_reserved":false,"is_disabled":false,"rental_uris":{"android":"levelo://app?vid=f71ac8d7-e7f1-49e9-a213-1e5886f25cd1","ios":"levelo://app?vid=f71ac8d7-e7f1-49e9-a213-1e5886f25cd1"},"vehicle_type_id":"4","last_reported":1691276761,"current_range_meters":4800,"station_id":"ce4bh492rcd13ifvqdug","pricing_plan_id":"free"},{"bike_id":"13439a7c-3646-4e56-934d-75e8c1574743","system_id":"levelo_inurba_marseille","lat":43.31884,"lon":5.40723,"is_reserved":false,"is_disabled":false,"rental_uris":{"android":"levelo://app?vid=13439a7c-3646-4e56-934d-75e8c1574743","ios":"levelo://app?vid=13439a7c-3646-4e56-934d-75e8c1574743"},"vehicle_type_id":"4","last_reported":1691276761,"current_range_meters":0,"station_id":"","pricing_plan_id":"free"},{"bike_id":"46ca6d87-ff29-4073-81e2-fe6b336bb33b","system_id":"levelo_inurba_marseille","lat":43.31877,"lon":5.40742,"is_reserved":false,"is_disabled":false,"rental_uris":{"android":"levelo://app?vid=46ca6d87-ff29-4073-81e2-fe6b336bb33b","ios":"levelo://app?vid=46ca6d87-ff29-4073-81e2-fe6b336bb33b"},"vehicle_type_id":"4","last_reported":1691276761,"current_range_meters":8400,"station_id":"ce4bhq12rcd13ifvqhig","pricing_plan_id":"free"},{"bike_id":"f18b4051-8145-4f33-aee1-6f539e29d721","system_id":"levelo_inurba_marseille","lat":43.33709,"lon":5.39185,"is_reserved":false,"is_disabled":false,"rental_uris":{"android":"levelo://app?vid=f18b4051-8145-4f33-aee1-6f539e29d721","ios":"levelo://app?vid=f18b4051-8145-4f33-aee1-6f539e29d721"},"vehicle_type_id":"4","last_reported":1691276761,"current_range_meters":28800,"station_id":"ce4bhr92rcd13ifvqhsg","pricing_plan_id":"free"},{"bike_id":"1f5722b0-5667-43f6-9dad-3a3b818c5a69","system_id":"levelo_inurba_marseille","lat":43.337168,"lon":5.391825,"is_reserved":false,"is_disabled":false,"rental_uris":{"android":"levelo://app?vid=1f5722b0-5667-43f6-9dad-3a3b818c5a69","ios":"levelo://app?vid=1f5722b0-5667-43f6-9dad-3a3b818c5a69"},"vehicle_type_id":"4","last_reported":1691276761,"current_range_meters":25200,"station_id":"ce4bhr92rcd13ifvqhsg","pricing_plan_id":"free"},{"bike_id":"8e4ab4c7-b2dc-4e74-b07d-1ff49a416721","system_id":"levelo_inurba_marseille","lat":43.33713,"lon":5.39181,"is_reserved":false,"is_disabled":false,"rental_uris":{"android":"levelo://app?vid=8e4ab4c7-b2dc-4e74-b07d-1ff49a416721","ios":"levelo://app?vid=8e4ab4c7-b2dc-4e74-b07d-1ff49a416721"},"vehicle_type_id":"4","last_reported":1691276761,"current_range_meters":12400,"station_id":"ce4bhr92rcd13ifvqhsg","pricing_plan_id":"free"},{"bike_id":"c59f30af-b7c9-4762-b544-56156d6a8a97","system_id":"levelo_inurba_marseille","lat":43.33712,"lon":5.39187,"is_reserved":false,"is_disabled":false,"rental_uris":{"android":"levelo://app?vid=c59f30af-b7c9-4762-b544-56156d6a8a97","ios":"levelo://app?vid=c59f30af-b7c9-4762-b544-56156d6a8a97"},"vehicle_type_id":"4","last_reported":1691276761,"current_range_meters":16000,"station_id":"ce4bhr92rcd13ifvqhsg","pricing_plan_id":"free"},{"bike_id":"c09b5daa-f708-45a8-b32c-23101564ac3a","system_id":"levelo_inurba_marseille","lat":43.337168,"lon":5.391825,"is_reserved":false,"is_disabled":false,"rental_uris":{"android":"levelo://app?vid=c09b5daa-f708-45a8-b32c-23101564ac3a","ios":"levelo://app?vid=c09b5daa-f708-45a8-b32c-23101564ac3a"},"vehicle_type_id":"4","last_reported":1691276761,"current_range_meters":28800,"station_id":"ce4bhr92rcd13ifvqhsg","pricing_plan_id":"free"},{"bike_id":"3e563380-a985-451c-801d-2783d7714294","system_id":"levelo_inurba_marseille","lat":43.337168,"lon":5.391825,"is_reserved":false,"is_disabled":false,"rental_uris":{"android":"levelo://app?vid=3e563380-a985-451c-801d-2783d7714294","ios":"levelo://app?vid=3e563380-a985-451c-801d-2783d7714294"},"vehicle_type_id":"4","last_reported":1691276761,"current_range_meters":29200,"station_id":"ce4bhr92rcd13ifvqhsg","pricing_plan_id":"free"},{"bike_id":"9ed5c8cd-5716-467d-9a0b-e5002dcb5a2c","system_id":"levelo_inurba_marseille","lat":43.33714,"lon":5.39191,"is_reserved":false,"is_disabled":false,"rental_uris":{"android":"levelo://app?vid=9ed5c8cd-5716-467d-9a0b-e5002dcb5a2c","ios":"levelo://app?vid=9ed5c8cd-5716-467d-9a0b-e5002dcb5a2c"},"vehicle_type_id":"4","last_reported":1691276761,"current_range_meters":24000,"station_id":"ce4bhr92rcd13ifvqhsg","pricing_plan_id":"free"},{"bike_id":"65e7209e-43de-4472-85bf-edccad84c81f","system_id":"levelo_inurba_marseille","lat":43.33714,"lon":5.39192,"is_reserved":false,"is_disabled":false,"rental_uris":{"android":"levelo://app?vid=65e7209e-43de-4472-85bf-edccad84c81f","ios":"levelo://app?vid=65e7209e-43de-4472-85bf-edccad84c81f"},"vehicle_type_id":"4","last_reported":1691276761,"current_range_meters":20000,"station_id":"ce4bhr92rcd13ifvqhsg","pricing_plan_id":"free"},{"bike_id":"a9671d69-2a62-4abb-9d98-78ee12b6b2d8","system_id":"levelo_inurba_marseille","lat":43.33719,"lon":5.39185,"is_reserved":false,"is_disabled":false,"rental_uris":{"android":"levelo://app?vid=a9671d69-2a62-4abb-9d98-78ee12b6b2d8","ios":"levelo://app?vid=a9671d69-2a62-4abb-9d98-78ee12b6b2d8"},"vehicle_type_id":"4","last_reported":1691276761,"current_range_meters":27600,"station_id":"ce4bhr92rcd13ifvqhsg","pricing_plan_id":"free"},{"bike_id":"e738aeff-38af-43b6-b02b-eeb93b6490b5","system_id":"levelo_inurba_marseille","lat":43.323464,"lon":5.406297,"is_reserved":false,"is_disabled":false,"rental_uris":{"android":"levelo://app?vid=e738aeff-38af-43b6-b02b-eeb93b6490b5","ios":"levelo://app?vid=e738aeff-38af-43b6-b02b-eeb93b6490b5"},"vehicle_type_id":"4","last_reported":1691276761,"current_range_meters":28800,"station_id":"ce4bhq92rcd13ifvqhjg","pricing_plan_id":"free"},{"bike_id":"9d8dc018-8295-487e-aae9-79ce0f469cdf","system_id":"levelo_inurba_marseille","lat":43.33717,"lon":5.39191,"is_reserved":false,"is_disabled":false,"rental_uris":{"android":"levelo://app?vid=9d8dc018-8295-487e-aae9-79ce0f469cdf","ios":"levelo://app?vid=9d8dc018-8295-487e-aae9-79ce0f469cdf"},"vehicle_type_id":"4","last_reported":1691276761,"current_range_meters":18400,"station_id":"ce4bhr92rcd13ifvqhsg","pricing_plan_id":"free"},{"bike_id":"c18f778a-412b-4e65-93bd-c84b43f31b06","system_id":"levelo_inurba_marseille","lat":43.33723,"lon":5.3918,"is_reserved":false,"is_disabled":false,"rental_uris":{"android":"levelo://app?vid=c18f778a-412b-4e65-93bd-c84b43f31b06","ios":"levelo://app?vid=c18f778a-412b-4e65-93bd-c84b43f31b06"},"vehicle_type_id":"4","last_reported":1691276761,"current_range_meters":29600,"station_id":"ce4bhr92rcd13ifvqhsg","pricing_plan_id":"free"},{"bike_id":"c6937acb-b485-41c7-83a8-bd9e296823ad","system_id":"levelo_inurba_marseille","lat":43.323464,"lon":5.406297,"is_reserved":false,"is_disabled":false,"rental_uris":{"android":"levelo://app?vid=c6937acb-b485-41c7-83a8-bd9e296823ad","ios":"levelo://app?vid=c6937acb-b485-41c7-83a8-bd9e296823ad"},"vehicle_type_id":"4","last_reported":1691276761,"current_range_meters":28400,"station_id":"ce4bhq92rcd13ifvqhjg","pricing_plan_id":"free"},{"bike_id":"df82d2f9-f688-4670-ac84-3e543122cedb","system_id":"levelo_inurba_marseille","lat":43.33724,"lon":5.39184,"is_reserved":false,"is_disabled":false,"rental_uris":{"android":"levelo://app?vid=df82d2f9-f688-4670-ac84-3e543122cedb","ios":"levelo://app?vid=df82d2f9-f688-4670-ac84-3e543122cedb"},"vehicle_type_id":"4","last_reported":1691276761,"current_range_meters":26400,"station_id":"ce4bhr92rcd13ifvqhsg","pricing_plan_id":"free"},{"bike_id":"e65494e0-d3c7-4810-9c29-a550d7a2a693","system_id":"levelo_inurba_marseille","lat":43.323464,"lon":5.406297,"is_reserved":false,"is_disabled":false,"rental_uris":{"android":"levelo://app?vid=e65494e0-d3c7-4810-9c29-a550d7a2a693","ios":"levelo://app?vid=e65494e0-d3c7-4810-9c29-a550d7a2a693"},"vehicle_type_id":"4","last_reported":1691276761,"current_range_meters":31200,"station_id":"ce4bhq92rcd13ifvqhjg","pricing_plan_id":"free"},{"bike_id":"808c5695-fc54-4673-a74e-32d02609499e","system_id":"levelo_inurba_marseille","lat":43.32341,"lon":5.40625,"is_reserved":false,"is_disabled":false,"rental_uris":{"android":"levelo://app?vid=808c5695-fc54-4673-a74e-32d02609499e","ios":"levelo://app?vid=808c5695-fc54-4673-a74e-32d02609499e"},"vehicle_type_id":"4","last_reported":1691276761,"current_range_meters":18000,"station_id":"ce4bhq92rcd13ifvqhjg","pricing_plan_id":"free"},{"bike_id":"dbada9f9-e33c-4a7d-ab43-1cac4e571e70","system_id":"levelo_inurba_marseille","lat":43.2849,"lon":5.38432,"is_reserved":false,"is_disabled":false,"rental_uris":{"android":"levelo://app?vid=dbada9f9-e33c-4a7d-ab43-1cac4e571e70","ios":"levelo://app?vid=dbada9f9-e33c-4a7d-ab43-1cac4e571e70"},"vehicle_type_id":"4","last_reported":1691276761,"current_range_meters":27600,"station_id":"ce4bh512rcd13ifvqe3g","pricing_plan_id":"free"},{"bike_id":"06648830-649e-470d-a228-52e31d8f83dc","system_id":"levelo_inurba_marseille","lat":43.284793,"lon":5.384113,"is_reserved":false,"is_disabled":false,"rental_uris":{"android":"levelo://app?vid=06648830-649e-470d-a228-52e31d8f83dc","ios":"levelo://app?vid=06648830-649e-470d-a228-52e31d8f83dc"},"vehicle_type_id":"4","last_reported":1691276761,"current_range_meters":10400,"station_id":"ce4bh512rcd13ifvqe3g","pricing_plan_id":"free"},{"bike_id":"95a5296f-48d0-4165-b662-be8bf648b331","system_id":"levelo_inurba_marseille","lat":43.284793,"lon":5.384113,"is_reserved":false,"is_disabled":false,"rental_uris":{"android":"levelo://app?vid=95a5296f-48d0-4165-b662-be8bf648b331","ios":"levelo://app?vid=95a5296f-48d0-4165-b662-be8bf648b331"},"vehicle_type_id":"4","last_reported":1691276761,"current_range_meters":27600,"station_id":"ce4bh512rcd13ifvqe3g","pricing_plan_id":"free"},{"bike_id":"3b75b442-50d0-4c8d-ba11-0b2b7134a919","system_id":"levelo_inurba_marseille","lat":43.288501,"lon":5.393087,"is_reserved":false,"is_disabled":false,"rental_uris":{"android":"levelo://app?vid=3b75b442-50d0-4c8d-ba11-0b2b7134a919","ios":"levelo://app?vid=3b75b442-50d0-4c8d-ba11-0b2b7134a919"},"vehicle_type_id":"4","last_reported":1691276761,"current_range_meters":21600,"station_id":"ce4bh2p2rcd13ifvqdi0","pricing_plan_id":"free"},{"bike_id":"16c5ca6e-5eb4-4289-8a69-91bdfae57c64","system_id":"levelo_inurba_marseille","lat":43.29786,"lon":5.40399,"is_reserved":false,"is_disabled":false,"rental_uris":{"android":"levelo://app?vid=16c5ca6e-5eb4-4289-8a69-91bdfae57c64","ios":"levelo://app?vid=16c5ca6e-5eb4-4289-8a69-91bdfae57c64"},"vehicle_type_id":"4","last_reported":1691276761,"current_range_meters":27200,"station_id":"","pricing_plan_id":"free"},{"bike_id":"b0b47aa7-4721-4c31-8004-b7a536195487","system_id":"levelo_inurba_marseille","lat":43.288497,"lon":5.393089,"is_reserved":false,"is_disabled":false,"rental_uris":{"android":"levelo://app?vid=b0b47aa7-4721-4c31-8004-b7a536195487","ios":"levelo://app?vid=b0b47aa7-4721-4c31-8004-b7a536195487"},"vehicle_type_id":"4","last_reported":1691276761,"current_range_meters":18000,"station_id":"ce4bh2p2rcd13ifvqdi0","pricing_plan_id":"free"},{"bike_id":"af9a279b-1dd2-4ce7-be2d-b42627f343dd","system_id":"levelo_inurba_marseille","lat":43.288501,"lon":5.393087,"is_reserved":false,"is_disabled":false,"rental_uris":{"android":"levelo://app?vid=af9a279b-1dd2-4ce7-be2d-b42627f343dd","ios":"levelo://app?vid=af9a279b-1dd2-4ce7-be2d-b42627f343dd"},"vehicle_type_id":"4","last_reported":1691276761,"current_range_meters":11600,"station_id":"ce4bh2p2rcd13ifvqdi0","pricing_plan_id":"free"},{"bike_id":"e585e9e5-87c3-4d72-8f14-9c5e7ffbc985","system_id":"levelo_inurba_marseille","lat":43.29792,"lon":5.40405,"is_reserved":false,"is_disabled":false,"rental_uris":{"android":"levelo://app?vid=e585e9e5-87c3-4d72-8f14-9c5e7ffbc985","ios":"levelo://app?vid=e585e9e5-87c3-4d72-8f14-9c5e7ffbc985"},"vehicle_type_id":"4","last_reported":1691276761,"current_range_meters":30400,"station_id":"","pricing_plan_id":"free"},{"bike_id":"efbc5f57-ff6a-477e-bea2-ac5b3a36528c","system_id":"levelo_inurba_marseille","lat":43.29793,"lon":5.4041,"is_reserved":false,"is_disabled":false,"rental_uris":{"android":"levelo://app?vid=efbc5f57-ff6a-477e-bea2-ac5b3a36528c","ios":"levelo://app?vid=efbc5f57-ff6a-477e-bea2-ac5b3a36528c"},"vehicle_type_id":"4","last_reported":1691276761,"current_range_meters":18800,"station_id":"","pricing_plan_id":"free"},{"bike_id":"4c77c00f-4b65-4418-9ba2-42ca10b2a1c5","system_id":"levelo_inurba_marseille","lat":43.29785,"lon":5.40408,"is_reserved":false,"is_disabled":false,"rental_uris":{"android":"levelo://app?vid=4c77c00f-4b65-4418-9ba2-42ca10b2a1c5","ios":"levelo://app?vid=4c77c00f-4b65-4418-9ba2-42ca10b2a1c5"},"vehicle_type_id":"4","last_reported":1691276761,"current_range_meters":0,"station_id":"","pricing_plan_id":"free"},{"bike_id":"54e648bb-cd38-4bdf-bbd2-34066b717908","system_id":"levelo_inurba_marseille","lat":43.288501,"lon":5.393087,"is_reserved":false,"is_disabled":false,"rental_uris":{"android":"levelo://app?vid=54e648bb-cd38-4bdf-bbd2-34066b717908","ios":"levelo://app?vid=54e648bb-cd38-4bdf-bbd2-34066b717908"},"vehicle_type_id":"4","last_reported":1691276761,"current_range_meters":12400,"station_id":"ce4bh2p2rcd13ifvqdi0","pricing_plan_id":"free"},{"bike_id":"3b411f9e-0a40-4a86-9333-37cf3d0994db","system_id":"levelo_inurba_marseille","lat":43.28851,"lon":5.39322,"is_reserved":false,"is_disabled":false,"rental_uris":{"android":"levelo://app?vid=3b411f9e-0a40-4a86-9333-37cf3d0994db","ios":"levelo://app?vid=3b411f9e-0a40-4a86-9333-37cf3d0994db"},"vehicle_type_id":"4","last_reported":1691276761,"current_range_meters":10400,"station_id":"ce4bh2p2rcd13ifvqdi0","pricing_plan_id":"free"},{"bike_id":"9a2a1fa4-b577-4944-a8d9-7f67a8f9ca81","system_id":"levelo_inurba_marseille","lat":43.29789,"lon":5.40416,"is_reserved":false,"is_disabled":false,"rental_uris":{"android":"levelo://app?vid=9a2a1fa4-b577-4944-a8d9-7f67a8f9ca81","ios":"levelo://app?vid=9a2a1fa4-b577-4944-a8d9-7f67a8f9ca81"},"vehicle_type_id":"4","last_reported":1691276761,"current_range_meters":0,"station_id":"","pricing_plan_id":"free"},{"bike_id":"0bc61f32-88af-49fb-afbc-8d03900a178d","system_id":"levelo_inurba_marseille","lat":43.289363,"lon":5.396322,"is_reserved":false,"is_disabled":false,"rental_uris":{"android":"levelo://app?vid=0bc61f32-88af-49fb-afbc-8d03900a178d","ios":"levelo://app?vid=0bc61f32-88af-49fb-afbc-8d03900a178d"},"vehicle_type_id":"4","last_reported":1691276761,"current_range_meters":29200,"station_id":"ce4bh3h2rcd13ifvqdn0","pricing_plan_id":"free"},{"bike_id":"56926164-117a-49df-bd26-b55755db4e62","system_id":"levelo_inurba_marseille","lat":43.289363,"lon":5.396322,"is_reserved":false,"is_disabled":false,"rental_uris":{"android":"levelo://app?vid=56926164-117a-49df-bd26-b55755db4e62","ios":"levelo://app?vid=56926164-117a-49df-bd26-b55755db4e62"},"vehicle_type_id":"4","last_reported":1691276761,"current_range_meters":6000,"station_id":"ce4bh3h2rcd13ifvqdn0","pricing_plan_id":"free"},{"bike_id":"fc8be55f-4a37-4593-887b-4a1e073172f1","system_id":"levelo_inurba_marseille","lat":43.289363,"lon":5.396322,"is_reserved":false,"is_disabled":false,"rental_uris":{"android":"levelo://app?vid=fc8be55f-4a37-4593-887b-4a1e073172f1","ios":"levelo://app?vid=fc8be55f-4a37-4593-887b-4a1e073172f1"},