{"last_updated":1704114509,"ttl":30,"version":"2.2","data":{"bikes":[{"bike_id":"7d85abb0-786c-454d-939c-3f7819b2c5c6","system_id":"levelo_inurba_marseille","lat":43.31341,"lon":5.367098,"is_reserved":false,"is_disabled":false,"rental_uris":{"android":"levelo://app?vid=7d85abb0-786c-454d-939c-3f7819b2c5c6","ios":"levelo://app?vid=7d85abb0-786c-454d-939c-3f7819b2c5c6"},"vehicle_type_id":"4","last_reported":1704114509,"current_range_meters":31200,"station_id":"ce4bgr92rcd13ifvqc6g","pricing_plan_id":"free"},{"bike_id":"c6e2cb3b-f0cc-41d4-879f-afa5d49ab922","system_id":"levelo_inurba_marseille","lat":43.31342,"lon":5.36713,"is_reserved":false,"is_disabled":false,"rental_uris":{"android":"levelo://app?vid=c6e2cb3b-f0cc-41d4-879f-afa5d49ab922","ios":"levelo://app?vid=c6e2cb3b-f0cc-41d4-879f-afa5d49ab922"},"vehicle_type_id":"4","last_reported":1704114509,"current_range_meters":16800,"station_id":"ce4bgr92rcd13ifvqc6g","pricing_plan_id":"free"},{"bike_id":"19681d20-0e94-4d95-bd6e-75843e212133","system_id":"levelo_inurba_marseille","lat":43.313391,"lon":5.36706,"is_reserved":false,"is_disabled":false,"rental_uris":{"android":"levelo://app?vid=19681d20-0e94-4d95-bd6e-75843e212133","ios":"levelo://app?vid=19681d20-0e94-4d95-bd6e-75843e212133"},"vehicle_type_id":"4","last_reported":1704114509,"current_range_meters":29600,"station_id":"ce4bgr92rcd13ifvqc6g","pricing_plan_id":"free"},{"bike_id":"ba3aba46-f07f-46b5-a5d6-23b5891b61b4","system_id":"levelo_inurba_marseille","lat":43.313391,"lon":5.36706,"is_reserved":false,"is_disabled":false,"rental_uris":{"android":"levelo://app?vid=ba3aba46-f07f-46b5-a5d6-23b5891b61b4","ios":"levelo://app?vid=ba3aba46-f07f-46b5-a5d6-23b5891b61b4"},"vehicle_type_id":"4","last_reported":1704114509,"current_range_meters":25200,"station_id":"ce4bgr92rcd13ifvqc6g","pricing_plan_id":"free"},{"bike_id":"3d0c4403-5c9c-41f7-b424-8f0b0b359a4c","system_id":"levelo_inurba_marseille","lat":43.313568,"lon":5.36705,"is_reserved":false,"is_disabled":false,"rental_uris":{"android":"levelo://app?vid=3d0c4403-5c9c-41f7-b424-8f0b0b359a4c","ios":"levelo://app?vid=3d0c4403-5c9c-41f7-b424-8f0b0b359a4c"},"vehicle_type_id":"4","last_reported":1704114509,"current_range_meters":20800,"station_id":"ce4bgr92rcd13ifvqc6g","pricing_plan_id":"free"},{"bike_id":"3bbb99a6-6792-4d4b-9365-1a426cbfd232","system_id":"levelo_inurba_marseille","lat":43.312239,"lon":5.368562,"is_reserved":false,"is_disabled":false,"rental_uris":{"android":"levelo://app?vid=3bbb99a6-6792-4d4b-9365-1a426cbfd232","ios":"levelo://app?vid=3bbb99a6-6792-4d4b-9365-1a426cbfd232"},"vehicle_type_id":"4","last_reported":1704114509,"current_range_meters":31200,"station_id":"ce4bgl92rcd13ifvqbq0","pricing_plan_id":"free"},{"bike_id":"ca1a2f80-c148-4275-9e43-15a4b219baf7","system_id":"levelo_inurba_marseille","lat":43.312239,"lon":5.368562,"is_reserved":false,"is_disabled":false,"rental_uris":{"android":"levelo://app?vid=ca1a2f80-c148-4275-9e43-15a4b219baf7","ios":"levelo://app?vid=ca1a2f80-c148-4275-9e43-15a4b219baf7"},"vehicle_type_id":"4","last_reported":1704114509,"current_range_meters":27600,"station_id":"ce4bgl92rcd13ifvqbq0","pricing_plan_id":"free"},{"bike_id":"affd8422-1e8f-435e-9c76-83a90c1e8401","system_id":"levelo_inurba_marseille","lat":43.309076,"lon":5.368465,"is_reserved":false,"is_disabled":false,"rental_uris":{"android":"levelo://app?vid=affd8422-1e8f-435e-9c76-83a90c1e8401","ios":"levelo://app?vid=affd8422-1e8f-435e-9c76-83a90c1e8401"},"vehicle_type_id":"4","last_reported":1704114509,"current_range_meters":28800,"station_id":"ce4bgn92rcd13ifvqbvg","pricing_plan_id":"free"},{"bike_id":"db6a9a99-bb38-42a2-90d2-f9ffe179c9df","system_id":"levelo_inurba_marseille","lat":43.309076,"lon":5.368465,"is_reserved":false,"is_disabled":false,"rental_uris":{"android":"levelo://app?vid=db6a9a99-bb38-42a2-90d2-f9ffe179c9df","ios":"levelo://app?vid=db6a9a99-bb38-42a2-90d2-f9ffe179c9df"},"vehicle_type_id":"4","last_reported":1704114509,"current_range_meters":29200,"station_id":"ce4bgn92rcd13ifvqbvg","pricing_plan_id":"free"},{"bike_id":"c8db761f-a274-4a11-905d-fd913fd3fbe4","system_id":"levelo_inurba_marseille","lat":43.309039,"lon":5.371797,"is_reserved":false,"is_disabled":false,"rental_uris":{"android":"levelo://app?vid=c8db761f-a274-4a11-905d-fd913fd3fbe4","ios":"levelo://app?vid=c8db761f-a274-4a11-905d-fd913fd3fbe4"},"vehicle_type_id":"4","last_reported":1704114509,"current_range_meters":28000,"station_id":"ce4bguh2rcd13ifvqckg","pricing_plan_id":"free"},{"bike_id":"42450fe8-f2b8-4fb9-b545-2a9a74f93631","system_id":"levelo_inurba_marseille","lat":43.30547,"lon":5.36696,"is_reserved":false,"is_disabled":false,"rental_uris":{"android":"levelo://app?vid=42450fe8-f2b8-4fb9-b545-2a9a74f93631","ios":"levelo://app?vid=42450fe8-f2b8-4fb9-b545-2a9a74f93631"},"vehicle_type_id":"4","last_reported":1704114509,"current_range_meters":30800,"station_id":"ce4bgrp2rcd13ifvqc9g","pricing_plan_id":"free"},{"bike_id":"6cc10ba3-514e-4b87-b859-081a0f2df958","system_id":"levelo_inurba_marseille","lat":43.305706,"lon":5.365654,"is_reserved":false,"is_disabled":false,"rental_uris":{"android":"levelo://app?vid=6cc10ba3-514e-4b87-b859-081a0f2df958","ios":"levelo://app?vid=6cc10ba3-514e-4b87-b859-081a0f2df958"},"vehicle_type_id":"4","last_reported":1704114509,"current_range_meters":23600,"station_id":"ce4bgs12rcd13ifvqcag","pricing_plan_id":"free"},{"bike_id":"0b0374b1-b960-44fa-bee2-e7a2095e4b4a","system_id":"levelo_inurba_marseille","lat":43.305989,"lon":5.37225,"is_reserved":false,"is_disabled":false,"rental_uris":{"android":"levelo://app?vid=0b0374b1-b960-44fa-bee2-e7a2095e4b4a","ios":"levelo://app?vid=0b0374b1-b960-44fa-bee2-e7a2095e4b4a"},"vehicle_type_id":"4","last_reported":1704114509,"current_range_meters":26000,"station_id":"ce4bgqh2rcd13ifvqc4g","pricing_plan_id":"free"},{"bike_id":"03b1aba5-9053-4841-b35c-a1c6c142dedc","system_id":"levelo_inurba_marseille","lat":43.305989,"lon":5.37225,"is_reserved":false,"is_disabled":false,"rental_uris":{"android":"levelo://app?vid=03b1aba5-9053-4841-b35c-a1c6c142dedc","ios":"levelo://app?vid=03b1aba5-9053-4841-b35c-a1c6c142dedc"},"vehicle_type_id":"4","last_reported":1704114509,"current_range_meters":11200,"station_id":"ce4bgqh2rcd13ifvqc4g","pricing_plan_id":"free"},{"bike_id":"5a35c6dd-93b2-49f7-9a6e-ea28ee09d459","system_id":"levelo_inurba_marseille","lat":43.311131,"lon":5.377651,"is_reserved":false,"is_disabled":false,"rental_uris":{"android":"levelo://app?vid=5a35c6dd-93b2-49f7-9a6e-ea28ee09d459","ios":"levelo://app?vid=5a35c6dd-93b2-49f7-9a6e-ea28ee09d459"},"vehicle_type_id":"4","last_reported":1704114509,"current_range_meters":23600,"station_id":"ce4bgt92rcd13ifvqcg0","pricing_plan_id":"free"},{"bike_id":"d14979d8-4199-447e-94f6-8c249d32fc0b","system_id":"levelo_inurba_marseille","lat":43.311131,"lon":5.377651,"is_reserved":false,"is_disabled":false,"rental_uris":{"android":"levelo://app?vid=d14979d8-4199-447e-94f6-8c249d32fc0b","ios":"levelo://app?vid=d14979d8-4199-447e-94f6-8c249d32fc0b"},"vehicle_type_id":"4","last_reported":1704114509,"current_range_meters":26000,"station_id":"ce4bgt92rcd13ifvqcg0","pricing_plan_id":"free"},{"bike_id":"f1e2f895-4515-4440-a539-d2bab6501ed8","system_id":"levelo_inurba_marseille","lat":43.3185,"lon":5.37488,"is_reserved":false,"is_disabled":false,"rental_uris":{"android":"levelo://app?vid=f1e2f895-4515-4440-a539-d2bab6501ed8","ios":"levelo://app?vid=f1e2f895-4515-4440-a539-d2bab6501ed8"},"vehicle_type_id":"4","last_reported":1704114509,"current_range_meters":24400,"station_id":"","pricing_plan_id":"free"},{"bike_id":"25af9e1c-886c-4f64-92f2-5ca68e46ae4a","system_id":"levelo_inurba_marseille","lat":43.31722,"lon":5.37668,"is_reserved":false,"is_disabled":false,"rental_uris":{"android":"levelo://app?vid=25af9e1c-886c-4f64-92f2-5ca68e46ae4a","ios":"levelo://app?vid=25af9e1c-886c-4f64-92f2-5ca68e46ae4a"},"vehicle_type_id":"4","last_reported":1704114509,"current_range_meters":18400,"station_id":"","pricing_plan_id":"free"},{"bike_id":"9562ff48-d419-4823-8046-dbc3804806ec","system_id":"levelo_inurba_marseille","lat":43.317075,"lon":5.377367,"is_reserved":false,"is_disabled":false,"rental_uris":{"android":"levelo://app?vid=9562ff48-d419-4823-8046-dbc3804806ec","ios":"levelo://app?vid=9562ff48-d419-4823-8046-dbc3804806ec"},"vehicle_type_id":"4","last_reported":1704114509,"current_range_meters":11200,"station_id":"ce4bgth2rcd13ifvqch0","pricing_plan_id":"free"},{"bike_id":"64a93320-b6f7-4f00-82e1-5c71938933c4","system_id":"levelo_inurba_marseille","lat":43.31648,"lon":5.37786,"is_reserved":false,"is_disabled":false,"rental_uris":{"android":"levelo://app?vid=64a93320-b6f7-4f00-82e1-5c71938933c4","ios":"levelo://app?vid=64a93320-b6f7-4f00-82e1-5c71938933c4"},"vehicle_type_id":"4","last_reported":1704114509,"current_range_meters":18800,"station_id":"","pricing_plan_id":"free"},{"bike_id":"6759b468-3c38-4b4c-a579-9699accac102","system_id":"levelo_inurba_marseille","lat":43.317075,"lon":5.377367,"is_reserved":false,"is_disabled":false,"rental_uris":{"android":"levelo://app?vid=6759b468-3c38-4b4c-a579-9699accac102","ios":"levelo://app?vid=6759b468-3c38-4b4c-a579-9699accac102"},"vehicle_type_id":"4","last_reported":1704114509,"current_range_meters":30400,"station_id":"ce4bgth2rcd13ifvqch0","pricing_plan_id":"free"},{"bike_id":"761ff3b2-3e67-4a1c-aef7-0f5b8de7113a","system_id":"levelo_inurba_marseille","lat":43.317075,"lon":5.377367,"is_reserved":false,"is_disabled":false,"rental_uris":{"android":"levelo://app?vid=761ff3b2-3e67-4a1c-aef7-0f5b8de7113a","ios":"levelo://app?vid=761ff3b2-3e67-4a1c-aef7-0f5b8de7113a"},"vehicle_type_id":"4","last_reported":1704114509,"current_range_meters":31200,"station_id":"ce4bgth2rcd13ifvqch0","pricing_plan_id":"free"},{"bike_id":"c750d365-3247-411d-836f-4d697ad14eb9","system_id":"levelo_inurba_marseille","lat":43.317075,"lon":5.377367,"is_reserved":false,"is_disabled":false,"rental_uris":{"android":"levelo://app?vid=c750d365-3247-411d-836f-4d697ad14eb9","ios":"levelo://app?vid=c750d365-3247-411d-836f-4d697ad14eb9"},"vehicle_type_id":"4","last_reported":1704114509,"current_range_meters":27600,"station_id":"ce4bgth2rcd13ifvqch0","pricing_plan_id":"free"},{"bike_id":"f9629841-191f-476b-93cd-f6e8fe2a1929","system_id":"levelo_inurba_marseille","lat":43.30304,"lon":5.368987,"is_reserved":false,"is_disabled":false,"rental_uris":{"android":"levelo://app?vid=f9629841-191f-476b-93cd-f6e8fe2a1929","ios":"levelo://app?vid=f9629841-191f-476b-93cd-f6e8fe2a1929"},"vehicle_type_id":"4","last_reported":1704114509,"current_range_meters":24800,"station_id":"ce4bgqh2rcd13ifvqc5g","pricing_plan_id":"free"},{"bike_id":"2eee3bee-8a58-4598-b69c-08fea2289695","system_id":"levelo_inurba_marseille","lat":43.315293,"lon":5.380349,"is_reserved":false,"is_disabled":false,"rental_uris":{"android":"levelo://app?vid=2eee3bee-8a58-4598-b69c-08fea2289695","ios":"levelo://app?vid=2eee3bee-8a58-4598-b69c-08fea2289695"},"vehicle_type_id":"4","last_reported":1704114509,"current_range_meters":400,"station_id":"ce4bhsp2rcd13ifvqi50","pricing_plan_id":"free"},{"bike_id":"dffc2115-7fb4-446b-a125-f242d4063b8a","system_id":"levelo_inurba_marseille","lat":43.304708,"lon":5.379039,"is_reserved":false,"is_disabled":false,"rental_uris":{"android":"levelo://app?vid=dffc2115-7fb4-446b-a125-f242d4063b8a","ios":"levelo://app?vid=dffc2115-7fb4-446b-a125-f242d4063b8a"},"vehicle_type_id":"4","last_reported":1704114509,"current_range_meters":14800,"station_id":"","pricing_plan_id":"free"},{"bike_id":"244b7a28-31ef-4f7e-95ef-df7ae37026bb","system_id":"levelo_inurba_marseille","lat":43.304606,"lon":5.379026,"is_reserved":false,"is_disabled":false,"rental_uris":{"android":"levelo://app?vid=244b7a28-31ef-4f7e-95ef-df7ae37026bb","ios":"levelo://app?vid=244b7a28-31ef-4f7e-95ef-df7ae37026bb"},"vehicle_type_id":"4","last_reported":1704114509,"current_range_meters":8800,"station_id":"ce4bgup2rcd13ifvqcn0","pricing_plan_id":"free"},{"bike_id":"0fa95b86-441b-4a55-ac4f-81e2da763eb3","system_id":"levelo_inurba_marseille","lat":43.304606,"lon":5.379026,"is_reserved":false,"is_disabled":false,"rental_uris":{"android":"levelo://app?vid=0fa95b86-441b-4a55-ac4f-81e2da763eb3","ios":"levelo://app?vid=0fa95b86-441b-4a55-ac4f-81e2da763eb3"},"vehicle_type_id":"4","last_reported":1704114509,"current_range_meters":21200,"station_id":"ce4bgup2rcd13ifvqcn0","pricing_plan_id":"free"},{"bike_id":"79f0d8a4-334f-4f3c-a8df-bf0b7ddfd4c9","system_id":"levelo_inurba_marseille","lat":43.324769,"lon":5.365612,"is_reserved":false,"is_disabled":false,"rental_uris":{"android":"levelo://app?vid=79f0d8a4-334f-4f3c-a8df-bf0b7ddfd4c9","ios":"levelo://app?vid=79f0d8a4-334f-4f3c-a8df-bf0b7ddfd4c9"},"vehicle_type_id":"4","last_reported":1704114509,"current_range_meters":6400,"station_id":"","pricing_plan_id":"free"},{"bike_id":"901e2f23-3886-40c2-ab76-d766d9b87d55","system_id":"levelo_inurba_marseille","lat":43.304606,"lon":5.379026,"is_reserved":false,"is_disabled":false,"rental_uris":{"android":"levelo://app?vid=901e2f23-3886-40c2-ab76-d766d9b87d55","ios":"levelo://app?vid=901e2f23-3886-40c2-ab76-d766d9b87d55"},"vehicle_type_id":"4","last_reported":1704114509,"current_range_meters":22400,"station_id":"ce4bgup2rcd13ifvqcn0","pricing_plan_id":"free"},{"bike_id":"92ee0dcb-b929-4f63-994f-6a3bf0d92887","system_id":"levelo_inurba_marseille","lat":43.302773,"lon":5.376955,"is_reserved":false,"is_disabled":false,"rental_uris":{"android":"levelo://app?vid=92ee0dcb-b929-4f63-994f-6a3bf0d92887","ios":"levelo://app?vid=92ee0dcb-b929-4f63-994f-6a3bf0d92887"},"vehicle_type_id":"4","last_reported":1704114509,"current_range_meters":20000,"station_id":"ce4bguh2rcd13ifvqcj0","pricing_plan_id":"free"},{"bike_id":"37654fee-c31e-4e93-a13c-b8fb11c15bab","system_id":"levelo_inurba_marseille","lat":43.302788,"lon":5.377027,"is_reserved":false,"is_disabled":false,"rental_uris":{"android":"levelo://app?vid=37654fee-c31e-4e93-a13c-b8fb11c15bab","ios":"levelo://app?vid=37654fee-c31e-4e93-a13c-b8fb11c15bab"},"vehicle_type_id":"4","last_reported":1704114509,"current_range_meters":29600,"station_id":"ce4bguh2rcd13ifvqcj0","pricing_plan_id":"free"},{"bike_id":"12cc3e03-e48b-4f30-bfc9-f1b37a6da005","system_id":"levelo_inurba_marseille","lat":43.302786,"lon":5.377039,"is_reserved":false,"is_disabled":false,"rental_uris":{"android":"levelo://app?vid=12cc3e03-e48b-4f30-bfc9-f1b37a6da005","ios":"levelo://app?vid=12cc3e03-e48b-4f30-bfc9-f1b37a6da005"},"vehicle_type_id":"4","last_reported":1704114509,"current_range_meters":30800,"station_id":"ce4bguh2rcd13ifvqcj0","pricing_plan_id":"free"},{"bike_id":"e5ac500f-347d-4738-9f78-69a034f8f7b5","system_id":"levelo_inurba_marseille","lat":43.301429,"lon":5.37413,"is_reserved":false,"is_disabled":false,"rental_uris":{"android":"levelo://app?vid=e5ac500f-347d-4738-9f78-69a034f8f7b5","ios":"levelo://app?vid=e5ac500f-347d-4738-9f78-69a034f8f7b5"},"vehicle_type_id":"4","last_reported":1704114509,"current_range_meters":25600,"station_id":"ce4bgs92rcd13ifvqcc0","pricing_plan_id":"free"},{"bike_id":"f18cc076-8a82-454c-a0b6-b91750edb727","system_id":"levelo_inurba_marseille","lat":43.301429,"lon":5.37413,"is_reserved":false,"is_disabled":false,"rental_uris":{"android":"levelo://app?vid=f18cc076-8a82-454c-a0b6-b91750edb727","ios":"levelo://app?vid=f18cc076-8a82-454c-a0b6-b91750edb727"},"vehicle_type_id":"4","last_reported":1704114509,"current_range_meters":29600,"station_id":"ce4bgs92rcd13ifvqcc0","pricing_plan_id":"free"},{"bike_id":"cfb2809c-3c47-4f5c-8162-b420c80fc7f2","system_id":"levelo_inurba_marseille","lat":43.301429,"lon":5.37413,"is_reserved":false,"is_disabled":false,"rental_uris":{"android":"levelo://app?vid=cfb2809c-3c47-4f5c-8162-b420c80fc7f2","ios":"levelo://app?vid=cfb2809c-3c47-4f5c-8162-b420c80fc7f2"},"vehicle_type_id":"4","last_reported":1704114509,"current_range_meters":26400,"station_id":"ce4bgs92rcd13ifvqcc0","pricing_plan_id":"free"},{"bike_id":"f1c4a9f6-f95e-4244-be32-9b3daec9f8d4","system_id":"levelo_inurba_marseille","lat":43.319935,"lon":5.381699,"is_reserved":false,"is_disabled":false,"rental_uris":{"android":"levelo://app?vid=f1c4a9f6-f95e-4244-be32-9b3daec9f8d4","ios":"levelo://app?vid=f1c4a9f6-f95e-4244-be32-9b3daec9f8d4"},"vehicle_type_id":"4","last_reported":1704114509,"current_range_meters":25600,"station_id":"ce4bhr12rcd13ifvqhpg","pricing_plan_id":"free"},{"bike_id":"e5fdbe24-fe46-4af2-9a3a-16bfaf243f2f","system_id":"levelo_inurba_marseille","lat":43.299724,"lon":5.371829,"is_reserved":false,"is_disabled":false,"rental_uris":{"android":"levelo://app?vid=e5fdbe24-fe46-4af2-9a3a-16bfaf243f2f","ios":"levelo://app?vid=e5fdbe24-fe46-4af2-9a3a-16bfaf243f2f"},"vehicle_type_id":"4","last_reported":1704114509,"current_range_meters":27200,"station_id":"ce4bgr92rcd13ifvqc7g","pricing_plan_id":"free"},{"bike_id":"d2f46944-3d93-4514-883e-df5ea60414b5","system_id":"levelo_inurba_marseille","lat":43.299724,"lon":5.371829,"is_reserved":false,"is_disabled":false,"rental_uris":{"android":"levelo://app?vid=d2f46944-3d93-4514-883e-df5ea60414b5","ios":"levelo://app?vid=d2f46944-3d93-4514-883e-df5ea60414b5"},"vehicle_type_id":"4","last_reported":1704114509,"current_range_meters":26800,"station_id":"ce4bgr92rcd13ifvqc7g","pricing_plan_id":"free"},{"bike_id":"5a7b6f71-2a1a-475e-9087-fdbf7ac8818b","system_id":"levelo_inurba_marseille","lat":43.29985,"lon":5.37447,"is_reserved":false,"is_disabled":false,"rental_uris":{"android":"levelo://app?vid=5a7b6f71-2a1a-475e-9087-fdbf7ac8818b","ios":"levelo://app?vid=5a7b6f71-2a1a-475e-9087-fdbf7ac8818b"},"vehicle_type_id":"4","last_reported":1704114509,"current_range_meters":22800,"station_id":"","pricing_plan_id":"free"},{"bike_id":"780ee5f1-910b-467a-8854-eaa59c4d7da4","system_id":"levelo_inurba_marseille","lat":43.299243,"lon":5.37481,"is_reserved":false,"is_disabled":false,"rental_uris":{"android":"levelo://app?vid=780ee5f1-910b-467a-8854-eaa59c4d7da4","ios":"levelo://app?vid=780ee5f1-910b-467a-8854-eaa59c4d7da4"},"vehicle_type_id":"4","last_reported":1704114509,"current_range_meters":23200,"station_id":"ce4bgjh2rcd13ifvqbg0","pricing_plan_id":"free"},{"bike_id":"2bf60407-530f-4b3d-a805-d579d8ce56a6","system_id":"levelo_inurba_marseille","lat":43.297794,"lon":5.370888,"is_reserved":false,"is_disabled":false,"rental_uris":{"android":"levelo://app?vid=2bf60407-530f-4b3d-a805-d579d8ce56a6","ios":"levelo://app?vid=2bf60407-530f-4b3d-a805-d579d8ce56a6"},"vehicle_type_id":"4","last_reported":1704114509,"current_range_meters":8400,"station_id":"ce4bgop2rcd13ifvqc1g","pricing_plan_id":"free"},{"bike_id":"3c9bf24c-b538-4eae-99f5-9903fe75c815","system_id":"levelo_inurba_marseille","lat":43.322872,"lon":5.382756,"is_reserved":false,"is_disabled":false,"rental_uris":{"android":"levelo://app?vid=3c9bf24c-b538-4eae-99f5-9903fe75c815","ios":"levelo://app?vid=3c9bf24c-b538-4eae-99f5-9903fe75c815"},"vehicle_type_id":"4","last_reported":1704114509,"current_range_meters":7600,"station_id":"ce4bhr12rcd13ifvqhqg","pricing_plan_id":"free"},{"bike_id":"7dacb968-7456-46f9-98a4-1c1aa118f5e2","system_id":"levelo_inurba_marseille","lat":43.322822,"lon":5.382716,"is_reserved":false,"is_disabled":false,"rental_uris":{"android":"levelo://app?vid=7dacb968-7456-46f9-98a4-1c1aa118f5e2","ios":"levelo://app?vid=7dacb968-7456-46f9-98a4-1c1aa118f5e2"},"vehicle_type_id":"4","last_reported":1704114509,"current_range_meters":21600,"station_id":"ce4bhr12rcd13ifvqhqg","pricing_plan_id":"free"},{"bike_id":"ae1a334f-34c4-413e-b897-8b7e99b8f031","system_id":"levelo_inurba_marseille","lat":43.322872,"lon":5.382756,"is_reserved":false,"is_disabled":false,"rental_uris":{"android":"levelo://app?vid=ae1a334f-34c4-413e-b897-8b7e99b8f031","ios":"levelo://app?vid=ae1a334f-34c4-413e-b897-8b7e99b8f031"},"vehicle_type_id":"4","last_reported":1704114509,"current_range_meters":30400,"station_id":"ce4bhr12rcd13ifvqhqg","pricing_plan_id":"free"},{"bike_id":"7892f7ad-391a-4b01-9629-9863c77731a1","system_id":"levelo_inurba_marseille","lat":43.32288,"lon":5.38273,"is_reserved":false,"is_disabled":false,"rental_uris":{"android":"levelo://app?vid=7892f7ad-391a-4b01-9629-9863c77731a1","ios":"levelo://app?vid=7892f7ad-391a-4b01-9629-9863c77731a1"},"vehicle_type_id":"4","last_reported":1704114509,"current_range_meters":30400,"station_id":"ce4bhr12rcd13ifvqhqg","pricing_plan_id":"free"},{"bike_id":"a814d147-e775-45a2-b5cb-60efdd10d17b","system_id":"levelo_inurba_marseille","lat":43.322872,"lon":5.382756,"is_reserved":false,"is_disabled":false,"rental_uris":{"android":"levelo://app?vid=a814d147-e775-45a2-b5cb-60efdd10d17b","ios":"levelo://app?vid=a814d147-e775-45a2-b5cb-60efdd10d17b"},"vehicle_type_id":"4","last_reported":1704114509,"current_range_meters":31200,"station_id":"ce4bhr12rcd13ifvqhqg","pricing_plan_id":"free"},{"bike_id":"a677cd10-a09b-4b2e-bffd-45b05d2c9229","system_id":"levelo_inurba_marseille","lat":43.32814,"lon":5.36677,"is_reserved":false,"is_disabled":false,"rental_uris":{"android":"levelo://app?vid=a677cd10-a09b-4b2e-bffd-45b05d2c9229","ios":"levelo://app?vid=a677cd10-a09b-4b2e-bffd-45b05d2c9229"},"vehicle_type_id":"4","last_reported":1704114509,"current_range_meters":30400,"station_id":"ce4bhs92rcd13ifvqi0g","pricing_plan_id":"free"},{"bike_id":"ea7074d7-b7c9-4941-82c2-dff391bae9cb","system_id":"levelo_inurba_marseille","lat":43.32816,"lon":5.36691,"is_reserved":false,"is_disabled":false,"rental_uris":{"android":"levelo://app?vid=ea7074d7-b7c9-4941-82c2-dff391bae9cb","ios":"levelo://app?vid=ea7074d7-b7c9-4941-82c2-dff391bae9cb"},"vehicle_type_id":"4","last_reported":1704114509,"current_range_meters":20800,"station_id":"ce4bhs92rcd13ifvqi0g","pricing_plan_id":"free"},{"bike_id":"3406ac08-144e-419c-8a8c-9c89910b5b78","system_id":"levelo_inurba_marseille","lat":43.328248,"lon":5.36683,"is_reserved":false,"is_disabled":false,"rental_uris":{"android":"levelo://app?vid=3406ac08-144e-419c-8a8c-9c89910b5b78","ios":"levelo://app?vid=3406ac08-144e-419c-8a8c-9c89910b5b78"},"vehicle_type_id":"4","last_reported":1704114509,"current_range_meters":22800,"station_id":"ce4bhs92rcd13ifvqi0g","pricing_plan_id":"free"},{"bike_id":"777e7b6f-5840-4b9c-afcf-288933a9c0d9","system_id":"levelo_inurba_marseille","lat":43.328371,"lon":5.366909,"is_reserved":false,"is_disabled":false,"rental_uris":{"android":"levelo://app?vid=777e7b6f-5840-4b9c-afcf-288933a9c0d9","ios":"levelo://app?vid=777e7b6f-5840-4b9c-afcf-288933a9c0d9"},"vehicle_type_id":"4","last_reported":1704114509,"current_range_meters":24400,"station_id":"ce4bhs92rcd13ifvqi0g","pricing_plan_id":"free"},{"bike_id":"8233d320-3015-483d-9317-9f5ea8045c87","system_id":"levelo_inurba_marseille","lat":43.3283,"lon":5.36692,"is_reserved":false,"is_disabled":false,"rental_uris":{"android":"levelo://app?vid=8233d320-3015-483d-9317-9f5ea8045c87","ios":"levelo://app?vid=8233d320-3015-483d-9317-9f5ea8045c87"},"vehicle_type_id":"4","last_reported":1704114509,"current_range_meters":7200,"station_id":"","pricing_plan_id":"free"},{"bike_id":"a5291874-f635-43ed-9c4e-b592f5564ee1","system_id":"levelo_inurba_marseille","lat":43.328371,"lon":5.366909,"is_reserved":false,"is_disabled":false,"rental_uris":{"android":"levelo://app?vid=a5291874-f635-43ed-9c4e-b592f5564ee1","ios":"levelo://app?vid=a5291874-f635-43ed-9c4e-b592f5564ee1"},"vehicle_type_id":"4","last_reported":1704114509,"current_range_meters":31200,"station_id":"ce4bhs92rcd13ifvqi0g","pricing_plan_id":"free"},{"bike_id":"370cccf7-c9ba-46c2-819b-c8e8cacc4c21","system_id":"levelo_inurba_marseille","lat":43.3277,"lon":5.37458,"is_reserved":false,"is_disabled":false,"rental_uris":{"android":"levelo://app?vid=370cccf7-c9ba-46c2-819b-c8e8cacc4c21","ios":"levelo://app?vid=370cccf7-c9ba-46c2-819b-c8e8cacc4c21"},"vehicle_type_id":"4","last_reported":1704114509,"current_range_meters":12800,"station_id":"","pricing_plan_id":"free"},{"bike_id":"0da83f97-81ff-4e6c-9ada-1e19d8c19e59","system_id":"levelo_inurba_marseille","lat":43.296131,"lon":5.370791,"is_reserved":false,"is_disabled":false,"rental_uris":{"android":"levelo://app?vid=0da83f97-81ff-4e6c-9ada-1e19d8c19e59","ios":"levelo://app?vid=0da83f97-81ff-4e6c-9ada-1e19d8c19e59"},"vehicle_type_id":"4","last_reported":1704114509,"current_range_meters":22800,"station_id":"ce4bgnh2rcd13ifvqc0g","pricing_plan_id":"free"},{"bike_id":"0a2168e4-75c2-4654-88dc-edae0a032af1","system_id":"levelo_inurba_marseille","lat":43.296921,"lon":5.376579,"is_reserved":false,"is_disabled":false,"rental_uris":{"android":"levelo://app?vid=0a2168e4-75c2-4654-88dc-edae0a032af1","ios":"levelo://app?vid=0a2168e4-75c2-4654-88dc-edae0a032af1"},"vehicle_type_id":"4","last_reported":1704114509,"current_range_meters":18400,"station_id":"ce4bgkh2rcd13ifvqbl0","pricing_plan_id":"free"},{"bike_id":"902be998-f214-4d87-8512-d9cefe43daef","system_id":"levelo_inurba_marseille","lat":43.298037,"lon":5.381066,"is_reserved":false,"is_disabled":false,"rental_uris":{"android":"levelo://app?vid=902be998-f214-4d87-8512-d9cefe43daef","ios":"levelo://app?vid=902be998-f214-4d87-8512-d9cefe43daef"},"vehicle_type_id":"4","last_reported":1704114509,"current_range_meters":22400,"station_id":"ce4bgip2rcd13ifvqbb0","pricing_plan_id":"free"},{"bike_id":"8a13bdb4-d184-45c7-ba7f-8bf4abf60718","system_id":"levelo_inurba_marseille","lat":43.29801,"lon":5.3811,"is_reserved":false,"is_disabled":false,"rental_uris":{"android":"levelo://app?vid=8a13bdb4-d184-45c7-ba7f-8bf4abf60718","ios":"levelo://app?vid=8a13bdb4-d184-45c7-ba7f-8bf4abf60718"},"vehicle_type_id":"4","last_reported":1704114509,"current_range_meters":18000,"station_id":"ce4bgip2rcd13ifvqbb0","pricing_plan_id":"free"},{"bike_id":"e09da197-f57b-4f9d-a31a-1e223f6a3327","system_id":"levelo_inurba_marseille","lat":43.295748,"lon":5.37522,"is_reserved":false,"is_disabled":false,"rental_uris":{"android":"levelo://app?vid=e09da197-f57b-4f9d-a31a-1e223f6a3327","ios":"levelo://app?vid=e09da197-f57b-4f9d-a31a-1e223f6a3327"},"vehicle_type_id":"4","last_reported":1704114509,"current_range_meters":23200,"station_id":"ce4bgh92rcd13ifvqb50","pricing_plan_id":"free"},{"bike_id":"5d47c011-cb5d-4409-a14e-6709a9e8085a","system_id":"levelo_inurba_marseille","lat":43.295748,"lon":5.37522,"is_reserved":false,"is_disabled":false,"rental_uris":{"android":"levelo://app?vid=5d47c011-cb5d-4409-a14e-6709a9e8085a","ios":"levelo://app?vid=5d47c011-cb5d-4409-a14e-6709a9e8085a"},"vehicle_type_id":"4","last_reported":1704114509,"current_range_meters":6800,"station_id":"ce4bgh92rcd13ifvqb50","pricing_plan_id":"free"},{"bike_id":"d60802d6-4f47-444a-b234-883690eec05b","system_id":"levelo_inurba_marseille","lat":43.33062,"lon":5.3627,"is_reserved":false,"is_disabled":false,"rental_uris":{"android":"levelo://app?vid=d60802d6-4f47-444a-b234-883690eec05b","ios":"levelo://app?vid=d60802d6-4f47-444a-b234-883690eec05b"},"vehicle_type_id":"4","last_reported":1704114509,"current_range_meters":19600,"station_id":"","pricing_plan_id":"free"},{"bike_id":"3646b904-2993-47a8-97a7-c7463934569d","system_id":"levelo_inurba_marseille","lat":43.304278,"lon":5.388868,"is_reserved":false,"is_disabled":false,"rental_uris":{"android":"levelo://app?vid=3646b904-2993-47a8-97a7-c7463934569d","ios":"levelo://app?vid=3646b904-2993-47a8-97a7-c7463934569d"},"vehicle_type_id":"4","last_reported":1704114509,"current_range_meters":11200,"station_id":"ce4bgk12rcd13ifvqbi0","pricing_plan_id":"free"},{"bike_id":"451ccb35-b991-46b3-a7ee-faa611990b81","system_id":"levelo_inurba_marseille","lat":43.304274,"lon":5.388873,"is_reserved":false,"is_disabled":false,"rental_uris":{"android":"levelo://app?vid=451ccb35-b991-46b3-a7ee-faa611990b81","ios":"levelo://app?vid=451ccb35-b991-46b3-a7ee-faa611990b81"},"vehicle_type_id":"4","last_reported":1704114509,"current_range_meters":20800,"station_id":"ce4bgk12rcd13ifvqbi0","pricing_plan_id":"free"},{"bike_id":"7119845d-00aa-4d9f-be8c-fc97d41f1380","system_id":"levelo_inurba_marseille","lat":43.297594,"lon":5.381134,"is_reserved":false,"is_disabled":false,"rental_uris":{"android":"levelo://app?vid=7119845d-00aa-4d9f-be8c-fc97d41f1380","ios":"levelo://app?vid=7119845d-00aa-4d9f-be8c-fc97d41f1380"},"vehicle_type_id":"4","last_reported":1704114509,"current_range_meters":8000,"station_id":"ce4bgip2rcd13ifvqbb0","pricing_plan_id":"free"},{"bike_id":"9f88d8d3-bf18-4e0a-8dd7-c95b6c3c82fa","system_id":"levelo_inurba_marseille","lat":43.299724,"lon":5.384848,"is_reserved":false,"is_disabled":false,"rental_uris":{"android":"levelo://app?vid=9f88d8d3-bf18-4e0a-8dd7-c95b6c3c82fa","ios":"levelo://app?vid=9f88d8d3-bf18-4e0a-8dd7-c95b6c3c82fa"},"vehicle_type_id":"4","last_reported":1704114509,"current_range_meters":25600,"station_id":"ce4bgj92rcd13ifvqbd0","pricing_plan_id":"free"},{"bike_id":"fbe9cf4d-5756-4294-b6ea-069aba55d2fb","system_id":"levelo_inurba_marseille","lat":43.32367,"lon":5.388836,"is_reserved":false,"is_disabled":false,"rental_uris":{"android":"levelo://app?vid=fbe9cf4d-5756-4294-b6ea-069aba55d2fb","ios":"levelo://app?vid=fbe9cf4d-5756-4294-b6ea-069aba55d2fb"},"vehicle_type_id":"4","last_reported":1704114509,"current_range_meters":30000,"station_id":"ce4bhqp2rcd13ifvqhog","pricing_plan_id":"free"},{"bike_id":"ee91654d-1784-4d01-aef0-3b9ff15de3bc","system_id":"levelo_inurba_marseille","lat":43.293009,"lon":5.374584,"is_reserved":false,"is_disabled":false,"rental_uris":{"android":"levelo://app?vid=ee91654d-1784-4d01-aef0-3b9ff15de3bc","ios":"levelo://app?vid=ee91654d-1784-4d01-aef0-3b9ff15de3bc"},"vehicle_type_id":"4","last_reported":1704114509,"current_range_meters":20000,"station_id":"ce4bgi12rcd13ifvqb70","pricing_plan_id":"free"},{"bike_id":"07ab5a33-7b1a-4960-96c4-c399972a5041","system_id":"levelo_inurba_marseille","lat":43.2936,"lon":5.37835,"is_reserved":false,"is_disabled":false,"rental_uris":{"android":"levelo://app?vid=07ab5a33-7b1a-4960-96c4-c399972a5041","ios":"levelo://app?vid=07ab5a33-7b1a-4960-96c4-c399972a5041"},"vehicle_type_id":"4","last_reported":1704114509,"current_range_meters":5600,"station_id":"ce4bgjh2rcd13ifvqbf0","pricing_plan_id":"free"},{"bike_id":"044725cd-7e51-447b-8f52-120027858a3c","system_id":"levelo_inurba_marseille","lat":43.292311,"lon":5.360731,"is_reserved":false,"is_disabled":false,"rental_uris":{"android":"levelo://app?vid=044725cd-7e51-447b-8f52-120027858a3c","ios":"levelo://app?vid=044725cd-7e51-447b-8f52-120027858a3c"},"vehicle_type_id":"4","last_reported":1704114509,"current_range_meters":29600,"station_id":"ce4bhbh2rcd13ifvqeqg","pricing_plan_id":"free"},{"bike_id":"85c62656-bf62-40a0-bd60-83e932cd4057","system_id":"levelo_inurba_marseille","lat":43.300852,"lon":5.390859,"is_reserved":false,"is_disabled":false,"rental_uris":{"android":"levelo://app?vid=85c62656-bf62-40a0-bd60-83e932cd4057","ios":"levelo://app?vid=85c62656-bf62-40a0-bd60-83e932cd4057"},"vehicle_type_id":"4","last_reported":1704114509,"current_range_meters":4800,"station_id":"ce4bh192rcd13ifvqdb0","pricing_plan_id":"free"},{"bike_id":"6f5f96e8-53cb-4943-bb66-758664911add","system_id":"levelo_inurba_marseille","lat":43.291994,"lon":5.357886,"is_reserved":false,"is_disabled":false,"rental_uris":{"android":"levelo://app?vid=6f5f96e8-53cb-4943-bb66-758664911add","ios":"levelo://app?vid=6f5f96e8-53cb-4943-bb66-758664911add"},"vehicle_type_id":"4","last_reported":1704114509,"current_range_meters":28000,"station_id":"ce4bhb12rcd13ifvqel0","pricing_plan_id":"free"},{"bike_id":"4b2ba33c-7cdc-4277-b145-13f7259e024e","system_id":"levelo_inurba_marseille","lat":43.291994,"lon":5.357886,"is_reserved":false,"is_disabled":false,"rental_uris":{"android":"levelo://app?vid=4b2ba33c-7cdc-4277-b145-13f7259e024e","ios":"levelo://app?vid=4b2ba33c-7cdc-4277-b145-13f7259e024e"},"vehicle_type_id":"4","last_reported":1704114509,"current_range_meters":23600,"station_id":"ce4bhb12rcd13ifvqel0","pricing_plan_id":"free"},{"bike_id":"ff7ecb3b-4925-4d39-b5b2-3523c1706e57","system_id":"levelo_inurba_marseille","lat":43.291994,"lon":5.357886,"is_reserved":false,"is_disabled":false,"rental_uris":{"android":"levelo://app?vid=ff7ecb3b-4925-4d39-b5b2-3523c1706e57","ios":"levelo://app?vid=ff7ecb3b-4925-4d39-b5b2-3523c1706e57"},"vehicle_type_id":"4","last_reported":1704114509,"current_range_meters":26800,"station_id":"ce4bhb12rcd13ifvqel0","pricing_plan_id":"free"},{"bike_id":"668942d6-33c2-433a-a4c3-8da233302454","system_id":"levelo_inurba_marseille","lat":43.313291,"lon":5.396838,"is_reserved":false,"is_disabled":false,"rental_uris":{"android":"levelo://app?vid=668942d6-33c2-433a-a4c3-8da233302454","ios":"levelo://app?vid=668942d6-33c2-433a-a4c3-8da233302454"},"vehicle_type_id":"4","last_reported":1704114509,"current_range_meters":30400,"station_id":"ce4bgvp2rcd13ifvqcu0","pricing_plan_id":"free"},{"bike_id":"28fe034d-9c17-4081-91fc-11cc39785de3","system_id":"levelo_inurba_marseille","lat":43.291994,"lon":5.357886,"is_reserved":false,"is_disabled":false,"rental_uris":{"android":"levelo://app?vid=28fe034d-9c17-4081-91fc-11cc39785de3","ios":"levelo://app?vid=28fe034d-9c17-4081-91fc-11cc39785de3"},"vehicle_type_id":"4","last_reported":1704114509,"current_range_meters":22400,"station_id":"ce4bhb12rcd13ifvqel0","pricing_plan_id":"free"},{"bike_id":"35259b47-b0e9-43d6-8bf9-09be7776feef","system_id":"levelo_inurba_marseille","lat":43.291994,"lon":5.357886,"is_reserved":false,"is_disabled":false,"rental_uris":{"android":"levelo://app?vid=35259b47-b0e9-43d6-8bf9-09be7776feef","ios":"levelo://app?vid=35259b47-b0e9-43d6-8bf9-09be7776feef"},"vehicle_type_id":"4","last_reported":1704114509,"current_range_meters":20800,"station_id":"ce4bhb12rcd13ifvqel0","pricing_plan_id":"free"},{"bike_id":"a04bd6ce-3aa3-4595-992a-94338724dacd","system_id":"levelo_inurba_marseille","lat":43.289184,"lon":5.366408,"is_reserved":false,"is_disabled":false,"rental_uris":{"android":"levelo://app?vid=a04bd6ce-3aa3-4595-992a-94338724dacd","ios":"levelo://app?vid=a04bd6ce-3aa3-4595-992a-94338724dacd"},"vehicle_type_id":"4","last_reported":1704114509,"current_range_meters":24400,"station_id":"ce4bhap2rcd13ifvqek0","pricing_plan_id":"free"},{"bike_id":"6ee8803b-597d-42e7-9bec-2c12eaa9430a","system_id":"levelo_inurba_marseille","lat":43.289468,"lon":5.363719,"is_reserved":false,"is_disabled":false,"rental_uris":{"android":"levelo://app?vid=6ee8803b-597d-42e7-9bec-2c12eaa9430a","ios":"levelo://app?vid=6ee8803b-597d-42e7-9bec-2c12eaa9430a"},"vehicle_type_id":"4","last_reported":1704114509,"current_range_meters":24000,"station_id":"ce4bhc92rcd13ifvqetg","pricing_plan_id":"free"},{"bike_id":"6af5d335-5cd1-4585-a6f0-a6e99c645196","system_id":"levelo_inurba_marseille","lat":43.289468,"lon":5.363719,"is_reserved":false,"is_disabled":false,"rental_uris":{"android":"levelo://app?vid=6af5d335-5cd1-4585-a6f0-a6e99c645196","ios":"levelo://app?vid=6af5d335-5cd1-4585-a6f0-a6e99c645196"},"vehicle_type_id":"4","last_reported":1704114509,"current_range_meters":30400,"station_id":"ce4bhc92rcd13ifvqetg","pricing_plan_id":"free"},{"bike_id":"cbd1ab48-5f41-452c-9b21-d5d4b1550abf","system_id":"levelo_inurba_marseille","lat":43.292644,"lon":5.384257,"is_reserved":false,"is_disabled":false,"rental_uris":{"android":"levelo://app?vid=cbd1ab48-5f41-452c-9b21-d5d4b1550abf","ios":"levelo://app?vid=cbd1ab48-5f41-452c-9b21-d5d4b1550abf"},"vehicle_type_id":"4","last_reported":1704114509,"current_range_meters":24400,"station_id":"ce4bh692rcd13ifvqea0","pricing_plan_id":"free"},{"bike_id":"d8276a6e-2dab-47c6-9352-bc8f3d50e8b2","system_id":"levelo_inurba_marseille","lat":43.304296,"lon":5.397513,"is_reserved":false,"is_disabled":false,"rental_uris":{"android":"levelo://app?vid=d8276a6e-2dab-47c6-9352-bc8f3d50e8b2","ios":"levelo://app?vid=d8276a6e-2dab-47c6-9352-bc8f3d50e8b2"},"vehicle_type_id":"4","last_reported":1704114509,"current_range_meters":27200,"station_id":"ce4bh092rcd13ifvqd20","pricing_plan_id":"free"},{"bike_id":"85d8f827-c38e-4df5-892c-08e850ce0512","system_id":"levelo_inurba_marseille","lat":43.29006,"lon":5.3561,"is_reserved":false,"is_disabled":false,"rental_uris":{"android":"levelo://app?vid=85d8f827-c38e-4df5-892c-08e850ce0512","ios":"levelo://app?vid=85d8f827-c38e-4df5-892c-08e850ce0512"},"vehicle_type_id":"4","last_reported":1704114509,"current_range_meters":17200,"station_id":"ce4bhb92rcd13ifvqen0","pricing_plan_id":"free"},{"bike_id":"5867bcce-1efc-432c-b56b-eb884ac59764","system_id":"levelo_inurba_marseille","lat":43.290104,"lon":5.356111,"is_reserved":false,"is_disabled":false,"rental_uris":{"android":"levelo://app?vid=5867bcce-1efc-432c-b56b-eb884ac59764","ios":"levelo://app?vid=5867bcce-1efc-432c-b56b-eb884ac59764"},"vehicle_type_id":"4","last_reported":1704114509,"current_range_meters":16400,"station_id":"ce4bhb92rcd13ifvqen0","pricing_plan_id":"free"},{"bike_id":"9d8251d3-5485-45ed-adb7-11e166379602","system_id":"levelo_inurba_marseille","lat":43.290104,"lon":5.356111,"is_reserved":false,"is_disabled":false,"rental_uris":{"android":"levelo://app?vid=9d8251d3-5485-45ed-adb7-11e166379602","ios":"levelo://app?vid=9d8251d3-5485-45ed-adb7-11e166379602"},"vehicle_type_id":"4","last_reported":1704114509,"current_range_meters":17600,"station_id":"ce4bhb92rcd13ifvqen0","pricing_plan_id":"free"},{"bike_id":"deb894d2-70c2-4392-8ab0-14ca40b6cf1f","system_id":"levelo_inurba_marseille","lat":43.290104,"lon":5.356111,"is_reserved":false,"is_disabled":false,"rental_uris":{"android":"levelo://app?vid=deb894d2-70c2-4392-8ab0-14ca40b6cf1f","ios":"levelo://app?vid=deb894d2-70c2-4392-8ab0-14ca40b6cf1f"},"vehicle_type_id":"4","last_reported":1704114509,"current_range_meters":27200,"station_id":"ce4bhb92rcd13ifvqen0","pricing_plan_id":"free"},{"bike_id":"35a8b291-b60d-438e-b295-b5d281012557","system_id":"levelo_inurba_marseille","lat":43.28989,"lon":5.37825,"is_reserved":false,"is_disabled":false,"rental_uris":{"android":"levelo://app?vid=35a8b291-b60d-438e-b295-b5d281012557","ios":"levelo://app?vid=35a8b291-b60d-438e-b295-b5d281012557"},"vehicle_type_id":"4","last_reported":1704114509,"current_range_meters":28800,"station_id":"ce4bh9p2rcd13ifvqed0","pricing_plan_id":"free"},{"bike_id":"13d41c86-d361-4b17-ae49-6b5491dd4e85","system_id":"levelo_inurba_marseille","lat":43.330442,"lon":5.389148,"is_reserved":false,"is_disabled":false,"rental_uris":{"android":"levelo://app?vid=13d41c86-d361-4b17-ae49-6b5491dd4e85","ios":"levelo://app?vid=13d41c86-d361-4b17-ae49-6b5491dd4e85"},"vehicle_type_id":"4","last_reported":1704114509,"current_range_meters":28800,"station_id":"ce4bhr92rcd13ifvqhrg","pricing_plan_id":"free"},{"bike_id":"fdfb70d8-9890-422e-9251-12e030bcfb72","system_id":"levelo_inurba_marseille","lat":43.330442,"lon":5.389148,"is_reserved":false,"is_disabled":false,"rental_uris":{"android":"levelo://app?vid=fdfb70d8-9890-422e-9251-12e030bcfb72","ios":"levelo://app?vid=fdfb70d8-9890-422e-9251-12e030bcfb72"},"vehicle_type_id":"4","last_reported":1704114509,"current_range_meters":17600,"station_id":"ce4bhr92rcd13ifvqhrg","pricing_plan_id":"free"},{"bike_id":"7d3f0707-26fc-41d0-8f63-88674e57e19c","system_id":"levelo_inurba_marseille","lat":43.330442,"lon":5.389148,"is_reserved":false,"is_disabled":false,"rental_uris":{"android":"levelo://app?vid=7d3f0707-26fc-41d0-8f63-88674e57e19c","ios":"levelo://app?vid=7d3f0707-26fc-41d0-8f63-88674e57e19c"},"vehicle_type_id":"4","last_reported":1704114509,"current_range_meters":11600,"station_id":"ce4bhr92rcd13ifvqhrg","pricing_plan_id":"free"},{"bike_id":"983ae15b-e6ac-4e63-857d-b1c023399b7b","system_id":"levelo_inurba_marseille","lat":43.330442,"lon":5.389148,"is_reserved":false,"is_disabled":false,"rental_uris":{"android":"levelo://app?vid=983ae15b-e6ac-4e63-857d-b1c023399b7b","ios":"levelo://app?vid=983ae15b-e6ac-4e63-857d-b1c023399b7b"},"vehicle_type_id":"4","last_reported":1704114509,"current_range_meters":27600,"station_id":"ce4bhr92rcd13ifvqhrg","pricing_plan_id":"free"},{"bike_id":"4281d230-8c6f-4d78-8148-9d01f308b6c9","system_id":"levelo_inurba_marseille","lat":43.312614,"lon":5.401633,"is_reserved":false,"is_disabled":false,"rental_uris":{"android":"levelo://app?vid=4281d230-8c6f-4d78-8148-9d01f308b6c9","ios":"levelo://app?vid=4281d230-8c6f-4d78-8148-9d01f308b6c9"},"vehicle_type_id":"4","last_reported":1704114509,"current_range_meters":21600,"station_id":"","pricing_plan_id":"free"},{"bike_id":"afad0d4d-a92d-484f-b576-505288f508e6","system_id":"levelo_inurba_marseille","lat":43.312609,"lon":5.401662,"is_reserved":false,"is_disabled":false,"rental_uris":{"android":"levelo://app?vid=afad0d4d-a92d-484f-b576-505288f508e6","ios":"levelo://app?vid=afad0d4d-a92d-484f-b576-505288f508e6"},"vehicle_type_id":"4","last_reported":1704114509,"current_range_meters":21200,"station_id":"ce4bh092rcd13ifvqd30","pricing_plan_id":"free"},{"bike_id":"0a4ff4c2-5407-45a7-8bd8-681bae981765","system_id":"levelo_inurba_marseille","lat":43.312609,"lon":5.401662,"is_reserved":false,"is_disabled":false,"rental_uris":{"android":"levelo://app?vid=0a4ff4c2-5407-45a7-8bd8-681bae981765","ios":"levelo://app?vid=0a4ff4c2-5407-45a7-8bd8-681bae981765"},"vehicle_type_id":"4","last_reported":1704114509,"current_range_meters":31600,"station_id":"ce4bh092rcd13ifvqd30","pricing_plan_id":"free"},{"bike_id":"d628ee32-1c50-4c11-9b99-9f24a97552ff","system_id":"levelo_inurba_marseille","lat":43.309371,"lon":5.401449,"is_reserved":false,"is_disabled":false,"rental_uris":{"android":"levelo://app?vid=d628ee32-1c50-4c11-9b99-9f24a97552ff","ios":"levelo://app?vid=d628ee32-1c50-4c11-9b99-9f24a97552ff"},"vehicle_type_id":"4","last_reported":1704114509,"current_range_meters":22400,"station_id":"ce4bgvp2rcd13ifvqct0","pricing_plan_id":"free"},{"bike_id":"e17f47b2-3166-47b8-83f0-bf2dacd947e9","system_id":"levelo_inurba_marseille","lat":43.337502,"lon":5.374763,"is_reserved":false,"is_disabled":false,"rental_uris":{"android":"levelo://app?vid=e17f47b2-3166-47b8-83f0-bf2dacd947e9","ios":"levelo://app?vid=e17f47b2-3166-47b8-83f0-bf2dacd947e9"},"vehicle_type_id":"4","last_reported":1704114509,"current_range_meters":29200,"station_id":"","pricing_plan_id":"free"},{"bike_id":"5292914b-ac67-4d83-9706-276b66d94ec1","system_id":"levelo_inurba_marseille","lat":43.28778,"lon":5.35947,"is_reserved":false,"is_disabled":false,"rental_uris":{"android":"levelo://app?vid=5292914b-ac67-4d83-9706-276b66d94ec1","ios":"levelo://app?vid=5292914b-ac67-4d83-9706-276b66d94ec1"},"vehicle_type_id":"4","last_reported":1704114509,"current_range_meters":14400,"station_id":"","pricing_plan_id":"free"},{"bike_id":"904f83aa-e9ab-401d-84c1-9edfed82b884","system_id":"levelo_inurba_marseille","lat":43.337647,"lon":5.3748,"is_reserved":false,"is_disabled":false,"rental_uris":{"android":"levelo://app?vid=904f83aa-e9ab-401d-84c1-9edfed82b884","ios":"levelo://app?vid=904f83aa-e9ab-401d-84c1-9edfed82b884"},"vehicle_type_id":"4","last_reported":1704114509,"current_range_meters":18400,"station_id":"","pricing_plan_id":"free"},{"bike_id":"bfe5b6f5-2c03-4dfa-ba11-94d94fdccf9c","system_id":"levelo_inurba_marseille","lat":43.301117,"lon":5.398795,"is_reserved":false,"is_disabled":false,"rental_uris":{"android":"levelo://app?vid=bfe5b6f5-2c03-4dfa-ba11-94d94fdccf9c","ios":"levelo://app?vid=bfe5b6f5-2c03-4dfa-ba11-94d94fdccf9c"},"vehicle_type_id":"4","last_reported":1704114509,"current_range_meters":11600,"station_id":"ce4bh0h2rcd13ifvqd40","pricing_plan_id":"free"},{"bike_id":"89dd9197-2497-4f84-a4cf-354b380ecc1e","system_id":"levelo_inurba_marseille","lat":43.28727,"lon":5.36078,"is_reserved":false,"is_disabled":false,"rental_uris":{"android":"levelo://app?vid=89dd9197-2497-4f84-a4cf-354b380ecc1e","ios":"levelo://app?vid=89dd9197-2497-4f84-a4cf-354b380ecc1e"},"vehicle_type_id":"4","last_reported":1704114509,"current_range_meters":28800,"station_id":"cki0cbj6b192h4jlfktg","pricing_plan_id":"free"},{"bike_id":"b6daf894-4dc3-484f-861c-954249acfd63","system_id":"levelo_inurba_marseille","lat":43.298681,"lon":5.397225,"is_reserved":false,"is_disabled":false,"rental_uris":{"android":"levelo://app?vid=b6daf894-4dc3-484f-861c-954249acfd63","ios":"levelo://app?vid=b6daf894-4dc3-484f-861c-954249acfd63"},"vehicle_type_id":"4","last_reported":1704114509,"current_range_meters":20400,"station_id":"ce4bh0h2rcd13ifvqd50","pricing_plan_id":"free"},{"bike_id":"f182ad30-578d-439a-b895-037c49f93cbb","system_id":"levelo_inurba_marseille","lat":43.28039,"lon":5.369297,"is_reserved":false,"is_disabled":false,"rental_uris":{"android":"levelo://app?vid=f182ad30-578d-439a-b895-037c49f93cbb","ios":"levelo://app?vid=f182ad30-578d-439a-b895-037c49f93cbb"},"vehicle_type_id":"4","last_reported":1704114509,"current_range_meters":30400,"station_id":"ce4bha12rcd13ifvqef0","pricing_plan_id":"free"},{"bike_id":"928b5e36-7395-48a8-be46-3c0cb9901378","system_id":"levelo_inurba_marseille","lat":43.289307,"lon":5.38406,"is_reserved":false,"is_disabled":false,"rental_uris":{"android":"levelo://app?vid=928b5e36-7395-48a8-be46-3c0cb9901378","ios":"levelo://app?vid=928b5e36-7395-48a8-be46-3c0cb9901378"},"vehicle_type_id":"4","last_reported":1704114509,"current_range_meters":800,"station_id":"ce4bh612rcd13ifvqe6g","pricing_plan_id":"free"},{"bike_id":"51bd1bc0-9d2c-41f3-9864-974ce8feabbe","system_id":"levelo_inurba_marseille","lat":43.290345,"lon":5.38646,"is_reserved":false,"is_disabled":false,"rental_uris":{"android":"levelo://app?vid=51bd1bc0-9d2c-41f3-9864-974ce8feabbe","ios":"levelo://app?vid=51bd1bc0-9d2c-41f3-9864-974ce8feabbe"},"vehicle_type_id":"4","last_reported":1704114509,"current_range_meters":26800,"station_id":"ce4bh4p2rcd13ifvqe0g","pricing_plan_id":"free"},{"bike_id":"e1adb731-a153-4ab3-bb2b-d5e7b997c428","system_id":"levelo_inurba_marseille","lat":43.289307,"lon":5.38406,"is_reserved":false,"is_disabled":false,"rental_uris":{"android":"levelo://app?vid=e1adb731-a153-4ab3-bb2b-d5e7b997c428","ios":"levelo://app?vid=e1adb731-a153-4ab3-bb2b-d5e7b997c428"},"vehicle_type_id":"4","last_reported":1704114509,"current_range_meters":12400,"station_id":"ce4bh612rcd13ifvqe6g","pricing_plan_id":"free"},{"bike_id":"b3ab0912-66a8-4da6-9c67-3e1cc5b94c44","system_id":"levelo_inurba_marseille","lat":43.290345,"lon":5.38646,"is_reserved":false,"is_disabled":false,"rental_uris":{"android":"levelo://app?vid=b3ab0912-66a8-4da6-9c67-3e1cc5b94c44","ios":"levelo://app?vid=b3ab0912-66a8-4da6-9c67-3e1cc5b94c44"},"vehicle_type_id":"4","last_reported":1704114509,"current_range_meters":28400,"station_id":"ce4bh4p2rcd13ifvqe0g","pricing_plan_id":"free"},{"bike_id":"401e847e-abda-46da-85bd-c929011b5ea3","system_id":"levelo_inurba_marseille","lat":43.302759,"lon":5.400793,"is_reserved":false,"is_disabled":false,"rental_uris":{"android":"levelo://app?vid=401e847e-abda-46da-85bd-c929011b5ea3","ios":"levelo://app?vid=401e847e-abda-46da-85bd-c929011b5ea3"},"vehicle_type_id":"4","last_reported":1704114509,"current_range_meters":24400,"station_id":"ce4bgvh2rcd13ifvqcs0","pricing_plan_id":"free"},{"bike_id":"133140b9-2d9b-44d4-927b-6b4e2588f628","system_id":"levelo_inurba_marseille","lat":43.298681,"lon":5.397225,"is_reserved":false,"is_disabled":false,"rental_uris":{"android":"levelo://app?vid=133140b9-2d9b-44d4-927b-6b4e2588f628","ios":"levelo://app?vid=133140b9-2d9b-44d4-927b-6b4e2588f628"},"vehicle_type_id":"4","last_reported":1704114509,"current_range_meters":28000,"station_id":"ce4bh0h2rcd13ifvqd50","pricing_plan_id":"free"},{"bike_id":"a32f45e5-7b35-4e4c-b435-e11c51b0e22a","system_id":"levelo_inurba_marseille","lat":43.284214,"lon":5.349706,"is_reserved":false,"is_disabled":false,"rental_uris":{"android":"levelo://app?vid=a32f45e5-7b35-4e4c-b435-e11c51b0e22a","ios":"levelo://app?vid=a32f45e5-7b35-4e4c-b435-e11c51b0e22a"},"vehicle_type_id":"4","last_reported":1704114509,"current_range_meters":18400,"station_id":"ce4bhbh2rcd13ifvqepg","pricing_plan_id":"free"},{"bike_id":"ad2cc45f-cb4a-45a1-9c67-d3ff29739959","system_id":"levelo_inurba_marseille","lat":43.316828,"lon":5.404723,"is_reserved":false,"is_disabled":false,"rental_uris":{"android":"levelo://app?vid=ad2cc45f-cb4a-45a1-9c67-d3ff29739959","ios":"levelo://app?vid=ad2cc45f-cb4a-45a1-9c67-d3ff29739959"},"vehicle_type_id":"4","last_reported":1704114509,"current_range_meters":12400,"station_id":"ce4bh012rcd13ifvqd00","pricing_plan_id":"free"},{"bike_id":"bba896a5-792a-4d9a-a436-821c3d86166a","system_id":"levelo_inurba_marseille","lat":43.316828,"lon":5.404723,"is_reserved":false,"is_disabled":false,"rental_uris":{"android":"levelo://app?vid=bba896a5-792a-4d9a-a436-821c3d86166a","ios":"levelo://app?vid=bba896a5-792a-4d9a-a436-821c3d86166a"},"vehicle_type_id":"4","last_reported":1704114509,"current_range_meters":28400,"station_id":"ce4bh012rcd13ifvqd00","pricing_plan_id":"free"},{"bike_id":"5a04d507-8919-4dc3-a7b6-de5b848a6c92","system_id":"levelo_inurba_marseille","lat":43.316828,"lon":5.404723,"is_reserved":false,"is_disabled":false,"rental_uris":{"android":"levelo://app?vid=5a04d507-8919-4dc3-a7b6-de5b848a6c92","ios":"levelo://app?vid=5a04d507-8919-4dc3-a7b6-de5b848a6c92"},"vehicle_type_id":"4","last_reported":1704114509,"current_range_meters":27200,"station_id":"ce4bh012rcd13ifvqd00","pricing_plan_id":"free"},{"bike_id":"d930b0ca-d3fb-48ad-b868-352f25b73513","system_id":"levelo_inurba_marseille","lat":43.316828,"lon":5.404723,"is_reserved":false,"is_disabled":false,"rental_uris":{"android":"levelo://app?vid=d930b0ca-d3fb-48ad-b868-352f25b73513","ios":"levelo://app?vid=d930b0ca-d3fb-48ad-b868-352f25b73513"},"vehicle_type_id":"4","last_reported":1704114509,"current_range_meters":30800,"station_id":"ce4bh012rcd13ifvqd00","pricing_plan_id":"free"},{"bike_id":"483053b6-4b08-4692-aee4-bfd1846d4d3d","system_id":"levelo_inurba_marseille","lat":43.286348,"lon":5.352578,"is_reserved":false,"is_disabled":false,"rental_uris":{"android":"levelo://app?vid=483053b6-4b08-4692-aee4-bfd1846d4d3d","ios":"levelo://app?vid=483053b6-4b08-4692-aee4-bfd1846d4d3d"},"vehicle_type_id":"4","last_reported":1704114509,"current_range_meters":24400,"station_id":"ce4bhch2rcd13ifvqeug","pricing_plan_id":"free"},{"bike_id":"e924df11-ca03-4bc1-a9fa-fa63a9277664","system_id":"levelo_inurba_marseille","lat":43.284538,"lon":5.358657,"is_reserved":false,"is_disabled":false,"rental_uris":{"android":"levelo://app?vid=e924df11-ca03-4bc1-a9fa-fa63a9277664","ios":"levelo://app?vid=e924df11-ca03-4bc1-a9fa-fa63a9277664"},"vehicle_type_id":"4","last_reported":1704114509,"current_range_meters":21600,"station_id":"ce4bhah2rcd13ifvqei0","pricing_plan_id":"free"},{"bike_id":"5b773cda-79f7-4fb5-ba58-152543e8d999","system_id":"levelo_inurba_marseille","lat":43.294314,"lon":5.397498,"is_reserved":false,"is_disabled":false,"rental_uris":{"android":"levelo://app?vid=5b773cda-79f7-4fb5-ba58-152543e8d999","ios":"levelo://app?vid=5b773cda-79f7-4fb5-ba58-152543e8d999"},"vehicle_type_id":"4","last_reported":1704114509,"current_range_meters":27200,"station_id":"ce4bh3h2rcd13ifvqdo0","pricing_plan_id":"free"},{"bike_id":"bccab00b-0bab-42ef-96ea-42639d5298a8","system_id":"levelo_inurba_marseille","lat":43.285856,"lon":5.350771,"is_reserved":false,"is_disabled":false,"rental_uris":{"android":"levelo://app?vid=bccab00b-0bab-42ef-96ea-42639d5298a8","ios":"levelo://app?vid=bccab00b-0bab-42ef-96ea-42639d5298a8"},"vehicle_type_id":"4","last_reported":1704114509,"current_range_meters":23200,"station_id":"ce4bhch2rcd13ifvqeug","pricing_plan_id":"free"},{"bike_id":"cb2ee55a-ee57-41e5-b85f-bae49a78399d","system_id":"levelo_inurba_marseille","lat":43.28614,"lon":5.351,"is_reserved":false,"is_disabled":false,"rental_uris":{"android":"levelo://app?vid=cb2ee55a-ee57-41e5-b85f-bae49a78399d","ios":"levelo://app?vid=cb2ee55a-ee57-41e5-b85f-bae49a78399d"},"vehicle_type_id":"4","last_reported":1704114509,"current_range_meters":20800,"station_id":"ce4bhch2rcd13ifvqeug","pricing_plan_id":"free"},{"bike_id":"8efb6121-953b-41c7-9076-73be5e496dcd","system_id":"levelo_inurba_marseille","lat":43.28612,"lon":5.35104,"is_reserved":false,"is_disabled":false,"rental_uris":{"android":"levelo://app?vid=8efb6121-953b-41c7-9076-73be5e496dcd","ios":"levelo://app?vid=8efb6121-953b-41c7-9076-73be5e496dcd"},"vehicle_type_id":"4","last_reported":1704114509,"current_range_meters":25200,"station_id":"ce4bhch2rcd13ifvqeug","pricing_plan_id":"free"},{"bike_id":"9712f9d9-d7ea-4e92-a7aa-c97565ad50a6","system_id":"levelo_inurba_marseille","lat":43.28613,"lon":5.35099,"is_reserved":false,"is_disabled":false,"rental_uris":{"android":"levelo://app?vid=9712f9d9-d7ea-4e92-a7aa-c97565ad50a6","ios":"levelo://app?vid=9712f9d9-d7ea-4e92-a7aa-c97565ad50a6"},"vehicle_type_id":"4","last_reported":1704114509,"current_range_meters":23600,"station_id":"ce4bhch2rcd13ifvqeug","pricing_plan_id":"free"},{"bike_id":"3ebce117-dcb3-4440-b9ce-07470832ba75","system_id":"levelo_inurba_marseille","lat":43.28611,"lon":5.35103,"is_reserved":false,"is_disabled":false,"rental_uris":{"android":"levelo://app?vid=3ebce117-dcb3-4440-b9ce-07470832ba75","ios":"levelo://app?vid=3ebce117-dcb3-4440-b9ce-07470832ba75"},"vehicle_type_id":"4","last_reported":1704114509,"current_range_meters":400,"station_id":"ce4bhch2rcd13ifvqeug","pricing_plan_id":"free"},{"bike_id":"6d6fe783-1222-4da5-8869-6556a448e627","system_id":"levelo_inurba_marseille","lat":43.285856,"lon":5.350771,"is_reserved":false,"is_disabled":false,"rental_uris":{"android":"levelo://app?vid=6d6fe783-1222-4da5-8869-6556a448e627","ios":"levelo://app?vid=6d6fe783-1222-4da5-8869-6556a448e627"},"vehicle_type_id":"4","last_reported":1704114509,"current_range_meters":30400,"station_id":"ce4bhch2rcd13ifvqeug","pricing_plan_id":"free"},{"bike_id":"e8e2847c-e24c-414c-89fb-569260a6ebc4","system_id":"levelo_inurba_marseille","lat":43.284144,"lon":5.375217,"is_reserved":false,"is_disabled":false,"rental_uris":{"android":"levelo://app?vid=e8e2847c-e24c-414c-89fb-569260a6ebc4","ios":"levelo://app?vid=e8e2847c-e24c-414c-89fb-569260a6ebc4"},"vehicle_type_id":"4","last_reported":1704114509,"current_range_meters":22000,"station_id":"ce4bh412rcd13ifvqds0","pricing_plan_id":"free"},{"bike_id":"8af6642b-e526-4770-8a06-6b115e68c32b","system_id":"levelo_inurba_marseille","lat":43.3372,"lon":5.39183,"is_reserved":false,"is_disabled":false,"rental_uris":{"android":"levelo://app?vid=8af6642b-e526-4770-8a06-6b115e68c32b","ios":"levelo://app?vid=8af6642b-e526-4770-8a06-6b115e68c32b"},"vehicle_type_id":"4","last_reported":1704114509,"current_range_meters":25200,"station_id":"ce4bhr92rcd13ifvqhsg","pricing_plan_id":"free"},{"bike_id":"1860c054-e673-4084-804e-8832a59aeb53","system_id":"levelo_inurba_marseille","lat":43.337168,"lon":5.391825,"is_reserved":false,"is_disabled":false,"rental_uris":{"android":"levelo://app?vid=1860c054-e673-4084-804e-8832a59aeb53","ios":"levelo://app?vid=1860c054-e673-4084-804e-8832a59aeb53"},"vehicle_type_id":"4","last_reported":1704114509,"current_range_meters":28400,"station_id":"ce4bhr92rcd13ifvqhsg","pricing_plan_id":"free"},{"bike_id":"9c89ccbb-1205-42f3-9670-7f7c8e469aa6","system_id":"levelo_inurba_marseille","lat":43.323464,"lon":5.406297,"is_reserved":false,"is_disabled":false,"rental_uris":{"android":"levelo://app?vid=9c89ccbb-1205-42f3-9670-7f7c8e469aa6","ios":"levelo://app?vid=9c89ccbb-1205-42f3-9670-7f7c8e469aa6"},"vehicle_type_id":"4","last_reported":1704114509,"current_range_meters":28000,"station_id":"ce4bhq92rcd13ifvqhjg","pricing_plan_id":"free"},{"bike_id":"fc4f2e09-c6f0-419a-9e81-267e2d70b795","system_id":"levelo_inurba_marseille","lat":43.284793,"lon":5.384113,"is_reserved":false,"is_disabled":false,"rental_uris":{"android":"levelo://app?vid=fc4f2e09-c6f0-419a-9e81-267e2d70b795","ios":"levelo://app?vid=fc4f2e09-c6f0-419a-9e81-267e2d70b795"},"vehicle_type_id":"4","last_reported":1704114509,"current_range_meters":28000,"station_id":"ce4bh512rcd13ifvqe3g","pricing_plan_id":"free"},{"bike_id":"73baccf2-2f35-40cb-b44e-6d50cd41c007","system_id":"levelo_inurba_marseille","lat":43.29795,"lon":5.404086,"is_reserved":false,"is_disabled":false,"rental_uris":{"android":"levelo://app?vid=73baccf2-2f35-40cb-b44e-6d50cd41c007","ios":"levelo://app?vid=73baccf2-2f35-40cb-b44e-6d50cd41c007"},"vehicle_type_id":"4","last_reported":1704114509,"current_range_meters":22800,"station_id":"ce4bh112rcd13ifvqd90","pricing_plan_id":"free"},{"bike_id":"4d596014-02c1-43ee-b3e0-efc2b6f1b029","system_id":"levelo_inurba_marseille","lat":43.275625,"lon":5.384392,"is_reserved":false,"is_disabled":false,"rental_uris":{"android":"levelo://app?vid=4d596014-02c1-43ee-b3e0-efc2b6f1b029","ios":"levelo://app?vid=4d596014-02c1-43ee-b3e0-efc2b6f1b029"},"vehicle_type_id":"4","last_reported":1704114509,"current_range_meters":20800,"station_id":"ce4bhh92rcd13ifvqfi0","pricing_plan_id":"free"},{"bike_id":"fddd2611-feab-4620-876b-52cc1e62e134","system_id":"levelo_inurba_marseille","lat":43.284219,"lon":5.3497,"is_reserved":false,"is_disabled":false,"rental_uris":{"android":"levelo://app?vid=fddd2611-feab-4620-876b-52cc1e62e134","ios":"levelo://app?vid=fddd2611-feab-4620-876b-52cc1e62e134"},"vehicle_type_id":"4","last_reported":1704114509,"current_range_meters":31600,"station_id":"ce4bhbh2rcd13ifvqepg","pricing_plan_id":"free"},{"bike_id":"42453d5c-7409-4c34-978a-bda9a64c32f1","system_id":"levelo_inurba_marseille","lat":43.284219,"lon":5.3497,"is_reserved":false,"is_disabled":false,"rental_uris":{"android":"levelo://app?vid=42453d5c-7409-4c34-978a-bda9a64c32f1","ios":"levelo://app?vid=42453d5c-7409-4c34-978a-bda9a64c32f1"},"vehicle_type_id":"4","last_reported":1704114509,"current_range_meters":22400,"station_id":"ce4bhbh2rcd13ifvqepg","pricing_plan_id":"free"},{"bike_id":"07ce3283-9bab-40bf-8b26-72b3cfef7452","system_id":"levelo_inurba_marseille","lat":43.284219,"lon":5.3497,"is_reserved":false,"is_disabled":false,"rental_uris":{"android":"levelo://app?vid=07ce3283-9bab-40bf-8b26-72b3cfef7452","ios":"levelo://app?vid=07ce3283-9bab-40bf-8b26-72b3cfef7452"},"vehicle_type_id":"4","last_reported":1704114509,"current_range_meters":31600,"station_id":"ce4bhbh2rcd13ifvqepg","pricing_plan_id":"free"},{"bike_id":"815df7b1-eb70-49f9-9b93-bdef005a1639","system_id":"levelo_inurba_marseille","lat":43.284219,"lon":5.3497,"is_reserved":false,"is_disabled":false,"rental_uris":{"android":"levelo://app?vid=815df7b1-eb70-49f9-9b93-bdef005a1639","ios":"levelo://app?vid=815df7b1-eb70-49f9-9b93-bdef005a1639"},"vehicle_type_id":"4","last_reported":1704114509,"current_range_meters":30800,"station_id":"ce4bhbh2rcd13ifvqepg","pricing_plan_id":"free"},{"bike_id":"646f152a-6108-4f1a-bc21-03e8b0c7192d","system_id":"levelo_inurba_marseille","lat":43.284217,"lon":5.349697,"is_reserved":false,"is_disabled":false,"rental_uris":{"android":"levelo://app?vid=646f152a-6108-4f1a-bc21-03e8b0c7192d","ios":"levelo://app?vid=646f152a-6108-4f1a-bc21-03e8b0c7192d"},"vehicle_type_id":"4","last_reported":1704114509,"current_range_meters":24000,"station_id":"ce4bhbh2rcd13ifvqepg","pricing_plan_id":"free"},{"bike_id":"3a1044d1-2076-4898-a7a7-eaca9090fada","system_id":"levelo_inurba_marseille","lat":43.284219,"lon":5.3497,"is_reserved":false,"is_disabled":false,"rental_uris":{"android":"levelo://app?vid=3a1044d1-2076-4898-a7a7-eaca9090fada","ios":"levelo://app?vid=3a1044d1-2076-4898-a7a7-eaca9090fada"},"vehicle_type_id":"4","last_reported":1704114509,"current_range_meters":24800,"station_id":"ce4bhbh2rcd13ifvqepg","pricing_plan_id":"free"},{"bike_id":"d731d671-a3f5-4243-ac4b-1201edd40e88","system_id":"levelo_inurba_marseille","lat":43.284217,"lon":5.349697,"is_reserved":false,"is_disabled":false,"rental_uris":{"android":"levelo://app?vid=d731d671-a3f5-4243-ac4b-1201edd40e88","ios":"levelo://app?vid=d731d671-a3f5-4243-ac4b-1201edd40e88"},"vehicle_type_id":"4","last_reported":1704114509,"current_range_meters":31200,"station_id":"ce4bhbh2rcd13ifvqepg","pricing_plan_id":"free"},{"bike_id":"0d0d6d12-5006-40f2-9232-de7ce4d5f763","system_id":"levelo_inurba_marseille","lat":43.284217,"lon":5.349697,"is_reserved":false,"is_disabled":false,"rental_uris":{"android":"levelo://app?vid=0d0d6d12-5006-40f2-9232-de7ce4d5f763","ios":"levelo://app?vid=0d0d6d12-5006-40f2-9232-de7ce4d5f763"},"vehicle_type_id":"4","last_reported":1704114509,"current_range_meters":16800,"station_id":"ce4bhbh2rcd13ifvqepg","pricing_plan_id":"free"},{"bike_id":"bf484915-3c31-461f-a9d2-7ffde0d90705","system_id":"levelo_inurba_marseille","lat":43.284217,"lon":5.349697,"is_reserved":false,"is_disabled":false,"rental_uris":{"android":"levelo://app?vid=bf484915-3c31-461f-a9d2-7ffde0d90705","ios":"levelo://app?vid=bf484915-3c31-461f-a9d2-7ffde0d90705"},"vehicle_type_id":"4","last_reported":1704114509,"current_range_meters":19600,"station_id":"ce4bhbh2rcd13ifvqepg","pricing_plan_id":"free"},{"bike_id":"e66eb6ab-0946-4702-a509-720e5946a983","system_id":"levelo_inurba_marseille","lat":43.284219,"lon":5.3497,"is_reserved":false,"is_disabled":false,"rental_uris":{"android":"levelo://app?vid=e66eb6ab-0946-4702-a509-720e5946a983","ios":"levelo://app?vid=e66eb6ab-0946-4702-a509-720e5946a983"},"vehicle_type_id":"4","last_reported":1704114509,"current_range_meters":21600,"station_id":"ce4bhbh2rcd13ifvqepg","pricing_plan_id":"free"},{"bike_id":"fdaed254-768f-4eb1-882a-539209c05fd1","system_id":"levelo_inurba_marseille","lat":43.284219,"lon":5.3497,"is_reserved":false,"is_disabled":false,"rental_uris":{"android":"levelo://app?vid=fdaed254-768f-4eb1-882a-539209c05fd1","ios":"levelo://app?vid=fdaed254-768f-4eb1-882a-539209c05fd1"},"vehicle_type_id":"4","last_reported":1704114509,"current_range_meters":22800,"station_id":"ce4bhbh2rcd13ifvqepg","pricing_plan_id":"free"},{"bike_id":"c4842957-daa2-4150-9acd-bbbe2df74d61","system_id":"levelo_inurba_marseille","lat":43.28414,"lon":5.34989,"is_reserved":false,"is_disabled":false,"rental_uris":{"android":"levelo://app?vid=c4842957-daa2-4150-9acd-bbbe2df74d61","ios":"levelo://app?vid=c4842957-daa2-4150-9acd-bbbe2df74d61"},"vehicle_type_id":"4","last_reported":1704114509,"current_range_meters":23200,"station_id":"ce4bhbh2rcd13ifvqepg","pricing_plan_id":"free"},{"bike_id":"45957ee8-563c-464a-a649-d82560a053e3","system_id":"levelo_inurba_marseille","lat":43.284217,"lon":5.349697,"is_reserved":false,"is_disabled":false,"rental_uris":{"android":"levelo://app?vid=45957ee8-563c-464a-a649-d82560a053e3","ios":"levelo://app?vid=45957ee8-563c-464a-a649-d82560a053e3"},"vehicle_type_id":"4","last_reported":1704114509,"current_range_meters":19200,"station_id":"ce4bhbh2rcd13ifvqepg","pricing_plan_id":"free"},{"bike_id":"f3b3df23-c0e8-46ec-b765-06c4957c57df","system_id":"levelo_inurba_marseille","lat":43.284214,"lon":5.349706,"is_reserved":false,"is_disabled":false,"rental_uris":{"android":"levelo://app?vid=f3b3df23-c0e8-46ec-b765-06c4957c57df","ios":"levelo://app?vid=f3b3df23-c0e8-46ec-b765-06c4957c57df"},"vehicle_type_id":"4","last_reported":1704114509,"current_range_meters":11200,"station_id":"ce4bhbh2rcd13ifvqepg","pricing_plan_id":"free"},{"bike_id":"b6226784-863f-49f1-bd12-f635ff79a72d","system_id":"levelo_inurba_marseille","lat":43.282753,"lon":5.350693,"is_reserved":false,"is_disabled":false,"rental_uris":{"android":"levelo://app?vid=b6226784-863f-49f1-bd12-f635ff79a72d","ios":"levelo://app?vid=b6226784-863f-49f1-bd12-f635ff79a72d"},"vehicle_type_id":"4","last_reported":1704114509,"current_range_meters":16800,"station_id":"ce4bhbp2rcd13ifvqerg","pricing_plan_id":"free"},{"bike_id":"c20779b9-7757-4192-8380-00e6cdf94e68","system_id":"levelo_inurba_marseille","lat":43.28268,"lon":5.35083,"is_reserved":false,"is_disabled":false,"rental_uris":{"android":"levelo://app?vid=c20779b9-7757-4192-8380-00e6cdf94e68","ios":"levelo://app?vid=c20779b9-7757-4192-8380-00e6cdf94e68"},"vehicle_type_id":"4","last_reported":1704114509,"current_range_meters":22400,"station_id":"ce4bhbp2rcd13ifvqerg","pricing_plan_id":"free"},{"bike_id":"ae319756-66af-41b4-8b03-da7532c1ee69","system_id":"levelo_inurba_marseille","lat":43.282744,"lon":5.350533,"is_reserved":false,"is_disabled":false,"rental_uris":{"android":"levelo://app?vid=ae319756-66af-41b4-8b03-da7532c1ee69","ios":"levelo://app?vid=ae319756-66af-41b4-8b03-da7532c1ee69"},"vehicle_type_id":"4","last_reported":1704114509,"current_range_meters":16800,"station_id":"ce4bhbp2rcd13ifvqerg","pricing_plan_id":"free"},{"bike_id":"c45b1497-7d30-4bd9-8a3f-720384b7af70","system_id":"levelo_inurba_marseille","lat":43.282678,"lon":5.350717,"is_reserved":false,"is_disabled":false,"rental_uris":{"android":"levelo://app?vid=c45b1497-7d30-4bd9-8a3f-720384b7af70","ios":"levelo://app?vid=c45b1497-7d30-4bd9-8a3f-720384b7af70"},"vehicle_type_id":"4","last_reported":1704114509,"current_range_meters":14800,"station_id":"","pricing_plan_id":"free"},{"bike_id":"0e6a5223-be83-4b35-9f82-cfa0e4e2eec5","system_id":"levelo_inurba_marseille","lat":43.28266,"lon":5.35074,"is_reserved":false,"is_disabled":false,"rental_uris":{"android":"levelo://app?vid=0e6a5223-be83-4b35-9f82-cfa0e4e2eec5","ios":"levelo://app?vid=0e6a5223-be83-4b35-9f82-cfa0e4e2eec5"},"vehicle_type_id":"4","last_reported":1704114509,"current_range_meters":31200,"station_id":"ce4bhbp2rcd13ifvqerg","pricing_plan_id":"free"},{"bike_id":"7f6146e7-e2bc-4c40-a3c7-f7440253d05a","system_id":"levelo_inurba_marseille","lat":43.282744,"lon":5.350533,"is_reserved":false,"is_disabled":false,"rental_uris":{"android":"levelo://app?vid=7f6146e7-e2bc-4c40-a3c7-f7440253d05a","ios":"levelo://app?vid=7f6146e7-e2bc-4c40-a3c7-f7440253d05a"},"vehicle_type_id":"4","last_reported":1704114509,"current_range_meters":31200,"station_id":"ce4bhbp2rcd13ifvqerg","pricing_plan_id":"free"},{"bike_id":"c02e64de-35fd-48d5-bfd6-06c562a2ffd1","system_id":"levelo_inurba_marseille","lat":43.28267,"lon":5.35063,"is_reserved":false,"is_disabled":false,"rental_uris":{"android":"levelo://app?vid=c02e64de-35fd-48d5-bfd6-06c562a2ffd1","ios":"levelo://app?vid=c02e64de-35fd-48d5-bfd6-06c562a2ffd1"},"vehicle_type_id":"4","last_reported":1704114509,"current_range_meters":9200,"station_id":"ce4bhbp2rcd13ifvqerg","pricing_plan_id":"free"},{"bike_id":"e20d39bc-3df4-49ac-bcdc-b6153f10612a","system_id":"levelo_inurba_marseille","lat":43.282744,"lon":5.350533,"is_reserved":false,"is_disabled":false,"rental_uris":{"android":"levelo://app?vid=e20d39bc-3df4-49ac-bcdc-b6153f10612a","ios":"levelo://app?vid=e20d39bc-3df4-49ac-bcdc-b6153f10612a"},"vehicle_type_id":"4","last_reported":1704114509,"current_range_meters":8800,"station_id":"ce4bhbp2rcd13ifvqerg","pricing_plan_id":"free"},{"bike_id":"2bc71c29-1975-45e6-a51d-a67ae6d2df2a","system_id":"levelo_inurba_marseille","lat":43.28039,"lon":5.369297,"is_reserved":false,"is_disabled":false,"rental_uris":{"android":"levelo://app?vid=2bc71c29-1975-45e6-a51d-a67ae6d2df2a","ios":"levelo://app?vid=2bc71c29-1975-45e6-a51d-a67ae6d2df2a"},"vehicle_type_id":"4","last_reported":1704114509,"current_range_meters":4800,"station_id":"ce4bha12rcd13ifvqef0","pricing_plan_id":"free"},{"bike_id":"51eb4204-01cc-4166-9e45-48825d4c4b83","system_id":"levelo_inurba_marseille","lat":43.28039,"lon":5.369297,"is_reserved":false,"is_disabled":false,"rental_uris":{"android":"levelo://app?vid=51eb4204-01cc-4166-9e45-48825d4c4b83","ios":"levelo://app?vid=51eb4204-01cc-4166-9e45-48825d4c4b83"},"vehicle_type_id":"4","last_reported":1704114509,"current_range_meters":11200,"station_id":"ce4bha12rcd13ifvqef0","pricing_plan_id":"free"},{"bike_id":"784d0d32-a607-4226-b336-1b61e44b43e3","system_id":"levelo_inurba_marseille","lat":43.28032,"lon":5.36944,"is_reserved":false,"is_disabled":false,"rental_uris":{"android":"levelo://app?vid=784d0d32-a607-4226-b336-1b61e44b43e3","ios":"levelo://app?vid=784d0d32-a607-4226-b336-1b61e44b43e3"},"vehicle_type_id":"4","last_reported":1704114509,"current_range_meters":29600,"station_id":"ce4bha12rcd13ifvqef0","pricing_plan_id":"free"},{"bike_id":"478ea88e-c405-403d-a627-8dfc8e2d7cbc","system_id":"levelo_inurba_marseille","lat":43.280316,"lon":5.369459,"is_reserved":false,"is_disabled":false,"rental_uris":{"android":"levelo://app?vid=478ea88e-c405-403d-a627-8dfc8e2d7cbc","ios":"levelo://app?vid=478ea88e-c405-403d-a627-8dfc8e2d7cbc"},"vehicle_type_id":"4","last_reported":1704114509,"current_range_meters":30800,"station_id":"ce4bha12rcd13ifvqef0","pricing_plan_id":"free"},{"bike_id":"9e4bdcad-392a-4bf5-a94a-d4172ed34ba5","system_id":"levelo_inurba_marseille","lat":43.326605,"lon":5.409903,"is_reserved":false,"is_disabled":false,"rental_uris":{"android":"levelo://app?vid=9e4bdcad-392a-4bf5-a94a-d4172ed34ba5","ios":"levelo://app?vid=9e4bdcad-392a-4bf5-a94a-d4172ed34ba5"},"vehicle_type_id":"4","last_reported":1704114509,"current_range_meters":24400,"station_id":"ce4bhpp2rcd13ifvqhgg","pricing_plan_id":"free"},{"bike_id":"f9b0a9c8-24c1-4156-a225-5ec62d466306","system_id":"levelo_inurba_marseille","lat":43.326605,"lon":5.409903,"is_reserved":false,"is_disabled":false,"rental_uris":{"android":"levelo://app?vid=f9b0a9c8-24c1-4156-a225-5ec62d466306","ios":"levelo://app?vid=f9b0a9c8-24c1-4156-a225-5ec62d466306"},"vehicle_type_id":"4","last_reported":1704114509,"current_range_meters":29200,"station_id":"ce4bhpp2rcd13ifvqhgg","pricing_plan_id":"free"},{"bike_id":"e6fea743-4d0b-4fdf-988e-ebb67400bef8","system_id":"levelo_inurba_marseille","lat":43.287154,"lon":5.399979,"is_reserved":false,"is_disabled":false,"rental_uris":{"android":"levelo://app?vid=e6fea743-4d0b-4fdf-988e-ebb67400bef8","ios":"levelo://app?vid=e6fea743-4d0b-4fdf-988e-ebb67400bef8"},"vehicle_type_id":"4","last_reported":1704114509,"current_range_meters":28800,"station_id":"ce4bho92rcd13ifvqh3g","pricing_plan_id":"free"},{"bike_id":"cc8c5ac6-a4b4-4de0-9903-3d6db8916457","system_id":"levelo_inurba_marseille","lat":43.320045,"lon":5.415048,"is_reserved":false,"is_disabled":false,"rental_uris":{"android":"levelo://app?vid=cc8c5ac6-a4b4-4de0-9903-3d6db8916457","ios":"levelo://app?vid=cc8c5ac6-a4b4-4de0-9903-3d6db8916457"},"vehicle_type_id":"4","last_reported":1704114509,"current_range_meters":9200,"station_id":"ce4bhq92rcd13ifvqhkg","pricing_plan_id":"free"},{"bike_id":"9899ab24-b82d-4c79-a01e-6f322d6bb12a","system_id":"levelo_inurba_marseille","lat":43.279742,"lon":5.38744,"is_reserved":false,"is_disabled":false,"rental_uris":{"android":"levelo://app?vid=9899ab24-b82d-4c79-a01e-6f322d6bb12a","ios":"levelo://app?vid=9899ab24-b82d-4c79-a01e-6f322d6bb12a"},"vehicle_type_id":"4","last_reported":1704114509,"current_range_meters":30400,"station_id":"ce4bhg12rcd13ifvqf80","pricing_plan_id":"free"},{"bike_id":"f563e24c-50a7-4d61-87ca-a61665f61479","system_id":"levelo_inurba_marseille","lat":43.320045,"lon":5.415048,"is_reserved":false,"is_disabled":false,"rental_uris":{"android":"levelo://app?vid=f563e24c-50a7-4d61-87ca-a61665f61479","ios":"levelo://app?vid=f563e24c-50a7-4d61-87ca-a61665f61479"},"vehicle_type_id":"4","last_reported":1704114509,"current_range_meters":30000,"station_id":"ce4bhq92rcd13ifvqhkg","pricing_plan_id":"free"},{"bike_id":"a67fdae9-54e4-47f0-911d-8e3d27673a24","system_id":"levelo_inurba_marseille","lat":43.292571,"lon":5.409107,"is_reserved":false,"is_disabled":false,"rental_uris":{"android":"levelo://app?vid=a67fdae9-54e4-47f0-911d-8e3d27673a24","ios":"levelo://app?vid=a67fdae9-54e4-47f0-911d-8e3d27673a24"},"vehicle_type_id":"4","last_reported":1704114509,"current_range_meters":26800,"station_id":"ce4bh192rcd13ifvqdc0","pricing_plan_id":"free"},{"bike_id":"d7b74a6d-0877-49d9-9407-79f632a404ca","system_id":"levelo_inurba_marseille","lat":43.27618,"lon":5.361009,"is_reserved":false,"is_disabled":false,"rental_uris":{"android":"levelo://app?vid=d7b74a6d-0877-49d9-9407-79f632a404ca","ios":"levelo://app?vid=d7b74a6d-0877-49d9-9407-79f632a404ca"},"vehicle_type_id":"4","last_reported":1704114509,"current_range_meters":30400,"station_id":"ce4bgj92rcd13ifvqbe0","pricing_plan_id":"free"},{"bike_id":"c058b825-6b65-409c-8371-7d381cccaa9f","system_id":"levelo_inurba_marseille","lat":43.276179,"lon":5.361009,"is_reserved":false,"is_disabled":false,"rental_uris":{"android":"levelo://app?vid=c058b825-6b65-409c-8371-7d381cccaa9f","ios":"levelo://app?vid=c058b825-6b65-409c-8371-7d381cccaa9f"},"vehicle_type_id":"4","last_reported":1704114509,"current_range_meters":22000,"station_id":"ce4bgj92rcd13ifvqbe0","pricing_plan_id":"free"},{"bike_id":"5b33f0d2-6d1c-49c9-b42a-c2d0479f1142","system_id":"levelo_inurba_marseille","lat":43.276179,"lon":5.361009,"is_reserved":false,"is_disabled":false,"rental_uris":{"android":"levelo://app?vid=5b33f0d2-6d1c-49c9-b42a-c2d0479f1142","ios":"levelo://app?vid=5b33f0d2-6d1c-49c9-b42a-c2d0479f1142"},"vehicle_type_id":"4","last_reported":1704114509,"current_range_meters":22000,"station_id":"ce4bgj92rcd13ifvqbe0","pricing_plan_id":"free"},{"bike_id":"21059997-f392-4abf-9503-01b69eba8e1d","system_id":"levelo_inurba_marseille","lat":43.27618,"lon":5.361009,"is_reserved":false,"is_disabled":false,"rental_uris":{"android":"levelo://app?vid=21059997-f392-4abf-9503-01b69eba8e1d","ios":"levelo://app?vid=21059997-f392-4abf-9503-01b69eba8e1d"},"vehicle_type_id":"4","last_reported":1704114509,"current_range_meters":14000,"station_id":"ce4bgj92rcd13ifvqbe0","pricing_plan_id":"free"},{"bike_id":"52710c2c-e727-4072-b4b3-43bca13f4228","system_id":"levelo_inurba_marseille","lat":43.280784,"lon":5.396622,"is_reserved":false,"is_disabled":false,"rental_uris":{"android":"levelo://app?vid=52710c2c-e727-4072-b4b3-43bca13f4228","ios":"levelo://app?vid=52710c2c-e727-4072-b4b3-43bca13f4228"},"vehicle_type_id":"4","last_reported":1704114509,"current_range_meters":23600,"station_id":"ce4bho12rcd13ifvqh2g","pricing_plan_id":"free"},{"bike_id":"e1838f9f-299f-437d-abd8-4f286644fe17","system_id":"levelo_inurba_marseille","lat":43.280784,"lon":5.396622,"is_reserved":false,"is_disabled":false,"rental_uris":{"android":"levelo://app?vid=e1838f9f-299f-437d-abd8-4f286644fe17","ios":"levelo://app?vid=e1838f9f-299f-437d-abd8-4f286644fe17"},"vehicle_type_id":"4","last_reported":1704114509,"current_range_meters":27200,"station_id":"ce4bho12rcd13ifvqh2g","pricing_plan_id":"free"},{"bike_id":"3d32c085-ee83-47ce-925c-01b64e6beb31","system_id":"levelo_inurba_marseille","lat":43.280784,"lon":5.396622,"is_reserved":false,"is_disabled":false,"rental_uris":{"android":"levelo://app?vid=3d32c085-ee83-47ce-925c-01b64e6beb31","ios":"levelo://app?vid=3d32c085-ee83-47ce-925c-01b64e6beb31"},"vehicle_type_id":"4","last_reported":1704114509,"current_range_meters":11600,"station_id":"ce4bho12rcd13ifvqh2g","pricing_plan_id":"free"},{"bike_id":"be3ec271-7530-4ff6-b953-1818862c2710","system_id":"levelo_inurba_marseille","lat":43.303837,"lon":5.418724,"is_reserved":false,"is_disabled":false,"rental_uris":{"android":"levelo://app?vid=be3ec271-7530-4ff6-b953-1818862c2710","ios":"levelo://app?vid=be3ec271-7530-4ff6-b953-1818862c2710"},"vehicle_type_id":"4","last_reported":1704114509,"current_range_meters":29600,"station_id":"ce4bhop2rcd13ifvqh7g","pricing_plan_id":"free"},{"bike_id":"26d12c3f-024f-42d0-a964-efd88742ee6b","system_id":"levelo_inurba_marseille","lat":43.278401,"lon":5.392152,"is_reserved":false,"is_disabled":false,"rental_uris":{"android":"levelo://app?vid=26d12c3f-024f-42d0-a964-efd88742ee6b","ios":"levelo://app?vid=26d12c3f-024f-42d0-a964-efd88742ee6b"},"vehicle_type_id":"4","last_reported":1704114509,"current_range_meters":31200,"station_id":"ce4bhjp2rcd13ifvqga0","pricing_plan_id":"free"},{"bike_id":"4717b55e-7de6-48c5-9744-3b221756249e","system_id":"levelo_inurba_marseille","lat":43.273613,"lon":5.362705,"is_reserved":false,"is_disabled":false,"rental_uris":{"android":"levelo://app?vid=4717b55e-7de6-48c5-9744-3b221756249e","ios":"levelo://app?vid=4717b55e-7de6-48c5-9744-3b221756249e"},"vehicle_type_id":"4","last_reported":1704114509,"current_range_meters":24000,"station_id":"ce4bhbh2rcd13ifvqeo0","pricing_plan_id":"free"},{"bike_id":"9b34b79c-53d8-4615-94b3-99148b78b1fa","system_id":"levelo_inurba_marseille","lat":43.273613,"lon":5.362705,"is_reserved":false,"is_disabled":false,"rental_uris":{"android":"levelo://app?vid=9b34b79c-53d8-4615-94b3-99148b78b1fa","ios":"levelo://app?vid=9b34b79c-53d8-4615-94b3-99148b78b1fa"},"vehicle_type_id":"4","last_reported":1704114509,"current_range_meters":24000,"station_id":"ce4bhbh2rcd13ifvqeo0","pricing_plan_id":"free"},{"bike_id":"85d6f171-1d30-4ed4-bea5-79afe59ea88c","system_id":"levelo_inurba_marseille","lat":43.273613,"lon":5.362705,"is_reserved":false,"is_disabled":false,"rental_uris":{"android":"levelo://app?vid=85d6f171-1d30-4ed4-bea5-79afe59ea88c","ios":"levelo://app?vid=85d6f171-1d30-4ed4-bea5-79afe59ea88c"},"vehicle_type_id":"4","last_reported":1704114509,"current_range_meters":19600,"station_id":"ce4bhbh2rcd13ifvqeo0","pricing_plan_id":"free"},{"bike_id":"44fea3e7-1f36-4452-9530-2d42c71f56e8","system_id":"levelo_inurba_marseille","lat":43.273609,"lon":5.362708,"is_reserved":false,"is_disabled":false,"rental_uris":{"android":"levelo://app?vid=44fea3e7-1f36-4452-9530-2d42c71f56e8","ios":"levelo://app?vid=44fea3e7-1f36-4452-9530-2d42c71f56e8"},"vehicle_type_id":"4","last_reported":1704114509,"current_range_meters":31200,"station_id":"ce4bhbh2rcd13ifvqeo0","pricing_plan_id":"free"},{"bike_id":"824ef797-2a4e-4785-bf6d-29e20bce20dc","system_id":"levelo_inurba_marseille","lat":43.273613,"lon":5.362705,"is_reserved":false,"is_disabled":false,"rental_uris":{"android":"levelo://app?vid=824ef797-2a4e-4785-bf6d-29e20bce20dc","ios":"levelo://app?vid=824ef797-2a4e-4785-bf6d-29e20bce20dc"},"vehicle_type_id":"4","last_reported":1704114509,"current_range_meters":31600,"station_id":"ce4bhbh2rcd13ifvqeo0","pricing_plan_id":"free"},{"bike_id":"5aa13f8a-f8ab-49cc-9d6d-bb5a7504b62e","system_id":"levelo_inurba_marseille","lat":43.273609,"lon":5.362708,"is_reserved":false,"is_disabled":false,"rental_uris":{"android":"levelo://app?vid=5aa13f8a-f8ab-49cc-9d6d-bb5a7504b62e","ios":"levelo://app?vid=5aa13f8a-f8ab-49cc-9d6d-bb5a7504b62e"},"vehicle_type_id":"4","last_reported":1704114509,"current_range_meters":20000,"station_id":"ce4bhbh2rcd13ifvqeo0","pricing_plan_id":"free"},{"bike_id":"6062380a-6af2-4bc6-9057-30fe66edd11a","system_id":"levelo_inurba_marseille","lat":43.275625,"lon":5.384392,"is_reserved":false,"is_disabled":false,"rental_uris":{"android":"levelo://app?vid=6062380a-6af2-4bc6-9057-30fe66edd11a","ios":"levelo://app?vid=6062380a-6af2-4bc6-9057-30fe66edd11a"},"vehicle_type_id":"4","last_reported":1704114509,"current_range_meters":24400,"station_id":"ce4bhh92rcd13ifvqfi0","pricing_plan_id":"free"},{"bike_id":"4d05d184-fbc7-459b-9155-c27fc2b76dab","system_id":"levelo_inurba_marseille","lat":43.340804,"lon":5.410219,"is_reserved":false,"is_disabled":false,"rental_uris":{"android":"levelo://app?vid=4d05d184-fbc7-459b-9155-c27fc2b76dab","ios":"levelo://app?vid=4d05d184-fbc7-459b-9155-c27fc2b76dab"},"vehicle_type_id":"4","last_reported":1704114509,"current_range_meters":24000,"station_id":"ce4bhqh2rcd13ifvqhlg","pricing_plan_id":"free"},{"bike_id":"f5eefd4b-cbea-4401-b96b-63496ddb72b5","system_id":"levelo_inurba_marseille","lat":43.276771,"lon":5.388799,"is_reserved":false,"is_disabled":false,"rental_uris":{"android":"levelo://app?vid=f5eefd4b-cbea-4401-b96b-63496ddb72b5","ios":"levelo://app?vid=f5eefd4b-cbea-4401-b96b-63496ddb72b5"},"vehicle_type_id":"4","last_reported":1704114509,"current_range_meters":26400,"station_id":"ce4bhi12rcd13ifvqfo0","pricing_plan_id":"free"},{"bike_id":"838e390a-0d2f-44c2-87a4-d40aabcd8ccc","system_id":"levelo_inurba_marseille","lat":43.27671,"lon":5.389198,"is_reserved":false,"is_disabled":false,"rental_uris":{"android":"levelo://app?vid=838e390a-0d2f-44c2-87a4-d40aabcd8ccc","ios":"levelo://app?vid=838e390a-0d2f-44c2-87a4-d40aabcd8ccc"},"vehicle_type_id":"4","last_reported":1704114509,"current_range_meters":800,"station_id":"","pricing_plan_id":"free"},{"bike_id":"e8871e5b-9406-4c3a-8ae1-8143dde00374","system_id":"levelo_inurba_marseille","lat":43.273125,"lon":5.390731,"is_reserved":false,"is_disabled":false,"rental_uris":{"android":"levelo://app?vid=e8871e5b-9406-4c3a-8ae1-8143dde00374","ios":"levelo://app?vid=e8871e5b-9406-4c3a-8ae1-8143dde00374"},"vehicle_type_id":"4","last_reported":1704114509,"current_range_meters":3200,"station_id":"ce4bhgp2rcd13ifvqfe0","pricing_plan_id":"free"},{"bike_id":"ad8ead7b-2150-462d-9ff1-f4303c6e32bd","system_id":"levelo_inurba_marseille","lat":43.279952,"lon":5.400085,"is_reserved":false,"is_disabled":false,"rental_uris":{"android":"levelo://app?vid=ad8ead7b-2150-462d-9ff1-f4303c6e32bd","ios":"levelo://app?vid=ad8ead7b-2150-462d-9ff1-f4303c6e32bd"},"vehicle_type_id":"4","last_reported":1704114509,"current_range_meters":25600,"station_id":"ce4bho92rcd13ifvqh4g","pricing_plan_id":"free"},{"bike_id":"5eb7550b-6fa9-4078-96a6-501d4d2ae639","system_id":"levelo_inurba_marseille","lat":43.310785,"lon":5.424305,"is_reserved":false,"is_disabled":false,"rental_uris":{"android":"levelo://app?vid=5eb7550b-6fa9-4078-96a6-501d4d2ae639","ios":"levelo://app?vid=5eb7550b-6fa9-4078-96a6-501d4d2ae639"},"vehicle_type_id":"4","last_reported":1704114509,"current_range_meters":400,"station_id":"ce4bhp92rcd13ifvqhag","pricing_plan_id":"free"},{"bike_id":"ef25db71-e416-49c9-b916-28b50e9ecb79","system_id":"levelo_inurba_marseille","lat":43.273125,"lon":5.390731,"is_reserved":false,"is_disabled":false,"rental_uris":{"android":"levelo://app?vid=ef25db71-e416-49c9-b916-28b50e9ecb79","ios":"levelo://app?vid=ef25db71-e416-49c9-b916-28b50e9ecb79"},"vehicle_type_id":"4","last_reported":1704114509,"current_range_meters":28000,"station_id":"ce4bhgp2rcd13ifvqfe0","pricing_plan_id":"free"},{"bike_id":"dfa1cc6f-2890-4cae-8dca-0f80315c3228","system_id":"levelo_inurba_marseille","lat":43.274103,"lon":5.394016,"is_reserved":false,"is_disabled":false,"rental_uris":{"android":"levelo://app?vid=dfa1cc6f-2890-4cae-8dca-0f80315c3228","ios":"levelo://app?vid=dfa1cc6f-2890-4cae-8dca-0f80315c3228"},"vehicle_type_id":"4","last_reported":1704114509,"current_range_meters":23200,"station_id":"ce4bhdp2rcd13ifvqf20","pricing_plan_id":"free"},{"bike_id":"a6ae6745-cc2a-4641-91d5-cd1a5dfadc84","system_id":"levelo_inurba_marseille","lat":43.295511,"lon":5.422926,"is_reserved":false,"is_disabled":false,"rental_uris":{"android":"levelo://app?vid=a6ae6745-cc2a-4641-91d5-cd1a5dfadc84","ios":"levelo://app?vid=a6ae6745-cc2a-4641-91d5-cd1a5dfadc84"},"vehicle_type_id":"4","last_reported":1704114509,"current_range_meters":31200,"station_id":"ce4bhph2rcd13ifvqhdg","pricing_plan_id":"free"},{"bike_id":"41f15171-621f-4954-97a7-d6a2b2f50acc","system_id":"levelo_inurba_marseille","lat":43.295523,"lon":5.422926,"is_reserved":false,"is_disabled":false,"rental_uris":{"android":"levelo://app?vid=41f15171-621f-4954-97a7-d6a2b2f50acc","ios":"levelo://app?vid=41f15171-621f-4954-97a7-d6a2b2f50acc"},"vehicle_type_id":"4","last_reported":1704114509,"current_range_meters":22400,"station_id":"ce4bhph2rcd13ifvqhdg","pricing_plan_id":"free"},{"bike_id":"d548d66b-88c9-49f9-867c-e26df10c9510","system_id":"levelo_inurba_marseille","lat":43.29553,"lon":5.42286,"is_reserved":false,"is_disabled":false,"rental_uris":{"android":"levelo://app?vid=d548d66b-88c9-49f9-867c-e26df10c9510","ios":"levelo://app?vid=d548d66b-88c9-49f9-867c-e26df10c9510"},"vehicle_type_id":"4","last_reported":1704114509,"current_range_meters":28000,"station_id":"ce4bhph2rcd13ifvqhdg","pricing_plan_id":"free"},{"bike_id":"4d76732f-7782-421c-8602-040de5e6efea","system_id":"levelo_inurba_marseille","lat":43.295511,"lon":5.422926,"is_reserved":false,"is_disabled":false,"rental_uris":{"android":"levelo://app?vid=4d76732f-7782-421c-8602-040de5e6efea","ios":"levelo://app?vid=4d76732f-7782-421c-8602-040de5e6efea"},"vehicle_type_id":"4","last_reported":1704114509,"current_range_meters":26400,"station_id":"ce4bhph2rcd13ifvqhdg","pricing_plan_id":"free"},{"bike_id":"306afd85-beb4-4f6c-b611-066e0436e9ba","system_id":"levelo_inurba_marseille","lat":43.29551,"lon":5.422856,"is_reserved":false,"is_disabled":false,"rental_uris":{"android":"levelo://app?vid=306afd85-beb4-4f6c-b611-066e0436e9ba","ios":"levelo://app?vid=306afd85-beb4-4f6c-b611-066e0436e9ba"},"vehicle_type_id":"4","last_reported":1704114509,"current_range_meters":30400,"station_id":"ce4bhph2rcd13ifvqhdg","pricing_plan_id":"free"},{"bike_id":"926e2c6a-f6fc-4efb-862c-83f5befd1c16","system_id":"levelo_inurba_marseille","lat":43.29555,"lon":5.42288,"is_reserved":false,"is_disabled":false,"rental_uris":{"android":"levelo://app?vid=926e2c6a-f6fc-4efb-862c-83f5befd1c16","ios":"levelo://app?vid=926e2c6a-f6fc-4efb-862c-83f5befd1c16"},"vehicle_type_id":"4","last_reported":1704114509,"current_range_meters":30000,"station_id":"ce4bhph2rcd13ifvqhdg","pricing_plan_id":"free"},{"bike_id":"41474dc8-fc66-4492-8187-098f868c5876","system_id":"levelo_inurba_marseille","lat":43.295511,"lon":5.422926,"is_reserved":false,"is_disabled":false,"rental_uris":{"android":"levelo://app?vid=41474dc8-fc66-4492-8187-098f868c5876","ios":"levelo://app?vid=41474dc8-fc66-4492-8187-098f868c5876"},"vehicle_type_id":"4","last_reported":1704114509,"current_range_meters":22400,"station_id":"ce4bhph2rcd13ifvqhdg","pricing_plan_id":"free"},{"bike_id":"895898bb-a518-42e5-870c-5285ac203034","system_id":"levelo_inurba_marseille","lat":43.272116,"lon":5.391747,"is_reserved":false,"is_disabled":false,"rental_uris":{"android":"levelo://app?vid=895898bb-a518-42e5-870c-5285ac203034","ios":"levelo://app?vid=895898bb-a518-42e5-870c-5285ac203034"},"vehicle_type_id":"4","last_reported":1704114509,"current_range_meters":27200,"station_id":"ce4bhhp2rcd13ifvqfm0","pricing_plan_id":"free"},{"bike_id":"e454f83e-e76d-450d-87e0-14e32c19db6d","system_id":"levelo_inurba_marseille","lat":43.272116,"lon":5.391747,"is_reserved":false,"is_disabled":false,"rental_uris":{"android":"levelo://app?vid=e454f83e-e76d-450d-87e0-14e32c19db6d","ios":"levelo://app?vid=e454f83e-e76d-450d-87e0-14e32c19db6d"},"vehicle_type_id":"4","last_reported":1704114509,"current_range_meters":9200,"station_id":"ce4bhhp2rcd13ifvqfm0","pricing_plan_id":"free"},{"bike_id":"734b83c3-3bb2-4b5e-a732-2e96a5ba488d","system_id":"levelo_inurba_marseille","lat":43.272116,"lon":5.391747,"is_reserved":false,"is_disabled":false,"rental_uris":{"android":"levelo://app?vid=734b83c3-3bb2-4b5e-a732-2e96a5ba488d","ios":"levelo://app?vid=734b83c3-3bb2-4b5e-a732-2e96a5ba488d"},"vehicle_type_id":"4","last_reported":1704114509,"current_range_meters":14000,"station_id":"ce4bhhp2rcd13ifvqfm0","pricing_plan_id":"free"},{"bike_id":"1a052b4b-dcd9-4adb-89b1-9c550ef96ece","system_id":"levelo_inurba_marseille","lat":43.278128,"lon":5.407195,"is_reserved":false,"is_disabled":false,"rental_uris":{"android":"levelo://app?vid=1a052b4b-dcd9-4adb-89b1-9c550ef96ece","ios":"levelo://app?vid=1a052b4b-dcd9-4adb-89b1-9c550ef96ece"},"vehicle_type_id":"4","last_reported":1704114509,"current_range_meters":24400,"station_id":"ce4bhnh2rcd13ifvqgtg","pricing_plan_id":"free"},{"bike_id":"49ed539d-a525-408e-a3e9-48585140e904","system_id":"levelo_inurba_marseille","lat":43.27809,"lon":5.40706,"is_reserved":false,"is_disabled":false,"rental_uris":{"android":"levelo://app?vid=49ed539d-a525-408e-a3e9-48585140e904","ios":"levelo://app?vid=49ed539d-a525-408e-a3e9-48585140e904"},"vehicle_type_id":"4","last_reported":1704114509,"current_range_meters":31200,"station_id":"ce4bhnh2rcd13ifvqgtg","pricing_plan_id":"free"},{"bike_id":"0f431921-4dd9-4037-a211-457cf805d9f2","system_id":"levelo_inurba_marseille","lat":43.279465,"lon":5.410561,"is_reserved":false,"is_disabled":false,"rental_uris":{"android":"levelo://app?vid=0f431921-4dd9-4037-a211-457cf805d9f2","ios":"levelo://app?vid=0f431921-4dd9-4037-a211-457cf805d9f2"},"vehicle_type_id":"4","last_reported":1704114509,"current_range_meters":25600,"station_id":"ce4bhnp2rcd13ifvqh0g","pricing_plan_id":"free"},{"bike_id":"1abcaa87-ef85-4224-abd9-30bc526e4b18","system_id":"levelo_inurba_marseille","lat":43.265714,"lon":5.372891,"is_reserved":false,"is_disabled":false,"rental_uris":{"android":"levelo://app?vid=1abcaa87-ef85-4224-abd9-30bc526e4b18","ios":"levelo://app?vid=1abcaa87-ef85-4224-abd9-30bc526e4b18"},"vehicle_type_id":"4","last_reported":1704114509,"current_range_meters":26000,"station_id":"ce4bhg12rcd13ifvqf70","pricing_plan_id":"free"},{"bike_id":"675c3447-ed59-4418-90ac-55886740276f","system_id":"levelo_inurba_marseille","lat":43.267966,"lon":5.393976,"is_reserved":false,"is_disabled":false,"rental_uris":{"android":"levelo://app?vid=675c3447-ed59-4418-90ac-55886740276f","ios":"levelo://app?vid=675c3447-ed59-4418-90ac-55886740276f"},"vehicle_type_id":"4","last_reported":1704114509,"current_range_meters":24800,"station_id":"ce4bhh12rcd13ifvqfg0","pricing_plan_id":"free"},{"bike_id":"4e7b82a4-f271-4a72-bdbd-460d1cfbd58d","system_id":"levelo_inurba_marseille","lat":43.27181,"lon":5.404997,"is_reserved":false,"is_disabled":false,"rental_uris":{"android":"levelo://app?vid=4e7b82a4-f271-4a72-bdbd-460d1cfbd58d","ios":"levelo://app?vid=4e7b82a4-f271-4a72-bdbd-460d1cfbd58d"},"vehicle_type_id":"4","last_reported":1704114509,"current_range_meters":10400,"station_id":"","pricing_plan_id":"free"},{"bike_id":"d33e8969-6922-4859-9d3d-cd1f548e259b","system_id":"levelo_inurba_marseille","lat":43.231919,"lon":5.355532,"is_reserved":false,"is_disabled":false,"rental_uris":{"android":"levelo://app?vid=d33e8969-6922-4859-9d3d-cd1f548e259b","ios":"levelo://app?vid=d33e8969-6922-4859-9d3d-cd1f548e259b"},"vehicle_type_id":"4","last_reported":1704114509,"current_range_meters":9600,"station_id":"ce4bhu92rcd13ifvqi70","pricing_plan_id":"free"},{"bike_id":"3ed4222d-3eb5-439b-8911-728f19db683e","system_id":"levelo_inurba_marseille","lat":43.308051,"lon":5.43527,"is_reserved":false,"is_disabled":false,"rental_uris":{"android":"levelo://app?vid=3ed4222d-3eb5-439b-8911-728f19db683e","ios":"levelo://app?vid=3ed4222d-3eb5-439b-8911-728f19db683e"},"vehicle_type_id":"4","last_reported":1704114509,"current_range_meters":27200,"station_id":"ce4bhph2rcd13ifvqheg","pricing_plan_id":"free"},{"bike_id":"9ac33b84-00e2-4b9d-9fa8-2e1ec3262473","system_id":"levelo_inurba_marseille","lat":43.265571,"lon":5.390032,"is_reserved":false,"is_disabled":false,"rental_uris":{"android":"levelo://app?vid=9ac33b84-00e2-4b9d-9fa8-2e1ec3262473","ios":"levelo://app?vid=9ac33b84-00e2-4b9d-9fa8-2e1ec3262473"},"vehicle_type_id":"4","last_reported":1704114509,"current_range_meters":29600,"station_id":"ce4bhe12rcd13ifvqf30","pricing_plan_id":"free"},{"bike_id":"5c61e93a-703d-4666-948a-839c6fe7737a","system_id":"levelo_inurba_marseille","lat":43.26949,"lon":5.40262,"is_reserved":false,"is_disabled":false,"rental_uris":{"android":"levelo://app?vid=5c61e93a-703d-4666-948a-839c6fe7737a","ios":"levelo://app?vid=5c61e93a-703d-4666-948a-839c6fe7737a"},"vehicle_type_id":"4","last_reported":1704114509,"current_range_meters":3200,"station_id":"cjm6bp8fraef2m0cb0m0","pricing_plan_id":"free"},{"bike_id":"dac5ea74-92f7-462e-b536-31f322bb01c0","system_id":"levelo_inurba_marseille","lat":43.331893,"lon":5.431791,"is_reserved":false,"is_disabled":false,"rental_uris":{"android":"levelo://app?vid=dac5ea74-92f7-462e-b536-31f322bb01c0","ios":"levelo://app?vid=dac5ea74-92f7-462e-b536-31f322bb01c0"},"vehicle_type_id":"4","last_reported":1704114509,"current_range_meters":7600,"station_id":"","pricing_plan_id":"free"},{"bike_id":"48d13fb9-afb7-4af8-aa14-257989bb9a60","system_id":"levelo_inurba_marseille","lat":43.261782,"lon":5.374515,"is_reserved":false,"is_disabled":false,"rental_uris":{"android":"levelo://app?vid=48d13fb9-afb7-4af8-aa14-257989bb9a60","ios":"levelo://app?vid=48d13fb9-afb7-4af8-aa14-257989bb9a60"},"vehicle_type_id":"4","last_reported":1704114509,"current_range_meters":22800,"station_id":"ce4bhgp2rcd13ifvqfc0","pricing_plan_id":"free"},{"bike_id":"1462c9a7-3d14-4dd6-82f9-e9bb21b1f3dc","system_id":"levelo_inurba_marseille","lat":43.317104,"lon":5.436818,"is_reserved":false,"is_disabled":false,"rental_uris":{"android":"levelo://app?vid=1462c9a7-3d14-4dd6-82f9-e9bb21b1f3dc","ios":"levelo://app?vid=1462c9a7-3d14-4dd6-82f9-e9bb21b1f3dc"},"vehicle_type_id":"4","last_reported":1704114509,"current_range_meters":24000,"station_id":"ce4bhp92rcd13ifvqhcg","pricing_plan_id":"free"},{"bike_id":"8c7df74b-a509-49f1-af95-b0a69adf8f56","system_id":"levelo_inurba_marseille","lat":43.31707,"lon":5.43707,"is_reserved":false,"is_disabled":false,"rental_uris":{"android":"levelo://app?vid=8c7df74b-a509-49f1-af95-b0a69adf8f56","ios":"levelo://app?vid=8c7df74b-a509-49f1-af95-b0a69adf8f56"},"vehicle_type_id":"4","last_reported":1704114509,"current_range_meters":30400,"station_id":"ce4bhp92rcd13ifvqhcg","pricing_plan_id":"free"},{"bike_id":"09f009bd-9e78-4a83-b2bb-05fc1c2bb7eb","system_id":"levelo_inurba_marseille","lat":43.317104,"lon":5.436818,"is_reserved":false,"is_disabled":false,"rental_uris":{"android":"levelo://app?vid=09f009bd-9e78-4a83-b2bb-05fc1c2bb7eb","ios":"levelo://app?vid=09f009bd-9e78-4a83-b2bb-05fc1c2bb7eb"},"vehicle_type_id":"4","last_reported":1704114509,"current_range_meters":31200,"station_id":"ce4bhp92rcd13ifvqhcg","pricing_plan_id":"free"},{"bike_id":"24a8f553-12c1-4d7b-acf9-7cb382e5158b","system_id":"levelo_inurba_marseille","lat":43.26802,"lon":5.40265,"is_reserved":false,"is_disabled":false,"rental_uris":{"android":"levelo://app?vid=24a8f553-12c1-4d7b-acf9-7cb382e5158b","ios":"levelo://app?vid=24a8f553-12c1-4d7b-acf9-7cb382e5158b"},"vehicle_type_id":"4","last_reported":1704114509,"current_range_meters":26400,"station_id":"ce501612rcd8frsf0b60","pricing_plan_id":"free"},{"bike_id":"f359195f-f069-42a0-b818-68741f0dae01","system_id":"levelo_inurba_marseille","lat":43.298768,"lon":5.43643,"is_reserved":false,"is_disabled":false,"rental_uris":{"android":"levelo://app?vid=f359195f-f069-42a0-b818-68741f0dae01","ios":"levelo://app?vid=f359195f-f069-42a0-b818-68741f0dae01"},"vehicle_type_id":"4","last_reported":1704114509,"current_range_meters":29600,"station_id":"ce4bhpp2rcd13ifvqhfg","pricing_plan_id":"free"},{"bike_id":"2aef17d2-5e1a-42db-a1a2-eebc4e3d678f","system_id":"levelo_inurba_marseille","lat":43.298768,"lon":5.43643,"is_reserved":false,"is_disabled":false,"rental_uris":{"android":"levelo://app?vid=2aef17d2-5e1a-42db-a1a2-eebc4e3d678f","ios":"levelo://app?vid=2aef17d2-5e1a-42db-a1a2-eebc4e3d678f"},"vehicle_type_id":"4","last_reported":1704114509,"current_range_meters":9600,"station_id":"ce4bhpp2rcd13ifvqhfg","pricing_plan_id":"free"},{"bike_id":"ec17f12b-76f2-4e38-bdf0-2f3dcd905333","system_id":"levelo_inurba_marseille","lat":43.298768,"lon":5.43643,"is_reserved":false,"is_disabled":false,"rental_uris":{"android":"levelo://app?vid=ec17f12b-76f2-4e38-bdf0-2f3dcd905333","ios":"levelo://app?vid=ec17f12b-76f2-4e38-bdf0-2f3dcd905333"},"vehicle_type_id":"4","last_reported":1704114509,"current_range_meters":28400,"station_id":"ce4bhpp2rcd13ifvqhfg","pricing_plan_id":"free"},{"bike_id":"51b307ad-3e03-4c88-8cbb-3669bbc8a1ad","system_id":"levelo_inurba_marseille","lat":43.281548,"lon":5.42643,"is_reserved":false,"is_disabled":false,"rental_uris":{"android":"levelo://app?vid=51b307ad-3e03-4c88-8cbb-3669bbc8a1ad","ios":"levelo://app?vid=51b307ad-3e03-4c88-8cbb-3669bbc8a1ad"},"vehicle_type_id":"4","last_reported":1704114509,"current_range_meters":31200,"station_id":"ce4bhnh2rcd13ifvqgug","pricing_plan_id":"free"},{"bike_id":"e32e8b2f-227a-41f1-a651-f92b4e26dae8","system_id":"levelo_inurba_marseille","lat":43.281548,"lon":5.42643,"is_reserved":false,"is_disabled":false,"rental_uris":{"android":"levelo://app?vid=e32e8b2f-227a-41f1-a651-f92b4e26dae8","ios":"levelo://app?vid=e32e8b2f-227a-41f1-a651-f92b4e26dae8"},"vehicle_type_id":"4","last_reported":1704114509,"current_range_meters":400,"station_id":"ce4bhnh2rcd13ifvqgug","pricing_plan_id":"free"},{"bike_id":"5a04ea17-eb41-4e08-b828-ac0858829f65","system_id":"levelo_inurba_marseille","lat":43.281548,"lon":5.42643,"is_reserved":false,"is_disabled":false,"rental_uris":{"android":"levelo://app?vid=5a04ea17-eb41-4e08-b828-ac0858829f65","ios":"levelo://app?vid=5a04ea17-eb41-4e08-b828-ac0858829f65"},"vehicle_type_id":"4","last_reported":1704114509,"current_range_meters":18800,"station_id":"ce4bhnh2rcd13ifvqgug","pricing_plan_id":"free"},{"bike_id":"239866bf-d593-439b-8f00-008a123dffd7","system_id":"levelo_inurba_marseille","lat":43.281548,"lon":5.42643,"is_reserved":false,"is_disabled":false,"rental_uris":{"android":"levelo://app?vid=239866bf-d593-439b-8f00-008a123dffd7","ios":"levelo://app?vid=239866bf-d593-439b-8f00-008a123dffd7"},"vehicle_type_id":"4","last_reported":1704114509,"current_range_meters":31200,"station_id":"ce4bhnh2rcd13ifvqgug","pricing_plan_id":"free"},{"bike_id":"20f457aa-21b0-4254-bd2f-8b6f31ce302e","system_id":"levelo_inurba_marseille","lat":43.281548,"lon":5.42643,"is_reserved":false,"is_disabled":false,"rental_uris":{"android":"levelo://app?vid=20f457aa-21b0-4254-bd2f-8b6f31ce302e","ios":"levelo://app?vid=20f457aa-21b0-4254-bd2f-8b6f31ce302e"},"vehicle_type_id":"4","last_reported":1704114509,"current_range_meters":31200,"station_id":"ce4bhnh2rcd13ifvqgug","pricing_plan_id":"free"},{"bike_id":"dd2ae354-b374-4e9f-a915-275627cc27df","system_id":"levelo_inurba_marseille","lat":43.281548,"lon":5.42643,"is_reserved":false,"is_disabled":false,"rental_uris":{"android":"levelo://app?vid=dd2ae354-b374-4e9f-a915-275627cc27df","ios":"levelo://app?vid=dd2ae354-b374-4e9f-a915-275627cc27df"},"vehicle_type_id":"4","last_reported":1704114509,"current_range_meters":27600,"station_id":"ce4bhnh2rcd13ifvqgug","pricing_plan_id":"free"},{"bike_id":"a06ec287-2a56-41b0-9658-83b9e37bbbe8","system_id":"levelo_inurba_marseille","lat":43.275028,"lon":5.424534,"is_reserved":false,"is_disabled":false,"rental_uris":{"android":"levelo://app?vid=a06ec287-2a56-41b0-9658-83b9e37bbbe8","ios":"levelo://app?vid=a06ec287-2a56-41b0-9658-83b9e37bbbe8"},"vehicle_type_id":"4","last_reported":1704114509,"current_range_meters":31200,"station_id":"ce4bhn92rcd13ifvqgrg","pricing_plan_id":"free"},{"bike_id":"c3b597f8-0e69-4c23-be26-e5b458587bee","system_id":"levelo_inurba_marseille","lat":43.27494,"lon":5.42456,"is_reserved":false,"is_disabled":false,"rental_uris":{"android":"levelo://app?vid=c3b597f8-0e69-4c23-be26-e5b458587bee","ios":"levelo://app?vid=c3b597f8-0e69-4c23-be26-e5b458587bee"},"vehicle_type_id":"4","last_reported":1704114509,"current_range_meters":31200,"station_id":"ce4bhn92rcd13ifvqgrg","pricing_plan_id":"free"},{"bike_id":"1f87e6c2-093d-4bd6-b578-996905faeebc","system_id":"levelo_inurba_marseille","lat":43.254947,"lon":5.376454,"is_reserved":false,"is_disabled":false,"rental_uris":{"android":"levelo://app?vid=1f87e6c2-093d-4bd6-b578-996905faeebc","ios":"levelo://app?vid=1f87e6c2-093d-4bd6-b578-996905faeebc"},"vehicle_type_id":"4","last_reported":1704114509,"current_range_meters":7200,"station_id":"ce4bhh12rcd13ifvqff0","pricing_plan_id":"free"},{"bike_id":"7c8ccec3-7efb-4fe6-a5bb-a1ad1fbde08f","system_id":"levelo_inurba_marseille","lat":43.254947,"lon":5.376454,"is_reserved":false,"is_disabled":false,"rental_uris":{"android":"levelo://app?vid=7c8ccec3-7efb-4fe6-a5bb-a1ad1fbde08f","ios":"levelo://app?vid=7c8ccec3-7efb-4fe6-a5bb-a1ad1fbde08f"},"vehicle_type_id":"4","last_reported":1704114509,"current_range_meters":18800,"station_id":"ce4bhh12rcd13ifvqff0","pricing_plan_id":"free"},{"bike_id":"597c3e50-ede6-4e86-b038-61fe611b12c7","system_id":"levelo_inurba_marseille","lat":43.27068,"lon":5.42282,"is_reserved":false,"is_disabled":false,"rental_uris":{"android":"levelo://app?vid=597c3e50-ede6-4e86-b038-61fe611b12c7","ios":"levelo://app?vid=597c3e50-ede6-4e86-b038-61fe611b12c7"},"vehicle_type_id":"4","last_reported":1704114509,"current_range_meters":28800,"station_id":"ce4bhk92rcd13ifvqgb0","pricing_plan_id":"free"},{"bike_id":"490aff17-67d0-4e9d-b330-a788b54cebad","system_id":"levelo_inurba_marseille","lat":43.258658,"lon":5.398935,"is_reserved":false,"is_disabled":false,"rental_uris":{"android":"levelo://app?vid=490aff17-67d0-4e9d-b330-a788b54cebad","ios":"levelo://app?vid=490aff17-67d0-4e9d-b330-a788b54cebad"},"vehicle_type_id":"4","last_reported":1704114509,"current_range_meters":28000,"station_id":"ce4bhl92rcd13ifvqghg","pricing_plan_id":"free"},{"bike_id":"077f59a4-fb79-4d1a-b932-3ba0ec5c98ba","system_id":"levelo_inurba_marseille","lat":43.259013,"lon":5.409301,"is_reserved":false,"is_disabled":false,"rental_uris":{"android":"levelo://app?vid=077f59a4-fb79-4d1a-b932-3ba0ec5c98ba","ios":"levelo://app?vid=077f59a4-fb79-4d1a-b932-3ba0ec5c98ba"},