{"last_updated":1701371021,"ttl":30,"version":"2.2","data":{"bikes":[{"bike_id":"7eeda52a-4a8b-43fb-86cc-a4d90419973d","system_id":"levelo_inurba_marseille","lat":43.312239,"lon":5.368562,"is_reserved":false,"is_disabled":false,"rental_uris":{"android":"levelo://app?vid=7eeda52a-4a8b-43fb-86cc-a4d90419973d","ios":"levelo://app?vid=7eeda52a-4a8b-43fb-86cc-a4d90419973d"},"vehicle_type_id":"4","last_reported":1701371021,"current_range_meters":7600,"station_id":"ce4bgl92rcd13ifvqbq0","pricing_plan_id":"free"},{"bike_id":"85ebfaaa-3017-45f3-906e-a6c2319c069c","system_id":"levelo_inurba_marseille","lat":43.308503,"lon":5.368767,"is_reserved":false,"is_disabled":false,"rental_uris":{"android":"levelo://app?vid=85ebfaaa-3017-45f3-906e-a6c2319c069c","ios":"levelo://app?vid=85ebfaaa-3017-45f3-906e-a6c2319c069c"},"vehicle_type_id":"4","last_reported":1701371021,"current_range_meters":14000,"station_id":"ce4bgn92rcd13ifvqbvg","pricing_plan_id":"free"},{"bike_id":"b7d63742-f23e-46ac-9467-91da7702939d","system_id":"levelo_inurba_marseille","lat":43.309039,"lon":5.371797,"is_reserved":false,"is_disabled":false,"rental_uris":{"android":"levelo://app?vid=b7d63742-f23e-46ac-9467-91da7702939d","ios":"levelo://app?vid=b7d63742-f23e-46ac-9467-91da7702939d"},"vehicle_type_id":"4","last_reported":1701371021,"current_range_meters":15600,"station_id":"ce4bguh2rcd13ifvqckg","pricing_plan_id":"free"},{"bike_id":"18f94b51-0045-4ced-b749-0c4009749f90","system_id":"levelo_inurba_marseille","lat":43.305989,"lon":5.37225,"is_reserved":false,"is_disabled":false,"rental_uris":{"android":"levelo://app?vid=18f94b51-0045-4ced-b749-0c4009749f90","ios":"levelo://app?vid=18f94b51-0045-4ced-b749-0c4009749f90"},"vehicle_type_id":"4","last_reported":1701371021,"current_range_meters":18800,"station_id":"ce4bgqh2rcd13ifvqc4g","pricing_plan_id":"free"},{"bike_id":"727d231a-d425-4d8f-ad3f-99b5a47572e8","system_id":"levelo_inurba_marseille","lat":43.30439,"lon":5.36753,"is_reserved":false,"is_disabled":false,"rental_uris":{"android":"levelo://app?vid=727d231a-d425-4d8f-ad3f-99b5a47572e8","ios":"levelo://app?vid=727d231a-d425-4d8f-ad3f-99b5a47572e8"},"vehicle_type_id":"4","last_reported":1701371021,"current_range_meters":31200,"station_id":"","pricing_plan_id":"free"},{"bike_id":"28b67163-d496-4d2f-a83c-ef6bda2c636e","system_id":"levelo_inurba_marseille","lat":43.30823,"lon":5.37663,"is_reserved":false,"is_disabled":false,"rental_uris":{"android":"levelo://app?vid=28b67163-d496-4d2f-a83c-ef6bda2c636e","ios":"levelo://app?vid=28b67163-d496-4d2f-a83c-ef6bda2c636e"},"vehicle_type_id":"4","last_reported":1701371021,"current_range_meters":4800,"station_id":"ce4bgv92rcd13ifvqcq0","pricing_plan_id":"free"},{"bike_id":"77a0c47b-7fe7-4581-8fa4-eef488061113","system_id":"levelo_inurba_marseille","lat":43.307945,"lon":5.376487,"is_reserved":false,"is_disabled":false,"rental_uris":{"android":"levelo://app?vid=77a0c47b-7fe7-4581-8fa4-eef488061113","ios":"levelo://app?vid=77a0c47b-7fe7-4581-8fa4-eef488061113"},"vehicle_type_id":"4","last_reported":1701371021,"current_range_meters":13200,"station_id":"ce4bgv92rcd13ifvqcq0","pricing_plan_id":"free"},{"bike_id":"f427a2c3-6e4a-446b-ae2f-9be8aa7f4122","system_id":"levelo_inurba_marseille","lat":43.31719,"lon":5.376813,"is_reserved":false,"is_disabled":false,"rental_uris":{"android":"levelo://app?vid=f427a2c3-6e4a-446b-ae2f-9be8aa7f4122","ios":"levelo://app?vid=f427a2c3-6e4a-446b-ae2f-9be8aa7f4122"},"vehicle_type_id":"4","last_reported":1701371021,"current_range_meters":4800,"station_id":"ce4bgth2rcd13ifvqch0","pricing_plan_id":"free"},{"bike_id":"e913f328-1e31-4c22-bd87-f809ea246de4","system_id":"levelo_inurba_marseille","lat":43.317168,"lon":5.376883,"is_reserved":false,"is_disabled":false,"rental_uris":{"android":"levelo://app?vid=e913f328-1e31-4c22-bd87-f809ea246de4","ios":"levelo://app?vid=e913f328-1e31-4c22-bd87-f809ea246de4"},"vehicle_type_id":"4","last_reported":1701371021,"current_range_meters":7200,"station_id":"ce4bgth2rcd13ifvqch0","pricing_plan_id":"free"},{"bike_id":"54655204-f7f0-4e99-91dd-01119c114e28","system_id":"levelo_inurba_marseille","lat":43.317075,"lon":5.377367,"is_reserved":false,"is_disabled":false,"rental_uris":{"android":"levelo://app?vid=54655204-f7f0-4e99-91dd-01119c114e28","ios":"levelo://app?vid=54655204-f7f0-4e99-91dd-01119c114e28"},"vehicle_type_id":"4","last_reported":1701371021,"current_range_meters":20800,"station_id":"ce4bgth2rcd13ifvqch0","pricing_plan_id":"free"},{"bike_id":"d2523c3e-c0c1-4955-92a2-21d295205252","system_id":"levelo_inurba_marseille","lat":43.317075,"lon":5.377367,"is_reserved":false,"is_disabled":false,"rental_uris":{"android":"levelo://app?vid=d2523c3e-c0c1-4955-92a2-21d295205252","ios":"levelo://app?vid=d2523c3e-c0c1-4955-92a2-21d295205252"},"vehicle_type_id":"4","last_reported":1701371021,"current_range_meters":11600,"station_id":"ce4bgth2rcd13ifvqch0","pricing_plan_id":"free"},{"bike_id":"8105ef02-0948-43b5-963d-bfe02b5e57ee","system_id":"levelo_inurba_marseille","lat":43.303046,"lon":5.368981,"is_reserved":false,"is_disabled":false,"rental_uris":{"android":"levelo://app?vid=8105ef02-0948-43b5-963d-bfe02b5e57ee","ios":"levelo://app?vid=8105ef02-0948-43b5-963d-bfe02b5e57ee"},"vehicle_type_id":"4","last_reported":1701371021,"current_range_meters":30000,"station_id":"ce4bgqh2rcd13ifvqc5g","pricing_plan_id":"free"},{"bike_id":"bef3c888-e26e-4daf-a279-528d05d9f20b","system_id":"levelo_inurba_marseille","lat":43.30143,"lon":5.37413,"is_reserved":false,"is_disabled":false,"rental_uris":{"android":"levelo://app?vid=bef3c888-e26e-4daf-a279-528d05d9f20b","ios":"levelo://app?vid=bef3c888-e26e-4daf-a279-528d05d9f20b"},"vehicle_type_id":"4","last_reported":1701371021,"current_range_meters":21200,"station_id":"ce4bgs92rcd13ifvqcc0","pricing_plan_id":"free"},{"bike_id":"d6f1e1ec-df39-403a-8b82-2a4e3742a0dc","system_id":"levelo_inurba_marseille","lat":43.3153,"lon":5.38026,"is_reserved":false,"is_disabled":false,"rental_uris":{"android":"levelo://app?vid=d6f1e1ec-df39-403a-8b82-2a4e3742a0dc","ios":"levelo://app?vid=d6f1e1ec-df39-403a-8b82-2a4e3742a0dc"},"vehicle_type_id":"4","last_reported":1701371021,"current_range_meters":7600,"station_id":"ce4bhsp2rcd13ifvqi50","pricing_plan_id":"free"},{"bike_id":"a353da53-2844-47b1-b7b8-563a86bb4f14","system_id":"levelo_inurba_marseille","lat":43.315293,"lon":5.380349,"is_reserved":false,"is_disabled":false,"rental_uris":{"android":"levelo://app?vid=a353da53-2844-47b1-b7b8-563a86bb4f14","ios":"levelo://app?vid=a353da53-2844-47b1-b7b8-563a86bb4f14"},"vehicle_type_id":"4","last_reported":1701371021,"current_range_meters":23600,"station_id":"ce4bhsp2rcd13ifvqi50","pricing_plan_id":"free"},{"bike_id":"7337ff9e-2e2f-4ef8-a985-8767d7daa112","system_id":"levelo_inurba_marseille","lat":43.32482,"lon":5.36564,"is_reserved":false,"is_disabled":false,"rental_uris":{"android":"levelo://app?vid=7337ff9e-2e2f-4ef8-a985-8767d7daa112","ios":"levelo://app?vid=7337ff9e-2e2f-4ef8-a985-8767d7daa112"},"vehicle_type_id":"4","last_reported":1701371021,"current_range_meters":13200,"station_id":"ce4bhs12rcd13ifvqhvg","pricing_plan_id":"free"},{"bike_id":"9a8c326a-2956-42d0-9bce-9c1da7b272ea","system_id":"levelo_inurba_marseille","lat":43.319935,"lon":5.381699,"is_reserved":false,"is_disabled":false,"rental_uris":{"android":"levelo://app?vid=9a8c326a-2956-42d0-9bce-9c1da7b272ea","ios":"levelo://app?vid=9a8c326a-2956-42d0-9bce-9c1da7b272ea"},"vehicle_type_id":"4","last_reported":1701371021,"current_range_meters":21600,"station_id":"ce4bhr12rcd13ifvqhpg","pricing_plan_id":"free"},{"bike_id":"a7ca3d4c-28e3-48b3-bafa-5cc2ba79900d","system_id":"levelo_inurba_marseille","lat":43.319978,"lon":5.381568,"is_reserved":false,"is_disabled":false,"rental_uris":{"android":"levelo://app?vid=a7ca3d4c-28e3-48b3-bafa-5cc2ba79900d","ios":"levelo://app?vid=a7ca3d4c-28e3-48b3-bafa-5cc2ba79900d"},"vehicle_type_id":"4","last_reported":1701371021,"current_range_meters":17200,"station_id":"ce4bhr12rcd13ifvqhpg","pricing_plan_id":"free"},{"bike_id":"2275aca5-3158-4c2c-8022-ca5d2714bc86","system_id":"levelo_inurba_marseille","lat":43.319997,"lon":5.381594,"is_reserved":false,"is_disabled":false,"rental_uris":{"android":"levelo://app?vid=2275aca5-3158-4c2c-8022-ca5d2714bc86","ios":"levelo://app?vid=2275aca5-3158-4c2c-8022-ca5d2714bc86"},"vehicle_type_id":"4","last_reported":1701371021,"current_range_meters":22000,"station_id":"ce4bhr12rcd13ifvqhpg","pricing_plan_id":"free"},{"bike_id":"718ae525-2571-43d2-96e4-e90e60e9569f","system_id":"levelo_inurba_marseille","lat":43.31995,"lon":5.38166,"is_reserved":false,"is_disabled":false,"rental_uris":{"android":"levelo://app?vid=718ae525-2571-43d2-96e4-e90e60e9569f","ios":"levelo://app?vid=718ae525-2571-43d2-96e4-e90e60e9569f"},"vehicle_type_id":"4","last_reported":1701371021,"current_range_meters":0,"station_id":"ce4bhr12rcd13ifvqhpg","pricing_plan_id":"free"},{"bike_id":"2009f5a0-70a6-4c94-babd-2a20ad660788","system_id":"levelo_inurba_marseille","lat":43.313571,"lon":5.384829,"is_reserved":false,"is_disabled":false,"rental_uris":{"android":"levelo://app?vid=2009f5a0-70a6-4c94-babd-2a20ad660788","ios":"levelo://app?vid=2009f5a0-70a6-4c94-babd-2a20ad660788"},"vehicle_type_id":"4","last_reported":1701371021,"current_range_meters":22800,"station_id":"ce4bgt92rcd13ifvqcf0","pricing_plan_id":"free"},{"bike_id":"72dcacfb-91e1-4c51-81ed-e191326091e3","system_id":"levelo_inurba_marseille","lat":43.313667,"lon":5.384893,"is_reserved":false,"is_disabled":false,"rental_uris":{"android":"levelo://app?vid=72dcacfb-91e1-4c51-81ed-e191326091e3","ios":"levelo://app?vid=72dcacfb-91e1-4c51-81ed-e191326091e3"},"vehicle_type_id":"4","last_reported":1701371021,"current_range_meters":0,"station_id":"ce4bgt92rcd13ifvqcf0","pricing_plan_id":"free"},{"bike_id":"3cedea7c-d6e8-4d27-825b-65180335ce7b","system_id":"levelo_inurba_marseille","lat":43.313571,"lon":5.384829,"is_reserved":false,"is_disabled":false,"rental_uris":{"android":"levelo://app?vid=3cedea7c-d6e8-4d27-825b-65180335ce7b","ios":"levelo://app?vid=3cedea7c-d6e8-4d27-825b-65180335ce7b"},"vehicle_type_id":"4","last_reported":1701371021,"current_range_meters":28000,"station_id":"ce4bgt92rcd13ifvqcf0","pricing_plan_id":"free"},{"bike_id":"25dd399b-b40f-4542-825f-fcf128b4ba72","system_id":"levelo_inurba_marseille","lat":43.29925,"lon":5.36626,"is_reserved":false,"is_disabled":false,"rental_uris":{"android":"levelo://app?vid=25dd399b-b40f-4542-825f-fcf128b4ba72","ios":"levelo://app?vid=25dd399b-b40f-4542-825f-fcf128b4ba72"},"vehicle_type_id":"4","last_reported":1701371021,"current_range_meters":24000,"station_id":"","pricing_plan_id":"free"},{"bike_id":"48e43dd7-5287-4e92-b8ee-e7db031340e2","system_id":"levelo_inurba_marseille","lat":43.298433,"lon":5.362774,"is_reserved":false,"is_disabled":false,"rental_uris":{"android":"levelo://app?vid=48e43dd7-5287-4e92-b8ee-e7db031340e2","ios":"levelo://app?vid=48e43dd7-5287-4e92-b8ee-e7db031340e2"},"vehicle_type_id":"4","last_reported":1701371021,"current_range_meters":12400,"station_id":"ce4bgpp2rcd13ifvqc3g","pricing_plan_id":"free"},{"bike_id":"aebb5f1f-3a1e-4323-a4f0-ae83e0b78d14","system_id":"levelo_inurba_marseille","lat":43.327603,"lon":5.36705,"is_reserved":false,"is_disabled":false,"rental_uris":{"android":"levelo://app?vid=aebb5f1f-3a1e-4323-a4f0-ae83e0b78d14","ios":"levelo://app?vid=aebb5f1f-3a1e-4323-a4f0-ae83e0b78d14"},"vehicle_type_id":"4","last_reported":1701371021,"current_range_meters":23600,"station_id":"","pricing_plan_id":"free"},{"bike_id":"a857c4c0-ebec-45a9-b9f5-ea7765299a80","system_id":"levelo_inurba_marseille","lat":43.322872,"lon":5.382756,"is_reserved":false,"is_disabled":false,"rental_uris":{"android":"levelo://app?vid=a857c4c0-ebec-45a9-b9f5-ea7765299a80","ios":"levelo://app?vid=a857c4c0-ebec-45a9-b9f5-ea7765299a80"},"vehicle_type_id":"4","last_reported":1701371021,"current_range_meters":3600,"station_id":"ce4bhr12rcd13ifvqhqg","pricing_plan_id":"free"},{"bike_id":"11fbc002-5b4d-4629-a038-bbbaf88697c2","system_id":"levelo_inurba_marseille","lat":43.322872,"lon":5.382756,"is_reserved":false,"is_disabled":false,"rental_uris":{"android":"levelo://app?vid=11fbc002-5b4d-4629-a038-bbbaf88697c2","ios":"levelo://app?vid=11fbc002-5b4d-4629-a038-bbbaf88697c2"},"vehicle_type_id":"4","last_reported":1701371021,"current_range_meters":30000,"station_id":"ce4bhr12rcd13ifvqhqg","pricing_plan_id":"free"},{"bike_id":"d068864e-3768-4cb7-8f2c-e01febcf4d60","system_id":"levelo_inurba_marseille","lat":43.29623,"lon":5.36516,"is_reserved":false,"is_disabled":false,"rental_uris":{"android":"levelo://app?vid=d068864e-3768-4cb7-8f2c-e01febcf4d60","ios":"levelo://app?vid=d068864e-3768-4cb7-8f2c-e01febcf4d60"},"vehicle_type_id":"4","last_reported":1701371021,"current_range_meters":12000,"station_id":"","pricing_plan_id":"free"},{"bike_id":"2b24c94c-382b-4740-b254-81573f20bbed","system_id":"levelo_inurba_marseille","lat":43.295979,"lon":5.367939,"is_reserved":false,"is_disabled":false,"rental_uris":{"android":"levelo://app?vid=2b24c94c-382b-4740-b254-81573f20bbed","ios":"levelo://app?vid=2b24c94c-382b-4740-b254-81573f20bbed"},"vehicle_type_id":"4","last_reported":1701371021,"current_range_meters":7600,"station_id":"","pricing_plan_id":"free"},{"bike_id":"c4772a4a-f634-4ea0-ba29-fe3780e2e0ce","system_id":"levelo_inurba_marseille","lat":43.309589,"lon":5.390258,"is_reserved":false,"is_disabled":false,"rental_uris":{"android":"levelo://app?vid=c4772a4a-f634-4ea0-ba29-fe3780e2e0ce","ios":"levelo://app?vid=c4772a4a-f634-4ea0-ba29-fe3780e2e0ce"},"vehicle_type_id":"4","last_reported":1701371021,"current_range_meters":12800,"station_id":"ce4bgup2rcd13ifvqco0","pricing_plan_id":"free"},{"bike_id":"8f66730c-9531-4440-8035-1361731a23cb","system_id":"levelo_inurba_marseille","lat":43.317557,"lon":5.390173,"is_reserved":false,"is_disabled":false,"rental_uris":{"android":"levelo://app?vid=8f66730c-9531-4440-8035-1361731a23cb","ios":"levelo://app?vid=8f66730c-9531-4440-8035-1361731a23cb"},"vehicle_type_id":"4","last_reported":1701371021,"current_range_meters":2400,"station_id":"ce4bhqp2rcd13ifvqhng","pricing_plan_id":"free"},{"bike_id":"466938ea-1d09-4ac1-8658-95b6e9e80d55","system_id":"levelo_inurba_marseille","lat":43.317557,"lon":5.390173,"is_reserved":false,"is_disabled":false,"rental_uris":{"android":"levelo://app?vid=466938ea-1d09-4ac1-8658-95b6e9e80d55","ios":"levelo://app?vid=466938ea-1d09-4ac1-8658-95b6e9e80d55"},"vehicle_type_id":"4","last_reported":1701371021,"current_range_meters":28400,"station_id":"ce4bhqp2rcd13ifvqhng","pricing_plan_id":"free"},{"bike_id":"62d6693c-ec2b-45d1-b37e-d2a35a93d478","system_id":"levelo_inurba_marseille","lat":43.317557,"lon":5.390173,"is_reserved":false,"is_disabled":false,"rental_uris":{"android":"levelo://app?vid=62d6693c-ec2b-45d1-b37e-d2a35a93d478","ios":"levelo://app?vid=62d6693c-ec2b-45d1-b37e-d2a35a93d478"},"vehicle_type_id":"4","last_reported":1701371021,"current_range_meters":27600,"station_id":"ce4bhqp2rcd13ifvqhng","pricing_plan_id":"free"},{"bike_id":"f3bfefa2-7f63-48ef-ab70-262892532805","system_id":"levelo_inurba_marseille","lat":43.31756,"lon":5.3902,"is_reserved":false,"is_disabled":false,"rental_uris":{"android":"levelo://app?vid=f3bfefa2-7f63-48ef-ab70-262892532805","ios":"levelo://app?vid=f3bfefa2-7f63-48ef-ab70-262892532805"},"vehicle_type_id":"4","last_reported":1701371021,"current_range_meters":10800,"station_id":"ce4bhqp2rcd13ifvqhng","pricing_plan_id":"free"},{"bike_id":"93b892ef-905b-49d6-bae3-5700523ab6c6","system_id":"levelo_inurba_marseille","lat":43.295279,"lon":5.375048,"is_reserved":false,"is_disabled":false,"rental_uris":{"android":"levelo://app?vid=93b892ef-905b-49d6-bae3-5700523ab6c6","ios":"levelo://app?vid=93b892ef-905b-49d6-bae3-5700523ab6c6"},"vehicle_type_id":"4","last_reported":1701371021,"current_range_meters":0,"station_id":"ce4bgkp2rcd13ifvqbmg","pricing_plan_id":"free"},{"bike_id":"b3e807a2-853e-41b2-a5a1-6973e576e312","system_id":"levelo_inurba_marseille","lat":43.299724,"lon":5.384848,"is_reserved":false,"is_disabled":false,"rental_uris":{"android":"levelo://app?vid=b3e807a2-853e-41b2-a5a1-6973e576e312","ios":"levelo://app?vid=b3e807a2-853e-41b2-a5a1-6973e576e312"},"vehicle_type_id":"4","last_reported":1701371021,"current_range_meters":0,"station_id":"ce4bgj92rcd13ifvqbd0","pricing_plan_id":"free"},{"bike_id":"5983625d-69f5-485f-a399-daec2999c965","system_id":"levelo_inurba_marseille","lat":43.3237,"lon":5.38883,"is_reserved":false,"is_disabled":false,"rental_uris":{"android":"levelo://app?vid=5983625d-69f5-485f-a399-daec2999c965","ios":"levelo://app?vid=5983625d-69f5-485f-a399-daec2999c965"},"vehicle_type_id":"4","last_reported":1701371021,"current_range_meters":8000,"station_id":"ce4bhqp2rcd13ifvqhog","pricing_plan_id":"free"},{"bike_id":"eaa0e7e7-2390-47fa-909b-7b240952cbef","system_id":"levelo_inurba_marseille","lat":43.31947,"lon":5.39206,"is_reserved":false,"is_disabled":false,"rental_uris":{"android":"levelo://app?vid=eaa0e7e7-2390-47fa-909b-7b240952cbef","ios":"levelo://app?vid=eaa0e7e7-2390-47fa-909b-7b240952cbef"},"vehicle_type_id":"4","last_reported":1701371021,"current_range_meters":21200,"station_id":"","pricing_plan_id":"free"},{"bike_id":"16a16f53-1717-4456-b369-06bef92e5803","system_id":"levelo_inurba_marseille","lat":43.30681,"lon":5.39272,"is_reserved":false,"is_disabled":false,"rental_uris":{"android":"levelo://app?vid=16a16f53-1717-4456-b369-06bef92e5803","ios":"levelo://app?vid=16a16f53-1717-4456-b369-06bef92e5803"},"vehicle_type_id":"4","last_reported":1701371021,"current_range_meters":11600,"station_id":"","pricing_plan_id":"free"},{"bike_id":"e0ee9ab9-e769-4408-9fa5-e29f41811478","system_id":"levelo_inurba_marseille","lat":43.29288,"lon":5.36852,"is_reserved":false,"is_disabled":false,"rental_uris":{"android":"levelo://app?vid=e0ee9ab9-e769-4408-9fa5-e29f41811478","ios":"levelo://app?vid=e0ee9ab9-e769-4408-9fa5-e29f41811478"},"vehicle_type_id":"4","last_reported":1701371021,"current_range_meters":6400,"station_id":"ce4bhbp2rcd13ifvqesg","pricing_plan_id":"free"},{"bike_id":"76553dc6-891e-4540-926d-b4c50892378c","system_id":"levelo_inurba_marseille","lat":43.300852,"lon":5.390859,"is_reserved":false,"is_disabled":false,"rental_uris":{"android":"levelo://app?vid=76553dc6-891e-4540-926d-b4c50892378c","ios":"levelo://app?vid=76553dc6-891e-4540-926d-b4c50892378c"},"vehicle_type_id":"4","last_reported":1701371021,"current_range_meters":0,"station_id":"ce4bh192rcd13ifvqdb0","pricing_plan_id":"free"},{"bike_id":"a2cfa61f-ca55-4691-a952-114a2b375c63","system_id":"levelo_inurba_marseille","lat":43.29222,"lon":5.36076,"is_reserved":false,"is_disabled":false,"rental_uris":{"android":"levelo://app?vid=a2cfa61f-ca55-4691-a952-114a2b375c63","ios":"levelo://app?vid=a2cfa61f-ca55-4691-a952-114a2b375c63"},"vehicle_type_id":"4","last_reported":1701371021,"current_range_meters":10400,"station_id":"ce4bhbh2rcd13ifvqeqg","pricing_plan_id":"free"},{"bike_id":"44fee2e4-eb1a-43a4-a44f-5a3e0005db9e","system_id":"levelo_inurba_marseille","lat":43.291675,"lon":5.371583,"is_reserved":false,"is_disabled":false,"rental_uris":{"android":"levelo://app?vid=44fee2e4-eb1a-43a4-a44f-5a3e0005db9e","ios":"levelo://app?vid=44fee2e4-eb1a-43a4-a44f-5a3e0005db9e"},"vehicle_type_id":"4","last_reported":1701371021,"current_range_meters":0,"station_id":"ce4bha92rcd13ifvqeh0","pricing_plan_id":"free"},{"bike_id":"c4a9f41f-6ef1-4cd1-9727-7bed5ce852c9","system_id":"levelo_inurba_marseille","lat":43.291675,"lon":5.371583,"is_reserved":false,"is_disabled":false,"rental_uris":{"android":"levelo://app?vid=c4a9f41f-6ef1-4cd1-9727-7bed5ce852c9","ios":"levelo://app?vid=c4a9f41f-6ef1-4cd1-9727-7bed5ce852c9"},"vehicle_type_id":"4","last_reported":1701371021,"current_range_meters":4800,"station_id":"ce4bha92rcd13ifvqeh0","pricing_plan_id":"free"},{"bike_id":"65347817-f7e6-4eb7-a469-55cc4da948d3","system_id":"levelo_inurba_marseille","lat":43.29201,"lon":5.35809,"is_reserved":false,"is_disabled":false,"rental_uris":{"android":"levelo://app?vid=65347817-f7e6-4eb7-a469-55cc4da948d3","ios":"levelo://app?vid=65347817-f7e6-4eb7-a469-55cc4da948d3"},"vehicle_type_id":"4","last_reported":1701371021,"current_range_meters":28400,"station_id":"ce4bhb12rcd13ifvqel0","pricing_plan_id":"free"},{"bike_id":"ae3382f1-bec3-42bb-81d5-4cee4b3e8094","system_id":"levelo_inurba_marseille","lat":43.31328,"lon":5.39685,"is_reserved":false,"is_disabled":false,"rental_uris":{"android":"levelo://app?vid=ae3382f1-bec3-42bb-81d5-4cee4b3e8094","ios":"levelo://app?vid=ae3382f1-bec3-42bb-81d5-4cee4b3e8094"},"vehicle_type_id":"4","last_reported":1701371021,"current_range_meters":24400,"station_id":"ce4bgvp2rcd13ifvqcu0","pricing_plan_id":"free"},{"bike_id":"e4640747-17b8-4b10-9bf0-8dbc490e496f","system_id":"levelo_inurba_marseille","lat":43.31324,"lon":5.39693,"is_reserved":false,"is_disabled":false,"rental_uris":{"android":"levelo://app?vid=e4640747-17b8-4b10-9bf0-8dbc490e496f","ios":"levelo://app?vid=e4640747-17b8-4b10-9bf0-8dbc490e496f"},"vehicle_type_id":"4","last_reported":1701371021,"current_range_meters":9200,"station_id":"ce4bgvp2rcd13ifvqcu0","pricing_plan_id":"free"},{"bike_id":"72a6570b-9fdf-486f-bba2-c070f83c3f1a","system_id":"levelo_inurba_marseille","lat":43.309038,"lon":5.396546,"is_reserved":false,"is_disabled":false,"rental_uris":{"android":"levelo://app?vid=72a6570b-9fdf-486f-bba2-c070f83c3f1a","ios":"levelo://app?vid=72a6570b-9fdf-486f-bba2-c070f83c3f1a"},"vehicle_type_id":"4","last_reported":1701371021,"current_range_meters":30800,"station_id":"ce4bh012rcd13ifvqcv0","pricing_plan_id":"free"},{"bike_id":"003e3848-9a2d-4a03-b685-53c7efbce624","system_id":"levelo_inurba_marseille","lat":43.313343,"lon":5.396933,"is_reserved":false,"is_disabled":false,"rental_uris":{"android":"levelo://app?vid=003e3848-9a2d-4a03-b685-53c7efbce624","ios":"levelo://app?vid=003e3848-9a2d-4a03-b685-53c7efbce624"},"vehicle_type_id":"4","last_reported":1701371021,"current_range_meters":30000,"station_id":"ce4bgvp2rcd13ifvqcu0","pricing_plan_id":"free"},{"bike_id":"c899fbf3-bc16-4929-beec-38d52e9dd551","system_id":"levelo_inurba_marseille","lat":43.291994,"lon":5.357886,"is_reserved":false,"is_disabled":false,"rental_uris":{"android":"levelo://app?vid=c899fbf3-bc16-4929-beec-38d52e9dd551","ios":"levelo://app?vid=c899fbf3-bc16-4929-beec-38d52e9dd551"},"vehicle_type_id":"4","last_reported":1701371021,"current_range_meters":6800,"station_id":"ce4bhb12rcd13ifvqel0","pricing_plan_id":"free"},{"bike_id":"21a3a307-a392-458f-b5eb-3c9d3ae86dac","system_id":"levelo_inurba_marseille","lat":43.313313,"lon":5.396953,"is_reserved":false,"is_disabled":false,"rental_uris":{"android":"levelo://app?vid=21a3a307-a392-458f-b5eb-3c9d3ae86dac","ios":"levelo://app?vid=21a3a307-a392-458f-b5eb-3c9d3ae86dac"},"vehicle_type_id":"4","last_reported":1701371021,"current_range_meters":18400,"station_id":"ce4bgvp2rcd13ifvqcu0","pricing_plan_id":"free"},{"bike_id":"7d2eb4b9-f7c5-4e11-bf75-82de53347b6b","system_id":"levelo_inurba_marseille","lat":43.309038,"lon":5.396546,"is_reserved":false,"is_disabled":false,"rental_uris":{"android":"levelo://app?vid=7d2eb4b9-f7c5-4e11-bf75-82de53347b6b","ios":"levelo://app?vid=7d2eb4b9-f7c5-4e11-bf75-82de53347b6b"},"vehicle_type_id":"4","last_reported":1701371021,"current_range_meters":28800,"station_id":"ce4bh012rcd13ifvqcv0","pricing_plan_id":"free"},{"bike_id":"12d48ece-01a5-4b11-8306-ee7c4d5e6132","system_id":"levelo_inurba_marseille","lat":43.313291,"lon":5.396838,"is_reserved":false,"is_disabled":false,"rental_uris":{"android":"levelo://app?vid=12d48ece-01a5-4b11-8306-ee7c4d5e6132","ios":"levelo://app?vid=12d48ece-01a5-4b11-8306-ee7c4d5e6132"},"vehicle_type_id":"4","last_reported":1701371021,"current_range_meters":27200,"station_id":"ce4bgvp2rcd13ifvqcu0","pricing_plan_id":"free"},{"bike_id":"f539bb91-05a8-4fb0-b50e-771ec369acaa","system_id":"levelo_inurba_marseille","lat":43.309038,"lon":5.396546,"is_reserved":false,"is_disabled":false,"rental_uris":{"android":"levelo://app?vid=f539bb91-05a8-4fb0-b50e-771ec369acaa","ios":"levelo://app?vid=f539bb91-05a8-4fb0-b50e-771ec369acaa"},"vehicle_type_id":"4","last_reported":1701371021,"current_range_meters":10000,"station_id":"ce4bh012rcd13ifvqcv0","pricing_plan_id":"free"},{"bike_id":"69dc27bd-7ade-43e5-bf13-458351fe730a","system_id":"levelo_inurba_marseille","lat":43.29529,"lon":5.385581,"is_reserved":false,"is_disabled":false,"rental_uris":{"android":"levelo://app?vid=69dc27bd-7ade-43e5-bf13-458351fe730a","ios":"levelo://app?vid=69dc27bd-7ade-43e5-bf13-458351fe730a"},"vehicle_type_id":"4","last_reported":1701371021,"current_range_meters":6800,"station_id":"ce4bgih2rcd13ifvqba0","pricing_plan_id":"free"},{"bike_id":"c4decd8b-de63-4805-b897-cd64c4679266","system_id":"levelo_inurba_marseille","lat":43.290779,"lon":5.371482,"is_reserved":false,"is_disabled":false,"rental_uris":{"android":"levelo://app?vid=c4decd8b-de63-4805-b897-cd64c4679266","ios":"levelo://app?vid=c4decd8b-de63-4805-b897-cd64c4679266"},"vehicle_type_id":"4","last_reported":1701371021,"current_range_meters":27600,"station_id":"ce4bh5p2rcd13ifvqe4g","pricing_plan_id":"free"},{"bike_id":"8ae5cba1-c940-4547-9fd2-9179dd64387c","system_id":"levelo_inurba_marseille","lat":43.302008,"lon":5.394694,"is_reserved":false,"is_disabled":false,"rental_uris":{"android":"levelo://app?vid=8ae5cba1-c940-4547-9fd2-9179dd64387c","ios":"levelo://app?vid=8ae5cba1-c940-4547-9fd2-9179dd64387c"},"vehicle_type_id":"4","last_reported":1701371021,"current_range_meters":6000,"station_id":"ce4bh0p2rcd13ifvqd70","pricing_plan_id":"free"},{"bike_id":"c7857b4a-fd63-4c84-8c4f-6c1d96891650","system_id":"levelo_inurba_marseille","lat":43.302008,"lon":5.394694,"is_reserved":false,"is_disabled":false,"rental_uris":{"android":"levelo://app?vid=c7857b4a-fd63-4c84-8c4f-6c1d96891650","ios":"levelo://app?vid=c7857b4a-fd63-4c84-8c4f-6c1d96891650"},"vehicle_type_id":"4","last_reported":1701371021,"current_range_meters":11200,"station_id":"ce4bh0p2rcd13ifvqd70","pricing_plan_id":"free"},{"bike_id":"2146394a-85a8-4f77-949c-f1e66a39cc4a","system_id":"levelo_inurba_marseille","lat":43.290624,"lon":5.359245,"is_reserved":false,"is_disabled":false,"rental_uris":{"android":"levelo://app?vid=2146394a-85a8-4f77-949c-f1e66a39cc4a","ios":"levelo://app?vid=2146394a-85a8-4f77-949c-f1e66a39cc4a"},"vehicle_type_id":"4","last_reported":1701371021,"current_range_meters":11200,"station_id":"ce4bha92rcd13ifvqeg0","pricing_plan_id":"free"},{"bike_id":"5414a8d0-873e-4f9b-b698-1a6ff17bd8a2","system_id":"levelo_inurba_marseille","lat":43.290631,"lon":5.359244,"is_reserved":false,"is_disabled":false,"rental_uris":{"android":"levelo://app?vid=5414a8d0-873e-4f9b-b698-1a6ff17bd8a2","ios":"levelo://app?vid=5414a8d0-873e-4f9b-b698-1a6ff17bd8a2"},"vehicle_type_id":"4","last_reported":1701371021,"current_range_meters":26400,"station_id":"ce4bha92rcd13ifvqeg0","pricing_plan_id":"free"},{"bike_id":"649d98d6-d0c1-4d85-bcce-06ddeff7c4eb","system_id":"levelo_inurba_marseille","lat":43.290624,"lon":5.359245,"is_reserved":false,"is_disabled":false,"rental_uris":{"android":"levelo://app?vid=649d98d6-d0c1-4d85-bcce-06ddeff7c4eb","ios":"levelo://app?vid=649d98d6-d0c1-4d85-bcce-06ddeff7c4eb"},"vehicle_type_id":"4","last_reported":1701371021,"current_range_meters":24000,"station_id":"ce4bha92rcd13ifvqeg0","pricing_plan_id":"free"},{"bike_id":"d7a2586b-c1d9-4b63-b02f-48291632a7ec","system_id":"levelo_inurba_marseille","lat":43.294153,"lon":5.386305,"is_reserved":false,"is_disabled":false,"rental_uris":{"android":"levelo://app?vid=d7a2586b-c1d9-4b63-b02f-48291632a7ec","ios":"levelo://app?vid=d7a2586b-c1d9-4b63-b02f-48291632a7ec"},"vehicle_type_id":"4","last_reported":1701371021,"current_range_meters":6400,"station_id":"ce4bh2h2rcd13ifvqdh0","pricing_plan_id":"free"},{"bike_id":"f5d8dbcc-6677-4434-bb77-33c7ee4b7a2d","system_id":"levelo_inurba_marseille","lat":43.294153,"lon":5.386305,"is_reserved":false,"is_disabled":false,"rental_uris":{"android":"levelo://app?vid=f5d8dbcc-6677-4434-bb77-33c7ee4b7a2d","ios":"levelo://app?vid=f5d8dbcc-6677-4434-bb77-33c7ee4b7a2d"},"vehicle_type_id":"4","last_reported":1701371021,"current_range_meters":28400,"station_id":"ce4bh2h2rcd13ifvqdh0","pricing_plan_id":"free"},{"bike_id":"ed6fa952-66af-48bd-94ca-be30cd249e54","system_id":"levelo_inurba_marseille","lat":43.29042,"lon":5.375805,"is_reserved":false,"is_disabled":false,"rental_uris":{"android":"levelo://app?vid=ed6fa952-66af-48bd-94ca-be30cd249e54","ios":"levelo://app?vid=ed6fa952-66af-48bd-94ca-be30cd249e54"},"vehicle_type_id":"4","last_reported":1701371021,"current_range_meters":800,"station_id":"ce4bh692rcd13ifvqe90","pricing_plan_id":"free"},{"bike_id":"b0001738-67fc-4cc6-94ca-b466884dcb20","system_id":"levelo_inurba_marseille","lat":43.28939,"lon":5.36454,"is_reserved":false,"is_disabled":false,"rental_uris":{"android":"levelo://app?vid=b0001738-67fc-4cc6-94ca-b466884dcb20","ios":"levelo://app?vid=b0001738-67fc-4cc6-94ca-b466884dcb20"},"vehicle_type_id":"4","last_reported":1701371021,"current_range_meters":21600,"station_id":"","pricing_plan_id":"free"},{"bike_id":"175d049a-6b4f-4dfd-a242-a9f23cfa0549","system_id":"levelo_inurba_marseille","lat":43.292642,"lon":5.384254,"is_reserved":false,"is_disabled":false,"rental_uris":{"android":"levelo://app?vid=175d049a-6b4f-4dfd-a242-a9f23cfa0549","ios":"levelo://app?vid=175d049a-6b4f-4dfd-a242-a9f23cfa0549"},"vehicle_type_id":"4","last_reported":1701371021,"current_range_meters":0,"station_id":"ce4bh692rcd13ifvqea0","pricing_plan_id":"free"},{"bike_id":"674c18ff-50de-43d7-b3fc-7c65b6d98037","system_id":"levelo_inurba_marseille","lat":43.292642,"lon":5.384254,"is_reserved":false,"is_disabled":false,"rental_uris":{"android":"levelo://app?vid=674c18ff-50de-43d7-b3fc-7c65b6d98037","ios":"levelo://app?vid=674c18ff-50de-43d7-b3fc-7c65b6d98037"},"vehicle_type_id":"4","last_reported":1701371021,"current_range_meters":14400,"station_id":"ce4bh692rcd13ifvqea0","pricing_plan_id":"free"},{"bike_id":"b013a5ed-da0b-4fff-bd51-395e5c6b2009","system_id":"levelo_inurba_marseille","lat":43.292642,"lon":5.384254,"is_reserved":false,"is_disabled":false,"rental_uris":{"android":"levelo://app?vid=b013a5ed-da0b-4fff-bd51-395e5c6b2009","ios":"levelo://app?vid=b013a5ed-da0b-4fff-bd51-395e5c6b2009"},"vehicle_type_id":"4","last_reported":1701371021,"current_range_meters":11600,"station_id":"ce4bh692rcd13ifvqea0","pricing_plan_id":"free"},{"bike_id":"e74b4a9f-25cc-4896-b01e-ccd61bf17742","system_id":"levelo_inurba_marseille","lat":43.29262,"lon":5.38448,"is_reserved":false,"is_disabled":false,"rental_uris":{"android":"levelo://app?vid=e74b4a9f-25cc-4896-b01e-ccd61bf17742","ios":"levelo://app?vid=e74b4a9f-25cc-4896-b01e-ccd61bf17742"},"vehicle_type_id":"4","last_reported":1701371021,"current_range_meters":31200,"station_id":"ce4bh692rcd13ifvqea0","pricing_plan_id":"free"},{"bike_id":"7a269b41-f097-4a40-b4b3-8563125b111a","system_id":"levelo_inurba_marseille","lat":43.290103,"lon":5.356114,"is_reserved":false,"is_disabled":false,"rental_uris":{"android":"levelo://app?vid=7a269b41-f097-4a40-b4b3-8563125b111a","ios":"levelo://app?vid=7a269b41-f097-4a40-b4b3-8563125b111a"},"vehicle_type_id":"4","last_reported":1701371021,"current_range_meters":19600,"station_id":"ce4bhb92rcd13ifvqen0","pricing_plan_id":"free"},{"bike_id":"433c11ae-8306-4bbf-850d-086e9b9b8b2e","system_id":"levelo_inurba_marseille","lat":43.2909,"lon":5.381212,"is_reserved":false,"is_disabled":false,"rental_uris":{"android":"levelo://app?vid=433c11ae-8306-4bbf-850d-086e9b9b8b2e","ios":"levelo://app?vid=433c11ae-8306-4bbf-850d-086e9b9b8b2e"},"vehicle_type_id":"4","last_reported":1701371021,"current_range_meters":18400,"station_id":"ce4bh512rcd13ifvqe2g","pricing_plan_id":"free"},{"bike_id":"1b9ac009-cff0-486d-a1ea-a93c08923e80","system_id":"levelo_inurba_marseille","lat":43.33747,"lon":5.37454,"is_reserved":false,"is_disabled":false,"rental_uris":{"android":"levelo://app?vid=1b9ac009-cff0-486d-a1ea-a93c08923e80","ios":"levelo://app?vid=1b9ac009-cff0-486d-a1ea-a93c08923e80"},"vehicle_type_id":"4","last_reported":1701371021,"current_range_meters":30000,"station_id":"","pricing_plan_id":"free"},{"bike_id":"4a8cc3bd-2771-4300-879c-a3018715ac91","system_id":"levelo_inurba_marseille","lat":43.309371,"lon":5.401449,"is_reserved":false,"is_disabled":false,"rental_uris":{"android":"levelo://app?vid=4a8cc3bd-2771-4300-879c-a3018715ac91","ios":"levelo://app?vid=4a8cc3bd-2771-4300-879c-a3018715ac91"},"vehicle_type_id":"4","last_reported":1701371021,"current_range_meters":2000,"station_id":"ce4bgvp2rcd13ifvqct0","pricing_plan_id":"free"},{"bike_id":"2ae93018-1f66-4407-8727-ce3bd016a9f6","system_id":"levelo_inurba_marseille","lat":43.33753,"lon":5.37454,"is_reserved":false,"is_disabled":false,"rental_uris":{"android":"levelo://app?vid=2ae93018-1f66-4407-8727-ce3bd016a9f6","ios":"levelo://app?vid=2ae93018-1f66-4407-8727-ce3bd016a9f6"},"vehicle_type_id":"4","last_reported":1701371021,"current_range_meters":17600,"station_id":"","pricing_plan_id":"free"},{"bike_id":"7a83ff81-dfde-4eb8-9401-40587eaf13dd","system_id":"levelo_inurba_marseille","lat":43.30928,"lon":5.40151,"is_reserved":false,"is_disabled":false,"rental_uris":{"android":"levelo://app?vid=7a83ff81-dfde-4eb8-9401-40587eaf13dd","ios":"levelo://app?vid=7a83ff81-dfde-4eb8-9401-40587eaf13dd"},"vehicle_type_id":"4","last_reported":1701371021,"current_range_meters":16000,"station_id":"ce4bgvp2rcd13ifvqct0","pricing_plan_id":"free"},{"bike_id":"2d1bd254-6b46-4d23-b075-6ab9ac6ea453","system_id":"levelo_inurba_marseille","lat":43.301117,"lon":5.398795,"is_reserved":false,"is_disabled":false,"rental_uris":{"android":"levelo://app?vid=2d1bd254-6b46-4d23-b075-6ab9ac6ea453","ios":"levelo://app?vid=2d1bd254-6b46-4d23-b075-6ab9ac6ea453"},"vehicle_type_id":"4","last_reported":1701371021,"current_range_meters":17600,"station_id":"ce4bh0h2rcd13ifvqd40","pricing_plan_id":"free"},{"bike_id":"90bda41b-7133-44ca-8d7a-c17702e30dc0","system_id":"levelo_inurba_marseille","lat":43.30132,"lon":5.39859,"is_reserved":false,"is_disabled":false,"rental_uris":{"android":"levelo://app?vid=90bda41b-7133-44ca-8d7a-c17702e30dc0","ios":"levelo://app?vid=90bda41b-7133-44ca-8d7a-c17702e30dc0"},"vehicle_type_id":"4","last_reported":1701371021,"current_range_meters":10800,"station_id":"ce4bh0h2rcd13ifvqd40","pricing_plan_id":"free"},{"bike_id":"b930dc4e-3488-4b4b-b52b-1874865c3274","system_id":"levelo_inurba_marseille","lat":43.305235,"lon":5.400865,"is_reserved":false,"is_disabled":false,"rental_uris":{"android":"levelo://app?vid=b930dc4e-3488-4b4b-b52b-1874865c3274","ios":"levelo://app?vid=b930dc4e-3488-4b4b-b52b-1874865c3274"},"vehicle_type_id":"4","last_reported":1701371021,"current_range_meters":26000,"station_id":"","pricing_plan_id":"free"},{"bike_id":"06aeaa74-476b-4774-8e86-521af608fd36","system_id":"levelo_inurba_marseille","lat":43.28727,"lon":5.36078,"is_reserved":false,"is_disabled":false,"rental_uris":{"android":"levelo://app?vid=06aeaa74-476b-4774-8e86-521af608fd36","ios":"levelo://app?vid=06aeaa74-476b-4774-8e86-521af608fd36"},"vehicle_type_id":"4","last_reported":1701371021,"current_range_meters":18000,"station_id":"cki0cbj6b192h4jlfktg","pricing_plan_id":"free"},{"bike_id":"b4fd0d62-4f10-49dd-9ef4-800f251e6c97","system_id":"levelo_inurba_marseille","lat":43.28727,"lon":5.36078,"is_reserved":false,"is_disabled":false,"rental_uris":{"android":"levelo://app?vid=b4fd0d62-4f10-49dd-9ef4-800f251e6c97","ios":"levelo://app?vid=b4fd0d62-4f10-49dd-9ef4-800f251e6c97"},"vehicle_type_id":"4","last_reported":1701371021,"current_range_meters":4800,"station_id":"cki0cbj6b192h4jlfktg","pricing_plan_id":"free"},{"bike_id":"5b3de323-9f69-4dda-97cc-3388102d4a5e","system_id":"levelo_inurba_marseille","lat":43.287184,"lon":5.37937,"is_reserved":false,"is_disabled":false,"rental_uris":{"android":"levelo://app?vid=5b3de323-9f69-4dda-97cc-3388102d4a5e","ios":"levelo://app?vid=5b3de323-9f69-4dda-97cc-3388102d4a5e"},"vehicle_type_id":"4","last_reported":1701371021,"current_range_meters":7200,"station_id":"ce4bh9p2rcd13ifvqec0","pricing_plan_id":"free"},{"bike_id":"b9ec7932-a74e-4abd-9a66-c94cd71efcbe","system_id":"levelo_inurba_marseille","lat":43.290345,"lon":5.38646,"is_reserved":false,"is_disabled":false,"rental_uris":{"android":"levelo://app?vid=b9ec7932-a74e-4abd-9a66-c94cd71efcbe","ios":"levelo://app?vid=b9ec7932-a74e-4abd-9a66-c94cd71efcbe"},"vehicle_type_id":"4","last_reported":1701371021,"current_range_meters":12800,"station_id":"ce4bh4p2rcd13ifvqe0g","pricing_plan_id":"free"},{"bike_id":"ecf1ef12-533b-4936-94a8-8105855e0807","system_id":"levelo_inurba_marseille","lat":43.290345,"lon":5.38646,"is_reserved":false,"is_disabled":false,"rental_uris":{"android":"levelo://app?vid=ecf1ef12-533b-4936-94a8-8105855e0807","ios":"levelo://app?vid=ecf1ef12-533b-4936-94a8-8105855e0807"},"vehicle_type_id":"4","last_reported":1701371021,"current_range_meters":30400,"station_id":"ce4bh4p2rcd13ifvqe0g","pricing_plan_id":"free"},{"bike_id":"e5e34973-e3b7-4966-9b78-9442980423f8","system_id":"levelo_inurba_marseille","lat":43.29033,"lon":5.38638,"is_reserved":false,"is_disabled":false,"rental_uris":{"android":"levelo://app?vid=e5e34973-e3b7-4966-9b78-9442980423f8","ios":"levelo://app?vid=e5e34973-e3b7-4966-9b78-9442980423f8"},"vehicle_type_id":"4","last_reported":1701371021,"current_range_meters":16800,"station_id":"ce4bh4p2rcd13ifvqe0g","pricing_plan_id":"free"},{"bike_id":"6dde46f7-2167-4688-a137-d83cec6d8765","system_id":"levelo_inurba_marseille","lat":43.290345,"lon":5.38646,"is_reserved":false,"is_disabled":false,"rental_uris":{"android":"levelo://app?vid=6dde46f7-2167-4688-a137-d83cec6d8765","ios":"levelo://app?vid=6dde46f7-2167-4688-a137-d83cec6d8765"},"vehicle_type_id":"4","last_reported":1701371021,"current_range_meters":8400,"station_id":"ce4bh4p2rcd13ifvqe0g","pricing_plan_id":"free"},{"bike_id":"3b2dbc93-32b6-4101-a85b-82402b75d2b2","system_id":"levelo_inurba_marseille","lat":43.302759,"lon":5.400793,"is_reserved":false,"is_disabled":false,"rental_uris":{"android":"levelo://app?vid=3b2dbc93-32b6-4101-a85b-82402b75d2b2","ios":"levelo://app?vid=3b2dbc93-32b6-4101-a85b-82402b75d2b2"},"vehicle_type_id":"4","last_reported":1701371021,"current_range_meters":16400,"station_id":"ce4bgvh2rcd13ifvqcs0","pricing_plan_id":"free"},{"bike_id":"3ef699b0-26b6-4a3a-8b0b-c733b19e4e43","system_id":"levelo_inurba_marseille","lat":43.30244,"lon":5.400745,"is_reserved":false,"is_disabled":false,"rental_uris":{"android":"levelo://app?vid=3ef699b0-26b6-4a3a-8b0b-c733b19e4e43","ios":"levelo://app?vid=3ef699b0-26b6-4a3a-8b0b-c733b19e4e43"},"vehicle_type_id":"4","last_reported":1701371021,"current_range_meters":0,"station_id":"ce4bgvh2rcd13ifvqcs0","pricing_plan_id":"free"},{"bike_id":"6f69836b-596d-443e-b51b-9b92e4277e09","system_id":"levelo_inurba_marseille","lat":43.289307,"lon":5.38406,"is_reserved":false,"is_disabled":false,"rental_uris":{"android":"levelo://app?vid=6f69836b-596d-443e-b51b-9b92e4277e09","ios":"levelo://app?vid=6f69836b-596d-443e-b51b-9b92e4277e09"},"vehicle_type_id":"4","last_reported":1701371021,"current_range_meters":0,"station_id":"ce4bh612rcd13ifvqe6g","pricing_plan_id":"free"},{"bike_id":"db1e759c-fdba-4aca-aa08-47006637bb57","system_id":"levelo_inurba_marseille","lat":43.287185,"lon":5.379373,"is_reserved":false,"is_disabled":false,"rental_uris":{"android":"levelo://app?vid=db1e759c-fdba-4aca-aa08-47006637bb57","ios":"levelo://app?vid=db1e759c-fdba-4aca-aa08-47006637bb57"},"vehicle_type_id":"4","last_reported":1701371021,"current_range_meters":14800,"station_id":"ce4bh9p2rcd13ifvqec0","pricing_plan_id":"free"},{"bike_id":"71adb0df-d79c-46d6-a0f9-c6df10cb1997","system_id":"levelo_inurba_marseille","lat":43.287185,"lon":5.379373,"is_reserved":false,"is_disabled":false,"rental_uris":{"android":"levelo://app?vid=71adb0df-d79c-46d6-a0f9-c6df10cb1997","ios":"levelo://app?vid=71adb0df-d79c-46d6-a0f9-c6df10cb1997"},"vehicle_type_id":"4","last_reported":1701371021,"current_range_meters":4000,"station_id":"ce4bh9p2rcd13ifvqec0","pricing_plan_id":"free"},{"bike_id":"665b7a2d-9396-4c11-81ac-62698165a953","system_id":"levelo_inurba_marseille","lat":43.31649,"lon":5.40435,"is_reserved":false,"is_disabled":false,"rental_uris":{"android":"levelo://app?vid=665b7a2d-9396-4c11-81ac-62698165a953","ios":"levelo://app?vid=665b7a2d-9396-4c11-81ac-62698165a953"},"vehicle_type_id":"4","last_reported":1701371021,"current_range_meters":6400,"station_id":"ce4bh012rcd13ifvqd00","pricing_plan_id":"free"},{"bike_id":"55fb18d1-3a66-44a9-a318-d960e4cd31be","system_id":"levelo_inurba_marseille","lat":43.286718,"lon":5.379509,"is_reserved":false,"is_disabled":false,"rental_uris":{"android":"levelo://app?vid=55fb18d1-3a66-44a9-a318-d960e4cd31be","ios":"levelo://app?vid=55fb18d1-3a66-44a9-a318-d960e4cd31be"},"vehicle_type_id":"4","last_reported":1701371021,"current_range_meters":29600,"station_id":"","pricing_plan_id":"free"},{"bike_id":"15eb4696-3bf3-4669-999d-0a8c733ca86d","system_id":"levelo_inurba_marseille","lat":43.291994,"lon":5.392907,"is_reserved":false,"is_disabled":false,"rental_uris":{"android":"levelo://app?vid=15eb4696-3bf3-4669-999d-0a8c733ca86d","ios":"levelo://app?vid=15eb4696-3bf3-4669-999d-0a8c733ca86d"},"vehicle_type_id":"4","last_reported":1701371021,"current_range_meters":21200,"station_id":"ce4bh192rcd13ifvqdd0","pricing_plan_id":"free"},{"bike_id":"21169003-7cd8-4dcc-90d2-c0b535fa7f98","system_id":"levelo_inurba_marseille","lat":43.284538,"lon":5.358657,"is_reserved":false,"is_disabled":false,"rental_uris":{"android":"levelo://app?vid=21169003-7cd8-4dcc-90d2-c0b535fa7f98","ios":"levelo://app?vid=21169003-7cd8-4dcc-90d2-c0b535fa7f98"},"vehicle_type_id":"4","last_reported":1701371021,"current_range_meters":2000,"station_id":"ce4bhah2rcd13ifvqei0","pricing_plan_id":"free"},{"bike_id":"acb8f9d6-03cc-4559-8118-ccdbd6d84ced","system_id":"levelo_inurba_marseille","lat":43.294314,"lon":5.397498,"is_reserved":false,"is_disabled":false,"rental_uris":{"android":"levelo://app?vid=acb8f9d6-03cc-4559-8118-ccdbd6d84ced","ios":"levelo://app?vid=acb8f9d6-03cc-4559-8118-ccdbd6d84ced"},"vehicle_type_id":"4","last_reported":1701371021,"current_range_meters":23600,"station_id":"ce4bh3h2rcd13ifvqdo0","pricing_plan_id":"free"},{"bike_id":"c3bb713a-732c-4dea-983a-f0e561b0b26f","system_id":"levelo_inurba_marseille","lat":43.283998,"lon":5.375062,"is_reserved":false,"is_disabled":false,"rental_uris":{"android":"levelo://app?vid=c3bb713a-732c-4dea-983a-f0e561b0b26f","ios":"levelo://app?vid=c3bb713a-732c-4dea-983a-f0e561b0b26f"},"vehicle_type_id":"4","last_reported":1701371021,"current_range_meters":3600,"station_id":"ce4bh412rcd13ifvqds0","pricing_plan_id":"free"},{"bike_id":"00d9ee24-0ed8-42d5-9d11-193b63f9c1d6","system_id":"levelo_inurba_marseille","lat":43.295713,"lon":5.399639,"is_reserved":false,"is_disabled":false,"rental_uris":{"android":"levelo://app?vid=00d9ee24-0ed8-42d5-9d11-193b63f9c1d6","ios":"levelo://app?vid=00d9ee24-0ed8-42d5-9d11-193b63f9c1d6"},"vehicle_type_id":"4","last_reported":1701371021,"current_range_meters":26400,"station_id":"ce4bh312rcd13ifvqdj0","pricing_plan_id":"free"},{"bike_id":"25d1f489-2df0-46b3-a92c-6570f578e5e3","system_id":"levelo_inurba_marseille","lat":43.295713,"lon":5.399639,"is_reserved":false,"is_disabled":false,"rental_uris":{"android":"levelo://app?vid=25d1f489-2df0-46b3-a92c-6570f578e5e3","ios":"levelo://app?vid=25d1f489-2df0-46b3-a92c-6570f578e5e3"},"vehicle_type_id":"4","last_reported":1701371021,"current_range_meters":12000,"station_id":"ce4bh312rcd13ifvqdj0","pricing_plan_id":"free"},{"bike_id":"5e4adf62-8524-4ebf-9f98-0ce7e3763ebb","system_id":"levelo_inurba_marseille","lat":43.295713,"lon":5.399639,"is_reserved":false,"is_disabled":false,"rental_uris":{"android":"levelo://app?vid=5e4adf62-8524-4ebf-9f98-0ce7e3763ebb","ios":"levelo://app?vid=5e4adf62-8524-4ebf-9f98-0ce7e3763ebb"},"vehicle_type_id":"4","last_reported":1701371021,"current_range_meters":2800,"station_id":"ce4bh312rcd13ifvqdj0","pricing_plan_id":"free"},{"bike_id":"f4d1b9ba-1852-4d21-8030-4a648931f58d","system_id":"levelo_inurba_marseille","lat":43.286595,"lon":5.386795,"is_reserved":false,"is_disabled":false,"rental_uris":{"android":"levelo://app?vid=f4d1b9ba-1852-4d21-8030-4a648931f58d","ios":"levelo://app?vid=f4d1b9ba-1852-4d21-8030-4a648931f58d"},"vehicle_type_id":"4","last_reported":1701371021,"current_range_meters":8400,"station_id":"ce4bh492rcd13ifvqdug","pricing_plan_id":"free"},{"bike_id":"4d77fb67-f4a1-4bec-82d1-396fa0229b3e","system_id":"levelo_inurba_marseille","lat":43.286595,"lon":5.386795,"is_reserved":false,"is_disabled":false,"rental_uris":{"android":"levelo://app?vid=4d77fb67-f4a1-4bec-82d1-396fa0229b3e","ios":"levelo://app?vid=4d77fb67-f4a1-4bec-82d1-396fa0229b3e"},"vehicle_type_id":"4","last_reported":1701371021,"current_range_meters":28800,"station_id":"ce4bh492rcd13ifvqdug","pricing_plan_id":"free"},{"bike_id":"d147e0d7-0e39-41c3-9168-806b6269bef3","system_id":"levelo_inurba_marseille","lat":43.304274,"lon":5.397513,"is_reserved":false,"is_disabled":false,"rental_uris":{"android":"levelo://app?vid=d147e0d7-0e39-41c3-9168-806b6269bef3","ios":"levelo://app?vid=d147e0d7-0e39-41c3-9168-806b6269bef3"},"vehicle_type_id":"4","last_reported":1701371021,"current_range_meters":6400,"station_id":"ce4bh092rcd13ifvqd20","pricing_plan_id":"free"},{"bike_id":"84132732-d5c2-4549-b3ed-7c713f6d4431","system_id":"levelo_inurba_marseille","lat":43.323464,"lon":5.406297,"is_reserved":false,"is_disabled":false,"rental_uris":{"android":"levelo://app?vid=84132732-d5c2-4549-b3ed-7c713f6d4431","ios":"levelo://app?vid=84132732-d5c2-4549-b3ed-7c713f6d4431"},"vehicle_type_id":"4","last_reported":1701371021,"current_range_meters":26800,"station_id":"ce4bhq92rcd13ifvqhjg","pricing_plan_id":"free"},{"bike_id":"662fa6f8-2032-43e0-bf37-8abb696cda1d","system_id":"levelo_inurba_marseille","lat":43.33717,"lon":5.391857,"is_reserved":false,"is_disabled":false,"rental_uris":{"android":"levelo://app?vid=662fa6f8-2032-43e0-bf37-8abb696cda1d","ios":"levelo://app?vid=662fa6f8-2032-43e0-bf37-8abb696cda1d"},"vehicle_type_id":"4","last_reported":1701371021,"current_range_meters":28000,"station_id":"ce4bhr92rcd13ifvqhsg","pricing_plan_id":"free"},{"bike_id":"5c3767fd-fbdb-430c-95ef-90d48371d88d","system_id":"levelo_inurba_marseille","lat":43.292724,"lon":5.401131,"is_reserved":false,"is_disabled":false,"rental_uris":{"android":"levelo://app?vid=5c3767fd-fbdb-430c-95ef-90d48371d88d","ios":"levelo://app?vid=5c3767fd-fbdb-430c-95ef-90d48371d88d"},"vehicle_type_id":"4","last_reported":1701371021,"current_range_meters":23600,"station_id":"ce4bh312rcd13ifvqdk0","pricing_plan_id":"free"},{"bike_id":"377a5e02-210c-44b1-b033-1c45596d94a3","system_id":"levelo_inurba_marseille","lat":43.282754,"lon":5.350519,"is_reserved":false,"is_disabled":false,"rental_uris":{"android":"levelo://app?vid=377a5e02-210c-44b1-b033-1c45596d94a3","ios":"levelo://app?vid=377a5e02-210c-44b1-b033-1c45596d94a3"},"vehicle_type_id":"4","last_reported":1701371021,"current_range_meters":15200,"station_id":"ce4bhbp2rcd13ifvqerg","pricing_plan_id":"free"},{"bike_id":"b094f57b-2337-4ab6-872a-446f2bc03ce6","system_id":"levelo_inurba_marseille","lat":43.282754,"lon":5.350519,"is_reserved":false,"is_disabled":false,"rental_uris":{"android":"levelo://app?vid=b094f57b-2337-4ab6-872a-446f2bc03ce6","ios":"levelo://app?vid=b094f57b-2337-4ab6-872a-446f2bc03ce6"},"vehicle_type_id":"4","last_reported":1701371021,"current_range_meters":0,"station_id":"ce4bhbp2rcd13ifvqerg","pricing_plan_id":"free"},{"bike_id":"1d9d1977-cbc2-4d92-b27c-017403f7ebea","system_id":"levelo_inurba_marseille","lat":43.282744,"lon":5.350533,"is_reserved":false,"is_disabled":false,"rental_uris":{"android":"levelo://app?vid=1d9d1977-cbc2-4d92-b27c-017403f7ebea","ios":"levelo://app?vid=1d9d1977-cbc2-4d92-b27c-017403f7ebea"},"vehicle_type_id":"4","last_reported":1701371021,"current_range_meters":24000,"station_id":"ce4bhbp2rcd13ifvqerg","pricing_plan_id":"free"},{"bike_id":"aca33337-8473-4b32-95e9-05a782cda663","system_id":"levelo_inurba_marseille","lat":43.282744,"lon":5.350533,"is_reserved":false,"is_disabled":false,"rental_uris":{"android":"levelo://app?vid=aca33337-8473-4b32-95e9-05a782cda663","ios":"levelo://app?vid=aca33337-8473-4b32-95e9-05a782cda663"},"vehicle_type_id":"4","last_reported":1701371021,"current_range_meters":27600,"station_id":"ce4bhbp2rcd13ifvqerg","pricing_plan_id":"free"},{"bike_id":"cbb6a846-2d9c-4c06-bc81-28eb9a40f7da","system_id":"levelo_inurba_marseille","lat":43.282744,"lon":5.350533,"is_reserved":false,"is_disabled":false,"rental_uris":{"android":"levelo://app?vid=cbb6a846-2d9c-4c06-bc81-28eb9a40f7da","ios":"levelo://app?vid=cbb6a846-2d9c-4c06-bc81-28eb9a40f7da"},"vehicle_type_id":"4","last_reported":1701371021,"current_range_meters":5600,"station_id":"ce4bhbp2rcd13ifvqerg","pricing_plan_id":"free"},{"bike_id":"4fe08664-95ea-4e98-a9b8-f77aef53e6e1","system_id":"levelo_inurba_marseille","lat":43.282744,"lon":5.350533,"is_reserved":false,"is_disabled":false,"rental_uris":{"android":"levelo://app?vid=4fe08664-95ea-4e98-a9b8-f77aef53e6e1","ios":"levelo://app?vid=4fe08664-95ea-4e98-a9b8-f77aef53e6e1"},"vehicle_type_id":"4","last_reported":1701371021,"current_range_meters":30400,"station_id":"ce4bhbp2rcd13ifvqerg","pricing_plan_id":"free"},{"bike_id":"97b2aa8f-6261-44d4-bce3-cd3d07431379","system_id":"levelo_inurba_marseille","lat":43.28039,"lon":5.369297,"is_reserved":false,"is_disabled":false,"rental_uris":{"android":"levelo://app?vid=97b2aa8f-6261-44d4-bce3-cd3d07431379","ios":"levelo://app?vid=97b2aa8f-6261-44d4-bce3-cd3d07431379"},"vehicle_type_id":"4","last_reported":1701371021,"current_range_meters":22800,"station_id":"ce4bha12rcd13ifvqef0","pricing_plan_id":"free"},{"bike_id":"701e3c74-1bef-4277-b20c-eb4141195d8e","system_id":"levelo_inurba_marseille","lat":43.281044,"lon":5.378308,"is_reserved":false,"is_disabled":false,"rental_uris":{"android":"levelo://app?vid=701e3c74-1bef-4277-b20c-eb4141195d8e","ios":"levelo://app?vid=701e3c74-1bef-4277-b20c-eb4141195d8e"},"vehicle_type_id":"4","last_reported":1701371021,"current_range_meters":16400,"station_id":"ce4bha12rcd13ifvqee0","pricing_plan_id":"free"},{"bike_id":"e419eb0f-7643-4656-b140-a1e410756a40","system_id":"levelo_inurba_marseille","lat":43.281044,"lon":5.378308,"is_reserved":false,"is_disabled":false,"rental_uris":{"android":"levelo://app?vid=e419eb0f-7643-4656-b140-a1e410756a40","ios":"levelo://app?vid=e419eb0f-7643-4656-b140-a1e410756a40"},"vehicle_type_id":"4","last_reported":1701371021,"current_range_meters":19200,"station_id":"ce4bha12rcd13ifvqee0","pricing_plan_id":"free"},{"bike_id":"f6df5a69-fc4f-428a-ae8a-004597daaf0c","system_id":"levelo_inurba_marseille","lat":43.284462,"lon":5.392121,"is_reserved":false,"is_disabled":false,"rental_uris":{"android":"levelo://app?vid=f6df5a69-fc4f-428a-ae8a-004597daaf0c","ios":"levelo://app?vid=f6df5a69-fc4f-428a-ae8a-004597daaf0c"},"vehicle_type_id":"4","last_reported":1701371021,"current_range_meters":31200,"station_id":"ce4bhoh2rcd13ifvqh5g","pricing_plan_id":"free"},{"bike_id":"9b4451c7-4767-4e7d-a3a0-af83f5d5122f","system_id":"levelo_inurba_marseille","lat":43.284462,"lon":5.392121,"is_reserved":false,"is_disabled":false,"rental_uris":{"android":"levelo://app?vid=9b4451c7-4767-4e7d-a3a0-af83f5d5122f","ios":"levelo://app?vid=9b4451c7-4767-4e7d-a3a0-af83f5d5122f"},"vehicle_type_id":"4","last_reported":1701371021,"current_range_meters":2000,"station_id":"ce4bhoh2rcd13ifvqh5g","pricing_plan_id":"free"},{"bike_id":"c5c42056-e9e3-433b-91b7-ac30da3400f8","system_id":"levelo_inurba_marseille","lat":43.284317,"lon":5.391844,"is_reserved":false,"is_disabled":false,"rental_uris":{"android":"levelo://app?vid=c5c42056-e9e3-433b-91b7-ac30da3400f8","ios":"levelo://app?vid=c5c42056-e9e3-433b-91b7-ac30da3400f8"},"vehicle_type_id":"4","last_reported":1701371021,"current_range_meters":2400,"station_id":"ce4bhoh2rcd13ifvqh5g","pricing_plan_id":"free"},{"bike_id":"5fb2d90a-408f-4c44-b421-9768da259b4e","system_id":"levelo_inurba_marseille","lat":43.284462,"lon":5.392121,"is_reserved":false,"is_disabled":false,"rental_uris":{"android":"levelo://app?vid=5fb2d90a-408f-4c44-b421-9768da259b4e","ios":"levelo://app?vid=5fb2d90a-408f-4c44-b421-9768da259b4e"},"vehicle_type_id":"4","last_reported":1701371021,"current_range_meters":14800,"station_id":"ce4bhoh2rcd13ifvqh5g","pricing_plan_id":"free"},{"bike_id":"789109bc-fb93-44bb-9fb0-81c8056f310c","system_id":"levelo_inurba_marseille","lat":43.284462,"lon":5.392121,"is_reserved":false,"is_disabled":false,"rental_uris":{"android":"levelo://app?vid=789109bc-fb93-44bb-9fb0-81c8056f310c","ios":"levelo://app?vid=789109bc-fb93-44bb-9fb0-81c8056f310c"},"vehicle_type_id":"4","last_reported":1701371021,"current_range_meters":19200,"station_id":"ce4bhoh2rcd13ifvqh5g","pricing_plan_id":"free"},{"bike_id":"6b7ef417-6657-4c19-98d8-e150659d83c2","system_id":"levelo_inurba_marseille","lat":43.304188,"lon":5.412904,"is_reserved":false,"is_disabled":false,"rental_uris":{"android":"levelo://app?vid=6b7ef417-6657-4c19-98d8-e150659d83c2","ios":"levelo://app?vid=6b7ef417-6657-4c19-98d8-e150659d83c2"},"vehicle_type_id":"4","last_reported":1701371021,"current_range_meters":26800,"station_id":"ce4bhop2rcd13ifvqh8g","pricing_plan_id":"free"},{"bike_id":"f6985054-e6db-4e84-80da-f5d474cb2b4c","system_id":"levelo_inurba_marseille","lat":43.287154,"lon":5.399979,"is_reserved":false,"is_disabled":false,"rental_uris":{"android":"levelo://app?vid=f6985054-e6db-4e84-80da-f5d474cb2b4c","ios":"levelo://app?vid=f6985054-e6db-4e84-80da-f5d474cb2b4c"},"vehicle_type_id":"4","last_reported":1701371021,"current_range_meters":31600,"station_id":"ce4bho92rcd13ifvqh3g","pricing_plan_id":"free"},{"bike_id":"090478f9-c763-407f-bcae-33007ff245cf","system_id":"levelo_inurba_marseille","lat":43.29968,"lon":5.41328,"is_reserved":false,"is_disabled":false,"rental_uris":{"android":"levelo://app?vid=090478f9-c763-407f-bcae-33007ff245cf","ios":"levelo://app?vid=090478f9-c763-407f-bcae-33007ff245cf"},"vehicle_type_id":"4","last_reported":1701371021,"current_range_meters":23600,"station_id":"ce4bhp12rcd13ifvqh9g","pricing_plan_id":"free"},{"bike_id":"0499de58-2863-44c4-8de6-9f43162d0881","system_id":"levelo_inurba_marseille","lat":43.27967,"lon":5.38727,"is_reserved":false,"is_disabled":false,"rental_uris":{"android":"levelo://app?vid=0499de58-2863-44c4-8de6-9f43162d0881","ios":"levelo://app?vid=0499de58-2863-44c4-8de6-9f43162d0881"},"vehicle_type_id":"4","last_reported":1701371021,"current_range_meters":0,"station_id":"ce4bhg12rcd13ifvqf80","pricing_plan_id":"free"},{"bike_id":"883e7e01-6f11-439b-8156-4d04cdeae9c0","system_id":"levelo_inurba_marseille","lat":43.278399,"lon":5.392139,"is_reserved":false,"is_disabled":false,"rental_uris":{"android":"levelo://app?vid=883e7e01-6f11-439b-8156-4d04cdeae9c0","ios":"levelo://app?vid=883e7e01-6f11-439b-8156-4d04cdeae9c0"},"vehicle_type_id":"4","last_reported":1701371021,"current_range_meters":14400,"station_id":"ce4bhjp2rcd13ifvqga0","pricing_plan_id":"free"},{"bike_id":"2be7bbbe-726b-46ad-afb6-b4d848b4c216","system_id":"levelo_inurba_marseille","lat":43.278401,"lon":5.392152,"is_reserved":false,"is_disabled":false,"rental_uris":{"android":"levelo://app?vid=2be7bbbe-726b-46ad-afb6-b4d848b4c216","ios":"levelo://app?vid=2be7bbbe-726b-46ad-afb6-b4d848b4c216"},"vehicle_type_id":"4","last_reported":1701371021,"current_range_meters":20400,"station_id":"ce4bhjp2rcd13ifvqga0","pricing_plan_id":"free"},{"bike_id":"6e178954-be33-4260-89e5-9907a5d205b9","system_id":"levelo_inurba_marseille","lat":43.267959,"lon":5.402685,"is_reserved":false,"is_disabled":false,"rental_uris":{"android":"levelo://app?vid=6e178954-be33-4260-89e5-9907a5d205b9","ios":"levelo://app?vid=6e178954-be33-4260-89e5-9907a5d205b9"},"vehicle_type_id":"4","last_reported":1701371021,"current_range_meters":4000,"station_id":"ce501612rcd8frsf0b60","pricing_plan_id":"free"},{"bike_id":"df147808-9245-4122-89ae-695bb79dec40","system_id":"levelo_inurba_marseille","lat":43.278401,"lon":5.392152,"is_reserved":false,"is_disabled":false,"rental_uris":{"android":"levelo://app?vid=df147808-9245-4122-89ae-695bb79dec40","ios":"levelo://app?vid=df147808-9245-4122-89ae-695bb79dec40"},"vehicle_type_id":"4","last_reported":1701371021,"current_range_meters":16800,"station_id":"ce4bhjp2rcd13ifvqga0","pricing_plan_id":"free"},{"bike_id":"18298376-ac31-4768-b4a2-56d84c145a6e","system_id":"levelo_inurba_marseille","lat":43.273613,"lon":5.362705,"is_reserved":false,"is_disabled":false,"rental_uris":{"android":"levelo://app?vid=18298376-ac31-4768-b4a2-56d84c145a6e","ios":"levelo://app?vid=18298376-ac31-4768-b4a2-56d84c145a6e"},"vehicle_type_id":"4","last_reported":1701371021,"current_range_meters":1200,"station_id":"ce4bhbh2rcd13ifvqeo0","pricing_plan_id":"free"},{"bike_id":"c298b0f2-a5ae-4fb2-86ea-2ca3dc621624","system_id":"levelo_inurba_marseille","lat":43.276769,"lon":5.388787,"is_reserved":false,"is_disabled":false,"rental_uris":{"android":"levelo://app?vid=c298b0f2-a5ae-4fb2-86ea-2ca3dc621624","ios":"levelo://app?vid=c298b0f2-a5ae-4fb2-86ea-2ca3dc621624"},"vehicle_type_id":"4","last_reported":1701371021,"current_range_meters":1200,"station_id":"ce4bhi12rcd13ifvqfo0","pricing_plan_id":"free"},{"bike_id":"05c814e6-87f5-44bd-9bfb-259ab8dc72bc","system_id":"levelo_inurba_marseille","lat":43.275625,"lon":5.384392,"is_reserved":false,"is_disabled":false,"rental_uris":{"android":"levelo://app?vid=05c814e6-87f5-44bd-9bfb-259ab8dc72bc","ios":"levelo://app?vid=05c814e6-87f5-44bd-9bfb-259ab8dc72bc"},"vehicle_type_id":"4","last_reported":1701371021,"current_range_meters":2400,"station_id":"ce4bhh92rcd13ifvqfi0","pricing_plan_id":"free"},{"bike_id":"78e090e3-e349-4d75-b3f2-4d776196d800","system_id":"levelo_inurba_marseille","lat":43.279975,"lon":5.40009,"is_reserved":false,"is_disabled":false,"rental_uris":{"android":"levelo://app?vid=78e090e3-e349-4d75-b3f2-4d776196d800","ios":"levelo://app?vid=78e090e3-e349-4d75-b3f2-4d776196d800"},"vehicle_type_id":"4","last_reported":1701371021,"current_range_meters":0,"station_id":"ce4bho92rcd13ifvqh4g","pricing_plan_id":"free"},{"bike_id":"4329a490-0000-4027-8d78-b27b030e97f7","system_id":"levelo_inurba_marseille","lat":43.279952,"lon":5.400085,"is_reserved":false,"is_disabled":false,"rental_uris":{"android":"levelo://app?vid=4329a490-0000-4027-8d78-b27b030e97f7","ios":"levelo://app?vid=4329a490-0000-4027-8d78-b27b030e97f7"},"vehicle_type_id":"4","last_reported":1701371021,"current_range_meters":11600,"station_id":"ce4bho92rcd13ifvqh4g","pricing_plan_id":"free"},{"bike_id":"5ff60725-a852-454a-9bc0-b7a086efbe8a","system_id":"levelo_inurba_marseille","lat":43.310785,"lon":5.424305,"is_reserved":false,"is_disabled":false,"rental_uris":{"android":"levelo://app?vid=5ff60725-a852-454a-9bc0-b7a086efbe8a","ios":"levelo://app?vid=5ff60725-a852-454a-9bc0-b7a086efbe8a"},"vehicle_type_id":"4","last_reported":1701371021,"current_range_meters":11600,"station_id":"ce4bhp92rcd13ifvqhag","pricing_plan_id":"free"},{"bike_id":"d6cd08ef-c934-44a0-a330-510b886d15f8","system_id":"levelo_inurba_marseille","lat":43.310785,"lon":5.424305,"is_reserved":false,"is_disabled":false,"rental_uris":{"android":"levelo://app?vid=d6cd08ef-c934-44a0-a330-510b886d15f8","ios":"levelo://app?vid=d6cd08ef-c934-44a0-a330-510b886d15f8"},"vehicle_type_id":"4","last_reported":1701371021,"current_range_meters":30000,"station_id":"ce4bhp92rcd13ifvqhag","pricing_plan_id":"free"},{"bike_id":"c98a5a7a-296c-4e80-91ee-589d1a39b877","system_id":"levelo_inurba_marseille","lat":43.27326,"lon":5.39078,"is_reserved":false,"is_disabled":false,"rental_uris":{"android":"levelo://app?vid=c98a5a7a-296c-4e80-91ee-589d1a39b877","ios":"levelo://app?vid=c98a5a7a-296c-4e80-91ee-589d1a39b877"},"vehicle_type_id":"4","last_reported":1701371021,"current_range_meters":28400,"station_id":"ce4bhgp2rcd13ifvqfe0","pricing_plan_id":"free"},{"bike_id":"f6f5ea56-9300-463e-b425-975a4790a2e3","system_id":"levelo_inurba_marseille","lat":43.274103,"lon":5.394016,"is_reserved":false,"is_disabled":false,"rental_uris":{"android":"levelo://app?vid=f6f5ea56-9300-463e-b425-975a4790a2e3","ios":"levelo://app?vid=f6f5ea56-9300-463e-b425-975a4790a2e3"},"vehicle_type_id":"4","last_reported":1701371021,"current_range_meters":2400,"station_id":"ce4bhdp2rcd13ifvqf20","pricing_plan_id":"free"},{"bike_id":"d06d959d-7d65-4009-940f-47b043b6edfa","system_id":"levelo_inurba_marseille","lat":43.273129,"lon":5.390725,"is_reserved":false,"is_disabled":false,"rental_uris":{"android":"levelo://app?vid=d06d959d-7d65-4009-940f-47b043b6edfa","ios":"levelo://app?vid=d06d959d-7d65-4009-940f-47b043b6edfa"},"vehicle_type_id":"4","last_reported":1701371021,"current_range_meters":6400,"station_id":"ce4bhgp2rcd13ifvqfe0","pricing_plan_id":"free"},{"bike_id":"2ef5a910-0e6b-4919-852b-c2607f85dd82","system_id":"levelo_inurba_marseille","lat":43.27312,"lon":5.39072,"is_reserved":false,"is_disabled":false,"rental_uris":{"android":"levelo://app?vid=2ef5a910-0e6b-4919-852b-c2607f85dd82","ios":"levelo://app?vid=2ef5a910-0e6b-4919-852b-c2607f85dd82"},"vehicle_type_id":"4","last_reported":1701371021,"current_range_meters":11600,"station_id":"ce4bhgp2rcd13ifvqfe0","pricing_plan_id":"free"},{"bike_id":"5734ee87-5ba0-4bb1-b35f-9a6d4a78e023","system_id":"levelo_inurba_marseille","lat":43.273129,"lon":5.390725,"is_reserved":false,"is_disabled":false,"rental_uris":{"android":"levelo://app?vid=5734ee87-5ba0-4bb1-b35f-9a6d4a78e023","ios":"levelo://app?vid=5734ee87-5ba0-4bb1-b35f-9a6d4a78e023"},"vehicle_type_id":"4","last_reported":1701371021,"current_range_meters":25200,"station_id":"ce4bhgp2rcd13ifvqfe0","pricing_plan_id":"free"},{"bike_id":"7335a393-cc37-4e1d-b729-82d3cd0e69fb","system_id":"levelo_inurba_marseille","lat":43.29523,"lon":5.42257,"is_reserved":false,"is_disabled":false,"rental_uris":{"android":"levelo://app?vid=7335a393-cc37-4e1d-b729-82d3cd0e69fb","ios":"levelo://app?vid=7335a393-cc37-4e1d-b729-82d3cd0e69fb"},"vehicle_type_id":"4","last_reported":1701371021,"current_range_meters":19200,"station_id":"ce4bhph2rcd13ifvqhdg","pricing_plan_id":"free"},{"bike_id":"f6d38aff-a5fe-4ea8-b323-a05c3a6bb4a7","system_id":"levelo_inurba_marseille","lat":43.295511,"lon":5.422926,"is_reserved":false,"is_disabled":false,"rental_uris":{"android":"levelo://app?vid=f6d38aff-a5fe-4ea8-b323-a05c3a6bb4a7","ios":"levelo://app?vid=f6d38aff-a5fe-4ea8-b323-a05c3a6bb4a7"},"vehicle_type_id":"4","last_reported":1701371021,"current_range_meters":13200,"station_id":"ce4bhph2rcd13ifvqhdg","pricing_plan_id":"free"},{"bike_id":"d73e7773-77ad-4caa-a32b-fa57bf5ae421","system_id":"levelo_inurba_marseille","lat":43.295511,"lon":5.422926,"is_reserved":false,"is_disabled":false,"rental_uris":{"android":"levelo://app?vid=d73e7773-77ad-4caa-a32b-fa57bf5ae421","ios":"levelo://app?vid=d73e7773-77ad-4caa-a32b-fa57bf5ae421"},"vehicle_type_id":"4","last_reported":1701371021,"current_range_meters":15200,"station_id":"ce4bhph2rcd13ifvqhdg","pricing_plan_id":"free"},{"bike_id":"24aff8ed-aae8-4ff9-9aec-80df925900e8","system_id":"levelo_inurba_marseille","lat":43.272118,"lon":5.391758,"is_reserved":false,"is_disabled":false,"rental_uris":{"android":"levelo://app?vid=24aff8ed-aae8-4ff9-9aec-80df925900e8","ios":"levelo://app?vid=24aff8ed-aae8-4ff9-9aec-80df925900e8"},"vehicle_type_id":"4","last_reported":1701371021,"current_range_meters":24000,"station_id":"ce4bhhp2rcd13ifvqfm0","pricing_plan_id":"free"},{"bike_id":"3e5de9b9-07bf-4aeb-aa0a-8c53133c9c08","system_id":"levelo_inurba_marseille","lat":43.272116,"lon":5.391763,"is_reserved":false,"is_disabled":false,"rental_uris":{"android":"levelo://app?vid=3e5de9b9-07bf-4aeb-aa0a-8c53133c9c08","ios":"levelo://app?vid=3e5de9b9-07bf-4aeb-aa0a-8c53133c9c08"},"vehicle_type_id":"4","last_reported":1701371021,"current_range_meters":20000,"station_id":"ce4bhhp2rcd13ifvqfm0","pricing_plan_id":"free"},{"bike_id":"1b9c710f-ac73-4ada-a61d-5986867e257c","system_id":"levelo_inurba_marseille","lat":43.272118,"lon":5.391758,"is_reserved":false,"is_disabled":false,"rental_uris":{"android":"levelo://app?vid=1b9c710f-ac73-4ada-a61d-5986867e257c","ios":"levelo://app?vid=1b9c710f-ac73-4ada-a61d-5986867e257c"},"vehicle_type_id":"4","last_reported":1701371021,"current_range_meters":26000,"station_id":"ce4bhhp2rcd13ifvqfm0","pricing_plan_id":"free"},{"bike_id":"d79d6158-8774-4d0c-9c40-db2f51b4a410","system_id":"levelo_inurba_marseille","lat":43.272116,"lon":5.391747,"is_reserved":false,"is_disabled":false,"rental_uris":{"android":"levelo://app?vid=d79d6158-8774-4d0c-9c40-db2f51b4a410","ios":"levelo://app?vid=d79d6158-8774-4d0c-9c40-db2f51b4a410"},"vehicle_type_id":"4","last_reported":1701371021,"current_range_meters":2800,"station_id":"ce4bhhp2rcd13ifvqfm0","pricing_plan_id":"free"},{"bike_id":"735b5cd4-6eb2-4725-9cb7-adb3cad7c77b","system_id":"levelo_inurba_marseille","lat":43.27036,"lon":5.38835,"is_reserved":false,"is_disabled":false,"rental_uris":{"android":"levelo://app?vid=735b5cd4-6eb2-4725-9cb7-adb3cad7c77b","ios":"levelo://app?vid=735b5cd4-6eb2-4725-9cb7-adb3cad7c77b"},"vehicle_type_id":"4","last_reported":1701371021,"current_range_meters":0,"station_id":"","pricing_plan_id":"free"},{"bike_id":"aa01e258-1091-43d5-8b89-fd25fa8df4dc","system_id":"levelo_inurba_marseille","lat":43.275477,"lon":5.40907,"is_reserved":false,"is_disabled":false,"rental_uris":{"android":"levelo://app?vid=aa01e258-1091-43d5-8b89-fd25fa8df4dc","ios":"levelo://app?vid=aa01e258-1091-43d5-8b89-fd25fa8df4dc"},"vehicle_type_id":"4","last_reported":1701371021,"current_range_meters":0,"station_id":"","pricing_plan_id":"free"},{"bike_id":"c2b27acb-0e0a-48d2-8438-13e657c0153d","system_id":"levelo_inurba_marseille","lat":43.27546,"lon":5.40911,"is_reserved":false,"is_disabled":false,"rental_uris":{"android":"levelo://app?vid=c2b27acb-0e0a-48d2-8438-13e657c0153d","ios":"levelo://app?vid=c2b27acb-0e0a-48d2-8438-13e657c0153d"},"vehicle_type_id":"4","last_reported":1701371021,"current_range_meters":800,"station_id":"","pricing_plan_id":"free"},{"bike_id":"c1c6da9d-8914-43d7-abb3-c9e5fb6199e4","system_id":"levelo_inurba_marseille","lat":43.27996,"lon":5.416624,"is_reserved":false,"is_disabled":false,"rental_uris":{"android":"levelo://app?vid=c1c6da9d-8914-43d7-abb3-c9e5fb6199e4","ios":"levelo://app?vid=c1c6da9d-8914-43d7-abb3-c9e5fb6199e4"},"vehicle_type_id":"4","last_reported":1701371021,"current_range_meters":7600,"station_id":"ce4bho12rcd13ifvqh1g","pricing_plan_id":"free"},{"bike_id":"1dbaf171-8216-425f-9ee6-d002ebfa9ae1","system_id":"levelo_inurba_marseille","lat":43.26784,"lon":5.39413,"is_reserved":false,"is_disabled":false,"rental_uris":{"android":"levelo://app?vid=1dbaf171-8216-425f-9ee6-d002ebfa9ae1","ios":"levelo://app?vid=1dbaf171-8216-425f-9ee6-d002ebfa9ae1"},"vehicle_type_id":"4","last_reported":1701371021,"current_range_meters":10000,"station_id":"ce4bhh12rcd13ifvqfg0","pricing_plan_id":"free"},{"bike_id":"d90a019b-2057-42ba-b0ef-90ed612014a4","system_id":"levelo_inurba_marseille","lat":43.26783,"lon":5.39415,"is_reserved":false,"is_disabled":false,"rental_uris":{"android":"levelo://app?vid=d90a019b-2057-42ba-b0ef-90ed612014a4","ios":"levelo://app?vid=d90a019b-2057-42ba-b0ef-90ed612014a4"},"vehicle_type_id":"4","last_reported":1701371021,"current_range_meters":26400,"station_id":"ce4bhh12rcd13ifvqfg0","pricing_plan_id":"free"},{"bike_id":"153d436f-72ad-4ba8-8a78-59a6691ee438","system_id":"levelo_inurba_marseille","lat":43.267966,"lon":5.393976,"is_reserved":false,"is_disabled":false,"rental_uris":{"android":"levelo://app?vid=153d436f-72ad-4ba8-8a78-59a6691ee438","ios":"levelo://app?vid=153d436f-72ad-4ba8-8a78-59a6691ee438"},"vehicle_type_id":"4","last_reported":1701371021,"current_range_meters":6400,"station_id":"ce4bhh12rcd13ifvqfg0","pricing_plan_id":"free"},{"bike_id":"84d99abe-0b2c-4fa8-95ef-c96081a29bf7","system_id":"levelo_inurba_marseille","lat":43.26777,"lon":5.39422,"is_reserved":false,"is_disabled":false,"rental_uris":{"android":"levelo://app?vid=84d99abe-0b2c-4fa8-95ef-c96081a29bf7","ios":"levelo://app?vid=84d99abe-0b2c-4fa8-95ef-c96081a29bf7"},"vehicle_type_id":"4","last_reported":1701371021,"current_range_meters":26800,"station_id":"ce4bhh12rcd13ifvqfg0","pricing_plan_id":"free"},{"bike_id":"1ec741e5-451b-4aaf-b467-e986a6e8693f","system_id":"levelo_inurba_marseille","lat":43.26775,"lon":5.39416,"is_reserved":false,"is_disabled":false,"rental_uris":{"android":"levelo://app?vid=1ec741e5-451b-4aaf-b467-e986a6e8693f","ios":"levelo://app?vid=1ec741e5-451b-4aaf-b467-e986a6e8693f"},"vehicle_type_id":"4","last_reported":1701371021,"current_range_meters":16400,"station_id":"ce4bhh12rcd13ifvqfg0","pricing_plan_id":"free"},{"bike_id":"8bb4fa45-f818-4140-b1ae-5c6f69f8f94c","system_id":"levelo_inurba_marseille","lat":43.26773,"lon":5.3942,"is_reserved":false,"is_disabled":false,"rental_uris":{"android":"levelo://app?vid=8bb4fa45-f818-4140-b1ae-5c6f69f8f94c","ios":"levelo://app?vid=8bb4fa45-f818-4140-b1ae-5c6f69f8f94c"},"vehicle_type_id":"4","last_reported":1701371021,"current_range_meters":9600,"station_id":"ce4bhh12rcd13ifvqfg0","pricing_plan_id":"free"},{"bike_id":"5645d581-8278-4c52-bcca-8e31b50c5def","system_id":"levelo_inurba_marseille","lat":43.265714,"lon":5.372891,"is_reserved":false,"is_disabled":false,"rental_uris":{"android":"levelo://app?vid=5645d581-8278-4c52-bcca-8e31b50c5def","ios":"levelo://app?vid=5645d581-8278-4c52-bcca-8e31b50c5def"},"vehicle_type_id":"4","last_reported":1701371021,"current_range_meters":5200,"station_id":"ce4bhg12rcd13ifvqf70","pricing_plan_id":"free"},{"bike_id":"f2888c50-a09a-439d-ab6a-2744a0f8ccda","system_id":"levelo_inurba_marseille","lat":43.30803,"lon":5.43516,"is_reserved":false,"is_disabled":false,"rental_uris":{"android":"levelo://app?vid=f2888c50-a09a-439d-ab6a-2744a0f8ccda","ios":"levelo://app?vid=f2888c50-a09a-439d-ab6a-2744a0f8ccda"},"vehicle_type_id":"4","last_reported":1701371021,"current_range_meters":19200,"station_id":"ce4bhph2rcd13ifvqheg","pricing_plan_id":"free"},{"bike_id":"8e8d349d-09ef-483a-8322-0fd5fbd7b38e","system_id":"levelo_inurba_marseille","lat":43.308051,"lon":5.43527,"is_reserved":false,"is_disabled":false,"rental_uris":{"android":"levelo://app?vid=8e8d349d-09ef-483a-8322-0fd5fbd7b38e","ios":"levelo://app?vid=8e8d349d-09ef-483a-8322-0fd5fbd7b38e"},"vehicle_type_id":"4","last_reported":1701371021,"current_range_meters":30800,"station_id":"ce4bhph2rcd13ifvqheg","pricing_plan_id":"free"},{"bike_id":"deab3550-3ed4-4c29-b804-ac3e50bc32e3","system_id":"levelo_inurba_marseille","lat":43.308051,"lon":5.43527,"is_reserved":false,"is_disabled":false,"rental_uris":{"android":"levelo://app?vid=deab3550-3ed4-4c29-b804-ac3e50bc32e3","ios":"levelo://app?vid=deab3550-3ed4-4c29-b804-ac3e50bc32e3"},"vehicle_type_id":"4","last_reported":1701371021,"current_range_meters":31200,"station_id":"ce4bhph2rcd13ifvqheg","pricing_plan_id":"free"},{"bike_id":"7ab63241-0bea-4919-80fc-6d8eef69395f","system_id":"levelo_inurba_marseille","lat":43.308051,"lon":5.43527,"is_reserved":false,"is_disabled":false,"rental_uris":{"android":"levelo://app?vid=7ab63241-0bea-4919-80fc-6d8eef69395f","ios":"levelo://app?vid=7ab63241-0bea-4919-80fc-6d8eef69395f"},"vehicle_type_id":"4","last_reported":1701371021,"current_range_meters":31200,"station_id":"ce4bhph2rcd13ifvqheg","pricing_plan_id":"free"},{"bike_id":"557dbf0e-2f28-4f97-8779-efb9e8b399df","system_id":"levelo_inurba_marseille","lat":43.30797,"lon":5.43527,"is_reserved":false,"is_disabled":false,"rental_uris":{"android":"levelo://app?vid=557dbf0e-2f28-4f97-8779-efb9e8b399df","ios":"levelo://app?vid=557dbf0e-2f28-4f97-8779-efb9e8b399df"},"vehicle_type_id":"4","last_reported":1701371021,"current_range_meters":26800,"station_id":"ce4bhph2rcd13ifvqheg","pricing_plan_id":"free"},{"bike_id":"781cbb53-7e5c-4741-8f19-4f5843ec2fb1","system_id":"levelo_inurba_marseille","lat":43.26949,"lon":5.40262,"is_reserved":false,"is_disabled":false,"rental_uris":{"android":"levelo://app?vid=781cbb53-7e5c-4741-8f19-4f5843ec2fb1","ios":"levelo://app?vid=781cbb53-7e5c-4741-8f19-4f5843ec2fb1"},"vehicle_type_id":"4","last_reported":1701371021,"current_range_meters":7600,"station_id":"cjm6bp8fraef2m0cb0m0","pricing_plan_id":"free"},{"bike_id":"5ebb2d7b-ba2b-495c-a2d9-41697a4d0463","system_id":"levelo_inurba_marseille","lat":43.2694,"lon":5.40247,"is_reserved":false,"is_disabled":false,"rental_uris":{"android":"levelo://app?vid=5ebb2d7b-ba2b-495c-a2d9-41697a4d0463","ios":"levelo://app?vid=5ebb2d7b-ba2b-495c-a2d9-41697a4d0463"},"vehicle_type_id":"4","last_reported":1701371021,"current_range_meters":17600,"station_id":"cjm6bp8fraef2m0cb0m0","pricing_plan_id":"free"},{"bike_id":"747f7303-f46a-4d4c-90bd-2b25a42c54ab","system_id":"levelo_inurba_marseille","lat":43.269363,"lon":5.402493,"is_reserved":false,"is_disabled":false,"rental_uris":{"android":"levelo://app?vid=747f7303-f46a-4d4c-90bd-2b25a42c54ab","ios":"levelo://app?vid=747f7303-f46a-4d4c-90bd-2b25a42c54ab"},"vehicle_type_id":"4","last_reported":1701371021,"current_range_meters":0,"station_id":"cjm6bp8fraef2m0cb0m0","pricing_plan_id":"free"},{"bike_id":"57860777-9d95-4c35-9ccf-7f99fc9d8047","system_id":"levelo_inurba_marseille","lat":43.26949,"lon":5.40262,"is_reserved":false,"is_disabled":false,"rental_uris":{"android":"levelo://app?vid=57860777-9d95-4c35-9ccf-7f99fc9d8047","ios":"levelo://app?vid=57860777-9d95-4c35-9ccf-7f99fc9d8047"},"vehicle_type_id":"4","last_reported":1701371021,"current_range_meters":14800,"station_id":"cjm6bp8fraef2m0cb0m0","pricing_plan_id":"free"},{"bike_id":"3319c67f-102f-4eb4-84ca-dc64d010af16","system_id":"levelo_inurba_marseille","lat":43.26949,"lon":5.40262,"is_reserved":false,"is_disabled":false,"rental_uris":{"android":"levelo://app?vid=3319c67f-102f-4eb4-84ca-dc64d010af16","ios":"levelo://app?vid=3319c67f-102f-4eb4-84ca-dc64d010af16"},"vehicle_type_id":"4","last_reported":1701371021,"current_range_meters":2000,"station_id":"cjm6bp8fraef2m0cb0m0","pricing_plan_id":"free"},{"bike_id":"44d51874-045e-4906-a2f9-909193d67e63","system_id":"levelo_inurba_marseille","lat":43.317104,"lon":5.436818,"is_reserved":false,"is_disabled":false,"rental_uris":{"android":"levelo://app?vid=44d51874-045e-4906-a2f9-909193d67e63","ios":"levelo://app?vid=44d51874-045e-4906-a2f9-909193d67e63"},"vehicle_type_id":"4","last_reported":1701371021,"current_range_meters":26800,"station_id":"ce4bhp92rcd13ifvqhcg","pricing_plan_id":"free"},{"bike_id":"7fe6820a-06e6-42d8-9e38-8e0428267591","system_id":"levelo_inurba_marseille","lat":43.317104,"lon":5.436818,"is_reserved":false,"is_disabled":false,"rental_uris":{"android":"levelo://app?vid=7fe6820a-06e6-42d8-9e38-8e0428267591","ios":"levelo://app?vid=7fe6820a-06e6-42d8-9e38-8e0428267591"},"vehicle_type_id":"4","last_reported":1701371021,"current_range_meters":26000,"station_id":"ce4bhp92rcd13ifvqhcg","pricing_plan_id":"free"},{"bike_id":"6d50931a-5553-495d-be31-bbcf7bdad9de","system_id":"levelo_inurba_marseille","lat":43.317104,"lon":5.436818,"is_reserved":false,"is_disabled":false,"rental_uris":{"android":"levelo://app?vid=6d50931a-5553-495d-be31-bbcf7bdad9de","ios":"levelo://app?vid=6d50931a-5553-495d-be31-bbcf7bdad9de"},"vehicle_type_id":"4","last_reported":1701371021,"current_range_meters":31600,"station_id":"ce4bhp92rcd13ifvqhcg","pricing_plan_id":"free"},{"bike_id":"7273224c-d24c-46bb-960b-6a215f54e2fc","system_id":"levelo_inurba_marseille","lat":43.271388,"lon":5.409269,"is_reserved":false,"is_disabled":false,"rental_uris":{"android":"levelo://app?vid=7273224c-d24c-46bb-960b-6a215f54e2fc","ios":"levelo://app?vid=7273224c-d24c-46bb-960b-6a215f54e2fc"},"vehicle_type_id":"4","last_reported":1701371021,"current_range_meters":23600,"station_id":"ce4bhl12rcd13ifvqgf0","pricing_plan_id":"free"},{"bike_id":"4fd558eb-d800-40cb-8081-2ca2f860245c","system_id":"levelo_inurba_marseille","lat":43.267959,"lon":5.402687,"is_reserved":false,"is_disabled":false,"rental_uris":{"android":"levelo://app?vid=4fd558eb-d800-40cb-8081-2ca2f860245c","ios":"levelo://app?vid=4fd558eb-d800-40cb-8081-2ca2f860245c"},"vehicle_type_id":"4","last_reported":1701371021,"current_range_meters":19600,"station_id":"ce501612rcd8frsf0b60","pricing_plan_id":"free"},{"bike_id":"6e705c4d-9fe3-4f02-bf5f-f05b8a0820b4","system_id":"levelo_inurba_marseille","lat":43.267959,"lon":5.402687,"is_reserved":false,"is_disabled":false,"rental_uris":{"android":"levelo://app?vid=6e705c4d-9fe3-4f02-bf5f-f05b8a0820b4","ios":"levelo://app?vid=6e705c4d-9fe3-4f02-bf5f-f05b8a0820b4"},"vehicle_type_id":"4","last_reported":1701371021,"current_range_meters":4800,"station_id":"ce501612rcd8frsf0b60","pricing_plan_id":"free"},{"bike_id":"67a84057-c975-45a1-8bfb-a936a4c9b8f5","system_id":"levelo_inurba_marseille","lat":43.267959,"lon":5.402687,"is_reserved":false,"is_disabled":false,"rental_uris":{"android":"levelo://app?vid=67a84057-c975-45a1-8bfb-a936a4c9b8f5","ios":"levelo://app?vid=67a84057-c975-45a1-8bfb-a936a4c9b8f5"},"vehicle_type_id":"4","last_reported":1701371021,"current_range_meters":17200,"station_id":"ce501612rcd8frsf0b60","pricing_plan_id":"free"},{"bike_id":"8c0144d4-3ae3-46c6-91f5-f89e3a65f9c5","system_id":"levelo_inurba_marseille","lat":43.267959,"lon":5.402687,"is_reserved":false,"is_disabled":false,"rental_uris":{"android":"levelo://app?vid=8c0144d4-3ae3-46c6-91f5-f89e3a65f9c5","ios":"levelo://app?vid=8c0144d4-3ae3-46c6-91f5-f89e3a65f9c5"},"vehicle_type_id":"4","last_reported":1701371021,"current_range_meters":22000,"station_id":"ce501612rcd8frsf0b60","pricing_plan_id":"free"},{"bike_id":"4e3d13ae-3f43-4865-af20-3ed4394d391d","system_id":"levelo_inurba_marseille","lat":43.298768,"lon":5.43643,"is_reserved":false,"is_disabled":false,"rental_uris":{"android":"levelo://app?vid=4e3d13ae-3f43-4865-af20-3ed4394d391d","ios":"levelo://app?vid=4e3d13ae-3f43-4865-af20-3ed4394d391d"},"vehicle_type_id":"4","last_reported":1701371021,"current_range_meters":17200,"station_id":"ce4bhpp2rcd13ifvqhfg","pricing_plan_id":"free"},{"bike_id":"3f2b1989-5b73-4cd5-aa40-2053eed33222","system_id":"levelo_inurba_marseille","lat":43.281548,"lon":5.42643,"is_reserved":false,"is_disabled":false,"rental_uris":{"android":"levelo://app?vid=3f2b1989-5b73-4cd5-aa40-2053eed33222","ios":"levelo://app?vid=3f2b1989-5b73-4cd5-aa40-2053eed33222"},"vehicle_type_id":"4","last_reported":1701371021,"current_range_meters":8000,"station_id":"ce4bhnh2rcd13ifvqgug","pricing_plan_id":"free"},{"bike_id":"3e4fb47e-33e8-4ee2-bfc1-1bd948cfa529","system_id":"levelo_inurba_marseille","lat":43.281548,"lon":5.42643,"is_reserved":false,"is_disabled":false,"rental_uris":{"android":"levelo://app?vid=3e4fb47e-33e8-4ee2-bfc1-1bd948cfa529","ios":"levelo://app?vid=3e4fb47e-33e8-4ee2-bfc1-1bd948cfa529"},"vehicle_type_id":"4","last_reported":1701371021,"current_range_meters":22000,"station_id":"ce4bhnh2rcd13ifvqgug","pricing_plan_id":"free"},{"bike_id":"f93f1113-fb5f-4d35-abfd-754660e9d96d","system_id":"levelo_inurba_marseille","lat":43.281548,"lon":5.42643,"is_reserved":false,"is_disabled":false,"rental_uris":{"android":"levelo://app?vid=f93f1113-fb5f-4d35-abfd-754660e9d96d","ios":"levelo://app?vid=f93f1113-fb5f-4d35-abfd-754660e9d96d"},"vehicle_type_id":"4","last_reported":1701371021,"current_range_meters":14000,"station_id":"ce4bhnh2rcd13ifvqgug","pricing_plan_id":"free"},{"bike_id":"148511cc-b701-4df0-8bb2-d43ba5c914be","system_id":"levelo_inurba_marseille","lat":43.26062,"lon":5.393977,"is_reserved":false,"is_disabled":false,"rental_uris":{"android":"levelo://app?vid=148511cc-b701-4df0-8bb2-d43ba5c914be","ios":"levelo://app?vid=148511cc-b701-4df0-8bb2-d43ba5c914be"},"vehicle_type_id":"4","last_reported":1701371021,"current_range_meters":14000,"station_id":"ce4bhh92rcd13ifvqfj0","pricing_plan_id":"free"},{"bike_id":"c3be5e57-b7df-4b6f-84f6-e0b7439e5774","system_id":"levelo_inurba_marseille","lat":43.27497,"lon":5.42441,"is_reserved":false,"is_disabled":false,"rental_uris":{"android":"levelo://app?vid=c3be5e57-b7df-4b6f-84f6-e0b7439e5774","ios":"levelo://app?vid=c3be5e57-b7df-4b6f-84f6-e0b7439e5774"},"vehicle_type_id":"4","last_reported":1701371021,"current_range_meters":27200,"station_id":"ce4bhn92rcd13ifvqgrg","pricing_plan_id":"free"},{"bike_id":"f74448f8-bb2b-49c5-ac6f-7b1b760e9120","system_id":"levelo_inurba_marseille","lat":43.2558,"lon":5.38238,"is_reserved":false,"is_disabled":false,"rental_uris":{"android":"levelo://app?vid=f74448f8-bb2b-49c5-ac6f-7b1b760e9120","ios":"levelo://app?vid=f74448f8-bb2b-49c5-ac6f-7b1b760e9120"},"vehicle_type_id":"4","last_reported":1701371021,"current_range_meters":19600,"station_id":"ce4bhih2rcd13ifvqfs0","pricing_plan_id":"free"},{"bike_id":"60a44e48-9427-4457-be2d-6c2f2ce07fa7","system_id":"levelo_inurba_marseille","lat":43.25495,"lon":5.37647,"is_reserved":false,"is_disabled":false,"rental_uris":{"android":"levelo://app?vid=60a44e48-9427-4457-be2d-6c2f2ce07fa7","ios":"levelo://app?vid=60a44e48-9427-4457-be2d-6c2f2ce07fa7"},"vehicle_type_id":"4","last_reported":1701371021,"current_range_meters":0,"station_id":"ce4bhh12rcd13ifvqff0","pricing_plan_id":"free"},{"bike_id":"fac0e422-c37f-421d-8e1b-a25ffb37ce17","system_id":"levelo_inurba_marseille","lat":43.270721,"lon":5.422764,"is_reserved":false,"is_disabled":false,"rental_uris":{"android":"levelo://app?vid=fac0e422-c37f-421d-8e1b-a25ffb37ce17","ios":"levelo://app?vid=fac0e422-c37f-421d-8e1b-a25ffb37ce17"},"vehicle_type_id":"4","last_reported":1701371021,"current_range_meters":24400,"station_id":"ce4bhk92rcd13ifvqgb0","pricing_plan_id":"free"},{"bike_id":"39a41fc6-fb12-4304-b9bd-c12fd73ba948","system_id":"levelo_inurba_marseille","lat":43.270721,"lon":5.422764,"is_reserved":false,"is_disabled":false,"rental_uris":{"android":"levelo://app?vid=39a41fc6-fb12-4304-b9bd-c12fd73ba948","ios":"levelo://app?vid=39a41fc6-fb12-4304-b9bd-c12fd73ba948"},"vehicle_type_id":"4","last_reported":1701371021,"current_range_meters":28000,"station_id":"ce4bhk92rcd13ifvqgb0","pricing_plan_id":"free"},{"bike_id":"2c794cda-e1ba-4030-acff-649085b058d6","system_id":"levelo_inurba_marseille","lat":43.270721,"lon":5.422764,"is_reserved":false,"is_disabled":false,"rental_uris":{"android":"levelo://app?vid=2c794cda-e1ba-4030-acff-649085b058d6","ios":"levelo://app?vid=2c794cda-e1ba-4030-acff-649085b058d6"},"vehicle_type_id":"4","last_reported":1701371021,"current_range_meters":18800,"station_id":"ce4bhk92rcd13ifvqgb0","pricing_plan_id":"free"},{"bike_id":"9a98f69b-0661-4a9f-a960-364046df64c8","system_id":"levelo_inurba_marseille","lat":43.258658,"lon":5.398935,"is_reserved":false,"is_disabled":false,"rental_uris":{"android":"levelo://app?vid=9a98f69b-0661-4a9f-a960-364046df64c8","ios":"levelo://app?vid=9a98f69b-0661-4a9f-a960-364046df64c8"},"vehicle_type_id":"4","last_reported":1701371021,"current_range_meters":29200,"station_id":"ce4bhl92rcd13ifvqghg","pricing_plan_id":"free"},{"bike_id":"ce92fad5-db92-45e2-9fd5-07b92c8faaa1","system_id":"levelo_inurba_marseille","lat":43.250009,"lon":5.389195,"is_reserved":false,"is_disabled":false,"rental_uris":{"android":"levelo://app?vid=ce92fad5-db92-45e2-9fd5-07b92c8faaa1","ios":"levelo://app?vid=ce92fad5-db92-45e2-9fd5-07b92c8faaa1"},"vehicle_type_id":"4","last_reported":1701371021,"current_range_meters":27600,"station_id":"ce4bhgp2rcd13ifvqfd0","pricing_plan_id":"free"},{"bike_id":"f345f034-33dc-4dad-aa5b-253e1b17ca25","system_id":"levelo_inurba_marseille","lat":43.250009,"lon":5.389195,"is_reserved":false,"is_disabled":false,"rental_uris":{"android":"levelo://app?vid=f345f034-33dc-4dad-aa5b-253e1b17ca25","ios":"levelo://app?vid=f345f034-33dc-4dad-aa5b-253e1b17ca25"},"vehicle_type_id":"4","last_reported":1701371021,"current_range_meters":31200,"station_id":"ce4bhgp2rcd13ifvqfd0","pricing_plan_id":"free"},{"bike_id":"c623af1c-6e67-43af-a253-e9ce06d48351","system_id":"levelo_inurba_marseille","lat":43.250009,"lon":5.389195,"is_reserved":false,"is_disabled":false,"rental_uris":{"android":"levelo://app?vid=c623af1c-6e67-43af-a253-e9ce06d48351","ios":"levelo://app?vid=c623af1c-6e67-43af-a253-e9ce06d48351"},"vehicle_type_id":"4","last_reported":1701371021,"current_range_meters":29600,"station_id":"ce4bhgp2rcd13ifvqfd0","pricing_plan_id":"free"},{"bike_id":"65600340-7582-4278-98a3-ca80bb45d5d4","system_id":"levelo_inurba_marseille","lat":43.250966,"lon":5.395186,"is_reserved":false,"is_disabled":false,"rental_uris":{"android":"levelo://app?vid=65600340-7582-4278-98a3-ca80bb45d5d4","ios":"levelo://app?vid=65600340-7582-4278-98a3-ca80bb45d5d4"},"vehicle_type_id":"4","last_reported":1701371021,"current_range_meters":29600,"station_id":"ce4bhm12rcd13ifvqgkg","pricing_plan_id":"free"},{"bike_id":"db6dd1e0-85ec-46e8-8d65-044233dc4acf","system_id":"levelo_inurba_marseille","lat":43.28121,"lon":5.44602,"is_reserved":false,"is_disabled":false,"rental_uris":{"android":"levelo://app?vid=db6dd1e0-85ec-46e8-8d65-044233dc4acf","ios":"levelo://app?vid=db6dd1e0-85ec-46e8-8d65-044233dc4acf"},"vehicle_type_id":"4","last_reported":1701371021,"current_range_meters":12800,"station_id":"","pricing_plan_id":"free"},{"bike_id":"5a843d46-e3a2-48e0-9de2-5fbbf1bcf0f4","system_id":"levelo_inurba_marseille","lat":43.24693,"lon":5.382096,"is_reserved":false,"is_disabled":false,"rental_uris":{"android":"levelo://app?vid=5a843d46-e3a2-48e0-9de2-5fbbf1bcf0f4","ios":"levelo://app?vid=5a843d46-e3a2-48e0-9de2-5fbbf1bcf0f4"},"vehicle_type_id":"4","last_reported":1701371021,"current_range_meters":0,"station_id":"ce4bhih2rcd13ifvqfr0","pricing_plan_id":"free"},{"bike_id":"f74c6e16-fc22-4227-8986-b81cca2fcb75","system_id":"levelo_inurba_marseille","lat":43.25102,"lon":5.403214,"is_reserved":false,"is_disabled":false,"rental_uris":{"android":"levelo://app?vid=f74c6e16-fc22-4227-8986-b81cca2fcb75","ios":"levelo://app?vid=f74c6e16-fc22-4227-8986-b81cca2fcb75"},"vehicle_type_id":"4","last_reported":1701371021,"current_range_meters":13600,"station_id":"ce4bhlh2rcd13ifvqgig","pricing_plan_id":"free"},{"bike_id":"344e2782-b01f-4304-a9bc-dc6e0c0e0d53","system_id":"levelo_inurba_marseille","lat":43.25102,"lon":5.403214,"is_reserved":false,"is_disabled":false,"rental_uris":{"android":"levelo://app?vid=344e2782-b01f-4304-a9bc-dc6e0c0e0d53","ios":"levelo://app?vid=344e2782-b01f-4304-a9bc-dc6e0c0e0d53"},"vehicle_type_id":"4","last_reported":1701371021,"current_range_meters":9200,"station_id":"ce4bhlh2rcd13ifvqgig","pricing_plan_id":"free"},{"bike_id":"4671570c-dbb6-4685-887b-f407ccd122ed","system_id":"levelo_inurba_marseille","lat":43.25102,"lon":5.403214,"is_reserved":false,"is_disabled":false,"rental_uris":{"android":"levelo://app?vid=4671570c-dbb6-4685-887b-f407ccd122ed","ios":"levelo://app?vid=4671570c-dbb6-4685-887b-f407ccd122ed"},"vehicle_type_id":"4","last_reported":1701371021,"current_range_meters":16800,"station_id":"ce4bhlh2rcd13ifvqgig","pricing_plan_id":"free"},{"bike_id":"3516343c-dde1-4f4a-9c45-0fe068a138f7","system_id":"levelo_inurba_marseille","lat":43.25107,"lon":5.40319,"is_reserved":false,"is_disabled":false,"rental_uris":{"android":"levelo://app?vid=3516343c-dde1-4f4a-9c45-0fe068a138f7","ios":"levelo://app?vid=3516343c-dde1-4f4a-9c45-0fe068a138f7"},"vehicle_type_id":"4","last_reported":1701371021,"current_range_meters":400,"station_id":"ce4bhlh2rcd13ifvqgig","pricing_plan_id":"free"},{"bike_id":"14f1bb1e-ae88-4689-a92a-d7ea56ef9721","system_id":"levelo_inurba_marseille","lat":43.25108,"lon":5.40323,"is_reserved":false,"is_disabled":false,"rental_uris":{"android":"levelo://app?vid=14f1bb1e-ae88-4689-a92a-d7ea56ef9721","ios":"levelo://app?vid=14f1bb1e-ae88-4689-a92a-d7ea56ef9721"},"vehicle_type_id":"4","last_reported":1701371021,"current_range_meters":8400,"station_id":"ce4bhlh2rcd13ifvqgig","pricing_plan_id":"free"},{"bike_id":"2580a1ca-4ee7-4bd7-9541-a2f0c3d9253c","system_id":"levelo_inurba_marseille","lat":43.243884,"lon":5.370736,"is_reserved":false,"is_disabled":false,"rental_uris":{"android":"levelo://app?vid=2580a1ca-4ee7-4bd7-9541-a2f0c3d9253c","ios":"levelo://app?vid=2580a1ca-4ee7-4bd7-9541-a2f0c3d9253c"},"vehicle_type_id":"4","last_reported":1701371021,"current_range_meters":12000,"station_id":"ce4bhhh2rcd13ifvqfk0","pricing_plan_id":"free"},{"bike_id":"bd6d2b78-452c-4d24-a3b0-780134fbe566","system_id":"levelo_inurba_marseille","lat":43.245581,"lon":5.395069,"is_reserved":false,"is_disabled":false,"rental_uris":{"android":"levelo://app?vid=bd6d2b78-452c-4d24-a3b0-780134fbe566","ios":"levelo://app?vid=bd6d2b78-452c-4d24-a3b0-780134fbe566"},"vehicle_type_id":"4","last_reported":1701371021,"current_range_meters":31200,"station_id":"ce4bhlp2rcd13ifvqgjg","pricing_plan_id":"free"},{"bike_id":"093facb8-a5f3-4e1b-aded-436d049b2d7e","system_id":"levelo_inurba_marseille","lat":43.245581,"lon":5.395069,"is_reserved":false,"is_disabled":false,"rental_uris":{"android":"levelo://app?vid=093facb8-a5f3-4e1b-aded-436d049b2d7e","ios":"levelo://app?vid=093facb8-a5f3-4e1b-aded-436d049b2d7e"},"vehicle_type_id":"4","last_reported":1701371021,"current_range_meters":23600,"station_id":"ce4bhlp2rcd13ifvqgjg","pricing_plan_id":"free"},{"bike_id":"cd0018b6-ee8b-489f-8af3-c1c2259160c3","system_id":"levelo_inurba_marseille","lat":43.240623,"lon":5.377642,"is_reserved":false,"is_disabled":false,"rental_uris":{"android":"levelo://app?vid=cd0018b6-ee8b-489f-8af3-c1c2259160c3","ios":"levelo://app?vid=cd0018b6-ee8b-489f-8af3-c1c2259160c3"},"vehicle_type_id":"4","last_reported":1701371021,"current_range_meters":24400,"station_id":"ce4bhnp2rcd13ifvqgvg","pricing_plan_id":"free"},{"bike_id":"a2a389f8-166c-4d0a-b6c1-e092825d88cc","system_id":"levelo_inurba_marseille","lat":43.239588,"lon":5.366238,"is_reserved":false,"is_disabled":false,"rental_uris":{"android":"levelo://app?vid=a2a389f8-166c-4d0a-b6c1-e092825d88cc","ios":"levelo://app?vid=a2a389f8-166c-4d0a-b6c1-e092825d88cc"},"vehicle_type_id":"4","last_reported":1701371021,"current_range_meters":22000,"station_id":"ce4bhi12rcd13ifvqfp0","pricing_plan_id":"free"},{"bike_id":"f73b6012-48d4-4174-90fa-22dbdfa5d171","system_id":"levelo_inurba_marseille","lat":43.239588,"lon":5.366238,"is_reserved":false,"is_disabled":false,"rental_uris":{"android":"levelo://app?vid=f73b6012-48d4-4174-90fa-22dbdfa5d171","ios":"levelo://app?vid=f73b6012-48d4-4174-90fa-22dbdfa5d171"},"vehicle_type_id":"4","last_reported":1701371021,"current_range_meters":31200,"station_id":"ce4bhi12rcd13ifvqfp0","pricing_plan_id":"free"},{"bike_id":"732f713b-f5d0-49ac-be74-465dc63caf5f","system_id":"levelo_inurba_marseille","lat":43.239588,"lon":5.366238,"is_reserved":false,"is_disabled":false,"rental_uris":{"android":"levelo://app?vid=732f713b-f5d0-49ac-be74-465dc63caf5f","ios":"levelo://app?vid=732f713b-f5d0-49ac-be74-465dc63caf5f"},"vehicle_type_id":"4","last_reported":1701371021,"current_range_meters":30000,"station_id":"ce4bhi12rcd13ifvqfp0","pricing_plan_id":"free"},{"bike_id":"c357f5cc-290c-4d3a-a8d3-675534b2f8b3","system_id":"levelo_inurba_marseille","lat":43.239588,"lon":5.366238,"is_reserved":false,"is_disabled":false,"rental_uris":{"android":"levelo://app?vid=c357f5cc-290c-4d3a-a8d3-675534b2f8b3","ios":"levelo://app?vid=c357f5cc-290c-4d3a-a8d3-675534b2f8b3"},"vehicle_type_id":"4","last_reported":1701371021,"current_range_meters":3600,"station_id":"ce4bhi12rcd13ifvqfp0","pricing_plan_id":"free"},{"bike_id":"d1703505-b125-4a98-a807-11024241bc04","system_id":"levelo_inurba_marseille","lat":43.231923,"lon":5.355545,"is_reserved":false,"is_disabled":false,"rental_uris":{"android":"levelo://app?vid=d1703505-b125-4a98-a807-11024241bc04","ios":"levelo://app?vid=d1703505-b125-4a98-a807-11024241bc04"},"vehicle_type_id":"4","last_reported":1701371021,"current_range_meters":31600,"station_id":"ce4bhu92rcd13ifvqi70","pricing_plan_id":"free"},{"bike_id":"afb85293-b2b9-4066-96a9-a697486041c8","system_id":"levelo_inurba_marseille","lat":43.231919,"lon":5.355532,"is_reserved":false,"is_disabled":false,"rental_uris":{"android":"levelo://app?vid=afb85293-b2b9-4066-96a9-a697486041c8","ios":"levelo://app?vid=afb85293-b2b9-4066-96a9-a697486041c8"},"vehicle_type_id":"4","last_reported":1701371021,"current_range_meters":11200,"station_id":"ce4bhu92rcd13ifvqi70","pricing_plan_id":"free"},{"bike_id":"d1dfe326-9244-4159-86ca-6dcc5e36ada8","system_id":"levelo_inurba_marseille","lat":43.231923,"lon":5.355545,"is_reserved":false,"is_disabled":false,"rental_uris":{"android":"levelo://app?vid=d1dfe326-9244-4159-86ca-6dcc5e36ada8","ios":"levelo://app?vid=d1dfe326-9244-4159-86ca-6dcc5e36ada8"},"vehicle_type_id":"4","last_reported":1701371021,"current_range_meters":13200,"station_id":"ce4bhu92rcd13ifvqi70","pricing_plan_id":"free"},{"bike_id":"e24daac6-4c93-40f9-8f65-68e5542d6c98","system_id":"levelo_inurba_marseille","lat":43.231923,"lon":5.355545,"is_reserved":false,"is_disabled":false,"rental_uris":{"android":"levelo://app?vid=e24daac6-4c93-40f9-8f65-68e5542d6c98","ios":"levelo://app?vid=e24daac6-4c93-40f9-8f65-68e5542d6c98"},"vehicle_type_id":"4","last_reported":1701371021,"current_range_meters":22400,"station_id":"ce4bhu92rcd13ifvqi70","pricing_plan_id":"free"},{"bike_id":"cf3102c4-88e0-4a41-86b7-69a76932d3e6","system_id":"levelo_inurba_marseille","lat":43.231923,"lon":5.355545,"is_reserved":false,"is_disabled":false,"rental_uris":{"android":"levelo://app?vid=cf3102c4-88e0-4a41-86b7-69a76932d3e6","ios":"levelo://app?vid=cf3102c4-88e0-4a41-86b7-69a76932d3e6"},"vehicle_type_id":"4","last_reported":1701371021,"current_range_meters":25600,"station_id":"ce4bhu92rcd13ifvqi70","pricing_plan_id":"free"},{"bike_id":"e4238cd3-66a8-491a-b9bc-f1a43eaa4222","system_id":"levelo_inurba_marseille","lat":43.231794,"lon":5.400052,"is_reserved":false,"is_disabled":false,"rental_uris":{"android":"levelo://app?vid=e4238cd3-66a8-491a-b9bc-f1a43eaa4222","ios":"levelo://app?vid=e4238cd3-66a8-491a-b9bc-f1a43eaa4222"},"vehicle_type_id":"4","last_reported":1701371021,"current_range_meters":27200,"station_id":"ce4bhn12rcd13ifvqgqg","pricing_plan_id":"free"},{"bike_id":"a0a14c22-c846-4739-b265-abe428872134","system_id":"levelo_inurba_marseille","lat":43.231793,"lon":5.400044,"is_reserved":false,"is_disabled":false,"rental_uris":{"android":"levelo://app?vid=a0a14c22-c846-4739-b265-abe428872134","ios":"levelo://app?vid=a0a14c22-c846-4739-b265-abe428872134"},"vehicle_type_id":"4","last_reported":1701371021,"current_range_meters":13600,"station_id":"ce4bhn12rcd13ifvqgqg","pricing_plan_id":"free"},{"bike_id":"8eb0ca37-48be-46c0-a9a9-f5b046dc44f1","system_id":"levelo_inurba_marseille","lat":43.231794,"lon":5.400052,"is_reserved":false,"is_disabled":false,"rental_uris":{"android":"levelo://app?vid=8eb0ca37-48be-46c0-a9a9-f5b046dc44f1","ios":"levelo://app?vid=8eb0ca37-48be-46c0-a9a9-f5b046dc44f1"},"vehicle_type_id":"4","last_reported":1701371021,"current_range_meters":24800,"station_id":"ce4bhn12rcd13ifvqgqg","pricing_plan_id":"free"},{"bike_id":"6a5023e2-2488-45ca-994d-66608d985b97","system_id":"levelo_inurba_marseille","lat":43.231793,"lon":5.400044,"is_reserved":false,"is_disabled":false,"rental_uris":{"android":"levelo://app?vid=6a5023e2-2488-45ca-994d-66608d985b97","ios":"levelo://app?vid=6a5023e2-2488-45ca-994d-66608d985b97"},"vehicle_type_id":"4","last_reported":1701371021,"current_range_meters":31200,"station_id":"ce4bhn12rcd13ifvqgqg","pricing_plan_id":"free"},{"bike_id":"0877e5b2-e6cf-4fa4-a987-f057e3aebebf","system_id":"levelo_inurba_marseille","lat":43.23185,"lon":5.39992,"is_reserved":false,"is_disabled":false,"rental_uris":{"android":"levelo://app?vid=0877e5b2-e6cf-4fa4-a987-f057e3aebebf","ios":"levelo://app?vid=0877e5b2-e6cf-4fa4-a987-f057e3aebebf"},"vehicle_type_id":"4","last_reported":1701371021,"current_range_meters":31200,"station_id":"ce4bhn12rcd13ifvqgqg","pricing_plan_id":"free"},{"bike_id":"1586ebd4-7e89-4522-af50-d599d27d983c","system_id":"levelo_inurba_marseille","lat":43.231794,"lon":5.400052,"is_reserved":false,"is_disabled":false,"rental_uris":{"android":"levelo://app?vid=1586ebd4-7e89-4522-af50-d599d27d983c","ios":"levelo://app?vid=1586ebd4-7e89-4522-af50-d599d27d983c"},"vehicle_type_id":"4","last_reported":1701371021,"current_range_meters":28400,"station_id":"ce4bhn12rcd13ifvqgqg","pricing_plan_id":"free"},{"bike_id":"42335cd1-7845-453d-a240-a54527ead2ee","system_id":"levelo_inurba_marseille","lat":43.231793,"lon":5.400044,"is_reserved":false,"is_disabled":false,"rental_uris":{"android":"levelo://app?vid=42335cd1-7845-453d-a240-a54527ead2ee","ios":"levelo://app?vid=42335cd1-7845-453d-a240-a54527ead2ee"},"vehicle_type_id":"4","last_reported":1701371021,"current_range_meters":29200,"station_id":"ce4bhn12rcd13ifvqgqg","pricing_plan_id":"free"}]}}