{"last_updated":1702159577,"ttl":30,"version":"2.2","data":{"bikes":[{"bike_id":"6ef1924a-0c86-47e2-8dcc-1134a4c96ba6","system_id":"levelo_inurba_marseille","lat":43.309076,"lon":5.368465,"is_reserved":false,"is_disabled":false,"rental_uris":{"android":"levelo://app?vid=6ef1924a-0c86-47e2-8dcc-1134a4c96ba6","ios":"levelo://app?vid=6ef1924a-0c86-47e2-8dcc-1134a4c96ba6"},"vehicle_type_id":"4","last_reported":1702159577,"current_range_meters":22400,"station_id":"ce4bgn92rcd13ifvqbvg","pricing_plan_id":"free"},{"bike_id":"0fe40999-5a08-472f-9c0e-b9ab62e54a02","system_id":"levelo_inurba_marseille","lat":43.309076,"lon":5.368465,"is_reserved":false,"is_disabled":false,"rental_uris":{"android":"levelo://app?vid=0fe40999-5a08-472f-9c0e-b9ab62e54a02","ios":"levelo://app?vid=0fe40999-5a08-472f-9c0e-b9ab62e54a02"},"vehicle_type_id":"4","last_reported":1702159577,"current_range_meters":27200,"station_id":"ce4bgn92rcd13ifvqbvg","pricing_plan_id":"free"},{"bike_id":"8a8aaf11-4d51-442e-81a0-940f1ee0ab07","system_id":"levelo_inurba_marseille","lat":43.314811,"lon":5.373103,"is_reserved":false,"is_disabled":false,"rental_uris":{"android":"levelo://app?vid=8a8aaf11-4d51-442e-81a0-940f1ee0ab07","ios":"levelo://app?vid=8a8aaf11-4d51-442e-81a0-940f1ee0ab07"},"vehicle_type_id":"4","last_reported":1702159577,"current_range_meters":29200,"station_id":"ce4bgt12rcd13ifvqcd0","pricing_plan_id":"free"},{"bike_id":"be563e93-b17e-4620-ad92-0eee294546ce","system_id":"levelo_inurba_marseille","lat":43.305712,"lon":5.365641,"is_reserved":false,"is_disabled":false,"rental_uris":{"android":"levelo://app?vid=be563e93-b17e-4620-ad92-0eee294546ce","ios":"levelo://app?vid=be563e93-b17e-4620-ad92-0eee294546ce"},"vehicle_type_id":"4","last_reported":1702159577,"current_range_meters":19600,"station_id":"ce4bgs12rcd13ifvqcag","pricing_plan_id":"free"},{"bike_id":"7da90dc3-7bc7-43a0-be0b-5d7aa292fcd6","system_id":"levelo_inurba_marseille","lat":43.307945,"lon":5.376487,"is_reserved":false,"is_disabled":false,"rental_uris":{"android":"levelo://app?vid=7da90dc3-7bc7-43a0-be0b-5d7aa292fcd6","ios":"levelo://app?vid=7da90dc3-7bc7-43a0-be0b-5d7aa292fcd6"},"vehicle_type_id":"4","last_reported":1702159577,"current_range_meters":800,"station_id":"ce4bgv92rcd13ifvqcq0","pricing_plan_id":"free"},{"bike_id":"9ae367b1-a4f3-47aa-ab3b-c8db2ef55fdd","system_id":"levelo_inurba_marseille","lat":43.317075,"lon":5.377367,"is_reserved":false,"is_disabled":false,"rental_uris":{"android":"levelo://app?vid=9ae367b1-a4f3-47aa-ab3b-c8db2ef55fdd","ios":"levelo://app?vid=9ae367b1-a4f3-47aa-ab3b-c8db2ef55fdd"},"vehicle_type_id":"4","last_reported":1702159577,"current_range_meters":8400,"station_id":"ce4bgth2rcd13ifvqch0","pricing_plan_id":"free"},{"bike_id":"23c3a2f2-e11a-4b7e-a585-1e306c5a2572","system_id":"levelo_inurba_marseille","lat":43.303046,"lon":5.368981,"is_reserved":false,"is_disabled":false,"rental_uris":{"android":"levelo://app?vid=23c3a2f2-e11a-4b7e-a585-1e306c5a2572","ios":"levelo://app?vid=23c3a2f2-e11a-4b7e-a585-1e306c5a2572"},"vehicle_type_id":"4","last_reported":1702159577,"current_range_meters":28800,"station_id":"ce4bgqh2rcd13ifvqc5g","pricing_plan_id":"free"},{"bike_id":"cf63ca16-724c-4922-b38a-e44c883d7d49","system_id":"levelo_inurba_marseille","lat":43.31534,"lon":5.38029,"is_reserved":false,"is_disabled":false,"rental_uris":{"android":"levelo://app?vid=cf63ca16-724c-4922-b38a-e44c883d7d49","ios":"levelo://app?vid=cf63ca16-724c-4922-b38a-e44c883d7d49"},"vehicle_type_id":"4","last_reported":1702159577,"current_range_meters":24800,"station_id":"ce4bhsp2rcd13ifvqi50","pricing_plan_id":"free"},{"bike_id":"3d46c0af-4576-4f2f-87b0-0abde914ad06","system_id":"levelo_inurba_marseille","lat":43.308012,"lon":5.381511,"is_reserved":false,"is_disabled":false,"rental_uris":{"android":"levelo://app?vid=3d46c0af-4576-4f2f-87b0-0abde914ad06","ios":"levelo://app?vid=3d46c0af-4576-4f2f-87b0-0abde914ad06"},"vehicle_type_id":"4","last_reported":1702159577,"current_range_meters":0,"station_id":"ce4bgt12rcd13ifvqce0","pricing_plan_id":"free"},{"bike_id":"59b1982d-0c16-4fb6-a0ee-9acc09a937da","system_id":"levelo_inurba_marseille","lat":43.30154,"lon":5.37385,"is_reserved":false,"is_disabled":false,"rental_uris":{"android":"levelo://app?vid=59b1982d-0c16-4fb6-a0ee-9acc09a937da","ios":"levelo://app?vid=59b1982d-0c16-4fb6-a0ee-9acc09a937da"},"vehicle_type_id":"4","last_reported":1702159577,"current_range_meters":0,"station_id":"ce4bgs92rcd13ifvqcc0","pricing_plan_id":"free"},{"bike_id":"d8be298e-f4c0-4479-a66b-e307c680d7cc","system_id":"levelo_inurba_marseille","lat":43.31356,"lon":5.38493,"is_reserved":false,"is_disabled":false,"rental_uris":{"android":"levelo://app?vid=d8be298e-f4c0-4479-a66b-e307c680d7cc","ios":"levelo://app?vid=d8be298e-f4c0-4479-a66b-e307c680d7cc"},"vehicle_type_id":"4","last_reported":1702159577,"current_range_meters":22800,"station_id":"ce4bgt92rcd13ifvqcf0","pricing_plan_id":"free"},{"bike_id":"2b6bc695-d658-40c3-80e8-3cc8047e10b9","system_id":"levelo_inurba_marseille","lat":43.313571,"lon":5.384829,"is_reserved":false,"is_disabled":false,"rental_uris":{"android":"levelo://app?vid=2b6bc695-d658-40c3-80e8-3cc8047e10b9","ios":"levelo://app?vid=2b6bc695-d658-40c3-80e8-3cc8047e10b9"},"vehicle_type_id":"4","last_reported":1702159577,"current_range_meters":4400,"station_id":"ce4bgt92rcd13ifvqcf0","pricing_plan_id":"free"},{"bike_id":"548973cd-31e2-464b-8888-8e528c7d375b","system_id":"levelo_inurba_marseille","lat":43.299222,"lon":5.365554,"is_reserved":false,"is_disabled":false,"rental_uris":{"android":"levelo://app?vid=548973cd-31e2-464b-8888-8e528c7d375b","ios":"levelo://app?vid=548973cd-31e2-464b-8888-8e528c7d375b"},"vehicle_type_id":"4","last_reported":1702159577,"current_range_meters":0,"station_id":"ce4bgm92rcd13ifvqbr0","pricing_plan_id":"free"},{"bike_id":"c0a64277-f5dd-4691-8acb-5c084fb0cfac","system_id":"levelo_inurba_marseille","lat":43.298433,"lon":5.362774,"is_reserved":false,"is_disabled":false,"rental_uris":{"android":"levelo://app?vid=c0a64277-f5dd-4691-8acb-5c084fb0cfac","ios":"levelo://app?vid=c0a64277-f5dd-4691-8acb-5c084fb0cfac"},"vehicle_type_id":"4","last_reported":1702159577,"current_range_meters":14400,"station_id":"ce4bgpp2rcd13ifvqc3g","pricing_plan_id":"free"},{"bike_id":"6bfe2fc5-7a9a-49d3-8431-23c60f93357d","system_id":"levelo_inurba_marseille","lat":43.31166,"lon":5.38719,"is_reserved":false,"is_disabled":false,"rental_uris":{"android":"levelo://app?vid=6bfe2fc5-7a9a-49d3-8431-23c60f93357d","ios":"levelo://app?vid=6bfe2fc5-7a9a-49d3-8431-23c60f93357d"},"vehicle_type_id":"4","last_reported":1702159577,"current_range_meters":19200,"station_id":"ce4bgv12rcd13ifvqcp0","pricing_plan_id":"free"},{"bike_id":"bbd2ff55-b4eb-46c2-b1b1-11df9760b54b","system_id":"levelo_inurba_marseille","lat":43.31169,"lon":5.38725,"is_reserved":false,"is_disabled":false,"rental_uris":{"android":"levelo://app?vid=bbd2ff55-b4eb-46c2-b1b1-11df9760b54b","ios":"levelo://app?vid=bbd2ff55-b4eb-46c2-b1b1-11df9760b54b"},"vehicle_type_id":"4","last_reported":1702159577,"current_range_meters":400,"station_id":"ce4bgv12rcd13ifvqcp0","pricing_plan_id":"free"},{"bike_id":"0370f0dd-02e1-44c3-b626-7cdd11d7ffac","system_id":"levelo_inurba_marseille","lat":43.322872,"lon":5.382756,"is_reserved":false,"is_disabled":false,"rental_uris":{"android":"levelo://app?vid=0370f0dd-02e1-44c3-b626-7cdd11d7ffac","ios":"levelo://app?vid=0370f0dd-02e1-44c3-b626-7cdd11d7ffac"},"vehicle_type_id":"4","last_reported":1702159577,"current_range_meters":31200,"station_id":"ce4bhr12rcd13ifvqhqg","pricing_plan_id":"free"},{"bike_id":"c60cbb7e-9382-450f-b819-5c2450f4f643","system_id":"levelo_inurba_marseille","lat":43.322872,"lon":5.382756,"is_reserved":false,"is_disabled":false,"rental_uris":{"android":"levelo://app?vid=c60cbb7e-9382-450f-b819-5c2450f4f643","ios":"levelo://app?vid=c60cbb7e-9382-450f-b819-5c2450f4f643"},"vehicle_type_id":"4","last_reported":1702159577,"current_range_meters":4000,"station_id":"ce4bhr12rcd13ifvqhqg","pricing_plan_id":"free"},{"bike_id":"6ac675f1-e0be-498c-ad2f-b742a949d4b0","system_id":"levelo_inurba_marseille","lat":43.298218,"lon":5.374416,"is_reserved":false,"is_disabled":false,"rental_uris":{"android":"levelo://app?vid=6ac675f1-e0be-498c-ad2f-b742a949d4b0","ios":"levelo://app?vid=6ac675f1-e0be-498c-ad2f-b742a949d4b0"},"vehicle_type_id":"4","last_reported":1702159577,"current_range_meters":800,"station_id":"","pricing_plan_id":"free"},{"bike_id":"e38668b9-7cfe-4c50-9a40-f1088b293b9b","system_id":"levelo_inurba_marseille","lat":43.29686,"lon":5.372795,"is_reserved":false,"is_disabled":false,"rental_uris":{"android":"levelo://app?vid=e38668b9-7cfe-4c50-9a40-f1088b293b9b","ios":"levelo://app?vid=e38668b9-7cfe-4c50-9a40-f1088b293b9b"},"vehicle_type_id":"4","last_reported":1702159577,"current_range_meters":12800,"station_id":"ce4bgk12rcd13ifvqbj0","pricing_plan_id":"free"},{"bike_id":"92dc65d6-6823-4de3-93d4-056f738f090c","system_id":"levelo_inurba_marseille","lat":43.316538,"lon":5.38954,"is_reserved":false,"is_disabled":false,"rental_uris":{"android":"levelo://app?vid=92dc65d6-6823-4de3-93d4-056f738f090c","ios":"levelo://app?vid=92dc65d6-6823-4de3-93d4-056f738f090c"},"vehicle_type_id":"4","last_reported":1702159577,"current_range_meters":0,"station_id":"","pricing_plan_id":"free"},{"bike_id":"1391f894-b835-4388-a938-963d2b7904b8","system_id":"levelo_inurba_marseille","lat":43.317557,"lon":5.390173,"is_reserved":false,"is_disabled":false,"rental_uris":{"android":"levelo://app?vid=1391f894-b835-4388-a938-963d2b7904b8","ios":"levelo://app?vid=1391f894-b835-4388-a938-963d2b7904b8"},"vehicle_type_id":"4","last_reported":1702159577,"current_range_meters":28000,"station_id":"ce4bhqp2rcd13ifvqhng","pricing_plan_id":"free"},{"bike_id":"d69f04d9-84df-4f26-bc64-9f532752e790","system_id":"levelo_inurba_marseille","lat":43.31758,"lon":5.39022,"is_reserved":false,"is_disabled":false,"rental_uris":{"android":"levelo://app?vid=d69f04d9-84df-4f26-bc64-9f532752e790","ios":"levelo://app?vid=d69f04d9-84df-4f26-bc64-9f532752e790"},"vehicle_type_id":"4","last_reported":1702159577,"current_range_meters":3200,"station_id":"ce4bhqp2rcd13ifvqhng","pricing_plan_id":"free"},{"bike_id":"87a49ed0-af16-4eb2-b219-c5f7a59a2e55","system_id":"levelo_inurba_marseille","lat":43.295748,"lon":5.37522,"is_reserved":false,"is_disabled":false,"rental_uris":{"android":"levelo://app?vid=87a49ed0-af16-4eb2-b219-c5f7a59a2e55","ios":"levelo://app?vid=87a49ed0-af16-4eb2-b219-c5f7a59a2e55"},"vehicle_type_id":"4","last_reported":1702159577,"current_range_meters":16000,"station_id":"ce4bgh92rcd13ifvqb50","pricing_plan_id":"free"},{"bike_id":"efaa0b98-0b02-4477-945d-38972c4f248f","system_id":"levelo_inurba_marseille","lat":43.304274,"lon":5.388873,"is_reserved":false,"is_disabled":false,"rental_uris":{"android":"levelo://app?vid=efaa0b98-0b02-4477-945d-38972c4f248f","ios":"levelo://app?vid=efaa0b98-0b02-4477-945d-38972c4f248f"},"vehicle_type_id":"4","last_reported":1702159577,"current_range_meters":17200,"station_id":"ce4bgk12rcd13ifvqbi0","pricing_plan_id":"free"},{"bike_id":"b0b640f4-55e0-42e4-a70b-be9f4b17506b","system_id":"levelo_inurba_marseille","lat":43.295748,"lon":5.37522,"is_reserved":false,"is_disabled":false,"rental_uris":{"android":"levelo://app?vid=b0b640f4-55e0-42e4-a70b-be9f4b17506b","ios":"levelo://app?vid=b0b640f4-55e0-42e4-a70b-be9f4b17506b"},"vehicle_type_id":"4","last_reported":1702159577,"current_range_meters":800,"station_id":"ce4bgh92rcd13ifvqb50","pricing_plan_id":"free"},{"bike_id":"ea2d4f7c-c131-4f14-a7bc-f5c2879d4424","system_id":"levelo_inurba_marseille","lat":43.29252,"lon":5.36624,"is_reserved":false,"is_disabled":false,"rental_uris":{"android":"levelo://app?vid=ea2d4f7c-c131-4f14-a7bc-f5c2879d4424","ios":"levelo://app?vid=ea2d4f7c-c131-4f14-a7bc-f5c2879d4424"},"vehicle_type_id":"4","last_reported":1702159577,"current_range_meters":0,"station_id":"","pricing_plan_id":"free"},{"bike_id":"ffe8e861-9583-46be-9da3-462d5c1037ee","system_id":"levelo_inurba_marseille","lat":43.29267,"lon":5.37628,"is_reserved":false,"is_disabled":false,"rental_uris":{"android":"levelo://app?vid=ffe8e861-9583-46be-9da3-462d5c1037ee","ios":"levelo://app?vid=ffe8e861-9583-46be-9da3-462d5c1037ee"},"vehicle_type_id":"4","last_reported":1702159577,"current_range_meters":9600,"station_id":"ce4bgi12rcd13ifvqb80","pricing_plan_id":"free"},{"bike_id":"761046af-7192-4f63-84e8-f6c7a00563ab","system_id":"levelo_inurba_marseille","lat":43.29252,"lon":5.37612,"is_reserved":false,"is_disabled":false,"rental_uris":{"android":"levelo://app?vid=761046af-7192-4f63-84e8-f6c7a00563ab","ios":"levelo://app?vid=761046af-7192-4f63-84e8-f6c7a00563ab"},"vehicle_type_id":"4","last_reported":1702159577,"current_range_meters":0,"station_id":"ce4bgi12rcd13ifvqb80","pricing_plan_id":"free"},{"bike_id":"5c79bc93-8f13-4c40-8a8c-8f35d3902245","system_id":"levelo_inurba_marseille","lat":43.332323,"lon":5.379636,"is_reserved":false,"is_disabled":false,"rental_uris":{"android":"levelo://app?vid=5c79bc93-8f13-4c40-8a8c-8f35d3902245","ios":"levelo://app?vid=5c79bc93-8f13-4c40-8a8c-8f35d3902245"},"vehicle_type_id":"4","last_reported":1702159577,"current_range_meters":12000,"station_id":"","pricing_plan_id":"free"},{"bike_id":"5ed66215-e812-4934-8bd8-05fa06e2778c","system_id":"levelo_inurba_marseille","lat":43.332406,"lon":5.379641,"is_reserved":false,"is_disabled":false,"rental_uris":{"android":"levelo://app?vid=5ed66215-e812-4934-8bd8-05fa06e2778c","ios":"levelo://app?vid=5ed66215-e812-4934-8bd8-05fa06e2778c"},"vehicle_type_id":"4","last_reported":1702159577,"current_range_meters":27200,"station_id":"","pricing_plan_id":"free"},{"bike_id":"e5e1556d-54f6-4de3-a906-092c27b81b2d","system_id":"levelo_inurba_marseille","lat":43.309038,"lon":5.396546,"is_reserved":false,"is_disabled":false,"rental_uris":{"android":"levelo://app?vid=e5e1556d-54f6-4de3-a906-092c27b81b2d","ios":"levelo://app?vid=e5e1556d-54f6-4de3-a906-092c27b81b2d"},"vehicle_type_id":"4","last_reported":1702159577,"current_range_meters":20000,"station_id":"ce4bh012rcd13ifvqcv0","pricing_plan_id":"free"},{"bike_id":"946c553e-df8f-4ce9-b6ae-027997ed4451","system_id":"levelo_inurba_marseille","lat":43.29187,"lon":5.35797,"is_reserved":false,"is_disabled":false,"rental_uris":{"android":"levelo://app?vid=946c553e-df8f-4ce9-b6ae-027997ed4451","ios":"levelo://app?vid=946c553e-df8f-4ce9-b6ae-027997ed4451"},"vehicle_type_id":"4","last_reported":1702159577,"current_range_meters":15200,"station_id":"ce4bhb12rcd13ifvqel0","pricing_plan_id":"free"},{"bike_id":"2de0a06f-e84b-4499-acfe-1b4dcfa05272","system_id":"levelo_inurba_marseille","lat":43.309038,"lon":5.396546,"is_reserved":false,"is_disabled":false,"rental_uris":{"android":"levelo://app?vid=2de0a06f-e84b-4499-acfe-1b4dcfa05272","ios":"levelo://app?vid=2de0a06f-e84b-4499-acfe-1b4dcfa05272"},"vehicle_type_id":"4","last_reported":1702159577,"current_range_meters":13200,"station_id":"ce4bh012rcd13ifvqcv0","pricing_plan_id":"free"},{"bike_id":"e92a16c9-59f8-4d4a-9eaf-ae932bdfdcc6","system_id":"levelo_inurba_marseille","lat":43.290631,"lon":5.359244,"is_reserved":false,"is_disabled":false,"rental_uris":{"android":"levelo://app?vid=e92a16c9-59f8-4d4a-9eaf-ae932bdfdcc6","ios":"levelo://app?vid=e92a16c9-59f8-4d4a-9eaf-ae932bdfdcc6"},"vehicle_type_id":"4","last_reported":1702159577,"current_range_meters":17600,"station_id":"ce4bha92rcd13ifvqeg0","pricing_plan_id":"free"},{"bike_id":"ea39043c-001b-44d9-9aaa-7d2cf0e3185d","system_id":"levelo_inurba_marseille","lat":43.2894,"lon":5.366354,"is_reserved":false,"is_disabled":false,"rental_uris":{"android":"levelo://app?vid=ea39043c-001b-44d9-9aaa-7d2cf0e3185d","ios":"levelo://app?vid=ea39043c-001b-44d9-9aaa-7d2cf0e3185d"},"vehicle_type_id":"4","last_reported":1702159577,"current_range_meters":0,"station_id":"ce4bhap2rcd13ifvqek0","pricing_plan_id":"free"},{"bike_id":"5689e7ab-6660-495e-991b-502bc59d4e5b","system_id":"levelo_inurba_marseille","lat":43.289403,"lon":5.364137,"is_reserved":false,"is_disabled":false,"rental_uris":{"android":"levelo://app?vid=5689e7ab-6660-495e-991b-502bc59d4e5b","ios":"levelo://app?vid=5689e7ab-6660-495e-991b-502bc59d4e5b"},"vehicle_type_id":"4","last_reported":1702159577,"current_range_meters":16800,"station_id":"ce4bhc92rcd13ifvqetg","pricing_plan_id":"free"},{"bike_id":"a02a1b20-1fb1-4951-988a-77389649024d","system_id":"levelo_inurba_marseille","lat":43.289259,"lon":5.366364,"is_reserved":false,"is_disabled":false,"rental_uris":{"android":"levelo://app?vid=a02a1b20-1fb1-4951-988a-77389649024d","ios":"levelo://app?vid=a02a1b20-1fb1-4951-988a-77389649024d"},"vehicle_type_id":"4","last_reported":1702159577,"current_range_meters":10800,"station_id":"","pricing_plan_id":"free"},{"bike_id":"1a543cbb-0729-4aaf-88dd-6ca72c180f0c","system_id":"levelo_inurba_marseille","lat":43.29267,"lon":5.38445,"is_reserved":false,"is_disabled":false,"rental_uris":{"android":"levelo://app?vid=1a543cbb-0729-4aaf-88dd-6ca72c180f0c","ios":"levelo://app?vid=1a543cbb-0729-4aaf-88dd-6ca72c180f0c"},"vehicle_type_id":"4","last_reported":1702159577,"current_range_meters":12800,"station_id":"ce4bh692rcd13ifvqea0","pricing_plan_id":"free"},{"bike_id":"aed6d5cf-b6ba-47ea-95f9-6b681360c983","system_id":"levelo_inurba_marseille","lat":43.29264,"lon":5.38448,"is_reserved":false,"is_disabled":false,"rental_uris":{"android":"levelo://app?vid=aed6d5cf-b6ba-47ea-95f9-6b681360c983","ios":"levelo://app?vid=aed6d5cf-b6ba-47ea-95f9-6b681360c983"},"vehicle_type_id":"4","last_reported":1702159577,"current_range_meters":400,"station_id":"ce4bh692rcd13ifvqea0","pricing_plan_id":"free"},{"bike_id":"a2023294-e894-43af-bbde-b0d9919cfbc0","system_id":"levelo_inurba_marseille","lat":43.290104,"lon":5.356111,"is_reserved":false,"is_disabled":false,"rental_uris":{"android":"levelo://app?vid=a2023294-e894-43af-bbde-b0d9919cfbc0","ios":"levelo://app?vid=a2023294-e894-43af-bbde-b0d9919cfbc0"},"vehicle_type_id":"4","last_reported":1702159577,"current_range_meters":24800,"station_id":"ce4bhb92rcd13ifvqen0","pricing_plan_id":"free"},{"bike_id":"3e208945-d1f9-45f0-ba44-db3168ede099","system_id":"levelo_inurba_marseille","lat":43.290094,"lon":5.381264,"is_reserved":false,"is_disabled":false,"rental_uris":{"android":"levelo://app?vid=3e208945-d1f9-45f0-ba44-db3168ede099","ios":"levelo://app?vid=3e208945-d1f9-45f0-ba44-db3168ede099"},"vehicle_type_id":"4","last_reported":1702159577,"current_range_meters":29600,"station_id":"ce4bh4p2rcd13ifvqe1g","pricing_plan_id":"free"},{"bike_id":"cb9d85c4-5d9c-4c40-b428-989f8a97eaad","system_id":"levelo_inurba_marseille","lat":43.28856,"lon":5.35844,"is_reserved":false,"is_disabled":false,"rental_uris":{"android":"levelo://app?vid=cb9d85c4-5d9c-4c40-b428-989f8a97eaad","ios":"levelo://app?vid=cb9d85c4-5d9c-4c40-b428-989f8a97eaad"},"vehicle_type_id":"4","last_reported":1702159577,"current_range_meters":0,"station_id":"ce4bhb12rcd13ifvqem0","pricing_plan_id":"free"},{"bike_id":"31cfcc3f-f89f-4358-8145-e3068d1723c9","system_id":"levelo_inurba_marseille","lat":43.312632,"lon":5.401382,"is_reserved":false,"is_disabled":false,"rental_uris":{"android":"levelo://app?vid=31cfcc3f-f89f-4358-8145-e3068d1723c9","ios":"levelo://app?vid=31cfcc3f-f89f-4358-8145-e3068d1723c9"},"vehicle_type_id":"4","last_reported":1702159577,"current_range_meters":0,"station_id":"ce4bh092rcd13ifvqd30","pricing_plan_id":"free"},{"bike_id":"d704fbb5-a62e-41e0-b672-417a9fb48975","system_id":"levelo_inurba_marseille","lat":43.306445,"lon":5.400565,"is_reserved":false,"is_disabled":false,"rental_uris":{"android":"levelo://app?vid=d704fbb5-a62e-41e0-b672-417a9fb48975","ios":"levelo://app?vid=d704fbb5-a62e-41e0-b672-417a9fb48975"},"vehicle_type_id":"4","last_reported":1702159577,"current_range_meters":0,"station_id":"ce4bh112rcd13ifvqda0","pricing_plan_id":"free"},{"bike_id":"f26b3d13-914c-4949-b1ff-dda4d310e436","system_id":"levelo_inurba_marseille","lat":43.3127,"lon":5.40174,"is_reserved":false,"is_disabled":false,"rental_uris":{"android":"levelo://app?vid=f26b3d13-914c-4949-b1ff-dda4d310e436","ios":"levelo://app?vid=f26b3d13-914c-4949-b1ff-dda4d310e436"},"vehicle_type_id":"4","last_reported":1702159577,"current_range_meters":1600,"station_id":"ce4bh092rcd13ifvqd30","pricing_plan_id":"free"},{"bike_id":"710b1091-385d-4534-b301-8e17eba81a71","system_id":"levelo_inurba_marseille","lat":43.31278,"lon":5.40176,"is_reserved":false,"is_disabled":false,"rental_uris":{"android":"levelo://app?vid=710b1091-385d-4534-b301-8e17eba81a71","ios":"levelo://app?vid=710b1091-385d-4534-b301-8e17eba81a71"},"vehicle_type_id":"4","last_reported":1702159577,"current_range_meters":15600,"station_id":"ce4bh092rcd13ifvqd30","pricing_plan_id":"free"},{"bike_id":"c147ebb3-141d-4c1a-9cd7-cd494fa1ade2","system_id":"levelo_inurba_marseille","lat":43.312787,"lon":5.401763,"is_reserved":false,"is_disabled":false,"rental_uris":{"android":"levelo://app?vid=c147ebb3-141d-4c1a-9cd7-cd494fa1ade2","ios":"levelo://app?vid=c147ebb3-141d-4c1a-9cd7-cd494fa1ade2"},"vehicle_type_id":"4","last_reported":1702159577,"current_range_meters":1600,"station_id":"ce4bh092rcd13ifvqd30","pricing_plan_id":"free"},{"bike_id":"f38b7ccb-ed3b-45c3-b585-36d2cc71bb57","system_id":"levelo_inurba_marseille","lat":43.30936,"lon":5.40151,"is_reserved":false,"is_disabled":false,"rental_uris":{"android":"levelo://app?vid=f38b7ccb-ed3b-45c3-b585-36d2cc71bb57","ios":"levelo://app?vid=f38b7ccb-ed3b-45c3-b585-36d2cc71bb57"},"vehicle_type_id":"4","last_reported":1702159577,"current_range_meters":5200,"station_id":"ce4bgvp2rcd13ifvqct0","pricing_plan_id":"free"},{"bike_id":"02a511c2-b58c-4af5-983b-0edaf91e9428","system_id":"levelo_inurba_marseille","lat":43.306412,"lon":5.401035,"is_reserved":false,"is_disabled":false,"rental_uris":{"android":"levelo://app?vid=02a511c2-b58c-4af5-983b-0edaf91e9428","ios":"levelo://app?vid=02a511c2-b58c-4af5-983b-0edaf91e9428"},"vehicle_type_id":"4","last_reported":1702159577,"current_range_meters":26400,"station_id":"ce4bh112rcd13ifvqda0","pricing_plan_id":"free"},{"bike_id":"80f87063-ed9b-401b-82cc-d701bce2cf90","system_id":"levelo_inurba_marseille","lat":43.301231,"lon":5.398532,"is_reserved":false,"is_disabled":false,"rental_uris":{"android":"levelo://app?vid=80f87063-ed9b-401b-82cc-d701bce2cf90","ios":"levelo://app?vid=80f87063-ed9b-401b-82cc-d701bce2cf90"},"vehicle_type_id":"4","last_reported":1702159577,"current_range_meters":13200,"station_id":"","pricing_plan_id":"free"},{"bike_id":"05c7bcdb-4d6b-4e07-ac1a-125b441f90ed","system_id":"levelo_inurba_marseille","lat":43.286591,"lon":5.363346,"is_reserved":false,"is_disabled":false,"rental_uris":{"android":"levelo://app?vid=05c7bcdb-4d6b-4e07-ac1a-125b441f90ed","ios":"levelo://app?vid=05c7bcdb-4d6b-4e07-ac1a-125b441f90ed"},"vehicle_type_id":"4","last_reported":1702159577,"current_range_meters":4800,"station_id":"ce4bhah2rcd13ifvqej0","pricing_plan_id":"free"},{"bike_id":"b69104dd-303d-443a-8cac-854cb711d705","system_id":"levelo_inurba_marseille","lat":43.286961,"lon":5.373785,"is_reserved":false,"is_disabled":false,"rental_uris":{"android":"levelo://app?vid=b69104dd-303d-443a-8cac-854cb711d705","ios":"levelo://app?vid=b69104dd-303d-443a-8cac-854cb711d705"},"vehicle_type_id":"4","last_reported":1702159577,"current_range_meters":6400,"station_id":"ce4bh3p2rcd13ifvqdq0","pricing_plan_id":"free"},{"bike_id":"282103d9-a1e3-49a8-8b41-cd22f116eea0","system_id":"levelo_inurba_marseille","lat":43.286961,"lon":5.373785,"is_reserved":false,"is_disabled":false,"rental_uris":{"android":"levelo://app?vid=282103d9-a1e3-49a8-8b41-cd22f116eea0","ios":"levelo://app?vid=282103d9-a1e3-49a8-8b41-cd22f116eea0"},"vehicle_type_id":"4","last_reported":1702159577,"current_range_meters":21200,"station_id":"ce4bh3p2rcd13ifvqdq0","pricing_plan_id":"free"},{"bike_id":"6cc8acc9-ea00-49db-8491-b66c14b208e6","system_id":"levelo_inurba_marseille","lat":43.286961,"lon":5.373785,"is_reserved":false,"is_disabled":false,"rental_uris":{"android":"levelo://app?vid=6cc8acc9-ea00-49db-8491-b66c14b208e6","ios":"levelo://app?vid=6cc8acc9-ea00-49db-8491-b66c14b208e6"},"vehicle_type_id":"4","last_reported":1702159577,"current_range_meters":12800,"station_id":"ce4bh3p2rcd13ifvqdq0","pricing_plan_id":"free"},{"bike_id":"8d88d68d-17bd-4deb-b7b5-11b8e560de34","system_id":"levelo_inurba_marseille","lat":43.289307,"lon":5.38406,"is_reserved":false,"is_disabled":false,"rental_uris":{"android":"levelo://app?vid=8d88d68d-17bd-4deb-b7b5-11b8e560de34","ios":"levelo://app?vid=8d88d68d-17bd-4deb-b7b5-11b8e560de34"},"vehicle_type_id":"4","last_reported":1702159577,"current_range_meters":25200,"station_id":"ce4bh612rcd13ifvqe6g","pricing_plan_id":"free"},{"bike_id":"fcf2dbcd-68ce-4c82-9686-675a1b1f2d97","system_id":"levelo_inurba_marseille","lat":43.290345,"lon":5.38646,"is_reserved":false,"is_disabled":false,"rental_uris":{"android":"levelo://app?vid=fcf2dbcd-68ce-4c82-9686-675a1b1f2d97","ios":"levelo://app?vid=fcf2dbcd-68ce-4c82-9686-675a1b1f2d97"},"vehicle_type_id":"4","last_reported":1702159577,"current_range_meters":19200,"station_id":"ce4bh4p2rcd13ifvqe0g","pricing_plan_id":"free"},{"bike_id":"1be3eb0f-fa7c-4474-851e-fcff7b0570ca","system_id":"levelo_inurba_marseille","lat":43.290345,"lon":5.38646,"is_reserved":false,"is_disabled":false,"rental_uris":{"android":"levelo://app?vid=1be3eb0f-fa7c-4474-851e-fcff7b0570ca","ios":"levelo://app?vid=1be3eb0f-fa7c-4474-851e-fcff7b0570ca"},"vehicle_type_id":"4","last_reported":1702159577,"current_range_meters":4800,"station_id":"ce4bh4p2rcd13ifvqe0g","pricing_plan_id":"free"},{"bike_id":"27b5a528-25b5-4cd8-b3e3-dfa318b66687","system_id":"levelo_inurba_marseille","lat":43.290345,"lon":5.38646,"is_reserved":false,"is_disabled":false,"rental_uris":{"android":"levelo://app?vid=27b5a528-25b5-4cd8-b3e3-dfa318b66687","ios":"levelo://app?vid=27b5a528-25b5-4cd8-b3e3-dfa318b66687"},"vehicle_type_id":"4","last_reported":1702159577,"current_range_meters":5200,"station_id":"ce4bh4p2rcd13ifvqe0g","pricing_plan_id":"free"},{"bike_id":"740fd591-aa7b-4a15-b923-a58f94337df7","system_id":"levelo_inurba_marseille","lat":43.302759,"lon":5.400793,"is_reserved":false,"is_disabled":false,"rental_uris":{"android":"levelo://app?vid=740fd591-aa7b-4a15-b923-a58f94337df7","ios":"levelo://app?vid=740fd591-aa7b-4a15-b923-a58f94337df7"},"vehicle_type_id":"4","last_reported":1702159577,"current_range_meters":15600,"station_id":"ce4bgvh2rcd13ifvqcs0","pricing_plan_id":"free"},{"bike_id":"d07e798b-cdae-485c-aa14-d6167615f567","system_id":"levelo_inurba_marseille","lat":43.290345,"lon":5.38646,"is_reserved":false,"is_disabled":false,"rental_uris":{"android":"levelo://app?vid=d07e798b-cdae-485c-aa14-d6167615f567","ios":"levelo://app?vid=d07e798b-cdae-485c-aa14-d6167615f567"},"vehicle_type_id":"4","last_reported":1702159577,"current_range_meters":22800,"station_id":"ce4bh4p2rcd13ifvqe0g","pricing_plan_id":"free"},{"bike_id":"143ad2b8-9187-4b3c-8746-156535d8496a","system_id":"levelo_inurba_marseille","lat":43.286039,"lon":5.370679,"is_reserved":false,"is_disabled":false,"rental_uris":{"android":"levelo://app?vid=143ad2b8-9187-4b3c-8746-156535d8496a","ios":"levelo://app?vid=143ad2b8-9187-4b3c-8746-156535d8496a"},"vehicle_type_id":"4","last_reported":1702159577,"current_range_meters":8400,"station_id":"ce4bht12rcd13ifvqi60","pricing_plan_id":"free"},{"bike_id":"d3b94379-b2aa-4cd5-aebc-857639d65bbc","system_id":"levelo_inurba_marseille","lat":43.28601,"lon":5.3703,"is_reserved":false,"is_disabled":false,"rental_uris":{"android":"levelo://app?vid=d3b94379-b2aa-4cd5-aebc-857639d65bbc","ios":"levelo://app?vid=d3b94379-b2aa-4cd5-aebc-857639d65bbc"},"vehicle_type_id":"4","last_reported":1702159577,"current_range_meters":14800,"station_id":"","pricing_plan_id":"free"},{"bike_id":"13a8d491-0d2d-4b79-aba0-944d2a4f313d","system_id":"levelo_inurba_marseille","lat":43.316828,"lon":5.404723,"is_reserved":false,"is_disabled":false,"rental_uris":{"android":"levelo://app?vid=13a8d491-0d2d-4b79-aba0-944d2a4f313d","ios":"levelo://app?vid=13a8d491-0d2d-4b79-aba0-944d2a4f313d"},"vehicle_type_id":"4","last_reported":1702159577,"current_range_meters":0,"station_id":"ce4bh012rcd13ifvqd00","pricing_plan_id":"free"},{"bike_id":"fce00258-e2d6-404d-812b-c908d68c0541","system_id":"levelo_inurba_marseille","lat":43.291994,"lon":5.392907,"is_reserved":false,"is_disabled":false,"rental_uris":{"android":"levelo://app?vid=fce00258-e2d6-404d-812b-c908d68c0541","ios":"levelo://app?vid=fce00258-e2d6-404d-812b-c908d68c0541"},"vehicle_type_id":"4","last_reported":1702159577,"current_range_meters":27600,"station_id":"ce4bh192rcd13ifvqdd0","pricing_plan_id":"free"},{"bike_id":"b41b72a3-ebf2-433e-bfc1-76363a02e361","system_id":"levelo_inurba_marseille","lat":43.291994,"lon":5.392907,"is_reserved":false,"is_disabled":false,"rental_uris":{"android":"levelo://app?vid=b41b72a3-ebf2-433e-bfc1-76363a02e361","ios":"levelo://app?vid=b41b72a3-ebf2-433e-bfc1-76363a02e361"},"vehicle_type_id":"4","last_reported":1702159577,"current_range_meters":29200,"station_id":"ce4bh192rcd13ifvqdd0","pricing_plan_id":"free"},{"bike_id":"8c426643-5820-4b72-ad7e-17694fdd482f","system_id":"levelo_inurba_marseille","lat":43.284538,"lon":5.358657,"is_reserved":false,"is_disabled":false,"rental_uris":{"android":"levelo://app?vid=8c426643-5820-4b72-ad7e-17694fdd482f","ios":"levelo://app?vid=8c426643-5820-4b72-ad7e-17694fdd482f"},"vehicle_type_id":"4","last_reported":1702159577,"current_range_meters":11600,"station_id":"ce4bhah2rcd13ifvqei0","pricing_plan_id":"free"},{"bike_id":"098b3d21-e701-44bb-8019-39ba053a276e","system_id":"levelo_inurba_marseille","lat":43.283998,"lon":5.375062,"is_reserved":false,"is_disabled":false,"rental_uris":{"android":"levelo://app?vid=098b3d21-e701-44bb-8019-39ba053a276e","ios":"levelo://app?vid=098b3d21-e701-44bb-8019-39ba053a276e"},"vehicle_type_id":"4","last_reported":1702159577,"current_range_meters":19600,"station_id":"ce4bh412rcd13ifvqds0","pricing_plan_id":"free"},{"bike_id":"e2e924d7-26df-4736-8ede-4441bcaacb10","system_id":"levelo_inurba_marseille","lat":43.28652,"lon":5.3862,"is_reserved":false,"is_disabled":false,"rental_uris":{"android":"levelo://app?vid=e2e924d7-26df-4736-8ede-4441bcaacb10","ios":"levelo://app?vid=e2e924d7-26df-4736-8ede-4441bcaacb10"},"vehicle_type_id":"4","last_reported":1702159577,"current_range_meters":17200,"station_id":"ce4bh492rcd13ifvqdug","pricing_plan_id":"free"},{"bike_id":"a0fe42ef-f5cf-4f28-aa3a-b8bad3c0fffb","system_id":"levelo_inurba_marseille","lat":43.319179,"lon":5.407725,"is_reserved":false,"is_disabled":false,"rental_uris":{"android":"levelo://app?vid=a0fe42ef-f5cf-4f28-aa3a-b8bad3c0fffb","ios":"levelo://app?vid=a0fe42ef-f5cf-4f28-aa3a-b8bad3c0fffb"},"vehicle_type_id":"4","last_reported":1702159577,"current_range_meters":28400,"station_id":"ce4bhq12rcd13ifvqhig","pricing_plan_id":"free"},{"bike_id":"2e3f5d1b-7227-4fd1-a3be-fcff682e2738","system_id":"levelo_inurba_marseille","lat":43.323464,"lon":5.406297,"is_reserved":false,"is_disabled":false,"rental_uris":{"android":"levelo://app?vid=2e3f5d1b-7227-4fd1-a3be-fcff682e2738","ios":"levelo://app?vid=2e3f5d1b-7227-4fd1-a3be-fcff682e2738"},"vehicle_type_id":"4","last_reported":1702159577,"current_range_meters":21600,"station_id":"ce4bhq92rcd13ifvqhjg","pricing_plan_id":"free"},{"bike_id":"a6933e1c-ff44-4387-b09b-3e19c18e88b4","system_id":"levelo_inurba_marseille","lat":43.323464,"lon":5.406297,"is_reserved":false,"is_disabled":false,"rental_uris":{"android":"levelo://app?vid=a6933e1c-ff44-4387-b09b-3e19c18e88b4","ios":"levelo://app?vid=a6933e1c-ff44-4387-b09b-3e19c18e88b4"},"vehicle_type_id":"4","last_reported":1702159577,"current_range_meters":21200,"station_id":"ce4bhq92rcd13ifvqhjg","pricing_plan_id":"free"},{"bike_id":"06b3aba6-9d1c-4e37-9a84-95de7cc08875","system_id":"levelo_inurba_marseille","lat":43.323464,"lon":5.406297,"is_reserved":false,"is_disabled":false,"rental_uris":{"android":"levelo://app?vid=06b3aba6-9d1c-4e37-9a84-95de7cc08875","ios":"levelo://app?vid=06b3aba6-9d1c-4e37-9a84-95de7cc08875"},"vehicle_type_id":"4","last_reported":1702159577,"current_range_meters":27600,"station_id":"ce4bhq92rcd13ifvqhjg","pricing_plan_id":"free"},{"bike_id":"33d78b75-41af-4f7b-ad4a-0b93d22b7176","system_id":"levelo_inurba_marseille","lat":43.323464,"lon":5.406297,"is_reserved":false,"is_disabled":false,"rental_uris":{"android":"levelo://app?vid=33d78b75-41af-4f7b-ad4a-0b93d22b7176","ios":"levelo://app?vid=33d78b75-41af-4f7b-ad4a-0b93d22b7176"},"vehicle_type_id":"4","last_reported":1702159577,"current_range_meters":14000,"station_id":"ce4bhq92rcd13ifvqhjg","pricing_plan_id":"free"},{"bike_id":"4da7061c-0a7d-407c-8ed7-5b8d45e64490","system_id":"levelo_inurba_marseille","lat":43.323464,"lon":5.406297,"is_reserved":false,"is_disabled":false,"rental_uris":{"android":"levelo://app?vid=4da7061c-0a7d-407c-8ed7-5b8d45e64490","ios":"levelo://app?vid=4da7061c-0a7d-407c-8ed7-5b8d45e64490"},"vehicle_type_id":"4","last_reported":1702159577,"current_range_meters":26400,"station_id":"ce4bhq92rcd13ifvqhjg","pricing_plan_id":"free"},{"bike_id":"2d9e6732-74a6-4dd2-978c-7b4abf9fadf1","system_id":"levelo_inurba_marseille","lat":43.288501,"lon":5.393087,"is_reserved":false,"is_disabled":false,"rental_uris":{"android":"levelo://app?vid=2d9e6732-74a6-4dd2-978c-7b4abf9fadf1","ios":"levelo://app?vid=2d9e6732-74a6-4dd2-978c-7b4abf9fadf1"},"vehicle_type_id":"4","last_reported":1702159577,"current_range_meters":11600,"station_id":"ce4bh2p2rcd13ifvqdi0","pricing_plan_id":"free"},{"bike_id":"dcac01d8-3a1d-4ce2-a207-d6ca92ab582b","system_id":"levelo_inurba_marseille","lat":43.288501,"lon":5.393087,"is_reserved":false,"is_disabled":false,"rental_uris":{"android":"levelo://app?vid=dcac01d8-3a1d-4ce2-a207-d6ca92ab582b","ios":"levelo://app?vid=dcac01d8-3a1d-4ce2-a207-d6ca92ab582b"},"vehicle_type_id":"4","last_reported":1702159577,"current_range_meters":10000,"station_id":"ce4bh2p2rcd13ifvqdi0","pricing_plan_id":"free"},{"bike_id":"9443cf16-efcb-4149-9ac1-32560758b90e","system_id":"levelo_inurba_marseille","lat":43.288501,"lon":5.393087,"is_reserved":false,"is_disabled":false,"rental_uris":{"android":"levelo://app?vid=9443cf16-efcb-4149-9ac1-32560758b90e","ios":"levelo://app?vid=9443cf16-efcb-4149-9ac1-32560758b90e"},"vehicle_type_id":"4","last_reported":1702159577,"current_range_meters":13200,"station_id":"ce4bh2p2rcd13ifvqdi0","pricing_plan_id":"free"},{"bike_id":"9fd8e679-b93e-4949-884e-2f39fba186b9","system_id":"levelo_inurba_marseille","lat":43.290454,"lon":5.399616,"is_reserved":false,"is_disabled":false,"rental_uris":{"android":"levelo://app?vid=9fd8e679-b93e-4949-884e-2f39fba186b9","ios":"levelo://app?vid=9fd8e679-b93e-4949-884e-2f39fba186b9"},"vehicle_type_id":"4","last_reported":1702159577,"current_range_meters":0,"station_id":"ce4bh392rcd13ifvqdm0","pricing_plan_id":"free"},{"bike_id":"a961a454-7660-4a47-93d4-1e2fc20dd0a1","system_id":"levelo_inurba_marseille","lat":43.290412,"lon":5.399633,"is_reserved":false,"is_disabled":false,"rental_uris":{"android":"levelo://app?vid=a961a454-7660-4a47-93d4-1e2fc20dd0a1","ios":"levelo://app?vid=a961a454-7660-4a47-93d4-1e2fc20dd0a1"},"vehicle_type_id":"4","last_reported":1702159577,"current_range_meters":18800,"station_id":"ce4bh392rcd13ifvqdm0","pricing_plan_id":"free"},{"bike_id":"bbbb4a29-4dac-4a28-bc20-f74ceb75c186","system_id":"levelo_inurba_marseille","lat":43.28112,"lon":5.37837,"is_reserved":false,"is_disabled":false,"rental_uris":{"android":"levelo://app?vid=bbbb4a29-4dac-4a28-bc20-f74ceb75c186","ios":"levelo://app?vid=bbbb4a29-4dac-4a28-bc20-f74ceb75c186"},"vehicle_type_id":"4","last_reported":1702159577,"current_range_meters":0,"station_id":"ce4bha12rcd13ifvqee0","pricing_plan_id":"free"},{"bike_id":"58f52f1b-f682-43f9-888f-474549184cf8","system_id":"levelo_inurba_marseille","lat":43.32215,"lon":5.41467,"is_reserved":false,"is_disabled":false,"rental_uris":{"android":"levelo://app?vid=58f52f1b-f682-43f9-888f-474549184cf8","ios":"levelo://app?vid=58f52f1b-f682-43f9-888f-474549184cf8"},"vehicle_type_id":"4","last_reported":1702159577,"current_range_meters":16400,"station_id":"","pricing_plan_id":"free"},{"bike_id":"bfd7b56c-a3a1-480e-81cf-a010edc11b83","system_id":"levelo_inurba_marseille","lat":43.27951,"lon":5.387117,"is_reserved":false,"is_disabled":false,"rental_uris":{"android":"levelo://app?vid=bfd7b56c-a3a1-480e-81cf-a010edc11b83","ios":"levelo://app?vid=bfd7b56c-a3a1-480e-81cf-a010edc11b83"},"vehicle_type_id":"4","last_reported":1702159577,"current_range_meters":0,"station_id":"ce4bhg12rcd13ifvqf80","pricing_plan_id":"free"},{"bike_id":"a148b3ad-4229-40c7-b578-15b32d72e96b","system_id":"levelo_inurba_marseille","lat":43.32543,"lon":5.41422,"is_reserved":false,"is_disabled":false,"rental_uris":{"android":"levelo://app?vid=a148b3ad-4229-40c7-b578-15b32d72e96b","ios":"levelo://app?vid=a148b3ad-4229-40c7-b578-15b32d72e96b"},"vehicle_type_id":"4","last_reported":1702159577,"current_range_meters":30000,"station_id":"ce4bhq12rcd13ifvqhhg","pricing_plan_id":"free"},{"bike_id":"dfa92ed6-65e2-4d7b-afad-926463d2b88b","system_id":"levelo_inurba_marseille","lat":43.303837,"lon":5.418724,"is_reserved":false,"is_disabled":false,"rental_uris":{"android":"levelo://app?vid=dfa92ed6-65e2-4d7b-afad-926463d2b88b","ios":"levelo://app?vid=dfa92ed6-65e2-4d7b-afad-926463d2b88b"},"vehicle_type_id":"4","last_reported":1702159577,"current_range_meters":19600,"station_id":"ce4bhop2rcd13ifvqh7g","pricing_plan_id":"free"},{"bike_id":"571f8fa8-4180-43c0-80d0-67446cefd1a6","system_id":"levelo_inurba_marseille","lat":43.280784,"lon":5.396622,"is_reserved":false,"is_disabled":false,"rental_uris":{"android":"levelo://app?vid=571f8fa8-4180-43c0-80d0-67446cefd1a6","ios":"levelo://app?vid=571f8fa8-4180-43c0-80d0-67446cefd1a6"},"vehicle_type_id":"4","last_reported":1702159577,"current_range_meters":17600,"station_id":"ce4bho12rcd13ifvqh2g","pricing_plan_id":"free"},{"bike_id":"39cacac6-cb1e-41e1-ab40-992baf8bd1f0","system_id":"levelo_inurba_marseille","lat":43.278399,"lon":5.392139,"is_reserved":false,"is_disabled":false,"rental_uris":{"android":"levelo://app?vid=39cacac6-cb1e-41e1-ab40-992baf8bd1f0","ios":"levelo://app?vid=39cacac6-cb1e-41e1-ab40-992baf8bd1f0"},"vehicle_type_id":"4","last_reported":1702159577,"current_range_meters":11600,"station_id":"ce4bhjp2rcd13ifvqga0","pricing_plan_id":"free"},{"bike_id":"4796beb2-3a14-49b4-bf74-72347a2a8caf","system_id":"levelo_inurba_marseille","lat":43.2757,"lon":5.3842,"is_reserved":false,"is_disabled":false,"rental_uris":{"android":"levelo://app?vid=4796beb2-3a14-49b4-bf74-72347a2a8caf","ios":"levelo://app?vid=4796beb2-3a14-49b4-bf74-72347a2a8caf"},"vehicle_type_id":"4","last_reported":1702159577,"current_range_meters":400,"station_id":"ce4bhh92rcd13ifvqfi0","pricing_plan_id":"free"},{"bike_id":"dec087dc-2f88-4bd2-9da7-57b7b745d402","system_id":"levelo_inurba_marseille","lat":43.273613,"lon":5.362705,"is_reserved":false,"is_disabled":false,"rental_uris":{"android":"levelo://app?vid=dec087dc-2f88-4bd2-9da7-57b7b745d402","ios":"levelo://app?vid=dec087dc-2f88-4bd2-9da7-57b7b745d402"},"vehicle_type_id":"4","last_reported":1702159577,"current_range_meters":26000,"station_id":"ce4bhbh2rcd13ifvqeo0","pricing_plan_id":"free"},{"bike_id":"cac88793-85b1-4a86-8e37-7d90f3df7731","system_id":"levelo_inurba_marseille","lat":43.336148,"lon":5.410349,"is_reserved":false,"is_disabled":false,"rental_uris":{"android":"levelo://app?vid=cac88793-85b1-4a86-8e37-7d90f3df7731","ios":"levelo://app?vid=cac88793-85b1-4a86-8e37-7d90f3df7731"},"vehicle_type_id":"4","last_reported":1702159577,"current_range_meters":9600,"station_id":"ce4bhqh2rcd13ifvqhmg","pricing_plan_id":"free"},{"bike_id":"c8edc926-9e8c-400e-a14f-8ed5ab02b110","system_id":"levelo_inurba_marseille","lat":43.336148,"lon":5.410349,"is_reserved":false,"is_disabled":false,"rental_uris":{"android":"levelo://app?vid=c8edc926-9e8c-400e-a14f-8ed5ab02b110","ios":"levelo://app?vid=c8edc926-9e8c-400e-a14f-8ed5ab02b110"},"vehicle_type_id":"4","last_reported":1702159577,"current_range_meters":22800,"station_id":"ce4bhqh2rcd13ifvqhmg","pricing_plan_id":"free"},{"bike_id":"88e59060-d458-48a8-8abe-8a1913097d92","system_id":"levelo_inurba_marseille","lat":43.31716,"lon":5.42402,"is_reserved":false,"is_disabled":false,"rental_uris":{"android":"levelo://app?vid=88e59060-d458-48a8-8abe-8a1913097d92","ios":"levelo://app?vid=88e59060-d458-48a8-8abe-8a1913097d92"},"vehicle_type_id":"4","last_reported":1702159577,"current_range_meters":23200,"station_id":"ce4bhp92rcd13ifvqhbg","pricing_plan_id":"free"},{"bike_id":"02791883-a925-42a0-9dd3-b7193f6a574b","system_id":"levelo_inurba_marseille","lat":43.31716,"lon":5.42403,"is_reserved":false,"is_disabled":false,"rental_uris":{"android":"levelo://app?vid=02791883-a925-42a0-9dd3-b7193f6a574b","ios":"levelo://app?vid=02791883-a925-42a0-9dd3-b7193f6a574b"},"vehicle_type_id":"4","last_reported":1702159577,"current_range_meters":29200,"station_id":"ce4bhp92rcd13ifvqhbg","pricing_plan_id":"free"},{"bike_id":"e7bd1e73-4f86-473d-905c-a7b0f3d6ad8a","system_id":"levelo_inurba_marseille","lat":43.31723,"lon":5.42405,"is_reserved":false,"is_disabled":false,"rental_uris":{"android":"levelo://app?vid=e7bd1e73-4f86-473d-905c-a7b0f3d6ad8a","ios":"levelo://app?vid=e7bd1e73-4f86-473d-905c-a7b0f3d6ad8a"},"vehicle_type_id":"4","last_reported":1702159577,"current_range_meters":15600,"station_id":"ce4bhp92rcd13ifvqhbg","pricing_plan_id":"free"},{"bike_id":"80038031-3601-4c51-b66a-c6c9131d41d1","system_id":"levelo_inurba_marseille","lat":43.310785,"lon":5.424305,"is_reserved":false,"is_disabled":false,"rental_uris":{"android":"levelo://app?vid=80038031-3601-4c51-b66a-c6c9131d41d1","ios":"levelo://app?vid=80038031-3601-4c51-b66a-c6c9131d41d1"},"vehicle_type_id":"4","last_reported":1702159577,"current_range_meters":30400,"station_id":"ce4bhp92rcd13ifvqhag","pricing_plan_id":"free"},{"bike_id":"9e5fb6a8-b66c-4169-ac95-02e9f8ecbde9","system_id":"levelo_inurba_marseille","lat":43.340804,"lon":5.410219,"is_reserved":false,"is_disabled":false,"rental_uris":{"android":"levelo://app?vid=9e5fb6a8-b66c-4169-ac95-02e9f8ecbde9","ios":"levelo://app?vid=9e5fb6a8-b66c-4169-ac95-02e9f8ecbde9"},"vehicle_type_id":"4","last_reported":1702159577,"current_range_meters":3600,"station_id":"ce4bhqh2rcd13ifvqhlg","pricing_plan_id":"free"},{"bike_id":"63133364-316e-458e-b234-bbd4926c63fc","system_id":"levelo_inurba_marseille","lat":43.27583,"lon":5.39474,"is_reserved":false,"is_disabled":false,"rental_uris":{"android":"levelo://app?vid=63133364-316e-458e-b234-bbd4926c63fc","ios":"levelo://app?vid=63133364-316e-458e-b234-bbd4926c63fc"},"vehicle_type_id":"4","last_reported":1702159577,"current_range_meters":6000,"station_id":"","pricing_plan_id":"free"},{"bike_id":"93807ea1-c862-4894-a5aa-7cf490505cae","system_id":"levelo_inurba_marseille","lat":43.30418,"lon":5.42541,"is_reserved":false,"is_disabled":false,"rental_uris":{"android":"levelo://app?vid=93807ea1-c862-4894-a5aa-7cf490505cae","ios":"levelo://app?vid=93807ea1-c862-4894-a5aa-7cf490505cae"},"vehicle_type_id":"4","last_reported":1702159577,"current_range_meters":4000,"station_id":"ce4bhoh2rcd13ifvqh6g","pricing_plan_id":"free"},{"bike_id":"ea5b214b-e6ad-4713-a80f-64532b6a087e","system_id":"levelo_inurba_marseille","lat":43.295511,"lon":5.422926,"is_reserved":false,"is_disabled":false,"rental_uris":{"android":"levelo://app?vid=ea5b214b-e6ad-4713-a80f-64532b6a087e","ios":"levelo://app?vid=ea5b214b-e6ad-4713-a80f-64532b6a087e"},"vehicle_type_id":"4","last_reported":1702159577,"current_range_meters":0,"station_id":"ce4bhph2rcd13ifvqhdg","pricing_plan_id":"free"},{"bike_id":"90fa8995-35bc-4c75-adda-a210376a066a","system_id":"levelo_inurba_marseille","lat":43.27202,"lon":5.39188,"is_reserved":false,"is_disabled":false,"rental_uris":{"android":"levelo://app?vid=90fa8995-35bc-4c75-adda-a210376a066a","ios":"levelo://app?vid=90fa8995-35bc-4c75-adda-a210376a066a"},"vehicle_type_id":"4","last_reported":1702159577,"current_range_meters":22800,"station_id":"ce4bhhp2rcd13ifvqfm0","pricing_plan_id":"free"},{"bike_id":"8f021145-48f8-459b-aef0-f8921e18b0a0","system_id":"levelo_inurba_marseille","lat":43.27214,"lon":5.3925,"is_reserved":false,"is_disabled":false,"rental_uris":{"android":"levelo://app?vid=8f021145-48f8-459b-aef0-f8921e18b0a0","ios":"levelo://app?vid=8f021145-48f8-459b-aef0-f8921e18b0a0"},"vehicle_type_id":"4","last_reported":1702159577,"current_range_meters":0,"station_id":"","pricing_plan_id":"free"},{"bike_id":"f0ebddec-d6cc-4cea-9205-f0ce292b2962","system_id":"levelo_inurba_marseille","lat":43.278128,"lon":5.407195,"is_reserved":false,"is_disabled":false,"rental_uris":{"android":"levelo://app?vid=f0ebddec-d6cc-4cea-9205-f0ce292b2962","ios":"levelo://app?vid=f0ebddec-d6cc-4cea-9205-f0ce292b2962"},"vehicle_type_id":"4","last_reported":1702159577,"current_range_meters":18800,"station_id":"ce4bhnh2rcd13ifvqgtg","pricing_plan_id":"free"},{"bike_id":"2c0ffe61-5c8b-42fc-9b3d-3c16301ffac5","system_id":"levelo_inurba_marseille","lat":43.278128,"lon":5.407195,"is_reserved":false,"is_disabled":false,"rental_uris":{"android":"levelo://app?vid=2c0ffe61-5c8b-42fc-9b3d-3c16301ffac5","ios":"levelo://app?vid=2c0ffe61-5c8b-42fc-9b3d-3c16301ffac5"},"vehicle_type_id":"4","last_reported":1702159577,"current_range_meters":17600,"station_id":"ce4bhnh2rcd13ifvqgtg","pricing_plan_id":"free"},{"bike_id":"7349fdae-43a7-4d69-b164-2d1940a828f5","system_id":"levelo_inurba_marseille","lat":43.269467,"lon":5.386439,"is_reserved":false,"is_disabled":false,"rental_uris":{"android":"levelo://app?vid=7349fdae-43a7-4d69-b164-2d1940a828f5","ios":"levelo://app?vid=7349fdae-43a7-4d69-b164-2d1940a828f5"},"vehicle_type_id":"4","last_reported":1702159577,"current_range_meters":30000,"station_id":"ce4bhh92rcd13ifvqfh0","pricing_plan_id":"free"},{"bike_id":"d67c54fa-e754-430e-95f9-5b6f7ee47777","system_id":"levelo_inurba_marseille","lat":43.27992,"lon":5.4166,"is_reserved":false,"is_disabled":false,"rental_uris":{"android":"levelo://app?vid=d67c54fa-e754-430e-95f9-5b6f7ee47777","ios":"levelo://app?vid=d67c54fa-e754-430e-95f9-5b6f7ee47777"},"vehicle_type_id":"4","last_reported":1702159577,"current_range_meters":11200,"station_id":"ce4bho12rcd13ifvqh1g","pricing_plan_id":"free"},{"bike_id":"f904b5f2-441d-4982-91e1-872a91ece39a","system_id":"levelo_inurba_marseille","lat":43.27993,"lon":5.41664,"is_reserved":false,"is_disabled":false,"rental_uris":{"android":"levelo://app?vid=f904b5f2-441d-4982-91e1-872a91ece39a","ios":"levelo://app?vid=f904b5f2-441d-4982-91e1-872a91ece39a"},"vehicle_type_id":"4","last_reported":1702159577,"current_range_meters":10400,"station_id":"ce4bho12rcd13ifvqh1g","pricing_plan_id":"free"},{"bike_id":"19cc942f-ece9-40d3-8083-cccfba7fe5b1","system_id":"levelo_inurba_marseille","lat":43.279881,"lon":5.416579,"is_reserved":false,"is_disabled":false,"rental_uris":{"android":"levelo://app?vid=19cc942f-ece9-40d3-8083-cccfba7fe5b1","ios":"levelo://app?vid=19cc942f-ece9-40d3-8083-cccfba7fe5b1"},"vehicle_type_id":"4","last_reported":1702159577,"current_range_meters":1600,"station_id":"ce4bho12rcd13ifvqh1g","pricing_plan_id":"free"},{"bike_id":"fad0eb11-0ca7-40c4-b99e-b63e85682ba5","system_id":"levelo_inurba_marseille","lat":43.267966,"lon":5.393976,"is_reserved":false,"is_disabled":false,"rental_uris":{"android":"levelo://app?vid=fad0eb11-0ca7-40c4-b99e-b63e85682ba5","ios":"levelo://app?vid=fad0eb11-0ca7-40c4-b99e-b63e85682ba5"},"vehicle_type_id":"4","last_reported":1702159577,"current_range_meters":27200,"station_id":"ce4bhh12rcd13ifvqfg0","pricing_plan_id":"free"},{"bike_id":"5645d1f0-f0ed-4459-8379-e30c1acc7822","system_id":"levelo_inurba_marseille","lat":43.267966,"lon":5.393976,"is_reserved":false,"is_disabled":false,"rental_uris":{"android":"levelo://app?vid=5645d1f0-f0ed-4459-8379-e30c1acc7822","ios":"levelo://app?vid=5645d1f0-f0ed-4459-8379-e30c1acc7822"},"vehicle_type_id":"4","last_reported":1702159577,"current_range_meters":24000,"station_id":"ce4bhh12rcd13ifvqfg0","pricing_plan_id":"free"},{"bike_id":"f007dd68-bc71-45a4-b633-17e3bd0cc1ef","system_id":"levelo_inurba_marseille","lat":43.26949,"lon":5.40262,"is_reserved":false,"is_disabled":false,"rental_uris":{"android":"levelo://app?vid=f007dd68-bc71-45a4-b633-17e3bd0cc1ef","ios":"levelo://app?vid=f007dd68-bc71-45a4-b633-17e3bd0cc1ef"},"vehicle_type_id":"4","last_reported":1702159577,"current_range_meters":18800,"station_id":"cjm6bp8fraef2m0cb0m0","pricing_plan_id":"free"},{"bike_id":"efce3206-6d32-4826-b5d6-39f58e58c1ba","system_id":"levelo_inurba_marseille","lat":43.26937,"lon":5.40257,"is_reserved":false,"is_disabled":false,"rental_uris":{"android":"levelo://app?vid=efce3206-6d32-4826-b5d6-39f58e58c1ba","ios":"levelo://app?vid=efce3206-6d32-4826-b5d6-39f58e58c1ba"},"vehicle_type_id":"4","last_reported":1702159577,"current_range_meters":15600,"station_id":"cjm6bp8fraef2m0cb0m0","pricing_plan_id":"free"},{"bike_id":"108618ca-9e40-4ef2-93b8-4990f8679836","system_id":"levelo_inurba_marseille","lat":43.26938,"lon":5.40263,"is_reserved":false,"is_disabled":false,"rental_uris":{"android":"levelo://app?vid=108618ca-9e40-4ef2-93b8-4990f8679836","ios":"levelo://app?vid=108618ca-9e40-4ef2-93b8-4990f8679836"},"vehicle_type_id":"4","last_reported":1702159577,"current_range_meters":4400,"station_id":"cjm6bp8fraef2m0cb0m0","pricing_plan_id":"free"},{"bike_id":"6f09e894-2d87-40c9-b546-10b3e9256cf8","system_id":"levelo_inurba_marseille","lat":43.26949,"lon":5.40262,"is_reserved":false,"is_disabled":false,"rental_uris":{"android":"levelo://app?vid=6f09e894-2d87-40c9-b546-10b3e9256cf8","ios":"levelo://app?vid=6f09e894-2d87-40c9-b546-10b3e9256cf8"},"vehicle_type_id":"4","last_reported":1702159577,"current_range_meters":8400,"station_id":"cjm6bp8fraef2m0cb0m0","pricing_plan_id":"free"},{"bike_id":"383685a9-87d7-4f7d-b0ca-b5c8804063d8","system_id":"levelo_inurba_marseille","lat":43.261782,"lon":5.374515,"is_reserved":false,"is_disabled":false,"rental_uris":{"android":"levelo://app?vid=383685a9-87d7-4f7d-b0ca-b5c8804063d8","ios":"levelo://app?vid=383685a9-87d7-4f7d-b0ca-b5c8804063d8"},"vehicle_type_id":"4","last_reported":1702159577,"current_range_meters":19200,"station_id":"ce4bhgp2rcd13ifvqfc0","pricing_plan_id":"free"},{"bike_id":"dbacbb4a-9e99-4a7a-9713-43dac221ae4c","system_id":"levelo_inurba_marseille","lat":43.317104,"lon":5.436818,"is_reserved":false,"is_disabled":false,"rental_uris":{"android":"levelo://app?vid=dbacbb4a-9e99-4a7a-9713-43dac221ae4c","ios":"levelo://app?vid=dbacbb4a-9e99-4a7a-9713-43dac221ae4c"},"vehicle_type_id":"4","last_reported":1702159577,"current_range_meters":28800,"station_id":"ce4bhp92rcd13ifvqhcg","pricing_plan_id":"free"},{"bike_id":"4c31e607-69cd-4d90-9886-5068a0b6c89e","system_id":"levelo_inurba_marseille","lat":43.267959,"lon":5.402685,"is_reserved":false,"is_disabled":false,"rental_uris":{"android":"levelo://app?vid=4c31e607-69cd-4d90-9886-5068a0b6c89e","ios":"levelo://app?vid=4c31e607-69cd-4d90-9886-5068a0b6c89e"},"vehicle_type_id":"4","last_reported":1702159577,"current_range_meters":25600,"station_id":"ce501612rcd8frsf0b60","pricing_plan_id":"free"},{"bike_id":"e2a5fdfb-8206-4159-81d6-1ab96fe4d7e7","system_id":"levelo_inurba_marseille","lat":43.262012,"lon":5.379307,"is_reserved":false,"is_disabled":false,"rental_uris":{"android":"levelo://app?vid=e2a5fdfb-8206-4159-81d6-1ab96fe4d7e7","ios":"levelo://app?vid=e2a5fdfb-8206-4159-81d6-1ab96fe4d7e7"},"vehicle_type_id":"4","last_reported":1702159577,"current_range_meters":26400,"station_id":"ce4bhjp2rcd13ifvqg90","pricing_plan_id":"free"},{"bike_id":"d14fddf3-3638-41ff-a2e7-5c41cc7e7327","system_id":"levelo_inurba_marseille","lat":43.271368,"lon":5.40928,"is_reserved":false,"is_disabled":false,"rental_uris":{"android":"levelo://app?vid=d14fddf3-3638-41ff-a2e7-5c41cc7e7327","ios":"levelo://app?vid=d14fddf3-3638-41ff-a2e7-5c41cc7e7327"},"vehicle_type_id":"4","last_reported":1702159577,"current_range_meters":15200,"station_id":"ce4bhl12rcd13ifvqgf0","pricing_plan_id":"free"},{"bike_id":"5ab8506c-a8f6-4a3e-bfe9-ceb3d3a9bcde","system_id":"levelo_inurba_marseille","lat":43.267959,"lon":5.402687,"is_reserved":false,"is_disabled":false,"rental_uris":{"android":"levelo://app?vid=5ab8506c-a8f6-4a3e-bfe9-ceb3d3a9bcde","ios":"levelo://app?vid=5ab8506c-a8f6-4a3e-bfe9-ceb3d3a9bcde"},"vehicle_type_id":"4","last_reported":1702159577,"current_range_meters":15600,"station_id":"ce501612rcd8frsf0b60","pricing_plan_id":"free"},{"bike_id":"5d1bf847-961d-4e6e-933c-317f152ad4a4","system_id":"levelo_inurba_marseille","lat":43.267959,"lon":5.402685,"is_reserved":false,"is_disabled":false,"rental_uris":{"android":"levelo://app?vid=5d1bf847-961d-4e6e-933c-317f152ad4a4","ios":"levelo://app?vid=5d1bf847-961d-4e6e-933c-317f152ad4a4"},"vehicle_type_id":"4","last_reported":1702159577,"current_range_meters":24400,"station_id":"ce501612rcd8frsf0b60","pricing_plan_id":"free"},{"bike_id":"2e501ecb-19fc-480f-9a67-fa584e9ea359","system_id":"levelo_inurba_marseille","lat":43.267959,"lon":5.402685,"is_reserved":false,"is_disabled":false,"rental_uris":{"android":"levelo://app?vid=2e501ecb-19fc-480f-9a67-fa584e9ea359","ios":"levelo://app?vid=2e501ecb-19fc-480f-9a67-fa584e9ea359"},"vehicle_type_id":"4","last_reported":1702159577,"current_range_meters":24800,"station_id":"ce501612rcd8frsf0b60","pricing_plan_id":"free"},{"bike_id":"80c7a52b-aa97-49e8-9052-f1316167c45b","system_id":"levelo_inurba_marseille","lat":43.267959,"lon":5.402687,"is_reserved":false,"is_disabled":false,"rental_uris":{"android":"levelo://app?vid=80c7a52b-aa97-49e8-9052-f1316167c45b","ios":"levelo://app?vid=80c7a52b-aa97-49e8-9052-f1316167c45b"},"vehicle_type_id":"4","last_reported":1702159577,"current_range_meters":15200,"station_id":"ce501612rcd8frsf0b60","pricing_plan_id":"free"},{"bike_id":"f6bfca0a-825e-4630-a1fd-bac9b7033a43","system_id":"levelo_inurba_marseille","lat":43.267959,"lon":5.402687,"is_reserved":false,"is_disabled":false,"rental_uris":{"android":"levelo://app?vid=f6bfca0a-825e-4630-a1fd-bac9b7033a43","ios":"levelo://app?vid=f6bfca0a-825e-4630-a1fd-bac9b7033a43"},"vehicle_type_id":"4","last_reported":1702159577,"current_range_meters":16000,"station_id":"ce501612rcd8frsf0b60","pricing_plan_id":"free"},{"bike_id":"7d6b91e3-d48c-42b8-9d06-cc575f88b452","system_id":"levelo_inurba_marseille","lat":43.267959,"lon":5.402687,"is_reserved":false,"is_disabled":false,"rental_uris":{"android":"levelo://app?vid=7d6b91e3-d48c-42b8-9d06-cc575f88b452","ios":"levelo://app?vid=7d6b91e3-d48c-42b8-9d06-cc575f88b452"},"vehicle_type_id":"4","last_reported":1702159577,"current_range_meters":12000,"station_id":"ce501612rcd8frsf0b60","pricing_plan_id":"free"},{"bike_id":"fbe96d84-5f9d-4a41-91f0-499fd5a65183","system_id":"levelo_inurba_marseille","lat":43.267959,"lon":5.402687,"is_reserved":false,"is_disabled":false,"rental_uris":{"android":"levelo://app?vid=fbe96d84-5f9d-4a41-91f0-499fd5a65183","ios":"levelo://app?vid=fbe96d84-5f9d-4a41-91f0-499fd5a65183"},"vehicle_type_id":"4","last_reported":1702159577,"current_range_meters":27600,"station_id":"ce501612rcd8frsf0b60","pricing_plan_id":"free"},{"bike_id":"c4a32d8b-8a0b-4189-aa9f-2983a413dfe8","system_id":"levelo_inurba_marseille","lat":43.299,"lon":5.43662,"is_reserved":false,"is_disabled":false,"rental_uris":{"android":"levelo://app?vid=c4a32d8b-8a0b-4189-aa9f-2983a413dfe8","ios":"levelo://app?vid=c4a32d8b-8a0b-4189-aa9f-2983a413dfe8"},"vehicle_type_id":"4","last_reported":1702159577,"current_range_meters":29200,"station_id":"ce4bhpp2rcd13ifvqhfg","pricing_plan_id":"free"},{"bike_id":"83e2018e-7127-4415-8bbf-2e347a9c6750","system_id":"levelo_inurba_marseille","lat":43.29894,"lon":5.43662,"is_reserved":false,"is_disabled":false,"rental_uris":{"android":"levelo://app?vid=83e2018e-7127-4415-8bbf-2e347a9c6750","ios":"levelo://app?vid=83e2018e-7127-4415-8bbf-2e347a9c6750"},"vehicle_type_id":"4","last_reported":1702159577,"current_range_meters":28400,"station_id":"ce4bhpp2rcd13ifvqhfg","pricing_plan_id":"free"},{"bike_id":"4f68f183-a711-4386-a731-e8ea8e2f115e","system_id":"levelo_inurba_marseille","lat":43.298768,"lon":5.43643,"is_reserved":false,"is_disabled":false,"rental_uris":{"android":"levelo://app?vid=4f68f183-a711-4386-a731-e8ea8e2f115e","ios":"levelo://app?vid=4f68f183-a711-4386-a731-e8ea8e2f115e"},"vehicle_type_id":"4","last_reported":1702159577,"current_range_meters":25600,"station_id":"ce4bhpp2rcd13ifvqhfg","pricing_plan_id":"free"},{"bike_id":"70c52fa1-91be-4fbd-9217-7a0c668f9310","system_id":"levelo_inurba_marseille","lat":43.29899,"lon":5.43665,"is_reserved":false,"is_disabled":false,"rental_uris":{"android":"levelo://app?vid=70c52fa1-91be-4fbd-9217-7a0c668f9310","ios":"levelo://app?vid=70c52fa1-91be-4fbd-9217-7a0c668f9310"},"vehicle_type_id":"4","last_reported":1702159577,"current_range_meters":24000,"station_id":"ce4bhpp2rcd13ifvqhfg","pricing_plan_id":"free"},{"bike_id":"5f2d3882-2773-4d5c-828c-4c3c96bb97f7","system_id":"levelo_inurba_marseille","lat":43.298768,"lon":5.43643,"is_reserved":false,"is_disabled":false,"rental_uris":{"android":"levelo://app?vid=5f2d3882-2773-4d5c-828c-4c3c96bb97f7","ios":"levelo://app?vid=5f2d3882-2773-4d5c-828c-4c3c96bb97f7"},"vehicle_type_id":"4","last_reported":1702159577,"current_range_meters":30000,"station_id":"ce4bhpp2rcd13ifvqhfg","pricing_plan_id":"free"},{"bike_id":"6b17b896-99f2-456b-929e-df3811eeb274","system_id":"levelo_inurba_marseille","lat":43.298768,"lon":5.43643,"is_reserved":false,"is_disabled":false,"rental_uris":{"android":"levelo://app?vid=6b17b896-99f2-456b-929e-df3811eeb274","ios":"levelo://app?vid=6b17b896-99f2-456b-929e-df3811eeb274"},"vehicle_type_id":"4","last_reported":1702159577,"current_range_meters":28400,"station_id":"ce4bhpp2rcd13ifvqhfg","pricing_plan_id":"free"},{"bike_id":"526e7f56-0e21-4bd0-bc51-3dc5e827ee1d","system_id":"levelo_inurba_marseille","lat":43.299,"lon":5.43671,"is_reserved":false,"is_disabled":false,"rental_uris":{"android":"levelo://app?vid=526e7f56-0e21-4bd0-bc51-3dc5e827ee1d","ios":"levelo://app?vid=526e7f56-0e21-4bd0-bc51-3dc5e827ee1d"},"vehicle_type_id":"4","last_reported":1702159577,"current_range_meters":24400,"station_id":"ce4bhpp2rcd13ifvqhfg","pricing_plan_id":"free"},{"bike_id":"a7b35256-5fbf-430f-9cf0-9272f7f5b3c7","system_id":"levelo_inurba_marseille","lat":43.281548,"lon":5.42643,"is_reserved":false,"is_disabled":false,"rental_uris":{"android":"levelo://app?vid=a7b35256-5fbf-430f-9cf0-9272f7f5b3c7","ios":"levelo://app?vid=a7b35256-5fbf-430f-9cf0-9272f7f5b3c7"},"vehicle_type_id":"4","last_reported":1702159577,"current_range_meters":9600,"station_id":"ce4bhnh2rcd13ifvqgug","pricing_plan_id":"free"},{"bike_id":"ae2ee4ec-e0be-4650-a25d-ad306c6973d5","system_id":"levelo_inurba_marseille","lat":43.281548,"lon":5.42643,"is_reserved":false,"is_disabled":false,"rental_uris":{"android":"levelo://app?vid=ae2ee4ec-e0be-4650-a25d-ad306c6973d5","ios":"levelo://app?vid=ae2ee4ec-e0be-4650-a25d-ad306c6973d5"},"vehicle_type_id":"4","last_reported":1702159577,"current_range_meters":22000,"station_id":"ce4bhnh2rcd13ifvqgug","pricing_plan_id":"free"},{"bike_id":"ced98caa-8305-48e5-ae90-b812f3200f31","system_id":"levelo_inurba_marseille","lat":43.281548,"lon":5.42643,"is_reserved":false,"is_disabled":false,"rental_uris":{"android":"levelo://app?vid=ced98caa-8305-48e5-ae90-b812f3200f31","ios":"levelo://app?vid=ced98caa-8305-48e5-ae90-b812f3200f31"},"vehicle_type_id":"4","last_reported":1702159577,"current_range_meters":26800,"station_id":"ce4bhnh2rcd13ifvqgug","pricing_plan_id":"free"},{"bike_id":"c03e7c65-94ee-4f51-bb31-7322ab7baa32","system_id":"levelo_inurba_marseille","lat":43.281548,"lon":5.42643,"is_reserved":false,"is_disabled":false,"rental_uris":{"android":"levelo://app?vid=c03e7c65-94ee-4f51-bb31-7322ab7baa32","ios":"levelo://app?vid=c03e7c65-94ee-4f51-bb31-7322ab7baa32"},"vehicle_type_id":"4","last_reported":1702159577,"current_range_meters":0,"station_id":"ce4bhnh2rcd13ifvqgug","pricing_plan_id":"free"},{"bike_id":"139a27c7-f3ae-47e4-b585-f0759b6ba5b6","system_id":"levelo_inurba_marseille","lat":43.281548,"lon":5.42643,"is_reserved":false,"is_disabled":false,"rental_uris":{"android":"levelo://app?vid=139a27c7-f3ae-47e4-b585-f0759b6ba5b6","ios":"levelo://app?vid=139a27c7-f3ae-47e4-b585-f0759b6ba5b6"},"vehicle_type_id":"4","last_reported":1702159577,"current_range_meters":22000,"station_id":"ce4bhnh2rcd13ifvqgug","pricing_plan_id":"free"},{"bike_id":"971d63c2-83dd-41d1-be29-18106b6fda3e","system_id":"levelo_inurba_marseille","lat":43.281548,"lon":5.42643,"is_reserved":false,"is_disabled":false,"rental_uris":{"android":"levelo://app?vid=971d63c2-83dd-41d1-be29-18106b6fda3e","ios":"levelo://app?vid=971d63c2-83dd-41d1-be29-18106b6fda3e"},"vehicle_type_id":"4","last_reported":1702159577,"current_range_meters":5200,"station_id":"ce4bhnh2rcd13ifvqgug","pricing_plan_id":"free"},{"bike_id":"5525a139-c8f9-4163-ad42-51992063b245","system_id":"levelo_inurba_marseille","lat":43.281548,"lon":5.42643,"is_reserved":false,"is_disabled":false,"rental_uris":{"android":"levelo://app?vid=5525a139-c8f9-4163-ad42-51992063b245","ios":"levelo://app?vid=5525a139-c8f9-4163-ad42-51992063b245"},"vehicle_type_id":"4","last_reported":1702159577,"current_range_meters":22800,"station_id":"ce4bhnh2rcd13ifvqgug","pricing_plan_id":"free"},{"bike_id":"b9063a33-13b5-4cca-826c-3f51be03f8ec","system_id":"levelo_inurba_marseille","lat":43.281548,"lon":5.42643,"is_reserved":false,"is_disabled":false,"rental_uris":{"android":"levelo://app?vid=b9063a33-13b5-4cca-826c-3f51be03f8ec","ios":"levelo://app?vid=b9063a33-13b5-4cca-826c-3f51be03f8ec"},"vehicle_type_id":"4","last_reported":1702159577,"current_range_meters":31200,"station_id":"ce4bhnh2rcd13ifvqgug","pricing_plan_id":"free"},{"bike_id":"8381b6c0-a970-418d-b394-9f8eb4bf2cb5","system_id":"levelo_inurba_marseille","lat":43.281548,"lon":5.42643,"is_reserved":false,"is_disabled":false,"rental_uris":{"android":"levelo://app?vid=8381b6c0-a970-418d-b394-9f8eb4bf2cb5","ios":"levelo://app?vid=8381b6c0-a970-418d-b394-9f8eb4bf2cb5"},"vehicle_type_id":"4","last_reported":1702159577,"current_range_meters":14400,"station_id":"ce4bhnh2rcd13ifvqgug","pricing_plan_id":"free"},{"bike_id":"4b961cec-d7ea-47bd-8b69-193b02ff897c","system_id":"levelo_inurba_marseille","lat":43.2607,"lon":5.393983,"is_reserved":false,"is_disabled":false,"rental_uris":{"android":"levelo://app?vid=4b961cec-d7ea-47bd-8b69-193b02ff897c","ios":"levelo://app?vid=4b961cec-d7ea-47bd-8b69-193b02ff897c"},"vehicle_type_id":"4","last_reported":1702159577,"current_range_meters":25200,"station_id":"ce4bhh92rcd13ifvqfj0","pricing_plan_id":"free"},{"bike_id":"c7ca1942-a897-4ebb-8b6b-b9e34177741c","system_id":"levelo_inurba_marseille","lat":43.2607,"lon":5.393983,"is_reserved":false,"is_disabled":false,"rental_uris":{"android":"levelo://app?vid=c7ca1942-a897-4ebb-8b6b-b9e34177741c","ios":"levelo://app?vid=c7ca1942-a897-4ebb-8b6b-b9e34177741c"},"vehicle_type_id":"4","last_reported":1702159577,"current_range_meters":5600,"station_id":"ce4bhh92rcd13ifvqfj0","pricing_plan_id":"free"},{"bike_id":"6a285a92-a82b-4ae9-b162-6bd6726e1bb9","system_id":"levelo_inurba_marseille","lat":43.258224,"lon":5.394369,"is_reserved":false,"is_disabled":false,"rental_uris":{"android":"levelo://app?vid=6a285a92-a82b-4ae9-b162-6bd6726e1bb9","ios":"levelo://app?vid=6a285a92-a82b-4ae9-b162-6bd6726e1bb9"},"vehicle_type_id":"4","last_reported":1702159577,"current_range_meters":24000,"station_id":"ce4bhip2rcd13ifvqft0","pricing_plan_id":"free"},{"bike_id":"d7389dfc-e0b8-468d-9cf6-2db040fd468b","system_id":"levelo_inurba_marseille","lat":43.258658,"lon":5.398935,"is_reserved":false,"is_disabled":false,"rental_uris":{"android":"levelo://app?vid=d7389dfc-e0b8-468d-9cf6-2db040fd468b","ios":"levelo://app?vid=d7389dfc-e0b8-468d-9cf6-2db040fd468b"},"vehicle_type_id":"4","last_reported":1702159577,"current_range_meters":26800,"station_id":"ce4bhl92rcd13ifvqghg","pricing_plan_id":"free"},{"bike_id":"4c727e10-b153-47ea-ac3d-c88c350cf907","system_id":"levelo_inurba_marseille","lat":43.2479,"lon":5.374457,"is_reserved":false,"is_disabled":false,"rental_uris":{"android":"levelo://app?vid=4c727e10-b153-47ea-ac3d-c88c350cf907","ios":"levelo://app?vid=4c727e10-b153-47ea-ac3d-c88c350cf907"},"vehicle_type_id":"4","last_reported":1702159577,"current_range_meters":2000,"station_id":"ce4bhgh2rcd13ifvqfb0","pricing_plan_id":"free"},{"bike_id":"92e44217-48fc-4b87-aa6a-0d0bfa2dc55d","system_id":"levelo_inurba_marseille","lat":43.2479,"lon":5.374457,"is_reserved":false,"is_disabled":false,"rental_uris":{"android":"levelo://app?vid=92e44217-48fc-4b87-aa6a-0d0bfa2dc55d","ios":"levelo://app?vid=92e44217-48fc-4b87-aa6a-0d0bfa2dc55d"},"vehicle_type_id":"4","last_reported":1702159577,"current_range_meters":5200,"station_id":"ce4bhgh2rcd13ifvqfb0","pricing_plan_id":"free"},{"bike_id":"c1f9b12e-c1bb-4c57-b255-63a6ad9ac073","system_id":"levelo_inurba_marseille","lat":43.24693,"lon":5.382096,"is_reserved":false,"is_disabled":false,"rental_uris":{"android":"levelo://app?vid=c1f9b12e-c1bb-4c57-b255-63a6ad9ac073","ios":"levelo://app?vid=c1f9b12e-c1bb-4c57-b255-63a6ad9ac073"},"vehicle_type_id":"4","last_reported":1702159577,"current_range_meters":20800,"station_id":"ce4bhih2rcd13ifvqfr0","pricing_plan_id":"free"},{"bike_id":"a8920d8d-5ea0-4643-b10d-8e8ab5bf009a","system_id":"levelo_inurba_marseille","lat":43.24662,"lon":5.38161,"is_reserved":false,"is_disabled":false,"rental_uris":{"android":"levelo://app?vid=a8920d8d-5ea0-4643-b10d-8e8ab5bf009a","ios":"levelo://app?vid=a8920d8d-5ea0-4643-b10d-8e8ab5bf009a"},"vehicle_type_id":"4","last_reported":1702159577,"current_range_meters":2000,"station_id":"ce4bhih2rcd13ifvqfr0","pricing_plan_id":"free"},{"bike_id":"bee7e5fa-4c1b-44b3-aca5-fbd83bcb164f","system_id":"levelo_inurba_marseille","lat":43.24693,"lon":5.382096,"is_reserved":false,"is_disabled":false,"rental_uris":{"android":"levelo://app?vid=bee7e5fa-4c1b-44b3-aca5-fbd83bcb164f","ios":"levelo://app?vid=bee7e5fa-4c1b-44b3-aca5-fbd83bcb164f"},"vehicle_type_id":"4","last_reported":1702159577,"current_range_meters":21600,"station_id":"ce4bhih2rcd13ifvqfr0","pricing_plan_id":"free"},{"bike_id":"3f2977c7-2d3e-4b05-813b-c8cad00b1d30","system_id":"levelo_inurba_marseille","lat":43.251134,"lon":5.40321,"is_reserved":false,"is_disabled":false,"rental_uris":{"android":"levelo://app?vid=3f2977c7-2d3e-4b05-813b-c8cad00b1d30","ios":"levelo://app?vid=3f2977c7-2d3e-4b05-813b-c8cad00b1d30"},"vehicle_type_id":"4","last_reported":1702159577,"current_range_meters":5600,"station_id":"","pricing_plan_id":"free"},{"bike_id":"d608bd2a-1e64-45d8-8604-2f7a0c32cafc","system_id":"levelo_inurba_marseille","lat":43.25105,"lon":5.40322,"is_reserved":false,"is_disabled":false,"rental_uris":{"android":"levelo://app?vid=d608bd2a-1e64-45d8-8604-2f7a0c32cafc","ios":"levelo://app?vid=d608bd2a-1e64-45d8-8604-2f7a0c32cafc"},"vehicle_type_id":"4","last_reported":1702159577,"current_range_meters":20400,"station_id":"ce4bhlh2rcd13ifvqgig","pricing_plan_id":"free"},{"bike_id":"6ffa404c-bd43-4ef5-aa2c-7350849e4cbf","system_id":"levelo_inurba_marseille","lat":43.246467,"lon":5.388984,"is_reserved":false,"is_disabled":false,"rental_uris":{"android":"levelo://app?vid=6ffa404c-bd43-4ef5-aa2c-7350849e4cbf","ios":"levelo://app?vid=6ffa404c-bd43-4ef5-aa2c-7350849e4cbf"},"vehicle_type_id":"4","last_reported":1702159577,"current_range_meters":28400,"station_id":"ce4bhg12rcd13ifvqf60","pricing_plan_id":"free"},{"bike_id":"e0027151-3876-4e17-8b4a-b5c8f5b31988","system_id":"levelo_inurba_marseille","lat":43.24072,"lon":5.37766,"is_reserved":false,"is_disabled":false,"rental_uris":{"android":"levelo://app?vid=e0027151-3876-4e17-8b4a-b5c8f5b31988","ios":"levelo://app?vid=e0027151-3876-4e17-8b4a-b5c8f5b31988"},"vehicle_type_id":"4","last_reported":1702159577,"current_range_meters":16800,"station_id":"ce4bhnp2rcd13ifvqgvg","pricing_plan_id":"free"},{"bike_id":"81b4e35a-2d12-4b93-80e8-d3f19ca86c64","system_id":"levelo_inurba_marseille","lat":43.240623,"lon":5.377642,"is_reserved":false,"is_disabled":false,"rental_uris":{"android":"levelo://app?vid=81b4e35a-2d12-4b93-80e8-d3f19ca86c64","ios":"levelo://app?vid=81b4e35a-2d12-4b93-80e8-d3f19ca86c64"},"vehicle_type_id":"4","last_reported":1702159577,"current_range_meters":4400,"station_id":"ce4bhnp2rcd13ifvqgvg","pricing_plan_id":"free"},{"bike_id":"dca6d162-e5a2-4d99-89a0-bf726dda2dbf","system_id":"levelo_inurba_marseille","lat":43.239723,"lon":5.36621,"is_reserved":false,"is_disabled":false,"rental_uris":{"android":"levelo://app?vid=dca6d162-e5a2-4d99-89a0-bf726dda2dbf","ios":"levelo://app?vid=dca6d162-e5a2-4d99-89a0-bf726dda2dbf"},"vehicle_type_id":"4","last_reported":1702159577,"current_range_meters":4800,"station_id":"ce4bhi12rcd13ifvqfp0","pricing_plan_id":"free"},{"bike_id":"acd7f746-1a4c-47d2-bf3f-9de41036d325","system_id":"levelo_inurba_marseille","lat":43.23972,"lon":5.36626,"is_reserved":false,"is_disabled":false,"rental_uris":{"android":"levelo://app?vid=acd7f746-1a4c-47d2-bf3f-9de41036d325","ios":"levelo://app?vid=acd7f746-1a4c-47d2-bf3f-9de41036d325"},"vehicle_type_id":"4","last_reported":1702159577,"current_range_meters":13600,"station_id":"ce4bhi12rcd13ifvqfp0","pricing_plan_id":"free"},{"bike_id":"6ee27b94-91ff-4319-8004-5372243ff166","system_id":"levelo_inurba_marseille","lat":43.23971,"lon":5.36627,"is_reserved":false,"is_disabled":false,"rental_uris":{"android":"levelo://app?vid=6ee27b94-91ff-4319-8004-5372243ff166","ios":"levelo://app?vid=6ee27b94-91ff-4319-8004-5372243ff166"},"vehicle_type_id":"4","last_reported":1702159577,"current_range_meters":4400,"station_id":"ce4bhi12rcd13ifvqfp0","pricing_plan_id":"free"},{"bike_id":"b17e00c2-bf59-4ac0-bf9d-4e8ada93c9ba","system_id":"levelo_inurba_marseille","lat":43.241782,"lon":5.397261,"is_reserved":false,"is_disabled":false,"rental_uris":{"android":"levelo://app?vid=b17e00c2-bf59-4ac0-bf9d-4e8ada93c9ba","ios":"levelo://app?vid=b17e00c2-bf59-4ac0-bf9d-4e8ada93c9ba"},"vehicle_type_id":"4","last_reported":1702159577,"current_range_meters":18800,"station_id":"ce4bhn12rcd13ifvqgpg","pricing_plan_id":"free"},{"bike_id":"efdf0b62-a012-45f2-a093-48aedd562b0c","system_id":"levelo_inurba_marseille","lat":43.231919,"lon":5.355532,"is_reserved":false,"is_disabled":false,"rental_uris":{"android":"levelo://app?vid=efdf0b62-a012-45f2-a093-48aedd562b0c","ios":"levelo://app?vid=efdf0b62-a012-45f2-a093-48aedd562b0c"},"vehicle_type_id":"4","last_reported":1702159577,"current_range_meters":21200,"station_id":"ce4bhu92rcd13ifvqi70","pricing_plan_id":"free"},{"bike_id":"529449ae-9bd0-4a42-b2ad-b913b1c62c25","system_id":"levelo_inurba_marseille","lat":43.231944,"lon":5.35547,"is_reserved":false,"is_disabled":false,"rental_uris":{"android":"levelo://app?vid=529449ae-9bd0-4a42-b2ad-b913b1c62c25","ios":"levelo://app?vid=529449ae-9bd0-4a42-b2ad-b913b1c62c25"},"vehicle_type_id":"4","last_reported":1702159577,"current_range_meters":30000,"station_id":"ce4bhu92rcd13ifvqi70","pricing_plan_id":"free"},{"bike_id":"a8c501f0-1f0c-4126-b8d3-0e787022ce6a","system_id":"levelo_inurba_marseille","lat":43.231919,"lon":5.355532,"is_reserved":false,"is_disabled":false,"rental_uris":{"android":"levelo://app?vid=a8c501f0-1f0c-4126-b8d3-0e787022ce6a","ios":"levelo://app?vid=a8c501f0-1f0c-4126-b8d3-0e787022ce6a"},"vehicle_type_id":"4","last_reported":1702159577,"current_range_meters":30000,"station_id":"ce4bhu92rcd13ifvqi70","pricing_plan_id":"free"},{"bike_id":"db837267-81e3-439e-98cb-2684c730942d","system_id":"levelo_inurba_marseille","lat":43.231927,"lon":5.35543,"is_reserved":false,"is_disabled":false,"rental_uris":{"android":"levelo://app?vid=db837267-81e3-439e-98cb-2684c730942d","ios":"levelo://app?vid=db837267-81e3-439e-98cb-2684c730942d"},"vehicle_type_id":"4","last_reported":1702159577,"current_range_meters":18800,"station_id":"ce4bhu92rcd13ifvqi70","pricing_plan_id":"free"},{"bike_id":"446663db-0ff0-41b4-80f1-111b68ced5a4","system_id":"levelo_inurba_marseille","lat":43.231919,"lon":5.355532,"is_reserved":false,"is_disabled":false,"rental_uris":{"android":"levelo://app?vid=446663db-0ff0-41b4-80f1-111b68ced5a4","ios":"levelo://app?vid=446663db-0ff0-41b4-80f1-111b68ced5a4"},"vehicle_type_id":"4","last_reported":1702159577,"current_range_meters":18000,"station_id":"ce4bhu92rcd13ifvqi70","pricing_plan_id":"free"},{"bike_id":"88360225-83fa-42a7-aa9d-04d6e2f27256","system_id":"levelo_inurba_marseille","lat":43.231919,"lon":5.355532,"is_reserved":false,"is_disabled":false,"rental_uris":{"android":"levelo://app?vid=88360225-83fa-42a7-aa9d-04d6e2f27256","ios":"levelo://app?vid=88360225-83fa-42a7-aa9d-04d6e2f27256"},"vehicle_type_id":"4","last_reported":1702159577,"current_range_meters":20000,"station_id":"ce4bhu92rcd13ifvqi70","pricing_plan_id":"free"},{"bike_id":"92e5148d-4fb4-4386-8a07-4b4b7dd6e12c","system_id":"levelo_inurba_marseille","lat":43.231793,"lon":5.400044,"is_reserved":false,"is_disabled":false,"rental_uris":{"android":"levelo://app?vid=92e5148d-4fb4-4386-8a07-4b4b7dd6e12c","ios":"levelo://app?vid=92e5148d-4fb4-4386-8a07-4b4b7dd6e12c"},"vehicle_type_id":"4","last_reported":1702159577,"current_range_meters":4000,"station_id":"ce4bhn12rcd13ifvqgqg","pricing_plan_id":"free"},{"bike_id":"71fdd829-63ff-41d5-b3e3-495ff59647ad","system_id":"levelo_inurba_marseille","lat":43.231562,"lon":5.436933,"is_reserved":false,"is_disabled":false,"rental_uris":{"android":"levelo://app?vid=71fdd829-63ff-41d5-b3e3-495ff59647ad","ios":"levelo://app?vid=71fdd829-63ff-41d5-b3e3-495ff59647ad"},"vehicle_type_id":"4","last_reported":1702159577,"current_range_meters":0,"station_id":"ce4bhmp2rcd13ifvqgog","pricing_plan_id":"free"}]}}