{"last_updated":1753363930,"ttl":60,"version":"2.2","data":{"bikes":[{"bike_id":"72c75594-2ea9-40bf-8a75-4685c97f1a7f","system_id":"levelo_inurba_marseille","lat":43.305511,"lon":5.365511,"is_reserved":false,"is_disabled":false,"rental_uris":{"android":"levelo://app?vid=72c75594-2ea9-40bf-8a75-4685c97f1a7f","ios":"levelo://app?vid=72c75594-2ea9-40bf-8a75-4685c97f1a7f"},"vehicle_type_id":"4","last_reported":1753363930,"current_range_meters":2800,"station_id":"ce4bgs12rcd13ifvqcag","pricing_plan_id":"cebpf4jnsgd1na2vs0mg"},{"bike_id":"ae227857-3c04-4ebc-b5a3-c751bb5a5ea5","system_id":"levelo_inurba_marseille","lat":43.28432,"lon":5.39202,"is_reserved":false,"is_disabled":false,"rental_uris":{"android":"levelo://app?vid=ae227857-3c04-4ebc-b5a3-c751bb5a5ea5","ios":"levelo://app?vid=ae227857-3c04-4ebc-b5a3-c751bb5a5ea5"},"vehicle_type_id":"4","last_reported":1753363930,"current_range_meters":3200,"station_id":"ce4bhoh2rcd13ifvqh5g","pricing_plan_id":"cebpf4jnsgd1na2vs0mg"},{"bike_id":"a59dcba0-cf67-45db-8596-aaadc73ae8f0","system_id":"levelo_inurba_marseille","lat":43.26563,"lon":5.3902,"is_reserved":false,"is_disabled":false,"rental_uris":{"android":"levelo://app?vid=a59dcba0-cf67-45db-8596-aaadc73ae8f0","ios":"levelo://app?vid=a59dcba0-cf67-45db-8596-aaadc73ae8f0"},"vehicle_type_id":"4","last_reported":1753363930,"current_range_meters":3200,"station_id":"ce4bhe12rcd13ifvqf30","pricing_plan_id":"cebpf4jnsgd1na2vs0mg"},{"bike_id":"ba92b3d9-b4cc-4b75-9f66-431c84baa6b9","system_id":"levelo_inurba_marseille","lat":43.28453,"lon":5.35878,"is_reserved":false,"is_disabled":false,"rental_uris":{"android":"levelo://app?vid=ba92b3d9-b4cc-4b75-9f66-431c84baa6b9","ios":"levelo://app?vid=ba92b3d9-b4cc-4b75-9f66-431c84baa6b9"},"vehicle_type_id":"4","last_reported":1753363930,"current_range_meters":3600,"station_id":"ce4bhah2rcd13ifvqei0","pricing_plan_id":"cebpf4jnsgd1na2vs0mg"},{"bike_id":"9ae7d50c-a3ea-4136-8080-315c191e000a","system_id":"levelo_inurba_marseille","lat":43.28746,"lon":5.38426,"is_reserved":false,"is_disabled":false,"rental_uris":{"android":"levelo://app?vid=9ae7d50c-a3ea-4136-8080-315c191e000a","ios":"levelo://app?vid=9ae7d50c-a3ea-4136-8080-315c191e000a"},"vehicle_type_id":"4","last_reported":1753363930,"current_range_meters":3600,"station_id":"","pricing_plan_id":"cebpf4jnsgd1na2vs0mg"},{"bike_id":"8cfe3cf4-1b94-4e72-b124-80f33a837c7c","system_id":"levelo_inurba_marseille","lat":43.26566,"lon":5.37283,"is_reserved":false,"is_disabled":false,"rental_uris":{"android":"levelo://app?vid=8cfe3cf4-1b94-4e72-b124-80f33a837c7c","ios":"levelo://app?vid=8cfe3cf4-1b94-4e72-b124-80f33a837c7c"},"vehicle_type_id":"4","last_reported":1753363930,"current_range_meters":4000,"station_id":"ce4bhg12rcd13ifvqf70","pricing_plan_id":"cebpf4jnsgd1na2vs0mg"},{"bike_id":"c8cbe188-8c80-4aac-881d-65feb870e521","system_id":"levelo_inurba_marseille","lat":43.33019,"lon":5.38044,"is_reserved":false,"is_disabled":false,"rental_uris":{"android":"levelo://app?vid=c8cbe188-8c80-4aac-881d-65feb870e521","ios":"levelo://app?vid=c8cbe188-8c80-4aac-881d-65feb870e521"},"vehicle_type_id":"4","last_reported":1753363930,"current_range_meters":4000,"station_id":"","pricing_plan_id":"cebpf4jnsgd1na2vs0mg"},{"bike_id":"7ee1e2e7-a1ec-444e-a3ea-32f9f21cdba7","system_id":"levelo_inurba_marseille","lat":43.296823,"lon":5.372723,"is_reserved":false,"is_disabled":false,"rental_uris":{"android":"levelo://app?vid=7ee1e2e7-a1ec-444e-a3ea-32f9f21cdba7","ios":"levelo://app?vid=7ee1e2e7-a1ec-444e-a3ea-32f9f21cdba7"},"vehicle_type_id":"4","last_reported":1753363930,"current_range_meters":4400,"station_id":"ce4bgk12rcd13ifvqbj0","pricing_plan_id":"cebpf4jnsgd1na2vs0mg"},{"bike_id":"f97bc710-a12e-4345-a370-e33a5bf4db2d","system_id":"levelo_inurba_marseille","lat":43.312317,"lon":5.368558,"is_reserved":false,"is_disabled":false,"rental_uris":{"android":"levelo://app?vid=f97bc710-a12e-4345-a370-e33a5bf4db2d","ios":"levelo://app?vid=f97bc710-a12e-4345-a370-e33a5bf4db2d"},"vehicle_type_id":"4","last_reported":1753363930,"current_range_meters":4400,"station_id":"ce4bgl92rcd13ifvqbq0","pricing_plan_id":"cebpf4jnsgd1na2vs0mg"},{"bike_id":"b8766a6c-8d67-41ee-9a39-1c2e0fa8e678","system_id":"levelo_inurba_marseille","lat":43.28271,"lon":5.35055,"is_reserved":false,"is_disabled":false,"rental_uris":{"android":"levelo://app?vid=b8766a6c-8d67-41ee-9a39-1c2e0fa8e678","ios":"levelo://app?vid=b8766a6c-8d67-41ee-9a39-1c2e0fa8e678"},"vehicle_type_id":"4","last_reported":1753363930,"current_range_meters":4400,"station_id":"ce4bhbp2rcd13ifvqerg","pricing_plan_id":"cebpf4jnsgd1na2vs0mg"},{"bike_id":"b56d3ed7-e8fd-4015-a404-7a58e5ae3a3e","system_id":"levelo_inurba_marseille","lat":43.28713,"lon":5.37938,"is_reserved":false,"is_disabled":false,"rental_uris":{"android":"levelo://app?vid=b56d3ed7-e8fd-4015-a404-7a58e5ae3a3e","ios":"levelo://app?vid=b56d3ed7-e8fd-4015-a404-7a58e5ae3a3e"},"vehicle_type_id":"4","last_reported":1753363930,"current_range_meters":5600,"station_id":"ce4bh9p2rcd13ifvqec0","pricing_plan_id":"cebpf4jnsgd1na2vs0mg"},{"bike_id":"1f8f3585-d371-45be-95de-ffa782ccdda2","system_id":"levelo_inurba_marseille","lat":43.25121,"lon":5.40318,"is_reserved":false,"is_disabled":false,"rental_uris":{"android":"levelo://app?vid=1f8f3585-d371-45be-95de-ffa782ccdda2","ios":"levelo://app?vid=1f8f3585-d371-45be-95de-ffa782ccdda2"},"vehicle_type_id":"4","last_reported":1753363930,"current_range_meters":6000,"station_id":"ce4bhlh2rcd13ifvqgig","pricing_plan_id":"cebpf4jnsgd1na2vs0mg"},{"bike_id":"fce53243-a444-41a3-8d99-d69c2f0587c8","system_id":"levelo_inurba_marseille","lat":43.28464,"lon":5.38471,"is_reserved":false,"is_disabled":false,"rental_uris":{"android":"levelo://app?vid=fce53243-a444-41a3-8d99-d69c2f0587c8","ios":"levelo://app?vid=fce53243-a444-41a3-8d99-d69c2f0587c8"},"vehicle_type_id":"4","last_reported":1753363930,"current_range_meters":6000,"station_id":"ce4bh512rcd13ifvqe3g","pricing_plan_id":"cebpf4jnsgd1na2vs0mg"},{"bike_id":"c9dbd36b-479c-4a5c-b200-3aa7673340d9","system_id":"levelo_inurba_marseille","lat":43.241448,"lon":5.363743,"is_reserved":false,"is_disabled":false,"rental_uris":{"android":"levelo://app?vid=c9dbd36b-479c-4a5c-b200-3aa7673340d9","ios":"levelo://app?vid=c9dbd36b-479c-4a5c-b200-3aa7673340d9"},"vehicle_type_id":"4","last_reported":1753363930,"current_range_meters":6000,"station_id":"","pricing_plan_id":"cebpf4jnsgd1na2vs0mg"},{"bike_id":"916fc61d-d19a-4072-9eb9-9423485d932e","system_id":"levelo_inurba_marseille","lat":43.2619,"lon":5.37454,"is_reserved":false,"is_disabled":false,"rental_uris":{"android":"levelo://app?vid=916fc61d-d19a-4072-9eb9-9423485d932e","ios":"levelo://app?vid=916fc61d-d19a-4072-9eb9-9423485d932e"},"vehicle_type_id":"4","last_reported":1753363930,"current_range_meters":6000,"station_id":"ce4bhgp2rcd13ifvqfc0","pricing_plan_id":"cebpf4jnsgd1na2vs0mg"},{"bike_id":"9c4ab5da-918e-4ff0-abd6-1f3aeb3fa059","system_id":"levelo_inurba_marseille","lat":43.295937,"lon":5.381056,"is_reserved":false,"is_disabled":false,"rental_uris":{"android":"levelo://app?vid=9c4ab5da-918e-4ff0-abd6-1f3aeb3fa059","ios":"levelo://app?vid=9c4ab5da-918e-4ff0-abd6-1f3aeb3fa059"},"vehicle_type_id":"4","last_reported":1753363930,"current_range_meters":6400,"station_id":"ce4bgl12rcd13ifvqbo0","pricing_plan_id":"cebpf4jnsgd1na2vs0mg"},{"bike_id":"11640736-4672-417f-be88-e03daa077b5c","system_id":"levelo_inurba_marseille","lat":43.30097,"lon":5.39083,"is_reserved":false,"is_disabled":false,"rental_uris":{"android":"levelo://app?vid=11640736-4672-417f-be88-e03daa077b5c","ios":"levelo://app?vid=11640736-4672-417f-be88-e03daa077b5c"},"vehicle_type_id":"4","last_reported":1753363930,"current_range_meters":6400,"station_id":"ce4bh192rcd13ifvqdb0","pricing_plan_id":"cebpf4jnsgd1na2vs0mg"},{"bike_id":"aa5097b6-6968-4aec-b711-e7780938924b","system_id":"levelo_inurba_marseille","lat":43.32947,"lon":5.359037,"is_reserved":false,"is_disabled":false,"rental_uris":{"android":"levelo://app?vid=aa5097b6-6968-4aec-b711-e7780938924b","ios":"levelo://app?vid=aa5097b6-6968-4aec-b711-e7780938924b"},"vehicle_type_id":"4","last_reported":1753363930,"current_range_meters":6400,"station_id":"","pricing_plan_id":"cebpf4jnsgd1na2vs0mg"},{"bike_id":"6b6cd8fe-b749-4c45-b07a-f9e91aeab36d","system_id":"levelo_inurba_marseille","lat":43.28263,"lon":5.35062,"is_reserved":false,"is_disabled":false,"rental_uris":{"android":"levelo://app?vid=6b6cd8fe-b749-4c45-b07a-f9e91aeab36d","ios":"levelo://app?vid=6b6cd8fe-b749-4c45-b07a-f9e91aeab36d"},"vehicle_type_id":"4","last_reported":1753363930,"current_range_meters":6800,"station_id":"ce4bhbp2rcd13ifvqerg","pricing_plan_id":"cebpf4jnsgd1na2vs0mg"},{"bike_id":"835e4d28-7baa-4ced-9719-0138c3321887","system_id":"levelo_inurba_marseille","lat":43.30322,"lon":5.3775,"is_reserved":false,"is_disabled":false,"rental_uris":{"android":"levelo://app?vid=835e4d28-7baa-4ced-9719-0138c3321887","ios":"levelo://app?vid=835e4d28-7baa-4ced-9719-0138c3321887"},"vehicle_type_id":"4","last_reported":1753363930,"current_range_meters":6800,"station_id":"","pricing_plan_id":"cebpf4jnsgd1na2vs0mg"},{"bike_id":"34f53268-a728-4d12-8df1-09a4221d1bc6","system_id":"levelo_inurba_marseille","lat":43.25585,"lon":5.38225,"is_reserved":false,"is_disabled":false,"rental_uris":{"android":"levelo://app?vid=34f53268-a728-4d12-8df1-09a4221d1bc6","ios":"levelo://app?vid=34f53268-a728-4d12-8df1-09a4221d1bc6"},"vehicle_type_id":"4","last_reported":1753363930,"current_range_meters":6800,"station_id":"ce4bhih2rcd13ifvqfs0","pricing_plan_id":"cebpf4jnsgd1na2vs0mg"},{"bike_id":"ef6db5a3-45e1-4fcb-b347-5441f0a12f5b","system_id":"levelo_inurba_marseille","lat":43.296021,"lon":5.381055,"is_reserved":false,"is_disabled":false,"rental_uris":{"android":"levelo://app?vid=ef6db5a3-45e1-4fcb-b347-5441f0a12f5b","ios":"levelo://app?vid=ef6db5a3-45e1-4fcb-b347-5441f0a12f5b"},"vehicle_type_id":"4","last_reported":1753363930,"current_range_meters":7200,"station_id":"ce4bgl12rcd13ifvqbo0","pricing_plan_id":"cebpf4jnsgd1na2vs0mg"},{"bike_id":"ce515b35-9564-429b-a4fa-87a1d317e3cb","system_id":"levelo_inurba_marseille","lat":43.26953,"lon":5.3866,"is_reserved":false,"is_disabled":true,"rental_uris":{"android":"levelo://app?vid=ce515b35-9564-429b-a4fa-87a1d317e3cb","ios":"levelo://app?vid=ce515b35-9564-429b-a4fa-87a1d317e3cb"},"vehicle_type_id":"4","last_reported":1753363930,"current_range_meters":7200,"station_id":"ce4bhh92rcd13ifvqfh0","pricing_plan_id":"cebpf4jnsgd1na2vs0mg"},{"bike_id":"e91b3b72-db5a-47ac-8d69-d72501b6abe1","system_id":"levelo_inurba_marseille","lat":43.23959,"lon":5.36623,"is_reserved":false,"is_disabled":false,"rental_uris":{"android":"levelo://app?vid=e91b3b72-db5a-47ac-8d69-d72501b6abe1","ios":"levelo://app?vid=e91b3b72-db5a-47ac-8d69-d72501b6abe1"},"vehicle_type_id":"4","last_reported":1753363930,"current_range_meters":8000,"station_id":"ce4bhi12rcd13ifvqfp0","pricing_plan_id":"cebpf4jnsgd1na2vs0mg"},{"bike_id":"da053e6a-15f2-492e-8bc1-42b1d66cc329","system_id":"levelo_inurba_marseille","lat":43.28346,"lon":5.43277,"is_reserved":false,"is_disabled":false,"rental_uris":{"android":"levelo://app?vid=da053e6a-15f2-492e-8bc1-42b1d66cc329","ios":"levelo://app?vid=da053e6a-15f2-492e-8bc1-42b1d66cc329"},"vehicle_type_id":"4","last_reported":1753363930,"current_range_meters":8400,"station_id":"","pricing_plan_id":"cebpf4jnsgd1na2vs0mg"},{"bike_id":"2efa98ae-c6c2-425f-9c6d-358da8751dcd","system_id":"levelo_inurba_marseille","lat":43.29551,"lon":5.37548,"is_reserved":false,"is_disabled":false,"rental_uris":{"android":"levelo://app?vid=2efa98ae-c6c2-425f-9c6d-358da8751dcd","ios":"levelo://app?vid=2efa98ae-c6c2-425f-9c6d-358da8751dcd"},"vehicle_type_id":"4","last_reported":1753363930,"current_range_meters":8400,"station_id":"ce4bgh92rcd13ifvqb50","pricing_plan_id":"cebpf4jnsgd1na2vs0mg"},{"bike_id":"3bc0cf5a-1ef1-48dd-9c9e-3fed765cf65e","system_id":"levelo_inurba_marseille","lat":43.25495,"lon":5.3765,"is_reserved":false,"is_disabled":false,"rental_uris":{"android":"levelo://app?vid=3bc0cf5a-1ef1-48dd-9c9e-3fed765cf65e","ios":"levelo://app?vid=3bc0cf5a-1ef1-48dd-9c9e-3fed765cf65e"},"vehicle_type_id":"4","last_reported":1753363930,"current_range_meters":8400,"station_id":"ce4bhh12rcd13ifvqff0","pricing_plan_id":"cebpf4jnsgd1na2vs0mg"},{"bike_id":"c1c457cb-c7b6-45a0-80dd-69839abf6340","system_id":"levelo_inurba_marseille","lat":43.28418,"lon":5.34975,"is_reserved":false,"is_disabled":false,"rental_uris":{"android":"levelo://app?vid=c1c457cb-c7b6-45a0-80dd-69839abf6340","ios":"levelo://app?vid=c1c457cb-c7b6-45a0-80dd-69839abf6340"},"vehicle_type_id":"4","last_reported":1753363930,"current_range_meters":8800,"station_id":"ce4bhbh2rcd13ifvqepg","pricing_plan_id":"cebpf4jnsgd1na2vs0mg"},{"bike_id":"120a5db3-d4cf-4ad7-953b-2fcab68b773a","system_id":"levelo_inurba_marseille","lat":43.26492,"lon":5.39556,"is_reserved":false,"is_disabled":false,"rental_uris":{"android":"levelo://app?vid=120a5db3-d4cf-4ad7-953b-2fcab68b773a","ios":"levelo://app?vid=120a5db3-d4cf-4ad7-953b-2fcab68b773a"},"vehicle_type_id":"4","last_reported":1753363930,"current_range_meters":8800,"station_id":"ce4bhi12rcd13ifvqfq0","pricing_plan_id":"cebpf4jnsgd1na2vs0mg"},{"bike_id":"18777fe8-c801-4bf6-9578-d49559a89c4e","system_id":"levelo_inurba_marseille","lat":43.28422,"lon":5.34978,"is_reserved":false,"is_disabled":false,"rental_uris":{"android":"levelo://app?vid=18777fe8-c801-4bf6-9578-d49559a89c4e","ios":"levelo://app?vid=18777fe8-c801-4bf6-9578-d49559a89c4e"},"vehicle_type_id":"4","last_reported":1753363930,"current_range_meters":8800,"station_id":"ce4bhbh2rcd13ifvqepg","pricing_plan_id":"cebpf4jnsgd1na2vs0mg"},{"bike_id":"490c7077-29eb-4f9d-a2ec-47607362172d","system_id":"levelo_inurba_marseille","lat":43.26805,"lon":5.40267,"is_reserved":false,"is_disabled":false,"rental_uris":{"android":"levelo://app?vid=490c7077-29eb-4f9d-a2ec-47607362172d","ios":"levelo://app?vid=490c7077-29eb-4f9d-a2ec-47607362172d"},"vehicle_type_id":"4","last_reported":1753363930,"current_range_meters":8800,"station_id":"ce501612rcd8frsf0b60","pricing_plan_id":"cebpf4jnsgd1na2vs0mg"},{"bike_id":"f5d542e3-dbf1-496f-a024-017cb8c639f6","system_id":"levelo_inurba_marseille","lat":43.23188,"lon":5.35575,"is_reserved":false,"is_disabled":false,"rental_uris":{"android":"levelo://app?vid=f5d542e3-dbf1-496f-a024-017cb8c639f6","ios":"levelo://app?vid=f5d542e3-dbf1-496f-a024-017cb8c639f6"},"vehicle_type_id":"4","last_reported":1753363930,"current_range_meters":8800,"station_id":"ce4bhu92rcd13ifvqi70","pricing_plan_id":"cebpf4jnsgd1na2vs0mg"},{"bike_id":"403f9e7c-32d4-48de-8652-d053f32aee4a","system_id":"levelo_inurba_marseille","lat":43.26214,"lon":5.37432,"is_reserved":false,"is_disabled":false,"rental_uris":{"android":"levelo://app?vid=403f9e7c-32d4-48de-8652-d053f32aee4a","ios":"levelo://app?vid=403f9e7c-32d4-48de-8652-d053f32aee4a"},"vehicle_type_id":"4","last_reported":1753363930,"current_range_meters":9200,"station_id":"ce4bhgp2rcd13ifvqfc0","pricing_plan_id":"cebpf4jnsgd1na2vs0mg"},{"bike_id":"dec93502-9771-4f3a-879a-cbdfb860df89","system_id":"levelo_inurba_marseille","lat":43.276774,"lon":5.384001,"is_reserved":false,"is_disabled":false,"rental_uris":{"android":"levelo://app?vid=dec93502-9771-4f3a-879a-cbdfb860df89","ios":"levelo://app?vid=dec93502-9771-4f3a-879a-cbdfb860df89"},"vehicle_type_id":"4","last_reported":1753363930,"current_range_meters":9200,"station_id":"","pricing_plan_id":"cebpf4jnsgd1na2vs0mg"},{"bike_id":"7b7524ae-8ecd-499f-93b7-a6de3bab91d4","system_id":"levelo_inurba_marseille","lat":43.298957,"lon":5.436642,"is_reserved":false,"is_disabled":false,"rental_uris":{"android":"levelo://app?vid=7b7524ae-8ecd-499f-93b7-a6de3bab91d4","ios":"levelo://app?vid=7b7524ae-8ecd-499f-93b7-a6de3bab91d4"},"vehicle_type_id":"4","last_reported":1753363930,"current_range_meters":9200,"station_id":"ce4bhpp2rcd13ifvqhfg","pricing_plan_id":"cebpf4jnsgd1na2vs0mg"},{"bike_id":"e1a7ef8c-6d61-4762-9268-23ec937549c6","system_id":"levelo_inurba_marseille","lat":43.2842,"lon":5.34974,"is_reserved":false,"is_disabled":false,"rental_uris":{"android":"levelo://app?vid=e1a7ef8c-6d61-4762-9268-23ec937549c6","ios":"levelo://app?vid=e1a7ef8c-6d61-4762-9268-23ec937549c6"},"vehicle_type_id":"4","last_reported":1753363930,"current_range_meters":9200,"station_id":"ce4bhbh2rcd13ifvqepg","pricing_plan_id":"cebpf4jnsgd1na2vs0mg"},{"bike_id":"9811d1f1-b7c1-4001-947e-47b77b72d19e","system_id":"levelo_inurba_marseille","lat":43.23199,"lon":5.35548,"is_reserved":false,"is_disabled":false,"rental_uris":{"android":"levelo://app?vid=9811d1f1-b7c1-4001-947e-47b77b72d19e","ios":"levelo://app?vid=9811d1f1-b7c1-4001-947e-47b77b72d19e"},"vehicle_type_id":"4","last_reported":1753363930,"current_range_meters":9200,"station_id":"ce4bhu92rcd13ifvqi70","pricing_plan_id":"cebpf4jnsgd1na2vs0mg"},{"bike_id":"509289db-31f1-4b2d-a4a7-9353a1fb0c77","system_id":"levelo_inurba_marseille","lat":43.2993,"lon":5.36551,"is_reserved":false,"is_disabled":false,"rental_uris":{"android":"levelo://app?vid=509289db-31f1-4b2d-a4a7-9353a1fb0c77","ios":"levelo://app?vid=509289db-31f1-4b2d-a4a7-9353a1fb0c77"},"vehicle_type_id":"4","last_reported":1753363930,"current_range_meters":9200,"station_id":"ce4bgm92rcd13ifvqbr0","pricing_plan_id":"cebpf4jnsgd1na2vs0mg"},{"bike_id":"b4aae9c2-4ca5-4027-b369-cf0d4c6f33b8","system_id":"levelo_inurba_marseille","lat":43.28262,"lon":5.35063,"is_reserved":false,"is_disabled":false,"rental_uris":{"android":"levelo://app?vid=b4aae9c2-4ca5-4027-b369-cf0d4c6f33b8","ios":"levelo://app?vid=b4aae9c2-4ca5-4027-b369-cf0d4c6f33b8"},"vehicle_type_id":"4","last_reported":1753363930,"current_range_meters":9200,"station_id":"ce4bhbp2rcd13ifvqerg","pricing_plan_id":"cebpf4jnsgd1na2vs0mg"},{"bike_id":"a631d94c-5c98-490a-a332-d5729c97e207","system_id":"levelo_inurba_marseille","lat":43.28929,"lon":5.36408,"is_reserved":false,"is_disabled":false,"rental_uris":{"android":"levelo://app?vid=a631d94c-5c98-490a-a332-d5729c97e207","ios":"levelo://app?vid=a631d94c-5c98-490a-a332-d5729c97e207"},"vehicle_type_id":"4","last_reported":1753363930,"current_range_meters":9600,"station_id":"ce4bhc92rcd13ifvqetg","pricing_plan_id":"cebpf4jnsgd1na2vs0mg"},{"bike_id":"7250624a-63df-4e44-9e5a-1056e5f8a90f","system_id":"levelo_inurba_marseille","lat":43.29273,"lon":5.40834,"is_reserved":false,"is_disabled":false,"rental_uris":{"android":"levelo://app?vid=7250624a-63df-4e44-9e5a-1056e5f8a90f","ios":"levelo://app?vid=7250624a-63df-4e44-9e5a-1056e5f8a90f"},"vehicle_type_id":"4","last_reported":1753363930,"current_range_meters":9600,"station_id":"","pricing_plan_id":"cebpf4jnsgd1na2vs0mg"},{"bike_id":"7b27bf0c-4574-48f3-bf17-30eb3bdf0210","system_id":"levelo_inurba_marseille","lat":43.30297,"lon":5.39229,"is_reserved":false,"is_disabled":false,"rental_uris":{"android":"levelo://app?vid=7b27bf0c-4574-48f3-bf17-30eb3bdf0210","ios":"levelo://app?vid=7b27bf0c-4574-48f3-bf17-30eb3bdf0210"},"vehicle_type_id":"4","last_reported":1753363930,"current_range_meters":9200,"station_id":"ce4bgkh2rcd13ifvqbk0","pricing_plan_id":"cebpf4jnsgd1na2vs0mg"},{"bike_id":"b982e5a3-88f5-4403-a53a-38d90073ed80","system_id":"levelo_inurba_marseille","lat":43.2943,"lon":5.43242,"is_reserved":false,"is_disabled":false,"rental_uris":{"android":"levelo://app?vid=b982e5a3-88f5-4403-a53a-38d90073ed80","ios":"levelo://app?vid=b982e5a3-88f5-4403-a53a-38d90073ed80"},"vehicle_type_id":"4","last_reported":1753363930,"current_range_meters":9600,"station_id":"","pricing_plan_id":"cebpf4jnsgd1na2vs0mg"},{"bike_id":"9f995f57-d64c-49da-9fe7-2d706f5329fd","system_id":"levelo_inurba_marseille","lat":43.25495,"lon":5.3765,"is_reserved":false,"is_disabled":false,"rental_uris":{"android":"levelo://app?vid=9f995f57-d64c-49da-9fe7-2d706f5329fd","ios":"levelo://app?vid=9f995f57-d64c-49da-9fe7-2d706f5329fd"},"vehicle_type_id":"4","last_reported":1753363930,"current_range_meters":9600,"station_id":"ce4bhh12rcd13ifvqff0","pricing_plan_id":"cebpf4jnsgd1na2vs0mg"},{"bike_id":"bbc2b271-396f-4875-9f1d-0fcc163d87b6","system_id":"levelo_inurba_marseille","lat":43.29079,"lon":5.39853,"is_reserved":false,"is_disabled":false,"rental_uris":{"android":"levelo://app?vid=bbc2b271-396f-4875-9f1d-0fcc163d87b6","ios":"levelo://app?vid=bbc2b271-396f-4875-9f1d-0fcc163d87b6"},"vehicle_type_id":"4","last_reported":1753363930,"current_range_meters":10000,"station_id":"","pricing_plan_id":"cebpf4jnsgd1na2vs0mg"},{"bike_id":"f3217e35-0bb5-43ab-beb0-dd5e233a7114","system_id":"levelo_inurba_marseille","lat":43.25578,"lon":5.382244,"is_reserved":false,"is_disabled":true,"rental_uris":{"android":"levelo://app?vid=f3217e35-0bb5-43ab-beb0-dd5e233a7114","ios":"levelo://app?vid=f3217e35-0bb5-43ab-beb0-dd5e233a7114"},"vehicle_type_id":"4","last_reported":1753363930,"current_range_meters":10000,"station_id":"ce4bhih2rcd13ifvqfs0","pricing_plan_id":"cebpf4jnsgd1na2vs0mg"},{"bike_id":"29b26611-b9b1-49e2-86c9-6939ae244779","system_id":"levelo_inurba_marseille","lat":43.30092,"lon":5.39076,"is_reserved":false,"is_disabled":false,"rental_uris":{"android":"levelo://app?vid=29b26611-b9b1-49e2-86c9-6939ae244779","ios":"levelo://app?vid=29b26611-b9b1-49e2-86c9-6939ae244779"},"vehicle_type_id":"4","last_reported":1753363930,"current_range_meters":10000,"station_id":"ce4bh192rcd13ifvqdb0","pricing_plan_id":"cebpf4jnsgd1na2vs0mg"},{"bike_id":"b5ce8d93-17c0-45a5-b2b1-eefce45c2d79","system_id":"levelo_inurba_marseille","lat":43.317963,"lon":5.435061,"is_reserved":false,"is_disabled":false,"rental_uris":{"android":"levelo://app?vid=b5ce8d93-17c0-45a5-b2b1-eefce45c2d79","ios":"levelo://app?vid=b5ce8d93-17c0-45a5-b2b1-eefce45c2d79"},"vehicle_type_id":"4","last_reported":1753363930,"current_range_meters":10800,"station_id":"","pricing_plan_id":"cebpf4jnsgd1na2vs0mg"},{"bike_id":"36750cab-9b72-45fa-99c2-66249376b81e","system_id":"levelo_inurba_marseille","lat":43.28418,"lon":5.34975,"is_reserved":false,"is_disabled":false,"rental_uris":{"android":"levelo://app?vid=36750cab-9b72-45fa-99c2-66249376b81e","ios":"levelo://app?vid=36750cab-9b72-45fa-99c2-66249376b81e"},"vehicle_type_id":"4","last_reported":1753363930,"current_range_meters":10800,"station_id":"ce4bhbh2rcd13ifvqepg","pricing_plan_id":"cebpf4jnsgd1na2vs0mg"},{"bike_id":"98f19bcd-44f3-40b8-8afc-8a7d36b1f51c","system_id":"levelo_inurba_marseille","lat":43.2621,"lon":5.37443,"is_reserved":false,"is_disabled":false,"rental_uris":{"android":"levelo://app?vid=98f19bcd-44f3-40b8-8afc-8a7d36b1f51c","ios":"levelo://app?vid=98f19bcd-44f3-40b8-8afc-8a7d36b1f51c"},"vehicle_type_id":"4","last_reported":1753363930,"current_range_meters":10800,"station_id":"ce4bhgp2rcd13ifvqfc0","pricing_plan_id":"cebpf4jnsgd1na2vs0mg"},{"bike_id":"1c685b15-ac88-442d-911f-58323e6a29e4","system_id":"levelo_inurba_marseille","lat":43.28608,"lon":5.37061,"is_reserved":false,"is_disabled":false,"rental_uris":{"android":"levelo://app?vid=1c685b15-ac88-442d-911f-58323e6a29e4","ios":"levelo://app?vid=1c685b15-ac88-442d-911f-58323e6a29e4"},"vehicle_type_id":"4","last_reported":1753363930,"current_range_meters":10800,"station_id":"ce4bht12rcd13ifvqi60","pricing_plan_id":"cebpf4jnsgd1na2vs0mg"},{"bike_id":"8ba4850e-5159-4b76-9655-d210a179797d","system_id":"levelo_inurba_marseille","lat":43.27998,"lon":5.40008,"is_reserved":false,"is_disabled":false,"rental_uris":{"android":"levelo://app?vid=8ba4850e-5159-4b76-9655-d210a179797d","ios":"levelo://app?vid=8ba4850e-5159-4b76-9655-d210a179797d"},"vehicle_type_id":"4","last_reported":1753363930,"current_range_meters":11200,"station_id":"ce4bho92rcd13ifvqh4g","pricing_plan_id":"cebpf4jnsgd1na2vs0mg"},{"bike_id":"eae09811-4613-4ea1-928a-110f69669da7","system_id":"levelo_inurba_marseille","lat":43.24185,"lon":5.39729,"is_reserved":false,"is_disabled":false,"rental_uris":{"android":"levelo://app?vid=eae09811-4613-4ea1-928a-110f69669da7","ios":"levelo://app?vid=eae09811-4613-4ea1-928a-110f69669da7"},"vehicle_type_id":"4","last_reported":1753363930,"current_range_meters":10800,"station_id":"ce4bhn12rcd13ifvqgpg","pricing_plan_id":"cebpf4jnsgd1na2vs0mg"},{"bike_id":"a492f476-7189-46fe-9e39-551e35f2b2bc","system_id":"levelo_inurba_marseille","lat":43.288545,"lon":5.358527,"is_reserved":false,"is_disabled":false,"rental_uris":{"android":"levelo://app?vid=a492f476-7189-46fe-9e39-551e35f2b2bc","ios":"levelo://app?vid=a492f476-7189-46fe-9e39-551e35f2b2bc"},"vehicle_type_id":"4","last_reported":1753363930,"current_range_meters":11200,"station_id":"","pricing_plan_id":"cebpf4jnsgd1na2vs0mg"},{"bike_id":"227ebdd1-a7ba-46a1-a5a6-95b41ef677e4","system_id":"levelo_inurba_marseille","lat":43.29192,"lon":5.35798,"is_reserved":false,"is_disabled":false,"rental_uris":{"android":"levelo://app?vid=227ebdd1-a7ba-46a1-a5a6-95b41ef677e4","ios":"levelo://app?vid=227ebdd1-a7ba-46a1-a5a6-95b41ef677e4"},"vehicle_type_id":"4","last_reported":1753363930,"current_range_meters":11200,"station_id":"ce4bhb12rcd13ifvqel0","pricing_plan_id":"cebpf4jnsgd1na2vs0mg"},{"bike_id":"cfe5918e-2c06-485f-97d3-cb6768f2a43f","system_id":"levelo_inurba_marseille","lat":43.23142,"lon":5.43717,"is_reserved":false,"is_disabled":false,"rental_uris":{"android":"levelo://app?vid=cfe5918e-2c06-485f-97d3-cb6768f2a43f","ios":"levelo://app?vid=cfe5918e-2c06-485f-97d3-cb6768f2a43f"},"vehicle_type_id":"4","last_reported":1753363930,"current_range_meters":11600,"station_id":"ce4bhmp2rcd13ifvqgog","pricing_plan_id":"cebpf4jnsgd1na2vs0mg"},{"bike_id":"ffac2e37-695b-4396-b423-b57e6dc35443","system_id":"levelo_inurba_marseille","lat":43.29012,"lon":5.38145,"is_reserved":false,"is_disabled":false,"rental_uris":{"android":"levelo://app?vid=ffac2e37-695b-4396-b423-b57e6dc35443","ios":"levelo://app?vid=ffac2e37-695b-4396-b423-b57e6dc35443"},"vehicle_type_id":"4","last_reported":1753363930,"current_range_meters":11600,"station_id":"ce4bh4p2rcd13ifvqe1g","pricing_plan_id":"cebpf4jnsgd1na2vs0mg"},{"bike_id":"6269848e-f186-419a-b115-d6724770023c","system_id":"levelo_inurba_marseille","lat":43.290092,"lon":5.356246,"is_reserved":false,"is_disabled":false,"rental_uris":{"android":"levelo://app?vid=6269848e-f186-419a-b115-d6724770023c","ios":"levelo://app?vid=6269848e-f186-419a-b115-d6724770023c"},"vehicle_type_id":"4","last_reported":1753363930,"current_range_meters":11600,"station_id":"","pricing_plan_id":"cebpf4jnsgd1na2vs0mg"},{"bike_id":"ae131367-d818-44a0-9e1d-4aa65dcdb16a","system_id":"levelo_inurba_marseille","lat":43.27527,"lon":5.39653,"is_reserved":false,"is_disabled":false,"rental_uris":{"android":"levelo://app?vid=ae131367-d818-44a0-9e1d-4aa65dcdb16a","ios":"levelo://app?vid=ae131367-d818-44a0-9e1d-4aa65dcdb16a"},"vehicle_type_id":"4","last_reported":1753363930,"current_range_meters":11600,"station_id":"","pricing_plan_id":"cebpf4jnsgd1na2vs0mg"},{"bike_id":"2c7273f9-bd1c-4d89-a0e2-01b3a62e8f4a","system_id":"levelo_inurba_marseille","lat":43.29027,"lon":5.39972,"is_reserved":false,"is_disabled":false,"rental_uris":{"android":"levelo://app?vid=2c7273f9-bd1c-4d89-a0e2-01b3a62e8f4a","ios":"levelo://app?vid=2c7273f9-bd1c-4d89-a0e2-01b3a62e8f4a"},"vehicle_type_id":"4","last_reported":1753363930,"current_range_meters":11200,"station_id":"ce4bh392rcd13ifvqdm0","pricing_plan_id":"cebpf4jnsgd1na2vs0mg"},{"bike_id":"bdec86af-8907-4b3c-b6e3-813eb3333dee","system_id":"levelo_inurba_marseille","lat":43.26917,"lon":5.40253,"is_reserved":false,"is_disabled":false,"rental_uris":{"android":"levelo://app?vid=bdec86af-8907-4b3c-b6e3-813eb3333dee","ios":"levelo://app?vid=bdec86af-8907-4b3c-b6e3-813eb3333dee"},"vehicle_type_id":"4","last_reported":1753363930,"current_range_meters":11200,"station_id":"cjm6bp8fraef2m0cb0m0","pricing_plan_id":"cebpf4jnsgd1na2vs0mg"},{"bike_id":"00c65a25-729f-4c5f-974b-5b0db9571c03","system_id":"levelo_inurba_marseille","lat":43.29784,"lon":5.37105,"is_reserved":false,"is_disabled":false,"rental_uris":{"android":"levelo://app?vid=00c65a25-729f-4c5f-974b-5b0db9571c03","ios":"levelo://app?vid=00c65a25-729f-4c5f-974b-5b0db9571c03"},"vehicle_type_id":"4","last_reported":1753363930,"current_range_meters":11600,"station_id":"ce4bgop2rcd13ifvqc1g","pricing_plan_id":"cebpf4jnsgd1na2vs0mg"},{"bike_id":"030f9ddc-f2fb-495f-a268-df8ab9b8fd68","system_id":"levelo_inurba_marseille","lat":43.26827,"lon":5.40235,"is_reserved":false,"is_disabled":false,"rental_uris":{"android":"levelo://app?vid=030f9ddc-f2fb-495f-a268-df8ab9b8fd68","ios":"levelo://app?vid=030f9ddc-f2fb-495f-a268-df8ab9b8fd68"},"vehicle_type_id":"4","last_reported":1753363930,"current_range_meters":11600,"station_id":"ce501612rcd8frsf0b60","pricing_plan_id":"cebpf4jnsgd1na2vs0mg"},{"bike_id":"910331e7-b811-47a9-a41b-cfe8a6113724","system_id":"levelo_inurba_marseille","lat":43.28437,"lon":5.39211,"is_reserved":false,"is_disabled":false,"rental_uris":{"android":"levelo://app?vid=910331e7-b811-47a9-a41b-cfe8a6113724","ios":"levelo://app?vid=910331e7-b811-47a9-a41b-cfe8a6113724"},"vehicle_type_id":"4","last_reported":1753363930,"current_range_meters":12000,"station_id":"ce4bhoh2rcd13ifvqh5g","pricing_plan_id":"cebpf4jnsgd1na2vs0mg"},{"bike_id":"3cd09fc8-9554-4236-8496-0931a7be09d1","system_id":"levelo_inurba_marseille","lat":43.21198,"lon":5.35075,"is_reserved":false,"is_disabled":false,"rental_uris":{"android":"levelo://app?vid=3cd09fc8-9554-4236-8496-0931a7be09d1","ios":"levelo://app?vid=3cd09fc8-9554-4236-8496-0931a7be09d1"},"vehicle_type_id":"4","last_reported":1753363930,"current_range_meters":12000,"station_id":"st_cvj6sg6p6f1abm77japg","pricing_plan_id":"cebpf4jnsgd1na2vs0mg"},{"bike_id":"b89d6267-55af-48a1-8887-3f0adc5ff195","system_id":"levelo_inurba_marseille","lat":43.301319,"lon":5.39874,"is_reserved":false,"is_disabled":false,"rental_uris":{"android":"levelo://app?vid=b89d6267-55af-48a1-8887-3f0adc5ff195","ios":"levelo://app?vid=b89d6267-55af-48a1-8887-3f0adc5ff195"},"vehicle_type_id":"4","last_reported":1753363930,"current_range_meters":12000,"station_id":"","pricing_plan_id":"cebpf4jnsgd1na2vs0mg"},{"bike_id":"e0619653-60a9-4d50-840a-e5cb642a4cc3","system_id":"levelo_inurba_marseille","lat":43.23175,"lon":5.40008,"is_reserved":false,"is_disabled":false,"rental_uris":{"android":"levelo://app?vid=e0619653-60a9-4d50-840a-e5cb642a4cc3","ios":"levelo://app?vid=e0619653-60a9-4d50-840a-e5cb642a4cc3"},"vehicle_type_id":"4","last_reported":1753363930,"current_range_meters":12000,"station_id":"ce4bhn12rcd13ifvqgqg","pricing_plan_id":"cebpf4jnsgd1na2vs0mg"},{"bike_id":"ae3eae3e-9d30-4d57-81e4-be567d150e6f","system_id":"levelo_inurba_marseille","lat":43.26227,"lon":5.40448,"is_reserved":false,"is_disabled":false,"rental_uris":{"android":"levelo://app?vid=ae3eae3e-9d30-4d57-81e4-be567d150e6f","ios":"levelo://app?vid=ae3eae3e-9d30-4d57-81e4-be567d150e6f"},"vehicle_type_id":"4","last_reported":1753363930,"current_range_meters":12000,"station_id":"ce4bhmh2rcd13ifvqgmg","pricing_plan_id":"cebpf4jnsgd1na2vs0mg"},{"bike_id":"6a79a396-2f47-4b1c-9dce-b0d5464f72e4","system_id":"levelo_inurba_marseille","lat":43.22925,"lon":5.35397,"is_reserved":false,"is_disabled":false,"rental_uris":{"android":"levelo://app?vid=6a79a396-2f47-4b1c-9dce-b0d5464f72e4","ios":"levelo://app?vid=6a79a396-2f47-4b1c-9dce-b0d5464f72e4"},"vehicle_type_id":"4","last_reported":1753363930,"current_range_meters":12000,"station_id":"cpo3532slgdg3j2ikp40","pricing_plan_id":"cebpf4jnsgd1na2vs0mg"},{"bike_id":"b8e8a607-67a1-47c6-8381-c247dc7d042e","system_id":"levelo_inurba_marseille","lat":43.337444,"lon":5.374475,"is_reserved":false,"is_disabled":false,"rental_uris":{"android":"levelo://app?vid=b8e8a607-67a1-47c6-8381-c247dc7d042e","ios":"levelo://app?vid=b8e8a607-67a1-47c6-8381-c247dc7d042e"},"vehicle_type_id":"4","last_reported":1753363930,"current_range_meters":12400,"station_id":"ce4bh192rcd13ifvqdc0","pricing_plan_id":"cebpf4jnsgd1na2vs0mg"},{"bike_id":"5ac85406-65d0-4336-aa89-4b04b2e6689e","system_id":"levelo_inurba_marseille","lat":43.332546,"lon":5.419825,"is_reserved":false,"is_disabled":false,"rental_uris":{"android":"levelo://app?vid=5ac85406-65d0-4336-aa89-4b04b2e6689e","ios":"levelo://app?vid=5ac85406-65d0-4336-aa89-4b04b2e6689e"},"vehicle_type_id":"4","last_reported":1753363930,"current_range_meters":12400,"station_id":"","pricing_plan_id":"cebpf4jnsgd1na2vs0mg"},{"bike_id":"c056311f-78c9-4e18-8685-91c659ddb125","system_id":"levelo_inurba_marseille","lat":43.31615,"lon":5.38961,"is_reserved":false,"is_disabled":false,"rental_uris":{"android":"levelo://app?vid=c056311f-78c9-4e18-8685-91c659ddb125","ios":"levelo://app?vid=c056311f-78c9-4e18-8685-91c659ddb125"},"vehicle_type_id":"4","last_reported":1753363930,"current_range_meters":12400,"station_id":"","pricing_plan_id":"cebpf4jnsgd1na2vs0mg"},{"bike_id":"ce59a62d-17ec-416f-b54d-751bd3f6f3dd","system_id":"levelo_inurba_marseille","lat":43.270666,"lon":5.422614,"is_reserved":false,"is_disabled":false,"rental_uris":{"android":"levelo://app?vid=ce59a62d-17ec-416f-b54d-751bd3f6f3dd","ios":"levelo://app?vid=ce59a62d-17ec-416f-b54d-751bd3f6f3dd"},"vehicle_type_id":"4","last_reported":1753363930,"current_range_meters":12400,"station_id":"ce4bhk92rcd13ifvqgb0","pricing_plan_id":"cebpf4jnsgd1na2vs0mg"},{"bike_id":"7eb56971-cc2a-443b-ae73-1422921f575b","system_id":"levelo_inurba_marseille","lat":43.29775,"lon":5.37105,"is_reserved":false,"is_disabled":false,"rental_uris":{"android":"levelo://app?vid=7eb56971-cc2a-443b-ae73-1422921f575b","ios":"levelo://app?vid=7eb56971-cc2a-443b-ae73-1422921f575b"},"vehicle_type_id":"4","last_reported":1753363930,"current_range_meters":12400,"station_id":"ce4bgop2rcd13ifvqc1g","pricing_plan_id":"cebpf4jnsgd1na2vs0mg"},{"bike_id":"2006d6ab-c619-4a15-b9f3-97c1160843f0","system_id":"levelo_inurba_marseille","lat":43.28164,"lon":5.36082,"is_reserved":false,"is_disabled":false,"rental_uris":{"android":"levelo://app?vid=2006d6ab-c619-4a15-b9f3-97c1160843f0","ios":"levelo://app?vid=2006d6ab-c619-4a15-b9f3-97c1160843f0"},"vehicle_type_id":"4","last_reported":1753363930,"current_range_meters":12400,"station_id":"","pricing_plan_id":"cebpf4jnsgd1na2vs0mg"},{"bike_id":"9eeeb1d9-e159-4ea3-8ea4-8475a81edd54","system_id":"levelo_inurba_marseille","lat":43.280389,"lon":5.369467,"is_reserved":false,"is_disabled":false,"rental_uris":{"android":"levelo://app?vid=9eeeb1d9-e159-4ea3-8ea4-8475a81edd54","ios":"levelo://app?vid=9eeeb1d9-e159-4ea3-8ea4-8475a81edd54"},"vehicle_type_id":"4","last_reported":1753363930,"current_range_meters":12400,"station_id":"ce4bha12rcd13ifvqef0","pricing_plan_id":"cebpf4jnsgd1na2vs0mg"},{"bike_id":"8638f8a9-c172-4d6f-ab26-cd564af98f15","system_id":"levelo_inurba_marseille","lat":43.23148,"lon":5.43706,"is_reserved":false,"is_disabled":false,"rental_uris":{"android":"levelo://app?vid=8638f8a9-c172-4d6f-ab26-cd564af98f15","ios":"levelo://app?vid=8638f8a9-c172-4d6f-ab26-cd564af98f15"},"vehicle_type_id":"4","last_reported":1753363930,"current_range_meters":12400,"station_id":"ce4bhmp2rcd13ifvqgog","pricing_plan_id":"cebpf4jnsgd1na2vs0mg"},{"bike_id":"75921511-23bf-408f-9470-1062209789d6","system_id":"levelo_inurba_marseille","lat":43.2558,"lon":5.38232,"is_reserved":false,"is_disabled":false,"rental_uris":{"android":"levelo://app?vid=75921511-23bf-408f-9470-1062209789d6","ios":"levelo://app?vid=75921511-23bf-408f-9470-1062209789d6"},"vehicle_type_id":"4","last_reported":1753363930,"current_range_meters":12800,"station_id":"ce4bhih2rcd13ifvqfs0","pricing_plan_id":"cebpf4jnsgd1na2vs0mg"},{"bike_id":"004e2614-09da-44b0-9d35-9f609bd1295f","system_id":"levelo_inurba_marseille","lat":43.29377,"lon":5.37851,"is_reserved":false,"is_disabled":false,"rental_uris":{"android":"levelo://app?vid=004e2614-09da-44b0-9d35-9f609bd1295f","ios":"levelo://app?vid=004e2614-09da-44b0-9d35-9f609bd1295f"},"vehicle_type_id":"4","last_reported":1753363930,"current_range_meters":12800,"station_id":"ce4bgjh2rcd13ifvqbf0","pricing_plan_id":"cebpf4jnsgd1na2vs0mg"},{"bike_id":"ce53b9e5-1a92-4c98-95ee-9c8918e29033","system_id":"levelo_inurba_marseille","lat":43.32476,"lon":5.36565,"is_reserved":false,"is_disabled":false,"rental_uris":{"android":"levelo://app?vid=ce53b9e5-1a92-4c98-95ee-9c8918e29033","ios":"levelo://app?vid=ce53b9e5-1a92-4c98-95ee-9c8918e29033"},"vehicle_type_id":"4","last_reported":1753363930,"current_range_meters":12800,"station_id":"ce4bhs12rcd13ifvqhvg","pricing_plan_id":"cebpf4jnsgd1na2vs0mg"},{"bike_id":"c3b7093a-c6fc-4872-a465-95918521be48","system_id":"levelo_inurba_marseille","lat":43.31494,"lon":5.37292,"is_reserved":false,"is_disabled":false,"rental_uris":{"android":"levelo://app?vid=c3b7093a-c6fc-4872-a465-95918521be48","ios":"levelo://app?vid=c3b7093a-c6fc-4872-a465-95918521be48"},"vehicle_type_id":"4","last_reported":1753363930,"current_range_meters":12800,"station_id":"ce4bgt12rcd13ifvqcd0","pricing_plan_id":"cebpf4jnsgd1na2vs0mg"},{"bike_id":"df523beb-6922-4411-8563-4ae0d6acfd5a","system_id":"levelo_inurba_marseille","lat":43.24077,"lon":5.37752,"is_reserved":false,"is_disabled":false,"rental_uris":{"android":"levelo://app?vid=df523beb-6922-4411-8563-4ae0d6acfd5a","ios":"levelo://app?vid=df523beb-6922-4411-8563-4ae0d6acfd5a"},"vehicle_type_id":"4","last_reported":1753363930,"current_range_meters":12800,"station_id":"ce4bhnp2rcd13ifvqgvg","pricing_plan_id":"cebpf4jnsgd1na2vs0mg"},{"bike_id":"effeb500-6e69-4888-a750-57ae7c962c80","system_id":"levelo_inurba_marseille","lat":43.32376,"lon":5.36772,"is_reserved":false,"is_disabled":false,"rental_uris":{"android":"levelo://app?vid=effeb500-6e69-4888-a750-57ae7c962c80","ios":"levelo://app?vid=effeb500-6e69-4888-a750-57ae7c962c80"},"vehicle_type_id":"4","last_reported":1753363930,"current_range_meters":12800,"station_id":"ce4bhsh2rcd13ifvqi2g","pricing_plan_id":"cebpf4jnsgd1na2vs0mg"},{"bike_id":"6bb1f31c-9335-4f39-9585-31374a4775f9","system_id":"levelo_inurba_marseille","lat":43.325583,"lon":5.379059,"is_reserved":false,"is_disabled":false,"rental_uris":{"android":"levelo://app?vid=6bb1f31c-9335-4f39-9585-31374a4775f9","ios":"levelo://app?vid=6bb1f31c-9335-4f39-9585-31374a4775f9"},"vehicle_type_id":"4","last_reported":1753363930,"current_range_meters":12800,"station_id":"","pricing_plan_id":"cebpf4jnsgd1na2vs0mg"},{"bike_id":"c5de8f71-b38f-4bb5-b804-bf684958ffd7","system_id":"levelo_inurba_marseille","lat":43.27944,"lon":5.41035,"is_reserved":false,"is_disabled":false,"rental_uris":{"android":"levelo://app?vid=c5de8f71-b38f-4bb5-b804-bf684958ffd7","ios":"levelo://app?vid=c5de8f71-b38f-4bb5-b804-bf684958ffd7"},"vehicle_type_id":"4","last_reported":1753363930,"current_range_meters":13600,"station_id":"ce4bhnp2rcd13ifvqh0g","pricing_plan_id":"cebpf4jnsgd1na2vs0mg"},{"bike_id":"74c2099d-a1b1-4c4d-b370-5f2d22f180f3","system_id":"levelo_inurba_marseille","lat":43.240722,"lon":5.377196,"is_reserved":false,"is_disabled":false,"rental_uris":{"android":"levelo://app?vid=74c2099d-a1b1-4c4d-b370-5f2d22f180f3","ios":"levelo://app?vid=74c2099d-a1b1-4c4d-b370-5f2d22f180f3"},"vehicle_type_id":"4","last_reported":1753363930,"current_range_meters":13600,"station_id":"ce4bhnp2rcd13ifvqgvg","pricing_plan_id":"cebpf4jnsgd1na2vs0mg"},{"bike_id":"18b86593-4f21-41ed-81b3-f3a5b378dc91","system_id":"levelo_inurba_marseille","lat":43.31212,"lon":5.38122,"is_reserved":false,"is_disabled":false,"rental_uris":{"android":"levelo://app?vid=18b86593-4f21-41ed-81b3-f3a5b378dc91","ios":"levelo://app?vid=18b86593-4f21-41ed-81b3-f3a5b378dc91"},"vehicle_type_id":"4","last_reported":1753363930,"current_range_meters":13600,"station_id":"","pricing_plan_id":"cebpf4jnsgd1na2vs0mg"},{"bike_id":"cdf4db56-db87-4f88-a25d-36c985f9a64d","system_id":"levelo_inurba_marseille","lat":43.26056,"lon":5.39397,"is_reserved":false,"is_disabled":false,"rental_uris":{"android":"levelo://app?vid=cdf4db56-db87-4f88-a25d-36c985f9a64d","ios":"levelo://app?vid=cdf4db56-db87-4f88-a25d-36c985f9a64d"},"vehicle_type_id":"4","last_reported":1753363930,"current_range_meters":13600,"station_id":"ce4bhh92rcd13ifvqfj0","pricing_plan_id":"cebpf4jnsgd1na2vs0mg"},{"bike_id":"67e6c277-a142-495a-a2a9-0aeb243846d8","system_id":"levelo_inurba_marseille","lat":43.26193,"lon":5.37453,"is_reserved":false,"is_disabled":false,"rental_uris":{"android":"levelo://app?vid=67e6c277-a142-495a-a2a9-0aeb243846d8","ios":"levelo://app?vid=67e6c277-a142-495a-a2a9-0aeb243846d8"},"vehicle_type_id":"4","last_reported":1753363930,"current_range_meters":13600,"station_id":"ce4bhgp2rcd13ifvqfc0","pricing_plan_id":"cebpf4jnsgd1na2vs0mg"},{"bike_id":"cf7b0671-fb94-4201-8e7b-d09f1ced3c64","system_id":"levelo_inurba_marseille","lat":43.30536,"lon":5.3668,"is_reserved":false,"is_disabled":false,"rental_uris":{"android":"levelo://app?vid=cf7b0671-fb94-4201-8e7b-d09f1ced3c64","ios":"levelo://app?vid=cf7b0671-fb94-4201-8e7b-d09f1ced3c64"},"vehicle_type_id":"4","last_reported":1753363930,"current_range_meters":13600,"station_id":"ce4bgrp2rcd13ifvqc9g","pricing_plan_id":"cebpf4jnsgd1na2vs0mg"},{"bike_id":"9895e2eb-7bb1-4ca2-98ab-08583f99b87d","system_id":"levelo_inurba_marseille","lat":43.28414,"lon":5.349897,"is_reserved":false,"is_disabled":false,"rental_uris":{"android":"levelo://app?vid=9895e2eb-7bb1-4ca2-98ab-08583f99b87d","ios":"levelo://app?vid=9895e2eb-7bb1-4ca2-98ab-08583f99b87d"},"vehicle_type_id":"4","last_reported":1753363930,"current_range_meters":13600,"station_id":"ce4bhbh2rcd13ifvqepg","pricing_plan_id":"cebpf4jnsgd1na2vs0mg"},{"bike_id":"5254d746-bf2c-4042-b956-76a940639ba4","system_id":"levelo_inurba_marseille","lat":43.313573,"lon":5.367137,"is_reserved":false,"is_disabled":false,"rental_uris":{"android":"levelo://app?vid=5254d746-bf2c-4042-b956-76a940639ba4","ios":"levelo://app?vid=5254d746-bf2c-4042-b956-76a940639ba4"},"vehicle_type_id":"4","last_reported":1753363930,"current_range_meters":13600,"station_id":"ce4bgr92rcd13ifvqc6g","pricing_plan_id":"cebpf4jnsgd1na2vs0mg"},{"bike_id":"fd38c439-e008-45e7-be4d-c2f854144191","system_id":"levelo_inurba_marseille","lat":43.30796,"lon":5.38165,"is_reserved":false,"is_disabled":false,"rental_uris":{"android":"levelo://app?vid=fd38c439-e008-45e7-be4d-c2f854144191","ios":"levelo://app?vid=fd38c439-e008-45e7-be4d-c2f854144191"},"vehicle_type_id":"4","last_reported":1753363930,"current_range_meters":12800,"station_id":"ce4bgt12rcd13ifvqce0","pricing_plan_id":"cebpf4jnsgd1na2vs0mg"},{"bike_id":"c00b83a8-4f2c-4e85-95f9-ce11c6ae3a83","system_id":"levelo_inurba_marseille","lat":43.28932,"lon":5.36624,"is_reserved":false,"is_disabled":false,"rental_uris":{"android":"levelo://app?vid=c00b83a8-4f2c-4e85-95f9-ce11c6ae3a83","ios":"levelo://app?vid=c00b83a8-4f2c-4e85-95f9-ce11c6ae3a83"},"vehicle_type_id":"4","last_reported":1753363930,"current_range_meters":14000,"station_id":"ce4bhap2rcd13ifvqek0","pricing_plan_id":"cebpf4jnsgd1na2vs0mg"},{"bike_id":"3c5af6d0-910f-4152-bb01-15232620e629","system_id":"levelo_inurba_marseille","lat":43.30276,"lon":5.376994,"is_reserved":false,"is_disabled":false,"rental_uris":{"android":"levelo://app?vid=3c5af6d0-910f-4152-bb01-15232620e629","ios":"levelo://app?vid=3c5af6d0-910f-4152-bb01-15232620e629"},"vehicle_type_id":"4","last_reported":1753363930,"current_range_meters":14000,"station_id":"ce4bguh2rcd13ifvqcj0","pricing_plan_id":"cebpf4jnsgd1na2vs0mg"},{"bike_id":"1ad257b5-7f83-42c1-867f-92635ff1abbf","system_id":"levelo_inurba_marseille","lat":43.22928,"lon":5.35362,"is_reserved":false,"is_disabled":false,"rental_uris":{"android":"levelo://app?vid=1ad257b5-7f83-42c1-867f-92635ff1abbf","ios":"levelo://app?vid=1ad257b5-7f83-42c1-867f-92635ff1abbf"},"vehicle_type_id":"4","last_reported":1753363930,"current_range_meters":14000,"station_id":"cpo3532slgdg3j2ikp40","pricing_plan_id":"cebpf4jnsgd1na2vs0mg"},{"bike_id":"f4bc89ed-241d-4eca-b46f-4a676df87af3","system_id":"levelo_inurba_marseille","lat":43.30881,"lon":5.39645,"is_reserved":false,"is_disabled":false,"rental_uris":{"android":"levelo://app?vid=f4bc89ed-241d-4eca-b46f-4a676df87af3","ios":"levelo://app?vid=f4bc89ed-241d-4eca-b46f-4a676df87af3"},"vehicle_type_id":"4","last_reported":1753363930,"current_range_meters":14000,"station_id":"ce4bh012rcd13ifvqcv0","pricing_plan_id":"cebpf4jnsgd1na2vs0mg"},{"bike_id":"ba63d805-3afa-4c53-9c02-4dc49afe59de","system_id":"levelo_inurba_marseille","lat":43.29615,"lon":5.37145,"is_reserved":false,"is_disabled":false,"rental_uris":{"android":"levelo://app?vid=ba63d805-3afa-4c53-9c02-4dc49afe59de","ios":"levelo://app?vid=ba63d805-3afa-4c53-9c02-4dc49afe59de"},"vehicle_type_id":"4","last_reported":1753363930,"current_range_meters":14400,"station_id":"ce4bgnh2rcd13ifvqc0g","pricing_plan_id":"cebpf4jnsgd1na2vs0mg"},{"bike_id":"77be17ea-a677-46d6-a392-fbc6761621fc","system_id":"levelo_inurba_marseille","lat":43.30863,"lon":5.3964,"is_reserved":false,"is_disabled":false,"rental_uris":{"android":"levelo://app?vid=77be17ea-a677-46d6-a392-fbc6761621fc","ios":"levelo://app?vid=77be17ea-a677-46d6-a392-fbc6761621fc"},"vehicle_type_id":"4","last_reported":1753363930,"current_range_meters":14400,"station_id":"ce4bh012rcd13ifvqcv0","pricing_plan_id":"cebpf4jnsgd1na2vs0mg"},{"bike_id":"5bf271e9-b85e-4ede-9d32-02d7c28374e7","system_id":"levelo_inurba_marseille","lat":43.32489,"lon":5.36567,"is_reserved":false,"is_disabled":false,"rental_uris":{"android":"levelo://app?vid=5bf271e9-b85e-4ede-9d32-02d7c28374e7","ios":"levelo://app?vid=5bf271e9-b85e-4ede-9d32-02d7c28374e7"},"vehicle_type_id":"4","last_reported":1753363930,"current_range_meters":14400,"station_id":"ce4bhs12rcd13ifvqhvg","pricing_plan_id":"cebpf4jnsgd1na2vs0mg"},{"bike_id":"76c65f84-3b49-4269-890c-8259fe6ade74","system_id":"levelo_inurba_marseille","lat":43.323707,"lon":5.367718,"is_reserved":false,"is_disabled":false,"rental_uris":{"android":"levelo://app?vid=76c65f84-3b49-4269-890c-8259fe6ade74","ios":"levelo://app?vid=76c65f84-3b49-4269-890c-8259fe6ade74"},"vehicle_type_id":"4","last_reported":1753363930,"current_range_meters":14400,"station_id":"ce4bhsh2rcd13ifvqi2g","pricing_plan_id":"cebpf4jnsgd1na2vs0mg"},{"bike_id":"f0791249-f11a-4a88-95cc-a2481904db21","system_id":"levelo_inurba_marseille","lat":43.27562,"lon":5.384295,"is_reserved":false,"is_disabled":false,"rental_uris":{"android":"levelo://app?vid=f0791249-f11a-4a88-95cc-a2481904db21","ios":"levelo://app?vid=f0791249-f11a-4a88-95cc-a2481904db21"},"vehicle_type_id":"4","last_reported":1753363930,"current_range_meters":14800,"station_id":"ce4bhh92rcd13ifvqfi0","pricing_plan_id":"cebpf4jnsgd1na2vs0mg"},{"bike_id":"28a0655a-8ccc-4331-a21c-cb6b1e0d600d","system_id":"levelo_inurba_marseille","lat":43.28608,"lon":5.37059,"is_reserved":false,"is_disabled":false,"rental_uris":{"android":"levelo://app?vid=28a0655a-8ccc-4331-a21c-cb6b1e0d600d","ios":"levelo://app?vid=28a0655a-8ccc-4331-a21c-cb6b1e0d600d"},"vehicle_type_id":"4","last_reported":1753363930,"current_range_meters":14800,"station_id":"ce4bht12rcd13ifvqi60","pricing_plan_id":"cebpf4jnsgd1na2vs0mg"},{"bike_id":"d67f5e1b-ff7f-41d9-a16a-4b73321e5305","system_id":"levelo_inurba_marseille","lat":43.29644,"lon":5.37184,"is_reserved":false,"is_disabled":false,"rental_uris":{"android":"levelo://app?vid=d67f5e1b-ff7f-41d9-a16a-4b73321e5305","ios":"levelo://app?vid=d67f5e1b-ff7f-41d9-a16a-4b73321e5305"},"vehicle_type_id":"4","last_reported":1753363930,"current_range_meters":14800,"station_id":"ce4bgnh2rcd13ifvqc0g","pricing_plan_id":"cebpf4jnsgd1na2vs0mg"},{"bike_id":"9437277c-d886-4a0b-9535-11724bd91051","system_id":"levelo_inurba_marseille","lat":43.27103,"lon":5.42283,"is_reserved":false,"is_disabled":false,"rental_uris":{"android":"levelo://app?vid=9437277c-d886-4a0b-9535-11724bd91051","ios":"levelo://app?vid=9437277c-d886-4a0b-9535-11724bd91051"},"vehicle_type_id":"4","last_reported":1753363930,"current_range_meters":14800,"station_id":"ce4bhk92rcd13ifvqgb0","pricing_plan_id":"cebpf4jnsgd1na2vs0mg"},{"bike_id":"3f476ea6-1076-4d17-b694-4fd18686733b","system_id":"levelo_inurba_marseille","lat":43.27376,"lon":5.3625,"is_reserved":false,"is_disabled":false,"rental_uris":{"android":"levelo://app?vid=3f476ea6-1076-4d17-b694-4fd18686733b","ios":"levelo://app?vid=3f476ea6-1076-4d17-b694-4fd18686733b"},"vehicle_type_id":"4","last_reported":1753363930,"current_range_meters":15200,"station_id":"ce4bhbh2rcd13ifvqeo0","pricing_plan_id":"cebpf4jnsgd1na2vs0mg"},{"bike_id":"4b8efed3-9e53-47c8-bfa4-f1fb0beb03b1","system_id":"levelo_inurba_marseille","lat":43.29594,"lon":5.36736,"is_reserved":false,"is_disabled":false,"rental_uris":{"android":"levelo://app?vid=4b8efed3-9e53-47c8-bfa4-f1fb0beb03b1","ios":"levelo://app?vid=4b8efed3-9e53-47c8-bfa4-f1fb0beb03b1"},"vehicle_type_id":"4","last_reported":1753363930,"current_range_meters":15200,"station_id":"ce4bgph2rcd13ifvqc2g","pricing_plan_id":"cebpf4jnsgd1na2vs0mg"},{"bike_id":"eaea15aa-98ae-4f78-b37a-80e2e4524837","system_id":"levelo_inurba_marseille","lat":43.297916,"lon":5.381026,"is_reserved":false,"is_disabled":false,"rental_uris":{"android":"levelo://app?vid=eaea15aa-98ae-4f78-b37a-80e2e4524837","ios":"levelo://app?vid=eaea15aa-98ae-4f78-b37a-80e2e4524837"},"vehicle_type_id":"4","last_reported":1753363930,"current_range_meters":15200,"station_id":"","pricing_plan_id":"cebpf4jnsgd1na2vs0mg"},{"bike_id":"5f824980-27aa-4ef2-856d-b766bebead8a","system_id":"levelo_inurba_marseille","lat":43.22507,"lon":5.34767,"is_reserved":false,"is_disabled":false,"rental_uris":{"android":"levelo://app?vid=5f824980-27aa-4ef2-856d-b766bebead8a","ios":"levelo://app?vid=5f824980-27aa-4ef2-856d-b766bebead8a"},"vehicle_type_id":"4","last_reported":1753363930,"current_range_meters":15200,"station_id":"st_cvj5dfep6f1abm77gieg","pricing_plan_id":"cebpf4jnsgd1na2vs0mg"},{"bike_id":"f640c3f3-c77f-44da-86f2-0ad487426311","system_id":"levelo_inurba_marseille","lat":43.21195,"lon":5.35068,"is_reserved":false,"is_disabled":false,"rental_uris":{"android":"levelo://app?vid=f640c3f3-c77f-44da-86f2-0ad487426311","ios":"levelo://app?vid=f640c3f3-c77f-44da-86f2-0ad487426311"},"vehicle_type_id":"4","last_reported":1753363930,"current_range_meters":15200,"station_id":"st_cvj6sg6p6f1abm77japg","pricing_plan_id":"cebpf4jnsgd1na2vs0mg"},{"bike_id":"48d60618-c72b-4f12-a1c1-38b70c06ceaf","system_id":"levelo_inurba_marseille","lat":43.337444,"lon":5.374475,"is_reserved":false,"is_disabled":false,"rental_uris":{"android":"levelo://app?vid=48d60618-c72b-4f12-a1c1-38b70c06ceaf","ios":"levelo://app?vid=48d60618-c72b-4f12-a1c1-38b70c06ceaf"},"vehicle_type_id":"4","last_reported":1753363930,"current_range_meters":15200,"station_id":"ce4bgvp2rcd13ifvqct0","pricing_plan_id":"cebpf4jnsgd1na2vs0mg"},{"bike_id":"de993af1-8c6e-4fcd-aa11-3cbf2991a890","system_id":"levelo_inurba_marseille","lat":43.23192,"lon":5.35552,"is_reserved":false,"is_disabled":false,"rental_uris":{"android":"levelo://app?vid=de993af1-8c6e-4fcd-aa11-3cbf2991a890","ios":"levelo://app?vid=de993af1-8c6e-4fcd-aa11-3cbf2991a890"},"vehicle_type_id":"4","last_reported":1753363930,"current_range_meters":15200,"station_id":"ce4bhu92rcd13ifvqi70","pricing_plan_id":"cebpf4jnsgd1na2vs0mg"},{"bike_id":"81df7d6f-832b-40f6-ad7c-3d213cee8b09","system_id":"levelo_inurba_marseille","lat":43.24081,"lon":5.37758,"is_reserved":false,"is_disabled":false,"rental_uris":{"android":"levelo://app?vid=81df7d6f-832b-40f6-ad7c-3d213cee8b09","ios":"levelo://app?vid=81df7d6f-832b-40f6-ad7c-3d213cee8b09"},"vehicle_type_id":"4","last_reported":1753363930,"current_range_meters":16000,"station_id":"ce4bhnp2rcd13ifvqgvg","pricing_plan_id":"cebpf4jnsgd1na2vs0mg"},{"bike_id":"07ad1cfe-169a-424c-b515-ecacc24be1ff","system_id":"levelo_inurba_marseille","lat":43.29786,"lon":5.39346,"is_reserved":false,"is_disabled":false,"rental_uris":{"android":"levelo://app?vid=07ad1cfe-169a-424c-b515-ecacc24be1ff","ios":"levelo://app?vid=07ad1cfe-169a-424c-b515-ecacc24be1ff"},"vehicle_type_id":"4","last_reported":1753363930,"current_range_meters":16000,"station_id":"chh1huq6cuj3fo74tm60","pricing_plan_id":"cebpf4jnsgd1na2vs0mg"},{"bike_id":"e3b83ea5-18d9-4fa9-b42f-b96d8620334a","system_id":"levelo_inurba_marseille","lat":43.31514,"lon":5.37272,"is_reserved":false,"is_disabled":false,"rental_uris":{"android":"levelo://app?vid=e3b83ea5-18d9-4fa9-b42f-b96d8620334a","ios":"levelo://app?vid=e3b83ea5-18d9-4fa9-b42f-b96d8620334a"},"vehicle_type_id":"4","last_reported":1753363930,"current_range_meters":16000,"station_id":"ce4bgt12rcd13ifvqcd0","pricing_plan_id":"cebpf4jnsgd1na2vs0mg"},{"bike_id":"819bb1b6-06bc-4eb2-b94e-4388d87b087b","system_id":"levelo_inurba_marseille","lat":43.297159,"lon":5.36609,"is_reserved":false,"is_disabled":false,"rental_uris":{"android":"levelo://app?vid=819bb1b6-06bc-4eb2-b94e-4388d87b087b","ios":"levelo://app?vid=819bb1b6-06bc-4eb2-b94e-4388d87b087b"},"vehicle_type_id":"4","last_reported":1753363930,"current_range_meters":16000,"station_id":"ce4bgn12rcd13ifvqbt0","pricing_plan_id":"cebpf4jnsgd1na2vs0mg"},{"bike_id":"66b7c8f1-fa5c-4176-9a72-87f1afd7a6b4","system_id":"levelo_inurba_marseille","lat":43.26505,"lon":5.39538,"is_reserved":false,"is_disabled":false,"rental_uris":{"android":"levelo://app?vid=66b7c8f1-fa5c-4176-9a72-87f1afd7a6b4","ios":"levelo://app?vid=66b7c8f1-fa5c-4176-9a72-87f1afd7a6b4"},"vehicle_type_id":"4","last_reported":1753363930,"current_range_meters":16000,"station_id":"ce4bhi12rcd13ifvqfq0","pricing_plan_id":"cebpf4jnsgd1na2vs0mg"},{"bike_id":"f7f07796-c7c9-4a74-80e9-fb85744448b8","system_id":"levelo_inurba_marseille","lat":43.22909,"lon":5.35369,"is_reserved":false,"is_disabled":false,"rental_uris":{"android":"levelo://app?vid=f7f07796-c7c9-4a74-80e9-fb85744448b8","ios":"levelo://app?vid=f7f07796-c7c9-4a74-80e9-fb85744448b8"},"vehicle_type_id":"4","last_reported":1753363930,"current_range_meters":16000,"station_id":"cpo3532slgdg3j2ikp40","pricing_plan_id":"cebpf4jnsgd1na2vs0mg"},{"bike_id":"35a86048-76dd-4de0-afb2-7da8772fad44","system_id":"levelo_inurba_marseille","lat":43.21544,"lon":5.34752,"is_reserved":false,"is_disabled":false,"rental_uris":{"android":"levelo://app?vid=35a86048-76dd-4de0-afb2-7da8772fad44","ios":"levelo://app?vid=35a86048-76dd-4de0-afb2-7da8772fad44"},"vehicle_type_id":"4","last_reported":1753363930,"current_range_meters":16000,"station_id":"","pricing_plan_id":"cebpf4jnsgd1na2vs0mg"},{"bike_id":"27b5acbc-b1fd-4385-9be5-bae49e9e4f6a","system_id":"levelo_inurba_marseille","lat":43.24804,"lon":5.37451,"is_reserved":false,"is_disabled":false,"rental_uris":{"android":"levelo://app?vid=27b5acbc-b1fd-4385-9be5-bae49e9e4f6a","ios":"levelo://app?vid=27b5acbc-b1fd-4385-9be5-bae49e9e4f6a"},"vehicle_type_id":"4","last_reported":1753363930,"current_range_meters":16000,"station_id":"ce4bhgh2rcd13ifvqfb0","pricing_plan_id":"cebpf4jnsgd1na2vs0mg"},{"bike_id":"fbda76a5-068e-4d90-b9ba-25721acd9298","system_id":"levelo_inurba_marseille","lat":43.28997,"lon":5.44004,"is_reserved":false,"is_disabled":false,"rental_uris":{"android":"levelo://app?vid=fbda76a5-068e-4d90-b9ba-25721acd9298","ios":"levelo://app?vid=fbda76a5-068e-4d90-b9ba-25721acd9298"},"vehicle_type_id":"4","last_reported":1753363930,"current_range_meters":16400,"station_id":"","pricing_plan_id":"cebpf4jnsgd1na2vs0mg"},{"bike_id":"1f39eb17-34c7-4235-9069-0f68f613789c","system_id":"levelo_inurba_marseille","lat":43.26886,"lon":5.36871,"is_reserved":false,"is_disabled":false,"rental_uris":{"android":"levelo://app?vid=1f39eb17-34c7-4235-9069-0f68f613789c","ios":"levelo://app?vid=1f39eb17-34c7-4235-9069-0f68f613789c"},"vehicle_type_id":"4","last_reported":1753363930,"current_range_meters":16400,"station_id":"","pricing_plan_id":"cebpf4jnsgd1na2vs0mg"},{"bike_id":"855d7ac7-1044-44ad-b7dd-0ec3d8826db4","system_id":"levelo_inurba_marseille","lat":43.2993,"lon":5.36553,"is_reserved":false,"is_disabled":false,"rental_uris":{"android":"levelo://app?vid=855d7ac7-1044-44ad-b7dd-0ec3d8826db4","ios":"levelo://app?vid=855d7ac7-1044-44ad-b7dd-0ec3d8826db4"},"vehicle_type_id":"4","last_reported":1753363930,"current_range_meters":16400,"station_id":"ce4bgm92rcd13ifvqbr0","pricing_plan_id":"cebpf4jnsgd1na2vs0mg"},{"bike_id":"28e40dcb-4537-490d-8add-abce88893819","system_id":"levelo_inurba_marseille","lat":43.2958,"lon":5.36744,"is_reserved":false,"is_disabled":false,"rental_uris":{"android":"levelo://app?vid=28e40dcb-4537-490d-8add-abce88893819","ios":"levelo://app?vid=28e40dcb-4537-490d-8add-abce88893819"},"vehicle_type_id":"4","last_reported":1753363930,"current_range_meters":16400,"station_id":"ce4bgph2rcd13ifvqc2g","pricing_plan_id":"cebpf4jnsgd1na2vs0mg"},{"bike_id":"f6d45704-875b-4204-b745-8e5786541bb6","system_id":"levelo_inurba_marseille","lat":43.30182,"lon":5.36614,"is_reserved":false,"is_disabled":false,"rental_uris":{"android":"levelo://app?vid=f6d45704-875b-4204-b745-8e5786541bb6","ios":"levelo://app?vid=f6d45704-875b-4204-b745-8e5786541bb6"},"vehicle_type_id":"4","last_reported":1753363930,"current_range_meters":16400,"station_id":"ce4bgrh2rcd13ifvqc8g","pricing_plan_id":"cebpf4jnsgd1na2vs0mg"},{"bike_id":"a240b5f3-8652-4420-8b59-5e762273ab3c","system_id":"levelo_inurba_marseille","lat":43.30946,"lon":5.39025,"is_reserved":false,"is_disabled":false,"rental_uris":{"android":"levelo://app?vid=a240b5f3-8652-4420-8b59-5e762273ab3c","ios":"levelo://app?vid=a240b5f3-8652-4420-8b59-5e762273ab3c"},"vehicle_type_id":"4","last_reported":1753363930,"current_range_meters":16400,"station_id":"ce4bgup2rcd13ifvqco0","pricing_plan_id":"cebpf4jnsgd1na2vs0mg"},{"bike_id":"5cc79cad-ddd8-405c-b9fe-aa1994994947","system_id":"levelo_inurba_marseille","lat":43.264947,"lon":5.395413,"is_reserved":false,"is_disabled":false,"rental_uris":{"android":"levelo://app?vid=5cc79cad-ddd8-405c-b9fe-aa1994994947","ios":"levelo://app?vid=5cc79cad-ddd8-405c-b9fe-aa1994994947"},"vehicle_type_id":"4","last_reported":1753363930,"current_range_meters":16400,"station_id":"ce4bhi12rcd13ifvqfq0","pricing_plan_id":"cebpf4jnsgd1na2vs0mg"},{"bike_id":"18e996d8-ee07-40b4-b0c7-20b125058a5e","system_id":"levelo_inurba_marseille","lat":43.30645,"lon":5.40108,"is_reserved":false,"is_disabled":false,"rental_uris":{"android":"levelo://app?vid=18e996d8-ee07-40b4-b0c7-20b125058a5e","ios":"levelo://app?vid=18e996d8-ee07-40b4-b0c7-20b125058a5e"},"vehicle_type_id":"4","last_reported":1753363930,"current_range_meters":16000,"station_id":"ce4bh112rcd13ifvqda0","pricing_plan_id":"cebpf4jnsgd1na2vs0mg"},{"bike_id":"e401289a-83cf-4377-aa07-419b9b37079e","system_id":"levelo_inurba_marseille","lat":43.23068,"lon":5.354879,"is_reserved":false,"is_disabled":false,"rental_uris":{"android":"levelo://app?vid=e401289a-83cf-4377-aa07-419b9b37079e","ios":"levelo://app?vid=e401289a-83cf-4377-aa07-419b9b37079e"},"vehicle_type_id":"4","last_reported":1753363930,"current_range_meters":16400,"station_id":"cpo3342slgdg3j2ifvpg","pricing_plan_id":"cebpf4jnsgd1na2vs0mg"},{"bike_id":"df52031d-f6ba-4af3-a318-cddaa787b97a","system_id":"levelo_inurba_marseille","lat":43.27077,"lon":5.40247,"is_reserved":false,"is_disabled":false,"rental_uris":{"android":"levelo://app?vid=df52031d-f6ba-4af3-a318-cddaa787b97a","ios":"levelo://app?vid=df52031d-f6ba-4af3-a318-cddaa787b97a"},"vehicle_type_id":"4","last_reported":1753363930,"current_range_meters":16400,"station_id":"ce4bhk92rcd13ifvqgc0","pricing_plan_id":"cebpf4jnsgd1na2vs0mg"},{"bike_id":"c6aa9af9-9a2d-4c74-a251-ede8df9515d7","system_id":"levelo_inurba_marseille","lat":43.312382,"lon":5.368742,"is_reserved":false,"is_disabled":false,"rental_uris":{"android":"levelo://app?vid=c6aa9af9-9a2d-4c74-a251-ede8df9515d7","ios":"levelo://app?vid=c6aa9af9-9a2d-4c74-a251-ede8df9515d7"},"vehicle_type_id":"4","last_reported":1753363930,"current_range_meters":16400,"station_id":"ce4bgl92rcd13ifvqbq0","pricing_plan_id":"cebpf4jnsgd1na2vs0mg"},{"bike_id":"d28330b7-3532-465d-9f05-ec0f80256bad","system_id":"levelo_inurba_marseille","lat":43.28349,"lon":5.38646,"is_reserved":false,"is_disabled":false,"rental_uris":{"android":"levelo://app?vid=d28330b7-3532-465d-9f05-ec0f80256bad","ios":"levelo://app?vid=d28330b7-3532-465d-9f05-ec0f80256bad"},"vehicle_type_id":"4","last_reported":1753363930,"current_range_meters":16800,"station_id":"ce4bh492rcd13ifvqdvg","pricing_plan_id":"cebpf4jnsgd1na2vs0mg"},{"bike_id":"72395ef7-f2d0-4336-a74d-d88b6ab9722b","system_id":"levelo_inurba_marseille","lat":43.2758,"lon":5.36071,"is_reserved":false,"is_disabled":false,"rental_uris":{"android":"levelo://app?vid=72395ef7-f2d0-4336-a74d-d88b6ab9722b","ios":"levelo://app?vid=72395ef7-f2d0-4336-a74d-d88b6ab9722b"},"vehicle_type_id":"4","last_reported":1753363930,"current_range_meters":16800,"station_id":"ce4bgj92rcd13ifvqbe0","pricing_plan_id":"cebpf4jnsgd1na2vs0mg"},{"bike_id":"cd46d7a3-2aff-40e0-9e50-73919cfa0e11","system_id":"levelo_inurba_marseille","lat":43.273694,"lon":5.362596,"is_reserved":false,"is_disabled":false,"rental_uris":{"android":"levelo://app?vid=cd46d7a3-2aff-40e0-9e50-73919cfa0e11","ios":"levelo://app?vid=cd46d7a3-2aff-40e0-9e50-73919cfa0e11"},"vehicle_type_id":"4","last_reported":1753363930,"current_range_meters":16800,"station_id":"ce4bhbh2rcd13ifvqeo0","pricing_plan_id":"cebpf4jnsgd1na2vs0mg"},{"bike_id":"7bf0bca6-ef14-4947-a268-05587170db38","system_id":"levelo_inurba_marseille","lat":43.28616,"lon":5.35102,"is_reserved":false,"is_disabled":false,"rental_uris":{"android":"levelo://app?vid=7bf0bca6-ef14-4947-a268-05587170db38","ios":"levelo://app?vid=7bf0bca6-ef14-4947-a268-05587170db38"},"vehicle_type_id":"4","last_reported":1753363930,"current_range_meters":16800,"station_id":"ce4bhch2rcd13ifvqeug","pricing_plan_id":"cebpf4jnsgd1na2vs0mg"},{"bike_id":"33ce2ff8-7e21-4229-9288-7ac129269db8","system_id":"levelo_inurba_marseille","lat":43.32112,"lon":5.36759,"is_reserved":false,"is_disabled":false,"rental_uris":{"android":"levelo://app?vid=33ce2ff8-7e21-4229-9288-7ac129269db8","ios":"levelo://app?vid=33ce2ff8-7e21-4229-9288-7ac129269db8"},"vehicle_type_id":"4","last_reported":1753363930,"current_range_meters":16800,"station_id":"ce4bhrh2rcd13ifvqhug","pricing_plan_id":"cebpf4jnsgd1na2vs0mg"},{"bike_id":"43d4035e-c519-4587-b8e6-2bcf124a8988","system_id":"levelo_inurba_marseille","lat":43.2738,"lon":5.36257,"is_reserved":false,"is_disabled":false,"rental_uris":{"android":"levelo://app?vid=43d4035e-c519-4587-b8e6-2bcf124a8988","ios":"levelo://app?vid=43d4035e-c519-4587-b8e6-2bcf124a8988"},"vehicle_type_id":"4","last_reported":1753363930,"current_range_meters":16800,"station_id":"ce4bhbh2rcd13ifvqeo0","pricing_plan_id":"cebpf4jnsgd1na2vs0mg"},{"bike_id":"0aa2d153-96d1-4d69-83b8-d39119aa9dd5","system_id":"levelo_inurba_marseille","lat":43.33523,"lon":5.36229,"is_reserved":false,"is_disabled":false,"rental_uris":{"android":"levelo://app?vid=0aa2d153-96d1-4d69-83b8-d39119aa9dd5","ios":"levelo://app?vid=0aa2d153-96d1-4d69-83b8-d39119aa9dd5"},"vehicle_type_id":"4","last_reported":1753363930,"current_range_meters":16800,"station_id":"","pricing_plan_id":"cebpf4jnsgd1na2vs0mg"},{"bike_id":"be1112aa-92c6-4f71-9978-f794b04ae2fe","system_id":"levelo_inurba_marseille","lat":43.27844,"lon":5.4076,"is_reserved":false,"is_disabled":false,"rental_uris":{"android":"levelo://app?vid=be1112aa-92c6-4f71-9978-f794b04ae2fe","ios":"levelo://app?vid=be1112aa-92c6-4f71-9978-f794b04ae2fe"},"vehicle_type_id":"4","last_reported":1753363930,"current_range_meters":16800,"station_id":"ce4bhnh2rcd13ifvqgtg","pricing_plan_id":"cebpf4jnsgd1na2vs0mg"},{"bike_id":"630f322e-ea39-413c-8ed4-096ccef376bc","system_id":"levelo_inurba_marseille","lat":43.29542,"lon":5.36557,"is_reserved":false,"is_disabled":false,"rental_uris":{"android":"levelo://app?vid=630f322e-ea39-413c-8ed4-096ccef376bc","ios":"levelo://app?vid=630f322e-ea39-413c-8ed4-096ccef376bc"},"vehicle_type_id":"4","last_reported":1753363930,"current_range_meters":16800,"station_id":"","pricing_plan_id":"cebpf4jnsgd1na2vs0mg"},{"bike_id":"d2c1d56d-6a3a-4ae3-b7ab-84022ad7ad84","system_id":"levelo_inurba_marseille","lat":43.29827,"lon":5.37614,"is_reserved":false,"is_disabled":false,"rental_uris":{"android":"levelo://app?vid=d2c1d56d-6a3a-4ae3-b7ab-84022ad7ad84","ios":"levelo://app?vid=d2c1d56d-6a3a-4ae3-b7ab-84022ad7ad84"},"vehicle_type_id":"4","last_reported":1753363930,"current_range_meters":16800,"station_id":"","pricing_plan_id":"cebpf4jnsgd1na2vs0mg"},{"bike_id":"36ced30a-7755-4af7-9ef7-8d86d86a59e0","system_id":"levelo_inurba_marseille","lat":43.286073,"lon":5.370657,"is_reserved":false,"is_disabled":false,"rental_uris":{"android":"levelo://app?vid=36ced30a-7755-4af7-9ef7-8d86d86a59e0","ios":"levelo://app?vid=36ced30a-7755-4af7-9ef7-8d86d86a59e0"},"vehicle_type_id":"4","last_reported":1753363930,"current_range_meters":16800,"station_id":"ce4bht12rcd13ifvqi60","pricing_plan_id":"cebpf4jnsgd1na2vs0mg"},{"bike_id":"d5898bea-85cc-4760-8393-6e9ab1d392c3","system_id":"levelo_inurba_marseille","lat":43.30931,"lon":5.40143,"is_reserved":false,"is_disabled":false,"rental_uris":{"android":"levelo://app?vid=d5898bea-85cc-4760-8393-6e9ab1d392c3","ios":"levelo://app?vid=d5898bea-85cc-4760-8393-6e9ab1d392c3"},"vehicle_type_id":"4","last_reported":1753363930,"current_range_meters":16800,"station_id":"ce4bgvp2rcd13ifvqct0","pricing_plan_id":"cebpf4jnsgd1na2vs0mg"},{"bike_id":"f2ca3887-7e82-498b-8c49-e80cd18a3051","system_id":"levelo_inurba_marseille","lat":43.23978,"lon":5.36617,"is_reserved":false,"is_disabled":false,"rental_uris":{"android":"levelo://app?vid=f2ca3887-7e82-498b-8c49-e80cd18a3051","ios":"levelo://app?vid=f2ca3887-7e82-498b-8c49-e80cd18a3051"},"vehicle_type_id":"4","last_reported":1753363930,"current_range_meters":17200,"station_id":"ce4bhi12rcd13ifvqfp0","pricing_plan_id":"cebpf4jnsgd1na2vs0mg"},{"bike_id":"cf776233-7766-4109-aadc-a0d3c334d400","system_id":"levelo_inurba_marseille","lat":43.24069,"lon":5.37757,"is_reserved":false,"is_disabled":false,"rental_uris":{"android":"levelo://app?vid=cf776233-7766-4109-aadc-a0d3c334d400","ios":"levelo://app?vid=cf776233-7766-4109-aadc-a0d3c334d400"},"vehicle_type_id":"4","last_reported":1753363930,"current_range_meters":17200,"station_id":"ce4bhnp2rcd13ifvqgvg","pricing_plan_id":"cebpf4jnsgd1na2vs0mg"},{"bike_id":"0f853751-4264-4f28-a6f5-6e22f8e1306a","system_id":"levelo_inurba_marseille","lat":43.26695,"lon":5.38275,"is_reserved":false,"is_disabled":false,"rental_uris":{"android":"levelo://app?vid=0f853751-4264-4f28-a6f5-6e22f8e1306a","ios":"levelo://app?vid=0f853751-4264-4f28-a6f5-6e22f8e1306a"},"vehicle_type_id":"4","last_reported":1753363930,"current_range_meters":17200,"station_id":"ce4bhg92rcd13ifvqf90","pricing_plan_id":"cebpf4jnsgd1na2vs0mg"},{"bike_id":"8bf2041f-a165-47bf-84f1-41526695fbf0","system_id":"levelo_inurba_marseille","lat":43.24161,"lon":5.36397,"is_reserved":false,"is_disabled":false,"rental_uris":{"android":"levelo://app?vid=8bf2041f-a165-47bf-84f1-41526695fbf0","ios":"levelo://app?vid=8bf2041f-a165-47bf-84f1-41526695fbf0"},"vehicle_type_id":"4","last_reported":1753363930,"current_range_meters":17200,"station_id":"cpo36qri1sfpv3e86is0","pricing_plan_id":"cebpf4jnsgd1na2vs0mg"},{"bike_id":"784eeebd-2893-4f27-84ae-c797089b4166","system_id":"levelo_inurba_marseille","lat":43.22503,"lon":5.3478,"is_reserved":false,"is_disabled":false,"rental_uris":{"android":"levelo://app?vid=784eeebd-2893-4f27-84ae-c797089b4166","ios":"levelo://app?vid=784eeebd-2893-4f27-84ae-c797089b4166"},"vehicle_type_id":"4","last_reported":1753363930,"current_range_meters":17200,"station_id":"st_cvj5dfep6f1abm77gieg","pricing_plan_id":"cebpf4jnsgd1na2vs0mg"},{"bike_id":"d8ab8225-ebfc-48f1-9981-f15e3b9960ea","system_id":"levelo_inurba_marseille","lat":43.22917,"lon":5.35381,"is_reserved":false,"is_disabled":false,"rental_uris":{"android":"levelo://app?vid=d8ab8225-ebfc-48f1-9981-f15e3b9960ea","ios":"levelo://app?vid=d8ab8225-ebfc-48f1-9981-f15e3b9960ea"},"vehicle_type_id":"4","last_reported":1753363930,"current_range_meters":17200,"station_id":"cpo3532slgdg3j2ikp40","pricing_plan_id":"cebpf4jnsgd1na2vs0mg"},{"bike_id":"481351de-e3d5-4a6f-aa67-c1762e7ed223","system_id":"levelo_inurba_marseille","lat":43.2707,"lon":5.4228,"is_reserved":false,"is_disabled":false,"rental_uris":{"android":"levelo://app?vid=481351de-e3d5-4a6f-aa67-c1762e7ed223","ios":"levelo://app?vid=481351de-e3d5-4a6f-aa67-c1762e7ed223"},"vehicle_type_id":"4","last_reported":1753363930,"current_range_meters":17200,"station_id":"ce4bhk92rcd13ifvqgb0","pricing_plan_id":"cebpf4jnsgd1na2vs0mg"},{"bike_id":"0a7e2862-d8ec-4c77-89d9-cfcdd51f8d75","system_id":"levelo_inurba_marseille","lat":43.31213,"lon":5.37837,"is_reserved":false,"is_disabled":false,"rental_uris":{"android":"levelo://app?vid=0a7e2862-d8ec-4c77-89d9-cfcdd51f8d75","ios":"levelo://app?vid=0a7e2862-d8ec-4c77-89d9-cfcdd51f8d75"},"vehicle_type_id":"4","last_reported":1753363930,"current_range_meters":17200,"station_id":"","pricing_plan_id":"cebpf4jnsgd1na2vs0mg"},{"bike_id":"9e71a50e-df43-4a48-bc37-13460235be7b","system_id":"levelo_inurba_marseille","lat":43.24174,"lon":5.36393,"is_reserved":false,"is_disabled":false,"rental_uris":{"android":"levelo://app?vid=9e71a50e-df43-4a48-bc37-13460235be7b","ios":"levelo://app?vid=9e71a50e-df43-4a48-bc37-13460235be7b"},"vehicle_type_id":"4","last_reported":1753363930,"current_range_meters":17200,"station_id":"cpo36qri1sfpv3e86is0","pricing_plan_id":"cebpf4jnsgd1na2vs0mg"},{"bike_id":"922e3d66-ae7e-4439-a5cf-23b2217d76cd","system_id":"levelo_inurba_marseille","lat":43.25943,"lon":5.40897,"is_reserved":false,"is_disabled":false,"rental_uris":{"android":"levelo://app?vid=922e3d66-ae7e-4439-a5cf-23b2217d76cd","ios":"levelo://app?vid=922e3d66-ae7e-4439-a5cf-23b2217d76cd"},"vehicle_type_id":"4","last_reported":1753363930,"current_range_meters":17200,"station_id":"ce4bhm92rcd13ifvqglg","pricing_plan_id":"cebpf4jnsgd1na2vs0mg"},{"bike_id":"0c521b94-f5ab-4996-b214-e39582733139","system_id":"levelo_inurba_marseille","lat":43.30157,"lon":5.38092,"is_reserved":false,"is_disabled":false,"rental_uris":{"android":"levelo://app?vid=0c521b94-f5ab-4996-b214-e39582733139","ios":"levelo://app?vid=0c521b94-f5ab-4996-b214-e39582733139"},"vehicle_type_id":"4","last_reported":1753363930,"current_range_meters":17600,"station_id":"ce4bgjp2rcd13ifvqbh0","pricing_plan_id":"cebpf4jnsgd1na2vs0mg"},{"bike_id":"9af4159e-0d11-46d1-a2b0-2ee39fad0e85","system_id":"levelo_inurba_marseille","lat":43.28485,"lon":5.3857,"is_reserved":false,"is_disabled":false,"rental_uris":{"android":"levelo://app?vid=9af4159e-0d11-46d1-a2b0-2ee39fad0e85","ios":"levelo://app?vid=9af4159e-0d11-46d1-a2b0-2ee39fad0e85"},"vehicle_type_id":"4","last_reported":1753363930,"current_range_meters":17600,"station_id":"ce4bh8p2rcd13ifvqeb0","pricing_plan_id":"cebpf4jnsgd1na2vs0mg"},{"bike_id":"ce193c8e-90e0-4599-95e2-d02b7d163b03","system_id":"levelo_inurba_marseille","lat":43.24074,"lon":5.37727,"is_reserved":false,"is_disabled":false,"rental_uris":{"android":"levelo://app?vid=ce193c8e-90e0-4599-95e2-d02b7d163b03","ios":"levelo://app?vid=ce193c8e-90e0-4599-95e2-d02b7d163b03"},"vehicle_type_id":"4","last_reported":1753363930,"current_range_meters":17600,"station_id":"ce4bhnp2rcd13ifvqgvg","pricing_plan_id":"cebpf4jnsgd1na2vs0mg"},{"bike_id":"d1930e78-18a5-4636-980c-3db371a1d3c0","system_id":"levelo_inurba_marseille","lat":43.31217,"lon":5.36858,"is_reserved":false,"is_disabled":false,"rental_uris":{"android":"levelo://app?vid=d1930e78-18a5-4636-980c-3db371a1d3c0","ios":"levelo://app?vid=d1930e78-18a5-4636-980c-3db371a1d3c0"},"vehicle_type_id":"4","last_reported":1753363930,"current_range_meters":17600,"station_id":"ce4bgl92rcd13ifvqbq0","pricing_plan_id":"cebpf4jnsgd1na2vs0mg"},{"bike_id":"3209cccb-fab5-47b8-8876-21d028262acf","system_id":"levelo_inurba_marseille","lat":43.29033,"lon":5.37571,"is_reserved":false,"is_disabled":false,"rental_uris":{"android":"levelo://app?vid=3209cccb-fab5-47b8-8876-21d028262acf","ios":"levelo://app?vid=3209cccb-fab5-47b8-8876-21d028262acf"},"vehicle_type_id":"4","last_reported":1753363930,"current_range_meters":17600,"station_id":"ce4bh692rcd13ifvqe90","pricing_plan_id":"cebpf4jnsgd1na2vs0mg"},{"bike_id":"4cc8a624-4284-44a0-8cb9-900326e53347","system_id":"levelo_inurba_marseille","lat":43.337444,"lon":5.374475,"is_reserved":false,"is_disabled":false,"rental_uris":{"android":"levelo://app?vid=4cc8a624-4284-44a0-8cb9-900326e53347","ios":"levelo://app?vid=4cc8a624-4284-44a0-8cb9-900326e53347"},"vehicle_type_id":"4","last_reported":1753363930,"current_range_meters":17600,"station_id":"ce4bh8p2rcd13ifvqeb0","pricing_plan_id":"cebpf4jnsgd1na2vs0mg"},{"bike_id":"5699dca2-a7f5-4ca6-84ed-f3b3dce17aa8","system_id":"levelo_inurba_marseille","lat":43.30464,"lon":5.37893,"is_reserved":false,"is_disabled":false,"rental_uris":{"android":"levelo://app?vid=5699dca2-a7f5-4ca6-84ed-f3b3dce17aa8","ios":"levelo://app?vid=5699dca2-a7f5-4ca6-84ed-f3b3dce17aa8"},"vehicle_type_id":"4","last_reported":1753363930,"current_range_meters":17600,"station_id":"ce4bgup2rcd13ifvqcn0","pricing_plan_id":"cebpf4jnsgd1na2vs0mg"},{"bike_id":"0aca8709-ed97-4e7c-96dc-d1aaa82865d8","system_id":"levelo_inurba_marseille","lat":43.30547,"lon":5.36471,"is_reserved":false,"is_disabled":false,"rental_uris":{"android":"levelo://app?vid=0aca8709-ed97-4e7c-96dc-d1aaa82865d8","ios":"levelo://app?vid=0aca8709-ed97-4e7c-96dc-d1aaa82865d8"},"vehicle_type_id":"4","last_reported":1753363930,"current_range_meters":17600,"station_id":"","pricing_plan_id":"cebpf4jnsgd1na2vs0mg"},{"bike_id":"f78b69a5-7f99-469b-9809-db12b867eb2e","system_id":"levelo_inurba_marseille","lat":43.24171,"lon":5.36405,"is_reserved":false,"is_disabled":false,"rental_uris":{"android":"levelo://app?vid=f78b69a5-7f99-469b-9809-db12b867eb2e","ios":"levelo://app?vid=f78b69a5-7f99-469b-9809-db12b867eb2e"},"vehicle_type_id":"4","last_reported":1753363930,"current_range_meters":17600,"station_id":"cpo36qri1sfpv3e86is0","pricing_plan_id":"cebpf4jnsgd1na2vs0mg"},{"bike_id":"9e4a8f31-e9ce-4ab8-a94e-540249a6219a","system_id":"levelo_inurba_marseille","lat":43.26679,"lon":5.38265,"is_reserved":false,"is_disabled":false,"rental_uris":{"android":"levelo://app?vid=9e4a8f31-e9ce-4ab8-a94e-540249a6219a","ios":"levelo://app?vid=9e4a8f31-e9ce-4ab8-a94e-540249a6219a"},"vehicle_type_id":"4","last_reported":1753363930,"current_range_meters":17600,"station_id":"ce4bhg92rcd13ifvqf90","pricing_plan_id":"cebpf4jnsgd1na2vs0mg"},{"bike_id":"ad25e224-b15c-4949-92a3-53289b1bd1fb","system_id":"levelo_inurba_marseille","lat":43.28751,"lon":5.38505,"is_reserved":false,"is_disabled":false,"rental_uris":{"android":"levelo://app?vid=ad25e224-b15c-4949-92a3-53289b1bd1fb","ios":"levelo://app?vid=ad25e224-b15c-4949-92a3-53289b1bd1fb"},"vehicle_type_id":"4","last_reported":1753363930,"current_range_meters":17600,"station_id":"","pricing_plan_id":"cebpf4jnsgd1na2vs0mg"},{"bike_id":"b63b11be-5ecd-48c8-a48d-2b0558b136c7","system_id":"levelo_inurba_marseille","lat":43.29223,"lon":5.36056,"is_reserved":false,"is_disabled":false,"rental_uris":{"android":"levelo://app?vid=b63b11be-5ecd-48c8-a48d-2b0558b136c7","ios":"levelo://app?vid=b63b11be-5ecd-48c8-a48d-2b0558b136c7"},"vehicle_type_id":"4","last_reported":1753363930,"current_range_meters":17600,"station_id":"ce4bhbh2rcd13ifvqeqg","pricing_plan_id":"cebpf4jnsgd1na2vs0mg"},{"bike_id":"53a26903-464f-4fc4-9933-61532f3dde60","system_id":"levelo_inurba_marseille","lat":43.26572,"lon":5.37254,"is_reserved":false,"is_disabled":false,"rental_uris":{"android":"levelo://app?vid=53a26903-464f-4fc4-9933-61532f3dde60","ios":"levelo://app?vid=53a26903-464f-4fc4-9933-61532f3dde60"},"vehicle_type_id":"4","last_reported":1753363930,"current_range_meters":17600,"station_id":"ce4bhg12rcd13ifvqf70","pricing_plan_id":"cebpf4jnsgd1na2vs0mg"},{"bike_id":"259ffe3e-874e-4ae1-8df2-8c0d8b930124","system_id":"levelo_inurba_marseille","lat":43.29561,"lon":5.39989,"is_reserved":false,"is_disabled":false,"rental_uris":{"android":"levelo://app?vid=259ffe3e-874e-4ae1-8df2-8c0d8b930124","ios":"levelo://app?vid=259ffe3e-874e-4ae1-8df2-8c0d8b930124"},"vehicle_type_id":"4","last_reported":1753363930,"current_range_meters":17600,"station_id":"ce4bh312rcd13ifvqdj0","pricing_plan_id":"cebpf4jnsgd1na2vs0mg"},{"bike_id":"badca504-3574-438c-9a85-2f544dc8d97e","system_id":"levelo_inurba_marseille","lat":43.29618,"lon":5.37159,"is_reserved":false,"is_disabled":false,"rental_uris":{"android":"levelo://app?vid=badca504-3574-438c-9a85-2f544dc8d97e","ios":"levelo://app?vid=badca504-3574-438c-9a85-2f544dc8d97e"},"vehicle_type_id":"4","last_reported":1753363930,"current_range_meters":18000,"station_id":"ce4bgnh2rcd13ifvqc0g","pricing_plan_id":"cebpf4jnsgd1na2vs0mg"},{"bike_id":"bfddca7c-3825-4dd2-81c9-335257a69f7c","system_id":"levelo_inurba_marseille","lat":43.29559,"lon":5.36785,"is_reserved":false,"is_disabled":false,"rental_uris":{"android":"levelo://app?vid=bfddca7c-3825-4dd2-81c9-335257a69f7c","ios":"levelo://app?vid=bfddca7c-3825-4dd2-81c9-335257a69f7c"},"vehicle_type_id":"4","last_reported":1753363930,"current_range_meters":18000,"station_id":"ce4bgph2rcd13ifvqc2g","pricing_plan_id":"cebpf4jnsgd1na2vs0mg"},{"bike_id":"6cbb83b2-4bee-46e6-9455-f56e7888100e","system_id":"levelo_inurba_marseille","lat":43.252541,"lon":5.402891,"is_reserved":false,"is_disabled":false,"rental_uris":{"android":"levelo://app?vid=6cbb83b2-4bee-46e6-9455-f56e7888100e","ios":"levelo://app?vid=6cbb83b2-4bee-46e6-9455-f56e7888100e"},"vehicle_type_id":"4","last_reported":1753363930,"current_range_meters":18000,"station_id":"ce4bhlh2rcd13ifvqgig","pricing_plan_id":"cebpf4jnsgd1na2vs0mg"},{"bike_id":"7ef8ab0b-21c8-47dd-9f39-23985e12ad7b","system_id":"levelo_inurba_marseille","lat":43.28259,"lon":5.35061,"is_reserved":false,"is_disabled":false,"rental_uris":{"android":"levelo://app?vid=7ef8ab0b-21c8-47dd-9f39-23985e12ad7b","ios":"levelo://app?vid=7ef8ab0b-21c8-47dd-9f39-23985e12ad7b"},"vehicle_type_id":"4","last_reported":1753363930,"current_range_meters":18000,"station_id":"ce4bhbp2rcd13ifvqerg","pricing_plan_id":"cebpf4jnsgd1na2vs0mg"},{"bike_id":"27697668-04e4-455b-9ffa-2b0efdbc7732","system_id":"levelo_inurba_marseille","lat":43.309479,"lon":5.390409,"is_reserved":false,"is_disabled":false,"rental_uris":{"android":"levelo://app?vid=27697668-04e4-455b-9ffa-2b0efdbc7732","ios":"levelo://app?vid=27697668-04e4-455b-9ffa-2b0efdbc7732"},"vehicle_type_id":"4","last_reported":1753363930,"current_range_meters":18000,"station_id":"ce4bgup2rcd13ifvqco0","pricing_plan_id":"cebpf4jnsgd1na2vs0mg"},{"bike_id":"b0a60fe1-1353-481b-91e3-03996d1455e6","system_id":"levelo_inurba_marseille","lat":43.31938,"lon":5.37419,"is_reserved":false,"is_disabled":false,"rental_uris":{"android":"levelo://app?vid=b0a60fe1-1353-481b-91e3-03996d1455e6","ios":"levelo://app?vid=b0a60fe1-1353-481b-91e3-03996d1455e6"},"vehicle_type_id":"4","last_reported":1753363930,"current_range_meters":18000,"station_id":"","pricing_plan_id":"cebpf4jnsgd1na2vs0mg"},{"bike_id":"261d4bb0-7bb9-4c80-93f3-cd6f68b7285e","system_id":"levelo_inurba_marseille","lat":43.3148,"lon":5.3693,"is_reserved":false,"is_disabled":false,"rental_uris":{"android":"levelo://app?vid=261d4bb0-7bb9-4c80-93f3-cd6f68b7285e","ios":"levelo://app?vid=261d4bb0-7bb9-4c80-93f3-cd6f68b7285e"},"vehicle_type_id":"4","last_reported":1753363930,"current_range_meters":18000,"station_id":"","pricing_plan_id":"cebpf4jnsgd1na2vs0mg"},{"bike_id":"22832dd9-6f40-41f0-84f7-20d5b045fc09","system_id":"levelo_inurba_marseille","lat":43.30376,"lon":5.42479,"is_reserved":false,"is_disabled":false,"rental_uris":{"android":"levelo://app?vid=22832dd9-6f40-41f0-84f7-20d5b045fc09","ios":"levelo://app?vid=22832dd9-6f40-41f0-84f7-20d5b045fc09"},"vehicle_type_id":"4","last_reported":1753363930,"current_range_meters":18000,"station_id":"ce4bhoh2rcd13ifvqh6g","pricing_plan_id":"cebpf4jnsgd1na2vs0mg"},{"bike_id":"1190a6a6-e0cc-4ff3-b3e2-3e7074b6085c","system_id":"levelo_inurba_marseille","lat":43.30937,"lon":5.36905,"is_reserved":false,"is_disabled":false,"rental_uris":{"android":"levelo://app?vid=1190a6a6-e0cc-4ff3-b3e2-3e7074b6085c","ios":"levelo://app?vid=1190a6a6-e0cc-4ff3-b3e2-3e7074b6085c"},"vehicle_type_id":"4","last_reported":1753363930,"current_range_meters":18000,"station_id":"ce4bgn92rcd13ifvqbvg","pricing_plan_id":"cebpf4jnsgd1na2vs0mg"},{"bike_id":"c1a88a2e-abf4-41fd-9b3b-6c4ca381ee71","system_id":"levelo_inurba_marseille","lat":43.28485,"lon":5.38555,"is_reserved":false,"is_disabled":false,"rental_uris":{"android":"levelo://app?vid=c1a88a2e-abf4-41fd-9b3b-6c4ca381ee71","ios":"levelo://app?vid=c1a88a2e-abf4-41fd-9b3b-6c4ca381ee71"},"vehicle_type_id":"4","last_reported":1753363930,"current_range_meters":18000,"station_id":"ce4bh8p2rcd13ifvqeb0","pricing_plan_id":"cebpf4jnsgd1na2vs0mg"},{"bike_id":"74054fd4-1ac3-4c18-b1e8-192aa565524c","system_id":"levelo_inurba_marseille","lat":43.28415,"lon":5.34993,"is_reserved":false,"is_disabled":false,"rental_uris":{"android":"levelo://app?vid=74054fd4-1ac3-4c18-b1e8-192aa565524c","ios":"levelo://app?vid=74054fd4-1ac3-4c18-b1e8-192aa565524c"},"vehicle_type_id":"4","last_reported":1753363930,"current_range_meters":18800,"station_id":"ce4bhbh2rcd13ifvqepg","pricing_plan_id":"cebpf4jnsgd1na2vs0mg"},{"bike_id":"2065aaf2-f5b9-418c-bc92-97a3f76ae9b2","system_id":"levelo_inurba_marseille","lat":43.24168,"lon":5.3639,"is_reserved":false,"is_disabled":false,"rental_uris":{"android":"levelo://app?vid=2065aaf2-f5b9-418c-bc92-97a3f76ae9b2","ios":"levelo://app?vid=2065aaf2-f5b9-418c-bc92-97a3f76ae9b2"},"vehicle_type_id":"4","last_reported":1753363930,"current_range_meters":18800,"station_id":"cpo36qri1sfpv3e86is0","pricing_plan_id":"cebpf4jnsgd1na2vs0mg"},{"bike_id":"c14a1468-ac67-468e-a5dd-3e01f9a68865","system_id":"levelo_inurba_marseille","lat":43.27941,"lon":5.41057,"is_reserved":false,"is_disabled":false,"rental_uris":{"android":"levelo://app?vid=c14a1468-ac67-468e-a5dd-3e01f9a68865","ios":"levelo://app?vid=c14a1468-ac67-468e-a5dd-3e01f9a68865"},"vehicle_type_id":"4","last_reported":1753363930,"current_range_meters":18800,"station_id":"ce4bhnp2rcd13ifvqh0g","pricing_plan_id":"cebpf4jnsgd1na2vs0mg"},{"bike_id":"6d162757-3924-4476-9818-84d10836cd88","system_id":"levelo_inurba_marseille","lat":43.312304,"lon":5.368653,"is_reserved":false,"is_disabled":false,"rental_uris":{"android":"levelo://app?vid=6d162757-3924-4476-9818-84d10836cd88","ios":"levelo://app?vid=6d162757-3924-4476-9818-84d10836cd88"},"vehicle_type_id":"4","last_reported":1753363930,"current_range_meters":18800,"station_id":"ce4bgl92rcd13ifvqbq0","pricing_plan_id":"cebpf4jnsgd1na2vs0mg"},{"bike_id":"184dd696-a175-47ac-8af1-548fdbc31847","system_id":"levelo_inurba_marseille","lat":43.30543,"lon":5.3654,"is_reserved":false,"is_disabled":false,"rental_uris":{"android":"levelo://app?vid=184dd696-a175-47ac-8af1-548fdbc31847","ios":"levelo://app?vid=184dd696-a175-47ac-8af1-548fdbc31847"},"vehicle_type_id":"4","last_reported":1753363930,"current_range_meters":18800,"station_id":"ce4bgs12rcd13ifvqcag","pricing_plan_id":"cebpf4jnsgd1na2vs0mg"},{"bike_id":"5e096c06-5b88-4baa-aeb7-7c4d7c722e53","system_id":"levelo_inurba_marseille","lat":43.30543,"lon":5.36536,"is_reserved":false,"is_disabled":false,"rental_uris":{"android":"levelo://app?vid=5e096c06-5b88-4baa-aeb7-7c4d7c722e53","ios":"levelo://app?vid=5e096c06-5b88-4baa-aeb7-7c4d7c722e53"},"vehicle_type_id":"4","last_reported":1753363930,"current_range_meters":18800,"station_id":"ce4bgs12rcd13ifvqcag","pricing_plan_id":"cebpf4jnsgd1na2vs0mg"},{"bike_id":"33d3f496-8788-423f-9810-afff50712161","system_id":"levelo_inurba_marseille","lat":43.27372,"lon":5.36252,"is_reserved":false,"is_disabled":false,"rental_uris":{"android":"levelo://app?vid=33d3f496-8788-423f-9810-afff50712161","ios":"levelo://app?vid=33d3f496-8788-423f-9810-afff50712161"},"vehicle_type_id":"4","last_reported":1753363930,"current_range_meters":18800,"station_id":"ce4bhbh2rcd13ifvqeo0","pricing_plan_id":"cebpf4jnsgd1na2vs0mg"},{"bike_id":"f43583a7-8b61-4ba6-8601-091fb4eb3be7","system_id":"levelo_inurba_marseille","lat":43.301456,"lon":5.38088,"is_reserved":false,"is_disabled":false,"rental_uris":{"android":"levelo://app?vid=f43583a7-8b61-4ba6-8601-091fb4eb3be7","ios":"levelo://app?vid=f43583a7-8b61-4ba6-8601-091fb4eb3be7"},"vehicle_type_id":"4","last_reported":1753363930,"current_range_meters":22800,"station_id":"ce4bh412rcd13ifvqdr0","pricing_plan_id":"cebpf4jnsgd1na2vs0mg"},{"bike_id":"91814d8d-d044-484d-a4c4-fba7b832ede1","system_id":"levelo_inurba_marseille","lat":43.312891,"lon":5.37013,"is_reserved":false,"is_disabled":false,"rental_uris":{"android":"levelo://app?vid=91814d8d-d044-484d-a4c4-fba7b832ede1","ios":"levelo://app?vid=91814d8d-d044-484d-a4c4-fba7b832ede1"},"vehicle_type_id":"4","last_reported":1753363930,"current_range_meters":18800,"station_id":"ce4bgt12rcd13ifvqcd0","pricing_plan_id":"cebpf4jnsgd1na2vs0mg"},{"bike_id":"562cda51-6e5d-41ef-8ee5-4bc2adad5275","system_id":"levelo_inurba_marseille","lat":43.31253,"lon":5.36847,"is_reserved":false,"is_disabled":false,"rental_uris":{"android":"levelo://app?vid=562cda51-6e5d-41ef-8ee5-4bc2adad5275","ios":"levelo://app?vid=562cda51-6e5d-41ef-8ee5-4bc2adad5275"},"vehicle_type_id":"4","last_reported":1753363930,"current_range_meters":19200,"station_id":"ce4bgl92rcd13ifvqbq0","pricing_plan_id":"cebpf4jnsgd1na2vs0mg"},{"bike_id":"393a3c95-f3fe-463b-8ba6-1ddef2d0f9eb","system_id":"levelo_inurba_marseille","lat":43.3068,"lon":5.37183,"is_reserved":false,"is_disabled":false,"rental_uris":{"android":"levelo://app?vid=393a3c95-f3fe-463b-8ba6-1ddef2d0f9eb","ios":"levelo://app?vid=393a3c95-f3fe-463b-8ba6-1ddef2d0f9eb"},"vehicle_type_id":"4","last_reported":1753363930,"current_range_meters":19200,"station_id":"ce4bgqh2rcd13ifvqc4g","pricing_plan_id":"cebpf4jnsgd1na2vs0mg"},{"bike_id":"975621b1-02b2-43ba-95e3-5e639ac7a8db","system_id":"levelo_inurba_marseille","lat":43.28152,"lon":5.42628,"is_reserved":false,"is_disabled":false,"rental_uris":{"android":"levelo://app?vid=975621b1-02b2-43ba-95e3-5e639ac7a8db","ios":"levelo://app?vid=975621b1-02b2-43ba-95e3-5e639ac7a8db"},"vehicle_type_id":"4","last_reported":1753363930,"current_range_meters":19200,"station_id":"ce4bhnh2rcd13ifvqgug","pricing_plan_id":"cebpf4jnsgd1na2vs0mg"},{"bike_id":"21bb3fef-81ef-46bb-a48d-d85402757c94","system_id":"levelo_inurba_marseille","lat":43.2544,"lon":5.3799,"is_reserved":false,"is_disabled":false,"rental_uris":{"android":"levelo://app?vid=21bb3fef-81ef-46bb-a48d-d85402757c94","ios":"levelo://app?vid=21bb3fef-81ef-46bb-a48d-d85402757c94"},"vehicle_type_id":"4","last_reported":1753363930,"current_range_meters":19200,"station_id":"","pricing_plan_id":"cebpf4jnsgd1na2vs0mg"},{"bike_id":"a579fd63-61b9-46bc-9f35-2021affcd170","system_id":"levelo_inurba_marseille","lat":43.29012,"lon":5.38135,"is_reserved":false,"is_disabled":false,"rental_uris":{"android":"levelo://app?vid=a579fd63-61b9-46bc-9f35-2021affcd170","ios":"levelo://app?vid=a579fd63-61b9-46bc-9f35-2021affcd170"},"vehicle_type_id":"4","last_reported":1753363930,"current_range_meters":19200,"station_id":"ce4bh4p2rcd13ifvqe1g","pricing_plan_id":"cebpf4jnsgd1na2vs0mg"},{"bike_id":"3bba2034-46e3-49ff-b61e-4973ef75d793","system_id":"levelo_inurba_marseille","lat":43.306009,"lon":5.372297,"is_reserved":false,"is_disabled":false,"rental_uris":{"android":"levelo://app?vid=3bba2034-46e3-49ff-b61e-4973ef75d793","ios":"levelo://app?vid=3bba2034-46e3-49ff-b61e-4973ef75d793"},"vehicle_type_id":"4","last_reported":1753363930,"current_range_meters":19200,"station_id":"ce4bgqh2rcd13ifvqc4g","pricing_plan_id":"cebpf4jnsgd1na2vs0mg"},{"bike_id":"dddbef83-b47e-460f-a4ac-beade05833f1","system_id":"levelo_inurba_marseille","lat":43.22916,"lon":5.35396,"is_reserved":false,"is_disabled":false,"rental_uris":{"android":"levelo://app?vid=dddbef83-b47e-460f-a4ac-beade05833f1","ios":"levelo://app?vid=dddbef83-b47e-460f-a4ac-beade05833f1"},"vehicle_type_id":"4","last_reported":1753363930,"current_range_meters":19200,"station_id":"cpo3532slgdg3j2ikp40","pricing_plan_id":"cebpf4jnsgd1na2vs0mg"},{"bike_id":"3105b080-eaef-462f-9090-9fad060b9946","system_id":"levelo_inurba_marseille","lat":43.25584,"lon":5.38215,"is_reserved":false,"is_disabled":false,"rental_uris":{"android":"levelo://app?vid=3105b080-eaef-462f-9090-9fad060b9946","ios":"levelo://app?vid=3105b080-eaef-462f-9090-9fad060b9946"},"vehicle_type_id":"4","last_reported":1753363930,"current_range_meters":19200,"station_id":"ce4bhih2rcd13ifvqfs0","pricing_plan_id":"cebpf4jnsgd1na2vs0mg"},{"bike_id":"43f2fc14-b940-4999-b57f-316adfa27f99","system_id":"levelo_inurba_marseille","lat":43.28611,"lon":5.35103,"is_reserved":false,"is_disabled":false,"rental_uris":{"android":"levelo://app?vid=43f2fc14-b940-4999-b57f-316adfa27f99","ios":"levelo://app?vid=43f2fc14-b940-4999-b57f-316adfa27f99"},"vehicle_type_id":"4","last_reported":1753363930,"current_range_meters":19200,"station_id":"ce4bhch2rcd13ifvqeug","pricing_plan_id":"cebpf4jnsgd1na2vs0mg"},{"bike_id":"fd13a871-6a7c-45ab-8193-0aedb29a36fc","system_id":"levelo_inurba_marseille","lat":43.26549,"lon":5.37299,"is_reserved":false,"is_disabled":false,"rental_uris":{"android":"levelo://app?vid=fd13a871-6a7c-45ab-8193-0aedb29a36fc","ios":"levelo://app?vid=fd13a871-6a7c-45ab-8193-0aedb29a36fc"},"vehicle_type_id":"4","last_reported":1753363930,"current_range_meters":19600,"station_id":"ce4bhg12rcd13ifvqf70","pricing_plan_id":"cebpf4jnsgd1na2vs0mg"},{"bike_id":"a37a6ea7-3a25-446d-b176-f28d7a260150","system_id":"levelo_inurba_marseille","lat":43.23193,"lon":5.35553,"is_reserved":false,"is_disabled":false,"rental_uris":{"android":"levelo://app?vid=a37a6ea7-3a25-446d-b176-f28d7a260150","ios":"levelo://app?vid=a37a6ea7-3a25-446d-b176-f28d7a260150"},"vehicle_type_id":"4","last_reported":1753363930,"current_range_meters":19600,"station_id":"ce4bhu92rcd13ifvqi70","pricing_plan_id":"cebpf4jnsgd1na2vs0mg"},{"bike_id":"8ea7ad4c-1148-4c7e-8d11-81f1339ba536","system_id":"levelo_inurba_marseille","lat":43.29787,"lon":5.37103,"is_reserved":false,"is_disabled":false,"rental_uris":{"android":"levelo://app?vid=8ea7ad4c-1148-4c7e-8d11-81f1339ba536","ios":"levelo://app?vid=8ea7ad4c-1148-4c7e-8d11-81f1339ba536"},"vehicle_type_id":"4","last_reported":1753363930,"current_range_meters":19600,"station_id":"ce4bgop2rcd13ifvqc1g","pricing_plan_id":"cebpf4jnsgd1na2vs0mg"},{"bike_id":"270c3d29-74d8-4152-a7d7-2e4a5f29df40","system_id":"levelo_inurba_marseille","lat":43.28606,"lon":5.37061,"is_reserved":false,"is_disabled":false,"rental_uris":{"android":"levelo://app?vid=270c3d29-74d8-4152-a7d7-2e4a5f29df40","ios":"levelo://app?vid=270c3d29-74d8-4152-a7d7-2e4a5f29df40"},"vehicle_type_id":"4","last_reported":1753363930,"current_range_meters":20000,"station_id":"ce4bht12rcd13ifvqi60","pricing_plan_id":"cebpf4jnsgd1na2vs0mg"},{"bike_id":"f208e59a-8758-42f8-bc78-2a53b14b1c48","system_id":"levelo_inurba_marseille","lat":43.282776,"lon":5.350626,"is_reserved":false,"is_disabled":false,"rental_uris":{"android":"levelo://app?vid=f208e59a-8758-42f8-bc78-2a53b14b1c48","ios":"levelo://app?vid=f208e59a-8758-42f8-bc78-2a53b14b1c48"},"vehicle_type_id":"4","last_reported":1753363930,"current_range_meters":20000,"station_id":"ce4bhbp2rcd13ifvqerg","pricing_plan_id":"cebpf4jnsgd1na2vs0mg"},{"bike_id":"2fccc2eb-9347-4473-9fe6-3e5d25fd717a","system_id":"levelo_inurba_marseille","lat":43.33764,"lon":5.37424,"is_reserved":false,"is_disabled":false,"rental_uris":{"android":"levelo://app?vid=2fccc2eb-9347-4473-9fe6-3e5d25fd717a","ios":"levelo://app?vid=2fccc2eb-9347-4473-9fe6-3e5d25fd717a"},"vehicle_type_id":"4","last_reported":1753363930,"current_range_meters":20000,"station_id":"","pricing_plan_id":"cebpf4jnsgd1na2vs0mg"},{"bike_id":"9a52c8d9-689c-4537-bd2a-f361d10e32e5","system_id":"levelo_inurba_marseille","lat":43.30542,"lon":5.36679,"is_reserved":false,"is_disabled":false,"rental_uris":{"android":"levelo://app?vid=9a52c8d9-689c-4537-bd2a-f361d10e32e5","ios":"levelo://app?vid=9a52c8d9-689c-4537-bd2a-f361d10e32e5"},"vehicle_type_id":"4","last_reported":1753363930,"current_range_meters":20000,"station_id":"ce4bgrp2rcd13ifvqc9g","pricing_plan_id":"cebpf4jnsgd1na2vs0mg"},{"bike_id":"00fc4696-e72c-4173-9cda-3ffcb5d15efb","system_id":"levelo_inurba_marseille","lat":43.30903,"lon":5.37079,"is_reserved":false,"is_disabled":false,"rental_uris":{"android":"levelo://app?vid=00fc4696-e72c-4173-9cda-3ffcb5d15efb","ios":"levelo://app?vid=00fc4696-e72c-4173-9cda-3ffcb5d15efb"},"vehicle_type_id":"4","last_reported":1753363930,"current_range_meters":20000,"station_id":"ce4bgqh2rcd13ifvqc4g","pricing_plan_id":"cebpf4jnsgd1na2vs0mg"},{"bike_id":"cf321470-3422-4864-a2b3-8e56e10e4f67","system_id":"levelo_inurba_marseille","lat":43.27373,"lon":5.36262,"is_reserved":false,"is_disabled":false,"rental_uris":{"android":"levelo://app?vid=cf321470-3422-4864-a2b3-8e56e10e4f67","ios":"levelo://app?vid=cf321470-3422-4864-a2b3-8e56e10e4f67"},"vehicle_type_id":"4","last_reported":1753363930,"current_range_meters":20000,"station_id":"ce4bhbh2rcd13ifvqeo0","pricing_plan_id":"cebpf4jnsgd1na2vs0mg"},{"bike_id":"1c6f98e7-bffb-444b-98ce-c5a83f3b3c24","system_id":"levelo_inurba_marseille","lat":43.24801,"lon":5.37479,"is_reserved":false,"is_disabled":false,"rental_uris":{"android":"levelo://app?vid=1c6f98e7-bffb-444b-98ce-c5a83f3b3c24","ios":"levelo://app?vid=1c6f98e7-bffb-444b-98ce-c5a83f3b3c24"},"vehicle_type_id":"4","last_reported":1753363930,"current_range_meters":20000,"station_id":"ce4bhgh2rcd13ifvqfb0","pricing_plan_id":"cebpf4jnsgd1na2vs0mg"},{"bike_id":"14ffbbbf-ed70-4da3-a852-d9ce364933d9","system_id":"levelo_inurba_marseille","lat":43.30376,"lon":5.42488,"is_reserved":false,"is_disabled":false,"rental_uris":{"android":"levelo://app?vid=14ffbbbf-ed70-4da3-a852-d9ce364933d9","ios":"levelo://app?vid=14ffbbbf-ed70-4da3-a852-d9ce364933d9"},"vehicle_type_id":"4","last_reported":1753363930,"current_range_meters":20000,"station_id":"ce4bhoh2rcd13ifvqh6g","pricing_plan_id":"cebpf4jnsgd1na2vs0mg"},{"bike_id":"6afc798f-4a06-4994-844e-ef65d6413983","system_id":"levelo_inurba_marseille","lat":43.301238,"lon":5.387855,"is_reserved":false,"is_disabled":false,"rental_uris":{"android":"levelo://app?vid=6afc798f-4a06-4994-844e-ef65d6413983","ios":"levelo://app?vid=6afc798f-4a06-4994-844e-ef65d6413983"},"vehicle_type_id":"4","last_reported":1753363930,"current_range_meters":20000,"station_id":"","pricing_plan_id":"cebpf4jnsgd1na2vs0mg"},{"bike_id":"35707a6c-719e-4569-aebd-58e19a134214","system_id":"levelo_inurba_marseille","lat":43.29809,"lon":5.3709,"is_reserved":false,"is_disabled":false,"rental_uris":{"android":"levelo://app?vid=35707a6c-719e-4569-aebd-58e19a134214","ios":"levelo://app?vid=35707a6c-719e-4569-aebd-58e19a134214"},"vehicle_type_id":"4","last_reported":1753363930,"current_range_meters":20000,"station_id":"ce4bgop2rcd13ifvqc1g","pricing_plan_id":"cebpf4jnsgd1na2vs0mg"},{"bike_id":"7df9d1a7-db77-4e76-9f4c-a85eb1778eec","system_id":"levelo_inurba_marseille","lat":43.288521,"lon":5.358607,"is_reserved":false,"is_disabled":false,"rental_uris":{"android":"levelo://app?vid=7df9d1a7-db77-4e76-9f4c-a85eb1778eec","ios":"levelo://app?vid=7df9d1a7-db77-4e76-9f4c-a85eb1778eec"},"vehicle_type_id":"4","last_reported":1753363930,"current_range_meters":20000,"station_id":"ce4bhb12rcd13ifvqem0","pricing_plan_id":"cebpf4jnsgd1na2vs0mg"},{"bike_id":"635d529b-81db-4d95-967c-681543329cb0","system_id":"levelo_inurba_marseille","lat":43.29911,"lon":5.43666,"is_reserved":false,"is_disabled":false,"rental_uris":{"android":"levelo://app?vid=635d529b-81db-4d95-967c-681543329cb0","ios":"levelo://app?vid=635d529b-81db-4d95-967c-681543329cb0"},"vehicle_type_id":"4","last_reported":1753363930,"current_range_meters":20000,"station_id":"ce4bhpp2rcd13ifvqhfg","pricing_plan_id":"cebpf4jnsgd1na2vs0mg"},{"bike_id":"f2fb42df-b317-4050-9c35-8b2b6533ccf7","system_id":"levelo_inurba_marseille","lat":43.32472,"lon":5.3654,"is_reserved":false,"is_disabled":false,"rental_uris":{"android":"levelo://app?vid=f2fb42df-b317-4050-9c35-8b2b6533ccf7","ios":"levelo://app?vid=f2fb42df-b317-4050-9c35-8b2b6533ccf7"},"vehicle_type_id":"4","last_reported":1753363930,"current_range_meters":20000,"station_id":"ce4bhs12rcd13ifvqhvg","pricing_plan_id":"cebpf4jnsgd1na2vs0mg"},{"bike_id":"6891c23e-20f7-4fd0-bcff-406f26a32d3a","system_id":"levelo_inurba_marseille","lat":43.30545,"lon":5.36519,"is_reserved":false,"is_disabled":false,"rental_uris":{"android":"levelo://app?vid=6891c23e-20f7-4fd0-bcff-406f26a32d3a","ios":"levelo://app?vid=6891c23e-20f7-4fd0-bcff-406f26a32d3a"},"vehicle_type_id":"4","last_reported":1753363930,"current_range_meters":20000,"station_id":"ce4bgs12rcd13ifvqcag","pricing_plan_id":"cebpf4jnsgd1na2vs0mg"},{"bike_id":"5b7c266b-8571-4e49-9c6d-e2a9d8a2e0f0","system_id":"levelo_inurba_marseille","lat":43.28269,"lon":5.35057,"is_reserved":false,"is_disabled":false,"rental_uris":{"android":"levelo://app?vid=5b7c266b-8571-4e49-9c6d-e2a9d8a2e0f0","ios":"levelo://app?vid=5b7c266b-8571-4e49-9c6d-e2a9d8a2e0f0"},"vehicle_type_id":"4","last_reported":1753363930,"current_range_meters":20400,"station_id":"ce4bhbp2rcd13ifvqerg","pricing_plan_id":"cebpf4jnsgd1na2vs0mg"},{"bike_id":"a971b066-21a4-4400-a773-1d2d8e1d6b7c","system_id":"levelo_inurba_marseille","lat":43.31378,"lon":5.36675,"is_reserved":false,"is_disabled":false,"rental_uris":{"android":"levelo://app?vid=a971b066-21a4-4400-a773-1d2d8e1d6b7c","ios":"levelo://app?vid=a971b066-21a4-4400-a773-1d2d8e1d6b7c"},"vehicle_type_id":"4","last_reported":1753363930,"current_range_meters":20400,"station_id":"ce4bgr92rcd13ifvqc6g","pricing_plan_id":"cebpf4jnsgd1na2vs0mg"},{"bike_id":"cf5577ea-8085-442d-b092-8cf7a9d9102b","system_id":"levelo_inurba_marseille","lat":43.32342,"lon":5.36728,"is_reserved":false,"is_disabled":false,"rental_uris":{"android":"levelo://app?vid=cf5577ea-8085-442d-b092-8cf7a9d9102b","ios":"levelo://app?vid=cf5577ea-8085-442d-b092-8cf7a9d9102b"},"vehicle_type_id":"4","last_reported":1753363930,"current_range_meters":20400,"station_id":"ce4bhsh2rcd13ifvqi2g","pricing_plan_id":"cebpf4jnsgd1na2vs0mg"},{"bike_id":"f521e240-2f2c-4a3c-bb0f-1a8d0b476cec","system_id":"levelo_inurba_marseille","lat":43.30308,"lon":5.36884,"is_reserved":false,"is_disabled":false,"rental_uris":{"android":"levelo://app?vid=f521e240-2f2c-4a3c-bb0f-1a8d0b476cec","ios":"levelo://app?vid=f521e240-2f2c-4a3c-bb0f-1a8d0b476cec"},"vehicle_type_id":"4","last_reported":1753363930,"current_range_meters":20400,"station_id":"ce4bgqh2rcd13ifvqc5g","pricing_plan_id":"cebpf4jnsgd1na2vs0mg"},{"bike_id":"c4ad6f72-f15e-4eb4-ada9-7def29e4fcc5","system_id":"levelo_inurba_marseille","lat":43.31319,"lon":5.36672,"is_reserved":false,"is_disabled":false,"rental_uris":{"android":"levelo://app?vid=c4ad6f72-f15e-4eb4-ada9-7def29e4fcc5","ios":"levelo://app?vid=c4ad6f72-f15e-4eb4-ada9-7def29e4fcc5"},"vehicle_type_id":"4","last_reported":1753363930,"current_range_meters":20400,"station_id":"ce4bgr92rcd13ifvqc6g","pricing_plan_id":"cebpf4jnsgd1na2vs0mg"},{"bike_id":"92a0c571-dc5f-4c30-8e70-c6f2f2d2fde2","system_id":"levelo_inurba_marseille","lat":43.28665,"lon":5.38671,"is_reserved":false,"is_disabled":false,"rental_uris":{"android":"levelo://app?vid=92a0c571-dc5f-4c30-8e70-c6f2f2d2fde2","ios":"levelo://app?vid=92a0c571-dc5f-4c30-8e70-c6f2f2d2fde2"},"vehicle_type_id":"4","last_reported":1753363930,"current_range_meters":20400,"station_id":"ce4bh492rcd13ifvqdug","pricing_plan_id":"cebpf4jnsgd1na2vs0mg"},{"bike_id":"e616c225-6407-4d4d-9164-2abe6ca11a93","system_id":"levelo_inurba_marseille","lat":43.31164,"lon":5.38712,"is_reserved":false,"is_disabled":false,"rental_uris":{"android":"levelo://app?vid=e616c225-6407-4d4d-9164-2abe6ca11a93","ios":"levelo://app?vid=e616c225-6407-4d4d-9164-2abe6ca11a93"},"vehicle_type_id":"4","last_reported":1753363930,"current_range_meters":20000,"station_id":"ce4bgv12rcd13ifvqcp0","pricing_plan_id":"cebpf4jnsgd1na2vs0mg"},{"bike_id":"3af1dfbf-1ce9-4c16-a673-77d42ec9d980","system_id":"levelo_inurba_marseille","lat":43.29251,"lon":5.40913,"is_reserved":false,"is_disabled":false,"rental_uris":{"android":"levelo://app?vid=3af1dfbf-1ce9-4c16-a673-77d42ec9d980","ios":"levelo://app?vid=3af1dfbf-1ce9-4c16-a673-77d42ec9d980"},"vehicle_type_id":"4","last_reported":1753363930,"current_range_meters":20000,"station_id":"ce4bh192rcd13ifvqdc0","pricing_plan_id":"cebpf4jnsgd1na2vs0mg"},