{"last_updated":1679418389,"ttl":30,"version":"2.2","data":{"bikes":[{"bike_id":"d0505790-1325-4b70-a244-3333c86af198","system_id":"levelo_inurba_marseille","lat":43.315763,"lon":5.373087,"is_reserved":false,"is_disabled":false,"rental_uris":{"android":"levelo://app?vid=d0505790-1325-4b70-a244-3333c86af198","ios":"levelo://app?vid=d0505790-1325-4b70-a244-3333c86af198"},"vehicle_type_id":"4","last_reported":1679418391,"current_range_meters":14800,"station_id":"","pricing_plan_id":"free"},{"bike_id":"508194aa-0489-4b61-b398-7ead27250d30","system_id":"levelo_inurba_marseille","lat":43.305845,"lon":5.36589,"is_reserved":false,"is_disabled":false,"rental_uris":{"android":"levelo://app?vid=508194aa-0489-4b61-b398-7ead27250d30","ios":"levelo://app?vid=508194aa-0489-4b61-b398-7ead27250d30"},"vehicle_type_id":"4","last_reported":1679418391,"current_range_meters":12800,"station_id":"ce4bgs12rcd13ifvqcag","pricing_plan_id":"free"},{"bike_id":"7dbadea5-a6e6-4bdb-b011-2440dcf545c4","system_id":"levelo_inurba_marseille","lat":43.30551,"lon":5.367038,"is_reserved":false,"is_disabled":false,"rental_uris":{"android":"levelo://app?vid=7dbadea5-a6e6-4bdb-b011-2440dcf545c4","ios":"levelo://app?vid=7dbadea5-a6e6-4bdb-b011-2440dcf545c4"},"vehicle_type_id":"4","last_reported":1679418391,"current_range_meters":0,"station_id":"","pricing_plan_id":"free"},{"bike_id":"ede9593f-27d4-4885-b435-ed386afeeeac","system_id":"levelo_inurba_marseille","lat":43.30546,"lon":5.367011,"is_reserved":false,"is_disabled":false,"rental_uris":{"android":"levelo://app?vid=ede9593f-27d4-4885-b435-ed386afeeeac","ios":"levelo://app?vid=ede9593f-27d4-4885-b435-ed386afeeeac"},"vehicle_type_id":"4","last_reported":1679418391,"current_range_meters":0,"station_id":"ce4bgrp2rcd13ifvqc9g","pricing_plan_id":"free"},{"bike_id":"bcc64ccb-ce40-47fc-acaf-9cf4e46d38cf","system_id":"levelo_inurba_marseille","lat":43.30535,"lon":5.3673,"is_reserved":false,"is_disabled":false,"rental_uris":{"android":"levelo://app?vid=bcc64ccb-ce40-47fc-acaf-9cf4e46d38cf","ios":"levelo://app?vid=bcc64ccb-ce40-47fc-acaf-9cf4e46d38cf"},"vehicle_type_id":"4","last_reported":1679418391,"current_range_meters":0,"station_id":"","pricing_plan_id":"free"},{"bike_id":"8a23f941-e021-4e98-a9c9-83807178b780","system_id":"levelo_inurba_marseille","lat":43.30597,"lon":5.37233,"is_reserved":false,"is_disabled":false,"rental_uris":{"android":"levelo://app?vid=8a23f941-e021-4e98-a9c9-83807178b780","ios":"levelo://app?vid=8a23f941-e021-4e98-a9c9-83807178b780"},"vehicle_type_id":"4","last_reported":1679418391,"current_range_meters":0,"station_id":"ce4bgqh2rcd13ifvqc4g","pricing_plan_id":"free"},{"bike_id":"ccb5cf32-81a1-4e35-accb-69b31ab8e1f1","system_id":"levelo_inurba_marseille","lat":43.31709,"lon":5.37748,"is_reserved":false,"is_disabled":false,"rental_uris":{"android":"levelo://app?vid=ccb5cf32-81a1-4e35-accb-69b31ab8e1f1","ios":"levelo://app?vid=ccb5cf32-81a1-4e35-accb-69b31ab8e1f1"},"vehicle_type_id":"4","last_reported":1679418391,"current_range_meters":28800,"station_id":"ce4bgth2rcd13ifvqch0","pricing_plan_id":"free"},{"bike_id":"a8de5b4c-8791-426e-a8bb-2fc0c58bb41b","system_id":"levelo_inurba_marseille","lat":43.301983,"lon":5.366253,"is_reserved":false,"is_disabled":false,"rental_uris":{"android":"levelo://app?vid=a8de5b4c-8791-426e-a8bb-2fc0c58bb41b","ios":"levelo://app?vid=a8de5b4c-8791-426e-a8bb-2fc0c58bb41b"},"vehicle_type_id":"4","last_reported":1679418391,"current_range_meters":10000,"station_id":"ce4bgrh2rcd13ifvqc8g","pricing_plan_id":"free"},{"bike_id":"21893fb1-5857-41c1-a3dd-aae14496c54d","system_id":"levelo_inurba_marseille","lat":43.301939,"lon":5.366286,"is_reserved":false,"is_disabled":false,"rental_uris":{"android":"levelo://app?vid=21893fb1-5857-41c1-a3dd-aae14496c54d","ios":"levelo://app?vid=21893fb1-5857-41c1-a3dd-aae14496c54d"},"vehicle_type_id":"4","last_reported":1679418391,"current_range_meters":2000,"station_id":"ce4bgrh2rcd13ifvqc8g","pricing_plan_id":"free"},{"bike_id":"43f3faa5-bc3f-4463-af9b-e2ea51a3a7c0","system_id":"levelo_inurba_marseille","lat":43.30177,"lon":5.36628,"is_reserved":false,"is_disabled":false,"rental_uris":{"android":"levelo://app?vid=43f3faa5-bc3f-4463-af9b-e2ea51a3a7c0","ios":"levelo://app?vid=43f3faa5-bc3f-4463-af9b-e2ea51a3a7c0"},"vehicle_type_id":"4","last_reported":1679418391,"current_range_meters":3600,"station_id":"ce4bgrh2rcd13ifvqc8g","pricing_plan_id":"free"},{"bike_id":"06f5e188-ad33-449a-aaca-e8b883ebab20","system_id":"levelo_inurba_marseille","lat":43.313571,"lon":5.384829,"is_reserved":false,"is_disabled":false,"rental_uris":{"android":"levelo://app?vid=06f5e188-ad33-449a-aaca-e8b883ebab20","ios":"levelo://app?vid=06f5e188-ad33-449a-aaca-e8b883ebab20"},"vehicle_type_id":"4","last_reported":1679418391,"current_range_meters":23200,"station_id":"ce4bgt92rcd13ifvqcf0","pricing_plan_id":"free"},{"bike_id":"811e765c-51a1-4e18-a610-8748a8859420","system_id":"levelo_inurba_marseille","lat":43.3136,"lon":5.38493,"is_reserved":false,"is_disabled":false,"rental_uris":{"android":"levelo://app?vid=811e765c-51a1-4e18-a610-8748a8859420","ios":"levelo://app?vid=811e765c-51a1-4e18-a610-8748a8859420"},"vehicle_type_id":"4","last_reported":1679418391,"current_range_meters":11200,"station_id":"ce4bgt92rcd13ifvqcf0","pricing_plan_id":"free"},{"bike_id":"9163a9c5-bee3-4272-8a41-b890cf48c0a3","system_id":"levelo_inurba_marseille","lat":43.299338,"lon":5.365544,"is_reserved":false,"is_disabled":false,"rental_uris":{"android":"levelo://app?vid=9163a9c5-bee3-4272-8a41-b890cf48c0a3","ios":"levelo://app?vid=9163a9c5-bee3-4272-8a41-b890cf48c0a3"},"vehicle_type_id":"4","last_reported":1679418391,"current_range_meters":21600,"station_id":"ce4bghh2rcd13ifvqb60","pricing_plan_id":"free"},{"bike_id":"77bb03a9-6d94-4fe6-add8-d013cb94c52c","system_id":"levelo_inurba_marseille","lat":43.299094,"lon":5.365415,"is_reserved":false,"is_disabled":false,"rental_uris":{"android":"levelo://app?vid=77bb03a9-6d94-4fe6-add8-d013cb94c52c","ios":"levelo://app?vid=77bb03a9-6d94-4fe6-add8-d013cb94c52c"},"vehicle_type_id":"4","last_reported":1679418391,"current_range_meters":22800,"station_id":"ce4bgm92rcd13ifvqbr0","pricing_plan_id":"free"},{"bike_id":"edef0709-2034-4fdb-a46a-74e8262a354b","system_id":"levelo_inurba_marseille","lat":43.29852,"lon":5.36292,"is_reserved":false,"is_disabled":false,"rental_uris":{"android":"levelo://app?vid=edef0709-2034-4fdb-a46a-74e8262a354b","ios":"levelo://app?vid=edef0709-2034-4fdb-a46a-74e8262a354b"},"vehicle_type_id":"4","last_reported":1679418391,"current_range_meters":19200,"station_id":"ce4bgpp2rcd13ifvqc3g","pricing_plan_id":"free"},{"bike_id":"81cf1b32-44e5-4290-9096-cfbf169467ec","system_id":"levelo_inurba_marseille","lat":43.29852,"lon":5.3629,"is_reserved":false,"is_disabled":false,"rental_uris":{"android":"levelo://app?vid=81cf1b32-44e5-4290-9096-cfbf169467ec","ios":"levelo://app?vid=81cf1b32-44e5-4290-9096-cfbf169467ec"},"vehicle_type_id":"4","last_reported":1679418391,"current_range_meters":28400,"station_id":"ce4bgpp2rcd13ifvqc3g","pricing_plan_id":"free"},{"bike_id":"d936dc6e-7f3b-49bf-84f9-489f396016ff","system_id":"levelo_inurba_marseille","lat":43.29852,"lon":5.36289,"is_reserved":false,"is_disabled":false,"rental_uris":{"android":"levelo://app?vid=d936dc6e-7f3b-49bf-84f9-489f396016ff","ios":"levelo://app?vid=d936dc6e-7f3b-49bf-84f9-489f396016ff"},"vehicle_type_id":"4","last_reported":1679418391,"current_range_meters":18400,"station_id":"","pricing_plan_id":"free"},{"bike_id":"c1838b31-ed58-439e-a2d3-ef9b0f83776c","system_id":"levelo_inurba_marseille","lat":43.29851,"lon":5.36277,"is_reserved":false,"is_disabled":false,"rental_uris":{"android":"levelo://app?vid=c1838b31-ed58-439e-a2d3-ef9b0f83776c","ios":"levelo://app?vid=c1838b31-ed58-439e-a2d3-ef9b0f83776c"},"vehicle_type_id":"4","last_reported":1679418391,"current_range_meters":28400,"station_id":"","pricing_plan_id":"free"},{"bike_id":"ed17efcd-088c-4424-aaf4-f6060ec49094","system_id":"levelo_inurba_marseille","lat":43.298433,"lon":5.362774,"is_reserved":false,"is_disabled":false,"rental_uris":{"android":"levelo://app?vid=ed17efcd-088c-4424-aaf4-f6060ec49094","ios":"levelo://app?vid=ed17efcd-088c-4424-aaf4-f6060ec49094"},"vehicle_type_id":"4","last_reported":1679418391,"current_range_meters":23200,"station_id":"ce4bgpp2rcd13ifvqc3g","pricing_plan_id":"free"},{"bike_id":"21f15b2b-704f-49bd-88e4-14c0a2e655f5","system_id":"levelo_inurba_marseille","lat":43.29848,"lon":5.36286,"is_reserved":false,"is_disabled":false,"rental_uris":{"android":"levelo://app?vid=21f15b2b-704f-49bd-88e4-14c0a2e655f5","ios":"levelo://app?vid=21f15b2b-704f-49bd-88e4-14c0a2e655f5"},"vehicle_type_id":"4","last_reported":1679418391,"current_range_meters":28000,"station_id":"","pricing_plan_id":"free"},{"bike_id":"dddc4c19-83c3-4f44-8260-78e459eceb55","system_id":"levelo_inurba_marseille","lat":43.298433,"lon":5.362774,"is_reserved":false,"is_disabled":false,"rental_uris":{"android":"levelo://app?vid=dddc4c19-83c3-4f44-8260-78e459eceb55","ios":"levelo://app?vid=dddc4c19-83c3-4f44-8260-78e459eceb55"},"vehicle_type_id":"4","last_reported":1679418391,"current_range_meters":31600,"station_id":"ce4bgpp2rcd13ifvqc3g","pricing_plan_id":"free"},{"bike_id":"81e4cba6-8a02-409e-829f-773fb835b4b8","system_id":"levelo_inurba_marseille","lat":43.298433,"lon":5.362774,"is_reserved":false,"is_disabled":false,"rental_uris":{"android":"levelo://app?vid=81e4cba6-8a02-409e-829f-773fb835b4b8","ios":"levelo://app?vid=81e4cba6-8a02-409e-829f-773fb835b4b8"},"vehicle_type_id":"4","last_reported":1679418391,"current_range_meters":31600,"station_id":"ce4bgpp2rcd13ifvqc3g","pricing_plan_id":"free"},{"bike_id":"c6eadd01-8a55-4c65-b1f8-d6c1df0e8a8e","system_id":"levelo_inurba_marseille","lat":43.298433,"lon":5.362774,"is_reserved":false,"is_disabled":false,"rental_uris":{"android":"levelo://app?vid=c6eadd01-8a55-4c65-b1f8-d6c1df0e8a8e","ios":"levelo://app?vid=c6eadd01-8a55-4c65-b1f8-d6c1df0e8a8e"},"vehicle_type_id":"4","last_reported":1679418391,"current_range_meters":31600,"station_id":"ce4bgpp2rcd13ifvqc3g","pricing_plan_id":"free"},{"bike_id":"b69591f6-a624-43f6-b8b1-7c952fbbfb1d","system_id":"levelo_inurba_marseille","lat":43.298433,"lon":5.362774,"is_reserved":false,"is_disabled":false,"rental_uris":{"android":"levelo://app?vid=b69591f6-a624-43f6-b8b1-7c952fbbfb1d","ios":"levelo://app?vid=b69591f6-a624-43f6-b8b1-7c952fbbfb1d"},"vehicle_type_id":"4","last_reported":1679418391,"current_range_meters":31600,"station_id":"ce4bgpp2rcd13ifvqc3g","pricing_plan_id":"free"},{"bike_id":"4b731e4f-71b3-4ed0-9ad6-f6a3549ab8f3","system_id":"levelo_inurba_marseille","lat":43.298433,"lon":5.362774,"is_reserved":false,"is_disabled":false,"rental_uris":{"android":"levelo://app?vid=4b731e4f-71b3-4ed0-9ad6-f6a3549ab8f3","ios":"levelo://app?vid=4b731e4f-71b3-4ed0-9ad6-f6a3549ab8f3"},"vehicle_type_id":"4","last_reported":1679418391,"current_range_meters":31600,"station_id":"ce4bgpp2rcd13ifvqc3g","pricing_plan_id":"free"},{"bike_id":"d489d5dd-2332-495f-b026-c1ff6e7d6f1c","system_id":"levelo_inurba_marseille","lat":43.298433,"lon":5.362774,"is_reserved":false,"is_disabled":false,"rental_uris":{"android":"levelo://app?vid=d489d5dd-2332-495f-b026-c1ff6e7d6f1c","ios":"levelo://app?vid=d489d5dd-2332-495f-b026-c1ff6e7d6f1c"},"vehicle_type_id":"4","last_reported":1679418391,"current_range_meters":31600,"station_id":"ce4bgpp2rcd13ifvqc3g","pricing_plan_id":"free"},{"bike_id":"28861572-0097-4bdc-b94a-20fb11d8603f","system_id":"levelo_inurba_marseille","lat":43.311713,"lon":5.387139,"is_reserved":false,"is_disabled":false,"rental_uris":{"android":"levelo://app?vid=28861572-0097-4bdc-b94a-20fb11d8603f","ios":"levelo://app?vid=28861572-0097-4bdc-b94a-20fb11d8603f"},"vehicle_type_id":"4","last_reported":1679418391,"current_range_meters":0,"station_id":"ce4bgv12rcd13ifvqcp0","pricing_plan_id":"free"},{"bike_id":"e59193d9-8651-4b4c-8bf2-3a27e16375a8","system_id":"levelo_inurba_marseille","lat":43.297794,"lon":5.370888,"is_reserved":false,"is_disabled":false,"rental_uris":{"android":"levelo://app?vid=e59193d9-8651-4b4c-8bf2-3a27e16375a8","ios":"levelo://app?vid=e59193d9-8651-4b4c-8bf2-3a27e16375a8"},"vehicle_type_id":"4","last_reported":1679418391,"current_range_meters":13600,"station_id":"ce4bgop2rcd13ifvqc1g","pricing_plan_id":"free"},{"bike_id":"99bb71eb-c0f5-4d39-8d14-280a11a6383c","system_id":"levelo_inurba_marseille","lat":43.297794,"lon":5.370888,"is_reserved":false,"is_disabled":false,"rental_uris":{"android":"levelo://app?vid=99bb71eb-c0f5-4d39-8d14-280a11a6383c","ios":"levelo://app?vid=99bb71eb-c0f5-4d39-8d14-280a11a6383c"},"vehicle_type_id":"4","last_reported":1679418391,"current_range_meters":28000,"station_id":"ce4bgop2rcd13ifvqc1g","pricing_plan_id":"free"},{"bike_id":"dd353d28-3147-4e66-beef-eaf99185232f","system_id":"levelo_inurba_marseille","lat":43.297794,"lon":5.370888,"is_reserved":false,"is_disabled":false,"rental_uris":{"android":"levelo://app?vid=dd353d28-3147-4e66-beef-eaf99185232f","ios":"levelo://app?vid=dd353d28-3147-4e66-beef-eaf99185232f"},"vehicle_type_id":"4","last_reported":1679418391,"current_range_meters":14400,"station_id":"ce4bgop2rcd13ifvqc1g","pricing_plan_id":"free"},{"bike_id":"1e5b2c14-706a-45f9-8300-4addb5d056a2","system_id":"levelo_inurba_marseille","lat":43.32825,"lon":5.36694,"is_reserved":false,"is_disabled":false,"rental_uris":{"android":"levelo://app?vid=1e5b2c14-706a-45f9-8300-4addb5d056a2","ios":"levelo://app?vid=1e5b2c14-706a-45f9-8300-4addb5d056a2"},"vehicle_type_id":"4","last_reported":1679418391,"current_range_meters":8800,"station_id":"","pricing_plan_id":"free"},{"bike_id":"34b31b93-1085-4be3-bbee-fbc264f034b2","system_id":"levelo_inurba_marseille","lat":43.3283,"lon":5.36694,"is_reserved":false,"is_disabled":false,"rental_uris":{"android":"levelo://app?vid=34b31b93-1085-4be3-bbee-fbc264f034b2","ios":"levelo://app?vid=34b31b93-1085-4be3-bbee-fbc264f034b2"},"vehicle_type_id":"4","last_reported":1679418391,"current_range_meters":20000,"station_id":"","pricing_plan_id":"free"},{"bike_id":"2bc3b85e-3915-4ee9-b8ba-310385027774","system_id":"levelo_inurba_marseille","lat":43.32834,"lon":5.36695,"is_reserved":false,"is_disabled":false,"rental_uris":{"android":"levelo://app?vid=2bc3b85e-3915-4ee9-b8ba-310385027774","ios":"levelo://app?vid=2bc3b85e-3915-4ee9-b8ba-310385027774"},"vehicle_type_id":"4","last_reported":1679418391,"current_range_meters":17600,"station_id":"","pricing_plan_id":"free"},{"bike_id":"c69d9e4e-a471-4a94-99f5-1ae0a0c35036","system_id":"levelo_inurba_marseille","lat":43.328359,"lon":5.366815,"is_reserved":false,"is_disabled":false,"rental_uris":{"android":"levelo://app?vid=c69d9e4e-a471-4a94-99f5-1ae0a0c35036","ios":"levelo://app?vid=c69d9e4e-a471-4a94-99f5-1ae0a0c35036"},"vehicle_type_id":"4","last_reported":1679418391,"current_range_meters":18000,"station_id":"ce4bhs92rcd13ifvqi0g","pricing_plan_id":"free"},{"bike_id":"a21cb69a-40cb-40c1-9022-539ee20dc5d0","system_id":"levelo_inurba_marseille","lat":43.32837,"lon":5.36693,"is_reserved":false,"is_disabled":false,"rental_uris":{"android":"levelo://app?vid=a21cb69a-40cb-40c1-9022-539ee20dc5d0","ios":"levelo://app?vid=a21cb69a-40cb-40c1-9022-539ee20dc5d0"},"vehicle_type_id":"4","last_reported":1679418391,"current_range_meters":4000,"station_id":"ce4bhs92rcd13ifvqi0g","pricing_plan_id":"free"},{"bike_id":"809bed9a-08ae-417c-8c67-78ec90880c5c","system_id":"levelo_inurba_marseille","lat":43.328371,"lon":5.366909,"is_reserved":false,"is_disabled":false,"rental_uris":{"android":"levelo://app?vid=809bed9a-08ae-417c-8c67-78ec90880c5c","ios":"levelo://app?vid=809bed9a-08ae-417c-8c67-78ec90880c5c"},"vehicle_type_id":"4","last_reported":1679418391,"current_range_meters":6400,"station_id":"ce4bhs92rcd13ifvqi0g","pricing_plan_id":"free"},{"bike_id":"b01e5bc1-38ef-4e36-ac72-88ca3b8e41dc","system_id":"levelo_inurba_marseille","lat":43.29691,"lon":5.37284,"is_reserved":false,"is_disabled":false,"rental_uris":{"android":"levelo://app?vid=b01e5bc1-38ef-4e36-ac72-88ca3b8e41dc","ios":"levelo://app?vid=b01e5bc1-38ef-4e36-ac72-88ca3b8e41dc"},"vehicle_type_id":"4","last_reported":1679418391,"current_range_meters":0,"station_id":"","pricing_plan_id":"free"},{"bike_id":"aec59fa0-2efd-4890-94b9-c5396868ce0a","system_id":"levelo_inurba_marseille","lat":43.296131,"lon":5.370791,"is_reserved":false,"is_disabled":false,"rental_uris":{"android":"levelo://app?vid=aec59fa0-2efd-4890-94b9-c5396868ce0a","ios":"levelo://app?vid=aec59fa0-2efd-4890-94b9-c5396868ce0a"},"vehicle_type_id":"4","last_reported":1679418391,"current_range_meters":28400,"station_id":"ce4bgnh2rcd13ifvqc0g","pricing_plan_id":"free"},{"bike_id":"0cb62a45-dcfb-4e7e-bfff-c603553a258d","system_id":"levelo_inurba_marseille","lat":43.296131,"lon":5.370791,"is_reserved":false,"is_disabled":false,"rental_uris":{"android":"levelo://app?vid=0cb62a45-dcfb-4e7e-bfff-c603553a258d","ios":"levelo://app?vid=0cb62a45-dcfb-4e7e-bfff-c603553a258d"},"vehicle_type_id":"4","last_reported":1679418391,"current_range_meters":27600,"station_id":"ce4bgnh2rcd13ifvqc0g","pricing_plan_id":"free"},{"bike_id":"c53ead23-cab4-4763-8df6-db2fd86b991d","system_id":"levelo_inurba_marseille","lat":43.31755,"lon":5.39022,"is_reserved":false,"is_disabled":false,"rental_uris":{"android":"levelo://app?vid=c53ead23-cab4-4763-8df6-db2fd86b991d","ios":"levelo://app?vid=c53ead23-cab4-4763-8df6-db2fd86b991d"},"vehicle_type_id":"4","last_reported":1679418391,"current_range_meters":26800,"station_id":"ce4bhqp2rcd13ifvqhng","pricing_plan_id":"free"},{"bike_id":"1a1f56e8-fb57-4105-b774-70216caca147","system_id":"levelo_inurba_marseille","lat":43.295748,"lon":5.37522,"is_reserved":false,"is_disabled":false,"rental_uris":{"android":"levelo://app?vid=1a1f56e8-fb57-4105-b774-70216caca147","ios":"levelo://app?vid=1a1f56e8-fb57-4105-b774-70216caca147"},"vehicle_type_id":"4","last_reported":1679418391,"current_range_meters":0,"station_id":"ce4bgh92rcd13ifvqb50","pricing_plan_id":"free"},{"bike_id":"911f42e1-3a99-4fb5-aa9f-7505d1dae1e9","system_id":"levelo_inurba_marseille","lat":43.29529,"lon":5.385581,"is_reserved":false,"is_disabled":false,"rental_uris":{"android":"levelo://app?vid=911f42e1-3a99-4fb5-aa9f-7505d1dae1e9","ios":"levelo://app?vid=911f42e1-3a99-4fb5-aa9f-7505d1dae1e9"},"vehicle_type_id":"4","last_reported":1679418391,"current_range_meters":4800,"station_id":"ce4bgih2rcd13ifvqba0","pricing_plan_id":"free"},{"bike_id":"d000527e-db5e-4d6c-81b4-1230aab372c8","system_id":"levelo_inurba_marseille","lat":43.241782,"lon":5.397261,"is_reserved":false,"is_disabled":false,"rental_uris":{"android":"levelo://app?vid=d000527e-db5e-4d6c-81b4-1230aab372c8","ios":"levelo://app?vid=d000527e-db5e-4d6c-81b4-1230aab372c8"},"vehicle_type_id":"4","last_reported":1679418391,"current_range_meters":12800,"station_id":"ce4bhn12rcd13ifvqgpg","pricing_plan_id":"free"},{"bike_id":"96d228fd-b6d8-430c-a313-cfd830213508","system_id":"levelo_inurba_marseille","lat":43.32366,"lon":5.38883,"is_reserved":false,"is_disabled":false,"rental_uris":{"android":"levelo://app?vid=96d228fd-b6d8-430c-a313-cfd830213508","ios":"levelo://app?vid=96d228fd-b6d8-430c-a313-cfd830213508"},"vehicle_type_id":"4","last_reported":1679418391,"current_range_meters":0,"station_id":"ce4bhqp2rcd13ifvqhog","pricing_plan_id":"free"},{"bike_id":"ff4cce1b-c84e-4e27-8b34-3617e95ff38d","system_id":"levelo_inurba_marseille","lat":43.312857,"lon":5.39372,"is_reserved":false,"is_disabled":false,"rental_uris":{"android":"levelo://app?vid=ff4cce1b-c84e-4e27-8b34-3617e95ff38d","ios":"levelo://app?vid=ff4cce1b-c84e-4e27-8b34-3617e95ff38d"},"vehicle_type_id":"4","last_reported":1679418391,"current_range_meters":3200,"station_id":"","pricing_plan_id":"free"},{"bike_id":"9a6b5ac7-c11f-42fe-8321-616a44c7258c","system_id":"levelo_inurba_marseille","lat":43.293009,"lon":5.374584,"is_reserved":false,"is_disabled":false,"rental_uris":{"android":"levelo://app?vid=9a6b5ac7-c11f-42fe-8321-616a44c7258c","ios":"levelo://app?vid=9a6b5ac7-c11f-42fe-8321-616a44c7258c"},"vehicle_type_id":"4","last_reported":1679418391,"current_range_meters":1200,"station_id":"ce4bgi12rcd13ifvqb70","pricing_plan_id":"free"},{"bike_id":"4242e50d-ff3c-48ad-a527-99338ad1b2fb","system_id":"levelo_inurba_marseille","lat":43.292946,"lon":5.37458,"is_reserved":false,"is_disabled":false,"rental_uris":{"android":"levelo://app?vid=4242e50d-ff3c-48ad-a527-99338ad1b2fb","ios":"levelo://app?vid=4242e50d-ff3c-48ad-a527-99338ad1b2fb"},"vehicle_type_id":"4","last_reported":1679418391,"current_range_meters":5200,"station_id":"ce4bgi12rcd13ifvqb70","pricing_plan_id":"free"},{"bike_id":"8c942cf2-2ebf-4b6a-a7ac-c4d2633bc8a6","system_id":"levelo_inurba_marseille","lat":43.313291,"lon":5.396838,"is_reserved":false,"is_disabled":false,"rental_uris":{"android":"levelo://app?vid=8c942cf2-2ebf-4b6a-a7ac-c4d2633bc8a6","ios":"levelo://app?vid=8c942cf2-2ebf-4b6a-a7ac-c4d2633bc8a6"},"vehicle_type_id":"4","last_reported":1679418391,"current_range_meters":15200,"station_id":"ce4bgvp2rcd13ifvqcu0","pricing_plan_id":"free"},{"bike_id":"d159a72f-0c03-4ab6-bce2-312ec46f971c","system_id":"levelo_inurba_marseille","lat":43.292885,"lon":5.374525,"is_reserved":false,"is_disabled":false,"rental_uris":{"android":"levelo://app?vid=d159a72f-0c03-4ab6-bce2-312ec46f971c","ios":"levelo://app?vid=d159a72f-0c03-4ab6-bce2-312ec46f971c"},"vehicle_type_id":"4","last_reported":1679418391,"current_range_meters":19600,"station_id":"","pricing_plan_id":"free"},{"bike_id":"5fdf91e4-7ebf-4a31-a316-f59cff9436bc","system_id":"levelo_inurba_marseille","lat":43.29228,"lon":5.36054,"is_reserved":false,"is_disabled":false,"rental_uris":{"android":"levelo://app?vid=5fdf91e4-7ebf-4a31-a316-f59cff9436bc","ios":"levelo://app?vid=5fdf91e4-7ebf-4a31-a316-f59cff9436bc"},"vehicle_type_id":"4","last_reported":1679418391,"current_range_meters":18800,"station_id":"","pricing_plan_id":"free"},{"bike_id":"d5d4e89a-0b09-46a2-b40c-d43081fc2cbf","system_id":"levelo_inurba_marseille","lat":43.29165,"lon":5.37149,"is_reserved":false,"is_disabled":false,"rental_uris":{"android":"levelo://app?vid=d5d4e89a-0b09-46a2-b40c-d43081fc2cbf","ios":"levelo://app?vid=d5d4e89a-0b09-46a2-b40c-d43081fc2cbf"},"vehicle_type_id":"4","last_reported":1679418391,"current_range_meters":20000,"station_id":"ce4bha92rcd13ifvqeh0","pricing_plan_id":"free"},{"bike_id":"db73e7d2-4f7f-4853-9d74-bf5820e57e3f","system_id":"levelo_inurba_marseille","lat":43.241782,"lon":5.397261,"is_reserved":false,"is_disabled":false,"rental_uris":{"android":"levelo://app?vid=db73e7d2-4f7f-4853-9d74-bf5820e57e3f","ios":"levelo://app?vid=db73e7d2-4f7f-4853-9d74-bf5820e57e3f"},"vehicle_type_id":"4","last_reported":1679418391,"current_range_meters":28800,"station_id":"ce4bhn12rcd13ifvqgpg","pricing_plan_id":"free"},{"bike_id":"6487779a-030f-4381-a455-35f225d78d8a","system_id":"levelo_inurba_marseille","lat":43.313291,"lon":5.396838,"is_reserved":false,"is_disabled":false,"rental_uris":{"android":"levelo://app?vid=6487779a-030f-4381-a455-35f225d78d8a","ios":"levelo://app?vid=6487779a-030f-4381-a455-35f225d78d8a"},"vehicle_type_id":"4","last_reported":1679418391,"current_range_meters":18800,"station_id":"ce4bgvp2rcd13ifvqcu0","pricing_plan_id":"free"},{"bike_id":"31296ab8-0c09-4ab4-aab4-cbe906baff7f","system_id":"levelo_inurba_marseille","lat":43.313291,"lon":5.396838,"is_reserved":false,"is_disabled":false,"rental_uris":{"android":"levelo://app?vid=31296ab8-0c09-4ab4-aab4-cbe906baff7f","ios":"levelo://app?vid=31296ab8-0c09-4ab4-aab4-cbe906baff7f"},"vehicle_type_id":"4","last_reported":1679418391,"current_range_meters":24800,"station_id":"ce4bgvp2rcd13ifvqcu0","pricing_plan_id":"free"},{"bike_id":"b44f3a7c-2796-4d35-95ff-4abe04a9aa91","system_id":"levelo_inurba_marseille","lat":43.29531,"lon":5.38553,"is_reserved":false,"is_disabled":false,"rental_uris":{"android":"levelo://app?vid=b44f3a7c-2796-4d35-95ff-4abe04a9aa91","ios":"levelo://app?vid=b44f3a7c-2796-4d35-95ff-4abe04a9aa91"},"vehicle_type_id":"4","last_reported":1679418391,"current_range_meters":14800,"station_id":"ce4bgih2rcd13ifvqba0","pricing_plan_id":"free"},{"bike_id":"073932e4-e490-475c-956b-e4c26cadc91e","system_id":"levelo_inurba_marseille","lat":43.30208,"lon":5.39471,"is_reserved":false,"is_disabled":false,"rental_uris":{"android":"levelo://app?vid=073932e4-e490-475c-956b-e4c26cadc91e","ios":"levelo://app?vid=073932e4-e490-475c-956b-e4c26cadc91e"},"vehicle_type_id":"4","last_reported":1679418391,"current_range_meters":1600,"station_id":"ce4bh0p2rcd13ifvqd70","pricing_plan_id":"free"},{"bike_id":"eaf0a3c3-2ec6-4523-be62-9d11bf340c3c","system_id":"levelo_inurba_marseille","lat":43.290624,"lon":5.359245,"is_reserved":false,"is_disabled":false,"rental_uris":{"android":"levelo://app?vid=eaf0a3c3-2ec6-4523-be62-9d11bf340c3c","ios":"levelo://app?vid=eaf0a3c3-2ec6-4523-be62-9d11bf340c3c"},"vehicle_type_id":"4","last_reported":1679418391,"current_range_meters":21600,"station_id":"ce4bha92rcd13ifvqeg0","pricing_plan_id":"free"},{"bike_id":"dae12d8f-1dc7-4b52-864f-1be86f1d0ee0","system_id":"levelo_inurba_marseille","lat":43.290624,"lon":5.359245,"is_reserved":false,"is_disabled":false,"rental_uris":{"android":"levelo://app?vid=dae12d8f-1dc7-4b52-864f-1be86f1d0ee0","ios":"levelo://app?vid=dae12d8f-1dc7-4b52-864f-1be86f1d0ee0"},"vehicle_type_id":"4","last_reported":1679418391,"current_range_meters":28800,"station_id":"ce4bha92rcd13ifvqeg0","pricing_plan_id":"free"},{"bike_id":"d42ce773-f70a-4195-8af9-5a31a5df8262","system_id":"levelo_inurba_marseille","lat":43.29041,"lon":5.3592,"is_reserved":false,"is_disabled":false,"rental_uris":{"android":"levelo://app?vid=d42ce773-f70a-4195-8af9-5a31a5df8262","ios":"levelo://app?vid=d42ce773-f70a-4195-8af9-5a31a5df8262"},"vehicle_type_id":"4","last_reported":1679418391,"current_range_meters":19600,"station_id":"","pricing_plan_id":"free"},{"bike_id":"c70e0078-92c3-4efe-95e6-b1ecb83b0606","system_id":"levelo_inurba_marseille","lat":43.290319,"lon":5.375732,"is_reserved":false,"is_disabled":false,"rental_uris":{"android":"levelo://app?vid=c70e0078-92c3-4efe-95e6-b1ecb83b0606","ios":"levelo://app?vid=c70e0078-92c3-4efe-95e6-b1ecb83b0606"},"vehicle_type_id":"4","last_reported":1679418391,"current_range_meters":27600,"station_id":"ce4bh692rcd13ifvqe90","pricing_plan_id":"free"},{"bike_id":"b38d0d74-0ca9-4bae-81cc-abca539f1bd1","system_id":"levelo_inurba_marseille","lat":43.330442,"lon":5.389148,"is_reserved":false,"is_disabled":false,"rental_uris":{"android":"levelo://app?vid=b38d0d74-0ca9-4bae-81cc-abca539f1bd1","ios":"levelo://app?vid=b38d0d74-0ca9-4bae-81cc-abca539f1bd1"},"vehicle_type_id":"4","last_reported":1679418391,"current_range_meters":15200,"station_id":"ce4bhr92rcd13ifvqhrg","pricing_plan_id":"free"},{"bike_id":"4a551439-aa8f-4c6d-b4d9-2041e5f0cc2a","system_id":"levelo_inurba_marseille","lat":43.330442,"lon":5.389148,"is_reserved":false,"is_disabled":false,"rental_uris":{"android":"levelo://app?vid=4a551439-aa8f-4c6d-b4d9-2041e5f0cc2a","ios":"levelo://app?vid=4a551439-aa8f-4c6d-b4d9-2041e5f0cc2a"},"vehicle_type_id":"4","last_reported":1679418391,"current_range_meters":9200,"station_id":"ce4bhr92rcd13ifvqhrg","pricing_plan_id":"free"},{"bike_id":"8f227835-6a73-4cbb-b035-84016829fd39","system_id":"levelo_inurba_marseille","lat":43.330442,"lon":5.389148,"is_reserved":false,"is_disabled":false,"rental_uris":{"android":"levelo://app?vid=8f227835-6a73-4cbb-b035-84016829fd39","ios":"levelo://app?vid=8f227835-6a73-4cbb-b035-84016829fd39"},"vehicle_type_id":"4","last_reported":1679418391,"current_range_meters":19200,"station_id":"ce4bhr92rcd13ifvqhrg","pricing_plan_id":"free"},{"bike_id":"ec3a608f-63f2-4d9f-b1cd-3bb96e3da1b3","system_id":"levelo_inurba_marseille","lat":43.330442,"lon":5.389148,"is_reserved":false,"is_disabled":false,"rental_uris":{"android":"levelo://app?vid=ec3a608f-63f2-4d9f-b1cd-3bb96e3da1b3","ios":"levelo://app?vid=ec3a608f-63f2-4d9f-b1cd-3bb96e3da1b3"},"vehicle_type_id":"4","last_reported":1679418391,"current_range_meters":4000,"station_id":"ce4bhr92rcd13ifvqhrg","pricing_plan_id":"free"},{"bike_id":"16e04291-ec3f-4753-b742-e9ef9c4328ec","system_id":"levelo_inurba_marseille","lat":43.33041,"lon":5.38923,"is_reserved":false,"is_disabled":false,"rental_uris":{"android":"levelo://app?vid=16e04291-ec3f-4753-b742-e9ef9c4328ec","ios":"levelo://app?vid=16e04291-ec3f-4753-b742-e9ef9c4328ec"},"vehicle_type_id":"4","last_reported":1679418391,"current_range_meters":8800,"station_id":"","pricing_plan_id":"free"},{"bike_id":"69ba5af7-a2cc-45fd-a303-d5cf8ca03d0a","system_id":"levelo_inurba_marseille","lat":43.290104,"lon":5.356111,"is_reserved":false,"is_disabled":false,"rental_uris":{"android":"levelo://app?vid=69ba5af7-a2cc-45fd-a303-d5cf8ca03d0a","ios":"levelo://app?vid=69ba5af7-a2cc-45fd-a303-d5cf8ca03d0a"},"vehicle_type_id":"4","last_reported":1679418391,"current_range_meters":16400,"station_id":"ce4bhb92rcd13ifvqen0","pricing_plan_id":"free"},{"bike_id":"7b9f19fc-0572-406e-957d-8c477c6011ce","system_id":"levelo_inurba_marseille","lat":43.33041,"lon":5.38924,"is_reserved":false,"is_disabled":false,"rental_uris":{"android":"levelo://app?vid=7b9f19fc-0572-406e-957d-8c477c6011ce","ios":"levelo://app?vid=7b9f19fc-0572-406e-957d-8c477c6011ce"},"vehicle_type_id":"4","last_reported":1679418391,"current_range_meters":0,"station_id":"","pricing_plan_id":"free"},{"bike_id":"9592a7ae-f28c-4342-b7de-2856f499ca94","system_id":"levelo_inurba_marseille","lat":43.29004,"lon":5.35615,"is_reserved":false,"is_disabled":false,"rental_uris":{"android":"levelo://app?vid=9592a7ae-f28c-4342-b7de-2856f499ca94","ios":"levelo://app?vid=9592a7ae-f28c-4342-b7de-2856f499ca94"},"vehicle_type_id":"4","last_reported":1679418391,"current_range_meters":16400,"station_id":"ce4bhb92rcd13ifvqen0","pricing_plan_id":"free"},{"bike_id":"bf66b04e-e62b-42f7-8615-9733714f2076","system_id":"levelo_inurba_marseille","lat":43.290985,"lon":5.381418,"is_reserved":false,"is_disabled":false,"rental_uris":{"android":"levelo://app?vid=bf66b04e-e62b-42f7-8615-9733714f2076","ios":"levelo://app?vid=bf66b04e-e62b-42f7-8615-9733714f2076"},"vehicle_type_id":"4","last_reported":1679418391,"current_range_meters":0,"station_id":"ce4bh512rcd13ifvqe2g","pricing_plan_id":"free"},{"bike_id":"9a5c3cc5-242f-44ca-a962-3048db269546","system_id":"levelo_inurba_marseille","lat":43.29092,"lon":5.38146,"is_reserved":false,"is_disabled":false,"rental_uris":{"android":"levelo://app?vid=9a5c3cc5-242f-44ca-a962-3048db269546","ios":"levelo://app?vid=9a5c3cc5-242f-44ca-a962-3048db269546"},"vehicle_type_id":"4","last_reported":1679418391,"current_range_meters":14400,"station_id":"ce4bh512rcd13ifvqe2g","pricing_plan_id":"free"},{"bike_id":"5da3e809-1316-4ed5-b7b0-6cbf288ee977","system_id":"levelo_inurba_marseille","lat":43.28856,"lon":5.358371,"is_reserved":false,"is_disabled":false,"rental_uris":{"android":"levelo://app?vid=5da3e809-1316-4ed5-b7b0-6cbf288ee977","ios":"levelo://app?vid=5da3e809-1316-4ed5-b7b0-6cbf288ee977"},"vehicle_type_id":"4","last_reported":1679418391,"current_range_meters":16400,"station_id":"ce4bhb12rcd13ifvqem0","pricing_plan_id":"free"},{"bike_id":"22c1c7eb-ee44-449e-bfb2-4c9f46c39370","system_id":"levelo_inurba_marseille","lat":43.28856,"lon":5.358371,"is_reserved":false,"is_disabled":false,"rental_uris":{"android":"levelo://app?vid=22c1c7eb-ee44-449e-bfb2-4c9f46c39370","ios":"levelo://app?vid=22c1c7eb-ee44-449e-bfb2-4c9f46c39370"},"vehicle_type_id":"4","last_reported":1679418391,"current_range_meters":27200,"station_id":"ce4bhb12rcd13ifvqem0","pricing_plan_id":"free"},{"bike_id":"29a34c8d-d7e0-4452-abc1-77ce4574faf7","system_id":"levelo_inurba_marseille","lat":43.28856,"lon":5.358371,"is_reserved":false,"is_disabled":false,"rental_uris":{"android":"levelo://app?vid=29a34c8d-d7e0-4452-abc1-77ce4574faf7","ios":"levelo://app?vid=29a34c8d-d7e0-4452-abc1-77ce4574faf7"},"vehicle_type_id":"4","last_reported":1679418391,"current_range_meters":10800,"station_id":"ce4bhb12rcd13ifvqem0","pricing_plan_id":"free"},{"bike_id":"102cea7a-cf9e-4cca-8cb0-6c0cf09a1987","system_id":"levelo_inurba_marseille","lat":43.28856,"lon":5.358371,"is_reserved":false,"is_disabled":false,"rental_uris":{"android":"levelo://app?vid=102cea7a-cf9e-4cca-8cb0-6c0cf09a1987","ios":"levelo://app?vid=102cea7a-cf9e-4cca-8cb0-6c0cf09a1987"},"vehicle_type_id":"4","last_reported":1679418391,"current_range_meters":7200,"station_id":"ce4bhb12rcd13ifvqem0","pricing_plan_id":"free"},{"bike_id":"3680b867-dec4-45af-87d0-39acad093582","system_id":"levelo_inurba_marseille","lat":43.28856,"lon":5.358371,"is_reserved":false,"is_disabled":false,"rental_uris":{"android":"levelo://app?vid=3680b867-dec4-45af-87d0-39acad093582","ios":"levelo://app?vid=3680b867-dec4-45af-87d0-39acad093582"},"vehicle_type_id":"4","last_reported":1679418391,"current_range_meters":11200,"station_id":"ce4bhb12rcd13ifvqem0","pricing_plan_id":"free"},{"bike_id":"d308324c-4bcd-47e4-8f9b-1d159eecbcf6","system_id":"levelo_inurba_marseille","lat":43.301117,"lon":5.398795,"is_reserved":false,"is_disabled":false,"rental_uris":{"android":"levelo://app?vid=d308324c-4bcd-47e4-8f9b-1d159eecbcf6","ios":"levelo://app?vid=d308324c-4bcd-47e4-8f9b-1d159eecbcf6"},"vehicle_type_id":"4","last_reported":1679418391,"current_range_meters":800,"station_id":"ce4bh0h2rcd13ifvqd40","pricing_plan_id":"free"},{"bike_id":"8552ccea-9d82-4a94-af01-10be4f9a7cba","system_id":"levelo_inurba_marseille","lat":43.301117,"lon":5.398795,"is_reserved":false,"is_disabled":false,"rental_uris":{"android":"levelo://app?vid=8552ccea-9d82-4a94-af01-10be4f9a7cba","ios":"levelo://app?vid=8552ccea-9d82-4a94-af01-10be4f9a7cba"},"vehicle_type_id":"4","last_reported":1679418391,"current_range_meters":21600,"station_id":"ce4bh0h2rcd13ifvqd40","pricing_plan_id":"free"},{"bike_id":"c0c7cf31-d8ce-42f1-8731-d4d8b7c6ffc9","system_id":"levelo_inurba_marseille","lat":43.301117,"lon":5.398795,"is_reserved":false,"is_disabled":false,"rental_uris":{"android":"levelo://app?vid=c0c7cf31-d8ce-42f1-8731-d4d8b7c6ffc9","ios":"levelo://app?vid=c0c7cf31-d8ce-42f1-8731-d4d8b7c6ffc9"},"vehicle_type_id":"4","last_reported":1679418391,"current_range_meters":14400,"station_id":"ce4bh0h2rcd13ifvqd40","pricing_plan_id":"free"},{"bike_id":"9cff4703-0aba-4648-b60c-3b881a50d91c","system_id":"levelo_inurba_marseille","lat":43.298681,"lon":5.397225,"is_reserved":false,"is_disabled":false,"rental_uris":{"android":"levelo://app?vid=9cff4703-0aba-4648-b60c-3b881a50d91c","ios":"levelo://app?vid=9cff4703-0aba-4648-b60c-3b881a50d91c"},"vehicle_type_id":"4","last_reported":1679418391,"current_range_meters":17200,"station_id":"ce4bh0h2rcd13ifvqd50","pricing_plan_id":"free"},{"bike_id":"e03d72ef-655c-4b5a-8858-b8fdd52a791b","system_id":"levelo_inurba_marseille","lat":43.298681,"lon":5.397225,"is_reserved":false,"is_disabled":false,"rental_uris":{"android":"levelo://app?vid=e03d72ef-655c-4b5a-8858-b8fdd52a791b","ios":"levelo://app?vid=e03d72ef-655c-4b5a-8858-b8fdd52a791b"},"vehicle_type_id":"4","last_reported":1679418391,"current_range_meters":25600,"station_id":"ce4bh0h2rcd13ifvqd50","pricing_plan_id":"free"},{"bike_id":"933cab00-8905-4650-9931-aee61960c2d0","system_id":"levelo_inurba_marseille","lat":43.28845,"lon":5.35323,"is_reserved":false,"is_disabled":false,"rental_uris":{"android":"levelo://app?vid=933cab00-8905-4650-9931-aee61960c2d0","ios":"levelo://app?vid=933cab00-8905-4650-9931-aee61960c2d0"},"vehicle_type_id":"4","last_reported":1679418391,"current_range_meters":0,"station_id":"ce4bhch2rcd13ifvqeug","pricing_plan_id":"free"},{"bike_id":"00220ced-04d8-48f6-b68c-cab7d5911f56","system_id":"levelo_inurba_marseille","lat":43.286591,"lon":5.363346,"is_reserved":false,"is_disabled":false,"rental_uris":{"android":"levelo://app?vid=00220ced-04d8-48f6-b68c-cab7d5911f56","ios":"levelo://app?vid=00220ced-04d8-48f6-b68c-cab7d5911f56"},"vehicle_type_id":"4","last_reported":1679418391,"current_range_meters":24800,"station_id":"ce4bhah2rcd13ifvqej0","pricing_plan_id":"free"},{"bike_id":"b9ddf804-d5af-4382-853d-96997db3aaf2","system_id":"levelo_inurba_marseille","lat":43.29526,"lon":5.39405,"is_reserved":false,"is_disabled":false,"rental_uris":{"android":"levelo://app?vid=b9ddf804-d5af-4382-853d-96997db3aaf2","ios":"levelo://app?vid=b9ddf804-d5af-4382-853d-96997db3aaf2"},"vehicle_type_id":"4","last_reported":1679418391,"current_range_meters":30400,"station_id":"ce4bh212rcd13ifvqde0","pricing_plan_id":"free"},{"bike_id":"c4659802-06a3-4d51-ae87-ea9cc285a539","system_id":"levelo_inurba_marseille","lat":43.29522,"lon":5.39402,"is_reserved":false,"is_disabled":false,"rental_uris":{"android":"levelo://app?vid=c4659802-06a3-4d51-ae87-ea9cc285a539","ios":"levelo://app?vid=c4659802-06a3-4d51-ae87-ea9cc285a539"},"vehicle_type_id":"4","last_reported":1679418391,"current_range_meters":18800,"station_id":"ce4bh212rcd13ifvqde0","pricing_plan_id":"free"},{"bike_id":"8409d086-3955-43b4-be84-d1ca4d157215","system_id":"levelo_inurba_marseille","lat":43.29844,"lon":5.39749,"is_reserved":false,"is_disabled":false,"rental_uris":{"android":"levelo://app?vid=8409d086-3955-43b4-be84-d1ca4d157215","ios":"levelo://app?vid=8409d086-3955-43b4-be84-d1ca4d157215"},"vehicle_type_id":"4","last_reported":1679418391,"current_range_meters":400,"station_id":"ce4bh0h2rcd13ifvqd50","pricing_plan_id":"free"},{"bike_id":"67b3ccdd-1667-4fb7-a252-307fb436a47a","system_id":"levelo_inurba_marseille","lat":43.295196,"lon":5.39397,"is_reserved":false,"is_disabled":false,"rental_uris":{"android":"levelo://app?vid=67b3ccdd-1667-4fb7-a252-307fb436a47a","ios":"levelo://app?vid=67b3ccdd-1667-4fb7-a252-307fb436a47a"},"vehicle_type_id":"4","last_reported":1679418391,"current_range_meters":16000,"station_id":"ce4bh292rcd13ifvqdf0","pricing_plan_id":"free"},{"bike_id":"ef8b0c01-4c75-481a-ab33-0cae6cc5363c","system_id":"levelo_inurba_marseille","lat":43.29521,"lon":5.39414,"is_reserved":false,"is_disabled":false,"rental_uris":{"android":"levelo://app?vid=ef8b0c01-4c75-481a-ab33-0cae6cc5363c","ios":"levelo://app?vid=ef8b0c01-4c75-481a-ab33-0cae6cc5363c"},"vehicle_type_id":"4","last_reported":1679418391,"current_range_meters":20000,"station_id":"ce4bh212rcd13ifvqde0","pricing_plan_id":"free"},{"bike_id":"c80f9ac8-c067-4065-8c23-49129d5457f7","system_id":"levelo_inurba_marseille","lat":43.29515,"lon":5.39408,"is_reserved":false,"is_disabled":false,"rental_uris":{"android":"levelo://app?vid=c80f9ac8-c067-4065-8c23-49129d5457f7","ios":"levelo://app?vid=c80f9ac8-c067-4065-8c23-49129d5457f7"},"vehicle_type_id":"4","last_reported":1679418391,"current_range_meters":15600,"station_id":"ce4bh292rcd13ifvqdf0","pricing_plan_id":"free"},{"bike_id":"77ecf522-c39f-460e-8d7f-409e0bef7e2e","system_id":"levelo_inurba_marseille","lat":43.29518,"lon":5.39412,"is_reserved":false,"is_disabled":false,"rental_uris":{"android":"levelo://app?vid=77ecf522-c39f-460e-8d7f-409e0bef7e2e","ios":"levelo://app?vid=77ecf522-c39f-460e-8d7f-409e0bef7e2e"},"vehicle_type_id":"4","last_reported":1679418391,"current_range_meters":21600,"station_id":"ce4bh212rcd13ifvqde0","pricing_plan_id":"free"},{"bike_id":"b1bda2b2-e82e-4e53-9ed8-a517818f1666","system_id":"levelo_inurba_marseille","lat":43.302729,"lon":5.400922,"is_reserved":false,"is_disabled":false,"rental_uris":{"android":"levelo://app?vid=b1bda2b2-e82e-4e53-9ed8-a517818f1666","ios":"levelo://app?vid=b1bda2b2-e82e-4e53-9ed8-a517818f1666"},"vehicle_type_id":"4","last_reported":1679418391,"current_range_meters":21600,"station_id":"ce4bgvh2rcd13ifvqcs0","pricing_plan_id":"free"},{"bike_id":"69182189-0ffb-448e-911b-00e3917e4097","system_id":"levelo_inurba_marseille","lat":43.302759,"lon":5.400793,"is_reserved":false,"is_disabled":false,"rental_uris":{"android":"levelo://app?vid=69182189-0ffb-448e-911b-00e3917e4097","ios":"levelo://app?vid=69182189-0ffb-448e-911b-00e3917e4097"},"vehicle_type_id":"4","last_reported":1679418391,"current_range_meters":4400,"station_id":"ce4bgvh2rcd13ifvqcs0","pricing_plan_id":"free"},{"bike_id":"dfd491ff-4925-4bf3-8a49-67fb6bd9738a","system_id":"levelo_inurba_marseille","lat":43.28611,"lon":5.37074,"is_reserved":false,"is_disabled":false,"rental_uris":{"android":"levelo://app?vid=dfd491ff-4925-4bf3-8a49-67fb6bd9738a","ios":"levelo://app?vid=dfd491ff-4925-4bf3-8a49-67fb6bd9738a"},"vehicle_type_id":"4","last_reported":1679418391,"current_range_meters":7200,"station_id":"ce4bht12rcd13ifvqi60","pricing_plan_id":"free"},{"bike_id":"566d8515-7e4d-459a-a1d6-97b8b4b4bc76","system_id":"levelo_inurba_marseille","lat":43.316517,"lon":5.404375,"is_reserved":false,"is_disabled":false,"rental_uris":{"android":"levelo://app?vid=566d8515-7e4d-459a-a1d6-97b8b4b4bc76","ios":"levelo://app?vid=566d8515-7e4d-459a-a1d6-97b8b4b4bc76"},"vehicle_type_id":"4","last_reported":1679418391,"current_range_meters":800,"station_id":"ce4bh012rcd13ifvqd00","pricing_plan_id":"free"},{"bike_id":"b5d57155-a858-4aea-a85e-9b1ee298932a","system_id":"levelo_inurba_marseille","lat":43.284534,"lon":5.358662,"is_reserved":false,"is_disabled":false,"rental_uris":{"android":"levelo://app?vid=b5d57155-a858-4aea-a85e-9b1ee298932a","ios":"levelo://app?vid=b5d57155-a858-4aea-a85e-9b1ee298932a"},"vehicle_type_id":"4","last_reported":1679418391,"current_range_meters":0,"station_id":"ce4bhah2rcd13ifvqei0","pricing_plan_id":"free"},{"bike_id":"d2023111-499b-4bdb-8daa-1c61cc5c524f","system_id":"levelo_inurba_marseille","lat":43.284534,"lon":5.358662,"is_reserved":false,"is_disabled":false,"rental_uris":{"android":"levelo://app?vid=d2023111-499b-4bdb-8daa-1c61cc5c524f","ios":"levelo://app?vid=d2023111-499b-4bdb-8daa-1c61cc5c524f"},"vehicle_type_id":"4","last_reported":1679418391,"current_range_meters":24400,"station_id":"ce4bhah2rcd13ifvqei0","pricing_plan_id":"free"},{"bike_id":"6d6bb7be-dfd6-4d70-b003-3bc16dfc40b1","system_id":"levelo_inurba_marseille","lat":43.284534,"lon":5.358662,"is_reserved":false,"is_disabled":false,"rental_uris":{"android":"levelo://app?vid=6d6bb7be-dfd6-4d70-b003-3bc16dfc40b1","ios":"levelo://app?vid=6d6bb7be-dfd6-4d70-b003-3bc16dfc40b1"},"vehicle_type_id":"4","last_reported":1679418391,"current_range_meters":12800,"station_id":"ce4bhah2rcd13ifvqei0","pricing_plan_id":"free"},{"bike_id":"24ea7d15-149d-40b1-9170-cef14fa6d92d","system_id":"levelo_inurba_marseille","lat":43.284534,"lon":5.358662,"is_reserved":false,"is_disabled":false,"rental_uris":{"android":"levelo://app?vid=24ea7d15-149d-40b1-9170-cef14fa6d92d","ios":"levelo://app?vid=24ea7d15-149d-40b1-9170-cef14fa6d92d"},"vehicle_type_id":"4","last_reported":1679418391,"current_range_meters":16000,"station_id":"ce4bhah2rcd13ifvqei0","pricing_plan_id":"free"},{"bike_id":"58986436-4a9a-46ea-951c-82486062a16a","system_id":"levelo_inurba_marseille","lat":43.28455,"lon":5.35891,"is_reserved":false,"is_disabled":false,"rental_uris":{"android":"levelo://app?vid=58986436-4a9a-46ea-951c-82486062a16a","ios":"levelo://app?vid=58986436-4a9a-46ea-951c-82486062a16a"},"vehicle_type_id":"4","last_reported":1679418391,"current_range_meters":6800,"station_id":"ce4bhah2rcd13ifvqei0","pricing_plan_id":"free"},{"bike_id":"40157218-6386-43be-abe1-2a2c54960100","system_id":"levelo_inurba_marseille","lat":43.284534,"lon":5.358662,"is_reserved":false,"is_disabled":false,"rental_uris":{"android":"levelo://app?vid=40157218-6386-43be-abe1-2a2c54960100","ios":"levelo://app?vid=40157218-6386-43be-abe1-2a2c54960100"},"vehicle_type_id":"4","last_reported":1679418391,"current_range_meters":0,"station_id":"ce4bhah2rcd13ifvqei0","pricing_plan_id":"free"},{"bike_id":"f19304d1-9590-420f-a2e7-28d430bd4017","system_id":"levelo_inurba_marseille","lat":43.295713,"lon":5.399639,"is_reserved":false,"is_disabled":false,"rental_uris":{"android":"levelo://app?vid=f19304d1-9590-420f-a2e7-28d430bd4017","ios":"levelo://app?vid=f19304d1-9590-420f-a2e7-28d430bd4017"},"vehicle_type_id":"4","last_reported":1679418391,"current_range_meters":25200,"station_id":"ce4bh312rcd13ifvqdj0","pricing_plan_id":"free"},{"bike_id":"d2c594ef-0af0-48a7-b734-62a99fce3408","system_id":"levelo_inurba_marseille","lat":43.295704,"lon":5.399725,"is_reserved":false,"is_disabled":false,"rental_uris":{"android":"levelo://app?vid=d2c594ef-0af0-48a7-b734-62a99fce3408","ios":"levelo://app?vid=d2c594ef-0af0-48a7-b734-62a99fce3408"},"vehicle_type_id":"4","last_reported":1679418391,"current_range_meters":3600,"station_id":"","pricing_plan_id":"free"},{"bike_id":"a6660c1c-f98d-4b37-9630-65aaaf7a65b0","system_id":"levelo_inurba_marseille","lat":43.295713,"lon":5.399639,"is_reserved":false,"is_disabled":false,"rental_uris":{"android":"levelo://app?vid=a6660c1c-f98d-4b37-9630-65aaaf7a65b0","ios":"levelo://app?vid=a6660c1c-f98d-4b37-9630-65aaaf7a65b0"},"vehicle_type_id":"4","last_reported":1679418391,"current_range_meters":16400,"station_id":"ce4bh312rcd13ifvqdj0","pricing_plan_id":"free"},{"bike_id":"9650986b-1a9c-483e-b455-61e2d8ae98ba","system_id":"levelo_inurba_marseille","lat":43.295713,"lon":5.399639,"is_reserved":false,"is_disabled":false,"rental_uris":{"android":"levelo://app?vid=9650986b-1a9c-483e-b455-61e2d8ae98ba","ios":"levelo://app?vid=9650986b-1a9c-483e-b455-61e2d8ae98ba"},"vehicle_type_id":"4","last_reported":1679418391,"current_range_meters":5200,"station_id":"ce4bh312rcd13ifvqdj0","pricing_plan_id":"free"},{"bike_id":"943e8b98-70f2-45a4-b893-358fac34de32","system_id":"levelo_inurba_marseille","lat":43.295713,"lon":5.399639,"is_reserved":false,"is_disabled":false,"rental_uris":{"android":"levelo://app?vid=943e8b98-70f2-45a4-b893-358fac34de32","ios":"levelo://app?vid=943e8b98-70f2-45a4-b893-358fac34de32"},"vehicle_type_id":"4","last_reported":1679418391,"current_range_meters":1200,"station_id":"ce4bh312rcd13ifvqdj0","pricing_plan_id":"free"},{"bike_id":"a36c5ea8-6365-4deb-b65f-633168b744d8","system_id":"levelo_inurba_marseille","lat":43.295713,"lon":5.399639,"is_reserved":false,"is_disabled":false,"rental_uris":{"android":"levelo://app?vid=a36c5ea8-6365-4deb-b65f-633168b744d8","ios":"levelo://app?vid=a36c5ea8-6365-4deb-b65f-633168b744d8"},"vehicle_type_id":"4","last_reported":1679418391,"current_range_meters":3600,"station_id":"ce4bh312rcd13ifvqdj0","pricing_plan_id":"free"},{"bike_id":"54fccb51-46b2-4f41-bee5-d9e3ad5e69f9","system_id":"levelo_inurba_marseille","lat":43.286595,"lon":5.386795,"is_reserved":false,"is_disabled":false,"rental_uris":{"android":"levelo://app?vid=54fccb51-46b2-4f41-bee5-d9e3ad5e69f9","ios":"levelo://app?vid=54fccb51-46b2-4f41-bee5-d9e3ad5e69f9"},"vehicle_type_id":"4","last_reported":1679418391,"current_range_meters":16000,"station_id":"ce4bh492rcd13ifvqdug","pricing_plan_id":"free"},{"bike_id":"1355baf7-b06b-42e6-a330-197cfc72cec0","system_id":"levelo_inurba_marseille","lat":43.286641,"lon":5.386703,"is_reserved":false,"is_disabled":false,"rental_uris":{"android":"levelo://app?vid=1355baf7-b06b-42e6-a330-197cfc72cec0","ios":"levelo://app?vid=1355baf7-b06b-42e6-a330-197cfc72cec0"},"vehicle_type_id":"4","last_reported":1679418391,"current_range_meters":18400,"station_id":"ce4bh492rcd13ifvqdug","pricing_plan_id":"free"},{"bike_id":"c72fecc9-a23d-4e7d-a81f-cc6ed9bc9fb3","system_id":"levelo_inurba_marseille","lat":43.323464,"lon":5.406297,"is_reserved":false,"is_disabled":false,"rental_uris":{"android":"levelo://app?vid=c72fecc9-a23d-4e7d-a81f-cc6ed9bc9fb3","ios":"levelo://app?vid=c72fecc9-a23d-4e7d-a81f-cc6ed9bc9fb3"},"vehicle_type_id":"4","last_reported":1679418391,"current_range_meters":18000,"station_id":"ce4bhq92rcd13ifvqhjg","pricing_plan_id":"free"},{"bike_id":"261bb743-6356-4651-b8ee-70e61c40b222","system_id":"levelo_inurba_marseille","lat":43.323464,"lon":5.406297,"is_reserved":false,"is_disabled":false,"rental_uris":{"android":"levelo://app?vid=261bb743-6356-4651-b8ee-70e61c40b222","ios":"levelo://app?vid=261bb743-6356-4651-b8ee-70e61c40b222"},"vehicle_type_id":"4","last_reported":1679418391,"current_range_meters":5200,"station_id":"ce4bhq92rcd13ifvqhjg","pricing_plan_id":"free"},{"bike_id":"48633baf-1fd9-4845-b8d8-59d4eb6db553","system_id":"levelo_inurba_marseille","lat":43.288497,"lon":5.393089,"is_reserved":false,"is_disabled":false,"rental_uris":{"android":"levelo://app?vid=48633baf-1fd9-4845-b8d8-59d4eb6db553","ios":"levelo://app?vid=48633baf-1fd9-4845-b8d8-59d4eb6db553"},"vehicle_type_id":"4","last_reported":1679418391,"current_range_meters":3200,"station_id":"ce4bh2p2rcd13ifvqdi0","pricing_plan_id":"free"},{"bike_id":"0d4479eb-cfab-42be-934c-4cd72499b0dc","system_id":"levelo_inurba_marseille","lat":43.288501,"lon":5.393087,"is_reserved":false,"is_disabled":false,"rental_uris":{"android":"levelo://app?vid=0d4479eb-cfab-42be-934c-4cd72499b0dc","ios":"levelo://app?vid=0d4479eb-cfab-42be-934c-4cd72499b0dc"},"vehicle_type_id":"4","last_reported":1679418391,"current_range_meters":0,"station_id":"ce4bh2p2rcd13ifvqdi0","pricing_plan_id":"free"},{"bike_id":"9521f7b8-091a-4d65-bbcc-5f9c81bf1210","system_id":"levelo_inurba_marseille","lat":43.28424,"lon":5.34995,"is_reserved":false,"is_disabled":false,"rental_uris":{"android":"levelo://app?vid=9521f7b8-091a-4d65-bbcc-5f9c81bf1210","ios":"levelo://app?vid=9521f7b8-091a-4d65-bbcc-5f9c81bf1210"},"vehicle_type_id":"4","last_reported":1679418391,"current_range_meters":19200,"station_id":"ce4bhbh2rcd13ifvqepg","pricing_plan_id":"free"},{"bike_id":"199be372-4b44-4925-9416-af0b41b7a2c8","system_id":"levelo_inurba_marseille","lat":43.284217,"lon":5.349697,"is_reserved":false,"is_disabled":false,"rental_uris":{"android":"levelo://app?vid=199be372-4b44-4925-9416-af0b41b7a2c8","ios":"levelo://app?vid=199be372-4b44-4925-9416-af0b41b7a2c8"},"vehicle_type_id":"4","last_reported":1679418391,"current_range_meters":24800,"station_id":"ce4bhbh2rcd13ifvqepg","pricing_plan_id":"free"},{"bike_id":"6b3dc8f6-f5be-4ad5-b37a-aebfba86951b","system_id":"levelo_inurba_marseille","lat":43.32171,"lon":5.40789,"is_reserved":false,"is_disabled":false,"rental_uris":{"android":"levelo://app?vid=6b3dc8f6-f5be-4ad5-b37a-aebfba86951b","ios":"levelo://app?vid=6b3dc8f6-f5be-4ad5-b37a-aebfba86951b"},"vehicle_type_id":"4","last_reported":1679418391,"current_range_meters":21200,"station_id":"","pricing_plan_id":"free"},{"bike_id":"6a870f8f-5e67-41c7-b628-3e904c5844d9","system_id":"levelo_inurba_marseille","lat":43.284217,"lon":5.349697,"is_reserved":false,"is_disabled":false,"rental_uris":{"android":"levelo://app?vid=6a870f8f-5e67-41c7-b628-3e904c5844d9","ios":"levelo://app?vid=6a870f8f-5e67-41c7-b628-3e904c5844d9"},"vehicle_type_id":"4","last_reported":1679418391,"current_range_meters":22800,"station_id":"ce4bhbh2rcd13ifvqepg","pricing_plan_id":"free"},{"bike_id":"cfa308ca-daa9-4d46-b77d-6c2c61b397b6","system_id":"levelo_inurba_marseille","lat":43.28938,"lon":5.396317,"is_reserved":false,"is_disabled":false,"rental_uris":{"android":"levelo://app?vid=cfa308ca-daa9-4d46-b77d-6c2c61b397b6","ios":"levelo://app?vid=cfa308ca-daa9-4d46-b77d-6c2c61b397b6"},"vehicle_type_id":"4","last_reported":1679418391,"current_range_meters":7200,"station_id":"ce4bh3h2rcd13ifvqdn0","pricing_plan_id":"free"},{"bike_id":"3d85de11-23da-4d8d-a146-529954d44b13","system_id":"levelo_inurba_marseille","lat":43.281922,"lon":5.377033,"is_reserved":false,"is_disabled":false,"rental_uris":{"android":"levelo://app?vid=3d85de11-23da-4d8d-a146-529954d44b13","ios":"levelo://app?vid=3d85de11-23da-4d8d-a146-529954d44b13"},"vehicle_type_id":"4","last_reported":1679418391,"current_range_meters":2800,"station_id":"","pricing_plan_id":"free"},{"bike_id":"19bf5336-ed4f-46f9-9671-7e82e12a115c","system_id":"levelo_inurba_marseille","lat":43.29286,"lon":5.40124,"is_reserved":false,"is_disabled":false,"rental_uris":{"android":"levelo://app?vid=19bf5336-ed4f-46f9-9671-7e82e12a115c","ios":"levelo://app?vid=19bf5336-ed4f-46f9-9671-7e82e12a115c"},"vehicle_type_id":"4","last_reported":1679418391,"current_range_meters":1600,"station_id":"","pricing_plan_id":"free"},{"bike_id":"5933df43-016e-4c3d-b19d-3cbc5bf01376","system_id":"levelo_inurba_marseille","lat":43.29281,"lon":5.40125,"is_reserved":false,"is_disabled":false,"rental_uris":{"android":"levelo://app?vid=5933df43-016e-4c3d-b19d-3cbc5bf01376","ios":"levelo://app?vid=5933df43-016e-4c3d-b19d-3cbc5bf01376"},"vehicle_type_id":"4","last_reported":1679418391,"current_range_meters":15600,"station_id":"","pricing_plan_id":"free"},{"bike_id":"e5d4c5c0-635d-4e3c-bb8c-568d61bbd5b2","system_id":"levelo_inurba_marseille","lat":43.282754,"lon":5.350519,"is_reserved":false,"is_disabled":false,"rental_uris":{"android":"levelo://app?vid=e5d4c5c0-635d-4e3c-bb8c-568d61bbd5b2","ios":"levelo://app?vid=e5d4c5c0-635d-4e3c-bb8c-568d61bbd5b2"},"vehicle_type_id":"4","last_reported":1679418391,"current_range_meters":13600,"station_id":"ce4bhbp2rcd13ifvqerg","pricing_plan_id":"free"},{"bike_id":"c90697c2-5efe-4c08-b63f-3259e377e076","system_id":"levelo_inurba_marseille","lat":43.28262,"lon":5.35071,"is_reserved":false,"is_disabled":false,"rental_uris":{"android":"levelo://app?vid=c90697c2-5efe-4c08-b63f-3259e377e076","ios":"levelo://app?vid=c90697c2-5efe-4c08-b63f-3259e377e076"},"vehicle_type_id":"4","last_reported":1679418391,"current_range_meters":6800,"station_id":"ce4bhbp2rcd13ifvqerg","pricing_plan_id":"free"},{"bike_id":"97592b7b-1049-431d-a9cb-b9ecd2fa2def","system_id":"levelo_inurba_marseille","lat":43.282585,"lon":5.35069,"is_reserved":false,"is_disabled":false,"rental_uris":{"android":"levelo://app?vid=97592b7b-1049-431d-a9cb-b9ecd2fa2def","ios":"levelo://app?vid=97592b7b-1049-431d-a9cb-b9ecd2fa2def"},"vehicle_type_id":"4","last_reported":1679418391,"current_range_meters":800,"station_id":"ce4bhbp2rcd13ifvqerg","pricing_plan_id":"free"},{"bike_id":"f82aac0c-c84d-40ef-952b-f88ca106cfc2","system_id":"levelo_inurba_marseille","lat":43.281287,"lon":5.378269,"is_reserved":false,"is_disabled":false,"rental_uris":{"android":"levelo://app?vid=f82aac0c-c84d-40ef-952b-f88ca106cfc2","ios":"levelo://app?vid=f82aac0c-c84d-40ef-952b-f88ca106cfc2"},"vehicle_type_id":"4","last_reported":1679418391,"current_range_meters":0,"station_id":"ce4bha12rcd13ifvqee0","pricing_plan_id":"free"},{"bike_id":"ad7d3ecc-6c7a-4962-819a-546759b69af7","system_id":"levelo_inurba_marseille","lat":43.28105,"lon":5.37841,"is_reserved":false,"is_disabled":false,"rental_uris":{"android":"levelo://app?vid=ad7d3ecc-6c7a-4962-819a-546759b69af7","ios":"levelo://app?vid=ad7d3ecc-6c7a-4962-819a-546759b69af7"},"vehicle_type_id":"4","last_reported":1679418391,"current_range_meters":16400,"station_id":"ce4bha12rcd13ifvqee0","pricing_plan_id":"free"},{"bike_id":"dae3084d-afc2-47c4-b047-b93e713dd3e4","system_id":"levelo_inurba_marseille","lat":43.296263,"lon":5.40601,"is_reserved":false,"is_disabled":false,"rental_uris":{"android":"levelo://app?vid=dae3084d-afc2-47c4-b047-b93e713dd3e4","ios":"levelo://app?vid=dae3084d-afc2-47c4-b047-b93e713dd3e4"},"vehicle_type_id":"4","last_reported":1679418391,"current_range_meters":400,"station_id":"ce4bh0h2rcd13ifvqd60","pricing_plan_id":"free"},{"bike_id":"b47b3af2-da6a-4a5d-a953-b3c8bd6f5ef0","system_id":"levelo_inurba_marseille","lat":43.296263,"lon":5.40601,"is_reserved":false,"is_disabled":false,"rental_uris":{"android":"levelo://app?vid=b47b3af2-da6a-4a5d-a953-b3c8bd6f5ef0","ios":"levelo://app?vid=b47b3af2-da6a-4a5d-a953-b3c8bd6f5ef0"},"vehicle_type_id":"4","last_reported":1679418391,"current_range_meters":18400,"station_id":"ce4bh0h2rcd13ifvqd60","pricing_plan_id":"free"},{"bike_id":"2fe9abc6-c467-4d4e-966c-6b07f621241a","system_id":"levelo_inurba_marseille","lat":43.28099,"lon":5.37856,"is_reserved":false,"is_disabled":false,"rental_uris":{"android":"levelo://app?vid=2fe9abc6-c467-4d4e-966c-6b07f621241a","ios":"levelo://app?vid=2fe9abc6-c467-4d4e-966c-6b07f621241a"},"vehicle_type_id":"4","last_reported":1679418391,"current_range_meters":9200,"station_id":"ce4bha12rcd13ifvqee0","pricing_plan_id":"free"},{"bike_id":"808aa849-9e44-48d3-ae8a-9cdf47208c08","system_id":"levelo_inurba_marseille","lat":43.304188,"lon":5.412904,"is_reserved":false,"is_disabled":false,"rental_uris":{"android":"levelo://app?vid=808aa849-9e44-48d3-ae8a-9cdf47208c08","ios":"levelo://app?vid=808aa849-9e44-48d3-ae8a-9cdf47208c08"},"vehicle_type_id":"4","last_reported":1679418391,"current_range_meters":2000,"station_id":"ce4bhop2rcd13ifvqh8g","pricing_plan_id":"free"},{"bike_id":"b51a1531-8fa3-42b1-af5b-51f362f22fa7","system_id":"levelo_inurba_marseille","lat":43.304188,"lon":5.412904,"is_reserved":false,"is_disabled":false,"rental_uris":{"android":"levelo://app?vid=b51a1531-8fa3-42b1-af5b-51f362f22fa7","ios":"levelo://app?vid=b51a1531-8fa3-42b1-af5b-51f362f22fa7"},"vehicle_type_id":"4","last_reported":1679418391,"current_range_meters":17200,"station_id":"ce4bhop2rcd13ifvqh8g","pricing_plan_id":"free"},{"bike_id":"368a7c00-6344-4e6a-b66a-dfb42463e2ab","system_id":"levelo_inurba_marseille","lat":43.287154,"lon":5.399979,"is_reserved":false,"is_disabled":false,"rental_uris":{"android":"levelo://app?vid=368a7c00-6344-4e6a-b66a-dfb42463e2ab","ios":"levelo://app?vid=368a7c00-6344-4e6a-b66a-dfb42463e2ab"},"vehicle_type_id":"4","last_reported":1679418391,"current_range_meters":10000,"station_id":"ce4bho92rcd13ifvqh3g","pricing_plan_id":"free"},{"bike_id":"09613a11-6e86-49af-a9b2-0cbdcfd6a970","system_id":"levelo_inurba_marseille","lat":43.284463,"lon":5.397329,"is_reserved":false,"is_disabled":false,"rental_uris":{"android":"levelo://app?vid=09613a11-6e86-49af-a9b2-0cbdcfd6a970","ios":"levelo://app?vid=09613a11-6e86-49af-a9b2-0cbdcfd6a970"},"vehicle_type_id":"4","last_reported":1679418391,"current_range_meters":22000,"station_id":"","pricing_plan_id":"free"},{"bike_id":"48351594-61f1-4ec8-8a3e-fb622ea77f53","system_id":"levelo_inurba_marseille","lat":43.320045,"lon":5.415048,"is_reserved":false,"is_disabled":false,"rental_uris":{"android":"levelo://app?vid=48351594-61f1-4ec8-8a3e-fb622ea77f53","ios":"levelo://app?vid=48351594-61f1-4ec8-8a3e-fb622ea77f53"},"vehicle_type_id":"4","last_reported":1679418391,"current_range_meters":0,"station_id":"ce4bhq92rcd13ifvqhkg","pricing_plan_id":"free"},{"bike_id":"95f1cb5d-ff18-4bf6-9ad6-559908f0cd69","system_id":"levelo_inurba_marseille","lat":43.32038,"lon":5.41556,"is_reserved":false,"is_disabled":false,"rental_uris":{"android":"levelo://app?vid=95f1cb5d-ff18-4bf6-9ad6-559908f0cd69","ios":"levelo://app?vid=95f1cb5d-ff18-4bf6-9ad6-559908f0cd69"},"vehicle_type_id":"4","last_reported":1679418391,"current_range_meters":8000,"station_id":"","pricing_plan_id":"free"},{"bike_id":"3b39d3d9-2989-43fb-85dc-a72d2713078c","system_id":"levelo_inurba_marseille","lat":43.292571,"lon":5.409107,"is_reserved":false,"is_disabled":false,"rental_uris":{"android":"levelo://app?vid=3b39d3d9-2989-43fb-85dc-a72d2713078c","ios":"levelo://app?vid=3b39d3d9-2989-43fb-85dc-a72d2713078c"},"vehicle_type_id":"4","last_reported":1679418391,"current_range_meters":26400,"station_id":"ce4bh192rcd13ifvqdc0","pricing_plan_id":"free"},{"bike_id":"38b7cd12-a02f-47f8-85a2-ecee47655509","system_id":"levelo_inurba_marseille","lat":43.29256,"lon":5.409115,"is_reserved":false,"is_disabled":false,"rental_uris":{"android":"levelo://app?vid=38b7cd12-a02f-47f8-85a2-ecee47655509","ios":"levelo://app?vid=38b7cd12-a02f-47f8-85a2-ecee47655509"},"vehicle_type_id":"4","last_reported":1679418391,"current_range_meters":8000,"station_id":"","pricing_plan_id":"free"},{"bike_id":"9add6bdb-df95-4dae-8d25-f1e7145905f1","system_id":"levelo_inurba_marseille","lat":43.27618,"lon":5.361009,"is_reserved":false,"is_disabled":false,"rental_uris":{"android":"levelo://app?vid=9add6bdb-df95-4dae-8d25-f1e7145905f1","ios":"levelo://app?vid=9add6bdb-df95-4dae-8d25-f1e7145905f1"},"vehicle_type_id":"4","last_reported":1679418391,"current_range_meters":20400,"station_id":"ce4bgj92rcd13ifvqbe0","pricing_plan_id":"free"},{"bike_id":"eeeff00e-5702-480c-99a1-bd9b3b7b2380","system_id":"levelo_inurba_marseille","lat":43.32545,"lon":5.41441,"is_reserved":false,"is_disabled":false,"rental_uris":{"android":"levelo://app?vid=eeeff00e-5702-480c-99a1-bd9b3b7b2380","ios":"levelo://app?vid=eeeff00e-5702-480c-99a1-bd9b3b7b2380"},"vehicle_type_id":"4","last_reported":1679418391,"current_range_meters":9600,"station_id":"ce4bhq12rcd13ifvqhhg","pricing_plan_id":"free"},{"bike_id":"2c0da70f-8ed5-439f-91b8-ca0ec7df7066","system_id":"levelo_inurba_marseille","lat":43.280784,"lon":5.396622,"is_reserved":false,"is_disabled":false,"rental_uris":{"android":"levelo://app?vid=2c0da70f-8ed5-439f-91b8-ca0ec7df7066","ios":"levelo://app?vid=2c0da70f-8ed5-439f-91b8-ca0ec7df7066"},"vehicle_type_id":"4","last_reported":1679418391,"current_range_meters":17600,"station_id":"ce4bho12rcd13ifvqh2g","pricing_plan_id":"free"},{"bike_id":"dde6660a-d3da-401f-96b5-194a3ae6ce89","system_id":"levelo_inurba_marseille","lat":43.336134,"lon":5.410341,"is_reserved":false,"is_disabled":false,"rental_uris":{"android":"levelo://app?vid=dde6660a-d3da-401f-96b5-194a3ae6ce89","ios":"levelo://app?vid=dde6660a-d3da-401f-96b5-194a3ae6ce89"},"vehicle_type_id":"4","last_reported":1679418391,"current_range_meters":31600,"station_id":"ce4bhqh2rcd13ifvqhmg","pricing_plan_id":"free"},{"bike_id":"e65f0af0-d68f-436f-a38e-0d01571b1941","system_id":"levelo_inurba_marseille","lat":43.336134,"lon":5.410341,"is_reserved":false,"is_disabled":false,"rental_uris":{"android":"levelo://app?vid=e65f0af0-d68f-436f-a38e-0d01571b1941","ios":"levelo://app?vid=e65f0af0-d68f-436f-a38e-0d01571b1941"},"vehicle_type_id":"4","last_reported":1679418391,"current_range_meters":25200,"station_id":"ce4bhqh2rcd13ifvqhmg","pricing_plan_id":"free"},{"bike_id":"eb4ac4e8-92da-48fd-80c4-eeb28ad894e3","system_id":"levelo_inurba_marseille","lat":43.336134,"lon":5.410341,"is_reserved":false,"is_disabled":false,"rental_uris":{"android":"levelo://app?vid=eb4ac4e8-92da-48fd-80c4-eeb28ad894e3","ios":"levelo://app?vid=eb4ac4e8-92da-48fd-80c4-eeb28ad894e3"},"vehicle_type_id":"4","last_reported":1679418391,"current_range_meters":31600,"station_id":"ce4bhqh2rcd13ifvqhmg","pricing_plan_id":"free"},{"bike_id":"6d59cd27-ba5e-4cde-9b26-0164a4b0d0ca","system_id":"levelo_inurba_marseille","lat":43.336148,"lon":5.410349,"is_reserved":false,"is_disabled":false,"rental_uris":{"android":"levelo://app?vid=6d59cd27-ba5e-4cde-9b26-0164a4b0d0ca","ios":"levelo://app?vid=6d59cd27-ba5e-4cde-9b26-0164a4b0d0ca"},"vehicle_type_id":"4","last_reported":1679418391,"current_range_meters":28800,"station_id":"ce4bhqh2rcd13ifvqhmg","pricing_plan_id":"free"},{"bike_id":"daa5b828-d1c8-4307-a6ff-fd8ba2b20227","system_id":"levelo_inurba_marseille","lat":43.276771,"lon":5.388799,"is_reserved":false,"is_disabled":false,"rental_uris":{"android":"levelo://app?vid=daa5b828-d1c8-4307-a6ff-fd8ba2b20227","ios":"levelo://app?vid=daa5b828-d1c8-4307-a6ff-fd8ba2b20227"},"vehicle_type_id":"4","last_reported":1679418391,"current_range_meters":24400,"station_id":"ce4bhi12rcd13ifvqfo0","pricing_plan_id":"free"},{"bike_id":"58f23dd9-cb67-4b3f-ad33-f0aa19c22f22","system_id":"levelo_inurba_marseille","lat":43.304172,"lon":5.425393,"is_reserved":false,"is_disabled":false,"rental_uris":{"android":"levelo://app?vid=58f23dd9-cb67-4b3f-ad33-f0aa19c22f22","ios":"levelo://app?vid=58f23dd9-cb67-4b3f-ad33-f0aa19c22f22"},"vehicle_type_id":"4","last_reported":1679418391,"current_range_meters":7200,"station_id":"ce4bhoh2rcd13ifvqh6g","pricing_plan_id":"free"},{"bike_id":"de086588-f21a-4d3c-8255-d73f2abd0832","system_id":"levelo_inurba_marseille","lat":43.304096,"lon":5.425385,"is_reserved":false,"is_disabled":false,"rental_uris":{"android":"levelo://app?vid=de086588-f21a-4d3c-8255-d73f2abd0832","ios":"levelo://app?vid=de086588-f21a-4d3c-8255-d73f2abd0832"},"vehicle_type_id":"4","last_reported":1679418391,"current_range_meters":13600,"station_id":"ce4bhoh2rcd13ifvqh6g","pricing_plan_id":"free"},{"bike_id":"a5a15105-6c0a-4c08-aded-63f3e4080a68","system_id":"levelo_inurba_marseille","lat":43.295511,"lon":5.422926,"is_reserved":false,"is_disabled":false,"rental_uris":{"android":"levelo://app?vid=a5a15105-6c0a-4c08-aded-63f3e4080a68","ios":"levelo://app?vid=a5a15105-6c0a-4c08-aded-63f3e4080a68"},"vehicle_type_id":"4","last_reported":1679418391,"current_range_meters":6400,"station_id":"ce4bhph2rcd13ifvqhdg","pricing_plan_id":"free"},{"bike_id":"01fde7f1-5724-4e38-8a42-47ee19c3cf80","system_id":"levelo_inurba_marseille","lat":43.269467,"lon":5.386439,"is_reserved":false,"is_disabled":false,"rental_uris":{"android":"levelo://app?vid=01fde7f1-5724-4e38-8a42-47ee19c3cf80","ios":"levelo://app?vid=01fde7f1-5724-4e38-8a42-47ee19c3cf80"},"vehicle_type_id":"4","last_reported":1679418391,"current_range_meters":14000,"station_id":"ce4bhh92rcd13ifvqfh0","pricing_plan_id":"free"},{"bike_id":"78517c1c-fe28-454d-b344-23b8cb6ab1bc","system_id":"levelo_inurba_marseille","lat":43.278128,"lon":5.407195,"is_reserved":false,"is_disabled":false,"rental_uris":{"android":"levelo://app?vid=78517c1c-fe28-454d-b344-23b8cb6ab1bc","ios":"levelo://app?vid=78517c1c-fe28-454d-b344-23b8cb6ab1bc"},"vehicle_type_id":"4","last_reported":1679418391,"current_range_meters":23600,"station_id":"ce4bhnh2rcd13ifvqgtg","pricing_plan_id":"free"},{"bike_id":"e60de942-00f8-4200-8908-ed3a8c9ae046","system_id":"levelo_inurba_marseille","lat":43.269467,"lon":5.386439,"is_reserved":false,"is_disabled":false,"rental_uris":{"android":"levelo://app?vid=e60de942-00f8-4200-8908-ed3a8c9ae046","ios":"levelo://app?vid=e60de942-00f8-4200-8908-ed3a8c9ae046"},"vehicle_type_id":"4","last_reported":1679418391,"current_range_meters":20000,"station_id":"ce4bhh92rcd13ifvqfh0","pricing_plan_id":"free"},{"bike_id":"95f3527d-2774-4adc-abe5-449829eae156","system_id":"levelo_inurba_marseille","lat":43.2656,"lon":5.37285,"is_reserved":false,"is_disabled":false,"rental_uris":{"android":"levelo://app?vid=95f3527d-2774-4adc-abe5-449829eae156","ios":"levelo://app?vid=95f3527d-2774-4adc-abe5-449829eae156"},"vehicle_type_id":"4","last_reported":1679418391,"current_range_meters":24400,"station_id":"","pricing_plan_id":"free"},{"bike_id":"748e15fd-31b0-4d0c-9217-b926831a537c","system_id":"levelo_inurba_marseille","lat":43.265714,"lon":5.372891,"is_reserved":false,"is_disabled":false,"rental_uris":{"android":"levelo://app?vid=748e15fd-31b0-4d0c-9217-b926831a537c","ios":"levelo://app?vid=748e15fd-31b0-4d0c-9217-b926831a537c"},"vehicle_type_id":"4","last_reported":1679418391,"current_range_meters":30000,"station_id":"ce4bhg12rcd13ifvqf70","pricing_plan_id":"free"},{"bike_id":"01b1887d-83b8-416e-9d50-005d2e255153","system_id":"levelo_inurba_marseille","lat":43.265714,"lon":5.372891,"is_reserved":false,"is_disabled":false,"rental_uris":{"android":"levelo://app?vid=01b1887d-83b8-416e-9d50-005d2e255153","ios":"levelo://app?vid=01b1887d-83b8-416e-9d50-005d2e255153"},"vehicle_type_id":"4","last_reported":1679418391,"current_range_meters":20000,"station_id":"ce4bhg12rcd13ifvqf70","pricing_plan_id":"free"},{"bike_id":"666739e8-1fa2-421b-9bad-5dea1098ff46","system_id":"levelo_inurba_marseille","lat":43.27996,"lon":5.416624,"is_reserved":false,"is_disabled":false,"rental_uris":{"android":"levelo://app?vid=666739e8-1fa2-421b-9bad-5dea1098ff46","ios":"levelo://app?vid=666739e8-1fa2-421b-9bad-5dea1098ff46"},"vehicle_type_id":"4","last_reported":1679418391,"current_range_meters":19600,"station_id":"ce4bho12rcd13ifvqh1g","pricing_plan_id":"free"},{"bike_id":"b41255ee-bcda-4191-989f-9bccb4940be5","system_id":"levelo_inurba_marseille","lat":43.27996,"lon":5.416624,"is_reserved":false,"is_disabled":false,"rental_uris":{"android":"levelo://app?vid=b41255ee-bcda-4191-989f-9bccb4940be5","ios":"levelo://app?vid=b41255ee-bcda-4191-989f-9bccb4940be5"},"vehicle_type_id":"4","last_reported":1679418391,"current_range_meters":1200,"station_id":"ce4bho12rcd13ifvqh1g","pricing_plan_id":"free"},{"bike_id":"1d1712a0-4867-47e5-8620-d7cf2026c3fc","system_id":"levelo_inurba_marseille","lat":43.26614,"lon":5.38944,"is_reserved":false,"is_disabled":false,"rental_uris":{"android":"levelo://app?vid=1d1712a0-4867-47e5-8620-d7cf2026c3fc","ios":"levelo://app?vid=1d1712a0-4867-47e5-8620-d7cf2026c3fc"},"vehicle_type_id":"4","last_reported":1679418391,"current_range_meters":24000,"station_id":"ce4bhe12rcd13ifvqf30","pricing_plan_id":"free"},{"bike_id":"fd29c0c3-db7d-4283-882b-7347314f6b48","system_id":"levelo_inurba_marseille","lat":43.30802,"lon":5.43521,"is_reserved":false,"is_disabled":false,"rental_uris":{"android":"levelo://app?vid=fd29c0c3-db7d-4283-882b-7347314f6b48","ios":"levelo://app?vid=fd29c0c3-db7d-4283-882b-7347314f6b48"},"vehicle_type_id":"4","last_reported":1679418391,"current_range_meters":13600,"station_id":"ce4bhph2rcd13ifvqheg","pricing_plan_id":"free"},{"bike_id":"34044f88-eedb-434a-9274-acd05712894e","system_id":"levelo_inurba_marseille","lat":43.2898,"lon":5.42886,"is_reserved":false,"is_disabled":false,"rental_uris":{"android":"levelo://app?vid=34044f88-eedb-434a-9274-acd05712894e","ios":"levelo://app?vid=34044f88-eedb-434a-9274-acd05712894e"},"vehicle_type_id":"4","last_reported":1679418391,"current_range_meters":20800,"station_id":"","pricing_plan_id":"free"},{"bike_id":"20f0ca0c-172a-4c36-8eb5-d53936247ede","system_id":"levelo_inurba_marseille","lat":43.261782,"lon":5.374515,"is_reserved":false,"is_disabled":false,"rental_uris":{"android":"levelo://app?vid=20f0ca0c-172a-4c36-8eb5-d53936247ede","ios":"levelo://app?vid=20f0ca0c-172a-4c36-8eb5-d53936247ede"},"vehicle_type_id":"4","last_reported":1679418391,"current_range_meters":15200,"station_id":"ce4bhgp2rcd13ifvqfc0","pricing_plan_id":"free"},{"bike_id":"f1aa9362-be09-4bf0-921f-1ea2a91c6300","system_id":"levelo_inurba_marseille","lat":43.31719,"lon":5.43704,"is_reserved":false,"is_disabled":false,"rental_uris":{"android":"levelo://app?vid=f1aa9362-be09-4bf0-921f-1ea2a91c6300","ios":"levelo://app?vid=f1aa9362-be09-4bf0-921f-1ea2a91c6300"},"vehicle_type_id":"4","last_reported":1679418391,"current_range_meters":22000,"station_id":"","pricing_plan_id":"free"},{"bike_id":"2edf699a-b524-4035-a1e3-fd68592756b7","system_id":"levelo_inurba_marseille","lat":43.26059,"lon":5.39396,"is_reserved":false,"is_disabled":false,"rental_uris":{"android":"levelo://app?vid=2edf699a-b524-4035-a1e3-fd68592756b7","ios":"levelo://app?vid=2edf699a-b524-4035-a1e3-fd68592756b7"},"vehicle_type_id":"4","last_reported":1679418391,"current_range_meters":24400,"station_id":"","pricing_plan_id":"free"},{"bike_id":"165de40c-d2b5-416e-87fc-e34ef0073bd9","system_id":"levelo_inurba_marseille","lat":43.26058,"lon":5.394,"is_reserved":false,"is_disabled":false,"rental_uris":{"android":"levelo://app?vid=165de40c-d2b5-416e-87fc-e34ef0073bd9","ios":"levelo://app?vid=165de40c-d2b5-416e-87fc-e34ef0073bd9"},"vehicle_type_id":"4","last_reported":1679418391,"current_range_meters":17600,"station_id":"","pricing_plan_id":"free"},{"bike_id":"ec4c0a91-1fbf-405f-bc43-78c7b9d78816","system_id":"levelo_inurba_marseille","lat":43.25007,"lon":5.38909,"is_reserved":false,"is_disabled":false,"rental_uris":{"android":"levelo://app?vid=ec4c0a91-1fbf-405f-bc43-78c7b9d78816","ios":"levelo://app?vid=ec4c0a91-1fbf-405f-bc43-78c7b9d78816"},"vehicle_type_id":"4","last_reported":1679418391,"current_range_meters":20400,"station_id":"","pricing_plan_id":"free"},{"bike_id":"fea470cb-20fb-45e6-9b23-8377b7e431da","system_id":"levelo_inurba_marseille","lat":43.2479,"lon":5.374457,"is_reserved":false,"is_disabled":false,"rental_uris":{"android":"levelo://app?vid=fea470cb-20fb-45e6-9b23-8377b7e431da","ios":"levelo://app?vid=fea470cb-20fb-45e6-9b23-8377b7e431da"},"vehicle_type_id":"4","last_reported":1679418391,"current_range_meters":0,"station_id":"ce4bhgh2rcd13ifvqfb0","pricing_plan_id":"free"},{"bike_id":"3127723b-7b1d-46bf-9166-721683c8677f","system_id":"levelo_inurba_marseille","lat":43.250897,"lon":5.395278,"is_reserved":false,"is_disabled":false,"rental_uris":{"android":"levelo://app?vid=3127723b-7b1d-46bf-9166-721683c8677f","ios":"levelo://app?vid=3127723b-7b1d-46bf-9166-721683c8677f"},"vehicle_type_id":"4","last_reported":1679418391,"current_range_meters":18400,"station_id":"ce4bhg92rcd13ifvqf90","pricing_plan_id":"free"},{"bike_id":"cc860a47-2c29-4cec-aa56-65290340d87f","system_id":"levelo_inurba_marseille","lat":43.25102,"lon":5.403214,"is_reserved":false,"is_disabled":false,"rental_uris":{"android":"levelo://app?vid=cc860a47-2c29-4cec-aa56-65290340d87f","ios":"levelo://app?vid=cc860a47-2c29-4cec-aa56-65290340d87f"},"vehicle_type_id":"4","last_reported":1679418391,"current_range_meters":25200,"station_id":"ce4bhlh2rcd13ifvqgig","pricing_plan_id":"free"},{"bike_id":"f2bfe9c9-e653-4638-bc09-12206db32bfb","system_id":"levelo_inurba_marseille","lat":43.246467,"lon":5.388984,"is_reserved":false,"is_disabled":false,"rental_uris":{"android":"levelo://app?vid=f2bfe9c9-e653-4638-bc09-12206db32bfb","ios":"levelo://app?vid=f2bfe9c9-e653-4638-bc09-12206db32bfb"},"vehicle_type_id":"4","last_reported":1679418391,"current_range_meters":26400,"station_id":"ce4bhg12rcd13ifvqf60","pricing_plan_id":"free"},{"bike_id":"126459ce-55b1-4049-91e1-6a2068b08364","system_id":"levelo_inurba_marseille","lat":43.245581,"lon":5.395069,"is_reserved":false,"is_disabled":false,"rental_uris":{"android":"levelo://app?vid=126459ce-55b1-4049-91e1-6a2068b08364","ios":"levelo://app?vid=126459ce-55b1-4049-91e1-6a2068b08364"},"vehicle_type_id":"4","last_reported":1679418391,"current_range_meters":0,"station_id":"ce4bhlp2rcd13ifvqgjg","pricing_plan_id":"free"},{"bike_id":"ae704251-18b9-45fe-b58e-8c2f6ce05dfe","system_id":"levelo_inurba_marseille","lat":43.24069,"lon":5.37767,"is_reserved":false,"is_disabled":false,"rental_uris":{"android":"levelo://app?vid=ae704251-18b9-45fe-b58e-8c2f6ce05dfe","ios":"levelo://app?vid=ae704251-18b9-45fe-b58e-8c2f6ce05dfe"},"vehicle_type_id":"4","last_reported":1679418391,"current_range_meters":0,"station_id":"ce4bhnp2rcd13ifvqgvg","pricing_plan_id":"free"},{"bike_id":"c6954df4-f31a-402f-9912-e818eaa5834a","system_id":"levelo_inurba_marseille","lat":43.23965,"lon":5.36635,"is_reserved":false,"is_disabled":false,"rental_uris":{"android":"levelo://app?vid=c6954df4-f31a-402f-9912-e818eaa5834a","ios":"levelo://app?vid=c6954df4-f31a-402f-9912-e818eaa5834a"},"vehicle_type_id":"4","last_reported":1679418391,"current_range_meters":13600,"station_id":"","pricing_plan_id":"free"},{"bike_id":"8d7e389d-17fb-4fdd-b22f-8701af21e42a","system_id":"levelo_inurba_marseille","lat":43.239588,"lon":5.366238,"is_reserved":false,"is_disabled":false,"rental_uris":{"android":"levelo://app?vid=8d7e389d-17fb-4fdd-b22f-8701af21e42a","ios":"levelo://app?vid=8d7e389d-17fb-4fdd-b22f-8701af21e42a"},"vehicle_type_id":"4","last_reported":1679418391,"current_range_meters":7200,"station_id":"ce4bhi12rcd13ifvqfp0","pricing_plan_id":"free"},{"bike_id":"723aa8c8-6014-4dc4-891e-f0ea6dd898e6","system_id":"levelo_inurba_marseille","lat":43.239588,"lon":5.366238,"is_reserved":false,"is_disabled":false,"rental_uris":{"android":"levelo://app?vid=723aa8c8-6014-4dc4-891e-f0ea6dd898e6","ios":"levelo://app?vid=723aa8c8-6014-4dc4-891e-f0ea6dd898e6"},"vehicle_type_id":"4","last_reported":1679418391,"current_range_meters":24400,"station_id":"ce4bhi12rcd13ifvqfp0","pricing_plan_id":"free"},{"bike_id":"67f31f4b-932d-4b86-91b6-cc93de086f53","system_id":"levelo_inurba_marseille","lat":43.241782,"lon":5.397261,"is_reserved":false,"is_disabled":false,"rental_uris":{"android":"levelo://app?vid=67f31f4b-932d-4b86-91b6-cc93de086f53","ios":"levelo://app?vid=67f31f4b-932d-4b86-91b6-cc93de086f53"},"vehicle_type_id":"4","last_reported":1679418391,"current_range_meters":21600,"station_id":"ce4bhn12rcd13ifvqgpg","pricing_plan_id":"free"},{"bike_id":"148e0beb-bf93-4859-91f7-30ee72bb02fa","system_id":"levelo_inurba_marseille","lat":43.241782,"lon":5.397261,"is_reserved":false,"is_disabled":false,"rental_uris":{"android":"levelo://app?vid=148e0beb-bf93-4859-91f7-30ee72bb02fa","ios":"levelo://app?vid=148e0beb-bf93-4859-91f7-30ee72bb02fa"},"vehicle_type_id":"4","last_reported":1679418391,"current_range_meters":17200,"station_id":"ce4bhn12rcd13ifvqgpg","pricing_plan_id":"free"},{"bike_id":"bc9c2cdf-31c7-44d3-b818-4514a94ed647","system_id":"levelo_inurba_marseille","lat":43.241782,"lon":5.397261,"is_reserved":false,"is_disabled":false,"rental_uris":{"android":"levelo://app?vid=bc9c2cdf-31c7-44d3-b818-4514a94ed647","ios":"levelo://app?vid=bc9c2cdf-31c7-44d3-b818-4514a94ed647"},"vehicle_type_id":"4","last_reported":1679418391,"current_range_meters":23200,"station_id":"ce4bhn12rcd13ifvqgpg","pricing_plan_id":"free"},{"bike_id":"af120e91-fac5-43b7-8588-1ffd27c56f18","system_id":"levelo_inurba_marseille","lat":43.241782,"lon":5.397261,"is_reserved":false,"is_disabled":false,"rental_uris":{"android":"levelo://app?vid=af120e91-fac5-43b7-8588-1ffd27c56f18","ios":"levelo://app?vid=af120e91-fac5-43b7-8588-1ffd27c56f18"},"vehicle_type_id":"4","last_reported":1679418391,"current_range_meters":5600,"station_id":"ce4bhn12rcd13ifvqgpg","pricing_plan_id":"free"}]}}