{"last_updated":1746965848,"ttl":60,"version":"2.2","data":{"bikes":[{"bike_id":"7561ca81-18ff-4062-bd0d-4e3e5b796d0e","system_id":"levelo_inurba_marseille","lat":43.27759,"lon":5.43529,"is_reserved":false,"is_disabled":false,"rental_uris":{"android":"levelo://app?vid=7561ca81-18ff-4062-bd0d-4e3e5b796d0e","ios":"levelo://app?vid=7561ca81-18ff-4062-bd0d-4e3e5b796d0e"},"vehicle_type_id":"4","last_reported":1746965848,"current_range_meters":2800,"station_id":"","pricing_plan_id":"cebpf4jnsgd1na2vs0mg"},{"bike_id":"d0af6956-3c1a-482c-b1cc-50dd1447307f","system_id":"levelo_inurba_marseille","lat":43.32464,"lon":5.36556,"is_reserved":false,"is_disabled":false,"rental_uris":{"android":"levelo://app?vid=d0af6956-3c1a-482c-b1cc-50dd1447307f","ios":"levelo://app?vid=d0af6956-3c1a-482c-b1cc-50dd1447307f"},"vehicle_type_id":"4","last_reported":1746965848,"current_range_meters":3200,"station_id":"ce4bhs12rcd13ifvqhvg","pricing_plan_id":"cebpf4jnsgd1na2vs0mg"},{"bike_id":"b54186ae-8001-4c21-8978-8756d747bb44","system_id":"levelo_inurba_marseille","lat":43.21749,"lon":5.34607,"is_reserved":false,"is_disabled":false,"rental_uris":{"android":"levelo://app?vid=b54186ae-8001-4c21-8978-8756d747bb44","ios":"levelo://app?vid=b54186ae-8001-4c21-8978-8756d747bb44"},"vehicle_type_id":"4","last_reported":1746965848,"current_range_meters":3600,"station_id":"st_cvj6r9ubvosntc0bgbag","pricing_plan_id":"cebpf4jnsgd1na2vs0mg"},{"bike_id":"df39ca98-9252-4ddd-866a-23d9f482c501","system_id":"levelo_inurba_marseille","lat":43.28662,"lon":5.36337,"is_reserved":false,"is_disabled":true,"rental_uris":{"android":"levelo://app?vid=df39ca98-9252-4ddd-866a-23d9f482c501","ios":"levelo://app?vid=df39ca98-9252-4ddd-866a-23d9f482c501"},"vehicle_type_id":"4","last_reported":1746965848,"current_range_meters":3600,"station_id":"ce4bhah2rcd13ifvqej0","pricing_plan_id":"cebpf4jnsgd1na2vs0mg"},{"bike_id":"20d62d3a-f9ce-444c-ad20-a24efcb0537e","system_id":"levelo_inurba_marseille","lat":43.31995,"lon":5.3815,"is_reserved":false,"is_disabled":true,"rental_uris":{"android":"levelo://app?vid=20d62d3a-f9ce-444c-ad20-a24efcb0537e","ios":"levelo://app?vid=20d62d3a-f9ce-444c-ad20-a24efcb0537e"},"vehicle_type_id":"4","last_reported":1746965848,"current_range_meters":3600,"station_id":"ce4bhr12rcd13ifvqhpg","pricing_plan_id":"cebpf4jnsgd1na2vs0mg"},{"bike_id":"904c7fc2-540f-4043-a405-5f5658266117","system_id":"levelo_inurba_marseille","lat":43.27588,"lon":5.37787,"is_reserved":false,"is_disabled":false,"rental_uris":{"android":"levelo://app?vid=904c7fc2-540f-4043-a405-5f5658266117","ios":"levelo://app?vid=904c7fc2-540f-4043-a405-5f5658266117"},"vehicle_type_id":"4","last_reported":1746965848,"current_range_meters":4400,"station_id":"","pricing_plan_id":"cebpf4jnsgd1na2vs0mg"},{"bike_id":"ec2e562c-9d0c-46ba-b6a7-90e2f536904b","system_id":"levelo_inurba_marseille","lat":43.31703,"lon":5.43699,"is_reserved":false,"is_disabled":false,"rental_uris":{"android":"levelo://app?vid=ec2e562c-9d0c-46ba-b6a7-90e2f536904b","ios":"levelo://app?vid=ec2e562c-9d0c-46ba-b6a7-90e2f536904b"},"vehicle_type_id":"4","last_reported":1746965848,"current_range_meters":4000,"station_id":"ce4bhp92rcd13ifvqhcg","pricing_plan_id":"cebpf4jnsgd1na2vs0mg"},{"bike_id":"1685cc15-35d1-4323-9576-2d843b4754a5","system_id":"levelo_inurba_marseille","lat":43.310717,"lon":5.383544,"is_reserved":false,"is_disabled":false,"rental_uris":{"android":"levelo://app?vid=1685cc15-35d1-4323-9576-2d843b4754a5","ios":"levelo://app?vid=1685cc15-35d1-4323-9576-2d843b4754a5"},"vehicle_type_id":"4","last_reported":1746965848,"current_range_meters":4800,"station_id":"ce4bgv92rcd13ifvqcr0","pricing_plan_id":"cebpf4jnsgd1na2vs0mg"},{"bike_id":"6f45363f-0cad-43ea-ad2b-ae192fe8e301","system_id":"levelo_inurba_marseille","lat":43.29251,"lon":5.36849,"is_reserved":false,"is_disabled":false,"rental_uris":{"android":"levelo://app?vid=6f45363f-0cad-43ea-ad2b-ae192fe8e301","ios":"levelo://app?vid=6f45363f-0cad-43ea-ad2b-ae192fe8e301"},"vehicle_type_id":"4","last_reported":1746965848,"current_range_meters":4800,"station_id":"ce4bhbp2rcd13ifvqesg","pricing_plan_id":"cebpf4jnsgd1na2vs0mg"},{"bike_id":"4f39ef46-c182-492f-a9f2-8b71081efeff","system_id":"levelo_inurba_marseille","lat":43.25742,"lon":5.41056,"is_reserved":false,"is_disabled":false,"rental_uris":{"android":"levelo://app?vid=4f39ef46-c182-492f-a9f2-8b71081efeff","ios":"levelo://app?vid=4f39ef46-c182-492f-a9f2-8b71081efeff"},"vehicle_type_id":"4","last_reported":1746965848,"current_range_meters":6000,"station_id":"","pricing_plan_id":"cebpf4jnsgd1na2vs0mg"},{"bike_id":"c8871d60-de65-4dc9-8457-ca42730446e7","system_id":"levelo_inurba_marseille","lat":43.317451,"lon":5.387784,"is_reserved":false,"is_disabled":false,"rental_uris":{"android":"levelo://app?vid=c8871d60-de65-4dc9-8457-ca42730446e7","ios":"levelo://app?vid=c8871d60-de65-4dc9-8457-ca42730446e7"},"vehicle_type_id":"4","last_reported":1746965848,"current_range_meters":6000,"station_id":"","pricing_plan_id":"cebpf4jnsgd1na2vs0mg"},{"bike_id":"903870a4-0671-4511-8241-238838a5e0e3","system_id":"levelo_inurba_marseille","lat":43.30141,"lon":5.37409,"is_reserved":false,"is_disabled":false,"rental_uris":{"android":"levelo://app?vid=903870a4-0671-4511-8241-238838a5e0e3","ios":"levelo://app?vid=903870a4-0671-4511-8241-238838a5e0e3"},"vehicle_type_id":"4","last_reported":1746965848,"current_range_meters":6000,"station_id":"ce4bgs92rcd13ifvqcc0","pricing_plan_id":"cebpf4jnsgd1na2vs0mg"},{"bike_id":"c13f6770-edfc-46b5-bb2d-9740a2cce6d4","system_id":"levelo_inurba_marseille","lat":43.25504,"lon":5.37643,"is_reserved":false,"is_disabled":true,"rental_uris":{"android":"levelo://app?vid=c13f6770-edfc-46b5-bb2d-9740a2cce6d4","ios":"levelo://app?vid=c13f6770-edfc-46b5-bb2d-9740a2cce6d4"},"vehicle_type_id":"4","last_reported":1746965848,"current_range_meters":6000,"station_id":"ce4bhh12rcd13ifvqff0","pricing_plan_id":"cebpf4jnsgd1na2vs0mg"},{"bike_id":"3b37fd52-0db0-44c6-bcc3-642cded754e8","system_id":"levelo_inurba_marseille","lat":43.29015,"lon":5.386274,"is_reserved":false,"is_disabled":false,"rental_uris":{"android":"levelo://app?vid=3b37fd52-0db0-44c6-bcc3-642cded754e8","ios":"levelo://app?vid=3b37fd52-0db0-44c6-bcc3-642cded754e8"},"vehicle_type_id":"4","last_reported":1746965848,"current_range_meters":6400,"station_id":"ce4bh4p2rcd13ifvqe0g","pricing_plan_id":"cebpf4jnsgd1na2vs0mg"},{"bike_id":"a8bc7746-0208-40f1-90d5-882fda4dc0c4","system_id":"levelo_inurba_marseille","lat":43.29532,"lon":5.38534,"is_reserved":false,"is_disabled":false,"rental_uris":{"android":"levelo://app?vid=a8bc7746-0208-40f1-90d5-882fda4dc0c4","ios":"levelo://app?vid=a8bc7746-0208-40f1-90d5-882fda4dc0c4"},"vehicle_type_id":"4","last_reported":1746965848,"current_range_meters":6400,"station_id":"ce4bgih2rcd13ifvqba0","pricing_plan_id":"cebpf4jnsgd1na2vs0mg"},{"bike_id":"641ba820-c70e-4106-95a7-0143e799853a","system_id":"levelo_inurba_marseille","lat":43.303245,"lon":5.404345,"is_reserved":false,"is_disabled":false,"rental_uris":{"android":"levelo://app?vid=641ba820-c70e-4106-95a7-0143e799853a","ios":"levelo://app?vid=641ba820-c70e-4106-95a7-0143e799853a"},"vehicle_type_id":"4","last_reported":1746965848,"current_range_meters":6400,"station_id":"ce4bh012rcd13ifvqd10","pricing_plan_id":"cebpf4jnsgd1na2vs0mg"},{"bike_id":"f5e28900-93bd-4bee-b537-cd182a31f43d","system_id":"levelo_inurba_marseille","lat":43.31508,"lon":5.373,"is_reserved":false,"is_disabled":false,"rental_uris":{"android":"levelo://app?vid=f5e28900-93bd-4bee-b537-cd182a31f43d","ios":"levelo://app?vid=f5e28900-93bd-4bee-b537-cd182a31f43d"},"vehicle_type_id":"4","last_reported":1746965848,"current_range_meters":6400,"station_id":"ce4bgk12rcd13ifvqbi0","pricing_plan_id":"cebpf4jnsgd1na2vs0mg"},{"bike_id":"a19ec832-9eb8-4688-b188-535b33a7b80d","system_id":"levelo_inurba_marseille","lat":43.29972,"lon":5.38498,"is_reserved":false,"is_disabled":false,"rental_uris":{"android":"levelo://app?vid=a19ec832-9eb8-4688-b188-535b33a7b80d","ios":"levelo://app?vid=a19ec832-9eb8-4688-b188-535b33a7b80d"},"vehicle_type_id":"4","last_reported":1746965848,"current_range_meters":6400,"station_id":"ce4bgj92rcd13ifvqbd0","pricing_plan_id":"cebpf4jnsgd1na2vs0mg"},{"bike_id":"7ce9efa1-96a5-4497-bbcf-312996771c24","system_id":"levelo_inurba_marseille","lat":43.29026,"lon":5.39969,"is_reserved":false,"is_disabled":false,"rental_uris":{"android":"levelo://app?vid=7ce9efa1-96a5-4497-bbcf-312996771c24","ios":"levelo://app?vid=7ce9efa1-96a5-4497-bbcf-312996771c24"},"vehicle_type_id":"4","last_reported":1746965848,"current_range_meters":6400,"station_id":"ce4bh392rcd13ifvqdm0","pricing_plan_id":"cebpf4jnsgd1na2vs0mg"},{"bike_id":"83ed56d0-22db-4ad2-86de-988581bcdefa","system_id":"levelo_inurba_marseille","lat":43.25868,"lon":5.39893,"is_reserved":false,"is_disabled":false,"rental_uris":{"android":"levelo://app?vid=83ed56d0-22db-4ad2-86de-988581bcdefa","ios":"levelo://app?vid=83ed56d0-22db-4ad2-86de-988581bcdefa"},"vehicle_type_id":"4","last_reported":1746965848,"current_range_meters":6800,"station_id":"ce4bhl92rcd13ifvqghg","pricing_plan_id":"cebpf4jnsgd1na2vs0mg"},{"bike_id":"a94ed176-0ef9-4038-8737-ca430851595b","system_id":"levelo_inurba_marseille","lat":43.32363,"lon":5.40604,"is_reserved":false,"is_disabled":false,"rental_uris":{"android":"levelo://app?vid=a94ed176-0ef9-4038-8737-ca430851595b","ios":"levelo://app?vid=a94ed176-0ef9-4038-8737-ca430851595b"},"vehicle_type_id":"4","last_reported":1746965848,"current_range_meters":6800,"station_id":"ce4bhq92rcd13ifvqhjg","pricing_plan_id":"cebpf4jnsgd1na2vs0mg"},{"bike_id":"da720f27-4eda-4c57-90d3-1dce2f6ab566","system_id":"levelo_inurba_marseille","lat":43.27996,"lon":5.4166,"is_reserved":false,"is_disabled":false,"rental_uris":{"android":"levelo://app?vid=da720f27-4eda-4c57-90d3-1dce2f6ab566","ios":"levelo://app?vid=da720f27-4eda-4c57-90d3-1dce2f6ab566"},"vehicle_type_id":"4","last_reported":1746965848,"current_range_meters":6800,"station_id":"ce4bho12rcd13ifvqh1g","pricing_plan_id":"cebpf4jnsgd1na2vs0mg"},{"bike_id":"3cf2efdf-1fe2-4805-8f98-59ca5416b936","system_id":"levelo_inurba_marseille","lat":43.29708,"lon":5.36588,"is_reserved":false,"is_disabled":false,"rental_uris":{"android":"levelo://app?vid=3cf2efdf-1fe2-4805-8f98-59ca5416b936","ios":"levelo://app?vid=3cf2efdf-1fe2-4805-8f98-59ca5416b936"},"vehicle_type_id":"4","last_reported":1746965848,"current_range_meters":7200,"station_id":"ce4bgn12rcd13ifvqbt0","pricing_plan_id":"cebpf4jnsgd1na2vs0mg"},{"bike_id":"b4626043-4e62-4e08-8f06-77505dbb1458","system_id":"levelo_inurba_marseille","lat":43.23152,"lon":5.437,"is_reserved":false,"is_disabled":false,"rental_uris":{"android":"levelo://app?vid=b4626043-4e62-4e08-8f06-77505dbb1458","ios":"levelo://app?vid=b4626043-4e62-4e08-8f06-77505dbb1458"},"vehicle_type_id":"4","last_reported":1746965848,"current_range_meters":7200,"station_id":"ce4bhmp2rcd13ifvqgog","pricing_plan_id":"cebpf4jnsgd1na2vs0mg"},{"bike_id":"aedac110-9a80-4055-b3bc-6fbbff4ed0bc","system_id":"levelo_inurba_marseille","lat":43.31752,"lon":5.37226,"is_reserved":false,"is_disabled":false,"rental_uris":{"android":"levelo://app?vid=aedac110-9a80-4055-b3bc-6fbbff4ed0bc","ios":"levelo://app?vid=aedac110-9a80-4055-b3bc-6fbbff4ed0bc"},"vehicle_type_id":"4","last_reported":1746965848,"current_range_meters":7200,"station_id":"","pricing_plan_id":"cebpf4jnsgd1na2vs0mg"},{"bike_id":"814c300d-d261-4866-b022-44e7c5159380","system_id":"levelo_inurba_marseille","lat":43.24164,"lon":5.3641,"is_reserved":false,"is_disabled":true,"rental_uris":{"android":"levelo://app?vid=814c300d-d261-4866-b022-44e7c5159380","ios":"levelo://app?vid=814c300d-d261-4866-b022-44e7c5159380"},"vehicle_type_id":"4","last_reported":1746965848,"current_range_meters":7200,"station_id":"cpo36qri1sfpv3e86is0","pricing_plan_id":"cebpf4jnsgd1na2vs0mg"},{"bike_id":"6e6cde16-3c27-47dc-883f-eeb1ab424d27","system_id":"levelo_inurba_marseille","lat":43.27201,"lon":5.39185,"is_reserved":false,"is_disabled":false,"rental_uris":{"android":"levelo://app?vid=6e6cde16-3c27-47dc-883f-eeb1ab424d27","ios":"levelo://app?vid=6e6cde16-3c27-47dc-883f-eeb1ab424d27"},"vehicle_type_id":"4","last_reported":1746965848,"current_range_meters":7200,"station_id":"ce4bhhp2rcd13ifvqfm0","pricing_plan_id":"cebpf4jnsgd1na2vs0mg"},{"bike_id":"10ee2d0e-ca01-4e83-bbdf-6c08178a202f","system_id":"levelo_inurba_marseille","lat":43.28607,"lon":5.41296,"is_reserved":false,"is_disabled":false,"rental_uris":{"android":"levelo://app?vid=10ee2d0e-ca01-4e83-bbdf-6c08178a202f","ios":"levelo://app?vid=10ee2d0e-ca01-4e83-bbdf-6c08178a202f"},"vehicle_type_id":"4","last_reported":1746965848,"current_range_meters":7200,"station_id":"","pricing_plan_id":"cebpf4jnsgd1na2vs0mg"},{"bike_id":"f7e04b06-a661-46c3-a25d-cba86e1c3a10","system_id":"levelo_inurba_marseille","lat":43.301,"lon":5.3907,"is_reserved":false,"is_disabled":false,"rental_uris":{"android":"levelo://app?vid=f7e04b06-a661-46c3-a25d-cba86e1c3a10","ios":"levelo://app?vid=f7e04b06-a661-46c3-a25d-cba86e1c3a10"},"vehicle_type_id":"4","last_reported":1746965848,"current_range_meters":7200,"station_id":"ce4bh192rcd13ifvqdb0","pricing_plan_id":"cebpf4jnsgd1na2vs0mg"},{"bike_id":"fd02f5b7-0add-45e9-b3c9-befa806df1af","system_id":"levelo_inurba_marseille","lat":43.31365,"lon":5.38492,"is_reserved":false,"is_disabled":false,"rental_uris":{"android":"levelo://app?vid=fd02f5b7-0add-45e9-b3c9-befa806df1af","ios":"levelo://app?vid=fd02f5b7-0add-45e9-b3c9-befa806df1af"},"vehicle_type_id":"4","last_reported":1746965848,"current_range_meters":8000,"station_id":"ce4bgt92rcd13ifvqcf0","pricing_plan_id":"cebpf4jnsgd1na2vs0mg"},{"bike_id":"351ef218-24e5-4670-825d-fc1ac5cd3c19","system_id":"levelo_inurba_marseille","lat":43.31802,"lon":5.36836,"is_reserved":false,"is_disabled":false,"rental_uris":{"android":"levelo://app?vid=351ef218-24e5-4670-825d-fc1ac5cd3c19","ios":"levelo://app?vid=351ef218-24e5-4670-825d-fc1ac5cd3c19"},"vehicle_type_id":"4","last_reported":1746965848,"current_range_meters":8000,"station_id":"","pricing_plan_id":"cebpf4jnsgd1na2vs0mg"},{"bike_id":"a2514267-4fd8-409f-be6c-38268e63cec1","system_id":"levelo_inurba_marseille","lat":43.28344,"lon":5.38129,"is_reserved":false,"is_disabled":true,"rental_uris":{"android":"levelo://app?vid=a2514267-4fd8-409f-be6c-38268e63cec1","ios":"levelo://app?vid=a2514267-4fd8-409f-be6c-38268e63cec1"},"vehicle_type_id":"4","last_reported":1746965848,"current_range_meters":8000,"station_id":"ce4bh412rcd13ifvqdr0","pricing_plan_id":"cebpf4jnsgd1na2vs0mg"},{"bike_id":"f4c9407a-a0ab-407b-9c49-a6f03c921d9b","system_id":"levelo_inurba_marseille","lat":43.28462,"lon":5.3589,"is_reserved":false,"is_disabled":false,"rental_uris":{"android":"levelo://app?vid=f4c9407a-a0ab-407b-9c49-a6f03c921d9b","ios":"levelo://app?vid=f4c9407a-a0ab-407b-9c49-a6f03c921d9b"},"vehicle_type_id":"4","last_reported":1746965848,"current_range_meters":8000,"station_id":"ce4bhah2rcd13ifvqei0","pricing_plan_id":"cebpf4jnsgd1na2vs0mg"},{"bike_id":"26c3ef59-818d-47a5-a1a3-684bfda92f29","system_id":"levelo_inurba_marseille","lat":43.28718,"lon":5.37944,"is_reserved":false,"is_disabled":false,"rental_uris":{"android":"levelo://app?vid=26c3ef59-818d-47a5-a1a3-684bfda92f29","ios":"levelo://app?vid=26c3ef59-818d-47a5-a1a3-684bfda92f29"},"vehicle_type_id":"4","last_reported":1746965848,"current_range_meters":8000,"station_id":"ce4bh9p2rcd13ifvqec0","pricing_plan_id":"cebpf4jnsgd1na2vs0mg"},{"bike_id":"ed2ee6fd-6ade-47b3-88bd-ac0fe3fa400f","system_id":"levelo_inurba_marseille","lat":43.24176,"lon":5.39731,"is_reserved":false,"is_disabled":false,"rental_uris":{"android":"levelo://app?vid=ed2ee6fd-6ade-47b3-88bd-ac0fe3fa400f","ios":"levelo://app?vid=ed2ee6fd-6ade-47b3-88bd-ac0fe3fa400f"},"vehicle_type_id":"4","last_reported":1746965848,"current_range_meters":8400,"station_id":"ce4bhn12rcd13ifvqgpg","pricing_plan_id":"cebpf4jnsgd1na2vs0mg"},{"bike_id":"90699213-8274-436f-bb67-aab198828d40","system_id":"levelo_inurba_marseille","lat":43.32341,"lon":5.4062,"is_reserved":false,"is_disabled":false,"rental_uris":{"android":"levelo://app?vid=90699213-8274-436f-bb67-aab198828d40","ios":"levelo://app?vid=90699213-8274-436f-bb67-aab198828d40"},"vehicle_type_id":"4","last_reported":1746965848,"current_range_meters":8400,"station_id":"ce4bhq92rcd13ifvqhjg","pricing_plan_id":"cebpf4jnsgd1na2vs0mg"},{"bike_id":"c7b2c172-c868-409b-94b2-994d10fee645","system_id":"levelo_inurba_marseille","lat":43.26071,"lon":5.39383,"is_reserved":false,"is_disabled":false,"rental_uris":{"android":"levelo://app?vid=c7b2c172-c868-409b-94b2-994d10fee645","ios":"levelo://app?vid=c7b2c172-c868-409b-94b2-994d10fee645"},"vehicle_type_id":"4","last_reported":1746965848,"current_range_meters":8400,"station_id":"ce4bhh92rcd13ifvqfj0","pricing_plan_id":"cebpf4jnsgd1na2vs0mg"},{"bike_id":"04c1226f-faa4-4a45-b805-4b9bcac57fa8","system_id":"levelo_inurba_marseille","lat":43.29268,"lon":5.39102,"is_reserved":false,"is_disabled":false,"rental_uris":{"android":"levelo://app?vid=04c1226f-faa4-4a45-b805-4b9bcac57fa8","ios":"levelo://app?vid=04c1226f-faa4-4a45-b805-4b9bcac57fa8"},"vehicle_type_id":"4","last_reported":1746965848,"current_range_meters":8400,"station_id":"","pricing_plan_id":"cebpf4jnsgd1na2vs0mg"},{"bike_id":"be5a5cc2-e818-4a1a-90ee-de1a0b0a7119","system_id":"levelo_inurba_marseille","lat":43.27957,"lon":5.3866,"is_reserved":false,"is_disabled":false,"rental_uris":{"android":"levelo://app?vid=be5a5cc2-e818-4a1a-90ee-de1a0b0a7119","ios":"levelo://app?vid=be5a5cc2-e818-4a1a-90ee-de1a0b0a7119"},"vehicle_type_id":"4","last_reported":1746965848,"current_range_meters":8800,"station_id":"ce4bhg12rcd13ifvqf80","pricing_plan_id":"cebpf4jnsgd1na2vs0mg"},{"bike_id":"48b73517-8a40-4b3f-aad3-968dd3319f04","system_id":"levelo_inurba_marseille","lat":43.31716,"lon":5.43703,"is_reserved":false,"is_disabled":false,"rental_uris":{"android":"levelo://app?vid=48b73517-8a40-4b3f-aad3-968dd3319f04","ios":"levelo://app?vid=48b73517-8a40-4b3f-aad3-968dd3319f04"},"vehicle_type_id":"4","last_reported":1746965848,"current_range_meters":8800,"station_id":"ce4bhp92rcd13ifvqhcg","pricing_plan_id":"cebpf4jnsgd1na2vs0mg"},{"bike_id":"64d85f3c-2a21-4d55-818b-b51e2ea2d90e","system_id":"levelo_inurba_marseille","lat":43.24387,"lon":5.37053,"is_reserved":false,"is_disabled":false,"rental_uris":{"android":"levelo://app?vid=64d85f3c-2a21-4d55-818b-b51e2ea2d90e","ios":"levelo://app?vid=64d85f3c-2a21-4d55-818b-b51e2ea2d90e"},"vehicle_type_id":"4","last_reported":1746965848,"current_range_meters":8800,"station_id":"ce4bhhh2rcd13ifvqfk0","pricing_plan_id":"cebpf4jnsgd1na2vs0mg"},{"bike_id":"24a40667-661d-4b2a-b265-049a415d871e","system_id":"levelo_inurba_marseille","lat":43.21205,"lon":5.35082,"is_reserved":false,"is_disabled":false,"rental_uris":{"android":"levelo://app?vid=24a40667-661d-4b2a-b265-049a415d871e","ios":"levelo://app?vid=24a40667-661d-4b2a-b265-049a415d871e"},"vehicle_type_id":"4","last_reported":1746965848,"current_range_meters":9200,"station_id":"st_cvj6sg6p6f1abm77japg","pricing_plan_id":"cebpf4jnsgd1na2vs0mg"},{"bike_id":"055360b7-3226-4f50-821f-c1791277a616","system_id":"levelo_inurba_marseille","lat":43.26802,"lon":5.40262,"is_reserved":false,"is_disabled":false,"rental_uris":{"android":"levelo://app?vid=055360b7-3226-4f50-821f-c1791277a616","ios":"levelo://app?vid=055360b7-3226-4f50-821f-c1791277a616"},"vehicle_type_id":"4","last_reported":1746965848,"current_range_meters":9200,"station_id":"ce501612rcd8frsf0b60","pricing_plan_id":"cebpf4jnsgd1na2vs0mg"},{"bike_id":"7f54b275-0ca7-4681-a964-1bd6f04cd6db","system_id":"levelo_inurba_marseille","lat":43.30168,"lon":5.3808,"is_reserved":false,"is_disabled":false,"rental_uris":{"android":"levelo://app?vid=7f54b275-0ca7-4681-a964-1bd6f04cd6db","ios":"levelo://app?vid=7f54b275-0ca7-4681-a964-1bd6f04cd6db"},"vehicle_type_id":"4","last_reported":1746965848,"current_range_meters":9200,"station_id":"ce4bgjp2rcd13ifvqbh0","pricing_plan_id":"cebpf4jnsgd1na2vs0mg"},{"bike_id":"091b2495-8506-43b4-b374-57e577b837c4","system_id":"levelo_inurba_marseille","lat":43.25115,"lon":5.40322,"is_reserved":false,"is_disabled":false,"rental_uris":{"android":"levelo://app?vid=091b2495-8506-43b4-b374-57e577b837c4","ios":"levelo://app?vid=091b2495-8506-43b4-b374-57e577b837c4"},"vehicle_type_id":"4","last_reported":1746965848,"current_range_meters":9600,"station_id":"ce4bhlh2rcd13ifvqgig","pricing_plan_id":"cebpf4jnsgd1na2vs0mg"},{"bike_id":"de407930-1ec3-425d-b82c-31e3ea2c62a0","system_id":"levelo_inurba_marseille","lat":43.25044,"lon":5.37528,"is_reserved":false,"is_disabled":false,"rental_uris":{"android":"levelo://app?vid=de407930-1ec3-425d-b82c-31e3ea2c62a0","ios":"levelo://app?vid=de407930-1ec3-425d-b82c-31e3ea2c62a0"},"vehicle_type_id":"4","last_reported":1746965848,"current_range_meters":9600,"station_id":"","pricing_plan_id":"cebpf4jnsgd1na2vs0mg"},{"bike_id":"910f58e1-bc11-4d4a-be16-a826726f8216","system_id":"levelo_inurba_marseille","lat":43.290394,"lon":5.359055,"is_reserved":false,"is_disabled":true,"rental_uris":{"android":"levelo://app?vid=910f58e1-bc11-4d4a-be16-a826726f8216","ios":"levelo://app?vid=910f58e1-bc11-4d4a-be16-a826726f8216"},"vehicle_type_id":"4","last_reported":1746965848,"current_range_meters":9600,"station_id":"ce4bha92rcd13ifvqeg0","pricing_plan_id":"cebpf4jnsgd1na2vs0mg"},{"bike_id":"1d83476a-9395-4e91-90b3-3098d854b2b3","system_id":"levelo_inurba_marseille","lat":43.29245,"lon":5.38439,"is_reserved":false,"is_disabled":true,"rental_uris":{"android":"levelo://app?vid=1d83476a-9395-4e91-90b3-3098d854b2b3","ios":"levelo://app?vid=1d83476a-9395-4e91-90b3-3098d854b2b3"},"vehicle_type_id":"4","last_reported":1746965848,"current_range_meters":9600,"station_id":"ce4bh692rcd13ifvqea0","pricing_plan_id":"cebpf4jnsgd1na2vs0mg"},{"bike_id":"f1f47090-376e-489a-b9ad-7bf5f4813c6a","system_id":"levelo_inurba_marseille","lat":43.2973,"lon":5.376704,"is_reserved":false,"is_disabled":true,"rental_uris":{"android":"levelo://app?vid=f1f47090-376e-489a-b9ad-7bf5f4813c6a","ios":"levelo://app?vid=f1f47090-376e-489a-b9ad-7bf5f4813c6a"},"vehicle_type_id":"4","last_reported":1746965848,"current_range_meters":9600,"station_id":"ce4bgkh2rcd13ifvqbl0","pricing_plan_id":"cebpf4jnsgd1na2vs0mg"},{"bike_id":"6ef17d4a-3acf-4136-a3aa-30df54bf330a","system_id":"levelo_inurba_marseille","lat":43.30776,"lon":5.36568,"is_reserved":false,"is_disabled":false,"rental_uris":{"android":"levelo://app?vid=6ef17d4a-3acf-4136-a3aa-30df54bf330a","ios":"levelo://app?vid=6ef17d4a-3acf-4136-a3aa-30df54bf330a"},"vehicle_type_id":"4","last_reported":1746965848,"current_range_meters":9600,"station_id":"","pricing_plan_id":"cebpf4jnsgd1na2vs0mg"},{"bike_id":"4e7d2aa7-b9e2-48a1-9b0d-102faac415a5","system_id":"levelo_inurba_marseille","lat":43.21739,"lon":5.34603,"is_reserved":false,"is_disabled":false,"rental_uris":{"android":"levelo://app?vid=4e7d2aa7-b9e2-48a1-9b0d-102faac415a5","ios":"levelo://app?vid=4e7d2aa7-b9e2-48a1-9b0d-102faac415a5"},"vehicle_type_id":"4","last_reported":1746965848,"current_range_meters":9600,"station_id":"st_cvj6r9ubvosntc0bgbag","pricing_plan_id":"cebpf4jnsgd1na2vs0mg"},{"bike_id":"ec404f68-c205-4cad-bb82-d8a5e08af78b","system_id":"levelo_inurba_marseille","lat":43.25122,"lon":5.40326,"is_reserved":false,"is_disabled":false,"rental_uris":{"android":"levelo://app?vid=ec404f68-c205-4cad-bb82-d8a5e08af78b","ios":"levelo://app?vid=ec404f68-c205-4cad-bb82-d8a5e08af78b"},"vehicle_type_id":"4","last_reported":1746965848,"current_range_meters":9600,"station_id":"ce4bhlh2rcd13ifvqgig","pricing_plan_id":"cebpf4jnsgd1na2vs0mg"},{"bike_id":"4bc3ff0e-5c53-4d97-880d-d6a951817f2f","system_id":"levelo_inurba_marseille","lat":43.27997,"lon":5.40016,"is_reserved":false,"is_disabled":false,"rental_uris":{"android":"levelo://app?vid=4bc3ff0e-5c53-4d97-880d-d6a951817f2f","ios":"levelo://app?vid=4bc3ff0e-5c53-4d97-880d-d6a951817f2f"},"vehicle_type_id":"4","last_reported":1746965848,"current_range_meters":9600,"station_id":"ce4bho92rcd13ifvqh4g","pricing_plan_id":"cebpf4jnsgd1na2vs0mg"},{"bike_id":"fc2577e7-1497-425b-9d4f-ab8d7dc843c6","system_id":"levelo_inurba_marseille","lat":43.33771,"lon":5.37485,"is_reserved":false,"is_disabled":false,"rental_uris":{"android":"levelo://app?vid=fc2577e7-1497-425b-9d4f-ab8d7dc843c6","ios":"levelo://app?vid=fc2577e7-1497-425b-9d4f-ab8d7dc843c6"},"vehicle_type_id":"4","last_reported":1746965848,"current_range_meters":10000,"station_id":"","pricing_plan_id":"cebpf4jnsgd1na2vs0mg"},{"bike_id":"cf06a58c-6b90-4ee6-b7ff-5b33ec523703","system_id":"levelo_inurba_marseille","lat":43.28597,"lon":5.41301,"is_reserved":false,"is_disabled":false,"rental_uris":{"android":"levelo://app?vid=cf06a58c-6b90-4ee6-b7ff-5b33ec523703","ios":"levelo://app?vid=cf06a58c-6b90-4ee6-b7ff-5b33ec523703"},"vehicle_type_id":"4","last_reported":1746965848,"current_range_meters":10000,"station_id":"","pricing_plan_id":"cebpf4jnsgd1na2vs0mg"},{"bike_id":"a80c6dec-4a4e-43bc-9be7-beec67d7b112","system_id":"levelo_inurba_marseille","lat":43.303102,"lon":5.369118,"is_reserved":false,"is_disabled":false,"rental_uris":{"android":"levelo://app?vid=a80c6dec-4a4e-43bc-9be7-beec67d7b112","ios":"levelo://app?vid=a80c6dec-4a4e-43bc-9be7-beec67d7b112"},"vehicle_type_id":"4","last_reported":1746965848,"current_range_meters":10000,"station_id":"ce4bgqh2rcd13ifvqc5g","pricing_plan_id":"cebpf4jnsgd1na2vs0mg"},{"bike_id":"120fbc38-c696-4a88-b562-0def3a4442e2","system_id":"levelo_inurba_marseille","lat":43.292217,"lon":5.360695,"is_reserved":false,"is_disabled":false,"rental_uris":{"android":"levelo://app?vid=120fbc38-c696-4a88-b562-0def3a4442e2","ios":"levelo://app?vid=120fbc38-c696-4a88-b562-0def3a4442e2"},"vehicle_type_id":"4","last_reported":1746965848,"current_range_meters":10000,"station_id":"ce4bhbh2rcd13ifvqeqg","pricing_plan_id":"cebpf4jnsgd1na2vs0mg"},{"bike_id":"a0a7b749-df06-403a-9039-7dfe8d8079c9","system_id":"levelo_inurba_marseille","lat":43.23971,"lon":5.36636,"is_reserved":false,"is_disabled":true,"rental_uris":{"android":"levelo://app?vid=a0a7b749-df06-403a-9039-7dfe8d8079c9","ios":"levelo://app?vid=a0a7b749-df06-403a-9039-7dfe8d8079c9"},"vehicle_type_id":"4","last_reported":1746965848,"current_range_meters":10000,"station_id":"ce4bhi12rcd13ifvqfp0","pricing_plan_id":"cebpf4jnsgd1na2vs0mg"},{"bike_id":"5d616a98-f6a1-4789-a02d-abb0d20dd49c","system_id":"levelo_inurba_marseille","lat":43.23188,"lon":5.39982,"is_reserved":false,"is_disabled":true,"rental_uris":{"android":"levelo://app?vid=5d616a98-f6a1-4789-a02d-abb0d20dd49c","ios":"levelo://app?vid=5d616a98-f6a1-4789-a02d-abb0d20dd49c"},"vehicle_type_id":"4","last_reported":1746965848,"current_range_meters":10800,"station_id":"ce4bhn12rcd13ifvqgqg","pricing_plan_id":"cebpf4jnsgd1na2vs0mg"},{"bike_id":"373af2a9-02ea-46a9-bee0-62db936fdf3a","system_id":"levelo_inurba_marseille","lat":43.30521,"lon":5.36559,"is_reserved":false,"is_disabled":false,"rental_uris":{"android":"levelo://app?vid=373af2a9-02ea-46a9-bee0-62db936fdf3a","ios":"levelo://app?vid=373af2a9-02ea-46a9-bee0-62db936fdf3a"},"vehicle_type_id":"4","last_reported":1746965848,"current_range_meters":10800,"station_id":"ce4bgs12rcd13ifvqcag","pricing_plan_id":"cebpf4jnsgd1na2vs0mg"},{"bike_id":"9a449d44-e2c1-4137-9bbd-e4d897a4c9fe","system_id":"levelo_inurba_marseille","lat":43.3053,"lon":5.36536,"is_reserved":false,"is_disabled":false,"rental_uris":{"android":"levelo://app?vid=9a449d44-e2c1-4137-9bbd-e4d897a4c9fe","ios":"levelo://app?vid=9a449d44-e2c1-4137-9bbd-e4d897a4c9fe"},"vehicle_type_id":"4","last_reported":1746965848,"current_range_meters":10800,"station_id":"ce4bgs12rcd13ifvqcag","pricing_plan_id":"cebpf4jnsgd1na2vs0mg"},{"bike_id":"6d705489-d3d5-4e12-a28e-5d7bb8b109f3","system_id":"levelo_inurba_marseille","lat":43.26842,"lon":5.42773,"is_reserved":false,"is_disabled":false,"rental_uris":{"android":"levelo://app?vid=6d705489-d3d5-4e12-a28e-5d7bb8b109f3","ios":"levelo://app?vid=6d705489-d3d5-4e12-a28e-5d7bb8b109f3"},"vehicle_type_id":"4","last_reported":1746965848,"current_range_meters":11200,"station_id":"","pricing_plan_id":"cebpf4jnsgd1na2vs0mg"},{"bike_id":"50a5f453-7480-4c0c-a853-520dbe4eaaaf","system_id":"levelo_inurba_marseille","lat":43.30328,"lon":5.40441,"is_reserved":false,"is_disabled":false,"rental_uris":{"android":"levelo://app?vid=50a5f453-7480-4c0c-a853-520dbe4eaaaf","ios":"levelo://app?vid=50a5f453-7480-4c0c-a853-520dbe4eaaaf"},"vehicle_type_id":"4","last_reported":1746965848,"current_range_meters":11200,"station_id":"ce4bh012rcd13ifvqd10","pricing_plan_id":"cebpf4jnsgd1na2vs0mg"},{"bike_id":"edc363fe-4bb5-4f58-8c45-83282fb94fe0","system_id":"levelo_inurba_marseille","lat":43.29572,"lon":5.3749,"is_reserved":false,"is_disabled":false,"rental_uris":{"android":"levelo://app?vid=edc363fe-4bb5-4f58-8c45-83282fb94fe0","ios":"levelo://app?vid=edc363fe-4bb5-4f58-8c45-83282fb94fe0"},"vehicle_type_id":"4","last_reported":1746965848,"current_range_meters":11200,"station_id":"ce4bgh92rcd13ifvqb50","pricing_plan_id":"cebpf4jnsgd1na2vs0mg"},{"bike_id":"b7311931-b9e8-4040-951c-8d8e886a703f","system_id":"levelo_inurba_marseille","lat":43.30921,"lon":5.40137,"is_reserved":false,"is_disabled":false,"rental_uris":{"android":"levelo://app?vid=b7311931-b9e8-4040-951c-8d8e886a703f","ios":"levelo://app?vid=b7311931-b9e8-4040-951c-8d8e886a703f"},"vehicle_type_id":"4","last_reported":1746965848,"current_range_meters":11600,"station_id":"ce4bgvp2rcd13ifvqct0","pricing_plan_id":"cebpf4jnsgd1na2vs0mg"},{"bike_id":"6663a384-abed-48bd-861f-d563c5fcecd4","system_id":"levelo_inurba_marseille","lat":43.28423,"lon":5.3498,"is_reserved":false,"is_disabled":true,"rental_uris":{"android":"levelo://app?vid=6663a384-abed-48bd-861f-d563c5fcecd4","ios":"levelo://app?vid=6663a384-abed-48bd-861f-d563c5fcecd4"},"vehicle_type_id":"4","last_reported":1746965848,"current_range_meters":11600,"station_id":"ce4bhbh2rcd13ifvqepg","pricing_plan_id":"cebpf4jnsgd1na2vs0mg"},{"bike_id":"847d6692-e6d3-4857-ad02-806de247bacc","system_id":"levelo_inurba_marseille","lat":43.24388,"lon":5.37057,"is_reserved":false,"is_disabled":false,"rental_uris":{"android":"levelo://app?vid=847d6692-e6d3-4857-ad02-806de247bacc","ios":"levelo://app?vid=847d6692-e6d3-4857-ad02-806de247bacc"},"vehicle_type_id":"4","last_reported":1746965848,"current_range_meters":11600,"station_id":"ce4bhhh2rcd13ifvqfk0","pricing_plan_id":"cebpf4jnsgd1na2vs0mg"},{"bike_id":"2dbdf915-d2fb-4c36-8994-b53e3db07015","system_id":"levelo_inurba_marseille","lat":43.21756,"lon":5.34585,"is_reserved":false,"is_disabled":true,"rental_uris":{"android":"levelo://app?vid=2dbdf915-d2fb-4c36-8994-b53e3db07015","ios":"levelo://app?vid=2dbdf915-d2fb-4c36-8994-b53e3db07015"},"vehicle_type_id":"4","last_reported":1746965848,"current_range_meters":11600,"station_id":"st_cvj6r9ubvosntc0bgbag","pricing_plan_id":"cebpf4jnsgd1na2vs0mg"},{"bike_id":"14611f62-1cf7-4904-87bd-f406e4f67001","system_id":"levelo_inurba_marseille","lat":43.3013,"lon":5.39865,"is_reserved":false,"is_disabled":false,"rental_uris":{"android":"levelo://app?vid=14611f62-1cf7-4904-87bd-f406e4f67001","ios":"levelo://app?vid=14611f62-1cf7-4904-87bd-f406e4f67001"},"vehicle_type_id":"4","last_reported":1746965848,"current_range_meters":11600,"station_id":"ce4bh0h2rcd13ifvqd40","pricing_plan_id":"cebpf4jnsgd1na2vs0mg"},{"bike_id":"082c1f9f-4719-4cfe-b34a-37cfa3666b2e","system_id":"levelo_inurba_marseille","lat":43.28722,"lon":5.39994,"is_reserved":false,"is_disabled":true,"rental_uris":{"android":"levelo://app?vid=082c1f9f-4719-4cfe-b34a-37cfa3666b2e","ios":"levelo://app?vid=082c1f9f-4719-4cfe-b34a-37cfa3666b2e"},"vehicle_type_id":"4","last_reported":1746965848,"current_range_meters":11600,"station_id":"ce4bho92rcd13ifvqh3g","pricing_plan_id":"cebpf4jnsgd1na2vs0mg"},{"bike_id":"d83b7170-8eed-47c1-b0ec-1140d3a45dea","system_id":"levelo_inurba_marseille","lat":43.308117,"lon":5.435246,"is_reserved":false,"is_disabled":false,"rental_uris":{"android":"levelo://app?vid=d83b7170-8eed-47c1-b0ec-1140d3a45dea","ios":"levelo://app?vid=d83b7170-8eed-47c1-b0ec-1140d3a45dea"},"vehicle_type_id":"4","last_reported":1746965848,"current_range_meters":11600,"station_id":"ce4bhph2rcd13ifvqheg","pricing_plan_id":"cebpf4jnsgd1na2vs0mg"},{"bike_id":"b690fd5d-cc39-4354-b447-67201705df29","system_id":"levelo_inurba_marseille","lat":43.21201,"lon":5.35067,"is_reserved":false,"is_disabled":false,"rental_uris":{"android":"levelo://app?vid=b690fd5d-cc39-4354-b447-67201705df29","ios":"levelo://app?vid=b690fd5d-cc39-4354-b447-67201705df29"},"vehicle_type_id":"4","last_reported":1746965848,"current_range_meters":12000,"station_id":"st_cvj6sg6p6f1abm77japg","pricing_plan_id":"cebpf4jnsgd1na2vs0mg"},{"bike_id":"e2434f42-8ebb-4eed-a218-d21bf35b3735","system_id":"levelo_inurba_marseille","lat":43.2979,"lon":5.3811,"is_reserved":false,"is_disabled":true,"rental_uris":{"android":"levelo://app?vid=e2434f42-8ebb-4eed-a218-d21bf35b3735","ios":"levelo://app?vid=e2434f42-8ebb-4eed-a218-d21bf35b3735"},"vehicle_type_id":"4","last_reported":1746965848,"current_range_meters":12000,"station_id":"ce4bgip2rcd13ifvqbb0","pricing_plan_id":"cebpf4jnsgd1na2vs0mg"},{"bike_id":"efc0a0d5-a353-4db4-9aad-8fb20bd2a998","system_id":"levelo_inurba_marseille","lat":43.25722,"lon":5.41098,"is_reserved":false,"is_disabled":false,"rental_uris":{"android":"levelo://app?vid=efc0a0d5-a353-4db4-9aad-8fb20bd2a998","ios":"levelo://app?vid=efc0a0d5-a353-4db4-9aad-8fb20bd2a998"},"vehicle_type_id":"4","last_reported":1746965848,"current_range_meters":12000,"station_id":"ce4bhkp2rcd13ifvqgd0","pricing_plan_id":"cebpf4jnsgd1na2vs0mg"},{"bike_id":"a1121b36-b5cd-4dda-96ef-13a3dfaa55e1","system_id":"levelo_inurba_marseille","lat":43.301401,"lon":5.387791,"is_reserved":false,"is_disabled":false,"rental_uris":{"android":"levelo://app?vid=a1121b36-b5cd-4dda-96ef-13a3dfaa55e1","ios":"levelo://app?vid=a1121b36-b5cd-4dda-96ef-13a3dfaa55e1"},"vehicle_type_id":"4","last_reported":1746965848,"current_range_meters":12000,"station_id":"","pricing_plan_id":"cebpf4jnsgd1na2vs0mg"},{"bike_id":"fe81380e-697a-4e11-96e3-dd5ed366fe05","system_id":"levelo_inurba_marseille","lat":43.28154,"lon":5.42643,"is_reserved":false,"is_disabled":false,"rental_uris":{"android":"levelo://app?vid=fe81380e-697a-4e11-96e3-dd5ed366fe05","ios":"levelo://app?vid=fe81380e-697a-4e11-96e3-dd5ed366fe05"},"vehicle_type_id":"4","last_reported":1746965848,"current_range_meters":12000,"station_id":"ce4bhnh2rcd13ifvqgug","pricing_plan_id":"cebpf4jnsgd1na2vs0mg"},{"bike_id":"c33c979d-9903-40dc-a17f-25ccdad88704","system_id":"levelo_inurba_marseille","lat":43.29523,"lon":5.39393,"is_reserved":false,"is_disabled":true,"rental_uris":{"android":"levelo://app?vid=c33c979d-9903-40dc-a17f-25ccdad88704","ios":"levelo://app?vid=c33c979d-9903-40dc-a17f-25ccdad88704"},"vehicle_type_id":"4","last_reported":1746965848,"current_range_meters":12000,"station_id":"ce4bh292rcd13ifvqdf0","pricing_plan_id":"cebpf4jnsgd1na2vs0mg"},{"bike_id":"38259563-0186-4f31-9283-79a8ad1a68e3","system_id":"levelo_inurba_marseille","lat":43.3077,"lon":5.3765,"is_reserved":false,"is_disabled":false,"rental_uris":{"android":"levelo://app?vid=38259563-0186-4f31-9283-79a8ad1a68e3","ios":"levelo://app?vid=38259563-0186-4f31-9283-79a8ad1a68e3"},"vehicle_type_id":"4","last_reported":1746965848,"current_range_meters":12000,"station_id":"ce4bgv92rcd13ifvqcq0","pricing_plan_id":"cebpf4jnsgd1na2vs0mg"},{"bike_id":"cbe5e661-c3e6-4a61-bcb7-bf5eab36baff","system_id":"levelo_inurba_marseille","lat":43.3031,"lon":5.40433,"is_reserved":false,"is_disabled":false,"rental_uris":{"android":"levelo://app?vid=cbe5e661-c3e6-4a61-bcb7-bf5eab36baff","ios":"levelo://app?vid=cbe5e661-c3e6-4a61-bcb7-bf5eab36baff"},"vehicle_type_id":"4","last_reported":1746965848,"current_range_meters":12400,"station_id":"ce4bh012rcd13ifvqd10","pricing_plan_id":"cebpf4jnsgd1na2vs0mg"},{"bike_id":"9ca5a64c-7fe5-4800-b304-f0a90074b325","system_id":"levelo_inurba_marseille","lat":43.31232,"lon":5.40693,"is_reserved":false,"is_disabled":false,"rental_uris":{"android":"levelo://app?vid=9ca5a64c-7fe5-4800-b304-f0a90074b325","ios":"levelo://app?vid=9ca5a64c-7fe5-4800-b304-f0a90074b325"},"vehicle_type_id":"4","last_reported":1746965848,"current_range_meters":12400,"station_id":"","pricing_plan_id":"cebpf4jnsgd1na2vs0mg"},{"bike_id":"76be4131-4350-444e-8353-ca55064f889c","system_id":"levelo_inurba_marseille","lat":43.30118,"lon":5.39892,"is_reserved":false,"is_disabled":true,"rental_uris":{"android":"levelo://app?vid=76be4131-4350-444e-8353-ca55064f889c","ios":"levelo://app?vid=76be4131-4350-444e-8353-ca55064f889c"},"vehicle_type_id":"4","last_reported":1746965848,"current_range_meters":12400,"station_id":"ce4bh0h2rcd13ifvqd40","pricing_plan_id":"cebpf4jnsgd1na2vs0mg"},{"bike_id":"59dc3fc5-f66e-415d-b864-ad47674e9cbc","system_id":"levelo_inurba_marseille","lat":43.30168,"lon":5.38077,"is_reserved":false,"is_disabled":false,"rental_uris":{"android":"levelo://app?vid=59dc3fc5-f66e-415d-b864-ad47674e9cbc","ios":"levelo://app?vid=59dc3fc5-f66e-415d-b864-ad47674e9cbc"},"vehicle_type_id":"4","last_reported":1746965848,"current_range_meters":12800,"station_id":"ce4bgjp2rcd13ifvqbh0","pricing_plan_id":"cebpf4jnsgd1na2vs0mg"},{"bike_id":"f53f6c5c-effc-4682-8006-1b68bee28399","system_id":"levelo_inurba_marseille","lat":43.28573,"lon":5.3925,"is_reserved":false,"is_disabled":false,"rental_uris":{"android":"levelo://app?vid=f53f6c5c-effc-4682-8006-1b68bee28399","ios":"levelo://app?vid=f53f6c5c-effc-4682-8006-1b68bee28399"},"vehicle_type_id":"4","last_reported":1746965848,"current_range_meters":12800,"station_id":"","pricing_plan_id":"cebpf4jnsgd1na2vs0mg"},{"bike_id":"9086a547-f8a3-47a2-a7ce-48620a88254c","system_id":"levelo_inurba_marseille","lat":43.3172,"lon":5.437018,"is_reserved":false,"is_disabled":false,"rental_uris":{"android":"levelo://app?vid=9086a547-f8a3-47a2-a7ce-48620a88254c","ios":"levelo://app?vid=9086a547-f8a3-47a2-a7ce-48620a88254c"},"vehicle_type_id":"4","last_reported":1746965848,"current_range_meters":12800,"station_id":"ce4bhp92rcd13ifvqhcg","pricing_plan_id":"cebpf4jnsgd1na2vs0mg"},{"bike_id":"5463810b-a2f2-4072-910e-de1c93a1ec9c","system_id":"levelo_inurba_marseille","lat":43.2962,"lon":5.3809,"is_reserved":false,"is_disabled":false,"rental_uris":{"android":"levelo://app?vid=5463810b-a2f2-4072-910e-de1c93a1ec9c","ios":"levelo://app?vid=5463810b-a2f2-4072-910e-de1c93a1ec9c"},"vehicle_type_id":"4","last_reported":1746965848,"current_range_meters":12800,"station_id":"ce4bgl12rcd13ifvqbo0","pricing_plan_id":"cebpf4jnsgd1na2vs0mg"},{"bike_id":"685fd4b6-672a-4ef7-9a79-d54a678d02db","system_id":"levelo_inurba_marseille","lat":43.29503,"lon":5.39398,"is_reserved":false,"is_disabled":false,"rental_uris":{"android":"levelo://app?vid=685fd4b6-672a-4ef7-9a79-d54a678d02db","ios":"levelo://app?vid=685fd4b6-672a-4ef7-9a79-d54a678d02db"},"vehicle_type_id":"4","last_reported":1746965848,"current_range_meters":13600,"station_id":"ce4bh292rcd13ifvqdf0","pricing_plan_id":"cebpf4jnsgd1na2vs0mg"},{"bike_id":"c5eee08d-009c-49a8-9e3f-ac6c2f433d3e","system_id":"levelo_inurba_marseille","lat":43.248,"lon":5.37452,"is_reserved":false,"is_disabled":false,"rental_uris":{"android":"levelo://app?vid=c5eee08d-009c-49a8-9e3f-ac6c2f433d3e","ios":"levelo://app?vid=c5eee08d-009c-49a8-9e3f-ac6c2f433d3e"},"vehicle_type_id":"4","last_reported":1746965848,"current_range_meters":13600,"station_id":"ce4bhgh2rcd13ifvqfb0","pricing_plan_id":"cebpf4jnsgd1na2vs0mg"},{"bike_id":"95c07f58-992e-486e-9e01-f8c38af93653","system_id":"levelo_inurba_marseille","lat":43.305414,"lon":5.366848,"is_reserved":false,"is_disabled":true,"rental_uris":{"android":"levelo://app?vid=95c07f58-992e-486e-9e01-f8c38af93653","ios":"levelo://app?vid=95c07f58-992e-486e-9e01-f8c38af93653"},"vehicle_type_id":"4","last_reported":1746965848,"current_range_meters":13600,"station_id":"ce4bgrp2rcd13ifvqc9g","pricing_plan_id":"cebpf4jnsgd1na2vs0mg"},{"bike_id":"c26708a5-06db-4fe3-af64-c8771bb82883","system_id":"levelo_inurba_marseille","lat":43.29368,"lon":5.37841,"is_reserved":false,"is_disabled":false,"rental_uris":{"android":"levelo://app?vid=c26708a5-06db-4fe3-af64-c8771bb82883","ios":"levelo://app?vid=c26708a5-06db-4fe3-af64-c8771bb82883"},"vehicle_type_id":"4","last_reported":1746965848,"current_range_meters":13600,"station_id":"ce4bgjh2rcd13ifvqbf0","pricing_plan_id":"cebpf4jnsgd1na2vs0mg"},{"bike_id":"de608a0b-278b-468e-957e-8246fb76906b","system_id":"levelo_inurba_marseille","lat":43.27935,"lon":5.38736,"is_reserved":false,"is_disabled":true,"rental_uris":{"android":"levelo://app?vid=de608a0b-278b-468e-957e-8246fb76906b","ios":"levelo://app?vid=de608a0b-278b-468e-957e-8246fb76906b"},"vehicle_type_id":"4","last_reported":1746965848,"current_range_meters":13600,"station_id":"ce4bhg12rcd13ifvqf80","pricing_plan_id":"cebpf4jnsgd1na2vs0mg"},{"bike_id":"a61714a4-e60c-402f-b7f9-f153c479bb67","system_id":"levelo_inurba_marseille","lat":43.28731,"lon":5.36076,"is_reserved":false,"is_disabled":false,"rental_uris":{"android":"levelo://app?vid=a61714a4-e60c-402f-b7f9-f153c479bb67","ios":"levelo://app?vid=a61714a4-e60c-402f-b7f9-f153c479bb67"},"vehicle_type_id":"4","last_reported":1746965848,"current_range_meters":14000,"station_id":"cki0cbj6b192h4jlfktg","pricing_plan_id":"cebpf4jnsgd1na2vs0mg"},{"bike_id":"86074822-2ee5-424f-9ada-0157a35dbbbe","system_id":"levelo_inurba_marseille","lat":43.28287,"lon":5.35064,"is_reserved":false,"is_disabled":false,"rental_uris":{"android":"levelo://app?vid=86074822-2ee5-424f-9ada-0157a35dbbbe","ios":"levelo://app?vid=86074822-2ee5-424f-9ada-0157a35dbbbe"},"vehicle_type_id":"4","last_reported":1746965848,"current_range_meters":14400,"station_id":"ce4bhbp2rcd13ifvqerg","pricing_plan_id":"cebpf4jnsgd1na2vs0mg"},{"bike_id":"4b1d3cd9-9d1d-4f4d-9d7d-640eed242da7","system_id":"levelo_inurba_marseille","lat":43.292786,"lon":5.368502,"is_reserved":false,"is_disabled":false,"rental_uris":{"android":"levelo://app?vid=4b1d3cd9-9d1d-4f4d-9d7d-640eed242da7","ios":"levelo://app?vid=4b1d3cd9-9d1d-4f4d-9d7d-640eed242da7"},"vehicle_type_id":"4","last_reported":1746965848,"current_range_meters":14400,"station_id":"ce4bhbp2rcd13ifvqesg","pricing_plan_id":"cebpf4jnsgd1na2vs0mg"},{"bike_id":"695dd6b2-8c26-43c6-975b-1d1981581e73","system_id":"levelo_inurba_marseille","lat":43.262,"lon":5.37931,"is_reserved":false,"is_disabled":false,"rental_uris":{"android":"levelo://app?vid=695dd6b2-8c26-43c6-975b-1d1981581e73","ios":"levelo://app?vid=695dd6b2-8c26-43c6-975b-1d1981581e73"},"vehicle_type_id":"4","last_reported":1746965848,"current_range_meters":14400,"station_id":"ce4bhjp2rcd13ifvqg90","pricing_plan_id":"cebpf4jnsgd1na2vs0mg"},{"bike_id":"107122ea-6833-49a8-a726-be25ffc5353c","system_id":"levelo_inurba_marseille","lat":43.26226,"lon":5.40459,"is_reserved":false,"is_disabled":false,"rental_uris":{"android":"levelo://app?vid=107122ea-6833-49a8-a726-be25ffc5353c","ios":"levelo://app?vid=107122ea-6833-49a8-a726-be25ffc5353c"},"vehicle_type_id":"4","last_reported":1746965848,"current_range_meters":14800,"station_id":"ce4bhmh2rcd13ifvqgmg","pricing_plan_id":"cebpf4jnsgd1na2vs0mg"},{"bike_id":"cc62d2da-5a20-4806-9c3f-389790a326f5","system_id":"levelo_inurba_marseille","lat":43.24393,"lon":5.37064,"is_reserved":false,"is_disabled":true,"rental_uris":{"android":"levelo://app?vid=cc62d2da-5a20-4806-9c3f-389790a326f5","ios":"levelo://app?vid=cc62d2da-5a20-4806-9c3f-389790a326f5"},"vehicle_type_id":"4","last_reported":1746965848,"current_range_meters":14800,"station_id":"ce4bhhh2rcd13ifvqfk0","pricing_plan_id":"cebpf4jnsgd1na2vs0mg"},{"bike_id":"3e89ec98-4dc0-47d6-98d5-e2482abd8e99","system_id":"levelo_inurba_marseille","lat":43.3171,"lon":5.4044,"is_reserved":false,"is_disabled":false,"rental_uris":{"android":"levelo://app?vid=3e89ec98-4dc0-47d6-98d5-e2482abd8e99","ios":"levelo://app?vid=3e89ec98-4dc0-47d6-98d5-e2482abd8e99"},"vehicle_type_id":"4","last_reported":1746965848,"current_range_meters":14800,"station_id":"ce4bh012rcd13ifvqd00","pricing_plan_id":"cebpf4jnsgd1na2vs0mg"},{"bike_id":"340c5ca6-e183-483a-af22-8834a57a2ab8","system_id":"levelo_inurba_marseille","lat":43.324755,"lon":5.365628,"is_reserved":false,"is_disabled":false,"rental_uris":{"android":"levelo://app?vid=340c5ca6-e183-483a-af22-8834a57a2ab8","ios":"levelo://app?vid=340c5ca6-e183-483a-af22-8834a57a2ab8"},"vehicle_type_id":"4","last_reported":1746965848,"current_range_meters":14800,"station_id":"ce4bhs12rcd13ifvqhvg","pricing_plan_id":"cebpf4jnsgd1na2vs0mg"},{"bike_id":"f52c819d-ca4b-4640-b458-b877db1bf990","system_id":"levelo_inurba_marseille","lat":43.29873,"lon":5.40994,"is_reserved":false,"is_disabled":false,"rental_uris":{"android":"levelo://app?vid=f52c819d-ca4b-4640-b458-b877db1bf990","ios":"levelo://app?vid=f52c819d-ca4b-4640-b458-b877db1bf990"},"vehicle_type_id":"4","last_reported":1746965848,"current_range_meters":15200,"station_id":"","pricing_plan_id":"cebpf4jnsgd1na2vs0mg"},{"bike_id":"4f3036cc-4aa4-4813-81b4-52f302597dc1","system_id":"levelo_inurba_marseille","lat":43.29021,"lon":5.38639,"is_reserved":false,"is_disabled":false,"rental_uris":{"android":"levelo://app?vid=4f3036cc-4aa4-4813-81b4-52f302597dc1","ios":"levelo://app?vid=4f3036cc-4aa4-4813-81b4-52f302597dc1"},"vehicle_type_id":"4","last_reported":1746965848,"current_range_meters":15200,"station_id":"ce4bh4p2rcd13ifvqe0g","pricing_plan_id":"cebpf4jnsgd1na2vs0mg"},{"bike_id":"273cb4c6-acdc-43af-a9d3-70225c401c9a","system_id":"levelo_inurba_marseille","lat":43.22935,"lon":5.353777,"is_reserved":false,"is_disabled":false,"rental_uris":{"android":"levelo://app?vid=273cb4c6-acdc-43af-a9d3-70225c401c9a","ios":"levelo://app?vid=273cb4c6-acdc-43af-a9d3-70225c401c9a"},"vehicle_type_id":"4","last_reported":1746965848,"current_range_meters":15200,"station_id":"cpo3532slgdg3j2ikp40","pricing_plan_id":"cebpf4jnsgd1na2vs0mg"},{"bike_id":"54d5c924-2b1a-4004-a0c4-558920977e1f","system_id":"levelo_inurba_marseille","lat":43.27615,"lon":5.36106,"is_reserved":false,"is_disabled":false,"rental_uris":{"android":"levelo://app?vid=54d5c924-2b1a-4004-a0c4-558920977e1f","ios":"levelo://app?vid=54d5c924-2b1a-4004-a0c4-558920977e1f"},"vehicle_type_id":"4","last_reported":1746965848,"current_range_meters":15200,"station_id":"ce4bgj92rcd13ifvqbe0","pricing_plan_id":"cebpf4jnsgd1na2vs0mg"},{"bike_id":"451bad03-d734-4b64-8bfa-9aaf98fad81c","system_id":"levelo_inurba_marseille","lat":43.24543,"lon":5.39522,"is_reserved":false,"is_disabled":false,"rental_uris":{"android":"levelo://app?vid=451bad03-d734-4b64-8bfa-9aaf98fad81c","ios":"levelo://app?vid=451bad03-d734-4b64-8bfa-9aaf98fad81c"},"vehicle_type_id":"4","last_reported":1746965848,"current_range_meters":15200,"station_id":"ce4bhlp2rcd13ifvqgjg","pricing_plan_id":"cebpf4jnsgd1na2vs0mg"},{"bike_id":"fe8a300c-df4c-42e1-b092-cce77e5975ce","system_id":"levelo_inurba_marseille","lat":43.25728,"lon":5.41101,"is_reserved":false,"is_disabled":false,"rental_uris":{"android":"levelo://app?vid=fe8a300c-df4c-42e1-b092-cce77e5975ce","ios":"levelo://app?vid=fe8a300c-df4c-42e1-b092-cce77e5975ce"},"vehicle_type_id":"4","last_reported":1746965848,"current_range_meters":16000,"station_id":"ce4bhkp2rcd13ifvqgd0","pricing_plan_id":"cebpf4jnsgd1na2vs0mg"},{"bike_id":"e64b6efa-8ad8-4af7-8d4d-f16b57fe35e2","system_id":"levelo_inurba_marseille","lat":43.28618,"lon":5.37059,"is_reserved":false,"is_disabled":true,"rental_uris":{"android":"levelo://app?vid=e64b6efa-8ad8-4af7-8d4d-f16b57fe35e2","ios":"levelo://app?vid=e64b6efa-8ad8-4af7-8d4d-f16b57fe35e2"},"vehicle_type_id":"4","last_reported":1746965848,"current_range_meters":16000,"station_id":"ce4bht12rcd13ifvqi60","pricing_plan_id":"cebpf4jnsgd1na2vs0mg"},{"bike_id":"d3f497ae-be6d-4e12-8689-71725fa6e6a4","system_id":"levelo_inurba_marseille","lat":43.31077,"lon":5.3835,"is_reserved":false,"is_disabled":false,"rental_uris":{"android":"levelo://app?vid=d3f497ae-be6d-4e12-8689-71725fa6e6a4","ios":"levelo://app?vid=d3f497ae-be6d-4e12-8689-71725fa6e6a4"},"vehicle_type_id":"4","last_reported":1746965848,"current_range_meters":16000,"station_id":"ce4bgv92rcd13ifvqcr0","pricing_plan_id":"cebpf4jnsgd1na2vs0mg"},{"bike_id":"d769f653-2284-4ccd-8df9-03b5aebbcb34","system_id":"levelo_inurba_marseille","lat":43.26994,"lon":5.43146,"is_reserved":false,"is_disabled":false,"rental_uris":{"android":"levelo://app?vid=d769f653-2284-4ccd-8df9-03b5aebbcb34","ios":"levelo://app?vid=d769f653-2284-4ccd-8df9-03b5aebbcb34"},"vehicle_type_id":"4","last_reported":1746965848,"current_range_meters":16000,"station_id":"","pricing_plan_id":"cebpf4jnsgd1na2vs0mg"},{"bike_id":"0e9a568c-80c5-46e1-a46b-20fbbee38704","system_id":"levelo_inurba_marseille","lat":43.29222,"lon":5.40023,"is_reserved":false,"is_disabled":false,"rental_uris":{"android":"levelo://app?vid=0e9a568c-80c5-46e1-a46b-20fbbee38704","ios":"levelo://app?vid=0e9a568c-80c5-46e1-a46b-20fbbee38704"},"vehicle_type_id":"4","last_reported":1746965848,"current_range_meters":16000,"station_id":"","pricing_plan_id":"cebpf4jnsgd1na2vs0mg"},{"bike_id":"c21a11d9-8f7f-426a-b684-74de37d35965","system_id":"levelo_inurba_marseille","lat":43.30894,"lon":5.3684,"is_reserved":false,"is_disabled":false,"rental_uris":{"android":"levelo://app?vid=c21a11d9-8f7f-426a-b684-74de37d35965","ios":"levelo://app?vid=c21a11d9-8f7f-426a-b684-74de37d35965"},"vehicle_type_id":"4","last_reported":1746965848,"current_range_meters":15200,"station_id":"ce4bgn92rcd13ifvqbvg","pricing_plan_id":"cebpf4jnsgd1na2vs0mg"},{"bike_id":"33be0fca-28a0-4d0f-913c-b45128496c5d","system_id":"levelo_inurba_marseille","lat":43.301572,"lon":5.380985,"is_reserved":false,"is_disabled":false,"rental_uris":{"android":"levelo://app?vid=33be0fca-28a0-4d0f-913c-b45128496c5d","ios":"levelo://app?vid=33be0fca-28a0-4d0f-913c-b45128496c5d"},"vehicle_type_id":"4","last_reported":1746965848,"current_range_meters":16400,"station_id":"ce4bgjp2rcd13ifvqbh0","pricing_plan_id":"cebpf4jnsgd1na2vs0mg"},{"bike_id":"6b64c91a-b7a6-4acf-ab6d-6e2e1c707958","system_id":"levelo_inurba_marseille","lat":43.295923,"lon":5.381033,"is_reserved":false,"is_disabled":false,"rental_uris":{"android":"levelo://app?vid=6b64c91a-b7a6-4acf-ab6d-6e2e1c707958","ios":"levelo://app?vid=6b64c91a-b7a6-4acf-ab6d-6e2e1c707958"},"vehicle_type_id":"4","last_reported":1746965848,"current_range_meters":16000,"station_id":"ce4bgl12rcd13ifvqbo0","pricing_plan_id":"cebpf4jnsgd1na2vs0mg"},{"bike_id":"127a0595-dbda-4b61-90de-852830ad8898","system_id":"levelo_inurba_marseille","lat":43.289375,"lon":5.39636,"is_reserved":false,"is_disabled":false,"rental_uris":{"android":"levelo://app?vid=127a0595-dbda-4b61-90de-852830ad8898","ios":"levelo://app?vid=127a0595-dbda-4b61-90de-852830ad8898"},"vehicle_type_id":"4","last_reported":1746965848,"current_range_meters":16000,"station_id":"ce4bh3h2rcd13ifvqdn0","pricing_plan_id":"cebpf4jnsgd1na2vs0mg"},{"bike_id":"c37ca2b1-69dc-46e9-94be-7c01aebc93d5","system_id":"levelo_inurba_marseille","lat":43.30243,"lon":5.36637,"is_reserved":false,"is_disabled":false,"rental_uris":{"android":"levelo://app?vid=c37ca2b1-69dc-46e9-94be-7c01aebc93d5","ios":"levelo://app?vid=c37ca2b1-69dc-46e9-94be-7c01aebc93d5"},"vehicle_type_id":"4","last_reported":1746965848,"current_range_meters":16800,"station_id":"","pricing_plan_id":"cebpf4jnsgd1na2vs0mg"},{"bike_id":"9eb45cff-0f92-440d-b5e4-f9f552e30ae0","system_id":"levelo_inurba_marseille","lat":43.28419,"lon":5.34993,"is_reserved":false,"is_disabled":true,"rental_uris":{"android":"levelo://app?vid=9eb45cff-0f92-440d-b5e4-f9f552e30ae0","ios":"levelo://app?vid=9eb45cff-0f92-440d-b5e4-f9f552e30ae0"},"vehicle_type_id":"4","last_reported":1746965848,"current_range_meters":16800,"station_id":"ce4bhbh2rcd13ifvqepg","pricing_plan_id":"cebpf4jnsgd1na2vs0mg"},{"bike_id":"b470eaec-fab1-4f6a-a813-db041cf419f7","system_id":"levelo_inurba_marseille","lat":43.29578,"lon":5.36726,"is_reserved":false,"is_disabled":false,"rental_uris":{"android":"levelo://app?vid=b470eaec-fab1-4f6a-a813-db041cf419f7","ios":"levelo://app?vid=b470eaec-fab1-4f6a-a813-db041cf419f7"},"vehicle_type_id":"4","last_reported":1746965848,"current_range_meters":17200,"station_id":"ce4bgph2rcd13ifvqc2g","pricing_plan_id":"cebpf4jnsgd1na2vs0mg"},{"bike_id":"a3cfbeb5-0ed1-4c8e-8d1d-c9603b834a27","system_id":"levelo_inurba_marseille","lat":43.32276,"lon":5.40654,"is_reserved":false,"is_disabled":false,"rental_uris":{"android":"levelo://app?vid=a3cfbeb5-0ed1-4c8e-8d1d-c9603b834a27","ios":"levelo://app?vid=a3cfbeb5-0ed1-4c8e-8d1d-c9603b834a27"},"vehicle_type_id":"4","last_reported":1746965848,"current_range_meters":17200,"station_id":"","pricing_plan_id":"cebpf4jnsgd1na2vs0mg"},{"bike_id":"e384f6c9-cbe3-498a-a272-dd5e1faee80f","system_id":"levelo_inurba_marseille","lat":43.24072,"lon":5.3776,"is_reserved":false,"is_disabled":false,"rental_uris":{"android":"levelo://app?vid=e384f6c9-cbe3-498a-a272-dd5e1faee80f","ios":"levelo://app?vid=e384f6c9-cbe3-498a-a272-dd5e1faee80f"},"vehicle_type_id":"4","last_reported":1746965848,"current_range_meters":17200,"station_id":"ce4bhnp2rcd13ifvqgvg","pricing_plan_id":"cebpf4jnsgd1na2vs0mg"},{"bike_id":"cad4afd6-6774-423e-a878-34047fb3ca98","system_id":"levelo_inurba_marseille","lat":43.31482,"lon":5.37305,"is_reserved":false,"is_disabled":false,"rental_uris":{"android":"levelo://app?vid=cad4afd6-6774-423e-a878-34047fb3ca98","ios":"levelo://app?vid=cad4afd6-6774-423e-a878-34047fb3ca98"},"vehicle_type_id":"4","last_reported":1746965848,"current_range_meters":17600,"station_id":"ce4bgt12rcd13ifvqcd0","pricing_plan_id":"cebpf4jnsgd1na2vs0mg"},{"bike_id":"77b898d6-83c3-4819-8f10-342d8faa3aa9","system_id":"levelo_inurba_marseille","lat":43.27058,"lon":5.42275,"is_reserved":false,"is_disabled":true,"rental_uris":{"android":"levelo://app?vid=77b898d6-83c3-4819-8f10-342d8faa3aa9","ios":"levelo://app?vid=77b898d6-83c3-4819-8f10-342d8faa3aa9"},"vehicle_type_id":"4","last_reported":1746965848,"current_range_meters":17600,"station_id":"ce4bhk92rcd13ifvqgb0","pricing_plan_id":"cebpf4jnsgd1na2vs0mg"},{"bike_id":"4762718c-a376-420c-be5d-ae5208641990","system_id":"levelo_inurba_marseille","lat":43.284678,"lon":5.358973,"is_reserved":false,"is_disabled":true,"rental_uris":{"android":"levelo://app?vid=4762718c-a376-420c-be5d-ae5208641990","ios":"levelo://app?vid=4762718c-a376-420c-be5d-ae5208641990"},"vehicle_type_id":"4","last_reported":1746965848,"current_range_meters":17600,"station_id":"ce4bhah2rcd13ifvqei0","pricing_plan_id":"cebpf4jnsgd1na2vs0mg"},{"bike_id":"2a7085c9-4143-48a9-8999-eb3f26aefb18","system_id":"levelo_inurba_marseille","lat":43.30794,"lon":5.3814,"is_reserved":false,"is_disabled":false,"rental_uris":{"android":"levelo://app?vid=2a7085c9-4143-48a9-8999-eb3f26aefb18","ios":"levelo://app?vid=2a7085c9-4143-48a9-8999-eb3f26aefb18"},"vehicle_type_id":"4","last_reported":1746965848,"current_range_meters":17200,"station_id":"ce4bgt12rcd13ifvqce0","pricing_plan_id":"cebpf4jnsgd1na2vs0mg"},{"bike_id":"ff77822b-b383-44b0-9cc1-0e7104424174","system_id":"levelo_inurba_marseille","lat":43.31699,"lon":5.40466,"is_reserved":false,"is_disabled":false,"rental_uris":{"android":"levelo://app?vid=ff77822b-b383-44b0-9cc1-0e7104424174","ios":"levelo://app?vid=ff77822b-b383-44b0-9cc1-0e7104424174"},"vehicle_type_id":"4","last_reported":1746965848,"current_range_meters":17600,"station_id":"ce4bh012rcd13ifvqd00","pricing_plan_id":"cebpf4jnsgd1na2vs0mg"},{"bike_id":"17075f92-f55b-4767-ad54-3c90831d7dda","system_id":"levelo_inurba_marseille","lat":43.30196,"lon":5.38047,"is_reserved":false,"is_disabled":false,"rental_uris":{"android":"levelo://app?vid=17075f92-f55b-4767-ad54-3c90831d7dda","ios":"levelo://app?vid=17075f92-f55b-4767-ad54-3c90831d7dda"},"vehicle_type_id":"4","last_reported":1746965848,"current_range_meters":18000,"station_id":"ce4bgjp2rcd13ifvqbh0","pricing_plan_id":"cebpf4jnsgd1na2vs0mg"},{"bike_id":"83a5dddc-f08f-476e-a316-d0e0dfb65037","system_id":"levelo_inurba_marseille","lat":43.31721,"lon":5.42397,"is_reserved":false,"is_disabled":false,"rental_uris":{"android":"levelo://app?vid=83a5dddc-f08f-476e-a316-d0e0dfb65037","ios":"levelo://app?vid=83a5dddc-f08f-476e-a316-d0e0dfb65037"},"vehicle_type_id":"4","last_reported":1746965848,"current_range_meters":18000,"station_id":"ce4bhp92rcd13ifvqhbg","pricing_plan_id":"cebpf4jnsgd1na2vs0mg"},{"bike_id":"f703a427-6158-4b7e-9898-8c3b8c10785b","system_id":"levelo_inurba_marseille","lat":43.30968,"lon":5.39032,"is_reserved":false,"is_disabled":false,"rental_uris":{"android":"levelo://app?vid=f703a427-6158-4b7e-9898-8c3b8c10785b","ios":"levelo://app?vid=f703a427-6158-4b7e-9898-8c3b8c10785b"},"vehicle_type_id":"4","last_reported":1746965848,"current_range_meters":18000,"station_id":"ce4bgup2rcd13ifvqco0","pricing_plan_id":"cebpf4jnsgd1na2vs0mg"},{"bike_id":"d740be2a-867c-42f0-893b-a550f7411c44","system_id":"levelo_inurba_marseille","lat":43.30327,"lon":5.40436,"is_reserved":false,"is_disabled":false,"rental_uris":{"android":"levelo://app?vid=d740be2a-867c-42f0-893b-a550f7411c44","ios":"levelo://app?vid=d740be2a-867c-42f0-893b-a550f7411c44"},"vehicle_type_id":"4","last_reported":1746965848,"current_range_meters":18000,"station_id":"ce4bh012rcd13ifvqd10","pricing_plan_id":"cebpf4jnsgd1na2vs0mg"},{"bike_id":"d8f85698-9cc7-4fac-ba09-0118aa7df1b5","system_id":"levelo_inurba_marseille","lat":43.31339,"lon":5.38494,"is_reserved":false,"is_disabled":true,"rental_uris":{"android":"levelo://app?vid=d8f85698-9cc7-4fac-ba09-0118aa7df1b5","ios":"levelo://app?vid=d8f85698-9cc7-4fac-ba09-0118aa7df1b5"},"vehicle_type_id":"4","last_reported":1746965848,"current_range_meters":18000,"station_id":"ce4bgt92rcd13ifvqcf0","pricing_plan_id":"cebpf4jnsgd1na2vs0mg"},{"bike_id":"64fc743a-8f6d-41dc-b643-b9749d10074b","system_id":"levelo_inurba_marseille","lat":43.24185,"lon":5.39727,"is_reserved":false,"is_disabled":false,"rental_uris":{"android":"levelo://app?vid=64fc743a-8f6d-41dc-b643-b9749d10074b","ios":"levelo://app?vid=64fc743a-8f6d-41dc-b643-b9749d10074b"},"vehicle_type_id":"4","last_reported":1746965848,"current_range_meters":18000,"station_id":"ce4bhn12rcd13ifvqgpg","pricing_plan_id":"cebpf4jnsgd1na2vs0mg"},{"bike_id":"a30caeef-10cc-433b-ab2e-0e5695eed2d1","system_id":"levelo_inurba_marseille","lat":43.29538,"lon":5.3853,"is_reserved":false,"is_disabled":false,"rental_uris":{"android":"levelo://app?vid=a30caeef-10cc-433b-ab2e-0e5695eed2d1","ios":"levelo://app?vid=a30caeef-10cc-433b-ab2e-0e5695eed2d1"},"vehicle_type_id":"4","last_reported":1746965848,"current_range_meters":18800,"station_id":"ce4bgih2rcd13ifvqba0","pricing_plan_id":"cebpf4jnsgd1na2vs0mg"},{"bike_id":"2d464b2c-1300-4dc3-9390-17f074b751c6","system_id":"levelo_inurba_marseille","lat":43.30651,"lon":5.40099,"is_reserved":false,"is_disabled":false,"rental_uris":{"android":"levelo://app?vid=2d464b2c-1300-4dc3-9390-17f074b751c6","ios":"levelo://app?vid=2d464b2c-1300-4dc3-9390-17f074b751c6"},"vehicle_type_id":"4","last_reported":1746965848,"current_range_meters":18800,"station_id":"ce4bh112rcd13ifvqda0","pricing_plan_id":"cebpf4jnsgd1na2vs0mg"},{"bike_id":"36a5c11b-0cfd-4fde-ba39-eeadc35dedb1","system_id":"levelo_inurba_marseille","lat":43.251192,"lon":5.40327,"is_reserved":false,"is_disabled":false,"rental_uris":{"android":"levelo://app?vid=36a5c11b-0cfd-4fde-ba39-eeadc35dedb1","ios":"levelo://app?vid=36a5c11b-0cfd-4fde-ba39-eeadc35dedb1"},"vehicle_type_id":"4","last_reported":1746965848,"current_range_meters":18800,"station_id":"ce4bhlh2rcd13ifvqgig","pricing_plan_id":"cebpf4jnsgd1na2vs0mg"},{"bike_id":"38bc3caf-c321-4107-a67e-0091289aa092","system_id":"levelo_inurba_marseille","lat":43.27809,"lon":5.40721,"is_reserved":false,"is_disabled":false,"rental_uris":{"android":"levelo://app?vid=38bc3caf-c321-4107-a67e-0091289aa092","ios":"levelo://app?vid=38bc3caf-c321-4107-a67e-0091289aa092"},"vehicle_type_id":"4","last_reported":1746965848,"current_range_meters":18800,"station_id":"ce4bhnh2rcd13ifvqgtg","pricing_plan_id":"cebpf4jnsgd1na2vs0mg"},{"bike_id":"90ff561e-5013-42d6-8b04-dc227db2cd04","system_id":"levelo_inurba_marseille","lat":43.27066,"lon":5.42275,"is_reserved":false,"is_disabled":false,"rental_uris":{"android":"levelo://app?vid=90ff561e-5013-42d6-8b04-dc227db2cd04","ios":"levelo://app?vid=90ff561e-5013-42d6-8b04-dc227db2cd04"},"vehicle_type_id":"4","last_reported":1746965848,"current_range_meters":18800,"station_id":"ce4bhk92rcd13ifvqgb0","pricing_plan_id":"cebpf4jnsgd1na2vs0mg"},{"bike_id":"994b75c3-302e-4bec-b10d-470cd1e9a443","system_id":"levelo_inurba_marseille","lat":43.25003,"lon":5.38919,"is_reserved":false,"is_disabled":false,"rental_uris":{"android":"levelo://app?vid=994b75c3-302e-4bec-b10d-470cd1e9a443","ios":"levelo://app?vid=994b75c3-302e-4bec-b10d-470cd1e9a443"},"vehicle_type_id":"4","last_reported":1746965848,"current_range_meters":18800,"station_id":"ce4bhgp2rcd13ifvqfd0","pricing_plan_id":"cebpf4jnsgd1na2vs0mg"},{"bike_id":"b11766cb-22b8-431e-9cb2-16a7d2e68527","system_id":"levelo_inurba_marseille","lat":43.280013,"lon":5.416587,"is_reserved":false,"is_disabled":false,"rental_uris":{"android":"levelo://app?vid=b11766cb-22b8-431e-9cb2-16a7d2e68527","ios":"levelo://app?vid=b11766cb-22b8-431e-9cb2-16a7d2e68527"},"vehicle_type_id":"4","last_reported":1746965848,"current_range_meters":19200,"station_id":"ce4bho12rcd13ifvqh1g","pricing_plan_id":"cebpf4jnsgd1na2vs0mg"},{"bike_id":"b6f0504a-f7d7-4a97-b810-e7c9e7b1c671","system_id":"levelo_inurba_marseille","lat":43.27897,"lon":5.412391,"is_reserved":false,"is_disabled":false,"rental_uris":{"android":"levelo://app?vid=b6f0504a-f7d7-4a97-b810-e7c9e7b1c671","ios":"levelo://app?vid=b6f0504a-f7d7-4a97-b810-e7c9e7b1c671"},"vehicle_type_id":"4","last_reported":1746965848,"current_range_meters":19200,"station_id":"","pricing_plan_id":"cebpf4jnsgd1na2vs0mg"},{"bike_id":"1bebc25d-e6b3-419f-a405-d1905eebac39","system_id":"levelo_inurba_marseille","lat":43.311391,"lon":5.378065,"is_reserved":false,"is_disabled":false,"rental_uris":{"android":"levelo://app?vid=1bebc25d-e6b3-419f-a405-d1905eebac39","ios":"levelo://app?vid=1bebc25d-e6b3-419f-a405-d1905eebac39"},"vehicle_type_id":"4","last_reported":1746965848,"current_range_meters":19200,"station_id":"ce4bgt92rcd13ifvqcg0","pricing_plan_id":"cebpf4jnsgd1na2vs0mg"},{"bike_id":"923bc3c8-9653-42f6-ab2d-a12cb585d499","system_id":"levelo_inurba_marseille","lat":43.29438,"lon":5.3867,"is_reserved":false,"is_disabled":false,"rental_uris":{"android":"levelo://app?vid=923bc3c8-9653-42f6-ab2d-a12cb585d499","ios":"levelo://app?vid=923bc3c8-9653-42f6-ab2d-a12cb585d499"},"vehicle_type_id":"4","last_reported":1746965848,"current_range_meters":19200,"station_id":"ce4bh2h2rcd13ifvqdh0","pricing_plan_id":"cebpf4jnsgd1na2vs0mg"},{"bike_id":"b63e6078-9c65-41bd-aa73-a2ddabd6b5de","system_id":"levelo_inurba_marseille","lat":43.2959,"lon":5.3673,"is_reserved":false,"is_disabled":true,"rental_uris":{"android":"levelo://app?vid=b63e6078-9c65-41bd-aa73-a2ddabd6b5de","ios":"levelo://app?vid=b63e6078-9c65-41bd-aa73-a2ddabd6b5de"},"vehicle_type_id":"4","last_reported":1746965848,"current_range_meters":19200,"station_id":"ce4bgph2rcd13ifvqc2g","pricing_plan_id":"cebpf4jnsgd1na2vs0mg"},{"bike_id":"e4ea0b31-ec9d-4caf-bfdd-7159225fee02","system_id":"levelo_inurba_marseille","lat":43.23196,"lon":5.35544,"is_reserved":false,"is_disabled":false,"rental_uris":{"android":"levelo://app?vid=e4ea0b31-ec9d-4caf-bfdd-7159225fee02","ios":"levelo://app?vid=e4ea0b31-ec9d-4caf-bfdd-7159225fee02"},"vehicle_type_id":"4","last_reported":1746965848,"current_range_meters":19200,"station_id":"ce4bhu92rcd13ifvqi70","pricing_plan_id":"cebpf4jnsgd1na2vs0mg"},{"bike_id":"b018dc55-c608-440d-be8b-7f76717b68e3","system_id":"levelo_inurba_marseille","lat":43.2929,"lon":5.36839,"is_reserved":false,"is_disabled":false,"rental_uris":{"android":"levelo://app?vid=b018dc55-c608-440d-be8b-7f76717b68e3","ios":"levelo://app?vid=b018dc55-c608-440d-be8b-7f76717b68e3"},"vehicle_type_id":"4","last_reported":1746965848,"current_range_meters":19600,"station_id":"ce4bhbp2rcd13ifvqesg","pricing_plan_id":"cebpf4jnsgd1na2vs0mg"},{"bike_id":"19c1ae37-6810-45c0-8160-d6f105d8ec2c","system_id":"levelo_inurba_marseille","lat":43.29025,"lon":5.386468,"is_reserved":false,"is_disabled":false,"rental_uris":{"android":"levelo://app?vid=19c1ae37-6810-45c0-8160-d6f105d8ec2c","ios":"levelo://app?vid=19c1ae37-6810-45c0-8160-d6f105d8ec2c"},"vehicle_type_id":"4","last_reported":1746965848,"current_range_meters":19600,"station_id":"ce4bh4p2rcd13ifvqe0g","pricing_plan_id":"cebpf4jnsgd1na2vs0mg"},{"bike_id":"901d25d5-e0a4-4b9d-9519-beabbed3efe8","system_id":"levelo_inurba_marseille","lat":43.21202,"lon":5.35055,"is_reserved":false,"is_disabled":false,"rental_uris":{"android":"levelo://app?vid=901d25d5-e0a4-4b9d-9519-beabbed3efe8","ios":"levelo://app?vid=901d25d5-e0a4-4b9d-9519-beabbed3efe8"},"vehicle_type_id":"4","last_reported":1746965848,"current_range_meters":19600,"station_id":"st_cvj6sg6p6f1abm77japg","pricing_plan_id":"cebpf4jnsgd1na2vs0mg"},{"bike_id":"70b78d74-03b8-4168-85a5-40514a8ae8a9","system_id":"levelo_inurba_marseille","lat":43.24647,"lon":5.38888,"is_reserved":false,"is_disabled":false,"rental_uris":{"android":"levelo://app?vid=70b78d74-03b8-4168-85a5-40514a8ae8a9","ios":"levelo://app?vid=70b78d74-03b8-4168-85a5-40514a8ae8a9"},"vehicle_type_id":"4","last_reported":1746965848,"current_range_meters":19600,"station_id":"ce4bhg12rcd13ifvqf60","pricing_plan_id":"cebpf4jnsgd1na2vs0mg"},{"bike_id":"2da1674f-49ff-46a0-98eb-4248a5ed1897","system_id":"levelo_inurba_marseille","lat":43.323631,"lon":5.367588,"is_reserved":false,"is_disabled":false,"rental_uris":{"android":"levelo://app?vid=2da1674f-49ff-46a0-98eb-4248a5ed1897","ios":"levelo://app?vid=2da1674f-49ff-46a0-98eb-4248a5ed1897"},"vehicle_type_id":"4","last_reported":1746965848,"current_range_meters":19600,"station_id":"ce4bhsh2rcd13ifvqi2g","pricing_plan_id":"cebpf4jnsgd1na2vs0mg"},{"bike_id":"a3685a32-c621-4e83-8c33-d87d2825274e","system_id":"levelo_inurba_marseille","lat":43.28722,"lon":5.36074,"is_reserved":false,"is_disabled":false,"rental_uris":{"android":"levelo://app?vid=a3685a32-c621-4e83-8c33-d87d2825274e","ios":"levelo://app?vid=a3685a32-c621-4e83-8c33-d87d2825274e"},"vehicle_type_id":"4","last_reported":1746965848,"current_range_meters":19600,"station_id":"cki0cbj6b192h4jlfktg","pricing_plan_id":"cebpf4jnsgd1na2vs0mg"},{"bike_id":"d1656dac-840c-41c2-a503-07e94ae59898","system_id":"levelo_inurba_marseille","lat":43.29565,"lon":5.38523,"is_reserved":false,"is_disabled":false,"rental_uris":{"android":"levelo://app?vid=d1656dac-840c-41c2-a503-07e94ae59898","ios":"levelo://app?vid=d1656dac-840c-41c2-a503-07e94ae59898"},"vehicle_type_id":"4","last_reported":1746965848,"current_range_meters":20000,"station_id":"ce4bgih2rcd13ifvqba0","pricing_plan_id":"cebpf4jnsgd1na2vs0mg"},{"bike_id":"75cc06aa-cb7f-4e5d-9d48-741efbb7acc7","system_id":"levelo_inurba_marseille","lat":43.32341,"lon":5.40622,"is_reserved":false,"is_disabled":false,"rental_uris":{"android":"levelo://app?vid=75cc06aa-cb7f-4e5d-9d48-741efbb7acc7","ios":"levelo://app?vid=75cc06aa-cb7f-4e5d-9d48-741efbb7acc7"},"vehicle_type_id":"4","last_reported":1746965848,"current_range_meters":20000,"station_id":"ce4bhq92rcd13ifvqhjg","pricing_plan_id":"cebpf4jnsgd1na2vs0mg"},{"bike_id":"dcf3e1e8-6ab2-44b0-883d-47ef67c2deea","system_id":"levelo_inurba_marseille","lat":43.29248,"lon":5.40156,"is_reserved":false,"is_disabled":false,"rental_uris":{"android":"levelo://app?vid=dcf3e1e8-6ab2-44b0-883d-47ef67c2deea","ios":"levelo://app?vid=dcf3e1e8-6ab2-44b0-883d-47ef67c2deea"},"vehicle_type_id":"4","last_reported":1746965848,"current_range_meters":20000,"station_id":"ce4bh312rcd13ifvqdk0","pricing_plan_id":"cebpf4jnsgd1na2vs0mg"},{"bike_id":"2a2e92a8-9be2-42a0-8f8b-e8c99ed20b3a","system_id":"levelo_inurba_marseille","lat":43.23164,"lon":5.39933,"is_reserved":false,"is_disabled":false,"rental_uris":{"android":"levelo://app?vid=2a2e92a8-9be2-42a0-8f8b-e8c99ed20b3a","ios":"levelo://app?vid=2a2e92a8-9be2-42a0-8f8b-e8c99ed20b3a"},"vehicle_type_id":"4","last_reported":1746965848,"current_range_meters":20000,"station_id":"","pricing_plan_id":"cebpf4jnsgd1na2vs0mg"},{"bike_id":"392ffa68-3f34-4229-8515-85292dd9d70b","system_id":"levelo_inurba_marseille","lat":43.28657,"lon":5.36358,"is_reserved":false,"is_disabled":false,"rental_uris":{"android":"levelo://app?vid=392ffa68-3f34-4229-8515-85292dd9d70b","ios":"levelo://app?vid=392ffa68-3f34-4229-8515-85292dd9d70b"},"vehicle_type_id":"4","last_reported":1746965848,"current_range_meters":20000,"station_id":"ce4bhah2rcd13ifvqej0","pricing_plan_id":"cebpf4jnsgd1na2vs0mg"},{"bike_id":"8843f52c-45f0-4346-a281-c080f0468998","system_id":"levelo_inurba_marseille","lat":43.299337,"lon":5.36538,"is_reserved":false,"is_disabled":false,"rental_uris":{"android":"levelo://app?vid=8843f52c-45f0-4346-a281-c080f0468998","ios":"levelo://app?vid=8843f52c-45f0-4346-a281-c080f0468998"},"vehicle_type_id":"4","last_reported":1746965848,"current_range_meters":20000,"station_id":"ce4bgm92rcd13ifvqbr0","pricing_plan_id":"cebpf4jnsgd1na2vs0mg"},{"bike_id":"ecf30971-3e43-4ac6-bd94-625d58cd9b21","system_id":"levelo_inurba_marseille","lat":43.27966,"lon":5.387253,"is_reserved":false,"is_disabled":false,"rental_uris":{"android":"levelo://app?vid=ecf30971-3e43-4ac6-bd94-625d58cd9b21","ios":"levelo://app?vid=ecf30971-3e43-4ac6-bd94-625d58cd9b21"},"vehicle_type_id":"4","last_reported":1746965848,"current_range_meters":20000,"station_id":"ce4bhg12rcd13ifvqf80","pricing_plan_id":"cebpf4jnsgd1na2vs0mg"},{"bike_id":"aca142bd-2716-4ee3-8c04-bd27c952c647","system_id":"levelo_inurba_marseille","lat":43.26488,"lon":5.37465,"is_reserved":false,"is_disabled":false,"rental_uris":{"android":"levelo://app?vid=aca142bd-2716-4ee3-8c04-bd27c952c647","ios":"levelo://app?vid=aca142bd-2716-4ee3-8c04-bd27c952c647"},"vehicle_type_id":"4","last_reported":1746965848,"current_range_meters":20400,"station_id":"","pricing_plan_id":"cebpf4jnsgd1na2vs0mg"},{"bike_id":"38a31b83-2839-4506-bcbb-514f6ec90d2b","system_id":"levelo_inurba_marseille","lat":43.29275,"lon":5.36839,"is_reserved":false,"is_disabled":false,"rental_uris":{"android":"levelo://app?vid=38a31b83-2839-4506-bcbb-514f6ec90d2b","ios":"levelo://app?vid=38a31b83-2839-4506-bcbb-514f6ec90d2b"},"vehicle_type_id":"4","last_reported":1746965848,"current_range_meters":20400,"station_id":"ce4bhbp2rcd13ifvqesg","pricing_plan_id":"cebpf4jnsgd1na2vs0mg"},{"bike_id":"c77dd33e-2190-4e48-9fba-7243a6e2ea2f","system_id":"levelo_inurba_marseille","lat":43.24053,"lon":5.37738,"is_reserved":false,"is_disabled":false,"rental_uris":{"android":"levelo://app?vid=c77dd33e-2190-4e48-9fba-7243a6e2ea2f","ios":"levelo://app?vid=c77dd33e-2190-4e48-9fba-7243a6e2ea2f"},"vehicle_type_id":"4","last_reported":1746965848,"current_range_meters":20400,"station_id":"ce4bhnp2rcd13ifvqgvg","pricing_plan_id":"cebpf4jnsgd1na2vs0mg"},{"bike_id":"b07bfc09-4ee4-480d-951d-bf310d1d8d6c","system_id":"levelo_inurba_marseille","lat":43.3215,"lon":5.38467,"is_reserved":false,"is_disabled":false,"rental_uris":{"android":"levelo://app?vid=b07bfc09-4ee4-480d-951d-bf310d1d8d6c","ios":"levelo://app?vid=b07bfc09-4ee4-480d-951d-bf310d1d8d6c"},"vehicle_type_id":"4","last_reported":1746965848,"current_range_meters":20400,"station_id":"","pricing_plan_id":"cebpf4jnsgd1na2vs0mg"},{"bike_id":"049823d3-dacc-45f2-a12d-27fdedd73b39","system_id":"levelo_inurba_marseille","lat":43.24664,"lon":5.3815,"is_reserved":false,"is_disabled":false,"rental_uris":{"android":"levelo://app?vid=049823d3-dacc-45f2-a12d-27fdedd73b39","ios":"levelo://app?vid=049823d3-dacc-45f2-a12d-27fdedd73b39"},"vehicle_type_id":"4","last_reported":1746965848,"current_range_meters":20400,"station_id":"ce4bhih2rcd13ifvqfr0","pricing_plan_id":"cebpf4jnsgd1na2vs0mg"},{"bike_id":"0d0e26f8-c568-4567-bce5-9ae55f0d97a9","system_id":"levelo_inurba_marseille","lat":43.26805,"lon":5.40256,"is_reserved":false,"is_disabled":false,"rental_uris":{"android":"levelo://app?vid=0d0e26f8-c568-4567-bce5-9ae55f0d97a9","ios":"levelo://app?vid=0d0e26f8-c568-4567-bce5-9ae55f0d97a9"},"vehicle_type_id":"4","last_reported":1746965848,"current_range_meters":20400,"station_id":"ce501612rcd8frsf0b60","pricing_plan_id":"cebpf4jnsgd1na2vs0mg"},{"bike_id":"fb81965a-efc1-469a-84da-5caf81672192","system_id":"levelo_inurba_marseille","lat":43.29305,"lon":5.371671,"is_reserved":false,"is_disabled":false,"rental_uris":{"android":"levelo://app?vid=fb81965a-efc1-469a-84da-5caf81672192","ios":"levelo://app?vid=fb81965a-efc1-469a-84da-5caf81672192"},"vehicle_type_id":"4","last_reported":1746965848,"current_range_meters":20400,"station_id":"ce4bgh92rcd13ifvqb40","pricing_plan_id":"cebpf4jnsgd1na2vs0mg"},{"bike_id":"9e423b5c-1ff5-4d38-9c03-cea016400dcb","system_id":"levelo_inurba_marseille","lat":43.30529,"lon":5.36536,"is_reserved":false,"is_disabled":false,"rental_uris":{"android":"levelo://app?vid=9e423b5c-1ff5-4d38-9c03-cea016400dcb","ios":"levelo://app?vid=9e423b5c-1ff5-4d38-9c03-cea016400dcb"},"vehicle_type_id":"4","last_reported":1746965848,"current_range_meters":20800,"station_id":"ce4bgs12rcd13ifvqcag","pricing_plan_id":"cebpf4jnsgd1na2vs0mg"},{"bike_id":"7bce6fdb-e53d-4944-b547-13413f150729","system_id":"levelo_inurba_marseille","lat":43.306016,"lon":5.372271,"is_reserved":false,"is_disabled":false,"rental_uris":{"android":"levelo://app?vid=7bce6fdb-e53d-4944-b547-13413f150729","ios":"levelo://app?vid=7bce6fdb-e53d-4944-b547-13413f150729"},"vehicle_type_id":"4","last_reported":1746965848,"current_range_meters":20800,"station_id":"ce4bgqh2rcd13ifvqc4g","pricing_plan_id":"cebpf4jnsgd1na2vs0mg"},{"bike_id":"5f85c347-da13-4228-942d-a063dbff2d4f","system_id":"levelo_inurba_marseille","lat":43.31738,"lon":5.42394,"is_reserved":false,"is_disabled":false,"rental_uris":{"android":"levelo://app?vid=5f85c347-da13-4228-942d-a063dbff2d4f","ios":"levelo://app?vid=5f85c347-da13-4228-942d-a063dbff2d4f"},"vehicle_type_id":"4","last_reported":1746965848,"current_range_meters":20800,"station_id":"ce4bhp92rcd13ifvqhbg","pricing_plan_id":"cebpf4jnsgd1na2vs0mg"},{"bike_id":"f904ee56-cceb-4980-9cff-43fe7faae418","system_id":"levelo_inurba_marseille","lat":43.29541,"lon":5.39389,"is_reserved":false,"is_disabled":false,"rental_uris":{"android":"levelo://app?vid=f904ee56-cceb-4980-9cff-43fe7faae418","ios":"levelo://app?vid=f904ee56-cceb-4980-9cff-43fe7faae418"},"vehicle_type_id":"4","last_reported":1746965848,"current_range_meters":20800,"station_id":"ce4bh292rcd13ifvqdf0","pricing_plan_id":"cebpf4jnsgd1na2vs0mg"},{"bike_id":"13a3a309-dff5-4105-a470-7ec957c92510","system_id":"levelo_inurba_marseille","lat":43.28264,"lon":5.35069,"is_reserved":false,"is_disabled":false,"rental_uris":{"android":"levelo://app?vid=13a3a309-dff5-4105-a470-7ec957c92510","ios":"levelo://app?vid=13a3a309-dff5-4105-a470-7ec957c92510"},"vehicle_type_id":"4","last_reported":1746965848,"current_range_meters":20800,"station_id":"ce4bhbp2rcd13ifvqerg","pricing_plan_id":"cebpf4jnsgd1na2vs0mg"},{"bike_id":"2c23687d-ba9e-4bd6-9bbe-5510ef0e646d","system_id":"levelo_inurba_marseille","lat":43.24544,"lon":5.39521,"is_reserved":false,"is_disabled":false,"rental_uris":{"android":"levelo://app?vid=2c23687d-ba9e-4bd6-9bbe-5510ef0e646d","ios":"levelo://app?vid=2c23687d-ba9e-4bd6-9bbe-5510ef0e646d"},"vehicle_type_id":"4","last_reported":1746965848,"current_range_meters":21600,"station_id":"ce4bhlp2rcd13ifvqgjg","pricing_plan_id":"cebpf4jnsgd1na2vs0mg"},{"bike_id":"54aa408c-6dec-4bc2-a0ae-e4b17b1c6657","system_id":"levelo_inurba_marseille","lat":43.29439,"lon":5.3975,"is_reserved":false,"is_disabled":false,"rental_uris":{"android":"levelo://app?vid=54aa408c-6dec-4bc2-a0ae-e4b17b1c6657","ios":"levelo://app?vid=54aa408c-6dec-4bc2-a0ae-e4b17b1c6657"},"vehicle_type_id":"4","last_reported":1746965848,"current_range_meters":20800,"station_id":"ce4bh3h2rcd13ifvqdo0","pricing_plan_id":"cebpf4jnsgd1na2vs0mg"},{"bike_id":"a1424b6f-c1bd-4bbf-bda1-eb7615f334d5","system_id":"levelo_inurba_marseille","lat":43.29283,"lon":5.40116,"is_reserved":false,"is_disabled":false,"rental_uris":{"android":"levelo://app?vid=a1424b6f-c1bd-4bbf-bda1-eb7615f334d5","ios":"levelo://app?vid=a1424b6f-c1bd-4bbf-bda1-eb7615f334d5"},"vehicle_type_id":"4","last_reported":1746965848,"current_range_meters":21600,"station_id":"ce4bh312rcd13ifvqdk0","pricing_plan_id":"cebpf4jnsgd1na2vs0mg"},{"bike_id":"8b48e904-e541-4869-8254-f1b853c0a8f5","system_id":"levelo_inurba_marseille","lat":43.28935,"lon":5.36632,"is_reserved":false,"is_disabled":false,"rental_uris":{"android":"levelo://app?vid=8b48e904-e541-4869-8254-f1b853c0a8f5","ios":"levelo://app?vid=8b48e904-e541-4869-8254-f1b853c0a8f5"},"vehicle_type_id":"4","last_reported":1746965848,"current_range_meters":21600,"station_id":"ce4bhap2rcd13ifvqek0","pricing_plan_id":"cebpf4jnsgd1na2vs0mg"},{"bike_id":"1987f1f9-f064-48c3-99ad-44bbfb0087ca","system_id":"levelo_inurba_marseille","lat":43.31194,"lon":5.37701,"is_reserved":false,"is_disabled":false,"rental_uris":{"android":"levelo://app?vid=1987f1f9-f064-48c3-99ad-44bbfb0087ca","ios":"levelo://app?vid=1987f1f9-f064-48c3-99ad-44bbfb0087ca"},"vehicle_type_id":"4","last_reported":1746965848,"current_range_meters":22000,"station_id":"","pricing_plan_id":"cebpf4jnsgd1na2vs0mg"},{"bike_id":"3e2b1fae-52ad-467a-aa77-f1cf11c6bd1d","system_id":"levelo_inurba_marseille","lat":43.26786,"lon":5.3944,"is_reserved":false,"is_disabled":false,"rental_uris":{"android":"levelo://app?vid=3e2b1fae-52ad-467a-aa77-f1cf11c6bd1d","ios":"levelo://app?vid=3e2b1fae-52ad-467a-aa77-f1cf11c6bd1d"},"vehicle_type_id":"4","last_reported":1746965848,"current_range_meters":22000,"station_id":"ce4bhh12rcd13ifvqfg0","pricing_plan_id":"cebpf4jnsgd1na2vs0mg"},{"bike_id":"2db14b5e-8766-4730-8b92-39fb11dd9b42","system_id":"levelo_inurba_marseille","lat":43.30797,"lon":5.38149,"is_reserved":false,"is_disabled":false,"rental_uris":{"android":"levelo://app?vid=2db14b5e-8766-4730-8b92-39fb11dd9b42","ios":"levelo://app?vid=2db14b5e-8766-4730-8b92-39fb11dd9b42"},"vehicle_type_id":"4","last_reported":1746965848,"current_range_meters":21600,"station_id":"ce4bgt12rcd13ifvqce0","pricing_plan_id":"cebpf4jnsgd1na2vs0mg"},{"bike_id":"41c9f908-6954-400e-89b4-5583c634797a","system_id":"levelo_inurba_marseille","lat":43.30547,"lon":5.36552,"is_reserved":false,"is_disabled":false,"rental_uris":{"android":"levelo://app?vid=41c9f908-6954-400e-89b4-5583c634797a","ios":"levelo://app?vid=41c9f908-6954-400e-89b4-5583c634797a"},"vehicle_type_id":"4","last_reported":1746965848,"current_range_meters":22000,"station_id":"ce4bgs12rcd13ifvqcag","pricing_plan_id":"cebpf4jnsgd1na2vs0mg"},{"bike_id":"e86e28f0-83b0-4284-83e0-f796dbf1730e","system_id":"levelo_inurba_marseille","lat":43.29579,"lon":5.37517,"is_reserved":false,"is_disabled":false,"rental_uris":{"android":"levelo://app?vid=e86e28f0-83b0-4284-83e0-f796dbf1730e","ios":"levelo://app?vid=e86e28f0-83b0-4284-83e0-f796dbf1730e"},"vehicle_type_id":"4","last_reported":1746965848,"current_range_meters":22400,"station_id":"ce4bgh92rcd13ifvqb50","pricing_plan_id":"cebpf4jnsgd1na2vs0mg"},{"bike_id":"8acb5c33-715c-472b-b181-6250c36ed015","system_id":"levelo_inurba_marseille","lat":43.301472,"lon":5.380864,"is_reserved":false,"is_disabled":true,"rental_uris":{"android":"levelo://app?vid=8acb5c33-715c-472b-b181-6250c36ed015","ios":"levelo://app?vid=8acb5c33-715c-472b-b181-6250c36ed015"},"vehicle_type_id":"4","last_reported":1746965848,"current_range_meters":22400,"station_id":"","pricing_plan_id":"cebpf4jnsgd1na2vs0mg"},{"bike_id":"54718d4d-ac90-4f3c-89cd-a40077afba83","system_id":"levelo_inurba_marseille","lat":43.28684,"lon":5.37408,"is_reserved":false,"is_disabled":false,"rental_uris":{"android":"levelo://app?vid=54718d4d-ac90-4f3c-89cd-a40077afba83","ios":"levelo://app?vid=54718d4d-ac90-4f3c-89cd-a40077afba83"},"vehicle_type_id":"4","last_reported":1746965848,"current_range_meters":22400,"station_id":"ce4bh3p2rcd13ifvqdq0","pricing_plan_id":"cebpf4jnsgd1na2vs0mg"},{"bike_id":"cf96c7fb-c4cf-471a-9bde-df3142a2f178","system_id":"levelo_inurba_marseille","lat":43.25089,"lon":5.40293,"is_reserved":false,"is_disabled":false,"rental_uris":{"android":"levelo://app?vid=cf96c7fb-c4cf-471a-9bde-df3142a2f178","ios":"levelo://app?vid=cf96c7fb-c4cf-471a-9bde-df3142a2f178"},"vehicle_type_id":"4","last_reported":1746965848,"current_range_meters":22400,"station_id":"ce4bhlh2rcd13ifvqgig","pricing_plan_id":"cebpf4jnsgd1na2vs0mg"},{"bike_id":"55c209c7-d0f7-4c3b-b5ba-1c447e9c2f36","system_id":"levelo_inurba_marseille","lat":43.28027,"lon":5.41633,"is_reserved":false,"is_disabled":false,"rental_uris":{"android":"levelo://app?vid=55c209c7-d0f7-4c3b-b5ba-1c447e9c2f36","ios":"levelo://app?vid=55c209c7-d0f7-4c3b-b5ba-1c447e9c2f36"},"vehicle_type_id":"4","last_reported":1746965848,"current_range_meters":22400,"station_id":"ce4bho12rcd13ifvqh1g","pricing_plan_id":"cebpf4jnsgd1na2vs0mg"},{"bike_id":"ac44e6b4-cfe5-429e-857c-d7e0b3e3c43e","system_id":"levelo_inurba_marseille","lat":43.3134,"lon":5.36716,"is_reserved":false,"is_disabled":false,"rental_uris":{"android":"levelo://app?vid=ac44e6b4-cfe5-429e-857c-d7e0b3e3c43e","ios":"levelo://app?vid=ac44e6b4-cfe5-429e-857c-d7e0b3e3c43e"},"vehicle_type_id":"4","last_reported":1746965848,"current_range_meters":22800,"station_id":"ce4bgr92rcd13ifvqc6g","pricing_plan_id":"cebpf4jnsgd1na2vs0mg"},{"bike_id":"b2a5fa33-1eaf-47d6-b2ed-7446526dd9d3","system_id":"levelo_inurba_marseille","lat":43.30535,"lon":5.36531,"is_reserved":false,"is_disabled":false,"rental_uris":{"android":"levelo://app?vid=b2a5fa33-1eaf-47d6-b2ed-7446526dd9d3","ios":"levelo://app?vid=b2a5fa33-1eaf-47d6-b2ed-7446526dd9d3"},"vehicle_type_id":"4","last_reported":1746965848,"current_range_meters":22800,"station_id":"ce4bgs12rcd13ifvqcag","pricing_plan_id":"cebpf4jnsgd1na2vs0mg"},{"bike_id":"eeac8dfd-00a7-403f-a41e-6d6ecedd79be","system_id":"levelo_inurba_marseille","lat":43.30293,"lon":5.39204,"is_reserved":false,"is_disabled":false,"rental_uris":{"android":"levelo://app?vid=eeac8dfd-00a7-403f-a41e-6d6ecedd79be","ios":"levelo://app?vid=eeac8dfd-00a7-403f-a41e-6d6ecedd79be"},"vehicle_type_id":"4","last_reported":1746965848,"current_range_meters":22800,"station_id":"ce4bgkh2rcd13ifvqbk0","pricing_plan_id":"cebpf4jnsgd1na2vs0mg"},{"bike_id":"14269fe1-60cd-4b6d-aac5-f248bc584035","system_id":"levelo_inurba_marseille","lat":43.30373,"lon":5.424878,"is_reserved":false,"is_disabled":false,"rental_uris":{"android":"levelo://app?vid=14269fe1-60cd-4b6d-aac5-f248bc584035","ios":"levelo://app?vid=14269fe1-60cd-4b6d-aac5-f248bc584035"},"vehicle_type_id":"4","last_reported":1746965848,"current_range_meters":22800,"station_id":"ce4bhoh2rcd13ifvqh6g","pricing_plan_id":"cebpf4jnsgd1na2vs0mg"},{"bike_id":"8f4cb402-1c29-4c11-b45b-ee3c7d75f48f","system_id":"levelo_inurba_marseille","lat":43.3266,"lon":5.40999,"is_reserved":false,"is_disabled":false,"rental_uris":{"android":"levelo://app?vid=8f4cb402-1c29-4c11-b45b-ee3c7d75f48f","ios":"levelo://app?vid=8f4cb402-1c29-4c11-b45b-ee3c7d75f48f"},"vehicle_type_id":"4","last_reported":1746965848,"current_range_meters":23200,"station_id":"ce4bhpp2rcd13ifvqhgg","pricing_plan_id":"cebpf4jnsgd1na2vs0mg"},{"bike_id":"997fdcce-fb4c-4ee2-b4c4-93f95d3cccee","system_id":"levelo_inurba_marseille","lat":43.30866,"lon":5.3779,"is_reserved":false,"is_disabled":false,"rental_uris":{"android":"levelo://app?vid=997fdcce-fb4c-4ee2-b4c4-93f95d3cccee","ios":"levelo://app?vid=997fdcce-fb4c-4ee2-b4c4-93f95d3cccee"},"vehicle_type_id":"4","last_reported":1746965848,"current_range_meters":23200,"station_id":"","pricing_plan_id":"cebpf4jnsgd1na2vs0mg"},{"bike_id":"dbfab4d7-5942-4ff0-9551-e87cd3c8f994","system_id":"levelo_inurba_marseille","lat":43.30791,"lon":5.38169,"is_reserved":false,"is_disabled":false,"rental_uris":{"android":"levelo://app?vid=dbfab4d7-5942-4ff0-9551-e87cd3c8f994","ios":"levelo://app?vid=dbfab4d7-5942-4ff0-9551-e87cd3c8f994"},"vehicle_type_id":"4","last_reported":1746965848,"current_range_meters":23200,"station_id":"ce4bgt12rcd13ifvqce0","pricing_plan_id":"cebpf4jnsgd1na2vs0mg"},{"bike_id":"c65512c4-82c1-47c2-bf84-cd1ad20db18e","system_id":"levelo_inurba_marseille","lat":43.32476,"lon":5.3656,"is_reserved":false,"is_disabled":false,"rental_uris":{"android":"levelo://app?vid=c65512c4-82c1-47c2-bf84-cd1ad20db18e","ios":"levelo://app?vid=c65512c4-82c1-47c2-bf84-cd1ad20db18e"},"vehicle_type_id":"4","last_reported":1746965848,"current_range_meters":23200,"station_id":"ce4bhs12rcd13ifvqhvg","pricing_plan_id":"cebpf4jnsgd1na2vs0mg"},{"bike_id":"0b6f3c87-c0ae-433d-970c-6e100fe1dcde","system_id":"levelo_inurba_marseille","lat":43.29856,"lon":5.36282,"is_reserved":false,"is_disabled":false,"rental_uris":{"android":"levelo://app?vid=0b6f3c87-c0ae-433d-970c-6e100fe1dcde","ios":"levelo://app?vid=0b6f3c87-c0ae-433d-970c-6e100fe1dcde"},"vehicle_type_id":"4","last_reported":1746965848,"current_range_meters":24000,"station_id":"ce4bgpp2rcd13ifvqc3g","pricing_plan_id":"cebpf4jnsgd1na2vs0mg"},{"bike_id":"db30c5da-adef-4785-8193-e7cb5a90e0ff","system_id":"levelo_inurba_marseille","lat":43.29285,"lon":5.376255,"is_reserved":false,"is_disabled":false,"rental_uris":{"android":"levelo://app?vid=db30c5da-adef-4785-8193-e7cb5a90e0ff","ios":"levelo://app?vid=db30c5da-adef-4785-8193-e7cb5a90e0ff"},"vehicle_type_id":"4","last_reported":1746965848,"current_range_meters":24000,"station_id":"ce4bgi12rcd13ifvqb80","pricing_plan_id":"cebpf4jnsgd1na2vs0mg"},{"bike_id":"2a96a40c-2f62-4a43-a1c1-fa8d235cb68d","system_id":"levelo_inurba_marseille","lat":43.31353,"lon":5.37619,"is_reserved":false,"is_disabled":false,"rental_uris":{"android":"levelo://app?vid=2a96a40c-2f62-4a43-a1c1-fa8d235cb68d","ios":"levelo://app?vid=2a96a40c-2f62-4a43-a1c1-fa8d235cb68d"},"vehicle_type_id":"4","last_reported":1746965848,"current_range_meters":24000,"station_id":"","pricing_plan_id":"cebpf4jnsgd1na2vs0mg"},{"bike_id":"9c6dad96-8547-4228-a9fe-325dcaf87884","system_id":"levelo_inurba_marseille","lat":43.31996,"lon":5.38142,"is_reserved":false,"is_disabled":false,"rental_uris":{"android":"levelo://app?vid=9c6dad96-8547-4228-a9fe-325dcaf87884","ios":"levelo://app?vid=9c6dad96-8547-4228-a9fe-325dcaf87884"},"vehicle_type_id":"4","last_reported":1746965848,"current_range_meters":24000,"station_id":"ce4bhr12rcd13ifvqhpg","pricing_plan_id":"cebpf4jnsgd1na2vs0mg"},{"bike_id":"b82d1198-f067-40df-bdf7-8eca8b5e0270","system_id":"levelo_inurba_marseille","lat":43.29282,"lon":5.40119,"is_reserved":false,"is_disabled":false,"rental_uris":{"android":"levelo://app?vid=b82d1198-f067-40df-bdf7-8eca8b5e0270","ios":"levelo://app?vid=b82d1198-f067-40df-bdf7-8eca8b5e0270"},"vehicle_type_id":"4","last_reported":1746965848,"current_range_meters":24000,"station_id":"ce4bh312rcd13ifvqdk0","pricing_plan_id":"cebpf4jnsgd1na2vs0mg"},{"bike_id":"ef581c8d-ebd3-4243-8309-82cd4f83e278","system_id":"levelo_inurba_marseille","lat":43.30459,"lon":5.38867,"is_reserved":false,"is_disabled":false,"rental_uris":{"android":"levelo://app?vid=ef581c8d-ebd3-4243-8309-82cd4f83e278","ios":"levelo://app?vid=ef581c8d-ebd3-4243-8309-82cd4f83e278"},"vehicle_type_id":"4","last_reported":1746965848,"current_range_meters":24000,"station_id":"ce4bgk12rcd13ifvqbi0","pricing_plan_id":"cebpf4jnsgd1na2vs0mg"},{"bike_id":"27542059-fc07-4e63-845e-3fa900ed59ff","system_id":"levelo_inurba_marseille","lat":43.3037,"lon":5.42484,"is_reserved":false,"is_disabled":false,"rental_uris":{"android":"levelo://app?vid=27542059-fc07-4e63-845e-3fa900ed59ff","ios":"levelo://app?vid=27542059-fc07-4e63-845e-3fa900ed59ff"},"vehicle_type_id":"4","last_reported":1746965848,"current_range_meters":24000,"station_id":"ce4bhoh2rcd13ifvqh6g","pricing_plan_id":"cebpf4jnsgd1na2vs0mg"},{"bike_id":"52502790-9ba9-4b82-8eee-224ce9dc0df2","system_id":"levelo_inurba_marseille","lat":43.26199,"lon":5.3744,"is_reserved":false,"is_disabled":true,"rental_uris":{"android":"levelo://app?vid=52502790-9ba9-4b82-8eee-224ce9dc0df2","ios":"levelo://app?vid=52502790-9ba9-4b82-8eee-224ce9dc0df2"},"vehicle_type_id":"4","last_reported":1746965848,"current_range_meters":24400,"station_id":"ce4bhgp2rcd13ifvqfc0","pricing_plan_id":"cebpf4jnsgd1na2vs0mg"},{"bike_id":"479f0caa-b221-459e-a0ef-4aa0b832b436","system_id":"levelo_inurba_marseille","lat":43.29295,"lon":5.3717,"is_reserved":false,"is_disabled":false,"rental_uris":{"android":"levelo://app?vid=479f0caa-b221-459e-a0ef-4aa0b832b436","ios":"levelo://app?vid=479f0caa-b221-459e-a0ef-4aa0b832b436"},"vehicle_type_id":"4","last_reported":1746965848,"current_range_meters":24400,"station_id":"ce4bgh92rcd13ifvqb40","pricing_plan_id":"cebpf4jnsgd1na2vs0mg"},{"bike_id":"a546a166-3357-42b2-be14-012e05b92d7d","system_id":"levelo_inurba_marseille","lat":43.3258,"lon":5.43064,"is_reserved":false,"is_disabled":false,"rental_uris":{"android":"levelo://app?vid=a546a166-3357-42b2-be14-012e05b92d7d","ios":"levelo://app?vid=a546a166-3357-42b2-be14-012e05b92d7d"},"vehicle_type_id":"4","last_reported":1746965848,"current_range_meters":24400,"station_id":"","pricing_plan_id":"cebpf4jnsgd1na2vs0mg"},{"bike_id":"2cc6ab33-b884-4b84-8f2e-73a9d9cc1642","system_id":"levelo_inurba_marseille","lat":43.28853,"lon":5.39325,"is_reserved":false,"is_disabled":true,"rental_uris":{"android":"levelo://app?vid=2cc6ab33-b884-4b84-8f2e-73a9d9cc1642","ios":"levelo://app?vid=2cc6ab33-b884-4b84-8f2e-73a9d9cc1642"},"vehicle_type_id":"4","last_reported":1746965848,"current_range_meters":24400,"station_id":"ce4bh2p2rcd13ifvqdi0","pricing_plan_id":"cebpf4jnsgd1na2vs0mg"},{"bike_id":"4efd2569-2234-430a-8430-62e45f1c941a","system_id":"levelo_inurba_marseille","lat":43.27918,"lon":5.3958,"is_reserved":false,"is_disabled":false,"rental_uris":{"android":"levelo://app?vid=4efd2569-2234-430a-8430-62e45f1c941a","ios":"levelo://app?vid=4efd2569-2234-430a-8430-62e45f1c941a"},"vehicle_type_id":"4","last_reported":1746965848,"current_range_meters":24400,"station_id":"ce4bhf92rcd13ifvqf40","pricing_plan_id":"cebpf4jnsgd1na2vs0mg"},{"bike_id":"9783fc4a-80e0-48cf-b697-5efeb5e84aaf","system_id":"levelo_inurba_marseille","lat":43.3135,"lon":5.38264,"is_reserved":false,"is_disabled":false,"rental_uris":{"android":"levelo://app?vid=9783fc4a-80e0-48cf-b697-5efeb5e84aaf","ios":"levelo://app?vid=9783fc4a-80e0-48cf-b697-5efeb5e84aaf"},"vehicle_type_id":"4","last_reported":1746965848,"current_range_meters":24400,"station_id":"","pricing_plan_id":"cebpf4jnsgd1na2vs0mg"},{"bike_id":"49510778-7baf-467e-90f9-e542dd82f3b7","system_id":"levelo_inurba_marseille","lat":43.28468,"lon":5.35896,"is_reserved":false,"is_disabled":false,"rental_uris":{"android":"levelo://app?vid=49510778-7baf-467e-90f9-e542dd82f3b7","ios":"levelo://app?vid=49510778-7baf-467e-90f9-e542dd82f3b7"},"vehicle_type_id":"4","last_reported":1746965848,"current_range_meters":24400,"station_id":"ce4bhah2rcd13ifvqei0","pricing_plan_id":"cebpf4jnsgd1na2vs0mg"},{"bike_id":"f1342c4c-a94b-4654-9628-680ba7db74df","system_id":"levelo_inurba_marseille","lat":43.232,"lon":5.35509,"is_reserved":false,"is_disabled":true,"rental_uris":{"android":"levelo://app?vid=f1342c4c-a94b-4654-9628-680ba7db74df","ios":"levelo://app?vid=f1342c4c-a94b-4654-9628-680ba7db74df"},"vehicle_type_id":"4","last_reported":1746965848,"current_range_meters":24400,"station_id":"ce4bhu92rcd13ifvqi70","pricing_plan_id":"cebpf4jnsgd1na2vs0mg"},{"bike_id":"abf2711c-a0f1-4788-a19a-e368a61467ad","system_id":"levelo_inurba_marseille","lat":43.29301,"lon":5.37151,"is_reserved":false,"is_disabled":false,"rental_uris":{"android":"levelo://app?vid=abf2711c-a0f1-4788-a19a-e368a61467ad","ios":"levelo://app?vid=abf2711c-a0f1-4788-a19a-e368a61467ad"},"vehicle_type_id":"4","last_reported":1746965848,"current_range_meters":24400,"station_id":"ce4bgh92rcd13ifvqb40","pricing_plan_id":"cebpf4jnsgd1na2vs0mg"},{"bike_id":"cc25aae6-3197-44f8-8471-8a0efb35cc4f","system_id":"levelo_inurba_marseille","lat":43.30623,"lon":5.36603,"is_reserved":false,"is_disabled":true,"rental_uris":{"android":"levelo://app?vid=cc25aae6-3197-44f8-8471-8a0efb35cc4f","ios":"levelo://app?vid=cc25aae6-3197-44f8-8471-8a0efb35cc4f"},"vehicle_type_id":"4","last_reported":1746965848,"current_range_meters":24400,"station_id":"","pricing_plan_id":"cebpf4jnsgd1na2vs0mg"},{"bike_id":"2a6c02b2-f707-4c72-8879-4a92a8db1ee8","system_id":"levelo_inurba_marseille","lat":43.32289,"lon":5.38273,"is_reserved":false,"is_disabled":false,"rental_uris":{"android":"levelo://app?vid=2a6c02b2-f707-4c72-8879-4a92a8db1ee8","ios":"levelo://app?vid=2a6c02b2-f707-4c72-8879-4a92a8db1ee8"},"vehicle_type_id":"4","last_reported":1746965848,"current_range_meters":24000,"station_id":"ce4bhr12rcd13ifvqhqg","pricing_plan_id":"cebpf4jnsgd1na2vs0mg"},{"bike_id":"c84cc980-38fe-4761-924e-99f94b7ce9c7","system_id":"levelo_inurba_marseille","lat":43.337444,"lon":5.374475,"is_reserved":false,"is_disabled":true,"rental_uris":{"android":"levelo://app?vid=c84cc980-38fe-4761-924e-99f94b7ce9c7","ios":"levelo://app?vid=c84cc980-38fe-4761-924e-99f94b7ce9c7"},"vehicle_type_id":"4","last_reported":1746965848,"current_range_meters":24400,"station_id":"","pricing_plan_id":"cebpf4jnsgd1na2vs0mg"},{"bike_id":"54910485-93b9-4759-bd44-c9e78c37b07d","system_id":"levelo_inurba_marseille","lat":43.31696,"lon":5.40454,"is_reserved":false,"is_disabled":false,"rental_uris":{"android":"levelo://app?vid=54910485-93b9-4759-bd44-c9e78c37b07d","ios":"levelo://app?vid=54910485-93b9-4759-bd44-c9e78c37b07d"},"vehicle_type_id":"4","last_reported":1746965848,"current_range_meters":24400,"station_id":"ce4bh012rcd13ifvqd00","pricing_plan_id":"cebpf4jnsgd1na2vs0mg"},{"bike_id":"7f9abf71-8019-498c-8243-8b5ce9ff851e","system_id":"levelo_inurba_marseille","lat":43.298539,"lon":5.362953,"is_reserved":false,"is_disabled":true,"rental_uris":{"android":"levelo://app?vid=7f9abf71-8019-498c-8243-8b5ce9ff851e","ios":"levelo://app?vid=7f9abf71-8019-498c-8243-8b5ce9ff851e"},"vehicle_type_id":"4","last_reported":1746965848,"current_range_meters":24400,"station_id":"","pricing_plan_id":"cebpf4jnsgd1na2vs0mg"},{"bike_id":"0a3e9417-6643-4978-9498-8312436bc84a","system_id":"levelo_inurba_marseille","lat":43.27599,"lon":5.36136,"is_reserved":false,"is_disabled":true,"rental_uris":{"android":"levelo://app?vid=0a3e9417-6643-4978-9498-8312436bc84a","ios":"levelo://app?vid=0a3e9417-6643-4978-9498-8312436bc84a"},"vehicle_type_id":"4","last_reported":1746965848,"current_range_meters":24400,"station_id":"ce4bgj92rcd13ifvqbe0","pricing_plan_id":"cebpf4jnsgd1na2vs0mg"},{"bike_id":"dc53d17a-6042-4f83-8552-4e608df3f076","system_id":"levelo_inurba_marseille","lat":43.2552,"lon":5.40089,"is_reserved":false,"is_disabled":false,"rental_uris":{"android":"levelo://app?vid=dc53d17a-6042-4f83-8552-4e608df3f076","ios":"levelo://app?vid=dc53d17a-6042-4f83-8552-4e608df3f076"},"vehicle_type_id":"4","last_reported":1746965848,"current_range_meters":24800,"station_id":"","pricing_plan_id":"cebpf4jnsgd1na2vs0mg"},{"bike_id":"0a58c277-b2a9-4dc8-87aa-cf12f87fe675","system_id":"levelo_inurba_marseille","lat":43.25112,"lon":5.40315,"is_reserved":false,"is_disabled":false,"rental_uris":{"android":"levelo://app?vid=0a58c277-b2a9-4dc8-87aa-cf12f87fe675","ios":"levelo://app?vid=0a58c277-b2a9-4dc8-87aa-cf12f87fe675"},"vehicle_type_id":"4","last_reported":1746965848,"current_range_meters":24800,"station_id":"ce4bhlh2rcd13ifvqgig","pricing_plan_id":"cebpf4jnsgd1na2vs0mg"},{"bike_id":"35a69d43-bc5c-4f46-83d8-1c7a15f49dc8","system_id":"levelo_inurba_marseille","lat":43.29295,"lon":5.37161,"is_reserved":false,"is_disabled":false,"rental_uris":{"android":"levelo://app?vid=35a69d43-bc5c-4f46-83d8-1c7a15f49dc8","ios":"levelo://app?vid=35a69d43-bc5c-4f46-83d8-1c7a15f49dc8"},"vehicle_type_id":"4","last_reported":1746965848,"current_range_meters":24800,"station_id":"ce4bgh92rcd13ifvqb40","pricing_plan_id":"cebpf4jnsgd1na2vs0mg"},{"bike_id":"9dabf62d-1876-4eee-a4a2-081594fa6c53","system_id":"levelo_inurba_marseille","lat":43.29413,"lon":5.38632,"is_reserved":false,"is_disabled":false,"rental_uris":{"android":"levelo://app?vid=9dabf62d-1876-4eee-a4a2-081594fa6c53","ios":"levelo://app?vid=9dabf62d-1876-4eee-a4a2-081594fa6c53"},"vehicle_type_id":"4","last_reported":1746965848,"current_range_meters":24800,"station_id":"ce4bh2h2rcd13ifvqdh0","pricing_plan_id":"cebpf4jnsgd1na2vs0mg"},{"bike_id":"1ba33c3a-fe17-4365-ab79-89799f300a2f","system_id":"levelo_inurba_marseille","lat":43.30145,"lon":5.37418,"is_reserved":false,"is_disabled":false,"rental_uris":{"android":"levelo://app?vid=1ba33c3a-fe17-4365-ab79-89799f300a2f","ios":"levelo://app?vid=1ba33c3a-fe17-4365-ab79-89799f300a2f"},"vehicle_type_id":"4","last_reported":1746965848,"current_range_meters":24400,"station_id":"ce4bgs92rcd13ifvqcc0","pricing_plan_id":"cebpf4jnsgd1na2vs0mg"},{"bike_id":"f055d679-b0ae-47a4-840c-daedff483538","system_id":"levelo_inurba_marseille","lat":43.295357,"lon":5.385403,"is_reserved":false,"is_disabled":false,"rental_uris":{"android":"levelo://app?vid=f055d679-b0ae-47a4-840c-daedff483538","ios":"levelo://app?vid=f055d679-b0ae-47a4-840c-daedff483538"},"vehicle_type_id":"4","last_reported":1746965848,"current_range_meters":24800,"station_id":"ce4bgih2rcd13ifvqba0","pricing_plan_id":"cebpf4jnsgd1na2vs0mg"},{"bike_id":"30d30cd1-1046-4c73-a09a-8944984c6a7f","system_id":"levelo_inurba_marseille","lat":43.24824,"lon":5.37436,"is_reserved":false,"is_disabled":false,"rental_uris":{"android":"levelo://app?vid=30d30cd1-1046-4c73-a09a-8944984c6a7f","ios":"levelo://app?vid=30d30cd1-1046-4c73-a09a-8944984c6a7f"},"vehicle_type_id":"4","last_reported":1746965848,"current_range_meters":24400,"station_id":"ce4bhgh2rcd13ifvqfb0","pricing_plan_id":"cebpf4jnsgd1na2vs0mg"},{"bike_id":"a08e94e8-1388-46b3-bd18-86e1ae0b7976","system_id":"levelo_inurba_marseille","lat":43.31523,"lon":5.380323,"is_reserved":false,"is_disabled":false,"rental_uris":{"android":"levelo://app?vid=a08e94e8-1388-46b3-bd18-86e1ae0b7976","ios":"levelo://app?vid=a08e94e8-1388-46b3-bd18-86e1ae0b7976"},"vehicle_type_id":"4","last_reported":1746965848,"current_range_meters":24800,"station_id":"ce4bhsp2rcd13ifvqi50","pricing_plan_id":"cebpf4jnsgd1na2vs0mg"},{"bike_id":"a6bda440-793c-4973-af86-1f655d1d7bb8","system_id":"levelo_inurba_marseille","lat":43.29509,"lon":5.38489,"is_reserved":false,"is_disabled":false,"rental_uris":{"android":"levelo://app?vid=a6bda440-793c-4973-af86-1f655d1d7bb8","ios":"levelo://app?vid=a6bda440-793c-4973-af86-1f655d1d7bb8"},"vehicle_type_id":"4","last_reported":1746965848,"current_range_meters":24800,"station_id":"","pricing_plan_id":"cebpf4jnsgd1na2vs0mg"},{"bike_id":"d3cbc46f-5375-4d60-978c-d259ee44514f","system_id":"levelo_inurba_marseille","lat":43.29308,"lon":5.37467,"is_reserved":false,"is_disabled":true,"rental_uris":{"android":"levelo://app?vid=d3cbc46f-5375-4d60-978c-d259ee44514f","ios":"levelo://app?vid=d3cbc46f-5375-4d60-978c-d259ee44514f"},"vehicle_type_id":"4","last_reported":1746965848,"current_range_meters":25200,"station_id":"","pricing_plan_id":"cebpf4jnsgd1na2vs0mg"},{"bike_id":"bb9366ac-ef50-4099-8450-5118b410c1f7","system_id":"levelo_inurba_marseille","lat":43.287904,"lon":5.35926,"is_reserved":false,"is_disabled":false,"rental_uris":{"android":"levelo://app?vid=bb9366ac-ef50-4099-8450-5118b410c1f7","ios":"levelo://app?vid=bb9366ac-ef50-4099-8450-5118b410c1f7"},"vehicle_type_id":"4","last_reported":1746965848,"current_range_meters":25200,"station_id":"","pricing_plan_id":"cebpf4jnsgd1na2vs0mg"},{"bike_id":"fcf9463b-401b-4157-a5a9-4c36ca7d015d","system_id":"levelo_inurba_marseille","lat":43.306847,"lon":5.370493,"is_reserved":false,"is_disabled":false,"rental_uris":{"android":"levelo://app?vid=fcf9463b-401b-4157-a5a9-4c36ca7d015d","ios":"levelo://app?vid=fcf9463b-401b-4157-a5a9-4c36ca7d015d"},"vehicle_type_id":"4","last_reported":1746965848,"current_range_meters":25200,"station_id":"","pricing_plan_id":"cebpf4jnsgd1na2vs0mg"},