{"last_updated":1698602903,"ttl":30,"version":"2.2","data":{"bikes":[{"bike_id":"45175b93-00a3-48f7-89ab-c12f719fde9c","system_id":"levelo_inurba_marseille","lat":43.313391,"lon":5.36706,"is_reserved":false,"is_disabled":false,"rental_uris":{"android":"levelo://app?vid=45175b93-00a3-48f7-89ab-c12f719fde9c","ios":"levelo://app?vid=45175b93-00a3-48f7-89ab-c12f719fde9c"},"vehicle_type_id":"4","last_reported":1698602903,"current_range_meters":31200,"station_id":"ce4bgr92rcd13ifvqc6g","pricing_plan_id":"free"},{"bike_id":"2d48c187-dedb-466c-bec1-83908e05654a","system_id":"levelo_inurba_marseille","lat":43.309064,"lon":5.368534,"is_reserved":false,"is_disabled":false,"rental_uris":{"android":"levelo://app?vid=2d48c187-dedb-466c-bec1-83908e05654a","ios":"levelo://app?vid=2d48c187-dedb-466c-bec1-83908e05654a"},"vehicle_type_id":"4","last_reported":1698602903,"current_range_meters":13600,"station_id":"ce4bgn92rcd13ifvqbvg","pricing_plan_id":"free"},{"bike_id":"b1cb48cb-22d4-4cd4-97b0-038c1cf723b7","system_id":"levelo_inurba_marseille","lat":43.315186,"lon":5.371432,"is_reserved":false,"is_disabled":false,"rental_uris":{"android":"levelo://app?vid=b1cb48cb-22d4-4cd4-97b0-038c1cf723b7","ios":"levelo://app?vid=b1cb48cb-22d4-4cd4-97b0-038c1cf723b7"},"vehicle_type_id":"4","last_reported":1698602903,"current_range_meters":14400,"station_id":"","pricing_plan_id":"free"},{"bike_id":"c90f6a67-8a95-4186-9f6b-5914e4f853d6","system_id":"levelo_inurba_marseille","lat":43.314811,"lon":5.373104,"is_reserved":false,"is_disabled":false,"rental_uris":{"android":"levelo://app?vid=c90f6a67-8a95-4186-9f6b-5914e4f853d6","ios":"levelo://app?vid=c90f6a67-8a95-4186-9f6b-5914e4f853d6"},"vehicle_type_id":"4","last_reported":1698602903,"current_range_meters":6400,"station_id":"ce4bgt12rcd13ifvqcd0","pricing_plan_id":"free"},{"bike_id":"74e77395-4842-4515-ba55-22c93f870f4a","system_id":"levelo_inurba_marseille","lat":43.309039,"lon":5.371797,"is_reserved":false,"is_disabled":false,"rental_uris":{"android":"levelo://app?vid=74e77395-4842-4515-ba55-22c93f870f4a","ios":"levelo://app?vid=74e77395-4842-4515-ba55-22c93f870f4a"},"vehicle_type_id":"4","last_reported":1698602903,"current_range_meters":6400,"station_id":"ce4bguh2rcd13ifvqckg","pricing_plan_id":"free"},{"bike_id":"8c728d68-fa32-4249-9c4e-095396fe24f4","system_id":"levelo_inurba_marseille","lat":43.309039,"lon":5.371797,"is_reserved":false,"is_disabled":false,"rental_uris":{"android":"levelo://app?vid=8c728d68-fa32-4249-9c4e-095396fe24f4","ios":"levelo://app?vid=8c728d68-fa32-4249-9c4e-095396fe24f4"},"vehicle_type_id":"4","last_reported":1698602903,"current_range_meters":30400,"station_id":"ce4bguh2rcd13ifvqckg","pricing_plan_id":"free"},{"bike_id":"ec46bc63-5fd2-4c39-adfe-bd0d991bf903","system_id":"levelo_inurba_marseille","lat":43.30888,"lon":5.37193,"is_reserved":false,"is_disabled":false,"rental_uris":{"android":"levelo://app?vid=ec46bc63-5fd2-4c39-adfe-bd0d991bf903","ios":"levelo://app?vid=ec46bc63-5fd2-4c39-adfe-bd0d991bf903"},"vehicle_type_id":"4","last_reported":1698602903,"current_range_meters":17200,"station_id":"ce4bguh2rcd13ifvqckg","pricing_plan_id":"free"},{"bike_id":"928c40b4-bf8e-4f52-b238-79ce80922575","system_id":"levelo_inurba_marseille","lat":43.309039,"lon":5.371797,"is_reserved":false,"is_disabled":false,"rental_uris":{"android":"levelo://app?vid=928c40b4-bf8e-4f52-b238-79ce80922575","ios":"levelo://app?vid=928c40b4-bf8e-4f52-b238-79ce80922575"},"vehicle_type_id":"4","last_reported":1698602903,"current_range_meters":29600,"station_id":"ce4bguh2rcd13ifvqckg","pricing_plan_id":"free"},{"bike_id":"f252b071-dddd-4e5f-ad07-506846af6d1a","system_id":"levelo_inurba_marseille","lat":43.305471,"lon":5.365611,"is_reserved":false,"is_disabled":false,"rental_uris":{"android":"levelo://app?vid=f252b071-dddd-4e5f-ad07-506846af6d1a","ios":"levelo://app?vid=f252b071-dddd-4e5f-ad07-506846af6d1a"},"vehicle_type_id":"4","last_reported":1698602903,"current_range_meters":31200,"station_id":"ce4bgs12rcd13ifvqcag","pricing_plan_id":"free"},{"bike_id":"6e4482dc-c65b-4419-bba9-c236f29d1961","system_id":"levelo_inurba_marseille","lat":43.305989,"lon":5.37225,"is_reserved":false,"is_disabled":false,"rental_uris":{"android":"levelo://app?vid=6e4482dc-c65b-4419-bba9-c236f29d1961","ios":"levelo://app?vid=6e4482dc-c65b-4419-bba9-c236f29d1961"},"vehicle_type_id":"4","last_reported":1698602903,"current_range_meters":22400,"station_id":"ce4bgqh2rcd13ifvqc4g","pricing_plan_id":"free"},{"bike_id":"5cfd55f0-3127-4f4a-b4bd-772e10c9af24","system_id":"levelo_inurba_marseille","lat":43.305989,"lon":5.37225,"is_reserved":false,"is_disabled":false,"rental_uris":{"android":"levelo://app?vid=5cfd55f0-3127-4f4a-b4bd-772e10c9af24","ios":"levelo://app?vid=5cfd55f0-3127-4f4a-b4bd-772e10c9af24"},"vehicle_type_id":"4","last_reported":1698602903,"current_range_meters":7600,"station_id":"ce4bgqh2rcd13ifvqc4g","pricing_plan_id":"free"},{"bike_id":"3de11219-23eb-429b-b0cb-b2a36e4b2bd2","system_id":"levelo_inurba_marseille","lat":43.3059,"lon":5.37251,"is_reserved":false,"is_disabled":false,"rental_uris":{"android":"levelo://app?vid=3de11219-23eb-429b-b0cb-b2a36e4b2bd2","ios":"levelo://app?vid=3de11219-23eb-429b-b0cb-b2a36e4b2bd2"},"vehicle_type_id":"4","last_reported":1698602903,"current_range_meters":19200,"station_id":"ce4bgqh2rcd13ifvqc4g","pricing_plan_id":"free"},{"bike_id":"9aef5bf9-a591-470f-a186-14897a95c1b9","system_id":"levelo_inurba_marseille","lat":43.307508,"lon":5.375473,"is_reserved":false,"is_disabled":false,"rental_uris":{"android":"levelo://app?vid=9aef5bf9-a591-470f-a186-14897a95c1b9","ios":"levelo://app?vid=9aef5bf9-a591-470f-a186-14897a95c1b9"},"vehicle_type_id":"4","last_reported":1698602903,"current_range_meters":0,"station_id":"","pricing_plan_id":"free"},{"bike_id":"0ba7c803-337b-4bd5-bff3-2c0274d4e82e","system_id":"levelo_inurba_marseille","lat":43.30787,"lon":5.37638,"is_reserved":false,"is_disabled":false,"rental_uris":{"android":"levelo://app?vid=0ba7c803-337b-4bd5-bff3-2c0274d4e82e","ios":"levelo://app?vid=0ba7c803-337b-4bd5-bff3-2c0274d4e82e"},"vehicle_type_id":"4","last_reported":1698602903,"current_range_meters":1600,"station_id":"ce4bgv92rcd13ifvqcq0","pricing_plan_id":"free"},{"bike_id":"146b6e9a-e5c7-4f6f-abab-b6ef93eb9955","system_id":"levelo_inurba_marseille","lat":43.30168,"lon":5.36636,"is_reserved":false,"is_disabled":false,"rental_uris":{"android":"levelo://app?vid=146b6e9a-e5c7-4f6f-abab-b6ef93eb9955","ios":"levelo://app?vid=146b6e9a-e5c7-4f6f-abab-b6ef93eb9955"},"vehicle_type_id":"4","last_reported":1698602903,"current_range_meters":25600,"station_id":"ce4bgrh2rcd13ifvqc8g","pricing_plan_id":"free"},{"bike_id":"7701c5eb-6b44-46c6-a938-3efe362fcadc","system_id":"levelo_inurba_marseille","lat":43.31341,"lon":5.367098,"is_reserved":false,"is_disabled":false,"rental_uris":{"android":"levelo://app?vid=7701c5eb-6b44-46c6-a938-3efe362fcadc","ios":"levelo://app?vid=7701c5eb-6b44-46c6-a938-3efe362fcadc"},"vehicle_type_id":"4","last_reported":1698602903,"current_range_meters":16800,"station_id":"ce4bgr92rcd13ifvqc6g","pricing_plan_id":"free"},{"bike_id":"e3f253a1-9788-4492-938f-39b642fbd881","system_id":"levelo_inurba_marseille","lat":43.3245,"lon":5.36788,"is_reserved":false,"is_disabled":false,"rental_uris":{"android":"levelo://app?vid=e3f253a1-9788-4492-938f-39b642fbd881","ios":"levelo://app?vid=e3f253a1-9788-4492-938f-39b642fbd881"},"vehicle_type_id":"4","last_reported":1698602903,"current_range_meters":5200,"station_id":"","pricing_plan_id":"free"},{"bike_id":"d797f1e6-f3ca-4ad7-8b56-5ed6191da53c","system_id":"levelo_inurba_marseille","lat":43.304606,"lon":5.379026,"is_reserved":false,"is_disabled":false,"rental_uris":{"android":"levelo://app?vid=d797f1e6-f3ca-4ad7-8b56-5ed6191da53c","ios":"levelo://app?vid=d797f1e6-f3ca-4ad7-8b56-5ed6191da53c"},"vehicle_type_id":"4","last_reported":1698602903,"current_range_meters":25200,"station_id":"ce4bgup2rcd13ifvqcn0","pricing_plan_id":"free"},{"bike_id":"33799d3a-1a35-4946-b871-92caf48036ec","system_id":"levelo_inurba_marseille","lat":43.32473,"lon":5.36565,"is_reserved":false,"is_disabled":false,"rental_uris":{"android":"levelo://app?vid=33799d3a-1a35-4946-b871-92caf48036ec","ios":"levelo://app?vid=33799d3a-1a35-4946-b871-92caf48036ec"},"vehicle_type_id":"4","last_reported":1698602903,"current_range_meters":23600,"station_id":"","pricing_plan_id":"free"},{"bike_id":"d177f840-926d-43b5-b656-8750c3d13e8a","system_id":"levelo_inurba_marseille","lat":43.32477,"lon":5.36575,"is_reserved":false,"is_disabled":false,"rental_uris":{"android":"levelo://app?vid=d177f840-926d-43b5-b656-8750c3d13e8a","ios":"levelo://app?vid=d177f840-926d-43b5-b656-8750c3d13e8a"},"vehicle_type_id":"4","last_reported":1698602903,"current_range_meters":25200,"station_id":"","pricing_plan_id":"free"},{"bike_id":"dd1c0b20-019a-4f88-ae15-bb2c3eed70ed","system_id":"levelo_inurba_marseille","lat":43.319399,"lon":5.381652,"is_reserved":false,"is_disabled":false,"rental_uris":{"android":"levelo://app?vid=dd1c0b20-019a-4f88-ae15-bb2c3eed70ed","ios":"levelo://app?vid=dd1c0b20-019a-4f88-ae15-bb2c3eed70ed"},"vehicle_type_id":"4","last_reported":1698602903,"current_range_meters":0,"station_id":"","pricing_plan_id":"free"},{"bike_id":"3fecca64-8394-43ac-a15a-5b3485790eca","system_id":"levelo_inurba_marseille","lat":43.313571,"lon":5.384829,"is_reserved":false,"is_disabled":false,"rental_uris":{"android":"levelo://app?vid=3fecca64-8394-43ac-a15a-5b3485790eca","ios":"levelo://app?vid=3fecca64-8394-43ac-a15a-5b3485790eca"},"vehicle_type_id":"4","last_reported":1698602903,"current_range_meters":26400,"station_id":"ce4bgt92rcd13ifvqcf0","pricing_plan_id":"free"},{"bike_id":"2f1ab682-82fd-4b0c-bc2e-e244b0ffb1c5","system_id":"levelo_inurba_marseille","lat":43.313571,"lon":5.384829,"is_reserved":false,"is_disabled":false,"rental_uris":{"android":"levelo://app?vid=2f1ab682-82fd-4b0c-bc2e-e244b0ffb1c5","ios":"levelo://app?vid=2f1ab682-82fd-4b0c-bc2e-e244b0ffb1c5"},"vehicle_type_id":"4","last_reported":1698602903,"current_range_meters":19200,"station_id":"ce4bgt92rcd13ifvqcf0","pricing_plan_id":"free"},{"bike_id":"e2f61d63-c405-4660-bc9e-b18558c1d8e4","system_id":"levelo_inurba_marseille","lat":43.29938,"lon":5.36555,"is_reserved":false,"is_disabled":false,"rental_uris":{"android":"levelo://app?vid=e2f61d63-c405-4660-bc9e-b18558c1d8e4","ios":"levelo://app?vid=e2f61d63-c405-4660-bc9e-b18558c1d8e4"},"vehicle_type_id":"4","last_reported":1698602903,"current_range_meters":24400,"station_id":"ce4bgm92rcd13ifvqbr0","pricing_plan_id":"free"},{"bike_id":"5ba66772-20b6-408d-a6c3-0df1cd4bb678","system_id":"levelo_inurba_marseille","lat":43.3264,"lon":5.367334,"is_reserved":false,"is_disabled":false,"rental_uris":{"android":"levelo://app?vid=5ba66772-20b6-408d-a6c3-0df1cd4bb678","ios":"levelo://app?vid=5ba66772-20b6-408d-a6c3-0df1cd4bb678"},"vehicle_type_id":"4","last_reported":1698602903,"current_range_meters":13200,"station_id":"","pricing_plan_id":"free"},{"bike_id":"0b7abecb-8816-4956-8241-004e2a751b69","system_id":"levelo_inurba_marseille","lat":43.297794,"lon":5.370888,"is_reserved":false,"is_disabled":false,"rental_uris":{"android":"levelo://app?vid=0b7abecb-8816-4956-8241-004e2a751b69","ios":"levelo://app?vid=0b7abecb-8816-4956-8241-004e2a751b69"},"vehicle_type_id":"4","last_reported":1698602903,"current_range_meters":24800,"station_id":"ce4bgop2rcd13ifvqc1g","pricing_plan_id":"free"},{"bike_id":"b3d181f3-c3b9-423f-81bd-a550e8d17957","system_id":"levelo_inurba_marseille","lat":43.322872,"lon":5.382756,"is_reserved":false,"is_disabled":false,"rental_uris":{"android":"levelo://app?vid=b3d181f3-c3b9-423f-81bd-a550e8d17957","ios":"levelo://app?vid=b3d181f3-c3b9-423f-81bd-a550e8d17957"},"vehicle_type_id":"4","last_reported":1698602903,"current_range_meters":24000,"station_id":"ce4bhr12rcd13ifvqhqg","pricing_plan_id":"free"},{"bike_id":"2bf09692-7151-4aba-9fa7-8ce1d6106004","system_id":"levelo_inurba_marseille","lat":43.328303,"lon":5.366873,"is_reserved":false,"is_disabled":false,"rental_uris":{"android":"levelo://app?vid=2bf09692-7151-4aba-9fa7-8ce1d6106004","ios":"levelo://app?vid=2bf09692-7151-4aba-9fa7-8ce1d6106004"},"vehicle_type_id":"4","last_reported":1698602903,"current_range_meters":8400,"station_id":"","pricing_plan_id":"free"},{"bike_id":"98cdae56-93ed-4430-a8b5-f41663ddefc0","system_id":"levelo_inurba_marseille","lat":43.328371,"lon":5.366909,"is_reserved":false,"is_disabled":false,"rental_uris":{"android":"levelo://app?vid=98cdae56-93ed-4430-a8b5-f41663ddefc0","ios":"levelo://app?vid=98cdae56-93ed-4430-a8b5-f41663ddefc0"},"vehicle_type_id":"4","last_reported":1698602903,"current_range_meters":31200,"station_id":"ce4bhs92rcd13ifvqi0g","pricing_plan_id":"free"},{"bike_id":"86bb0a20-8123-4e0e-84f3-756c4bdb05df","system_id":"levelo_inurba_marseille","lat":43.32833,"lon":5.3669,"is_reserved":false,"is_disabled":false,"rental_uris":{"android":"levelo://app?vid=86bb0a20-8123-4e0e-84f3-756c4bdb05df","ios":"levelo://app?vid=86bb0a20-8123-4e0e-84f3-756c4bdb05df"},"vehicle_type_id":"4","last_reported":1698602903,"current_range_meters":19200,"station_id":"ce4bhs92rcd13ifvqi0g","pricing_plan_id":"free"},{"bike_id":"7058fde7-e208-4c67-9c3f-b8160ae07a6d","system_id":"levelo_inurba_marseille","lat":43.328371,"lon":5.366909,"is_reserved":false,"is_disabled":false,"rental_uris":{"android":"levelo://app?vid=7058fde7-e208-4c67-9c3f-b8160ae07a6d","ios":"levelo://app?vid=7058fde7-e208-4c67-9c3f-b8160ae07a6d"},"vehicle_type_id":"4","last_reported":1698602903,"current_range_meters":13200,"station_id":"ce4bhs92rcd13ifvqi0g","pricing_plan_id":"free"},{"bike_id":"0d79696e-ab1a-410b-853e-219d40c259df","system_id":"levelo_inurba_marseille","lat":43.29605,"lon":5.36947,"is_reserved":false,"is_disabled":false,"rental_uris":{"android":"levelo://app?vid=0d79696e-ab1a-410b-853e-219d40c259df","ios":"levelo://app?vid=0d79696e-ab1a-410b-853e-219d40c259df"},"vehicle_type_id":"4","last_reported":1698602903,"current_range_meters":14400,"station_id":"","pricing_plan_id":"free"},{"bike_id":"ef8f0eb5-a518-48ad-8234-9ad7fd9c0938","system_id":"levelo_inurba_marseille","lat":43.29573,"lon":5.367355,"is_reserved":false,"is_disabled":false,"rental_uris":{"android":"levelo://app?vid=ef8f0eb5-a518-48ad-8234-9ad7fd9c0938","ios":"levelo://app?vid=ef8f0eb5-a518-48ad-8234-9ad7fd9c0938"},"vehicle_type_id":"4","last_reported":1698602903,"current_range_meters":16800,"station_id":"ce4bgph2rcd13ifvqc2g","pricing_plan_id":"free"},{"bike_id":"444f7ff7-91b8-41f6-86bc-e694679d89bc","system_id":"levelo_inurba_marseille","lat":43.2958,"lon":5.36748,"is_reserved":false,"is_disabled":false,"rental_uris":{"android":"levelo://app?vid=444f7ff7-91b8-41f6-86bc-e694679d89bc","ios":"levelo://app?vid=444f7ff7-91b8-41f6-86bc-e694679d89bc"},"vehicle_type_id":"4","last_reported":1698602903,"current_range_meters":20000,"station_id":"ce4bgph2rcd13ifvqc2g","pricing_plan_id":"free"},{"bike_id":"dab6cd90-5915-4496-98eb-fb4478d47cd3","system_id":"levelo_inurba_marseille","lat":43.29579,"lon":5.36748,"is_reserved":false,"is_disabled":false,"rental_uris":{"android":"levelo://app?vid=dab6cd90-5915-4496-98eb-fb4478d47cd3","ios":"levelo://app?vid=dab6cd90-5915-4496-98eb-fb4478d47cd3"},"vehicle_type_id":"4","last_reported":1698602903,"current_range_meters":9200,"station_id":"ce4bgph2rcd13ifvqc2g","pricing_plan_id":"free"},{"bike_id":"f3d0381f-7a2d-409e-a12f-bd3d9095653d","system_id":"levelo_inurba_marseille","lat":43.329673,"lon":5.365468,"is_reserved":false,"is_disabled":false,"rental_uris":{"android":"levelo://app?vid=f3d0381f-7a2d-409e-a12f-bd3d9095653d","ios":"levelo://app?vid=f3d0381f-7a2d-409e-a12f-bd3d9095653d"},"vehicle_type_id":"4","last_reported":1698602903,"current_range_meters":400,"station_id":"","pricing_plan_id":"free"},{"bike_id":"55a475cc-f295-4980-96b0-2da367c855da","system_id":"levelo_inurba_marseille","lat":43.309589,"lon":5.390258,"is_reserved":false,"is_disabled":false,"rental_uris":{"android":"levelo://app?vid=55a475cc-f295-4980-96b0-2da367c855da","ios":"levelo://app?vid=55a475cc-f295-4980-96b0-2da367c855da"},"vehicle_type_id":"4","last_reported":1698602903,"current_range_meters":18400,"station_id":"ce4bgup2rcd13ifvqco0","pricing_plan_id":"free"},{"bike_id":"3a9ae6bb-4863-430e-917b-c1bbc4952bc5","system_id":"levelo_inurba_marseille","lat":43.317557,"lon":5.390173,"is_reserved":false,"is_disabled":false,"rental_uris":{"android":"levelo://app?vid=3a9ae6bb-4863-430e-917b-c1bbc4952bc5","ios":"levelo://app?vid=3a9ae6bb-4863-430e-917b-c1bbc4952bc5"},"vehicle_type_id":"4","last_reported":1698602903,"current_range_meters":24000,"station_id":"ce4bhqp2rcd13ifvqhng","pricing_plan_id":"free"},{"bike_id":"073bd740-98a8-40cb-bb82-4827a9e8c39a","system_id":"levelo_inurba_marseille","lat":43.317557,"lon":5.390173,"is_reserved":false,"is_disabled":false,"rental_uris":{"android":"levelo://app?vid=073bd740-98a8-40cb-bb82-4827a9e8c39a","ios":"levelo://app?vid=073bd740-98a8-40cb-bb82-4827a9e8c39a"},"vehicle_type_id":"4","last_reported":1698602903,"current_range_meters":24400,"station_id":"ce4bhqp2rcd13ifvqhng","pricing_plan_id":"free"},{"bike_id":"f359861f-8bf1-428b-ad6e-a0b08f4d23a6","system_id":"levelo_inurba_marseille","lat":43.298037,"lon":5.381066,"is_reserved":false,"is_disabled":false,"rental_uris":{"android":"levelo://app?vid=f359861f-8bf1-428b-ad6e-a0b08f4d23a6","ios":"levelo://app?vid=f359861f-8bf1-428b-ad6e-a0b08f4d23a6"},"vehicle_type_id":"4","last_reported":1698602903,"current_range_meters":27200,"station_id":"ce4bgip2rcd13ifvqbb0","pricing_plan_id":"free"},{"bike_id":"0f13925d-cf3f-4978-9fd2-a551c0b2262a","system_id":"levelo_inurba_marseille","lat":43.304278,"lon":5.388868,"is_reserved":false,"is_disabled":false,"rental_uris":{"android":"levelo://app?vid=0f13925d-cf3f-4978-9fd2-a551c0b2262a","ios":"levelo://app?vid=0f13925d-cf3f-4978-9fd2-a551c0b2262a"},"vehicle_type_id":"4","last_reported":1698602903,"current_range_meters":17200,"station_id":"ce4bgk12rcd13ifvqbi0","pricing_plan_id":"free"},{"bike_id":"9167e3f9-1cd0-4f11-bd12-534c8193831b","system_id":"levelo_inurba_marseille","lat":43.299707,"lon":5.384859,"is_reserved":false,"is_disabled":false,"rental_uris":{"android":"levelo://app?vid=9167e3f9-1cd0-4f11-bd12-534c8193831b","ios":"levelo://app?vid=9167e3f9-1cd0-4f11-bd12-534c8193831b"},"vehicle_type_id":"4","last_reported":1698602903,"current_range_meters":800,"station_id":"ce4bgj92rcd13ifvqbd0","pricing_plan_id":"free"},{"bike_id":"532b0a00-4b7d-4fc3-a264-7ca635f20e45","system_id":"levelo_inurba_marseille","lat":43.299707,"lon":5.384859,"is_reserved":false,"is_disabled":false,"rental_uris":{"android":"levelo://app?vid=532b0a00-4b7d-4fc3-a264-7ca635f20e45","ios":"levelo://app?vid=532b0a00-4b7d-4fc3-a264-7ca635f20e45"},"vehicle_type_id":"4","last_reported":1698602903,"current_range_meters":7600,"station_id":"ce4bgj92rcd13ifvqbd0","pricing_plan_id":"free"},{"bike_id":"bf2f856e-a296-43f9-a553-b9a6d1512452","system_id":"levelo_inurba_marseille","lat":43.299724,"lon":5.384848,"is_reserved":false,"is_disabled":false,"rental_uris":{"android":"levelo://app?vid=bf2f856e-a296-43f9-a553-b9a6d1512452","ios":"levelo://app?vid=bf2f856e-a296-43f9-a553-b9a6d1512452"},"vehicle_type_id":"4","last_reported":1698602903,"current_range_meters":24000,"station_id":"ce4bgj92rcd13ifvqbd0","pricing_plan_id":"free"},{"bike_id":"d1795163-94e5-4345-b58d-372a220ab98c","system_id":"levelo_inurba_marseille","lat":43.299707,"lon":5.384859,"is_reserved":false,"is_disabled":false,"rental_uris":{"android":"levelo://app?vid=d1795163-94e5-4345-b58d-372a220ab98c","ios":"levelo://app?vid=d1795163-94e5-4345-b58d-372a220ab98c"},"vehicle_type_id":"4","last_reported":1698602903,"current_range_meters":20400,"station_id":"ce4bgj92rcd13ifvqbd0","pricing_plan_id":"free"},{"bike_id":"42042886-55e0-4515-80cc-72ac2daa70ee","system_id":"levelo_inurba_marseille","lat":43.32367,"lon":5.38883,"is_reserved":false,"is_disabled":false,"rental_uris":{"android":"levelo://app?vid=42042886-55e0-4515-80cc-72ac2daa70ee","ios":"levelo://app?vid=42042886-55e0-4515-80cc-72ac2daa70ee"},"vehicle_type_id":"4","last_reported":1698602903,"current_range_meters":23200,"station_id":"ce4bhqp2rcd13ifvqhog","pricing_plan_id":"free"},{"bike_id":"69c2091a-23d7-43ed-8887-c48e3b5de6b2","system_id":"levelo_inurba_marseille","lat":43.32367,"lon":5.38884,"is_reserved":false,"is_disabled":false,"rental_uris":{"android":"levelo://app?vid=69c2091a-23d7-43ed-8887-c48e3b5de6b2","ios":"levelo://app?vid=69c2091a-23d7-43ed-8887-c48e3b5de6b2"},"vehicle_type_id":"4","last_reported":1698602903,"current_range_meters":10400,"station_id":"ce4bhqp2rcd13ifvqhog","pricing_plan_id":"free"},{"bike_id":"f7e6ce99-f44e-4f61-abbf-5caafabf52d7","system_id":"levelo_inurba_marseille","lat":43.293259,"lon":5.371586,"is_reserved":false,"is_disabled":false,"rental_uris":{"android":"levelo://app?vid=f7e6ce99-f44e-4f61-abbf-5caafabf52d7","ios":"levelo://app?vid=f7e6ce99-f44e-4f61-abbf-5caafabf52d7"},"vehicle_type_id":"4","last_reported":1698602903,"current_range_meters":8000,"station_id":"ce4bgh92rcd13ifvqb40","pricing_plan_id":"free"},{"bike_id":"13541381-a278-43e0-8612-8f2f0ca7951f","system_id":"levelo_inurba_marseille","lat":43.292964,"lon":5.374478,"is_reserved":false,"is_disabled":false,"rental_uris":{"android":"levelo://app?vid=13541381-a278-43e0-8612-8f2f0ca7951f","ios":"levelo://app?vid=13541381-a278-43e0-8612-8f2f0ca7951f"},"vehicle_type_id":"4","last_reported":1698602903,"current_range_meters":0,"station_id":"ce4bgi12rcd13ifvqb70","pricing_plan_id":"free"},{"bike_id":"dba6ba10-8ff1-45fb-acaa-ed8aec0d377a","system_id":"levelo_inurba_marseille","lat":43.305994,"lon":5.393687,"is_reserved":false,"is_disabled":false,"rental_uris":{"android":"levelo://app?vid=dba6ba10-8ff1-45fb-acaa-ed8aec0d377a","ios":"levelo://app?vid=dba6ba10-8ff1-45fb-acaa-ed8aec0d377a"},"vehicle_type_id":"4","last_reported":1698602903,"current_range_meters":22800,"station_id":"ce4bh0p2rcd13ifvqd80","pricing_plan_id":"free"},{"bike_id":"0a3a7ac5-6959-4f14-aa36-1be620914dfe","system_id":"levelo_inurba_marseille","lat":43.305994,"lon":5.393687,"is_reserved":false,"is_disabled":false,"rental_uris":{"android":"levelo://app?vid=0a3a7ac5-6959-4f14-aa36-1be620914dfe","ios":"levelo://app?vid=0a3a7ac5-6959-4f14-aa36-1be620914dfe"},"vehicle_type_id":"4","last_reported":1698602903,"current_range_meters":24400,"station_id":"ce4bh0p2rcd13ifvqd80","pricing_plan_id":"free"},{"bike_id":"415da393-e538-4509-be4b-6212c9e886d1","system_id":"levelo_inurba_marseille","lat":43.305994,"lon":5.393687,"is_reserved":false,"is_disabled":false,"rental_uris":{"android":"levelo://app?vid=415da393-e538-4509-be4b-6212c9e886d1","ios":"levelo://app?vid=415da393-e538-4509-be4b-6212c9e886d1"},"vehicle_type_id":"4","last_reported":1698602903,"current_range_meters":12400,"station_id":"ce4bh0p2rcd13ifvqd80","pricing_plan_id":"free"},{"bike_id":"254bbe81-7b1d-4241-a6cf-4d6d3ed94539","system_id":"levelo_inurba_marseille","lat":43.2936,"lon":5.37835,"is_reserved":false,"is_disabled":false,"rental_uris":{"android":"levelo://app?vid=254bbe81-7b1d-4241-a6cf-4d6d3ed94539","ios":"levelo://app?vid=254bbe81-7b1d-4241-a6cf-4d6d3ed94539"},"vehicle_type_id":"4","last_reported":1698602903,"current_range_meters":7600,"station_id":"ce4bgjh2rcd13ifvqbf0","pricing_plan_id":"free"},{"bike_id":"c07204b4-f723-4912-8fa9-002e74b629ba","system_id":"levelo_inurba_marseille","lat":43.2936,"lon":5.37835,"is_reserved":false,"is_disabled":false,"rental_uris":{"android":"levelo://app?vid=c07204b4-f723-4912-8fa9-002e74b629ba","ios":"levelo://app?vid=c07204b4-f723-4912-8fa9-002e74b629ba"},"vehicle_type_id":"4","last_reported":1698602903,"current_range_meters":6800,"station_id":"ce4bgjh2rcd13ifvqbf0","pricing_plan_id":"free"},{"bike_id":"a0ae654a-57ba-408c-b42e-006832132cc2","system_id":"levelo_inurba_marseille","lat":43.298764,"lon":5.388973,"is_reserved":false,"is_disabled":false,"rental_uris":{"android":"levelo://app?vid=a0ae654a-57ba-408c-b42e-006832132cc2","ios":"levelo://app?vid=a0ae654a-57ba-408c-b42e-006832132cc2"},"vehicle_type_id":"4","last_reported":1698602903,"current_range_meters":16400,"station_id":"ce4bh392rcd13ifvqdl0","pricing_plan_id":"free"},{"bike_id":"5d0c9fdd-950c-4dca-b3e0-9ab7f86cabf4","system_id":"levelo_inurba_marseille","lat":43.298764,"lon":5.388973,"is_reserved":false,"is_disabled":false,"rental_uris":{"android":"levelo://app?vid=5d0c9fdd-950c-4dca-b3e0-9ab7f86cabf4","ios":"levelo://app?vid=5d0c9fdd-950c-4dca-b3e0-9ab7f86cabf4"},"vehicle_type_id":"4","last_reported":1698602903,"current_range_meters":28800,"station_id":"ce4bh392rcd13ifvqdl0","pricing_plan_id":"free"},{"bike_id":"0f020703-01a7-4ba3-9852-2dc6c63d3dac","system_id":"levelo_inurba_marseille","lat":43.291675,"lon":5.371583,"is_reserved":false,"is_disabled":false,"rental_uris":{"android":"levelo://app?vid=0f020703-01a7-4ba3-9852-2dc6c63d3dac","ios":"levelo://app?vid=0f020703-01a7-4ba3-9852-2dc6c63d3dac"},"vehicle_type_id":"4","last_reported":1698602903,"current_range_meters":22400,"station_id":"ce4bha92rcd13ifvqeh0","pricing_plan_id":"free"},{"bike_id":"fa56774c-c342-40ef-ad0d-e96d81af31ed","system_id":"levelo_inurba_marseille","lat":43.291671,"lon":5.371575,"is_reserved":false,"is_disabled":false,"rental_uris":{"android":"levelo://app?vid=fa56774c-c342-40ef-ad0d-e96d81af31ed","ios":"levelo://app?vid=fa56774c-c342-40ef-ad0d-e96d81af31ed"},"vehicle_type_id":"4","last_reported":1698602903,"current_range_meters":4400,"station_id":"ce4bha92rcd13ifvqeh0","pricing_plan_id":"free"},{"bike_id":"0e8233d2-0d57-470f-8c07-e9f753046a4f","system_id":"levelo_inurba_marseille","lat":43.332197,"lon":5.379064,"is_reserved":false,"is_disabled":false,"rental_uris":{"android":"levelo://app?vid=0e8233d2-0d57-470f-8c07-e9f753046a4f","ios":"levelo://app?vid=0e8233d2-0d57-470f-8c07-e9f753046a4f"},"vehicle_type_id":"4","last_reported":1698602903,"current_range_meters":28400,"station_id":"","pricing_plan_id":"free"},{"bike_id":"a3de48bf-c1ad-4a4d-b60d-a1ecbfeb862b","system_id":"levelo_inurba_marseille","lat":43.291671,"lon":5.371575,"is_reserved":false,"is_disabled":false,"rental_uris":{"android":"levelo://app?vid=a3de48bf-c1ad-4a4d-b60d-a1ecbfeb862b","ios":"levelo://app?vid=a3de48bf-c1ad-4a4d-b60d-a1ecbfeb862b"},"vehicle_type_id":"4","last_reported":1698602903,"current_range_meters":28000,"station_id":"ce4bha92rcd13ifvqeh0","pricing_plan_id":"free"},{"bike_id":"1f580447-7b2c-4630-9a51-33e28281b372","system_id":"levelo_inurba_marseille","lat":43.332219,"lon":5.380002,"is_reserved":false,"is_disabled":false,"rental_uris":{"android":"levelo://app?vid=1f580447-7b2c-4630-9a51-33e28281b372","ios":"levelo://app?vid=1f580447-7b2c-4630-9a51-33e28281b372"},"vehicle_type_id":"4","last_reported":1698602903,"current_range_meters":31200,"station_id":"","pricing_plan_id":"free"},{"bike_id":"1ccea910-e6fd-4ade-beaa-d1141e72e330","system_id":"levelo_inurba_marseille","lat":43.313291,"lon":5.396838,"is_reserved":false,"is_disabled":false,"rental_uris":{"android":"levelo://app?vid=1ccea910-e6fd-4ade-beaa-d1141e72e330","ios":"levelo://app?vid=1ccea910-e6fd-4ade-beaa-d1141e72e330"},"vehicle_type_id":"4","last_reported":1698602903,"current_range_meters":17600,"station_id":"ce4bgvp2rcd13ifvqcu0","pricing_plan_id":"free"},{"bike_id":"9e186f55-d906-4b54-9553-eed70e222375","system_id":"levelo_inurba_marseille","lat":43.330989,"lon":5.385611,"is_reserved":false,"is_disabled":false,"rental_uris":{"android":"levelo://app?vid=9e186f55-d906-4b54-9553-eed70e222375","ios":"levelo://app?vid=9e186f55-d906-4b54-9553-eed70e222375"},"vehicle_type_id":"4","last_reported":1698602903,"current_range_meters":23600,"station_id":"","pricing_plan_id":"free"},{"bike_id":"61fe7648-f424-4083-ab55-d5d00cdb2efb","system_id":"levelo_inurba_marseille","lat":43.289184,"lon":5.366408,"is_reserved":false,"is_disabled":false,"rental_uris":{"android":"levelo://app?vid=61fe7648-f424-4083-ab55-d5d00cdb2efb","ios":"levelo://app?vid=61fe7648-f424-4083-ab55-d5d00cdb2efb"},"vehicle_type_id":"4","last_reported":1698602903,"current_range_meters":24800,"station_id":"ce4bhap2rcd13ifvqek0","pricing_plan_id":"free"},{"bike_id":"e40985d3-be74-4975-8a77-94d2366f0afc","system_id":"levelo_inurba_marseille","lat":43.289184,"lon":5.366408,"is_reserved":false,"is_disabled":false,"rental_uris":{"android":"levelo://app?vid=e40985d3-be74-4975-8a77-94d2366f0afc","ios":"levelo://app?vid=e40985d3-be74-4975-8a77-94d2366f0afc"},"vehicle_type_id":"4","last_reported":1698602903,"current_range_meters":6400,"station_id":"ce4bhap2rcd13ifvqek0","pricing_plan_id":"free"},{"bike_id":"dbc7f6b5-5d68-4780-81da-7e2187c6703c","system_id":"levelo_inurba_marseille","lat":43.289468,"lon":5.363719,"is_reserved":false,"is_disabled":false,"rental_uris":{"android":"levelo://app?vid=dbc7f6b5-5d68-4780-81da-7e2187c6703c","ios":"levelo://app?vid=dbc7f6b5-5d68-4780-81da-7e2187c6703c"},"vehicle_type_id":"4","last_reported":1698602903,"current_range_meters":0,"station_id":"ce4bhc92rcd13ifvqetg","pricing_plan_id":"free"},{"bike_id":"b8ecbbcc-4165-4bb1-b2af-1cc8fb517d02","system_id":"levelo_inurba_marseille","lat":43.292644,"lon":5.384257,"is_reserved":false,"is_disabled":false,"rental_uris":{"android":"levelo://app?vid=b8ecbbcc-4165-4bb1-b2af-1cc8fb517d02","ios":"levelo://app?vid=b8ecbbcc-4165-4bb1-b2af-1cc8fb517d02"},"vehicle_type_id":"4","last_reported":1698602903,"current_range_meters":2000,"station_id":"ce4bh692rcd13ifvqea0","pricing_plan_id":"free"},{"bike_id":"9c670a1d-2c88-4fb3-b332-07d7970f2b3b","system_id":"levelo_inurba_marseille","lat":43.292642,"lon":5.384254,"is_reserved":false,"is_disabled":false,"rental_uris":{"android":"levelo://app?vid=9c670a1d-2c88-4fb3-b332-07d7970f2b3b","ios":"levelo://app?vid=9c670a1d-2c88-4fb3-b332-07d7970f2b3b"},"vehicle_type_id":"4","last_reported":1698602903,"current_range_meters":800,"station_id":"ce4bh692rcd13ifvqea0","pricing_plan_id":"free"},{"bike_id":"d5d3925f-f867-4392-8d62-29b79e249aaa","system_id":"levelo_inurba_marseille","lat":43.330442,"lon":5.389148,"is_reserved":false,"is_disabled":false,"rental_uris":{"android":"levelo://app?vid=d5d3925f-f867-4392-8d62-29b79e249aaa","ios":"levelo://app?vid=d5d3925f-f867-4392-8d62-29b79e249aaa"},"vehicle_type_id":"4","last_reported":1698602903,"current_range_meters":21600,"station_id":"ce4bhr92rcd13ifvqhrg","pricing_plan_id":"free"},{"bike_id":"c10da6c2-beda-4ee6-b96c-ba5d86476fb1","system_id":"levelo_inurba_marseille","lat":43.330442,"lon":5.389148,"is_reserved":false,"is_disabled":false,"rental_uris":{"android":"levelo://app?vid=c10da6c2-beda-4ee6-b96c-ba5d86476fb1","ios":"levelo://app?vid=c10da6c2-beda-4ee6-b96c-ba5d86476fb1"},"vehicle_type_id":"4","last_reported":1698602903,"current_range_meters":18400,"station_id":"ce4bhr92rcd13ifvqhrg","pricing_plan_id":"free"},{"bike_id":"8ec8b72c-dd6f-469d-aee0-017da7f125f4","system_id":"levelo_inurba_marseille","lat":43.330442,"lon":5.389148,"is_reserved":false,"is_disabled":false,"rental_uris":{"android":"levelo://app?vid=8ec8b72c-dd6f-469d-aee0-017da7f125f4","ios":"levelo://app?vid=8ec8b72c-dd6f-469d-aee0-017da7f125f4"},"vehicle_type_id":"4","last_reported":1698602903,"current_range_meters":5600,"station_id":"ce4bhr92rcd13ifvqhrg","pricing_plan_id":"free"},{"bike_id":"58977360-b4c3-41e2-ad23-e48cce7d5fe8","system_id":"levelo_inurba_marseille","lat":43.290104,"lon":5.356111,"is_reserved":false,"is_disabled":false,"rental_uris":{"android":"levelo://app?vid=58977360-b4c3-41e2-ad23-e48cce7d5fe8","ios":"levelo://app?vid=58977360-b4c3-41e2-ad23-e48cce7d5fe8"},"vehicle_type_id":"4","last_reported":1698602903,"current_range_meters":15200,"station_id":"ce4bhb92rcd13ifvqen0","pricing_plan_id":"free"},{"bike_id":"b35af130-92b2-4e17-b0c2-fe9723c2c1b4","system_id":"levelo_inurba_marseille","lat":43.290995,"lon":5.381361,"is_reserved":false,"is_disabled":false,"rental_uris":{"android":"levelo://app?vid=b35af130-92b2-4e17-b0c2-fe9723c2c1b4","ios":"levelo://app?vid=b35af130-92b2-4e17-b0c2-fe9723c2c1b4"},"vehicle_type_id":"4","last_reported":1698602903,"current_range_meters":28000,"station_id":"ce4bh512rcd13ifvqe2g","pricing_plan_id":"free"},{"bike_id":"24bd9a5e-4f66-43c3-a33c-c8c9551f0435","system_id":"levelo_inurba_marseille","lat":43.231562,"lon":5.436933,"is_reserved":false,"is_disabled":false,"rental_uris":{"android":"levelo://app?vid=24bd9a5e-4f66-43c3-a33c-c8c9551f0435","ios":"levelo://app?vid=24bd9a5e-4f66-43c3-a33c-c8c9551f0435"},"vehicle_type_id":"4","last_reported":1698602903,"current_range_meters":12800,"station_id":"ce4bhmp2rcd13ifvqgog","pricing_plan_id":"free"},{"bike_id":"e0d713cd-ec81-44ec-8ba4-571dd76a2b05","system_id":"levelo_inurba_marseille","lat":43.295169,"lon":5.390426,"is_reserved":false,"is_disabled":false,"rental_uris":{"android":"levelo://app?vid=e0d713cd-ec81-44ec-8ba4-571dd76a2b05","ios":"levelo://app?vid=e0d713cd-ec81-44ec-8ba4-571dd76a2b05"},"vehicle_type_id":"4","last_reported":1698602903,"current_range_meters":23600,"station_id":"ce4bh3p2rcd13ifvqdp0","pricing_plan_id":"free"},{"bike_id":"af286a6d-d49b-4114-a047-9052cd19f331","system_id":"levelo_inurba_marseille","lat":43.297932,"lon":5.393519,"is_reserved":false,"is_disabled":false,"rental_uris":{"android":"levelo://app?vid=af286a6d-d49b-4114-a047-9052cd19f331","ios":"levelo://app?vid=af286a6d-d49b-4114-a047-9052cd19f331"},"vehicle_type_id":"4","last_reported":1698602903,"current_range_meters":0,"station_id":"chh1huq6cuj3fo74tm60","pricing_plan_id":"free"},{"bike_id":"02507735-6732-4b1e-9003-4d11a7a8e62b","system_id":"levelo_inurba_marseille","lat":43.289741,"lon":5.378306,"is_reserved":false,"is_disabled":false,"rental_uris":{"android":"levelo://app?vid=02507735-6732-4b1e-9003-4d11a7a8e62b","ios":"levelo://app?vid=02507735-6732-4b1e-9003-4d11a7a8e62b"},"vehicle_type_id":"4","last_reported":1698602903,"current_range_meters":9600,"station_id":"ce4bh9p2rcd13ifvqed0","pricing_plan_id":"free"},{"bike_id":"ea781725-560a-4e37-87bc-0fff72325b64","system_id":"levelo_inurba_marseille","lat":43.289741,"lon":5.378306,"is_reserved":false,"is_disabled":false,"rental_uris":{"android":"levelo://app?vid=ea781725-560a-4e37-87bc-0fff72325b64","ios":"levelo://app?vid=ea781725-560a-4e37-87bc-0fff72325b64"},"vehicle_type_id":"4","last_reported":1698602903,"current_range_meters":19200,"station_id":"ce4bh9p2rcd13ifvqed0","pricing_plan_id":"free"},{"bike_id":"cf299aaf-cd39-44ff-9494-d7d120889975","system_id":"levelo_inurba_marseille","lat":43.289,"lon":5.35836,"is_reserved":false,"is_disabled":false,"rental_uris":{"android":"levelo://app?vid=cf299aaf-cd39-44ff-9494-d7d120889975","ios":"levelo://app?vid=cf299aaf-cd39-44ff-9494-d7d120889975"},"vehicle_type_id":"4","last_reported":1698602903,"current_range_meters":9600,"station_id":"","pricing_plan_id":"free"},{"bike_id":"295a14db-c35f-48d4-99cd-ca2be175c50a","system_id":"levelo_inurba_marseille","lat":43.28847,"lon":5.35869,"is_reserved":false,"is_disabled":false,"rental_uris":{"android":"levelo://app?vid=295a14db-c35f-48d4-99cd-ca2be175c50a","ios":"levelo://app?vid=295a14db-c35f-48d4-99cd-ca2be175c50a"},"vehicle_type_id":"4","last_reported":1698602903,"current_range_meters":28000,"station_id":"","pricing_plan_id":"free"},{"bike_id":"c64b78bd-f336-4247-af9a-99f10fcbccbf","system_id":"levelo_inurba_marseille","lat":43.31274,"lon":5.40169,"is_reserved":false,"is_disabled":false,"rental_uris":{"android":"levelo://app?vid=c64b78bd-f336-4247-af9a-99f10fcbccbf","ios":"levelo://app?vid=c64b78bd-f336-4247-af9a-99f10fcbccbf"},"vehicle_type_id":"4","last_reported":1698602903,"current_range_meters":800,"station_id":"ce4bh092rcd13ifvqd30","pricing_plan_id":"free"},{"bike_id":"ffc3fe4d-9429-4086-94ef-8f19136b3b3f","system_id":"levelo_inurba_marseille","lat":43.33752,"lon":5.3745,"is_reserved":false,"is_disabled":false,"rental_uris":{"android":"levelo://app?vid=ffc3fe4d-9429-4086-94ef-8f19136b3b3f","ios":"levelo://app?vid=ffc3fe4d-9429-4086-94ef-8f19136b3b3f"},"vehicle_type_id":"4","last_reported":1698602903,"current_range_meters":29600,"station_id":"","pricing_plan_id":"free"},{"bike_id":"b231822a-119b-4312-911c-e2fb07219e92","system_id":"levelo_inurba_marseille","lat":43.337614,"lon":5.374606,"is_reserved":false,"is_disabled":false,"rental_uris":{"android":"levelo://app?vid=b231822a-119b-4312-911c-e2fb07219e92","ios":"levelo://app?vid=b231822a-119b-4312-911c-e2fb07219e92"},"vehicle_type_id":"4","last_reported":1698602903,"current_range_meters":27600,"station_id":"","pricing_plan_id":"free"},{"bike_id":"2c54dd1f-75a3-4905-9aaf-31ca0098dc8d","system_id":"levelo_inurba_marseille","lat":43.30139,"lon":5.39861,"is_reserved":false,"is_disabled":false,"rental_uris":{"android":"levelo://app?vid=2c54dd1f-75a3-4905-9aaf-31ca0098dc8d","ios":"levelo://app?vid=2c54dd1f-75a3-4905-9aaf-31ca0098dc8d"},"vehicle_type_id":"4","last_reported":1698602903,"current_range_meters":4000,"station_id":"ce4bh0h2rcd13ifvqd40","pricing_plan_id":"free"},{"bike_id":"f1b36c87-fb8c-495f-867b-cc200d46db50","system_id":"levelo_inurba_marseille","lat":43.301117,"lon":5.398795,"is_reserved":false,"is_disabled":false,"rental_uris":{"android":"levelo://app?vid=f1b36c87-fb8c-495f-867b-cc200d46db50","ios":"levelo://app?vid=f1b36c87-fb8c-495f-867b-cc200d46db50"},"vehicle_type_id":"4","last_reported":1698602903,"current_range_meters":2000,"station_id":"ce4bh0h2rcd13ifvqd40","pricing_plan_id":"free"},{"bike_id":"5bb8ccfc-86f7-420e-b65d-7e2d3e42d09b","system_id":"levelo_inurba_marseille","lat":43.28727,"lon":5.36078,"is_reserved":false,"is_disabled":false,"rental_uris":{"android":"levelo://app?vid=5bb8ccfc-86f7-420e-b65d-7e2d3e42d09b","ios":"levelo://app?vid=5bb8ccfc-86f7-420e-b65d-7e2d3e42d09b"},"vehicle_type_id":"4","last_reported":1698602903,"current_range_meters":29600,"station_id":"cki0cbj6b192h4jlfktg","pricing_plan_id":"free"},{"bike_id":"14443be1-274e-49ed-90f6-79cc8d514a0e","system_id":"levelo_inurba_marseille","lat":43.298681,"lon":5.397225,"is_reserved":false,"is_disabled":false,"rental_uris":{"android":"levelo://app?vid=14443be1-274e-49ed-90f6-79cc8d514a0e","ios":"levelo://app?vid=14443be1-274e-49ed-90f6-79cc8d514a0e"},"vehicle_type_id":"4","last_reported":1698602903,"current_range_meters":12400,"station_id":"ce4bh0h2rcd13ifvqd50","pricing_plan_id":"free"},{"bike_id":"a354bf3e-e716-452e-9d77-a6d1cc049c36","system_id":"levelo_inurba_marseille","lat":43.286961,"lon":5.373785,"is_reserved":false,"is_disabled":false,"rental_uris":{"android":"levelo://app?vid=a354bf3e-e716-452e-9d77-a6d1cc049c36","ios":"levelo://app?vid=a354bf3e-e716-452e-9d77-a6d1cc049c36"},"vehicle_type_id":"4","last_reported":1698602903,"current_range_meters":18800,"station_id":"ce4bh3p2rcd13ifvqdq0","pricing_plan_id":"free"},{"bike_id":"54b29d92-f251-4972-b777-effb5c1b1ee5","system_id":"levelo_inurba_marseille","lat":43.295196,"lon":5.39397,"is_reserved":false,"is_disabled":false,"rental_uris":{"android":"levelo://app?vid=54b29d92-f251-4972-b777-effb5c1b1ee5","ios":"levelo://app?vid=54b29d92-f251-4972-b777-effb5c1b1ee5"},"vehicle_type_id":"4","last_reported":1698602903,"current_range_meters":7600,"station_id":"ce4bh292rcd13ifvqdf0","pricing_plan_id":"free"},{"bike_id":"f4abbda3-33fa-43b6-b6d7-9ffefd9e8ac1","system_id":"levelo_inurba_marseille","lat":43.295196,"lon":5.39397,"is_reserved":false,"is_disabled":false,"rental_uris":{"android":"levelo://app?vid=f4abbda3-33fa-43b6-b6d7-9ffefd9e8ac1","ios":"levelo://app?vid=f4abbda3-33fa-43b6-b6d7-9ffefd9e8ac1"},"vehicle_type_id":"4","last_reported":1698602903,"current_range_meters":18000,"station_id":"ce4bh292rcd13ifvqdf0","pricing_plan_id":"free"},{"bike_id":"864cb494-bd50-43c4-96b7-48f139b3c1dc","system_id":"levelo_inurba_marseille","lat":43.286961,"lon":5.373785,"is_reserved":false,"is_disabled":false,"rental_uris":{"android":"levelo://app?vid=864cb494-bd50-43c4-96b7-48f139b3c1dc","ios":"levelo://app?vid=864cb494-bd50-43c4-96b7-48f139b3c1dc"},"vehicle_type_id":"4","last_reported":1698602903,"current_range_meters":9600,"station_id":"ce4bh3p2rcd13ifvqdq0","pricing_plan_id":"free"},{"bike_id":"f2215562-f181-4ffc-bcc4-59c62545f1eb","system_id":"levelo_inurba_marseille","lat":43.289307,"lon":5.38406,"is_reserved":false,"is_disabled":false,"rental_uris":{"android":"levelo://app?vid=f2215562-f181-4ffc-bcc4-59c62545f1eb","ios":"levelo://app?vid=f2215562-f181-4ffc-bcc4-59c62545f1eb"},"vehicle_type_id":"4","last_reported":1698602903,"current_range_meters":4800,"station_id":"ce4bh612rcd13ifvqe6g","pricing_plan_id":"free"},{"bike_id":"af800ffb-88fd-463b-98a6-c5a215ad676e","system_id":"levelo_inurba_marseille","lat":43.286039,"lon":5.370679,"is_reserved":false,"is_disabled":false,"rental_uris":{"android":"levelo://app?vid=af800ffb-88fd-463b-98a6-c5a215ad676e","ios":"levelo://app?vid=af800ffb-88fd-463b-98a6-c5a215ad676e"},"vehicle_type_id":"4","last_reported":1698602903,"current_range_meters":30800,"station_id":"ce4bht12rcd13ifvqi60","pricing_plan_id":"free"},{"bike_id":"56dce50a-5fce-48dc-a9f1-3e39a230c0d6","system_id":"levelo_inurba_marseille","lat":43.286039,"lon":5.370679,"is_reserved":false,"is_disabled":false,"rental_uris":{"android":"levelo://app?vid=56dce50a-5fce-48dc-a9f1-3e39a230c0d6","ios":"levelo://app?vid=56dce50a-5fce-48dc-a9f1-3e39a230c0d6"},"vehicle_type_id":"4","last_reported":1698602903,"current_range_meters":31200,"station_id":"ce4bht12rcd13ifvqi60","pricing_plan_id":"free"},{"bike_id":"7f5ba32e-ec6d-46c7-bce9-362d1a044c3e","system_id":"levelo_inurba_marseille","lat":43.287185,"lon":5.379373,"is_reserved":false,"is_disabled":false,"rental_uris":{"android":"levelo://app?vid=7f5ba32e-ec6d-46c7-bce9-362d1a044c3e","ios":"levelo://app?vid=7f5ba32e-ec6d-46c7-bce9-362d1a044c3e"},"vehicle_type_id":"4","last_reported":1698602903,"current_range_meters":5200,"station_id":"ce4bh9p2rcd13ifvqec0","pricing_plan_id":"free"},{"bike_id":"0172c1a3-9eaa-481c-bbc2-cac4d4da3b2e","system_id":"levelo_inurba_marseille","lat":43.287184,"lon":5.37937,"is_reserved":false,"is_disabled":false,"rental_uris":{"android":"levelo://app?vid=0172c1a3-9eaa-481c-bbc2-cac4d4da3b2e","ios":"levelo://app?vid=0172c1a3-9eaa-481c-bbc2-cac4d4da3b2e"},"vehicle_type_id":"4","last_reported":1698602903,"current_range_meters":12800,"station_id":"ce4bh9p2rcd13ifvqec0","pricing_plan_id":"free"},{"bike_id":"2749a08f-23be-479a-a030-4c9822e476c3","system_id":"levelo_inurba_marseille","lat":43.316517,"lon":5.404375,"is_reserved":false,"is_disabled":false,"rental_uris":{"android":"levelo://app?vid=2749a08f-23be-479a-a030-4c9822e476c3","ios":"levelo://app?vid=2749a08f-23be-479a-a030-4c9822e476c3"},"vehicle_type_id":"4","last_reported":1698602903,"current_range_meters":2800,"station_id":"ce4bh012rcd13ifvqd00","pricing_plan_id":"free"},{"bike_id":"307a362d-e3c2-4ad4-9774-79cc835b5b2c","system_id":"levelo_inurba_marseille","lat":43.291994,"lon":5.392907,"is_reserved":false,"is_disabled":false,"rental_uris":{"android":"levelo://app?vid=307a362d-e3c2-4ad4-9774-79cc835b5b2c","ios":"levelo://app?vid=307a362d-e3c2-4ad4-9774-79cc835b5b2c"},"vehicle_type_id":"4","last_reported":1698602903,"current_range_meters":12400,"station_id":"ce4bh192rcd13ifvqdd0","pricing_plan_id":"free"},{"bike_id":"0ddd6382-692c-4eee-a3d9-bd3ebe634655","system_id":"levelo_inurba_marseille","lat":43.291994,"lon":5.392907,"is_reserved":false,"is_disabled":false,"rental_uris":{"android":"levelo://app?vid=0ddd6382-692c-4eee-a3d9-bd3ebe634655","ios":"levelo://app?vid=0ddd6382-692c-4eee-a3d9-bd3ebe634655"},"vehicle_type_id":"4","last_reported":1698602903,"current_range_meters":24000,"station_id":"ce4bh192rcd13ifvqdd0","pricing_plan_id":"free"},{"bike_id":"856e79ec-2571-42cc-bc1e-2a645d76273e","system_id":"levelo_inurba_marseille","lat":43.28462,"lon":5.35883,"is_reserved":false,"is_disabled":false,"rental_uris":{"android":"levelo://app?vid=856e79ec-2571-42cc-bc1e-2a645d76273e","ios":"levelo://app?vid=856e79ec-2571-42cc-bc1e-2a645d76273e"},"vehicle_type_id":"4","last_reported":1698602903,"current_range_meters":20800,"station_id":"ce4bhah2rcd13ifvqei0","pricing_plan_id":"free"},{"bike_id":"e19ae2c0-d555-453a-a0f7-48b870e2e76d","system_id":"levelo_inurba_marseille","lat":43.285848,"lon":5.350787,"is_reserved":false,"is_disabled":false,"rental_uris":{"android":"levelo://app?vid=e19ae2c0-d555-453a-a0f7-48b870e2e76d","ios":"levelo://app?vid=e19ae2c0-d555-453a-a0f7-48b870e2e76d"},"vehicle_type_id":"4","last_reported":1698602903,"current_range_meters":13600,"station_id":"ce4bhch2rcd13ifvqeug","pricing_plan_id":"free"},{"bike_id":"221223a7-d328-4e18-a83a-462ac224d99f","system_id":"levelo_inurba_marseille","lat":43.28431,"lon":5.35801,"is_reserved":false,"is_disabled":false,"rental_uris":{"android":"levelo://app?vid=221223a7-d328-4e18-a83a-462ac224d99f","ios":"levelo://app?vid=221223a7-d328-4e18-a83a-462ac224d99f"},"vehicle_type_id":"4","last_reported":1698602903,"current_range_meters":4400,"station_id":"","pricing_plan_id":"free"},{"bike_id":"4fdb268d-38cf-4cad-929b-d569b625694f","system_id":"levelo_inurba_marseille","lat":43.283998,"lon":5.375062,"is_reserved":false,"is_disabled":false,"rental_uris":{"android":"levelo://app?vid=4fdb268d-38cf-4cad-929b-d569b625694f","ios":"levelo://app?vid=4fdb268d-38cf-4cad-929b-d569b625694f"},"vehicle_type_id":"4","last_reported":1698602903,"current_range_meters":12400,"station_id":"ce4bh412rcd13ifvqds0","pricing_plan_id":"free"},{"bike_id":"9e0329ab-49e1-49b0-9b28-599d23a94cda","system_id":"levelo_inurba_marseille","lat":43.283998,"lon":5.375062,"is_reserved":false,"is_disabled":false,"rental_uris":{"android":"levelo://app?vid=9e0329ab-49e1-49b0-9b28-599d23a94cda","ios":"levelo://app?vid=9e0329ab-49e1-49b0-9b28-599d23a94cda"},"vehicle_type_id":"4","last_reported":1698602903,"current_range_meters":9200,"station_id":"ce4bh412rcd13ifvqds0","pricing_plan_id":"free"},{"bike_id":"67e5f33b-0c41-4bb5-b4fb-cb1acaa38fa7","system_id":"levelo_inurba_marseille","lat":43.295713,"lon":5.399639,"is_reserved":false,"is_disabled":false,"rental_uris":{"android":"levelo://app?vid=67e5f33b-0c41-4bb5-b4fb-cb1acaa38fa7","ios":"levelo://app?vid=67e5f33b-0c41-4bb5-b4fb-cb1acaa38fa7"},"vehicle_type_id":"4","last_reported":1698602903,"current_range_meters":0,"station_id":"ce4bh312rcd13ifvqdj0","pricing_plan_id":"free"},{"bike_id":"5a086482-810c-47a5-8b89-c333726fcc4a","system_id":"levelo_inurba_marseille","lat":43.295713,"lon":5.399639,"is_reserved":false,"is_disabled":false,"rental_uris":{"android":"levelo://app?vid=5a086482-810c-47a5-8b89-c333726fcc4a","ios":"levelo://app?vid=5a086482-810c-47a5-8b89-c333726fcc4a"},"vehicle_type_id":"4","last_reported":1698602903,"current_range_meters":28000,"station_id":"ce4bh312rcd13ifvqdj0","pricing_plan_id":"free"},{"bike_id":"f1230381-a3d5-446c-adb1-01938784a542","system_id":"levelo_inurba_marseille","lat":43.286595,"lon":5.386795,"is_reserved":false,"is_disabled":false,"rental_uris":{"android":"levelo://app?vid=f1230381-a3d5-446c-adb1-01938784a542","ios":"levelo://app?vid=f1230381-a3d5-446c-adb1-01938784a542"},"vehicle_type_id":"4","last_reported":1698602903,"current_range_meters":24800,"station_id":"ce4bh492rcd13ifvqdug","pricing_plan_id":"free"},{"bike_id":"15bdef24-340e-4fcc-8b69-a97001c44759","system_id":"levelo_inurba_marseille","lat":43.340413,"lon":5.384749,"is_reserved":false,"is_disabled":false,"rental_uris":{"android":"levelo://app?vid=15bdef24-340e-4fcc-8b69-a97001c44759","ios":"levelo://app?vid=15bdef24-340e-4fcc-8b69-a97001c44759"},"vehicle_type_id":"4","last_reported":1698602903,"current_range_meters":31200,"station_id":"","pricing_plan_id":"free"},{"bike_id":"85296d45-ed05-4780-9731-e5d1c1d39fcc","system_id":"levelo_inurba_marseille","lat":43.284793,"lon":5.384119,"is_reserved":false,"is_disabled":false,"rental_uris":{"android":"levelo://app?vid=85296d45-ed05-4780-9731-e5d1c1d39fcc","ios":"levelo://app?vid=85296d45-ed05-4780-9731-e5d1c1d39fcc"},"vehicle_type_id":"4","last_reported":1698602903,"current_range_meters":20800,"station_id":"ce4bh512rcd13ifvqe3g","pricing_plan_id":"free"},{"bike_id":"d90c4f18-e20e-4972-8189-62b44c58ab7c","system_id":"levelo_inurba_marseille","lat":43.283494,"lon":5.380945,"is_reserved":false,"is_disabled":false,"rental_uris":{"android":"levelo://app?vid=d90c4f18-e20e-4972-8189-62b44c58ab7c","ios":"levelo://app?vid=d90c4f18-e20e-4972-8189-62b44c58ab7c"},"vehicle_type_id":"4","last_reported":1698602903,"current_range_meters":6400,"station_id":"ce4bh412rcd13ifvqdr0","pricing_plan_id":"free"},{"bike_id":"2f666bbb-190f-4291-ade2-95e2c0cfd815","system_id":"levelo_inurba_marseille","lat":43.325281,"lon":5.405683,"is_reserved":false,"is_disabled":false,"rental_uris":{"android":"levelo://app?vid=2f666bbb-190f-4291-ade2-95e2c0cfd815","ios":"levelo://app?vid=2f666bbb-190f-4291-ade2-95e2c0cfd815"},"vehicle_type_id":"4","last_reported":1698602903,"current_range_meters":13200,"station_id":"","pricing_plan_id":"free"},{"bike_id":"c12fe904-d164-40b6-a70a-2ddd07f10398","system_id":"levelo_inurba_marseille","lat":43.283494,"lon":5.380945,"is_reserved":false,"is_disabled":false,"rental_uris":{"android":"levelo://app?vid=c12fe904-d164-40b6-a70a-2ddd07f10398","ios":"levelo://app?vid=c12fe904-d164-40b6-a70a-2ddd07f10398"},"vehicle_type_id":"4","last_reported":1698602903,"current_range_meters":20400,"station_id":"ce4bh412rcd13ifvqdr0","pricing_plan_id":"free"},{"bike_id":"b5645271-8028-4698-b27e-243ec896acd1","system_id":"levelo_inurba_marseille","lat":43.283494,"lon":5.380945,"is_reserved":false,"is_disabled":false,"rental_uris":{"android":"levelo://app?vid=b5645271-8028-4698-b27e-243ec896acd1","ios":"levelo://app?vid=b5645271-8028-4698-b27e-243ec896acd1"},"vehicle_type_id":"4","last_reported":1698602903,"current_range_meters":20000,"station_id":"ce4bh412rcd13ifvqdr0","pricing_plan_id":"free"},{"bike_id":"ccd6364f-a4f5-401d-8e47-7f341440270b","system_id":"levelo_inurba_marseille","lat":43.283498,"lon":5.380948,"is_reserved":false,"is_disabled":false,"rental_uris":{"android":"levelo://app?vid=ccd6364f-a4f5-401d-8e47-7f341440270b","ios":"levelo://app?vid=ccd6364f-a4f5-401d-8e47-7f341440270b"},"vehicle_type_id":"4","last_reported":1698602903,"current_range_meters":25600,"station_id":"ce4bh412rcd13ifvqdr0","pricing_plan_id":"free"},{"bike_id":"c7ac1628-14e4-4548-bd45-6f91d98b9586","system_id":"levelo_inurba_marseille","lat":43.28352,"lon":5.350052,"is_reserved":false,"is_disabled":false,"rental_uris":{"android":"levelo://app?vid=c7ac1628-14e4-4548-bd45-6f91d98b9586","ios":"levelo://app?vid=c7ac1628-14e4-4548-bd45-6f91d98b9586"},"vehicle_type_id":"4","last_reported":1698602903,"current_range_meters":10800,"station_id":"","pricing_plan_id":"free"},{"bike_id":"261763e3-7492-4b38-95a3-2f8a193271b0","system_id":"levelo_inurba_marseille","lat":43.292724,"lon":5.401131,"is_reserved":false,"is_disabled":false,"rental_uris":{"android":"levelo://app?vid=261763e3-7492-4b38-95a3-2f8a193271b0","ios":"levelo://app?vid=261763e3-7492-4b38-95a3-2f8a193271b0"},"vehicle_type_id":"4","last_reported":1698602903,"current_range_meters":20000,"station_id":"ce4bh312rcd13ifvqdk0","pricing_plan_id":"free"},{"bike_id":"24932edb-0349-45f2-941d-22c765943eb8","system_id":"levelo_inurba_marseille","lat":43.283502,"lon":5.386471,"is_reserved":false,"is_disabled":false,"rental_uris":{"android":"levelo://app?vid=24932edb-0349-45f2-941d-22c765943eb8","ios":"levelo://app?vid=24932edb-0349-45f2-941d-22c765943eb8"},"vehicle_type_id":"4","last_reported":1698602903,"current_range_meters":2000,"station_id":"ce4bh492rcd13ifvqdvg","pricing_plan_id":"free"},{"bike_id":"e6b56964-523c-4523-b901-9f05cbc3a9c1","system_id":"levelo_inurba_marseille","lat":43.30365,"lon":5.40995,"is_reserved":false,"is_disabled":false,"rental_uris":{"android":"levelo://app?vid=e6b56964-523c-4523-b901-9f05cbc3a9c1","ios":"levelo://app?vid=e6b56964-523c-4523-b901-9f05cbc3a9c1"},"vehicle_type_id":"4","last_reported":1698602903,"current_range_meters":4000,"station_id":"","pricing_plan_id":"free"},{"bike_id":"075c6203-5dff-40ed-ba5a-e935da8a7d69","system_id":"levelo_inurba_marseille","lat":43.281044,"lon":5.378308,"is_reserved":false,"is_disabled":false,"rental_uris":{"android":"levelo://app?vid=075c6203-5dff-40ed-ba5a-e935da8a7d69","ios":"levelo://app?vid=075c6203-5dff-40ed-ba5a-e935da8a7d69"},"vehicle_type_id":"4","last_reported":1698602903,"current_range_meters":0,"station_id":"ce4bha12rcd13ifvqee0","pricing_plan_id":"free"},{"bike_id":"1ca242fe-6084-4f9b-8b54-35d465872844","system_id":"levelo_inurba_marseille","lat":43.290328,"lon":5.399711,"is_reserved":false,"is_disabled":false,"rental_uris":{"android":"levelo://app?vid=1ca242fe-6084-4f9b-8b54-35d465872844","ios":"levelo://app?vid=1ca242fe-6084-4f9b-8b54-35d465872844"},"vehicle_type_id":"4","last_reported":1698602903,"current_range_meters":21600,"station_id":"ce4bh392rcd13ifvqdm0","pricing_plan_id":"free"},{"bike_id":"d445e7dc-8f39-4198-8d15-1838ad42556e","system_id":"levelo_inurba_marseille","lat":43.296263,"lon":5.40601,"is_reserved":false,"is_disabled":false,"rental_uris":{"android":"levelo://app?vid=d445e7dc-8f39-4198-8d15-1838ad42556e","ios":"levelo://app?vid=d445e7dc-8f39-4198-8d15-1838ad42556e"},"vehicle_type_id":"4","last_reported":1698602903,"current_range_meters":20400,"station_id":"ce4bh0h2rcd13ifvqd60","pricing_plan_id":"free"},{"bike_id":"2ff4290a-953b-40dc-9c7e-2436150f81c2","system_id":"levelo_inurba_marseille","lat":43.281489,"lon":5.383486,"is_reserved":false,"is_disabled":false,"rental_uris":{"android":"levelo://app?vid=2ff4290a-953b-40dc-9c7e-2436150f81c2","ios":"levelo://app?vid=2ff4290a-953b-40dc-9c7e-2436150f81c2"},"vehicle_type_id":"4","last_reported":1698602903,"current_range_meters":3200,"station_id":"","pricing_plan_id":"free"},{"bike_id":"fdbecf5d-a9e3-4e3b-8684-0b7b1460ce9f","system_id":"levelo_inurba_marseille","lat":43.284462,"lon":5.392121,"is_reserved":false,"is_disabled":false,"rental_uris":{"android":"levelo://app?vid=fdbecf5d-a9e3-4e3b-8684-0b7b1460ce9f","ios":"levelo://app?vid=fdbecf5d-a9e3-4e3b-8684-0b7b1460ce9f"},"vehicle_type_id":"4","last_reported":1698602903,"current_range_meters":31200,"station_id":"ce4bhoh2rcd13ifvqh5g","pricing_plan_id":"free"},{"bike_id":"5b5181b4-2397-4f6a-8141-49310495e594","system_id":"levelo_inurba_marseille","lat":43.284462,"lon":5.392121,"is_reserved":false,"is_disabled":false,"rental_uris":{"android":"levelo://app?vid=5b5181b4-2397-4f6a-8141-49310495e594","ios":"levelo://app?vid=5b5181b4-2397-4f6a-8141-49310495e594"},"vehicle_type_id":"4","last_reported":1698602903,"current_range_meters":19600,"station_id":"ce4bhoh2rcd13ifvqh5g","pricing_plan_id":"free"},{"bike_id":"e398b43a-a9d6-4b16-83b7-a85a281d186a","system_id":"levelo_inurba_marseille","lat":43.284462,"lon":5.392121,"is_reserved":false,"is_disabled":false,"rental_uris":{"android":"levelo://app?vid=e398b43a-a9d6-4b16-83b7-a85a281d186a","ios":"levelo://app?vid=e398b43a-a9d6-4b16-83b7-a85a281d186a"},"vehicle_type_id":"4","last_reported":1698602903,"current_range_meters":27600,"station_id":"ce4bhoh2rcd13ifvqh5g","pricing_plan_id":"free"},{"bike_id":"5b145b5c-2448-4b06-ad7d-667870f368db","system_id":"levelo_inurba_marseille","lat":43.284378,"lon":5.391963,"is_reserved":false,"is_disabled":false,"rental_uris":{"android":"levelo://app?vid=5b145b5c-2448-4b06-ad7d-667870f368db","ios":"levelo://app?vid=5b145b5c-2448-4b06-ad7d-667870f368db"},"vehicle_type_id":"4","last_reported":1698602903,"current_range_meters":31200,"station_id":"ce4bhoh2rcd13ifvqh5g","pricing_plan_id":"free"},{"bike_id":"1c5609d0-b56c-455c-9e77-0a4ee3a176af","system_id":"levelo_inurba_marseille","lat":43.28433,"lon":5.39198,"is_reserved":false,"is_disabled":false,"rental_uris":{"android":"levelo://app?vid=1c5609d0-b56c-455c-9e77-0a4ee3a176af","ios":"levelo://app?vid=1c5609d0-b56c-455c-9e77-0a4ee3a176af"},"vehicle_type_id":"4","last_reported":1698602903,"current_range_meters":0,"station_id":"ce4bhoh2rcd13ifvqh5g","pricing_plan_id":"free"},{"bike_id":"daaac0e1-1214-49af-87ba-91c3eec4ca30","system_id":"levelo_inurba_marseille","lat":43.279742,"lon":5.38744,"is_reserved":false,"is_disabled":false,"rental_uris":{"android":"levelo://app?vid=daaac0e1-1214-49af-87ba-91c3eec4ca30","ios":"levelo://app?vid=daaac0e1-1214-49af-87ba-91c3eec4ca30"},"vehicle_type_id":"4","last_reported":1698602903,"current_range_meters":12000,"station_id":"ce4bhg12rcd13ifvqf80","pricing_plan_id":"free"},{"bike_id":"2965665d-6349-4fcc-8701-cbfa0691c654","system_id":"levelo_inurba_marseille","lat":43.320045,"lon":5.415046,"is_reserved":false,"is_disabled":false,"rental_uris":{"android":"levelo://app?vid=2965665d-6349-4fcc-8701-cbfa0691c654","ios":"levelo://app?vid=2965665d-6349-4fcc-8701-cbfa0691c654"},"vehicle_type_id":"4","last_reported":1698602903,"current_range_meters":7200,"station_id":"ce4bhq92rcd13ifvqhkg","pricing_plan_id":"free"},{"bike_id":"800fe916-581f-440f-86c8-a281e9324da6","system_id":"levelo_inurba_marseille","lat":43.279742,"lon":5.38744,"is_reserved":false,"is_disabled":false,"rental_uris":{"android":"levelo://app?vid=800fe916-581f-440f-86c8-a281e9324da6","ios":"levelo://app?vid=800fe916-581f-440f-86c8-a281e9324da6"},"vehicle_type_id":"4","last_reported":1698602903,"current_range_meters":15200,"station_id":"ce4bhg12rcd13ifvqf80","pricing_plan_id":"free"},{"bike_id":"df6e851a-9310-4695-8531-f79c81c74eec","system_id":"levelo_inurba_marseille","lat":43.279742,"lon":5.38744,"is_reserved":false,"is_disabled":false,"rental_uris":{"android":"levelo://app?vid=df6e851a-9310-4695-8531-f79c81c74eec","ios":"levelo://app?vid=df6e851a-9310-4695-8531-f79c81c74eec"},"vehicle_type_id":"4","last_reported":1698602903,"current_range_meters":25200,"station_id":"ce4bhg12rcd13ifvqf80","pricing_plan_id":"free"},{"bike_id":"2a63efe7-8c62-428d-9a62-94f16ecfb6d2","system_id":"levelo_inurba_marseille","lat":43.279742,"lon":5.38744,"is_reserved":false,"is_disabled":false,"rental_uris":{"android":"levelo://app?vid=2a63efe7-8c62-428d-9a62-94f16ecfb6d2","ios":"levelo://app?vid=2a63efe7-8c62-428d-9a62-94f16ecfb6d2"},"vehicle_type_id":"4","last_reported":1698602903,"current_range_meters":800,"station_id":"ce4bhg12rcd13ifvqf80","pricing_plan_id":"free"},{"bike_id":"f9818880-6a33-452c-9cd2-51f36e268b4d","system_id":"levelo_inurba_marseille","lat":43.27971,"lon":5.38738,"is_reserved":false,"is_disabled":false,"rental_uris":{"android":"levelo://app?vid=f9818880-6a33-452c-9cd2-51f36e268b4d","ios":"levelo://app?vid=f9818880-6a33-452c-9cd2-51f36e268b4d"},"vehicle_type_id":"4","last_reported":1698602903,"current_range_meters":0,"station_id":"ce4bhg12rcd13ifvqf80","pricing_plan_id":"free"},{"bike_id":"e1bbe6e1-f857-4c60-abae-ed4c3f3a8e7c","system_id":"levelo_inurba_marseille","lat":43.29265,"lon":5.40895,"is_reserved":false,"is_disabled":false,"rental_uris":{"android":"levelo://app?vid=e1bbe6e1-f857-4c60-abae-ed4c3f3a8e7c","ios":"levelo://app?vid=e1bbe6e1-f857-4c60-abae-ed4c3f3a8e7c"},"vehicle_type_id":"4","last_reported":1698602903,"current_range_meters":24800,"station_id":"ce4bh192rcd13ifvqdc0","pricing_plan_id":"free"},{"bike_id":"281dfe21-c886-44e6-88b3-3264f93ba32f","system_id":"levelo_inurba_marseille","lat":43.292569,"lon":5.409107,"is_reserved":false,"is_disabled":false,"rental_uris":{"android":"levelo://app?vid=281dfe21-c886-44e6-88b3-3264f93ba32f","ios":"levelo://app?vid=281dfe21-c886-44e6-88b3-3264f93ba32f"},"vehicle_type_id":"4","last_reported":1698602903,"current_range_meters":20400,"station_id":"ce4bh192rcd13ifvqdc0","pricing_plan_id":"free"},{"bike_id":"1764cfd1-66b6-48dc-9b5b-1e1bec41b51c","system_id":"levelo_inurba_marseille","lat":43.292569,"lon":5.409107,"is_reserved":false,"is_disabled":false,"rental_uris":{"android":"levelo://app?vid=1764cfd1-66b6-48dc-9b5b-1e1bec41b51c","ios":"levelo://app?vid=1764cfd1-66b6-48dc-9b5b-1e1bec41b51c"},"vehicle_type_id":"4","last_reported":1698602903,"current_range_meters":4400,"station_id":"ce4bh192rcd13ifvqdc0","pricing_plan_id":"free"},{"bike_id":"09844eb1-8469-46ad-a1be-6560f990d7b0","system_id":"levelo_inurba_marseille","lat":43.292569,"lon":5.409107,"is_reserved":false,"is_disabled":false,"rental_uris":{"android":"levelo://app?vid=09844eb1-8469-46ad-a1be-6560f990d7b0","ios":"levelo://app?vid=09844eb1-8469-46ad-a1be-6560f990d7b0"},"vehicle_type_id":"4","last_reported":1698602903,"current_range_meters":18400,"station_id":"ce4bh192rcd13ifvqdc0","pricing_plan_id":"free"},{"bike_id":"3aa7daa2-fed5-4779-b130-25a08b4fae62","system_id":"levelo_inurba_marseille","lat":43.292569,"lon":5.409107,"is_reserved":false,"is_disabled":false,"rental_uris":{"android":"levelo://app?vid=3aa7daa2-fed5-4779-b130-25a08b4fae62","ios":"levelo://app?vid=3aa7daa2-fed5-4779-b130-25a08b4fae62"},"vehicle_type_id":"4","last_reported":1698602903,"current_range_meters":5600,"station_id":"ce4bh192rcd13ifvqdc0","pricing_plan_id":"free"},{"bike_id":"f14571ff-112c-4931-a87f-679d48b5e961","system_id":"levelo_inurba_marseille","lat":43.292571,"lon":5.409107,"is_reserved":false,"is_disabled":false,"rental_uris":{"android":"levelo://app?vid=f14571ff-112c-4931-a87f-679d48b5e961","ios":"levelo://app?vid=f14571ff-112c-4931-a87f-679d48b5e961"},"vehicle_type_id":"4","last_reported":1698602903,"current_range_meters":6400,"station_id":"ce4bh192rcd13ifvqdc0","pricing_plan_id":"free"},{"bike_id":"824dabd4-c04b-427c-b708-965b48c96a3c","system_id":"levelo_inurba_marseille","lat":43.325233,"lon":5.414318,"is_reserved":false,"is_disabled":false,"rental_uris":{"android":"levelo://app?vid=824dabd4-c04b-427c-b708-965b48c96a3c","ios":"levelo://app?vid=824dabd4-c04b-427c-b708-965b48c96a3c"},"vehicle_type_id":"4","last_reported":1698602903,"current_range_meters":24000,"station_id":"ce4bhq12rcd13ifvqhhg","pricing_plan_id":"free"},{"bike_id":"2bcbba14-7b88-47fb-98d4-89ab9353ffc1","system_id":"levelo_inurba_marseille","lat":43.292571,"lon":5.409107,"is_reserved":false,"is_disabled":false,"rental_uris":{"android":"levelo://app?vid=2bcbba14-7b88-47fb-98d4-89ab9353ffc1","ios":"levelo://app?vid=2bcbba14-7b88-47fb-98d4-89ab9353ffc1"},"vehicle_type_id":"4","last_reported":1698602903,"current_range_meters":9200,"station_id":"ce4bh192rcd13ifvqdc0","pricing_plan_id":"free"},{"bike_id":"e06c6de6-378e-47d0-afbb-06f3a39ee2b0","system_id":"levelo_inurba_marseille","lat":43.325269,"lon":5.414571,"is_reserved":false,"is_disabled":false,"rental_uris":{"android":"levelo://app?vid=e06c6de6-378e-47d0-afbb-06f3a39ee2b0","ios":"levelo://app?vid=e06c6de6-378e-47d0-afbb-06f3a39ee2b0"},"vehicle_type_id":"4","last_reported":1698602903,"current_range_meters":30000,"station_id":"ce4bhq12rcd13ifvqhhg","pricing_plan_id":"free"},{"bike_id":"ab441268-3e03-4104-94cc-7705d60c6788","system_id":"levelo_inurba_marseille","lat":43.347892,"lon":5.348552,"is_reserved":false,"is_disabled":false,"rental_uris":{"android":"levelo://app?vid=ab441268-3e03-4104-94cc-7705d60c6788","ios":"levelo://app?vid=ab441268-3e03-4104-94cc-7705d60c6788"},"vehicle_type_id":"4","last_reported":1698602903,"current_range_meters":14800,"station_id":"","pricing_plan_id":"free"},{"bike_id":"b2543d2b-56d8-4021-85a1-fc9a60263d22","system_id":"levelo_inurba_marseille","lat":43.280784,"lon":5.396622,"is_reserved":false,"is_disabled":false,"rental_uris":{"android":"levelo://app?vid=b2543d2b-56d8-4021-85a1-fc9a60263d22","ios":"levelo://app?vid=b2543d2b-56d8-4021-85a1-fc9a60263d22"},"vehicle_type_id":"4","last_reported":1698602903,"current_range_meters":18800,"station_id":"ce4bho12rcd13ifvqh2g","pricing_plan_id":"free"},{"bike_id":"7355137c-421f-4b51-9647-e0a09deb2b90","system_id":"levelo_inurba_marseille","lat":43.336134,"lon":5.410341,"is_reserved":false,"is_disabled":false,"rental_uris":{"android":"levelo://app?vid=7355137c-421f-4b51-9647-e0a09deb2b90","ios":"levelo://app?vid=7355137c-421f-4b51-9647-e0a09deb2b90"},"vehicle_type_id":"4","last_reported":1698602903,"current_range_meters":1200,"station_id":"ce4bhqh2rcd13ifvqhmg","pricing_plan_id":"free"},{"bike_id":"5f874929-160a-40cb-a44d-5f9c58333be7","system_id":"levelo_inurba_marseille","lat":43.278399,"lon":5.392139,"is_reserved":false,"is_disabled":false,"rental_uris":{"android":"levelo://app?vid=5f874929-160a-40cb-a44d-5f9c58333be7","ios":"levelo://app?vid=5f874929-160a-40cb-a44d-5f9c58333be7"},"vehicle_type_id":"4","last_reported":1698602903,"current_range_meters":27600,"station_id":"ce4bhjp2rcd13ifvqga0","pricing_plan_id":"free"},{"bike_id":"8b8fb0f9-7655-4fa3-9df1-b9c9cd240ffb","system_id":"levelo_inurba_marseille","lat":43.278399,"lon":5.392139,"is_reserved":false,"is_disabled":false,"rental_uris":{"android":"levelo://app?vid=8b8fb0f9-7655-4fa3-9df1-b9c9cd240ffb","ios":"levelo://app?vid=8b8fb0f9-7655-4fa3-9df1-b9c9cd240ffb"},"vehicle_type_id":"4","last_reported":1698602903,"current_range_meters":16800,"station_id":"ce4bhjp2rcd13ifvqga0","pricing_plan_id":"free"},{"bike_id":"7bd09f97-ef65-4688-9e11-57365177a47c","system_id":"levelo_inurba_marseille","lat":43.278401,"lon":5.392152,"is_reserved":false,"is_disabled":false,"rental_uris":{"android":"levelo://app?vid=7bd09f97-ef65-4688-9e11-57365177a47c","ios":"levelo://app?vid=7bd09f97-ef65-4688-9e11-57365177a47c"},"vehicle_type_id":"4","last_reported":1698602903,"current_range_meters":31200,"station_id":"ce4bhjp2rcd13ifvqga0","pricing_plan_id":"free"},{"bike_id":"925d3cc4-2cb6-4e17-a960-7cbc3582dd05","system_id":"levelo_inurba_marseille","lat":43.275625,"lon":5.384392,"is_reserved":false,"is_disabled":false,"rental_uris":{"android":"levelo://app?vid=925d3cc4-2cb6-4e17-a960-7cbc3582dd05","ios":"levelo://app?vid=925d3cc4-2cb6-4e17-a960-7cbc3582dd05"},"vehicle_type_id":"4","last_reported":1698602903,"current_range_meters":29200,"station_id":"ce4bhh92rcd13ifvqfi0","pricing_plan_id":"free"},{"bike_id":"ad792d74-0fe0-4f28-8273-babb3dc4f382","system_id":"levelo_inurba_marseille","lat":43.273613,"lon":5.362705,"is_reserved":false,"is_disabled":false,"rental_uris":{"android":"levelo://app?vid=ad792d74-0fe0-4f28-8273-babb3dc4f382","ios":"levelo://app?vid=ad792d74-0fe0-4f28-8273-babb3dc4f382"},"vehicle_type_id":"4","last_reported":1698602903,"current_range_meters":0,"station_id":"ce4bhbh2rcd13ifvqeo0","pricing_plan_id":"free"},{"bike_id":"f8435ceb-e563-4969-b9b3-163941163ed4","system_id":"levelo_inurba_marseille","lat":43.275625,"lon":5.384392,"is_reserved":false,"is_disabled":false,"rental_uris":{"android":"levelo://app?vid=f8435ceb-e563-4969-b9b3-163941163ed4","ios":"levelo://app?vid=f8435ceb-e563-4969-b9b3-163941163ed4"},"vehicle_type_id":"4","last_reported":1698602903,"current_range_meters":22800,"station_id":"ce4bhh92rcd13ifvqfi0","pricing_plan_id":"free"},{"bike_id":"77d916b0-ab72-4009-a115-36f347b061f0","system_id":"levelo_inurba_marseille","lat":43.276819,"lon":5.388719,"is_reserved":false,"is_disabled":false,"rental_uris":{"android":"levelo://app?vid=77d916b0-ab72-4009-a115-36f347b061f0","ios":"levelo://app?vid=77d916b0-ab72-4009-a115-36f347b061f0"},"vehicle_type_id":"4","last_reported":1698602903,"current_range_meters":14800,"station_id":"ce4bhi12rcd13ifvqfo0","pricing_plan_id":"free"},{"bike_id":"a320372d-f1d0-4549-bb4d-c39bfcb07c60","system_id":"levelo_inurba_marseille","lat":43.275625,"lon":5.384392,"is_reserved":false,"is_disabled":false,"rental_uris":{"android":"levelo://app?vid=a320372d-f1d0-4549-bb4d-c39bfcb07c60","ios":"levelo://app?vid=a320372d-f1d0-4549-bb4d-c39bfcb07c60"},"vehicle_type_id":"4","last_reported":1698602903,"current_range_meters":3600,"station_id":"ce4bhh92rcd13ifvqfi0","pricing_plan_id":"free"},{"bike_id":"f9a74eec-e4ce-4d76-866e-f55b97a3552b","system_id":"levelo_inurba_marseille","lat":43.27662,"lon":5.38867,"is_reserved":false,"is_disabled":false,"rental_uris":{"android":"levelo://app?vid=f9a74eec-e4ce-4d76-866e-f55b97a3552b","ios":"levelo://app?vid=f9a74eec-e4ce-4d76-866e-f55b97a3552b"},"vehicle_type_id":"4","last_reported":1698602903,"current_range_meters":13600,"station_id":"ce4bhi12rcd13ifvqfo0","pricing_plan_id":"free"},{"bike_id":"a3774854-edb1-4579-a308-d7e225bb1db4","system_id":"levelo_inurba_marseille","lat":43.27668,"lon":5.38887,"is_reserved":false,"is_disabled":false,"rental_uris":{"android":"levelo://app?vid=a3774854-edb1-4579-a308-d7e225bb1db4","ios":"levelo://app?vid=a3774854-edb1-4579-a308-d7e225bb1db4"},"vehicle_type_id":"4","last_reported":1698602903,"current_range_meters":20800,"station_id":"ce4bhi12rcd13ifvqfo0","pricing_plan_id":"free"},{"bike_id":"5546c2b3-35eb-449f-9da5-1c154e6903a9","system_id":"levelo_inurba_marseille","lat":43.276771,"lon":5.388799,"is_reserved":false,"is_disabled":false,"rental_uris":{"android":"levelo://app?vid=5546c2b3-35eb-449f-9da5-1c154e6903a9","ios":"levelo://app?vid=5546c2b3-35eb-449f-9da5-1c154e6903a9"},"vehicle_type_id":"4","last_reported":1698602903,"current_range_meters":18000,"station_id":"ce4bhi12rcd13ifvqfo0","pricing_plan_id":"free"},{"bike_id":"f5194790-07b4-4bf0-887d-069edfe90125","system_id":"levelo_inurba_marseille","lat":43.276771,"lon":5.388799,"is_reserved":false,"is_disabled":false,"rental_uris":{"android":"levelo://app?vid=f5194790-07b4-4bf0-887d-069edfe90125","ios":"levelo://app?vid=f5194790-07b4-4bf0-887d-069edfe90125"},"vehicle_type_id":"4","last_reported":1698602903,"current_range_meters":800,"station_id":"ce4bhi12rcd13ifvqfo0","pricing_plan_id":"free"},{"bike_id":"01b14aaf-b7fc-41e8-b11c-f5f9ba41824f","system_id":"levelo_inurba_marseille","lat":43.275268,"lon":5.385779,"is_reserved":false,"is_disabled":false,"rental_uris":{"android":"levelo://app?vid=01b14aaf-b7fc-41e8-b11c-f5f9ba41824f","ios":"levelo://app?vid=01b14aaf-b7fc-41e8-b11c-f5f9ba41824f"},"vehicle_type_id":"4","last_reported":1698602903,"current_range_meters":5200,"station_id":"","pricing_plan_id":"free"},{"bike_id":"6e4d6780-3de4-4597-90ba-6d69401e2467","system_id":"levelo_inurba_marseille","lat":43.28,"lon":5.40014,"is_reserved":false,"is_disabled":false,"rental_uris":{"android":"levelo://app?vid=6e4d6780-3de4-4597-90ba-6d69401e2467","ios":"levelo://app?vid=6e4d6780-3de4-4597-90ba-6d69401e2467"},"vehicle_type_id":"4","last_reported":1698602903,"current_range_meters":24800,"station_id":"ce4bho92rcd13ifvqh4g","pricing_plan_id":"free"},{"bike_id":"ab4c105f-b95d-4588-b30a-4236f77815dc","system_id":"levelo_inurba_marseille","lat":43.310785,"lon":5.424305,"is_reserved":false,"is_disabled":false,"rental_uris":{"android":"levelo://app?vid=ab4c105f-b95d-4588-b30a-4236f77815dc","ios":"levelo://app?vid=ab4c105f-b95d-4588-b30a-4236f77815dc"},"vehicle_type_id":"4","last_reported":1698602903,"current_range_meters":17200,"station_id":"ce4bhp92rcd13ifvqhag","pricing_plan_id":"free"},{"bike_id":"d58dc1b0-a920-45a9-b8ae-bc43ae7fdaaf","system_id":"levelo_inurba_marseille","lat":43.31078,"lon":5.424331,"is_reserved":false,"is_disabled":false,"rental_uris":{"android":"levelo://app?vid=d58dc1b0-a920-45a9-b8ae-bc43ae7fdaaf","ios":"levelo://app?vid=d58dc1b0-a920-45a9-b8ae-bc43ae7fdaaf"},"vehicle_type_id":"4","last_reported":1698602903,"current_range_meters":12800,"station_id":"ce4bhp92rcd13ifvqhag","pricing_plan_id":"free"},{"bike_id":"86f65723-b777-4d58-a491-bfdd1582b465","system_id":"levelo_inurba_marseille","lat":43.340804,"lon":5.410219,"is_reserved":false,"is_disabled":false,"rental_uris":{"android":"levelo://app?vid=86f65723-b777-4d58-a491-bfdd1582b465","ios":"levelo://app?vid=86f65723-b777-4d58-a491-bfdd1582b465"},"vehicle_type_id":"4","last_reported":1698602903,"current_range_meters":19600,"station_id":"ce4bhqh2rcd13ifvqhlg","pricing_plan_id":"free"},{"bike_id":"10771e27-9dfa-483f-a879-18ff14f74247","system_id":"levelo_inurba_marseille","lat":43.310021,"lon":5.425067,"is_reserved":false,"is_disabled":false,"rental_uris":{"android":"levelo://app?vid=10771e27-9dfa-483f-a879-18ff14f74247","ios":"levelo://app?vid=10771e27-9dfa-483f-a879-18ff14f74247"},"vehicle_type_id":"4","last_reported":1698602903,"current_range_meters":0,"station_id":"","pricing_plan_id":"free"},{"bike_id":"23cb35ec-61e9-48ed-a056-1edb5a755a0f","system_id":"levelo_inurba_marseille","lat":43.27328,"lon":5.39073,"is_reserved":false,"is_disabled":false,"rental_uris":{"android":"levelo://app?vid=23cb35ec-61e9-48ed-a056-1edb5a755a0f","ios":"levelo://app?vid=23cb35ec-61e9-48ed-a056-1edb5a755a0f"},"vehicle_type_id":"4","last_reported":1698602903,"current_range_meters":7200,"station_id":"","pricing_plan_id":"free"},{"bike_id":"84f9407f-2af1-4943-91ea-becdd98ae278","system_id":"levelo_inurba_marseille","lat":43.27321,"lon":5.39072,"is_reserved":false,"is_disabled":false,"rental_uris":{"android":"levelo://app?vid=84f9407f-2af1-4943-91ea-becdd98ae278","ios":"levelo://app?vid=84f9407f-2af1-4943-91ea-becdd98ae278"},"vehicle_type_id":"4","last_reported":1698602903,"current_range_meters":0,"station_id":"","pricing_plan_id":"free"},{"bike_id":"4d6639f8-2661-410a-aa73-3e258182799f","system_id":"levelo_inurba_marseille","lat":43.27322,"lon":5.39082,"is_reserved":false,"is_disabled":false,"rental_uris":{"android":"levelo://app?vid=4d6639f8-2661-410a-aa73-3e258182799f","ios":"levelo://app?vid=4d6639f8-2661-410a-aa73-3e258182799f"},"vehicle_type_id":"4","last_reported":1698602903,"current_range_meters":0,"station_id":"","pricing_plan_id":"free"},{"bike_id":"67c5c40f-717c-4a16-b058-29bf312a59e2","system_id":"levelo_inurba_marseille","lat":43.274099,"lon":5.394019,"is_reserved":false,"is_disabled":false,"rental_uris":{"android":"levelo://app?vid=67c5c40f-717c-4a16-b058-29bf312a59e2","ios":"levelo://app?vid=67c5c40f-717c-4a16-b058-29bf312a59e2"},"vehicle_type_id":"4","last_reported":1698602903,"current_range_meters":18800,"station_id":"ce4bhdp2rcd13ifvqf20","pricing_plan_id":"free"},{"bike_id":"614001c8-2e37-43bf-a365-bc2dcaf1ccc1","system_id":"levelo_inurba_marseille","lat":43.27322,"lon":5.39087,"is_reserved":false,"is_disabled":false,"rental_uris":{"android":"levelo://app?vid=614001c8-2e37-43bf-a365-bc2dcaf1ccc1","ios":"levelo://app?vid=614001c8-2e37-43bf-a365-bc2dcaf1ccc1"},"vehicle_type_id":"4","last_reported":1698602903,"current_range_meters":9200,"station_id":"","pricing_plan_id":"free"},{"bike_id":"cc6b44c6-680f-4db7-999b-047cd44a75a1","system_id":"levelo_inurba_marseille","lat":43.273154,"lon":5.390798,"is_reserved":false,"is_disabled":false,"rental_uris":{"android":"levelo://app?vid=cc6b44c6-680f-4db7-999b-047cd44a75a1","ios":"levelo://app?vid=cc6b44c6-680f-4db7-999b-047cd44a75a1"},"vehicle_type_id":"4","last_reported":1698602903,"current_range_meters":22400,"station_id":"","pricing_plan_id":"free"},{"bike_id":"83142e0b-2d4a-41bd-a883-c4d9264eba37","system_id":"levelo_inurba_marseille","lat":43.27315,"lon":5.39083,"is_reserved":false,"is_disabled":false,"rental_uris":{"android":"levelo://app?vid=83142e0b-2d4a-41bd-a883-c4d9264eba37","ios":"levelo://app?vid=83142e0b-2d4a-41bd-a883-c4d9264eba37"},"vehicle_type_id":"4","last_reported":1698602903,"current_range_meters":0,"station_id":"","pricing_plan_id":"free"},{"bike_id":"e841a8a7-384d-44c9-bc41-75610f65b4d2","system_id":"levelo_inurba_marseille","lat":43.27429,"lon":5.39415,"is_reserved":false,"is_disabled":false,"rental_uris":{"android":"levelo://app?vid=e841a8a7-384d-44c9-bc41-75610f65b4d2","ios":"levelo://app?vid=e841a8a7-384d-44c9-bc41-75610f65b4d2"},"vehicle_type_id":"4","last_reported":1698602903,"current_range_meters":23200,"station_id":"ce4bhdp2rcd13ifvqf20","pricing_plan_id":"free"},{"bike_id":"8d62085c-d804-4a6f-b365-07e42ebe92e2","system_id":"levelo_inurba_marseille","lat":43.274099,"lon":5.394019,"is_reserved":false,"is_disabled":false,"rental_uris":{"android":"levelo://app?vid=8d62085c-d804-4a6f-b365-07e42ebe92e2","ios":"levelo://app?vid=8d62085c-d804-4a6f-b365-07e42ebe92e2"},"vehicle_type_id":"4","last_reported":1698602903,"current_range_meters":400,"station_id":"ce4bhdp2rcd13ifvqf20","pricing_plan_id":"free"},{"bike_id":"e42fa12b-5f51-4c7e-95cf-cd3272f28e0d","system_id":"levelo_inurba_marseille","lat":43.274099,"lon":5.394019,"is_reserved":false,"is_disabled":false,"rental_uris":{"android":"levelo://app?vid=e42fa12b-5f51-4c7e-95cf-cd3272f28e0d","ios":"levelo://app?vid=e42fa12b-5f51-4c7e-95cf-cd3272f28e0d"},"vehicle_type_id":"4","last_reported":1698602903,"current_range_meters":2400,"station_id":"ce4bhdp2rcd13ifvqf20","pricing_plan_id":"free"},{"bike_id":"be602fcc-d2a2-42e6-9c69-fd41466b95c5","system_id":"levelo_inurba_marseille","lat":43.27431,"lon":5.39423,"is_reserved":false,"is_disabled":false,"rental_uris":{"android":"levelo://app?vid=be602fcc-d2a2-42e6-9c69-fd41466b95c5","ios":"levelo://app?vid=be602fcc-d2a2-42e6-9c69-fd41466b95c5"},"vehicle_type_id":"4","last_reported":1698602903,"current_range_meters":0,"station_id":"ce4bhdp2rcd13ifvqf20","pricing_plan_id":"free"},{"bike_id":"922c6c9c-b342-4c7c-9b24-dfcbe88a348b","system_id":"levelo_inurba_marseille","lat":43.274099,"lon":5.394019,"is_reserved":false,"is_disabled":false,"rental_uris":{"android":"levelo://app?vid=922c6c9c-b342-4c7c-9b24-dfcbe88a348b","ios":"levelo://app?vid=922c6c9c-b342-4c7c-9b24-dfcbe88a348b"},"vehicle_type_id":"4","last_reported":1698602903,"current_range_meters":8000,"station_id":"ce4bhdp2rcd13ifvqf20","pricing_plan_id":"free"},{"bike_id":"ba5a85f8-ba44-47f0-95af-9735a0ee8207","system_id":"levelo_inurba_marseille","lat":43.27311,"lon":5.39084,"is_reserved":false,"is_disabled":false,"rental_uris":{"android":"levelo://app?vid=ba5a85f8-ba44-47f0-95af-9735a0ee8207","ios":"levelo://app?vid=ba5a85f8-ba44-47f0-95af-9735a0ee8207"},"vehicle_type_id":"4","last_reported":1698602903,"current_range_meters":10000,"station_id":"","pricing_plan_id":"free"},{"bike_id":"d6fa9332-a017-4d65-8265-a6f030253401","system_id":"levelo_inurba_marseille","lat":43.27425,"lon":5.39416,"is_reserved":false,"is_disabled":false,"rental_uris":{"android":"levelo://app?vid=d6fa9332-a017-4d65-8265-a6f030253401","ios":"levelo://app?vid=d6fa9332-a017-4d65-8265-a6f030253401"},"vehicle_type_id":"4","last_reported":1698602903,"current_range_meters":24400,"station_id":"ce4bhdp2rcd13ifvqf20","pricing_plan_id":"free"},{"bike_id":"8b4a316e-6581-4e3c-8acf-00a7890a6cd5","system_id":"levelo_inurba_marseille","lat":43.274099,"lon":5.394019,"is_reserved":false,"is_disabled":false,"rental_uris":{"android":"levelo://app?vid=8b4a316e-6581-4e3c-8acf-00a7890a6cd5","ios":"levelo://app?vid=8b4a316e-6581-4e3c-8acf-00a7890a6cd5"},"vehicle_type_id":"4","last_reported":1698602903,"current_range_meters":5600,"station_id":"ce4bhdp2rcd13ifvqf20","pricing_plan_id":"free"},{"bike_id":"5d79c836-a7cd-429b-b225-ec2e619eed11","system_id":"levelo_inurba_marseille","lat":43.274103,"lon":5.394016,"is_reserved":false,"is_disabled":false,"rental_uris":{"android":"levelo://app?vid=5d79c836-a7cd-429b-b225-ec2e619eed11","ios":"levelo://app?vid=5d79c836-a7cd-429b-b225-ec2e619eed11"},"vehicle_type_id":"4","last_reported":1698602903,"current_range_meters":20000,"station_id":"ce4bhdp2rcd13ifvqf20","pricing_plan_id":"free"},{"bike_id":"93329439-a98d-4241-a3e8-1439c5bfad54","system_id":"levelo_inurba_marseille","lat":43.303837,"lon":5.418724,"is_reserved":false,"is_disabled":false,"rental_uris":{"android":"levelo://app?vid=93329439-a98d-4241-a3e8-1439c5bfad54","ios":"levelo://app?vid=93329439-a98d-4241-a3e8-1439c5bfad54"},"vehicle_type_id":"4","last_reported":1698602903,"current_range_meters":2400,"station_id":"ce4bhop2rcd13ifvqh7g","pricing_plan_id":"free"},{"bike_id":"8a9505a0-6d47-4f9b-a10c-3422df363b99","system_id":"levelo_inurba_marseille","lat":43.274099,"lon":5.394019,"is_reserved":false,"is_disabled":false,"rental_uris":{"android":"levelo://app?vid=8a9505a0-6d47-4f9b-a10c-3422df363b99","ios":"levelo://app?vid=8a9505a0-6d47-4f9b-a10c-3422df363b99"},"vehicle_type_id":"4","last_reported":1698602903,"current_range_meters":16800,"station_id":"ce4bhdp2rcd13ifvqf20","pricing_plan_id":"free"},{"bike_id":"156ed918-7da1-4807-847b-8e5a9e7bb871","system_id":"levelo_inurba_marseille","lat":43.295511,"lon":5.422926,"is_reserved":false,"is_disabled":false,"rental_uris":{"android":"levelo://app?vid=156ed918-7da1-4807-847b-8e5a9e7bb871","ios":"levelo://app?vid=156ed918-7da1-4807-847b-8e5a9e7bb871"},"vehicle_type_id":"4","last_reported":1698602903,"current_range_meters":27600,"station_id":"ce4bhph2rcd13ifvqhdg","pricing_plan_id":"free"},{"bike_id":"291a32c9-e8fe-4c60-819c-bf8d640a2016","system_id":"levelo_inurba_marseille","lat":43.2936,"lon":5.37835,"is_reserved":false,"is_disabled":false,"rental_uris":{"android":"levelo://app?vid=291a32c9-e8fe-4c60-819c-bf8d640a2016","ios":"levelo://app?vid=291a32c9-e8fe-4c60-819c-bf8d640a2016"},"vehicle_type_id":"4","last_reported":1698602903,"current_range_meters":19200,"station_id":"ce4bgjh2rcd13ifvqbf0","pricing_plan_id":"free"},{"bike_id":"9f805cbd-16ac-4c3e-915b-9a60278b8585","system_id":"levelo_inurba_marseille","lat":43.295511,"lon":5.422926,"is_reserved":false,"is_disabled":false,"rental_uris":{"android":"levelo://app?vid=9f805cbd-16ac-4c3e-915b-9a60278b8585","ios":"levelo://app?vid=9f805cbd-16ac-4c3e-915b-9a60278b8585"},"vehicle_type_id":"4","last_reported":1698602903,"current_range_meters":28800,"station_id":"ce4bhph2rcd13ifvqhdg","pricing_plan_id":"free"},{"bike_id":"6059c653-f386-4885-b26e-de62a32d2ef7","system_id":"levelo_inurba_marseille","lat":43.278128,"lon":5.407195,"is_reserved":false,"is_disabled":false,"rental_uris":{"android":"levelo://app?vid=6059c653-f386-4885-b26e-de62a32d2ef7","ios":"levelo://app?vid=6059c653-f386-4885-b26e-de62a32d2ef7"},"vehicle_type_id":"4","last_reported":1698602903,"current_range_meters":18800,"station_id":"ce4bhnh2rcd13ifvqgtg","pricing_plan_id":"free"},{"bike_id":"024af663-315a-46bd-ac3e-0446ea6e494c","system_id":"levelo_inurba_marseille","lat":43.27811,"lon":5.407112,"is_reserved":false,"is_disabled":false,"rental_uris":{"android":"levelo://app?vid=024af663-315a-46bd-ac3e-0446ea6e494c","ios":"levelo://app?vid=024af663-315a-46bd-ac3e-0446ea6e494c"},"vehicle_type_id":"4","last_reported":1698602903,"current_range_meters":4000,"station_id":"ce4bhnh2rcd13ifvqgtg","pricing_plan_id":"free"},{"bike_id":"74c8b54c-41a6-48eb-99ab-eccb1ecdc63e","system_id":"levelo_inurba_marseille","lat":43.278128,"lon":5.407195,"is_reserved":false,"is_disabled":false,"rental_uris":{"android":"levelo://app?vid=74c8b54c-41a6-48eb-99ab-eccb1ecdc63e","ios":"levelo://app?vid=74c8b54c-41a6-48eb-99ab-eccb1ecdc63e"},"vehicle_type_id":"4","last_reported":1698602903,"current_range_meters":18800,"station_id":"ce4bhnh2rcd13ifvqgtg","pricing_plan_id":"free"},{"bike_id":"2f597f38-b828-491d-8fc2-99e3e227aba8","system_id":"levelo_inurba_marseille","lat":43.278128,"lon":5.407195,"is_reserved":false,"is_disabled":false,"rental_uris":{"android":"levelo://app?vid=2f597f38-b828-491d-8fc2-99e3e227aba8","ios":"levelo://app?vid=2f597f38-b828-491d-8fc2-99e3e227aba8"},"vehicle_type_id":"4","last_reported":1698602903,"current_range_meters":21200,"station_id":"ce4bhnh2rcd13ifvqgtg","pricing_plan_id":"free"},{"bike_id":"1680c852-be23-4927-8fba-a5c1ee4aa350","system_id":"levelo_inurba_marseille","lat":43.278128,"lon":5.407195,"is_reserved":false,"is_disabled":false,"rental_uris":{"android":"levelo://app?vid=1680c852-be23-4927-8fba-a5c1ee4aa350","ios":"levelo://app?vid=1680c852-be23-4927-8fba-a5c1ee4aa350"},"vehicle_type_id":"4","last_reported":1698602903,"current_range_meters":11600,"station_id":"ce4bhnh2rcd13ifvqgtg","pricing_plan_id":"free"},{"bike_id":"5f7c4483-c660-4903-92ec-fbe8070f5e4e","system_id":"levelo_inurba_marseille","lat":43.278128,"lon":5.407195,"is_reserved":false,"is_disabled":false,"rental_uris":{"android":"levelo://app?vid=5f7c4483-c660-4903-92ec-fbe8070f5e4e","ios":"levelo://app?vid=5f7c4483-c660-4903-92ec-fbe8070f5e4e"},"vehicle_type_id":"4","last_reported":1698602903,"current_range_meters":22800,"station_id":"ce4bhnh2rcd13ifvqgtg","pricing_plan_id":"free"},{"bike_id":"4f7cacc6-92f4-47aa-b88d-4137fe4b02af","system_id":"levelo_inurba_marseille","lat":43.278128,"lon":5.407195,"is_reserved":false,"is_disabled":false,"rental_uris":{"android":"levelo://app?vid=4f7cacc6-92f4-47aa-b88d-4137fe4b02af","ios":"levelo://app?vid=4f7cacc6-92f4-47aa-b88d-4137fe4b02af"},"vehicle_type_id":"4","last_reported":1698602903,"current_range_meters":22800,"station_id":"ce4bhnh2rcd13ifvqgtg","pricing_plan_id":"free"},{"bike_id":"f401c211-be4b-44c5-8b7e-97cecc8c0d83","system_id":"levelo_inurba_marseille","lat":43.278128,"lon":5.407195,"is_reserved":false,"is_disabled":false,"rental_uris":{"android":"levelo://app?vid=f401c211-be4b-44c5-8b7e-97cecc8c0d83","ios":"levelo://app?vid=f401c211-be4b-44c5-8b7e-97cecc8c0d83"},"vehicle_type_id":"4","last_reported":1698602903,"current_range_meters":4000,"station_id":"ce4bhnh2rcd13ifvqgtg","pricing_plan_id":"free"},{"bike_id":"4e6ebf58-483c-42b7-a6f9-407f6a986c6f","system_id":"levelo_inurba_marseille","lat":43.278128,"lon":5.407195,"is_reserved":false,"is_disabled":false,"rental_uris":{"android":"levelo://app?vid=4e6ebf58-483c-42b7-a6f9-407f6a986c6f","ios":"levelo://app?vid=4e6ebf58-483c-42b7-a6f9-407f6a986c6f"},"vehicle_type_id":"4","last_reported":1698602903,"current_range_meters":5600,"station_id":"ce4bhnh2rcd13ifvqgtg","pricing_plan_id":"free"},{"bike_id":"112600d2-7240-4ff5-86c5-2b0266440329","system_id":"levelo_inurba_marseille","lat":43.269467,"lon":5.386439,"is_reserved":false,"is_disabled":false,"rental_uris":{"android":"levelo://app?vid=112600d2-7240-4ff5-86c5-2b0266440329","ios":"levelo://app?vid=112600d2-7240-4ff5-86c5-2b0266440329"},"vehicle_type_id":"4","last_reported":1698602903,"current_range_meters":10800,"station_id":"ce4bhh92rcd13ifvqfh0","pricing_plan_id":"free"},{"bike_id":"a8ce3904-ced2-473b-ae81-9b9dfb7ed6d4","system_id":"levelo_inurba_marseille","lat":43.26955,"lon":5.386193,"is_reserved":false,"is_disabled":false,"rental_uris":{"android":"levelo://app?vid=a8ce3904-ced2-473b-ae81-9b9dfb7ed6d4","ios":"levelo://app?vid=a8ce3904-ced2-473b-ae81-9b9dfb7ed6d4"},"vehicle_type_id":"4","last_reported":1698602903,"current_range_meters":30400,"station_id":"ce4bhh92rcd13ifvqfh0","pricing_plan_id":"free"},{"bike_id":"a5df8098-7042-4523-a478-eb6b68c2961e","system_id":"levelo_inurba_marseille","lat":43.269467,"lon":5.386439,"is_reserved":false,"is_disabled":false,"rental_uris":{"android":"levelo://app?vid=a5df8098-7042-4523-a478-eb6b68c2961e","ios":"levelo://app?vid=a5df8098-7042-4523-a478-eb6b68c2961e"},"vehicle_type_id":"4","last_reported":1698602903,"current_range_meters":22400,"station_id":"ce4bhh92rcd13ifvqfh0","pricing_plan_id":"free"},{"bike_id":"a0eda30f-3f75-48d5-b59f-dd36b8ae5f89","system_id":"levelo_inurba_marseille","lat":43.269467,"lon":5.386439,"is_reserved":false,"is_disabled":false,"rental_uris":{"android":"levelo://app?vid=a0eda30f-3f75-48d5-b59f-dd36b8ae5f89","ios":"levelo://app?vid=a0eda30f-3f75-48d5-b59f-dd36b8ae5f89"},"vehicle_type_id":"4","last_reported":1698602903,"current_range_meters":2800,"station_id":"ce4bhh92rcd13ifvqfh0","pricing_plan_id":"free"},{"bike_id":"81ae53d0-075a-4f3b-bb4c-a7b54335c99e","system_id":"levelo_inurba_marseille","lat":43.269467,"lon":5.386439,"is_reserved":false,"is_disabled":false,"rental_uris":{"android":"levelo://app?vid=81ae53d0-075a-4f3b-bb4c-a7b54335c99e","ios":"levelo://app?vid=81ae53d0-075a-4f3b-bb4c-a7b54335c99e"},"vehicle_type_id":"4","last_reported":1698602903,"current_range_meters":31200,"station_id":"ce4bhh92rcd13ifvqfh0","pricing_plan_id":"free"},{"bike_id":"67b653d0-b626-43a2-812d-263edcbaebfc","system_id":"levelo_inurba_marseille","lat":43.278128,"lon":5.407195,"is_reserved":false,"is_disabled":false,"rental_uris":{"android":"levelo://app?vid=67b653d0-b626-43a2-812d-263edcbaebfc","ios":"levelo://app?vid=67b653d0-b626-43a2-812d-263edcbaebfc"},"vehicle_type_id":"4","last_reported":1698602903,"current_range_meters":12400,"station_id":"ce4bhnh2rcd13ifvqgtg","pricing_plan_id":"free"},{"bike_id":"2dcda059-f182-410c-bfac-93a86a84f604","system_id":"levelo_inurba_marseille","lat":43.26945,"lon":5.38629,"is_reserved":false,"is_disabled":false,"rental_uris":{"android":"levelo://app?vid=2dcda059-f182-410c-bfac-93a86a84f604","ios":"levelo://app?vid=2dcda059-f182-410c-bfac-93a86a84f604"},"vehicle_type_id":"4","last_reported":1698602903,"current_range_meters":28000,"station_id":"ce4bhh92rcd13ifvqfh0","pricing_plan_id":"free"},{"bike_id":"891e1734-0f2b-4304-8bd4-989a6a3bbdb4","system_id":"levelo_inurba_marseille","lat":43.279422,"lon":5.410429,"is_reserved":false,"is_disabled":false,"rental_uris":{"android":"levelo://app?vid=891e1734-0f2b-4304-8bd4-989a6a3bbdb4","ios":"levelo://app?vid=891e1734-0f2b-4304-8bd4-989a6a3bbdb4"},"vehicle_type_id":"4","last_reported":1698602903,"current_range_meters":21600,"station_id":"ce4bhnp2rcd13ifvqh0g","pricing_plan_id":"free"},{"bike_id":"582a1410-eae2-4e20-bd70-ebecfa57b367","system_id":"levelo_inurba_marseille","lat":43.279373,"lon":5.410475,"is_reserved":false,"is_disabled":false,"rental_uris":{"android":"levelo://app?vid=582a1410-eae2-4e20-bd70-ebecfa57b367","ios":"levelo://app?vid=582a1410-eae2-4e20-bd70-ebecfa57b367"},"vehicle_type_id":"4","last_reported":1698602903,"current_range_meters":21200,"station_id":"ce4bhnp2rcd13ifvqh0g","pricing_plan_id":"free"},{"bike_id":"0e3fb9a7-8838-47b2-8fd5-c536881775c3","system_id":"levelo_inurba_marseille","lat":43.269319,"lon":5.389397,"is_reserved":false,"is_disabled":false,"rental_uris":{"android":"levelo://app?vid=0e3fb9a7-8838-47b2-8fd5-c536881775c3","ios":"levelo://app?vid=0e3fb9a7-8838-47b2-8fd5-c536881775c3"},"vehicle_type_id":"4","last_reported":1698602903,"current_range_meters":20400,"station_id":"ce4bhhh2rcd13ifvqfl0","pricing_plan_id":"free"},{"bike_id":"8fd641c4-9f43-4d52-9033-7501961758d5","system_id":"levelo_inurba_marseille","lat":43.269319,"lon":5.389397,"is_reserved":false,"is_disabled":false,"rental_uris":{"android":"levelo://app?vid=8fd641c4-9f43-4d52-9033-7501961758d5","ios":"levelo://app?vid=8fd641c4-9f43-4d52-9033-7501961758d5"},"vehicle_type_id":"4","last_reported":1698602903,"current_range_meters":13600,"station_id":"ce4bhhh2rcd13ifvqfl0","pricing_plan_id":"free"},{"bike_id":"ef83e9fd-9279-4e60-98be-7900305a9eef","system_id":"levelo_inurba_marseille","lat":43.26934,"lon":5.38922,"is_reserved":false,"is_disabled":false,"rental_uris":{"android":"levelo://app?vid=ef83e9fd-9279-4e60-98be-7900305a9eef","ios":"levelo://app?vid=ef83e9fd-9279-4e60-98be-7900305a9eef"},"vehicle_type_id":"4","last_reported":1698602903,"current_range_meters":31200,"station_id":"ce4bhhh2rcd13ifvqfl0","pricing_plan_id":"free"},{"bike_id":"66a46cce-2509-423f-8e36-ccbf8c1330ab","system_id":"levelo_inurba_marseille","lat":43.269319,"lon":5.389397,"is_reserved":false,"is_disabled":false,"rental_uris":{"android":"levelo://app?vid=66a46cce-2509-423f-8e36-ccbf8c1330ab","ios":"levelo://app?vid=66a46cce-2509-423f-8e36-ccbf8c1330ab"},"vehicle_type_id":"4","last_reported":1698602903,"current_range_meters":21200,"station_id":"ce4bhhh2rcd13ifvqfl0","pricing_plan_id":"free"},{"bike_id":"e610933f-f657-4bb4-a514-3746cfe6b8b3","system_id":"levelo_inurba_marseille","lat":43.279918,"lon":5.41659,"is_reserved":false,"is_disabled":false,"rental_uris":{"android":"levelo://app?vid=e610933f-f657-4bb4-a514-3746cfe6b8b3","ios":"levelo://app?vid=e610933f-f657-4bb4-a514-3746cfe6b8b3"},"vehicle_type_id":"4","last_reported":1698602903,"current_range_meters":25600,"station_id":"ce4bho12rcd13ifvqh1g","pricing_plan_id":"free"},{"bike_id":"7a15c7db-c9cc-4eee-9084-924f56bc210e","system_id":"levelo_inurba_marseille","lat":43.26781,"lon":5.39417,"is_reserved":false,"is_disabled":false,"rental_uris":{"android":"levelo://app?vid=7a15c7db-c9cc-4eee-9084-924f56bc210e","ios":"levelo://app?vid=7a15c7db-c9cc-4eee-9084-924f56bc210e"},"vehicle_type_id":"4","last_reported":1698602903,"current_range_meters":24400,"station_id":"","pricing_plan_id":"free"},{"bike_id":"4adf8eb1-895c-4900-9c3a-9bfef46daf1e","system_id":"levelo_inurba_marseille","lat":43.26776,"lon":5.39415,"is_reserved":false,"is_disabled":false,"rental_uris":{"android":"levelo://app?vid=4adf8eb1-895c-4900-9c3a-9bfef46daf1e","ios":"levelo://app?vid=4adf8eb1-895c-4900-9c3a-9bfef46daf1e"},"vehicle_type_id":"4","last_reported":1698602903,"current_range_meters":26000,"station_id":"","pricing_plan_id":"free"},{"bike_id":"d42c0983-deff-4318-8840-7ebcadf7cff7","system_id":"levelo_inurba_marseille","lat":43.26778,"lon":5.39425,"is_reserved":false,"is_disabled":false,"rental_uris":{"android":"levelo://app?vid=d42c0983-deff-4318-8840-7ebcadf7cff7","ios":"levelo://app?vid=d42c0983-deff-4318-8840-7ebcadf7cff7"},"vehicle_type_id":"4","last_reported":1698602903,"current_range_meters":8800,"station_id":"","pricing_plan_id":"free"},{"bike_id":"2687313b-4537-4b0d-956b-7965a5770ee1","system_id":"levelo_inurba_marseille","lat":43.328212,"lon":5.431596,"is_reserved":false,"is_disabled":false,"rental_uris":{"android":"levelo://app?vid=2687313b-4537-4b0d-956b-7965a5770ee1","ios":"levelo://app?vid=2687313b-4537-4b0d-956b-7965a5770ee1"},"vehicle_type_id":"4","last_reported":1698602903,"current_range_meters":14800,"station_id":"","pricing_plan_id":"free"},{"bike_id":"1cb3f577-fb04-4e28-a15d-87951d1577d9","system_id":"levelo_inurba_marseille","lat":43.308051,"lon":5.43527,"is_reserved":false,"is_disabled":false,"rental_uris":{"android":"levelo://app?vid=1cb3f577-fb04-4e28-a15d-87951d1577d9","ios":"levelo://app?vid=1cb3f577-fb04-4e28-a15d-87951d1577d9"},"vehicle_type_id":"4","last_reported":1698602903,"current_range_meters":30800,"station_id":"ce4bhph2rcd13ifvqheg","pricing_plan_id":"free"},{"bike_id":"40fa2745-7f57-4361-8818-00d325cd7714","system_id":"levelo_inurba_marseille","lat":43.265571,"lon":5.390032,"is_reserved":false,"is_disabled":false,"rental_uris":{"android":"levelo://app?vid=40fa2745-7f57-4361-8818-00d325cd7714","ios":"levelo://app?vid=40fa2745-7f57-4361-8818-00d325cd7714"},"vehicle_type_id":"4","last_reported":1698602903,"current_range_meters":2800,"station_id":"ce4bhe12rcd13ifvqf30","pricing_plan_id":"free"},{"bike_id":"da4c5075-4c80-461e-b39e-4d85bad83db7","system_id":"levelo_inurba_marseille","lat":43.308051,"lon":5.43527,"is_reserved":false,"is_disabled":false,"rental_uris":{"android":"levelo://app?vid=da4c5075-4c80-461e-b39e-4d85bad83db7","ios":"levelo://app?vid=da4c5075-4c80-461e-b39e-4d85bad83db7"},"vehicle_type_id":"4","last_reported":1698602903,"current_range_meters":15600,"station_id":"ce4bhph2rcd13ifvqheg","pricing_plan_id":"free"},{"bike_id":"ce56f942-f540-46a3-af44-427e7947be87","system_id":"levelo_inurba_marseille","lat":43.308051,"lon":5.43527,"is_reserved":false,"is_disabled":false,"rental_uris":{"android":"levelo://app?vid=ce56f942-f540-46a3-af44-427e7947be87","ios":"levelo://app?vid=ce56f942-f540-46a3-af44-427e7947be87"},"vehicle_type_id":"4","last_reported":1698602903,"current_range_meters":20000,"station_id":"ce4bhph2rcd13ifvqheg","pricing_plan_id":"free"},{"bike_id":"9d286734-9b24-4990-8bab-6ef82e48fa34","system_id":"levelo_inurba_marseille","lat":43.265571,"lon":5.390032,"is_reserved":false,"is_disabled":false,"rental_uris":{"android":"levelo://app?vid=9d286734-9b24-4990-8bab-6ef82e48fa34","ios":"levelo://app?vid=9d286734-9b24-4990-8bab-6ef82e48fa34"},"vehicle_type_id":"4","last_reported":1698602903,"current_range_meters":2400,"station_id":"ce4bhe12rcd13ifvqf30","pricing_plan_id":"free"},{"bike_id":"77bd88b0-94d4-432b-ad78-b34f813520ea","system_id":"levelo_inurba_marseille","lat":43.26549,"lon":5.390031,"is_reserved":false,"is_disabled":false,"rental_uris":{"android":"levelo://app?vid=77bd88b0-94d4-432b-ad78-b34f813520ea","ios":"levelo://app?vid=77bd88b0-94d4-432b-ad78-b34f813520ea"},"vehicle_type_id":"4","last_reported":1698602903,"current_range_meters":2400,"station_id":"ce4bhe12rcd13ifvqf30","pricing_plan_id":"free"},{"bike_id":"2d46cc0c-65c6-4834-956d-7090ad78794e","system_id":"levelo_inurba_marseille","lat":43.265464,"lon":5.38994,"is_reserved":false,"is_disabled":false,"rental_uris":{"android":"levelo://app?vid=2d46cc0c-65c6-4834-956d-7090ad78794e","ios":"levelo://app?vid=2d46cc0c-65c6-4834-956d-7090ad78794e"},"vehicle_type_id":"4","last_reported":1698602903,"current_range_meters":5200,"station_id":"ce4bhe12rcd13ifvqf30","pricing_plan_id":"free"},{"bike_id":"efbbef42-b150-48eb-8784-926fdd2e78dc","system_id":"levelo_inurba_marseille","lat":43.26541,"lon":5.39001,"is_reserved":false,"is_disabled":false,"rental_uris":{"android":"levelo://app?vid=efbbef42-b150-48eb-8784-926fdd2e78dc","ios":"levelo://app?vid=efbbef42-b150-48eb-8784-926fdd2e78dc"},"vehicle_type_id":"4","last_reported":1698602903,"current_range_meters":29200,"station_id":"ce4bhe12rcd13ifvqf30","pricing_plan_id":"free"},{"bike_id":"0a7f1124-b58b-4c40-b935-9239885369b2","system_id":"levelo_inurba_marseille","lat":43.26944,"lon":5.40244,"is_reserved":false,"is_disabled":false,"rental_uris":{"android":"levelo://app?vid=0a7f1124-b58b-4c40-b935-9239885369b2","ios":"levelo://app?vid=0a7f1124-b58b-4c40-b935-9239885369b2"},"vehicle_type_id":"4","last_reported":1698602903,"current_range_meters":800,"station_id":"cjm6bp8fraef2m0cb0m0","pricing_plan_id":"free"},{"bike_id":"2efbead7-17b8-47d6-8277-ab0a1f685544","system_id":"levelo_inurba_marseille","lat":43.26943,"lon":5.40245,"is_reserved":false,"is_disabled":false,"rental_uris":{"android":"levelo://app?vid=2efbead7-17b8-47d6-8277-ab0a1f685544","ios":"levelo://app?vid=2efbead7-17b8-47d6-8277-ab0a1f685544"},"vehicle_type_id":"4","last_reported":1698602903,"current_range_meters":6000,"station_id":"cjm6bp8fraef2m0cb0m0","pricing_plan_id":"free"},{"bike_id":"7a08c77c-64e8-4e14-a396-f1901bbfa245","system_id":"levelo_inurba_marseille","lat":43.26944,"lon":5.40248,"is_reserved":false,"is_disabled":false,"rental_uris":{"android":"levelo://app?vid=7a08c77c-64e8-4e14-a396-f1901bbfa245","ios":"levelo://app?vid=7a08c77c-64e8-4e14-a396-f1901bbfa245"},"vehicle_type_id":"4","last_reported":1698602903,"current_range_meters":11600,"station_id":"cjm6bp8fraef2m0cb0m0","pricing_plan_id":"free"},{"bike_id":"e8d9dace-ecd0-4ffe-8c39-e7e75d6efc88","system_id":"levelo_inurba_marseille","lat":43.26943,"lon":5.40246,"is_reserved":false,"is_disabled":false,"rental_uris":{"android":"levelo://app?vid=e8d9dace-ecd0-4ffe-8c39-e7e75d6efc88","ios":"levelo://app?vid=e8d9dace-ecd0-4ffe-8c39-e7e75d6efc88"},"vehicle_type_id":"4","last_reported":1698602903,"current_range_meters":11200,"station_id":"cjm6bp8fraef2m0cb0m0","pricing_plan_id":"free"},{"bike_id":"c5399fd0-4745-42b4-944f-a1a361f3a078","system_id":"levelo_inurba_marseille","lat":43.26941,"lon":5.40246,"is_reserved":false,"is_disabled":false,"rental_uris":{"android":"levelo://app?vid=c5399fd0-4745-42b4-944f-a1a361f3a078","ios":"levelo://app?vid=c5399fd0-4745-42b4-944f-a1a361f3a078"},"vehicle_type_id":"4","last_reported":1698602903,"current_range_meters":11600,"station_id":"cjm6bp8fraef2m0cb0m0","pricing_plan_id":"free"},{"bike_id":"b99ad779-80a8-4a74-8e15-70d6e682dc34","system_id":"levelo_inurba_marseille","lat":43.26941,"lon":5.40253,"is_reserved":false,"is_disabled":false,"rental_uris":{"android":"levelo://app?vid=b99ad779-80a8-4a74-8e15-70d6e682dc34","ios":"levelo://app?vid=b99ad779-80a8-4a74-8e15-70d6e682dc34"},"vehicle_type_id":"4","last_reported":1698602903,"current_range_meters":20000,"station_id":"cjm6bp8fraef2m0cb0m0","pricing_plan_id":"free"},{"bike_id":"f14df3a5-7ed8-497d-b4b8-da9749a50fcf","system_id":"levelo_inurba_marseille","lat":43.26945,"lon":5.40263,"is_reserved":false,"is_disabled":false,"rental_uris":{"android":"levelo://app?vid=f14df3a5-7ed8-497d-b4b8-da9749a50fcf","ios":"levelo://app?vid=f14df3a5-7ed8-497d-b4b8-da9749a50fcf"},"vehicle_type_id":"4","last_reported":1698602903,"current_range_meters":23200,"station_id":"cjm6bp8fraef2m0cb0m0","pricing_plan_id":"free"},{"bike_id":"e8307789-194a-44a9-8285-6577ec54dcd3","system_id":"levelo_inurba_marseille","lat":43.26938,"lon":5.40259,"is_reserved":false,"is_disabled":false,"rental_uris":{"android":"levelo://app?vid=e8307789-194a-44a9-8285-6577ec54dcd3","ios":"levelo://app?vid=e8307789-194a-44a9-8285-6577ec54dcd3"},"vehicle_type_id":"4","last_reported":1698602903,"current_range_meters":2800,"station_id":"cjm6bp8fraef2m0cb0m0","pricing_plan_id":"free"},{"bike_id":"15cfd69d-94e0-4abd-a4e2-bc749bd2f09f","system_id":"levelo_inurba_marseille","lat":43.26938,"lon":5.4026,"is_reserved":false,"is_disabled":false,"rental_uris":{"android":"levelo://app?vid=15cfd69d-94e0-4abd-a4e2-bc749bd2f09f","ios":"levelo://app?vid=15cfd69d-94e0-4abd-a4e2-bc749bd2f09f"},