{"last_updated":1722096605,"ttl":30,"version":"2.2","data":{"bikes":[{"bike_id":"93aeb3f4-3377-4e23-aeec-87c259dc61c6","system_id":"levelo_inurba_marseille","lat":43.31225,"lon":5.36861,"is_reserved":false,"is_disabled":false,"rental_uris":{"android":"levelo://app?vid=93aeb3f4-3377-4e23-aeec-87c259dc61c6","ios":"levelo://app?vid=93aeb3f4-3377-4e23-aeec-87c259dc61c6"},"vehicle_type_id":"4","last_reported":1722096606,"current_range_meters":17200,"station_id":"ce4bgl92rcd13ifvqbq0","pricing_plan_id":"cebpf4jnsgd1na2vs0mg"},{"bike_id":"240ee29f-f7d3-4d4b-9075-9d240e59d35e","system_id":"levelo_inurba_marseille","lat":43.309076,"lon":5.368465,"is_reserved":false,"is_disabled":false,"rental_uris":{"android":"levelo://app?vid=240ee29f-f7d3-4d4b-9075-9d240e59d35e","ios":"levelo://app?vid=240ee29f-f7d3-4d4b-9075-9d240e59d35e"},"vehicle_type_id":"4","last_reported":1722096606,"current_range_meters":14000,"station_id":"ce4bgn92rcd13ifvqbvg","pricing_plan_id":"cebpf4jnsgd1na2vs0mg"},{"bike_id":"2b0e7ecd-a3c1-4622-821a-866272f8f265","system_id":"levelo_inurba_marseille","lat":43.309076,"lon":5.368465,"is_reserved":false,"is_disabled":false,"rental_uris":{"android":"levelo://app?vid=2b0e7ecd-a3c1-4622-821a-866272f8f265","ios":"levelo://app?vid=2b0e7ecd-a3c1-4622-821a-866272f8f265"},"vehicle_type_id":"4","last_reported":1722096606,"current_range_meters":26000,"station_id":"ce4bgn92rcd13ifvqbvg","pricing_plan_id":"cebpf4jnsgd1na2vs0mg"},{"bike_id":"1ef70904-19f5-42a7-a1bd-fa2d73cdcab5","system_id":"levelo_inurba_marseille","lat":43.316737,"lon":5.374761,"is_reserved":false,"is_disabled":false,"rental_uris":{"android":"levelo://app?vid=1ef70904-19f5-42a7-a1bd-fa2d73cdcab5","ios":"levelo://app?vid=1ef70904-19f5-42a7-a1bd-fa2d73cdcab5"},"vehicle_type_id":"4","last_reported":1722096606,"current_range_meters":0,"station_id":"","pricing_plan_id":"cebpf4jnsgd1na2vs0mg"},{"bike_id":"d9006f68-b0b2-4066-beb1-fd35c0a77fbb","system_id":"levelo_inurba_marseille","lat":43.305706,"lon":5.365654,"is_reserved":false,"is_disabled":false,"rental_uris":{"android":"levelo://app?vid=d9006f68-b0b2-4066-beb1-fd35c0a77fbb","ios":"levelo://app?vid=d9006f68-b0b2-4066-beb1-fd35c0a77fbb"},"vehicle_type_id":"4","last_reported":1722096606,"current_range_meters":11600,"station_id":"ce4bgs12rcd13ifvqcag","pricing_plan_id":"cebpf4jnsgd1na2vs0mg"},{"bike_id":"d03dd19a-e4f7-4052-89be-4a7037050b33","system_id":"levelo_inurba_marseille","lat":43.305712,"lon":5.365641,"is_reserved":false,"is_disabled":false,"rental_uris":{"android":"levelo://app?vid=d03dd19a-e4f7-4052-89be-4a7037050b33","ios":"levelo://app?vid=d03dd19a-e4f7-4052-89be-4a7037050b33"},"vehicle_type_id":"4","last_reported":1722096606,"current_range_meters":3600,"station_id":"ce4bgs12rcd13ifvqcag","pricing_plan_id":"cebpf4jnsgd1na2vs0mg"},{"bike_id":"62aa79bb-71a6-4a87-9048-3c9fdf5a2488","system_id":"levelo_inurba_marseille","lat":43.30542,"lon":5.36553,"is_reserved":false,"is_disabled":false,"rental_uris":{"android":"levelo://app?vid=62aa79bb-71a6-4a87-9048-3c9fdf5a2488","ios":"levelo://app?vid=62aa79bb-71a6-4a87-9048-3c9fdf5a2488"},"vehicle_type_id":"4","last_reported":1722096606,"current_range_meters":26400,"station_id":"ce4bgs12rcd13ifvqcag","pricing_plan_id":"cebpf4jnsgd1na2vs0mg"},{"bike_id":"ef7b2f7d-1386-45e7-8842-bd3e858f7ce3","system_id":"levelo_inurba_marseille","lat":43.305714,"lon":5.365633,"is_reserved":false,"is_disabled":false,"rental_uris":{"android":"levelo://app?vid=ef7b2f7d-1386-45e7-8842-bd3e858f7ce3","ios":"levelo://app?vid=ef7b2f7d-1386-45e7-8842-bd3e858f7ce3"},"vehicle_type_id":"4","last_reported":1722096606,"current_range_meters":4000,"station_id":"ce4bgs12rcd13ifvqcag","pricing_plan_id":"cebpf4jnsgd1na2vs0mg"},{"bike_id":"1f6bf336-7cfd-4a08-ba23-279d61196a73","system_id":"levelo_inurba_marseille","lat":43.305989,"lon":5.37225,"is_reserved":false,"is_disabled":false,"rental_uris":{"android":"levelo://app?vid=1f6bf336-7cfd-4a08-ba23-279d61196a73","ios":"levelo://app?vid=1f6bf336-7cfd-4a08-ba23-279d61196a73"},"vehicle_type_id":"4","last_reported":1722096606,"current_range_meters":0,"station_id":"ce4bgqh2rcd13ifvqc4g","pricing_plan_id":"cebpf4jnsgd1na2vs0mg"},{"bike_id":"7c9380db-e8d4-4563-84b8-bd0e1d5437f5","system_id":"levelo_inurba_marseille","lat":43.30537,"lon":5.367345,"is_reserved":false,"is_disabled":false,"rental_uris":{"android":"levelo://app?vid=7c9380db-e8d4-4563-84b8-bd0e1d5437f5","ios":"levelo://app?vid=7c9380db-e8d4-4563-84b8-bd0e1d5437f5"},"vehicle_type_id":"4","last_reported":1722096606,"current_range_meters":17200,"station_id":"ce4bgrp2rcd13ifvqc9g","pricing_plan_id":"cebpf4jnsgd1na2vs0mg"},{"bike_id":"3bad92ae-da31-4db1-966f-e43262d6f256","system_id":"levelo_inurba_marseille","lat":43.30791,"lon":5.37652,"is_reserved":false,"is_disabled":false,"rental_uris":{"android":"levelo://app?vid=3bad92ae-da31-4db1-966f-e43262d6f256","ios":"levelo://app?vid=3bad92ae-da31-4db1-966f-e43262d6f256"},"vehicle_type_id":"4","last_reported":1722096606,"current_range_meters":2000,"station_id":"ce4bgv92rcd13ifvqcq0","pricing_plan_id":"cebpf4jnsgd1na2vs0mg"},{"bike_id":"b1106245-2248-489d-a174-e879c3f6edd6","system_id":"levelo_inurba_marseille","lat":43.317075,"lon":5.377367,"is_reserved":false,"is_disabled":false,"rental_uris":{"android":"levelo://app?vid=b1106245-2248-489d-a174-e879c3f6edd6","ios":"levelo://app?vid=b1106245-2248-489d-a174-e879c3f6edd6"},"vehicle_type_id":"4","last_reported":1722096606,"current_range_meters":14400,"station_id":"ce4bgth2rcd13ifvqch0","pricing_plan_id":"cebpf4jnsgd1na2vs0mg"},{"bike_id":"4f695003-ff87-46c8-b66a-e9d40cf720a1","system_id":"levelo_inurba_marseille","lat":43.315289,"lon":5.380349,"is_reserved":false,"is_disabled":false,"rental_uris":{"android":"levelo://app?vid=4f695003-ff87-46c8-b66a-e9d40cf720a1","ios":"levelo://app?vid=4f695003-ff87-46c8-b66a-e9d40cf720a1"},"vehicle_type_id":"4","last_reported":1722096606,"current_range_meters":31200,"station_id":"ce4bhsp2rcd13ifvqi50","pricing_plan_id":"cebpf4jnsgd1na2vs0mg"},{"bike_id":"4f536b57-37aa-4ba7-b342-13efcfb28a02","system_id":"levelo_inurba_marseille","lat":43.301939,"lon":5.366286,"is_reserved":false,"is_disabled":false,"rental_uris":{"android":"levelo://app?vid=4f536b57-37aa-4ba7-b342-13efcfb28a02","ios":"levelo://app?vid=4f536b57-37aa-4ba7-b342-13efcfb28a02"},"vehicle_type_id":"4","last_reported":1722096606,"current_range_meters":0,"station_id":"ce4bgrh2rcd13ifvqc8g","pricing_plan_id":"cebpf4jnsgd1na2vs0mg"},{"bike_id":"4ab04dbf-a858-4a28-bf5a-d34f725fad62","system_id":"levelo_inurba_marseille","lat":43.301939,"lon":5.366286,"is_reserved":false,"is_disabled":false,"rental_uris":{"android":"levelo://app?vid=4ab04dbf-a858-4a28-bf5a-d34f725fad62","ios":"levelo://app?vid=4ab04dbf-a858-4a28-bf5a-d34f725fad62"},"vehicle_type_id":"4","last_reported":1722096606,"current_range_meters":17200,"station_id":"ce4bgrh2rcd13ifvqc8g","pricing_plan_id":"cebpf4jnsgd1na2vs0mg"},{"bike_id":"30331166-bf74-4e3d-8714-1054ee646da3","system_id":"levelo_inurba_marseille","lat":43.30466,"lon":5.37909,"is_reserved":false,"is_disabled":false,"rental_uris":{"android":"levelo://app?vid=30331166-bf74-4e3d-8714-1054ee646da3","ios":"levelo://app?vid=30331166-bf74-4e3d-8714-1054ee646da3"},"vehicle_type_id":"4","last_reported":1722096606,"current_range_meters":13200,"station_id":"ce4bgup2rcd13ifvqcn0","pricing_plan_id":"cebpf4jnsgd1na2vs0mg"},{"bike_id":"b2fe501d-6368-4b82-abe6-d414c1294fcf","system_id":"levelo_inurba_marseille","lat":43.304606,"lon":5.379026,"is_reserved":false,"is_disabled":false,"rental_uris":{"android":"levelo://app?vid=b2fe501d-6368-4b82-abe6-d414c1294fcf","ios":"levelo://app?vid=b2fe501d-6368-4b82-abe6-d414c1294fcf"},"vehicle_type_id":"4","last_reported":1722096606,"current_range_meters":2000,"station_id":"ce4bgup2rcd13ifvqcn0","pricing_plan_id":"cebpf4jnsgd1na2vs0mg"},{"bike_id":"915f6085-3bd5-40fc-8b23-4a6f972c5ab6","system_id":"levelo_inurba_marseille","lat":43.324771,"lon":5.36557,"is_reserved":false,"is_disabled":false,"rental_uris":{"android":"levelo://app?vid=915f6085-3bd5-40fc-8b23-4a6f972c5ab6","ios":"levelo://app?vid=915f6085-3bd5-40fc-8b23-4a6f972c5ab6"},"vehicle_type_id":"4","last_reported":1722096606,"current_range_meters":27600,"station_id":"ce4bhs12rcd13ifvqhvg","pricing_plan_id":"cebpf4jnsgd1na2vs0mg"},{"bike_id":"68dea454-9573-4ccb-9951-a61f7c3fec20","system_id":"levelo_inurba_marseille","lat":43.324771,"lon":5.36557,"is_reserved":false,"is_disabled":false,"rental_uris":{"android":"levelo://app?vid=68dea454-9573-4ccb-9951-a61f7c3fec20","ios":"levelo://app?vid=68dea454-9573-4ccb-9951-a61f7c3fec20"},"vehicle_type_id":"4","last_reported":1722096606,"current_range_meters":31200,"station_id":"ce4bhs12rcd13ifvqhvg","pricing_plan_id":"cebpf4jnsgd1na2vs0mg"},{"bike_id":"41df0bf2-0fa8-465a-90ad-f2c0d2e6bccc","system_id":"levelo_inurba_marseille","lat":43.324771,"lon":5.36557,"is_reserved":false,"is_disabled":false,"rental_uris":{"android":"levelo://app?vid=41df0bf2-0fa8-465a-90ad-f2c0d2e6bccc","ios":"levelo://app?vid=41df0bf2-0fa8-465a-90ad-f2c0d2e6bccc"},"vehicle_type_id":"4","last_reported":1722096606,"current_range_meters":22400,"station_id":"ce4bhs12rcd13ifvqhvg","pricing_plan_id":"cebpf4jnsgd1na2vs0mg"},{"bike_id":"97ad0572-5732-4db9-92b9-76c050ec829b","system_id":"levelo_inurba_marseille","lat":43.324771,"lon":5.36557,"is_reserved":false,"is_disabled":false,"rental_uris":{"android":"levelo://app?vid=97ad0572-5732-4db9-92b9-76c050ec829b","ios":"levelo://app?vid=97ad0572-5732-4db9-92b9-76c050ec829b"},"vehicle_type_id":"4","last_reported":1722096606,"current_range_meters":31200,"station_id":"ce4bhs12rcd13ifvqhvg","pricing_plan_id":"cebpf4jnsgd1na2vs0mg"},{"bike_id":"e59997ab-f70a-4450-8f88-be18c3582c54","system_id":"levelo_inurba_marseille","lat":43.324771,"lon":5.36557,"is_reserved":false,"is_disabled":false,"rental_uris":{"android":"levelo://app?vid=e59997ab-f70a-4450-8f88-be18c3582c54","ios":"levelo://app?vid=e59997ab-f70a-4450-8f88-be18c3582c54"},"vehicle_type_id":"4","last_reported":1722096606,"current_range_meters":31200,"station_id":"ce4bhs12rcd13ifvqhvg","pricing_plan_id":"cebpf4jnsgd1na2vs0mg"},{"bike_id":"33499b9a-4468-4d2a-9302-d9435251028e","system_id":"levelo_inurba_marseille","lat":43.324771,"lon":5.36557,"is_reserved":false,"is_disabled":false,"rental_uris":{"android":"levelo://app?vid=33499b9a-4468-4d2a-9302-d9435251028e","ios":"levelo://app?vid=33499b9a-4468-4d2a-9302-d9435251028e"},"vehicle_type_id":"4","last_reported":1722096606,"current_range_meters":8800,"station_id":"ce4bhs12rcd13ifvqhvg","pricing_plan_id":"cebpf4jnsgd1na2vs0mg"},{"bike_id":"3969b508-6a2b-4b16-a3a8-5e03e9538d92","system_id":"levelo_inurba_marseille","lat":43.302784,"lon":5.377158,"is_reserved":false,"is_disabled":false,"rental_uris":{"android":"levelo://app?vid=3969b508-6a2b-4b16-a3a8-5e03e9538d92","ios":"levelo://app?vid=3969b508-6a2b-4b16-a3a8-5e03e9538d92"},"vehicle_type_id":"4","last_reported":1722096606,"current_range_meters":3200,"station_id":"ce4bguh2rcd13ifvqcj0","pricing_plan_id":"cebpf4jnsgd1na2vs0mg"},{"bike_id":"dbc21a7e-7c37-4270-b1aa-15e5700858b6","system_id":"levelo_inurba_marseille","lat":43.302784,"lon":5.377158,"is_reserved":false,"is_disabled":false,"rental_uris":{"android":"levelo://app?vid=dbc21a7e-7c37-4270-b1aa-15e5700858b6","ios":"levelo://app?vid=dbc21a7e-7c37-4270-b1aa-15e5700858b6"},"vehicle_type_id":"4","last_reported":1722096606,"current_range_meters":4400,"station_id":"ce4bguh2rcd13ifvqcj0","pricing_plan_id":"cebpf4jnsgd1na2vs0mg"},{"bike_id":"458eeb45-43c7-48f6-8943-53bd84dfa5aa","system_id":"levelo_inurba_marseille","lat":43.319935,"lon":5.381699,"is_reserved":false,"is_disabled":false,"rental_uris":{"android":"levelo://app?vid=458eeb45-43c7-48f6-8943-53bd84dfa5aa","ios":"levelo://app?vid=458eeb45-43c7-48f6-8943-53bd84dfa5aa"},"vehicle_type_id":"4","last_reported":1722096606,"current_range_meters":5200,"station_id":"ce4bhr12rcd13ifvqhpg","pricing_plan_id":"cebpf4jnsgd1na2vs0mg"},{"bike_id":"2196f314-df37-4fa7-ae4c-fdc698fe8995","system_id":"levelo_inurba_marseille","lat":43.313571,"lon":5.384829,"is_reserved":false,"is_disabled":false,"rental_uris":{"android":"levelo://app?vid=2196f314-df37-4fa7-ae4c-fdc698fe8995","ios":"levelo://app?vid=2196f314-df37-4fa7-ae4c-fdc698fe8995"},"vehicle_type_id":"4","last_reported":1722096606,"current_range_meters":6800,"station_id":"ce4bgt92rcd13ifvqcf0","pricing_plan_id":"cebpf4jnsgd1na2vs0mg"},{"bike_id":"494fbfff-c5aa-4430-9fc2-f982e296e17e","system_id":"levelo_inurba_marseille","lat":43.304606,"lon":5.379026,"is_reserved":false,"is_disabled":false,"rental_uris":{"android":"levelo://app?vid=494fbfff-c5aa-4430-9fc2-f982e296e17e","ios":"levelo://app?vid=494fbfff-c5aa-4430-9fc2-f982e296e17e"},"vehicle_type_id":"4","last_reported":1722096606,"current_range_meters":4000,"station_id":"ce4bgup2rcd13ifvqcn0","pricing_plan_id":"cebpf4jnsgd1na2vs0mg"},{"bike_id":"4be3d844-bc3d-42ce-a78a-a30038c5d788","system_id":"levelo_inurba_marseille","lat":43.299222,"lon":5.365554,"is_reserved":false,"is_disabled":false,"rental_uris":{"android":"levelo://app?vid=4be3d844-bc3d-42ce-a78a-a30038c5d788","ios":"levelo://app?vid=4be3d844-bc3d-42ce-a78a-a30038c5d788"},"vehicle_type_id":"4","last_reported":1722096606,"current_range_meters":13600,"station_id":"ce4bgm92rcd13ifvqbr0","pricing_plan_id":"cebpf4jnsgd1na2vs0mg"},{"bike_id":"1c5b28df-04d5-4e99-87d6-44a4c4d700ca","system_id":"levelo_inurba_marseille","lat":43.299724,"lon":5.371829,"is_reserved":false,"is_disabled":false,"rental_uris":{"android":"levelo://app?vid=1c5b28df-04d5-4e99-87d6-44a4c4d700ca","ios":"levelo://app?vid=1c5b28df-04d5-4e99-87d6-44a4c4d700ca"},"vehicle_type_id":"4","last_reported":1722096606,"current_range_meters":25200,"station_id":"ce4bgr92rcd13ifvqc7g","pricing_plan_id":"cebpf4jnsgd1na2vs0mg"},{"bike_id":"7b0d5a24-1fd7-45c6-89c6-5c233c3b1c3e","system_id":"levelo_inurba_marseille","lat":43.30007,"lon":5.37432,"is_reserved":false,"is_disabled":false,"rental_uris":{"android":"levelo://app?vid=7b0d5a24-1fd7-45c6-89c6-5c233c3b1c3e","ios":"levelo://app?vid=7b0d5a24-1fd7-45c6-89c6-5c233c3b1c3e"},"vehicle_type_id":"4","last_reported":1722096606,"current_range_meters":16000,"station_id":"","pricing_plan_id":"cebpf4jnsgd1na2vs0mg"},{"bike_id":"9df41fec-4549-43f8-8c75-7517744cbb33","system_id":"levelo_inurba_marseille","lat":43.32041,"lon":5.38267,"is_reserved":false,"is_disabled":false,"rental_uris":{"android":"levelo://app?vid=9df41fec-4549-43f8-8c75-7517744cbb33","ios":"levelo://app?vid=9df41fec-4549-43f8-8c75-7517744cbb33"},"vehicle_type_id":"4","last_reported":1722096606,"current_range_meters":29200,"station_id":"","pricing_plan_id":"cebpf4jnsgd1na2vs0mg"},{"bike_id":"adcf7e0e-ca7a-40c4-a201-a5d5a8df6293","system_id":"levelo_inurba_marseille","lat":43.305364,"lon":5.384119,"is_reserved":false,"is_disabled":false,"rental_uris":{"android":"levelo://app?vid=adcf7e0e-ca7a-40c4-a201-a5d5a8df6293","ios":"levelo://app?vid=adcf7e0e-ca7a-40c4-a201-a5d5a8df6293"},"vehicle_type_id":"4","last_reported":1722096606,"current_range_meters":0,"station_id":"ce4bgg92rcd13ifvqb30","pricing_plan_id":"cebpf4jnsgd1na2vs0mg"},{"bike_id":"1458e7be-f7bf-4aa8-8468-b8726a90a9c8","system_id":"levelo_inurba_marseille","lat":43.29853,"lon":5.36291,"is_reserved":false,"is_disabled":false,"rental_uris":{"android":"levelo://app?vid=1458e7be-f7bf-4aa8-8468-b8726a90a9c8","ios":"levelo://app?vid=1458e7be-f7bf-4aa8-8468-b8726a90a9c8"},"vehicle_type_id":"4","last_reported":1722096606,"current_range_meters":26800,"station_id":"ce4bgpp2rcd13ifvqc3g","pricing_plan_id":"cebpf4jnsgd1na2vs0mg"},{"bike_id":"0f5b01ef-c20c-45b4-8bed-96581172763b","system_id":"levelo_inurba_marseille","lat":43.29933,"lon":5.37456,"is_reserved":false,"is_disabled":false,"rental_uris":{"android":"levelo://app?vid=0f5b01ef-c20c-45b4-8bed-96581172763b","ios":"levelo://app?vid=0f5b01ef-c20c-45b4-8bed-96581172763b"},"vehicle_type_id":"4","last_reported":1722096606,"current_range_meters":8800,"station_id":"","pricing_plan_id":"cebpf4jnsgd1na2vs0mg"},{"bike_id":"9f6a4ffe-bdb4-40d6-891c-fb66dfc81bc9","system_id":"levelo_inurba_marseille","lat":43.298433,"lon":5.362774,"is_reserved":false,"is_disabled":false,"rental_uris":{"android":"levelo://app?vid=9f6a4ffe-bdb4-40d6-891c-fb66dfc81bc9","ios":"levelo://app?vid=9f6a4ffe-bdb4-40d6-891c-fb66dfc81bc9"},"vehicle_type_id":"4","last_reported":1722096606,"current_range_meters":18400,"station_id":"ce4bgpp2rcd13ifvqc3g","pricing_plan_id":"cebpf4jnsgd1na2vs0mg"},{"bike_id":"c8d8668e-6de6-410a-80d0-3c01dd19606c","system_id":"levelo_inurba_marseille","lat":43.299243,"lon":5.37481,"is_reserved":false,"is_disabled":false,"rental_uris":{"android":"levelo://app?vid=c8d8668e-6de6-410a-80d0-3c01dd19606c","ios":"levelo://app?vid=c8d8668e-6de6-410a-80d0-3c01dd19606c"},"vehicle_type_id":"4","last_reported":1722096606,"current_range_meters":12400,"station_id":"ce4bgjh2rcd13ifvqbg0","pricing_plan_id":"cebpf4jnsgd1na2vs0mg"},{"bike_id":"604ed74a-e01b-43b5-9714-97285deaa3aa","system_id":"levelo_inurba_marseille","lat":43.297794,"lon":5.370888,"is_reserved":false,"is_disabled":false,"rental_uris":{"android":"levelo://app?vid=604ed74a-e01b-43b5-9714-97285deaa3aa","ios":"levelo://app?vid=604ed74a-e01b-43b5-9714-97285deaa3aa"},"vehicle_type_id":"4","last_reported":1722096606,"current_range_meters":2800,"station_id":"ce4bgop2rcd13ifvqc1g","pricing_plan_id":"cebpf4jnsgd1na2vs0mg"},{"bike_id":"70b15744-72d6-4cf0-b2da-0ec764b8e957","system_id":"levelo_inurba_marseille","lat":43.297794,"lon":5.370888,"is_reserved":false,"is_disabled":false,"rental_uris":{"android":"levelo://app?vid=70b15744-72d6-4cf0-b2da-0ec764b8e957","ios":"levelo://app?vid=70b15744-72d6-4cf0-b2da-0ec764b8e957"},"vehicle_type_id":"4","last_reported":1722096606,"current_range_meters":0,"station_id":"ce4bgop2rcd13ifvqc1g","pricing_plan_id":"cebpf4jnsgd1na2vs0mg"},{"bike_id":"2aa797f6-cf35-44ea-b97b-35b9e34f58e1","system_id":"levelo_inurba_marseille","lat":43.32285,"lon":5.38272,"is_reserved":false,"is_disabled":false,"rental_uris":{"android":"levelo://app?vid=2aa797f6-cf35-44ea-b97b-35b9e34f58e1","ios":"levelo://app?vid=2aa797f6-cf35-44ea-b97b-35b9e34f58e1"},"vehicle_type_id":"4","last_reported":1722096606,"current_range_meters":31200,"station_id":"ce4bhr12rcd13ifvqhqg","pricing_plan_id":"cebpf4jnsgd1na2vs0mg"},{"bike_id":"d4262961-f3bb-4638-aa76-74e085324454","system_id":"levelo_inurba_marseille","lat":43.322917,"lon":5.382657,"is_reserved":false,"is_disabled":false,"rental_uris":{"android":"levelo://app?vid=d4262961-f3bb-4638-aa76-74e085324454","ios":"levelo://app?vid=d4262961-f3bb-4638-aa76-74e085324454"},"vehicle_type_id":"4","last_reported":1722096606,"current_range_meters":0,"station_id":"ce4bhr12rcd13ifvqhqg","pricing_plan_id":"cebpf4jnsgd1na2vs0mg"},{"bike_id":"4dc794f6-e1d8-4cf0-95b2-cd6d647fab4e","system_id":"levelo_inurba_marseille","lat":43.322873,"lon":5.382732,"is_reserved":false,"is_disabled":false,"rental_uris":{"android":"levelo://app?vid=4dc794f6-e1d8-4cf0-95b2-cd6d647fab4e","ios":"levelo://app?vid=4dc794f6-e1d8-4cf0-95b2-cd6d647fab4e"},"vehicle_type_id":"4","last_reported":1722096606,"current_range_meters":23200,"station_id":"ce4bhr12rcd13ifvqhqg","pricing_plan_id":"cebpf4jnsgd1na2vs0mg"},{"bike_id":"553363d3-b2f0-4e68-a004-1fd5345938b3","system_id":"levelo_inurba_marseille","lat":43.32292,"lon":5.38268,"is_reserved":false,"is_disabled":false,"rental_uris":{"android":"levelo://app?vid=553363d3-b2f0-4e68-a004-1fd5345938b3","ios":"levelo://app?vid=553363d3-b2f0-4e68-a004-1fd5345938b3"},"vehicle_type_id":"4","last_reported":1722096606,"current_range_meters":6000,"station_id":"ce4bhr12rcd13ifvqhqg","pricing_plan_id":"cebpf4jnsgd1na2vs0mg"},{"bike_id":"7a4a332f-ccad-4d9e-9cdf-a1c6d87ff077","system_id":"levelo_inurba_marseille","lat":43.322872,"lon":5.382756,"is_reserved":false,"is_disabled":false,"rental_uris":{"android":"levelo://app?vid=7a4a332f-ccad-4d9e-9cdf-a1c6d87ff077","ios":"levelo://app?vid=7a4a332f-ccad-4d9e-9cdf-a1c6d87ff077"},"vehicle_type_id":"4","last_reported":1722096606,"current_range_meters":31200,"station_id":"ce4bhr12rcd13ifvqhqg","pricing_plan_id":"cebpf4jnsgd1na2vs0mg"},{"bike_id":"c397368f-9f67-4482-b9f7-1d9f600407e8","system_id":"levelo_inurba_marseille","lat":43.322872,"lon":5.382756,"is_reserved":false,"is_disabled":false,"rental_uris":{"android":"levelo://app?vid=c397368f-9f67-4482-b9f7-1d9f600407e8","ios":"levelo://app?vid=c397368f-9f67-4482-b9f7-1d9f600407e8"},"vehicle_type_id":"4","last_reported":1722096606,"current_range_meters":30400,"station_id":"ce4bhr12rcd13ifvqhqg","pricing_plan_id":"cebpf4jnsgd1na2vs0mg"},{"bike_id":"b3966b6b-bb19-4d13-856e-7e18d2973211","system_id":"levelo_inurba_marseille","lat":43.296987,"lon":5.36658,"is_reserved":false,"is_disabled":false,"rental_uris":{"android":"levelo://app?vid=b3966b6b-bb19-4d13-856e-7e18d2973211","ios":"levelo://app?vid=b3966b6b-bb19-4d13-856e-7e18d2973211"},"vehicle_type_id":"4","last_reported":1722096606,"current_range_meters":8000,"station_id":"","pricing_plan_id":"cebpf4jnsgd1na2vs0mg"},{"bike_id":"77ebd6f7-0e15-4246-8feb-b1d720ac899a","system_id":"levelo_inurba_marseille","lat":43.300434,"lon":5.382081,"is_reserved":false,"is_disabled":false,"rental_uris":{"android":"levelo://app?vid=77ebd6f7-0e15-4246-8feb-b1d720ac899a","ios":"levelo://app?vid=77ebd6f7-0e15-4246-8feb-b1d720ac899a"},"vehicle_type_id":"4","last_reported":1722096606,"current_range_meters":19200,"station_id":"","pricing_plan_id":"cebpf4jnsgd1na2vs0mg"},{"bike_id":"d205a49c-20c1-4414-851d-2b81a8d3a2dc","system_id":"levelo_inurba_marseille","lat":43.296129,"lon":5.370777,"is_reserved":false,"is_disabled":false,"rental_uris":{"android":"levelo://app?vid=d205a49c-20c1-4414-851d-2b81a8d3a2dc","ios":"levelo://app?vid=d205a49c-20c1-4414-851d-2b81a8d3a2dc"},"vehicle_type_id":"4","last_reported":1722096606,"current_range_meters":23200,"station_id":"ce4bgnh2rcd13ifvqc0g","pricing_plan_id":"cebpf4jnsgd1na2vs0mg"},{"bike_id":"712a27f0-4b5a-495d-81e2-815ae2d27e41","system_id":"levelo_inurba_marseille","lat":43.296131,"lon":5.370773,"is_reserved":false,"is_disabled":false,"rental_uris":{"android":"levelo://app?vid=712a27f0-4b5a-495d-81e2-815ae2d27e41","ios":"levelo://app?vid=712a27f0-4b5a-495d-81e2-815ae2d27e41"},"vehicle_type_id":"4","last_reported":1722096606,"current_range_meters":18400,"station_id":"ce4bgnh2rcd13ifvqc0g","pricing_plan_id":"cebpf4jnsgd1na2vs0mg"},{"bike_id":"ac316018-3fab-434c-a454-88a4bdaae5ca","system_id":"levelo_inurba_marseille","lat":43.296131,"lon":5.370791,"is_reserved":false,"is_disabled":false,"rental_uris":{"android":"levelo://app?vid=ac316018-3fab-434c-a454-88a4bdaae5ca","ios":"levelo://app?vid=ac316018-3fab-434c-a454-88a4bdaae5ca"},"vehicle_type_id":"4","last_reported":1722096606,"current_range_meters":4400,"station_id":"ce4bgnh2rcd13ifvqc0g","pricing_plan_id":"cebpf4jnsgd1na2vs0mg"},{"bike_id":"d86ed249-ad17-460a-83df-7c8d544414af","system_id":"levelo_inurba_marseille","lat":43.29579,"lon":5.367525,"is_reserved":false,"is_disabled":false,"rental_uris":{"android":"levelo://app?vid=d86ed249-ad17-460a-83df-7c8d544414af","ios":"levelo://app?vid=d86ed249-ad17-460a-83df-7c8d544414af"},"vehicle_type_id":"4","last_reported":1722096606,"current_range_meters":0,"station_id":"ce4bgph2rcd13ifvqc2g","pricing_plan_id":"cebpf4jnsgd1na2vs0mg"},{"bike_id":"87af8b01-5f8a-4e9e-83cd-576e4ea9ec91","system_id":"levelo_inurba_marseille","lat":43.298037,"lon":5.381066,"is_reserved":false,"is_disabled":false,"rental_uris":{"android":"levelo://app?vid=87af8b01-5f8a-4e9e-83cd-576e4ea9ec91","ios":"levelo://app?vid=87af8b01-5f8a-4e9e-83cd-576e4ea9ec91"},"vehicle_type_id":"4","last_reported":1722096606,"current_range_meters":24400,"station_id":"ce4bgip2rcd13ifvqbb0","pricing_plan_id":"cebpf4jnsgd1na2vs0mg"},{"bike_id":"0cdb7385-11ca-4974-9fb7-d27eaf6f2dc6","system_id":"levelo_inurba_marseille","lat":43.296263,"lon":5.377094,"is_reserved":false,"is_disabled":false,"rental_uris":{"android":"levelo://app?vid=0cdb7385-11ca-4974-9fb7-d27eaf6f2dc6","ios":"levelo://app?vid=0cdb7385-11ca-4974-9fb7-d27eaf6f2dc6"},"vehicle_type_id":"4","last_reported":1722096606,"current_range_meters":18000,"station_id":"ce4bgi92rcd13ifvqb90","pricing_plan_id":"cebpf4jnsgd1na2vs0mg"},{"bike_id":"ab5661ae-b780-4529-825b-5c869019f8a5","system_id":"levelo_inurba_marseille","lat":43.296263,"lon":5.377094,"is_reserved":false,"is_disabled":false,"rental_uris":{"android":"levelo://app?vid=ab5661ae-b780-4529-825b-5c869019f8a5","ios":"levelo://app?vid=ab5661ae-b780-4529-825b-5c869019f8a5"},"vehicle_type_id":"4","last_reported":1722096606,"current_range_meters":27600,"station_id":"ce4bgi92rcd13ifvqb90","pricing_plan_id":"cebpf4jnsgd1na2vs0mg"},{"bike_id":"8045ae79-dd5c-44ab-a211-e9b74e6476f8","system_id":"levelo_inurba_marseille","lat":43.295279,"lon":5.375048,"is_reserved":false,"is_disabled":false,"rental_uris":{"android":"levelo://app?vid=8045ae79-dd5c-44ab-a211-e9b74e6476f8","ios":"levelo://app?vid=8045ae79-dd5c-44ab-a211-e9b74e6476f8"},"vehicle_type_id":"4","last_reported":1722096606,"current_range_meters":11200,"station_id":"ce4bgkp2rcd13ifvqbmg","pricing_plan_id":"cebpf4jnsgd1na2vs0mg"},{"bike_id":"faac73fb-e65f-44d7-b56e-7d6ac0f11e41","system_id":"levelo_inurba_marseille","lat":43.299717,"lon":5.384845,"is_reserved":false,"is_disabled":false,"rental_uris":{"android":"levelo://app?vid=faac73fb-e65f-44d7-b56e-7d6ac0f11e41","ios":"levelo://app?vid=faac73fb-e65f-44d7-b56e-7d6ac0f11e41"},"vehicle_type_id":"4","last_reported":1722096606,"current_range_meters":30400,"station_id":"ce4bgj92rcd13ifvqbd0","pricing_plan_id":"cebpf4jnsgd1na2vs0mg"},{"bike_id":"d910986d-8594-4c2f-9d75-cd1ecd081fa4","system_id":"levelo_inurba_marseille","lat":43.32367,"lon":5.388836,"is_reserved":false,"is_disabled":false,"rental_uris":{"android":"levelo://app?vid=d910986d-8594-4c2f-9d75-cd1ecd081fa4","ios":"levelo://app?vid=d910986d-8594-4c2f-9d75-cd1ecd081fa4"},"vehicle_type_id":"4","last_reported":1722096606,"current_range_meters":9600,"station_id":"ce4bhqp2rcd13ifvqhog","pricing_plan_id":"cebpf4jnsgd1na2vs0mg"},{"bike_id":"fa1fe59e-a49e-4902-a3d3-a02703d4c2f0","system_id":"levelo_inurba_marseille","lat":43.32367,"lon":5.388836,"is_reserved":false,"is_disabled":false,"rental_uris":{"android":"levelo://app?vid=fa1fe59e-a49e-4902-a3d3-a02703d4c2f0","ios":"levelo://app?vid=fa1fe59e-a49e-4902-a3d3-a02703d4c2f0"},"vehicle_type_id":"4","last_reported":1722096606,"current_range_meters":4400,"station_id":"ce4bhqp2rcd13ifvqhog","pricing_plan_id":"cebpf4jnsgd1na2vs0mg"},{"bike_id":"5042af82-2dc1-4b51-8df6-cbee9f8395b8","system_id":"levelo_inurba_marseille","lat":43.29602,"lon":5.381084,"is_reserved":false,"is_disabled":false,"rental_uris":{"android":"levelo://app?vid=5042af82-2dc1-4b51-8df6-cbee9f8395b8","ios":"levelo://app?vid=5042af82-2dc1-4b51-8df6-cbee9f8395b8"},"vehicle_type_id":"4","last_reported":1722096606,"current_range_meters":22800,"station_id":"ce4bgl12rcd13ifvqbo0","pricing_plan_id":"cebpf4jnsgd1na2vs0mg"},{"bike_id":"63aa0023-1543-4ac6-811e-6a2acf53a7f2","system_id":"levelo_inurba_marseille","lat":43.29602,"lon":5.381084,"is_reserved":false,"is_disabled":false,"rental_uris":{"android":"levelo://app?vid=63aa0023-1543-4ac6-811e-6a2acf53a7f2","ios":"levelo://app?vid=63aa0023-1543-4ac6-811e-6a2acf53a7f2"},"vehicle_type_id":"4","last_reported":1722096606,"current_range_meters":21600,"station_id":"ce4bgl12rcd13ifvqbo0","pricing_plan_id":"cebpf4jnsgd1na2vs0mg"},{"bike_id":"9906f0b7-7a19-4a84-be61-820b11fc832c","system_id":"levelo_inurba_marseille","lat":43.29602,"lon":5.381084,"is_reserved":false,"is_disabled":false,"rental_uris":{"android":"levelo://app?vid=9906f0b7-7a19-4a84-be61-820b11fc832c","ios":"levelo://app?vid=9906f0b7-7a19-4a84-be61-820b11fc832c"},"vehicle_type_id":"4","last_reported":1722096606,"current_range_meters":20000,"station_id":"ce4bgl12rcd13ifvqbo0","pricing_plan_id":"cebpf4jnsgd1na2vs0mg"},{"bike_id":"c1655b4a-5ef0-46ba-8fe6-63c517063bec","system_id":"levelo_inurba_marseille","lat":43.29602,"lon":5.381084,"is_reserved":false,"is_disabled":false,"rental_uris":{"android":"levelo://app?vid=c1655b4a-5ef0-46ba-8fe6-63c517063bec","ios":"levelo://app?vid=c1655b4a-5ef0-46ba-8fe6-63c517063bec"},"vehicle_type_id":"4","last_reported":1722096606,"current_range_meters":14800,"station_id":"ce4bgl12rcd13ifvqbo0","pricing_plan_id":"cebpf4jnsgd1na2vs0mg"},{"bike_id":"21b0bb78-ffda-4117-81cc-a2ba304ff8ce","system_id":"levelo_inurba_marseille","lat":43.29602,"lon":5.381084,"is_reserved":false,"is_disabled":false,"rental_uris":{"android":"levelo://app?vid=21b0bb78-ffda-4117-81cc-a2ba304ff8ce","ios":"levelo://app?vid=21b0bb78-ffda-4117-81cc-a2ba304ff8ce"},"vehicle_type_id":"4","last_reported":1722096606,"current_range_meters":6400,"station_id":"ce4bgl12rcd13ifvqbo0","pricing_plan_id":"cebpf4jnsgd1na2vs0mg"},{"bike_id":"d4b0b6c3-cfe3-4c84-88a2-aab2a807d519","system_id":"levelo_inurba_marseille","lat":43.29602,"lon":5.381084,"is_reserved":false,"is_disabled":false,"rental_uris":{"android":"levelo://app?vid=d4b0b6c3-cfe3-4c84-88a2-aab2a807d519","ios":"levelo://app?vid=d4b0b6c3-cfe3-4c84-88a2-aab2a807d519"},"vehicle_type_id":"4","last_reported":1722096606,"current_range_meters":9600,"station_id":"ce4bgl12rcd13ifvqbo0","pricing_plan_id":"cebpf4jnsgd1na2vs0mg"},{"bike_id":"fb4649f6-5774-4a6b-ab6d-18c7e48797ac","system_id":"levelo_inurba_marseille","lat":43.292749,"lon":5.368402,"is_reserved":false,"is_disabled":false,"rental_uris":{"android":"levelo://app?vid=fb4649f6-5774-4a6b-ab6d-18c7e48797ac","ios":"levelo://app?vid=fb4649f6-5774-4a6b-ab6d-18c7e48797ac"},"vehicle_type_id":"4","last_reported":1722096606,"current_range_meters":0,"station_id":"ce4bhbp2rcd13ifvqesg","pricing_plan_id":"cebpf4jnsgd1na2vs0mg"},{"bike_id":"61f95f3a-69ca-4242-940c-1e217f1ca726","system_id":"levelo_inurba_marseille","lat":43.292749,"lon":5.368402,"is_reserved":false,"is_disabled":false,"rental_uris":{"android":"levelo://app?vid=61f95f3a-69ca-4242-940c-1e217f1ca726","ios":"levelo://app?vid=61f95f3a-69ca-4242-940c-1e217f1ca726"},"vehicle_type_id":"4","last_reported":1722096606,"current_range_meters":8400,"station_id":"ce4bhbp2rcd13ifvqesg","pricing_plan_id":"cebpf4jnsgd1na2vs0mg"},{"bike_id":"80754f4e-5898-4762-b303-e53bdfba6fe6","system_id":"levelo_inurba_marseille","lat":43.303002,"lon":5.392142,"is_reserved":false,"is_disabled":false,"rental_uris":{"android":"levelo://app?vid=80754f4e-5898-4762-b303-e53bdfba6fe6","ios":"levelo://app?vid=80754f4e-5898-4762-b303-e53bdfba6fe6"},"vehicle_type_id":"4","last_reported":1722096606,"current_range_meters":0,"station_id":"ce4bgkh2rcd13ifvqbk0","pricing_plan_id":"cebpf4jnsgd1na2vs0mg"},{"bike_id":"ced6ad28-cffe-48f3-83d3-44b05f399f3a","system_id":"levelo_inurba_marseille","lat":43.29364,"lon":5.37847,"is_reserved":false,"is_disabled":false,"rental_uris":{"android":"levelo://app?vid=ced6ad28-cffe-48f3-83d3-44b05f399f3a","ios":"levelo://app?vid=ced6ad28-cffe-48f3-83d3-44b05f399f3a"},"vehicle_type_id":"4","last_reported":1722096606,"current_range_meters":0,"station_id":"ce4bgjh2rcd13ifvqbf0","pricing_plan_id":"cebpf4jnsgd1na2vs0mg"},{"bike_id":"38dc4c5a-ac8e-4cd1-a779-01cde1a0f95f","system_id":"levelo_inurba_marseille","lat":43.3266,"lon":5.38864,"is_reserved":false,"is_disabled":false,"rental_uris":{"android":"levelo://app?vid=38dc4c5a-ac8e-4cd1-a779-01cde1a0f95f","ios":"levelo://app?vid=38dc4c5a-ac8e-4cd1-a779-01cde1a0f95f"},"vehicle_type_id":"4","last_reported":1722096606,"current_range_meters":15600,"station_id":"","pricing_plan_id":"cebpf4jnsgd1na2vs0mg"},{"bike_id":"7e0dc4c8-1352-44cf-8499-9f065b440ea2","system_id":"levelo_inurba_marseille","lat":43.29225,"lon":5.36041,"is_reserved":false,"is_disabled":false,"rental_uris":{"android":"levelo://app?vid=7e0dc4c8-1352-44cf-8499-9f065b440ea2","ios":"levelo://app?vid=7e0dc4c8-1352-44cf-8499-9f065b440ea2"},"vehicle_type_id":"4","last_reported":1722096606,"current_range_meters":22400,"station_id":"ce4bhbh2rcd13ifvqeqg","pricing_plan_id":"cebpf4jnsgd1na2vs0mg"},{"bike_id":"c0c2a3d6-f03c-4ea7-a063-f420c07c3022","system_id":"levelo_inurba_marseille","lat":43.292311,"lon":5.360731,"is_reserved":false,"is_disabled":false,"rental_uris":{"android":"levelo://app?vid=c0c2a3d6-f03c-4ea7-a063-f420c07c3022","ios":"levelo://app?vid=c0c2a3d6-f03c-4ea7-a063-f420c07c3022"},"vehicle_type_id":"4","last_reported":1722096606,"current_range_meters":4800,"station_id":"ce4bhbh2rcd13ifvqeqg","pricing_plan_id":"cebpf4jnsgd1na2vs0mg"},{"bike_id":"83cc4105-05ab-4d78-9f9a-20801fce416b","system_id":"levelo_inurba_marseille","lat":43.292311,"lon":5.360731,"is_reserved":false,"is_disabled":false,"rental_uris":{"android":"levelo://app?vid=83cc4105-05ab-4d78-9f9a-20801fce416b","ios":"levelo://app?vid=83cc4105-05ab-4d78-9f9a-20801fce416b"},"vehicle_type_id":"4","last_reported":1722096606,"current_range_meters":0,"station_id":"ce4bhbh2rcd13ifvqeqg","pricing_plan_id":"cebpf4jnsgd1na2vs0mg"},{"bike_id":"c9df13fc-c711-4c28-ada2-1678efbf1af2","system_id":"levelo_inurba_marseille","lat":43.29255,"lon":5.37618,"is_reserved":false,"is_disabled":false,"rental_uris":{"android":"levelo://app?vid=c9df13fc-c711-4c28-ada2-1678efbf1af2","ios":"levelo://app?vid=c9df13fc-c711-4c28-ada2-1678efbf1af2"},"vehicle_type_id":"4","last_reported":1722096606,"current_range_meters":0,"station_id":"ce4bgi12rcd13ifvqb80","pricing_plan_id":"cebpf4jnsgd1na2vs0mg"},{"bike_id":"1c6074db-f8fa-469f-8ced-137498f39f4c","system_id":"levelo_inurba_marseille","lat":43.291994,"lon":5.357886,"is_reserved":false,"is_disabled":false,"rental_uris":{"android":"levelo://app?vid=1c6074db-f8fa-469f-8ced-137498f39f4c","ios":"levelo://app?vid=1c6074db-f8fa-469f-8ced-137498f39f4c"},"vehicle_type_id":"4","last_reported":1722096606,"current_range_meters":22400,"station_id":"ce4bhb12rcd13ifvqel0","pricing_plan_id":"cebpf4jnsgd1na2vs0mg"},{"bike_id":"b27a82ad-a505-4b11-a89a-ee05cc727eaa","system_id":"levelo_inurba_marseille","lat":43.31325,"lon":5.39674,"is_reserved":false,"is_disabled":false,"rental_uris":{"android":"levelo://app?vid=b27a82ad-a505-4b11-a89a-ee05cc727eaa","ios":"levelo://app?vid=b27a82ad-a505-4b11-a89a-ee05cc727eaa"},"vehicle_type_id":"4","last_reported":1722096606,"current_range_meters":5200,"station_id":"ce4bgvp2rcd13ifvqcu0","pricing_plan_id":"cebpf4jnsgd1na2vs0mg"},{"bike_id":"4b41f26a-c6ca-4954-837a-f8ba90df5824","system_id":"levelo_inurba_marseille","lat":43.292005,"lon":5.357875,"is_reserved":false,"is_disabled":false,"rental_uris":{"android":"levelo://app?vid=4b41f26a-c6ca-4954-837a-f8ba90df5824","ios":"levelo://app?vid=4b41f26a-c6ca-4954-837a-f8ba90df5824"},"vehicle_type_id":"4","last_reported":1722096606,"current_range_meters":0,"station_id":"ce4bhb12rcd13ifvqel0","pricing_plan_id":"cebpf4jnsgd1na2vs0mg"},{"bike_id":"339cd62a-3227-4e39-bca5-5e3bc33651ff","system_id":"levelo_inurba_marseille","lat":43.291994,"lon":5.357886,"is_reserved":false,"is_disabled":false,"rental_uris":{"android":"levelo://app?vid=339cd62a-3227-4e39-bca5-5e3bc33651ff","ios":"levelo://app?vid=339cd62a-3227-4e39-bca5-5e3bc33651ff"},"vehicle_type_id":"4","last_reported":1722096606,"current_range_meters":0,"station_id":"ce4bhb12rcd13ifvqel0","pricing_plan_id":"cebpf4jnsgd1na2vs0mg"},{"bike_id":"3e51d729-7f02-46ac-a59b-fced080cd94f","system_id":"levelo_inurba_marseille","lat":43.291994,"lon":5.357886,"is_reserved":false,"is_disabled":false,"rental_uris":{"android":"levelo://app?vid=3e51d729-7f02-46ac-a59b-fced080cd94f","ios":"levelo://app?vid=3e51d729-7f02-46ac-a59b-fced080cd94f"},"vehicle_type_id":"4","last_reported":1722096606,"current_range_meters":4000,"station_id":"ce4bhb12rcd13ifvqel0","pricing_plan_id":"cebpf4jnsgd1na2vs0mg"},{"bike_id":"3d9390fb-2921-4d8a-949f-b342af4afe60","system_id":"levelo_inurba_marseille","lat":43.291994,"lon":5.357886,"is_reserved":false,"is_disabled":false,"rental_uris":{"android":"levelo://app?vid=3d9390fb-2921-4d8a-949f-b342af4afe60","ios":"levelo://app?vid=3d9390fb-2921-4d8a-949f-b342af4afe60"},"vehicle_type_id":"4","last_reported":1722096606,"current_range_meters":16000,"station_id":"ce4bhb12rcd13ifvqel0","pricing_plan_id":"cebpf4jnsgd1na2vs0mg"},{"bike_id":"4fd68d00-4ac3-46d2-8e57-2bfe1c8ed144","system_id":"levelo_inurba_marseille","lat":43.292005,"lon":5.357875,"is_reserved":false,"is_disabled":false,"rental_uris":{"android":"levelo://app?vid=4fd68d00-4ac3-46d2-8e57-2bfe1c8ed144","ios":"levelo://app?vid=4fd68d00-4ac3-46d2-8e57-2bfe1c8ed144"},"vehicle_type_id":"4","last_reported":1722096606,"current_range_meters":8400,"station_id":"ce4bhb12rcd13ifvqel0","pricing_plan_id":"cebpf4jnsgd1na2vs0mg"},{"bike_id":"66373d36-ea31-44b7-b08d-7b0cb3d8e8cb","system_id":"levelo_inurba_marseille","lat":43.313291,"lon":5.396838,"is_reserved":false,"is_disabled":false,"rental_uris":{"android":"levelo://app?vid=66373d36-ea31-44b7-b08d-7b0cb3d8e8cb","ios":"levelo://app?vid=66373d36-ea31-44b7-b08d-7b0cb3d8e8cb"},"vehicle_type_id":"4","last_reported":1722096606,"current_range_meters":8800,"station_id":"ce4bgvp2rcd13ifvqcu0","pricing_plan_id":"cebpf4jnsgd1na2vs0mg"},{"bike_id":"30c6b987-8ef6-4ee8-8726-23316e56ab8c","system_id":"levelo_inurba_marseille","lat":43.313291,"lon":5.396838,"is_reserved":false,"is_disabled":false,"rental_uris":{"android":"levelo://app?vid=30c6b987-8ef6-4ee8-8726-23316e56ab8c","ios":"levelo://app?vid=30c6b987-8ef6-4ee8-8726-23316e56ab8c"},"vehicle_type_id":"4","last_reported":1722096606,"current_range_meters":24800,"station_id":"ce4bgvp2rcd13ifvqcu0","pricing_plan_id":"cebpf4jnsgd1na2vs0mg"},{"bike_id":"7337fee2-e836-4e9c-82b7-6c36daa1a077","system_id":"levelo_inurba_marseille","lat":43.309047,"lon":5.396551,"is_reserved":false,"is_disabled":false,"rental_uris":{"android":"levelo://app?vid=7337fee2-e836-4e9c-82b7-6c36daa1a077","ios":"levelo://app?vid=7337fee2-e836-4e9c-82b7-6c36daa1a077"},"vehicle_type_id":"4","last_reported":1722096606,"current_range_meters":6800,"station_id":"ce4bh012rcd13ifvqcv0","pricing_plan_id":"cebpf4jnsgd1na2vs0mg"},{"bike_id":"a8124146-70ad-4ab1-b878-46c5d6c7731b","system_id":"levelo_inurba_marseille","lat":43.29529,"lon":5.385581,"is_reserved":false,"is_disabled":false,"rental_uris":{"android":"levelo://app?vid=a8124146-70ad-4ab1-b878-46c5d6c7731b","ios":"levelo://app?vid=a8124146-70ad-4ab1-b878-46c5d6c7731b"},"vehicle_type_id":"4","last_reported":1722096606,"current_range_meters":0,"station_id":"ce4bgih2rcd13ifvqba0","pricing_plan_id":"cebpf4jnsgd1na2vs0mg"},{"bike_id":"b7fe27d9-ec2e-47d9-85a6-dd7def2afbc5","system_id":"levelo_inurba_marseille","lat":43.302008,"lon":5.394694,"is_reserved":false,"is_disabled":false,"rental_uris":{"android":"levelo://app?vid=b7fe27d9-ec2e-47d9-85a6-dd7def2afbc5","ios":"levelo://app?vid=b7fe27d9-ec2e-47d9-85a6-dd7def2afbc5"},"vehicle_type_id":"4","last_reported":1722096606,"current_range_meters":16400,"station_id":"ce4bh0p2rcd13ifvqd70","pricing_plan_id":"cebpf4jnsgd1na2vs0mg"},{"bike_id":"57d4c295-038f-44f3-baa3-b0dcd82b98ea","system_id":"levelo_inurba_marseille","lat":43.303002,"lon":5.392142,"is_reserved":false,"is_disabled":false,"rental_uris":{"android":"levelo://app?vid=57d4c295-038f-44f3-baa3-b0dcd82b98ea","ios":"levelo://app?vid=57d4c295-038f-44f3-baa3-b0dcd82b98ea"},"vehicle_type_id":"4","last_reported":1722096606,"current_range_meters":4400,"station_id":"ce4bgkh2rcd13ifvqbk0","pricing_plan_id":"cebpf4jnsgd1na2vs0mg"},{"bike_id":"ec4c9077-3a34-4e0e-a38b-c02fb6f22d3d","system_id":"levelo_inurba_marseille","lat":43.290631,"lon":5.359244,"is_reserved":false,"is_disabled":false,"rental_uris":{"android":"levelo://app?vid=ec4c9077-3a34-4e0e-a38b-c02fb6f22d3d","ios":"levelo://app?vid=ec4c9077-3a34-4e0e-a38b-c02fb6f22d3d"},"vehicle_type_id":"4","last_reported":1722096606,"current_range_meters":21200,"station_id":"ce4bha92rcd13ifvqeg0","pricing_plan_id":"cebpf4jnsgd1na2vs0mg"},{"bike_id":"02ba1a4d-9e6a-440d-ab11-99198325bdc9","system_id":"levelo_inurba_marseille","lat":43.290319,"lon":5.375732,"is_reserved":false,"is_disabled":false,"rental_uris":{"android":"levelo://app?vid=02ba1a4d-9e6a-440d-ab11-99198325bdc9","ios":"levelo://app?vid=02ba1a4d-9e6a-440d-ab11-99198325bdc9"},"vehicle_type_id":"4","last_reported":1722096606,"current_range_meters":6800,"station_id":"ce4bh692rcd13ifvqe90","pricing_plan_id":"cebpf4jnsgd1na2vs0mg"},{"bike_id":"4ab5fdb4-c054-43a0-b59e-8b0efe706f15","system_id":"levelo_inurba_marseille","lat":43.290319,"lon":5.375732,"is_reserved":false,"is_disabled":false,"rental_uris":{"android":"levelo://app?vid=4ab5fdb4-c054-43a0-b59e-8b0efe706f15","ios":"levelo://app?vid=4ab5fdb4-c054-43a0-b59e-8b0efe706f15"},"vehicle_type_id":"4","last_reported":1722096606,"current_range_meters":20800,"station_id":"ce4bh692rcd13ifvqe90","pricing_plan_id":"cebpf4jnsgd1na2vs0mg"},{"bike_id":"dc11e53d-765c-4292-b947-3aa60d25becf","system_id":"levelo_inurba_marseille","lat":43.289184,"lon":5.366408,"is_reserved":false,"is_disabled":false,"rental_uris":{"android":"levelo://app?vid=dc11e53d-765c-4292-b947-3aa60d25becf","ios":"levelo://app?vid=dc11e53d-765c-4292-b947-3aa60d25becf"},"vehicle_type_id":"4","last_reported":1722096606,"current_range_meters":25200,"station_id":"ce4bhap2rcd13ifvqek0","pricing_plan_id":"cebpf4jnsgd1na2vs0mg"},{"bike_id":"5ba943ff-c20e-4eb3-96e1-93167168d6a1","system_id":"levelo_inurba_marseille","lat":43.28942,"lon":5.36633,"is_reserved":false,"is_disabled":false,"rental_uris":{"android":"levelo://app?vid=5ba943ff-c20e-4eb3-96e1-93167168d6a1","ios":"levelo://app?vid=5ba943ff-c20e-4eb3-96e1-93167168d6a1"},"vehicle_type_id":"4","last_reported":1722096606,"current_range_meters":0,"station_id":"ce4bhap2rcd13ifvqek0","pricing_plan_id":"cebpf4jnsgd1na2vs0mg"},{"bike_id":"0da29927-69dd-4eb2-abcb-901424f2e657","system_id":"levelo_inurba_marseille","lat":43.289468,"lon":5.363719,"is_reserved":false,"is_disabled":false,"rental_uris":{"android":"levelo://app?vid=0da29927-69dd-4eb2-abcb-901424f2e657","ios":"levelo://app?vid=0da29927-69dd-4eb2-abcb-901424f2e657"},"vehicle_type_id":"4","last_reported":1722096606,"current_range_meters":10800,"station_id":"ce4bhc92rcd13ifvqetg","pricing_plan_id":"cebpf4jnsgd1na2vs0mg"},{"bike_id":"cc10878a-d175-40c4-8859-661b1daf3230","system_id":"levelo_inurba_marseille","lat":43.28937,"lon":5.36635,"is_reserved":false,"is_disabled":false,"rental_uris":{"android":"levelo://app?vid=cc10878a-d175-40c4-8859-661b1daf3230","ios":"levelo://app?vid=cc10878a-d175-40c4-8859-661b1daf3230"},"vehicle_type_id":"4","last_reported":1722096606,"current_range_meters":0,"station_id":"ce4bhap2rcd13ifvqek0","pricing_plan_id":"cebpf4jnsgd1na2vs0mg"},{"bike_id":"4834f627-6aff-47a0-b4ed-f11363ac0d0d","system_id":"levelo_inurba_marseille","lat":43.29008,"lon":5.35621,"is_reserved":false,"is_disabled":false,"rental_uris":{"android":"levelo://app?vid=4834f627-6aff-47a0-b4ed-f11363ac0d0d","ios":"levelo://app?vid=4834f627-6aff-47a0-b4ed-f11363ac0d0d"},"vehicle_type_id":"4","last_reported":1722096606,"current_range_meters":0,"station_id":"ce4bhb92rcd13ifvqen0","pricing_plan_id":"cebpf4jnsgd1na2vs0mg"},{"bike_id":"dc13c73e-6517-45d6-836d-0e5b5014e000","system_id":"levelo_inurba_marseille","lat":43.290104,"lon":5.356111,"is_reserved":false,"is_disabled":false,"rental_uris":{"android":"levelo://app?vid=dc13c73e-6517-45d6-836d-0e5b5014e000","ios":"levelo://app?vid=dc13c73e-6517-45d6-836d-0e5b5014e000"},"vehicle_type_id":"4","last_reported":1722096606,"current_range_meters":0,"station_id":"ce4bhb92rcd13ifvqen0","pricing_plan_id":"cebpf4jnsgd1na2vs0mg"},{"bike_id":"b27a495a-b781-465d-9881-ab727e9f17cb","system_id":"levelo_inurba_marseille","lat":43.290104,"lon":5.356111,"is_reserved":false,"is_disabled":false,"rental_uris":{"android":"levelo://app?vid=b27a495a-b781-465d-9881-ab727e9f17cb","ios":"levelo://app?vid=b27a495a-b781-465d-9881-ab727e9f17cb"},"vehicle_type_id":"4","last_reported":1722096606,"current_range_meters":14400,"station_id":"ce4bhb92rcd13ifvqen0","pricing_plan_id":"cebpf4jnsgd1na2vs0mg"},{"bike_id":"09b841b3-a66a-4315-bdb4-e1a116576ae9","system_id":"levelo_inurba_marseille","lat":43.290104,"lon":5.356111,"is_reserved":false,"is_disabled":false,"rental_uris":{"android":"levelo://app?vid=09b841b3-a66a-4315-bdb4-e1a116576ae9","ios":"levelo://app?vid=09b841b3-a66a-4315-bdb4-e1a116576ae9"},"vehicle_type_id":"4","last_reported":1722096606,"current_range_meters":28000,"station_id":"ce4bhb92rcd13ifvqen0","pricing_plan_id":"cebpf4jnsgd1na2vs0mg"},{"bike_id":"9304a423-3b6d-4315-87c5-a64f63d6cf28","system_id":"levelo_inurba_marseille","lat":43.290104,"lon":5.356111,"is_reserved":false,"is_disabled":false,"rental_uris":{"android":"levelo://app?vid=9304a423-3b6d-4315-87c5-a64f63d6cf28","ios":"levelo://app?vid=9304a423-3b6d-4315-87c5-a64f63d6cf28"},"vehicle_type_id":"4","last_reported":1722096606,"current_range_meters":0,"station_id":"ce4bhb92rcd13ifvqen0","pricing_plan_id":"cebpf4jnsgd1na2vs0mg"},{"bike_id":"b13d3f2a-b5bc-4c45-8e4c-fffc920c26ca","system_id":"levelo_inurba_marseille","lat":43.29006,"lon":5.35608,"is_reserved":false,"is_disabled":false,"rental_uris":{"android":"levelo://app?vid=b13d3f2a-b5bc-4c45-8e4c-fffc920c26ca","ios":"levelo://app?vid=b13d3f2a-b5bc-4c45-8e4c-fffc920c26ca"},"vehicle_type_id":"4","last_reported":1722096606,"current_range_meters":0,"station_id":"ce4bhb92rcd13ifvqen0","pricing_plan_id":"cebpf4jnsgd1na2vs0mg"},{"bike_id":"bd45c033-1762-47fa-9c55-3cf660e5bd33","system_id":"levelo_inurba_marseille","lat":43.290995,"lon":5.381361,"is_reserved":false,"is_disabled":false,"rental_uris":{"android":"levelo://app?vid=bd45c033-1762-47fa-9c55-3cf660e5bd33","ios":"levelo://app?vid=bd45c033-1762-47fa-9c55-3cf660e5bd33"},"vehicle_type_id":"4","last_reported":1722096606,"current_range_meters":4800,"station_id":"ce4bh512rcd13ifvqe2g","pricing_plan_id":"cebpf4jnsgd1na2vs0mg"},{"bike_id":"1a8f5797-89f0-4535-8aa7-e41c1bc8482c","system_id":"levelo_inurba_marseille","lat":43.289743,"lon":5.378304,"is_reserved":false,"is_disabled":false,"rental_uris":{"android":"levelo://app?vid=1a8f5797-89f0-4535-8aa7-e41c1bc8482c","ios":"levelo://app?vid=1a8f5797-89f0-4535-8aa7-e41c1bc8482c"},"vehicle_type_id":"4","last_reported":1722096606,"current_range_meters":4800,"station_id":"ce4bh9p2rcd13ifvqed0","pricing_plan_id":"cebpf4jnsgd1na2vs0mg"},{"bike_id":"3c504b62-1123-4cdc-959f-d42cc456a2c8","system_id":"levelo_inurba_marseille","lat":43.297807,"lon":5.393533,"is_reserved":false,"is_disabled":false,"rental_uris":{"android":"levelo://app?vid=3c504b62-1123-4cdc-959f-d42cc456a2c8","ios":"levelo://app?vid=3c504b62-1123-4cdc-959f-d42cc456a2c8"},"vehicle_type_id":"4","last_reported":1722096606,"current_range_meters":2400,"station_id":"chh1huq6cuj3fo74tm60","pricing_plan_id":"cebpf4jnsgd1na2vs0mg"},{"bike_id":"2eb3c240-a844-458e-ae5a-c0db018d3984","system_id":"levelo_inurba_marseille","lat":43.289743,"lon":5.378304,"is_reserved":false,"is_disabled":false,"rental_uris":{"android":"levelo://app?vid=2eb3c240-a844-458e-ae5a-c0db018d3984","ios":"levelo://app?vid=2eb3c240-a844-458e-ae5a-c0db018d3984"},"vehicle_type_id":"4","last_reported":1722096606,"current_range_meters":18000,"station_id":"ce4bh9p2rcd13ifvqed0","pricing_plan_id":"cebpf4jnsgd1na2vs0mg"},{"bike_id":"e4ed3a0c-f491-46f8-8377-938dca022b85","system_id":"levelo_inurba_marseille","lat":43.289743,"lon":5.378304,"is_reserved":false,"is_disabled":false,"rental_uris":{"android":"levelo://app?vid=e4ed3a0c-f491-46f8-8377-938dca022b85","ios":"levelo://app?vid=e4ed3a0c-f491-46f8-8377-938dca022b85"},"vehicle_type_id":"4","last_reported":1722096606,"current_range_meters":11200,"station_id":"ce4bh9p2rcd13ifvqed0","pricing_plan_id":"cebpf4jnsgd1na2vs0mg"},{"bike_id":"57ee9d6b-fa90-4bff-a36c-4414e83dbe30","system_id":"levelo_inurba_marseille","lat":43.330442,"lon":5.389148,"is_reserved":false,"is_disabled":false,"rental_uris":{"android":"levelo://app?vid=57ee9d6b-fa90-4bff-a36c-4414e83dbe30","ios":"levelo://app?vid=57ee9d6b-fa90-4bff-a36c-4414e83dbe30"},"vehicle_type_id":"4","last_reported":1722096606,"current_range_meters":3200,"station_id":"ce4bhr92rcd13ifvqhrg","pricing_plan_id":"cebpf4jnsgd1na2vs0mg"},{"bike_id":"1d8b6ef3-f114-4905-9295-d0d348a8efd6","system_id":"levelo_inurba_marseille","lat":43.295169,"lon":5.390426,"is_reserved":false,"is_disabled":false,"rental_uris":{"android":"levelo://app?vid=1d8b6ef3-f114-4905-9295-d0d348a8efd6","ios":"levelo://app?vid=1d8b6ef3-f114-4905-9295-d0d348a8efd6"},"vehicle_type_id":"4","last_reported":1722096606,"current_range_meters":3200,"station_id":"ce4bh3p2rcd13ifvqdp0","pricing_plan_id":"cebpf4jnsgd1na2vs0mg"},{"bike_id":"681fb8db-7862-485f-b628-4166fd28397f","system_id":"levelo_inurba_marseille","lat":43.289743,"lon":5.378304,"is_reserved":false,"is_disabled":false,"rental_uris":{"android":"levelo://app?vid=681fb8db-7862-485f-b628-4166fd28397f","ios":"levelo://app?vid=681fb8db-7862-485f-b628-4166fd28397f"},"vehicle_type_id":"4","last_reported":1722096606,"current_range_meters":13600,"station_id":"ce4bh9p2rcd13ifvqed0","pricing_plan_id":"cebpf4jnsgd1na2vs0mg"},{"bike_id":"1d1392a6-89f9-4a95-b4a2-db900d5207bf","system_id":"levelo_inurba_marseille","lat":43.289675,"lon":5.378395,"is_reserved":false,"is_disabled":false,"rental_uris":{"android":"levelo://app?vid=1d1392a6-89f9-4a95-b4a2-db900d5207bf","ios":"levelo://app?vid=1d1392a6-89f9-4a95-b4a2-db900d5207bf"},"vehicle_type_id":"4","last_reported":1722096606,"current_range_meters":2400,"station_id":"ce4bh9p2rcd13ifvqed0","pricing_plan_id":"cebpf4jnsgd1na2vs0mg"},{"bike_id":"03265a15-9cbb-437f-a0c3-187470e51679","system_id":"levelo_inurba_marseille","lat":43.31461,"lon":5.40057,"is_reserved":false,"is_disabled":false,"rental_uris":{"android":"levelo://app?vid=03265a15-9cbb-437f-a0c3-187470e51679","ios":"levelo://app?vid=03265a15-9cbb-437f-a0c3-187470e51679"},"vehicle_type_id":"4","last_reported":1722096606,"current_range_meters":800,"station_id":"","pricing_plan_id":"cebpf4jnsgd1na2vs0mg"},{"bike_id":"872e8c13-4538-409d-ba52-e9090856882a","system_id":"levelo_inurba_marseille","lat":43.2901,"lon":5.381269,"is_reserved":false,"is_disabled":false,"rental_uris":{"android":"levelo://app?vid=872e8c13-4538-409d-ba52-e9090856882a","ios":"levelo://app?vid=872e8c13-4538-409d-ba52-e9090856882a"},"vehicle_type_id":"4","last_reported":1722096606,"current_range_meters":4000,"station_id":"ce4bh4p2rcd13ifvqe1g","pricing_plan_id":"cebpf4jnsgd1na2vs0mg"},{"bike_id":"a088e7fe-0ecb-47bb-99eb-4d8903836421","system_id":"levelo_inurba_marseille","lat":43.288572,"lon":5.358523,"is_reserved":false,"is_disabled":false,"rental_uris":{"android":"levelo://app?vid=a088e7fe-0ecb-47bb-99eb-4d8903836421","ios":"levelo://app?vid=a088e7fe-0ecb-47bb-99eb-4d8903836421"},"vehicle_type_id":"4","last_reported":1722096606,"current_range_meters":2400,"station_id":"","pricing_plan_id":"cebpf4jnsgd1na2vs0mg"},{"bike_id":"3e79250c-7764-488c-b465-61fd16d31170","system_id":"levelo_inurba_marseille","lat":43.33736,"lon":5.37477,"is_reserved":false,"is_disabled":false,"rental_uris":{"android":"levelo://app?vid=3e79250c-7764-488c-b465-61fd16d31170","ios":"levelo://app?vid=3e79250c-7764-488c-b465-61fd16d31170"},"vehicle_type_id":"4","last_reported":1722096606,"current_range_meters":28800,"station_id":"","pricing_plan_id":"cebpf4jnsgd1na2vs0mg"},{"bike_id":"aaf1f089-265f-450f-92cd-bd7e9e68f33a","system_id":"levelo_inurba_marseille","lat":43.309371,"lon":5.401449,"is_reserved":false,"is_disabled":false,"rental_uris":{"android":"levelo://app?vid=aaf1f089-265f-450f-92cd-bd7e9e68f33a","ios":"levelo://app?vid=aaf1f089-265f-450f-92cd-bd7e9e68f33a"},"vehicle_type_id":"4","last_reported":1722096606,"current_range_meters":0,"station_id":"ce4bgvp2rcd13ifvqct0","pricing_plan_id":"cebpf4jnsgd1na2vs0mg"},{"bike_id":"e92bf1d5-b1ca-44cd-9b31-a0496082825d","system_id":"levelo_inurba_marseille","lat":43.33733,"lon":5.37507,"is_reserved":false,"is_disabled":false,"rental_uris":{"android":"levelo://app?vid=e92bf1d5-b1ca-44cd-9b31-a0496082825d","ios":"levelo://app?vid=e92bf1d5-b1ca-44cd-9b31-a0496082825d"},"vehicle_type_id":"4","last_reported":1722096606,"current_range_meters":28800,"station_id":"","pricing_plan_id":"cebpf4jnsgd1na2vs0mg"},{"bike_id":"6ff48f3c-927a-470d-a08e-7714539082f0","system_id":"levelo_inurba_marseille","lat":43.33739,"lon":5.37472,"is_reserved":false,"is_disabled":false,"rental_uris":{"android":"levelo://app?vid=6ff48f3c-927a-470d-a08e-7714539082f0","ios":"levelo://app?vid=6ff48f3c-927a-470d-a08e-7714539082f0"},"vehicle_type_id":"4","last_reported":1722096606,"current_range_meters":4000,"station_id":"","pricing_plan_id":"cebpf4jnsgd1na2vs0mg"},{"bike_id":"0aa226e6-2195-431b-bdc4-34bf44420451","system_id":"levelo_inurba_marseille","lat":43.337467,"lon":5.374397,"is_reserved":false,"is_disabled":false,"rental_uris":{"android":"levelo://app?vid=0aa226e6-2195-431b-bdc4-34bf44420451","ios":"levelo://app?vid=0aa226e6-2195-431b-bdc4-34bf44420451"},"vehicle_type_id":"4","last_reported":1722096606,"current_range_meters":26800,"station_id":"","pricing_plan_id":"cebpf4jnsgd1na2vs0mg"},{"bike_id":"f8e8dd66-c7d6-4bd0-91ac-ef4274ae24f3","system_id":"levelo_inurba_marseille","lat":43.337415,"lon":5.37473,"is_reserved":false,"is_disabled":false,"rental_uris":{"android":"levelo://app?vid=f8e8dd66-c7d6-4bd0-91ac-ef4274ae24f3","ios":"levelo://app?vid=f8e8dd66-c7d6-4bd0-91ac-ef4274ae24f3"},"vehicle_type_id":"4","last_reported":1722096606,"current_range_meters":21600,"station_id":"","pricing_plan_id":"cebpf4jnsgd1na2vs0mg"},{"bike_id":"28ff567c-281c-4a43-913e-e1206badf942","system_id":"levelo_inurba_marseille","lat":43.337425,"lon":5.374685,"is_reserved":false,"is_disabled":false,"rental_uris":{"android":"levelo://app?vid=28ff567c-281c-4a43-913e-e1206badf942","ios":"levelo://app?vid=28ff567c-281c-4a43-913e-e1206badf942"},"vehicle_type_id":"4","last_reported":1722096606,"current_range_meters":26400,"station_id":"","pricing_plan_id":"cebpf4jnsgd1na2vs0mg"},{"bike_id":"6cf0c176-f7c0-4e29-a014-f3a3b29e1d2a","system_id":"levelo_inurba_marseille","lat":43.337474,"lon":5.374457,"is_reserved":false,"is_disabled":false,"rental_uris":{"android":"levelo://app?vid=6cf0c176-f7c0-4e29-a014-f3a3b29e1d2a","ios":"levelo://app?vid=6cf0c176-f7c0-4e29-a014-f3a3b29e1d2a"},"vehicle_type_id":"4","last_reported":1722096606,"current_range_meters":28000,"station_id":"","pricing_plan_id":"cebpf4jnsgd1na2vs0mg"},{"bike_id":"20a7bf81-31fd-4cb5-b454-68d5314a31b8","system_id":"levelo_inurba_marseille","lat":43.337439,"lon":5.374676,"is_reserved":false,"is_disabled":false,"rental_uris":{"android":"levelo://app?vid=20a7bf81-31fd-4cb5-b454-68d5314a31b8","ios":"levelo://app?vid=20a7bf81-31fd-4cb5-b454-68d5314a31b8"},"vehicle_type_id":"4","last_reported":1722096606,"current_range_meters":30400,"station_id":"","pricing_plan_id":"cebpf4jnsgd1na2vs0mg"},{"bike_id":"f0338c4f-2f14-449f-abf8-25e44f36ca55","system_id":"levelo_inurba_marseille","lat":43.337503,"lon":5.374507,"is_reserved":false,"is_disabled":false,"rental_uris":{"android":"levelo://app?vid=f0338c4f-2f14-449f-abf8-25e44f36ca55","ios":"levelo://app?vid=f0338c4f-2f14-449f-abf8-25e44f36ca55"},"vehicle_type_id":"4","last_reported":1722096606,"current_range_meters":29200,"station_id":"","pricing_plan_id":"cebpf4jnsgd1na2vs0mg"},{"bike_id":"149ad317-2977-4c2d-b9af-065d2c29d5b4","system_id":"levelo_inurba_marseille","lat":43.287808,"lon":5.373669,"is_reserved":false,"is_disabled":false,"rental_uris":{"android":"levelo://app?vid=149ad317-2977-4c2d-b9af-065d2c29d5b4","ios":"levelo://app?vid=149ad317-2977-4c2d-b9af-065d2c29d5b4"},"vehicle_type_id":"4","last_reported":1722096606,"current_range_meters":16800,"station_id":"","pricing_plan_id":"cebpf4jnsgd1na2vs0mg"},{"bike_id":"ce2a281f-6b17-464e-8289-d463ea4cfa07","system_id":"levelo_inurba_marseille","lat":43.337553,"lon":5.374554,"is_reserved":false,"is_disabled":false,"rental_uris":{"android":"levelo://app?vid=ce2a281f-6b17-464e-8289-d463ea4cfa07","ios":"levelo://app?vid=ce2a281f-6b17-464e-8289-d463ea4cfa07"},"vehicle_type_id":"4","last_reported":1722096606,"current_range_meters":29600,"station_id":"","pricing_plan_id":"cebpf4jnsgd1na2vs0mg"},{"bike_id":"b9d59321-cae1-4db4-a127-ab4347429dc3","system_id":"levelo_inurba_marseille","lat":43.30648,"lon":5.40089,"is_reserved":false,"is_disabled":false,"rental_uris":{"android":"levelo://app?vid=b9d59321-cae1-4db4-a127-ab4347429dc3","ios":"levelo://app?vid=b9d59321-cae1-4db4-a127-ab4347429dc3"},"vehicle_type_id":"4","last_reported":1722096606,"current_range_meters":0,"station_id":"ce4bh112rcd13ifvqda0","pricing_plan_id":"cebpf4jnsgd1na2vs0mg"},{"bike_id":"8aa2d644-baee-4a3b-bda5-0eb8f3321245","system_id":"levelo_inurba_marseille","lat":43.30642,"lon":5.401031,"is_reserved":false,"is_disabled":false,"rental_uris":{"android":"levelo://app?vid=8aa2d644-baee-4a3b-bda5-0eb8f3321245","ios":"levelo://app?vid=8aa2d644-baee-4a3b-bda5-0eb8f3321245"},"vehicle_type_id":"4","last_reported":1722096606,"current_range_meters":22800,"station_id":"ce4bh112rcd13ifvqda0","pricing_plan_id":"cebpf4jnsgd1na2vs0mg"},{"bike_id":"9a73ad18-3d92-4fa0-a13b-796431af1ac3","system_id":"levelo_inurba_marseille","lat":43.30642,"lon":5.401031,"is_reserved":false,"is_disabled":false,"rental_uris":{"android":"levelo://app?vid=9a73ad18-3d92-4fa0-a13b-796431af1ac3","ios":"levelo://app?vid=9a73ad18-3d92-4fa0-a13b-796431af1ac3"},"vehicle_type_id":"4","last_reported":1722096606,"current_range_meters":9200,"station_id":"ce4bh112rcd13ifvqda0","pricing_plan_id":"cebpf4jnsgd1na2vs0mg"},{"bike_id":"42eabca5-537a-4583-80d9-141fc30f9e0c","system_id":"levelo_inurba_marseille","lat":43.28727,"lon":5.36078,"is_reserved":false,"is_disabled":false,"rental_uris":{"android":"levelo://app?vid=42eabca5-537a-4583-80d9-141fc30f9e0c","ios":"levelo://app?vid=42eabca5-537a-4583-80d9-141fc30f9e0c"},"vehicle_type_id":"4","last_reported":1722096606,"current_range_meters":9600,"station_id":"cki0cbj6b192h4jlfktg","pricing_plan_id":"cebpf4jnsgd1na2vs0mg"},{"bike_id":"1256508b-9d05-429d-92e2-1d197ee4de12","system_id":"levelo_inurba_marseille","lat":43.298681,"lon":5.397225,"is_reserved":false,"is_disabled":false,"rental_uris":{"android":"levelo://app?vid=1256508b-9d05-429d-92e2-1d197ee4de12","ios":"levelo://app?vid=1256508b-9d05-429d-92e2-1d197ee4de12"},"vehicle_type_id":"4","last_reported":1722096606,"current_range_meters":0,"station_id":"ce4bh0h2rcd13ifvqd50","pricing_plan_id":"cebpf4jnsgd1na2vs0mg"},{"bike_id":"2721729b-6d5e-4573-aaa6-483eaff784c3","system_id":"levelo_inurba_marseille","lat":43.298681,"lon":5.397225,"is_reserved":false,"is_disabled":false,"rental_uris":{"android":"levelo://app?vid=2721729b-6d5e-4573-aaa6-483eaff784c3","ios":"levelo://app?vid=2721729b-6d5e-4573-aaa6-483eaff784c3"},"vehicle_type_id":"4","last_reported":1722096606,"current_range_meters":1600,"station_id":"ce4bh0h2rcd13ifvqd50","pricing_plan_id":"cebpf4jnsgd1na2vs0mg"},{"bike_id":"26ddc4f0-ba3a-4e67-a8c6-c1e13c33ec93","system_id":"levelo_inurba_marseille","lat":43.286572,"lon":5.36351,"is_reserved":false,"is_disabled":false,"rental_uris":{"android":"levelo://app?vid=26ddc4f0-ba3a-4e67-a8c6-c1e13c33ec93","ios":"levelo://app?vid=26ddc4f0-ba3a-4e67-a8c6-c1e13c33ec93"},"vehicle_type_id":"4","last_reported":1722096606,"current_range_meters":0,"station_id":"ce4bhah2rcd13ifvqej0","pricing_plan_id":"cebpf4jnsgd1na2vs0mg"},{"bike_id":"290a2834-2ed2-4b79-a874-b7e2709a23c3","system_id":"levelo_inurba_marseille","lat":43.28657,"lon":5.36345,"is_reserved":false,"is_disabled":false,"rental_uris":{"android":"levelo://app?vid=290a2834-2ed2-4b79-a874-b7e2709a23c3","ios":"levelo://app?vid=290a2834-2ed2-4b79-a874-b7e2709a23c3"},"vehicle_type_id":"4","last_reported":1722096606,"current_range_meters":0,"station_id":"ce4bhah2rcd13ifvqej0","pricing_plan_id":"cebpf4jnsgd1na2vs0mg"},{"bike_id":"f97582dc-f45b-4947-8fab-e4776c91d3d0","system_id":"levelo_inurba_marseille","lat":43.28656,"lon":5.36354,"is_reserved":false,"is_disabled":false,"rental_uris":{"android":"levelo://app?vid=f97582dc-f45b-4947-8fab-e4776c91d3d0","ios":"levelo://app?vid=f97582dc-f45b-4947-8fab-e4776c91d3d0"},"vehicle_type_id":"4","last_reported":1722096606,"current_range_meters":0,"station_id":"ce4bhah2rcd13ifvqej0","pricing_plan_id":"cebpf4jnsgd1na2vs0mg"},{"bike_id":"d1778cd9-aa78-4a6b-9ed2-6b5fa3147e53","system_id":"levelo_inurba_marseille","lat":43.302759,"lon":5.400793,"is_reserved":false,"is_disabled":false,"rental_uris":{"android":"levelo://app?vid=d1778cd9-aa78-4a6b-9ed2-6b5fa3147e53","ios":"levelo://app?vid=d1778cd9-aa78-4a6b-9ed2-6b5fa3147e53"},"vehicle_type_id":"4","last_reported":1722096606,"current_range_meters":19600,"station_id":"ce4bgvh2rcd13ifvqcs0","pricing_plan_id":"cebpf4jnsgd1na2vs0mg"},{"bike_id":"83f04a0c-419f-4ebd-af4e-0fcbaed4ae66","system_id":"levelo_inurba_marseille","lat":43.289307,"lon":5.38406,"is_reserved":false,"is_disabled":false,"rental_uris":{"android":"levelo://app?vid=83f04a0c-419f-4ebd-af4e-0fcbaed4ae66","ios":"levelo://app?vid=83f04a0c-419f-4ebd-af4e-0fcbaed4ae66"},"vehicle_type_id":"4","last_reported":1722096606,"current_range_meters":14400,"station_id":"ce4bh612rcd13ifvqe6g","pricing_plan_id":"cebpf4jnsgd1na2vs0mg"},{"bike_id":"244d3472-a409-4b57-bd4b-e27194a78a08","system_id":"levelo_inurba_marseille","lat":43.289307,"lon":5.38406,"is_reserved":false,"is_disabled":false,"rental_uris":{"android":"levelo://app?vid=244d3472-a409-4b57-bd4b-e27194a78a08","ios":"levelo://app?vid=244d3472-a409-4b57-bd4b-e27194a78a08"},"vehicle_type_id":"4","last_reported":1722096606,"current_range_meters":400,"station_id":"ce4bh612rcd13ifvqe6g","pricing_plan_id":"cebpf4jnsgd1na2vs0mg"},{"bike_id":"0bcffbf1-d69e-4882-b1aa-8f0e5e944cc7","system_id":"levelo_inurba_marseille","lat":43.289307,"lon":5.38406,"is_reserved":false,"is_disabled":false,"rental_uris":{"android":"levelo://app?vid=0bcffbf1-d69e-4882-b1aa-8f0e5e944cc7","ios":"levelo://app?vid=0bcffbf1-d69e-4882-b1aa-8f0e5e944cc7"},"vehicle_type_id":"4","last_reported":1722096606,"current_range_meters":7200,"station_id":"ce4bh612rcd13ifvqe6g","pricing_plan_id":"cebpf4jnsgd1na2vs0mg"},{"bike_id":"a3d3d276-de01-4727-bd81-39907353890f","system_id":"levelo_inurba_marseille","lat":43.290336,"lon":5.386425,"is_reserved":false,"is_disabled":false,"rental_uris":{"android":"levelo://app?vid=a3d3d276-de01-4727-bd81-39907353890f","ios":"levelo://app?vid=a3d3d276-de01-4727-bd81-39907353890f"},"vehicle_type_id":"4","last_reported":1722096606,"current_range_meters":4800,"station_id":"ce4bh4p2rcd13ifvqe0g","pricing_plan_id":"cebpf4jnsgd1na2vs0mg"},{"bike_id":"7ccb955e-4b21-4184-ab22-6cc961c52766","system_id":"levelo_inurba_marseille","lat":43.302759,"lon":5.400793,"is_reserved":false,"is_disabled":false,"rental_uris":{"android":"levelo://app?vid=7ccb955e-4b21-4184-ab22-6cc961c52766","ios":"levelo://app?vid=7ccb955e-4b21-4184-ab22-6cc961c52766"},"vehicle_type_id":"4","last_reported":1722096606,"current_range_meters":800,"station_id":"ce4bgvh2rcd13ifvqcs0","pricing_plan_id":"cebpf4jnsgd1na2vs0mg"},{"bike_id":"ce8f32c6-4cc4-466f-9c92-39cd0ec7b093","system_id":"levelo_inurba_marseille","lat":43.286039,"lon":5.370679,"is_reserved":false,"is_disabled":false,"rental_uris":{"android":"levelo://app?vid=ce8f32c6-4cc4-466f-9c92-39cd0ec7b093","ios":"levelo://app?vid=ce8f32c6-4cc4-466f-9c92-39cd0ec7b093"},"vehicle_type_id":"4","last_reported":1722096606,"current_range_meters":0,"station_id":"ce4bht12rcd13ifvqi60","pricing_plan_id":"cebpf4jnsgd1na2vs0mg"},{"bike_id":"668bd941-f8db-4982-8d9b-e8ff598ead0e","system_id":"levelo_inurba_marseille","lat":43.286039,"lon":5.370679,"is_reserved":false,"is_disabled":false,"rental_uris":{"android":"levelo://app?vid=668bd941-f8db-4982-8d9b-e8ff598ead0e","ios":"levelo://app?vid=668bd941-f8db-4982-8d9b-e8ff598ead0e"},"vehicle_type_id":"4","last_reported":1722096606,"current_range_meters":12800,"station_id":"ce4bht12rcd13ifvqi60","pricing_plan_id":"cebpf4jnsgd1na2vs0mg"},{"bike_id":"21f45e9a-7d20-450b-8f12-3d96701d53ed","system_id":"levelo_inurba_marseille","lat":43.314023,"lon":5.403991,"is_reserved":false,"is_disabled":false,"rental_uris":{"android":"levelo://app?vid=21f45e9a-7d20-450b-8f12-3d96701d53ed","ios":"levelo://app?vid=21f45e9a-7d20-450b-8f12-3d96701d53ed"},"vehicle_type_id":"4","last_reported":1722096606,"current_range_meters":0,"station_id":"","pricing_plan_id":"cebpf4jnsgd1na2vs0mg"},{"bike_id":"a67cf266-3679-4c1d-b02f-eb4533146d8e","system_id":"levelo_inurba_marseille","lat":43.287184,"lon":5.37937,"is_reserved":false,"is_disabled":false,"rental_uris":{"android":"levelo://app?vid=a67cf266-3679-4c1d-b02f-eb4533146d8e","ios":"levelo://app?vid=a67cf266-3679-4c1d-b02f-eb4533146d8e"},"vehicle_type_id":"4","last_reported":1722096606,"current_range_meters":24800,"station_id":"ce4bh9p2rcd13ifvqec0","pricing_plan_id":"cebpf4jnsgd1na2vs0mg"},{"bike_id":"21735d76-ad96-4496-9454-e6e4a3a0a65f","system_id":"levelo_inurba_marseille","lat":43.287184,"lon":5.37937,"is_reserved":false,"is_disabled":false,"rental_uris":{"android":"levelo://app?vid=21735d76-ad96-4496-9454-e6e4a3a0a65f","ios":"levelo://app?vid=21735d76-ad96-4496-9454-e6e4a3a0a65f"},"vehicle_type_id":"4","last_reported":1722096606,"current_range_meters":2400,"station_id":"ce4bh9p2rcd13ifvqec0","pricing_plan_id":"cebpf4jnsgd1na2vs0mg"},{"bike_id":"eccd01a6-1849-4bb9-a34a-ac71593ee009","system_id":"levelo_inurba_marseille","lat":43.316828,"lon":5.404723,"is_reserved":false,"is_disabled":false,"rental_uris":{"android":"levelo://app?vid=eccd01a6-1849-4bb9-a34a-ac71593ee009","ios":"levelo://app?vid=eccd01a6-1849-4bb9-a34a-ac71593ee009"},"vehicle_type_id":"4","last_reported":1722096606,"current_range_meters":800,"station_id":"ce4bh012rcd13ifvqd00","pricing_plan_id":"cebpf4jnsgd1na2vs0mg"},{"bike_id":"cff6d62d-66fa-418c-b49d-1b0ede718885","system_id":"levelo_inurba_marseille","lat":43.291994,"lon":5.392907,"is_reserved":false,"is_disabled":false,"rental_uris":{"android":"levelo://app?vid=cff6d62d-66fa-418c-b49d-1b0ede718885","ios":"levelo://app?vid=cff6d62d-66fa-418c-b49d-1b0ede718885"},"vehicle_type_id":"4","last_reported":1722096606,"current_range_meters":400,"station_id":"ce4bh192rcd13ifvqdd0","pricing_plan_id":"cebpf4jnsgd1na2vs0mg"},{"bike_id":"2dcf3898-c53f-4d46-bf7a-949341cab24b","system_id":"levelo_inurba_marseille","lat":43.291994,"lon":5.392907,"is_reserved":false,"is_disabled":false,"rental_uris":{"android":"levelo://app?vid=2dcf3898-c53f-4d46-bf7a-949341cab24b","ios":"levelo://app?vid=2dcf3898-c53f-4d46-bf7a-949341cab24b"},"vehicle_type_id":"4","last_reported":1722096606,"current_range_meters":10400,"station_id":"ce4bh192rcd13ifvqdd0","pricing_plan_id":"cebpf4jnsgd1na2vs0mg"},{"bike_id":"bb1be8c2-6551-4e36-883e-6200cfadcfa7","system_id":"levelo_inurba_marseille","lat":43.28463,"lon":5.35891,"is_reserved":false,"is_disabled":false,"rental_uris":{"android":"levelo://app?vid=bb1be8c2-6551-4e36-883e-6200cfadcfa7","ios":"levelo://app?vid=bb1be8c2-6551-4e36-883e-6200cfadcfa7"},"vehicle_type_id":"4","last_reported":1722096606,"current_range_meters":11200,"station_id":"ce4bhah2rcd13ifvqei0","pricing_plan_id":"cebpf4jnsgd1na2vs0mg"},{"bike_id":"5ab9c4a3-0f81-4033-a558-4eb0cf2707c2","system_id":"levelo_inurba_marseille","lat":43.284538,"lon":5.358657,"is_reserved":false,"is_disabled":false,"rental_uris":{"android":"levelo://app?vid=5ab9c4a3-0f81-4033-a558-4eb0cf2707c2","ios":"levelo://app?vid=5ab9c4a3-0f81-4033-a558-4eb0cf2707c2"},"vehicle_type_id":"4","last_reported":1722096606,"current_range_meters":800,"station_id":"ce4bhah2rcd13ifvqei0","pricing_plan_id":"cebpf4jnsgd1na2vs0mg"},{"bike_id":"b43cd54a-828f-4bc1-90c2-a200b8bfb950","system_id":"levelo_inurba_marseille","lat":43.294314,"lon":5.397498,"is_reserved":false,"is_disabled":false,"rental_uris":{"android":"levelo://app?vid=b43cd54a-828f-4bc1-90c2-a200b8bfb950","ios":"levelo://app?vid=b43cd54a-828f-4bc1-90c2-a200b8bfb950"},"vehicle_type_id":"4","last_reported":1722096606,"current_range_meters":7600,"station_id":"ce4bh3h2rcd13ifvqdo0","pricing_plan_id":"cebpf4jnsgd1na2vs0mg"},{"bike_id":"493e2d3a-7834-4ea0-81dd-4ab70bd3b817","system_id":"levelo_inurba_marseille","lat":43.28458,"lon":5.35897,"is_reserved":false,"is_disabled":false,"rental_uris":{"android":"levelo://app?vid=493e2d3a-7834-4ea0-81dd-4ab70bd3b817","ios":"levelo://app?vid=493e2d3a-7834-4ea0-81dd-4ab70bd3b817"},"vehicle_type_id":"4","last_reported":1722096606,"current_range_meters":10800,"station_id":"ce4bhah2rcd13ifvqei0","pricing_plan_id":"cebpf4jnsgd1na2vs0mg"},{"bike_id":"a071796e-20d9-4a30-b05c-ed5cf590f849","system_id":"levelo_inurba_marseille","lat":43.28459,"lon":5.35887,"is_reserved":false,"is_disabled":false,"rental_uris":{"android":"levelo://app?vid=a071796e-20d9-4a30-b05c-ed5cf590f849","ios":"levelo://app?vid=a071796e-20d9-4a30-b05c-ed5cf590f849"},"vehicle_type_id":"4","last_reported":1722096606,"current_range_meters":0,"station_id":"ce4bhah2rcd13ifvqei0","pricing_plan_id":"cebpf4jnsgd1na2vs0mg"},{"bike_id":"c0b700f9-bfe9-4dcb-bc65-3c2a6135adc5","system_id":"levelo_inurba_marseille","lat":43.28457,"lon":5.359,"is_reserved":false,"is_disabled":false,"rental_uris":{"android":"levelo://app?vid=c0b700f9-bfe9-4dcb-bc65-3c2a6135adc5","ios":"levelo://app?vid=c0b700f9-bfe9-4dcb-bc65-3c2a6135adc5"},"vehicle_type_id":"4","last_reported":1722096606,"current_range_meters":22000,"station_id":"ce4bhah2rcd13ifvqei0","pricing_plan_id":"cebpf4jnsgd1na2vs0mg"},{"bike_id":"141b3900-f226-4f6b-9e49-27526ad85296","system_id":"levelo_inurba_marseille","lat":43.28456,"lon":5.359,"is_reserved":false,"is_disabled":false,"rental_uris":{"android":"levelo://app?vid=141b3900-f226-4f6b-9e49-27526ad85296","ios":"levelo://app?vid=141b3900-f226-4f6b-9e49-27526ad85296"},"vehicle_type_id":"4","last_reported":1722096606,"current_range_meters":27200,"station_id":"ce4bhah2rcd13ifvqei0","pricing_plan_id":"cebpf4jnsgd1na2vs0mg"},{"bike_id":"2a7ca6ff-bfdc-49c8-8b3f-da0372eefd2f","system_id":"levelo_inurba_marseille","lat":43.28457,"lon":5.35886,"is_reserved":false,"is_disabled":false,"rental_uris":{"android":"levelo://app?vid=2a7ca6ff-bfdc-49c8-8b3f-da0372eefd2f","ios":"levelo://app?vid=2a7ca6ff-bfdc-49c8-8b3f-da0372eefd2f"},"vehicle_type_id":"4","last_reported":1722096606,"current_range_meters":0,"station_id":"ce4bhah2rcd13ifvqei0","pricing_plan_id":"cebpf4jnsgd1na2vs0mg"},{"bike_id":"8cceded8-dedf-4f8d-85cc-49e714aee624","system_id":"levelo_inurba_marseille","lat":43.294314,"lon":5.397498,"is_reserved":false,"is_disabled":false,"rental_uris":{"android":"levelo://app?vid=8cceded8-dedf-4f8d-85cc-49e714aee624","ios":"levelo://app?vid=8cceded8-dedf-4f8d-85cc-49e714aee624"},"vehicle_type_id":"4","last_reported":1722096606,"current_range_meters":400,"station_id":"ce4bh3h2rcd13ifvqdo0","pricing_plan_id":"cebpf4jnsgd1na2vs0mg"},{"bike_id":"9b3d31dd-4175-4f91-9e36-d5c44a092b25","system_id":"levelo_inurba_marseille","lat":43.2863,"lon":5.35123,"is_reserved":false,"is_disabled":false,"rental_uris":{"android":"levelo://app?vid=9b3d31dd-4175-4f91-9e36-d5c44a092b25","ios":"levelo://app?vid=9b3d31dd-4175-4f91-9e36-d5c44a092b25"},"vehicle_type_id":"4","last_reported":1722096606,"current_range_meters":19600,"station_id":"","pricing_plan_id":"cebpf4jnsgd1na2vs0mg"},{"bike_id":"68bb63a8-7384-4d6e-ab57-2958112d4a1d","system_id":"levelo_inurba_marseille","lat":43.28624,"lon":5.35108,"is_reserved":false,"is_disabled":false,"rental_uris":{"android":"levelo://app?vid=68bb63a8-7384-4d6e-ab57-2958112d4a1d","ios":"levelo://app?vid=68bb63a8-7384-4d6e-ab57-2958112d4a1d"},"vehicle_type_id":"4","last_reported":1722096606,"current_range_meters":0,"station_id":"ce4bhch2rcd13ifvqeug","pricing_plan_id":"cebpf4jnsgd1na2vs0mg"},{"bike_id":"6e9ae5a9-d756-49ef-b502-6fbf66711372","system_id":"levelo_inurba_marseille","lat":43.28616,"lon":5.35111,"is_reserved":false,"is_disabled":false,"rental_uris":{"android":"levelo://app?vid=6e9ae5a9-d756-49ef-b502-6fbf66711372","ios":"levelo://app?vid=6e9ae5a9-d756-49ef-b502-6fbf66711372"},"vehicle_type_id":"4","last_reported":1722096606,"current_range_meters":0,"station_id":"ce4bhch2rcd13ifvqeug","pricing_plan_id":"cebpf4jnsgd1na2vs0mg"},{"bike_id":"4d391fdd-66ed-462e-a0af-3b655dadaab0","system_id":"levelo_inurba_marseille","lat":43.28617,"lon":5.35101,"is_reserved":false,"is_disabled":false,"rental_uris":{"android":"levelo://app?vid=4d391fdd-66ed-462e-a0af-3b655dadaab0","ios":"levelo://app?vid=4d391fdd-66ed-462e-a0af-3b655dadaab0"},"vehicle_type_id":"4","last_reported":1722096606,"current_range_meters":2400,"station_id":"ce4bhch2rcd13ifvqeug","pricing_plan_id":"cebpf4jnsgd1na2vs0mg"},{"bike_id":"524af3ed-1a36-4b94-b39a-7964a5fbaa80","system_id":"levelo_inurba_marseille","lat":43.28616,"lon":5.35104,"is_reserved":false,"is_disabled":false,"rental_uris":{"android":"levelo://app?vid=524af3ed-1a36-4b94-b39a-7964a5fbaa80","ios":"levelo://app?vid=524af3ed-1a36-4b94-b39a-7964a5fbaa80"},"vehicle_type_id":"4","last_reported":1722096606,"current_range_meters":3600,"station_id":"ce4bhch2rcd13ifvqeug","pricing_plan_id":"cebpf4jnsgd1na2vs0mg"},{"bike_id":"f47281a1-f6eb-4c5b-8832-eb1f85bd1fc8","system_id":"levelo_inurba_marseille","lat":43.28617,"lon":5.351,"is_reserved":false,"is_disabled":false,"rental_uris":{"android":"levelo://app?vid=f47281a1-f6eb-4c5b-8832-eb1f85bd1fc8","ios":"levelo://app?vid=f47281a1-f6eb-4c5b-8832-eb1f85bd1fc8"},"vehicle_type_id":"4","last_reported":1722096606,"current_range_meters":22400,"station_id":"ce4bhch2rcd13ifvqeug","pricing_plan_id":"cebpf4jnsgd1na2vs0mg"},{"bike_id":"b1dcebbe-2f26-4972-a4c3-cfd6d1b59bc3","system_id":"levelo_inurba_marseille","lat":43.28613,"lon":5.35108,"is_reserved":false,"is_disabled":false,"rental_uris":{"android":"levelo://app?vid=b1dcebbe-2f26-4972-a4c3-cfd6d1b59bc3","ios":"levelo://app?vid=b1dcebbe-2f26-4972-a4c3-cfd6d1b59bc3"},"vehicle_type_id":"4","last_reported":1722096606,"current_range_meters":4000,"station_id":"ce4bhch2rcd13ifvqeug","pricing_plan_id":"cebpf4jnsgd1na2vs0mg"},{"bike_id":"2d3c31c5-960d-40cd-8079-77bcc6293f17","system_id":"levelo_inurba_marseille","lat":43.28614,"lon":5.35104,"is_reserved":false,"is_disabled":false,"rental_uris":{"android":"levelo://app?vid=2d3c31c5-960d-40cd-8079-77bcc6293f17","ios":"levelo://app?vid=2d3c31c5-960d-40cd-8079-77bcc6293f17"},"vehicle_type_id":"4","last_reported":1722096606,"current_range_meters":11600,"station_id":"ce4bhch2rcd13ifvqeug","pricing_plan_id":"cebpf4jnsgd1na2vs0mg"},{"bike_id":"165a960f-9e1e-4f7e-942b-4898d83b7f34","system_id":"levelo_inurba_marseille","lat":43.28612,"lon":5.35109,"is_reserved":false,"is_disabled":false,"rental_uris":{"android":"levelo://app?vid=165a960f-9e1e-4f7e-942b-4898d83b7f34","ios":"levelo://app?vid=165a960f-9e1e-4f7e-942b-4898d83b7f34"},"vehicle_type_id":"4","last_reported":1722096606,"current_range_meters":0,"station_id":"ce4bhch2rcd13ifvqeug","pricing_plan_id":"cebpf4jnsgd1na2vs0mg"},{"bike_id":"e8484b54-bfb7-4357-8f80-a22a627e22e0","system_id":"levelo_inurba_marseille","lat":43.28614,"lon":5.35102,"is_reserved":false,"is_disabled":false,"rental_uris":{"android":"levelo://app?vid=e8484b54-bfb7-4357-8f80-a22a627e22e0","ios":"levelo://app?vid=e8484b54-bfb7-4357-8f80-a22a627e22e0"},"vehicle_type_id":"4","last_reported":1722096606,"current_range_meters":28400,"station_id":"ce4bhch2rcd13ifvqeug","pricing_plan_id":"cebpf4jnsgd1na2vs0mg"},{"bike_id":"a1fb0234-862c-4247-99a7-e57367b0c1cf","system_id":"levelo_inurba_marseille","lat":43.28614,"lon":5.35102,"is_reserved":false,"is_disabled":false,"rental_uris":{"android":"levelo://app?vid=a1fb0234-862c-4247-99a7-e57367b0c1cf","ios":"levelo://app?vid=a1fb0234-862c-4247-99a7-e57367b0c1cf"},"vehicle_type_id":"4","last_reported":1722096606,"current_range_meters":31200,"station_id":"ce4bhch2rcd13ifvqeug","pricing_plan_id":"cebpf4jnsgd1na2vs0mg"},{"bike_id":"78784ea7-f0f5-421a-8119-a6cc86e761ae","system_id":"levelo_inurba_marseille","lat":43.28615,"lon":5.35098,"is_reserved":false,"is_disabled":false,"rental_uris":{"android":"levelo://app?vid=78784ea7-f0f5-421a-8119-a6cc86e761ae","ios":"levelo://app?vid=78784ea7-f0f5-421a-8119-a6cc86e761ae"},"vehicle_type_id":"4","last_reported":1722096606,"current_range_meters":10400,"station_id":"ce4bhch2rcd13ifvqeug","pricing_plan_id":"cebpf4jnsgd1na2vs0mg"},{"bike_id":"62296e16-6ba9-43de-b4d4-b9cab647ebb3","system_id":"levelo_inurba_marseille","lat":43.28613,"lon":5.35103,"is_reserved":false,"is_disabled":false,"rental_uris":{"android":"levelo://app?vid=62296e16-6ba9-43de-b4d4-b9cab647ebb3","ios":"levelo://app?vid=62296e16-6ba9-43de-b4d4-b9cab647ebb3"},"vehicle_type_id":"4","last_reported":1722096606,"current_range_meters":4000,"station_id":"ce4bhch2rcd13ifvqeug","pricing_plan_id":"cebpf4jnsgd1na2vs0mg"},{"bike_id":"a187a3be-5859-4d3a-827a-8d8d0e7b2144","system_id":"levelo_inurba_marseille","lat":43.28613,"lon":5.35102,"is_reserved":false,"is_disabled":false,"rental_uris":{"android":"levelo://app?vid=a187a3be-5859-4d3a-827a-8d8d0e7b2144","ios":"levelo://app?vid=a187a3be-5859-4d3a-827a-8d8d0e7b2144"},"vehicle_type_id":"4","last_reported":1722096606,"current_range_meters":25600,"station_id":"ce4bhch2rcd13ifvqeug","pricing_plan_id":"cebpf4jnsgd1na2vs0mg"},{"bike_id":"14f10890-feef-4462-95e1-aa8ebc968e34","system_id":"levelo_inurba_marseille","lat":43.28612,"lon":5.35104,"is_reserved":false,"is_disabled":false,"rental_uris":{"android":"levelo://app?vid=14f10890-feef-4462-95e1-aa8ebc968e34","ios":"levelo://app?vid=14f10890-feef-4462-95e1-aa8ebc968e34"},"vehicle_type_id":"4","last_reported":1722096606,"current_range_meters":10400,"station_id":"ce4bhch2rcd13ifvqeug","pricing_plan_id":"cebpf4jnsgd1na2vs0mg"},{"bike_id":"7f4cd0dd-d743-4396-a21a-887e78b47fbe","system_id":"levelo_inurba_marseille","lat":43.28612,"lon":5.35104,"is_reserved":false,"is_disabled":false,"rental_uris":{"android":"levelo://app?vid=7f4cd0dd-d743-4396-a21a-887e78b47fbe","ios":"levelo://app?vid=7f4cd0dd-d743-4396-a21a-887e78b47fbe"},"vehicle_type_id":"4","last_reported":1722096606,"current_range_meters":0,"station_id":"ce4bhch2rcd13ifvqeug","pricing_plan_id":"cebpf4jnsgd1na2vs0mg"},{"bike_id":"e3b95ea3-8cdd-42db-8688-37d34fd19ec3","system_id":"levelo_inurba_marseille","lat":43.28613,"lon":5.35098,"is_reserved":false,"is_disabled":false,"rental_uris":{"android":"levelo://app?vid=e3b95ea3-8cdd-42db-8688-37d34fd19ec3","ios":"levelo://app?vid=e3b95ea3-8cdd-42db-8688-37d34fd19ec3"},"vehicle_type_id":"4","last_reported":1722096606,"current_range_meters":16800,"station_id":"ce4bhch2rcd13ifvqeug","pricing_plan_id":"cebpf4jnsgd1na2vs0mg"},{"bike_id":"69815a8d-7df8-4a01-b8f0-b6154bf375e0","system_id":"levelo_inurba_marseille","lat":43.28612,"lon":5.35099,"is_reserved":false,"is_disabled":false,"rental_uris":{"android":"levelo://app?vid=69815a8d-7df8-4a01-b8f0-b6154bf375e0","ios":"levelo://app?vid=69815a8d-7df8-4a01-b8f0-b6154bf375e0"},"vehicle_type_id":"4","last_reported":1722096606,"current_range_meters":25600,"station_id":"ce4bhch2rcd13ifvqeug","pricing_plan_id":"cebpf4jnsgd1na2vs0mg"},{"bike_id":"c007c553-67dc-4371-a791-3316a2ca47df","system_id":"levelo_inurba_marseille","lat":43.28612,"lon":5.35098,"is_reserved":false,"is_disabled":false,"rental_uris":{"android":"levelo://app?vid=c007c553-67dc-4371-a791-3316a2ca47df","ios":"levelo://app?vid=c007c553-67dc-4371-a791-3316a2ca47df"},"vehicle_type_id":"4","last_reported":1722096606,"current_range_meters":24400,"station_id":"ce4bhch2rcd13ifvqeug","pricing_plan_id":"cebpf4jnsgd1na2vs0mg"},{"bike_id":"8399d982-4a71-4452-8746-81f0bf2d15f4","system_id":"levelo_inurba_marseille","lat":43.28415,"lon":5.37521,"is_reserved":false,"is_disabled":false,"rental_uris":{"android":"levelo://app?vid=8399d982-4a71-4452-8746-81f0bf2d15f4","ios":"levelo://app?vid=8399d982-4a71-4452-8746-81f0bf2d15f4"},"vehicle_type_id":"4","last_reported":1722096606,"current_range_meters":0,"station_id":"ce4bh412rcd13ifvqds0","pricing_plan_id":"cebpf4jnsgd1na2vs0mg"},{"bike_id":"42f4d97a-a5bc-4bb4-9544-71d827031443","system_id":"levelo_inurba_marseille","lat":43.283998,"lon":5.375062,"is_reserved":false,"is_disabled":false,"rental_uris":{"android":"levelo://app?vid=42f4d97a-a5bc-4bb4-9544-71d827031443","ios":"levelo://app?vid=42f4d97a-a5bc-4bb4-9544-71d827031443"},"vehicle_type_id":"4","last_reported":1722096606,"current_range_meters":24400,"station_id":"ce4bh412rcd13ifvqds0","pricing_plan_id":"cebpf4jnsgd1na2vs0mg"},{"bike_id":"e56dd7f0-f1bc-40ef-a7b7-5e69f19b5ec9","system_id":"levelo_inurba_marseille","lat":43.28405,"lon":5.37481,"is_reserved":false,"is_disabled":false,"rental_uris":{"android":"levelo://app?vid=e56dd7f0-f1bc-40ef-a7b7-5e69f19b5ec9","ios":"levelo://app?vid=e56dd7f0-f1bc-40ef-a7b7-5e69f19b5ec9"},"vehicle_type_id":"4","last_reported":1722096606,"current_range_meters":16800,"station_id":"ce4bh412rcd13ifvqds0","pricing_plan_id":"cebpf4jnsgd1na2vs0mg"},{"bike_id":"e8cfbd5a-c96e-4c4d-9355-ec0dabe24079","system_id":"levelo_inurba_marseille","lat":43.295713,"lon":5.399639,"is_reserved":false,"is_disabled":false,"rental_uris":{"android":"levelo://app?vid=e8cfbd5a-c96e-4c4d-9355-ec0dabe24079","ios":"levelo://app?vid=e8cfbd5a-c96e-4c4d-9355-ec0dabe24079"},"vehicle_type_id":"4","last_reported":1722096606,"current_range_meters":12800,"station_id":"ce4bh312rcd13ifvqdj0","pricing_plan_id":"cebpf4jnsgd1na2vs0mg"},{"bike_id":"2a82a9e9-a034-41ff-9550-66b55cc3fdaf","system_id":"levelo_inurba_marseille","lat":43.28401,"lon":5.37534,"is_reserved":false,"is_disabled":false,"rental_uris":{"android":"levelo://app?vid=2a82a9e9-a034-41ff-9550-66b55cc3fdaf","ios":"levelo://app?vid=2a82a9e9-a034-41ff-9550-66b55cc3fdaf"},"vehicle_type_id":"4","last_reported":1722096606,"current_range_meters":19600,"station_id":"ce4bh412rcd13ifvqds0","pricing_plan_id":"cebpf4jnsgd1na2vs0mg"},{"bike_id":"96ceae96-6408-4089-b29a-eca1694a8d90","system_id":"levelo_inurba_marseille","lat":43.323464,"lon":5.406297,"is_reserved":false,"is_disabled":false,"rental_uris":{"android":"levelo://app?vid=96ceae96-6408-4089-b29a-eca1694a8d90","ios":"levelo://app?vid=96ceae96-6408-4089-b29a-eca1694a8d90"},"vehicle_type_id":"4","last_reported":1722096606,"current_range_meters":5200,"station_id":"ce4bhq92rcd13ifvqhjg","pricing_plan_id":"cebpf4jnsgd1na2vs0mg"},{"bike_id":"0b2e5d89-1086-43d4-995a-0bdcb4d624c7","system_id":"levelo_inurba_marseille","lat":43.284793,"lon":5.384119,"is_reserved":false,"is_disabled":false,"rental_uris":{"android":"levelo://app?vid=0b2e5d89-1086-43d4-995a-0bdcb4d624c7","ios":"levelo://app?vid=0b2e5d89-1086-43d4-995a-0bdcb4d624c7"},"vehicle_type_id":"4","last_reported":1722096606,"current_range_meters":0,"station_id":"ce4bh512rcd13ifvqe3g","pricing_plan_id":"cebpf4jnsgd1na2vs0mg"},{"bike_id":"30db2918-d082-4334-9571-258ab369384c","system_id":"levelo_inurba_marseille","lat":43.284793,"lon":5.384119,"is_reserved":false,"is_disabled":false,"rental_uris":{"android":"levelo://app?vid=30db2918-d082-4334-9571-258ab369384c","ios":"levelo://app?vid=30db2918-d082-4334-9571-258ab369384c"},"vehicle_type_id":"4","last_reported":1722096606,"current_range_meters":0,"station_id":"ce4bh512rcd13ifvqe3g","pricing_plan_id":"cebpf4jnsgd1na2vs0mg"},{"bike_id":"f6c231d2-d701-4f93-9f69-c4af2ae89432","system_id":"levelo_inurba_marseille","lat":43.288497,"lon":5.393089,"is_reserved":false,"is_disabled":false,"rental_uris":{"android":"levelo://app?vid=f6c231d2-d701-4f93-9f69-c4af2ae89432","ios":"levelo://app?vid=f6c231d2-d701-4f93-9f69-c4af2ae89432"},"vehicle_type_id":"4","last_reported":1722096606,"current_range_meters":12400,"station_id":"ce4bh2p2rcd13ifvqdi0","pricing_plan_id":"cebpf4jnsgd1na2vs0mg"},{"bike_id":"e92fb446-a2bd-41fa-a00b-bd79c4036c1a","system_id":"levelo_inurba_marseille","lat":43.288501,"lon":5.393087,"is_reserved":false,"is_disabled":false,"rental_uris":{"android":"levelo://app?vid=e92fb446-a2bd-41fa-a00b-bd79c4036c1a","ios":"levelo://app?vid=e92fb446-a2bd-41fa-a00b-bd79c4036c1a"},"vehicle_type_id":"4","last_reported":1722096606,"current_range_meters":23200,"station_id":"ce4bh2p2rcd13ifvqdi0","pricing_plan_id":"cebpf4jnsgd1na2vs0mg"},{"bike_id":"971e8d0d-d966-4069-8115-79cfe88453d2","system_id":"levelo_inurba_marseille","lat":43.288497,"lon":5.393089,"is_reserved":false,"is_disabled":false,"rental_uris":{"android":"levelo://app?vid=971e8d0d-d966-4069-8115-79cfe88453d2","ios":"levelo://app?vid=971e8d0d-d966-4069-8115-79cfe88453d2"},"vehicle_type_id":"4","last_reported":1722096606,"current_range_meters":26000,"station_id":"ce4bh2p2rcd13ifvqdi0","pricing_plan_id":"cebpf4jnsgd1na2vs0mg"},{"bike_id":"5dea3885-747d-42ff-8b3c-db0f2fff69f4","system_id":"levelo_inurba_marseille","lat":43.288501,"lon":5.393087,"is_reserved":false,"is_disabled":false,"rental_uris":{"android":"levelo://app?vid=5dea3885-747d-42ff-8b3c-db0f2fff69f4","ios":"levelo://app?vid=5dea3885-747d-42ff-8b3c-db0f2fff69f4"},"vehicle_type_id":"4","last_reported":1722096606,"current_range_meters":24000,"station_id":"ce4bh2p2rcd13ifvqdi0","pricing_plan_id":"cebpf4jnsgd1na2vs0mg"},{"bike_id":"b60dfc00-f151-4697-ac1f-c6ccda243ee3","system_id":"levelo_inurba_marseille","lat":43.288497,"lon":5.393089,"is_reserved":false,"is_disabled":false,"rental_uris":{"android":"levelo://app?vid=b60dfc00-f151-4697-ac1f-c6ccda243ee3","ios":"levelo://app?vid=b60dfc00-f151-4697-ac1f-c6ccda243ee3"},"vehicle_type_id":"4","last_reported":1722096606,"current_range_meters":800,"station_id":"ce4bh2p2rcd13ifvqdi0","pricing_plan_id":"cebpf4jnsgd1na2vs0mg"},{"bike_id":"9e3c838b-0d5a-4d80-8fbb-4b3699cd6737","system_id":"levelo_inurba_marseille","lat":43.283494,"lon":5.380945,"is_reserved":false,"is_disabled":false,"rental_uris":{"android":"levelo://app?vid=9e3c838b-0d5a-4d80-8fbb-4b3699cd6737","ios":"levelo://app?vid=9e3c838b-0d5a-4d80-8fbb-4b3699cd6737"},"vehicle_type_id":"4","last_reported":1722096606,"current_range_meters":5200,"station_id":"ce4bh412rcd13ifvqdr0","pricing_plan_id":"cebpf4jnsgd1na2vs0mg"},{"bike_id":"db5f8d36-9d84-40e9-9998-de19f04edfed","system_id":"levelo_inurba_marseille","lat":43.284776,"lon":5.385603,"is_reserved":false,"is_disabled":false,"rental_uris":{"android":"levelo://app?vid=db5f8d36-9d84-40e9-9998-de19f04edfed","ios":"levelo://app?vid=db5f8d36-9d84-40e9-9998-de19f04edfed"},"vehicle_type_id":"4","last_reported":1722096606,"current_range_meters":24400,"station_id":"ce4bh8p2rcd13ifvqeb0","pricing_plan_id":"cebpf4jnsgd1na2vs0mg"},{"bike_id":"25edded0-6ad9-4f56-a0f1-78cf8dd01eb0","system_id":"levelo_inurba_marseille","lat":43.288501,"lon":5.393087,"is_reserved":false,"is_disabled":false,"rental_uris":{"android":"levelo://app?vid=25edded0-6ad9-4f56-a0f1-78cf8dd01eb0","ios":"levelo://app?vid=25edded0-6ad9-4f56-a0f1-78cf8dd01eb0"},"vehicle_type_id":"4","last_reported":1722096606,"current_range_meters":14800,"station_id":"ce4bh2p2rcd13ifvqdi0","pricing_plan_id":"cebpf4jnsgd1na2vs0mg"},{"bike_id":"fb260322-938d-4342-a762-5f56edc7862a","system_id":"levelo_inurba_marseille","lat":43.284294,"lon":5.349895,"is_reserved":false,"is_disabled":false,"rental_uris":{"android":"levelo://app?vid=fb260322-938d-4342-a762-5f56edc7862a","ios":"levelo://app?vid=fb260322-938d-4342-a762-5f56edc7862a"},"vehicle_type_id":"4","last_reported":1722096606,"current_range_meters":30000,"station_id":"ce4bhbh2rcd13ifvqepg","pricing_plan_id":"cebpf4jnsgd1na2vs0mg"},{"bike_id":"53945ca2-8052-41e4-a546-7f0ae9bb2cb2","system_id":"levelo_inurba_marseille","lat":43.28423,"lon":5.34996,"is_reserved":false,"is_disabled":false,"rental_uris":{"android":"levelo://app?vid=53945ca2-8052-41e4-a546-7f0ae9bb2cb2","ios":"levelo://app?vid=53945ca2-8052-41e4-a546-7f0ae9bb2cb2"},"vehicle_type_id":"4","last_reported":1722096606,"current_range_meters":13200,"station_id":"ce4bhbh2rcd13ifvqepg","pricing_plan_id":"cebpf4jnsgd1na2vs0mg"},{"bike_id":"1afcb043-1458-4721-849a-ab32f19b8455","system_id":"levelo_inurba_marseille","lat":43.284238,"lon":5.349933,"is_reserved":false,"is_disabled":false,"rental_uris":{"android":"levelo://app?vid=1afcb043-1458-4721-849a-ab32f19b8455","ios":"levelo://app?vid=1afcb043-1458-4721-849a-ab32f19b8455"},"vehicle_type_id":"4","last_reported":1722096606,"current_range_meters":0,"station_id":"ce4bhbh2rcd13ifvqepg","pricing_plan_id":"cebpf4jnsgd1na2vs0mg"},{"bike_id":"0d078bb8-36e1-4be8-9813-1f7ede2232e2","system_id":"levelo_inurba_marseille","lat":43.28422,"lon":5.34998,"is_reserved":false,"is_disabled":false,"rental_uris":{"android":"levelo://app?vid=0d078bb8-36e1-4be8-9813-1f7ede2232e2","ios":"levelo://app?vid=0d078bb8-36e1-4be8-9813-1f7ede2232e2"},"vehicle_type_id":"4","last_reported":1722096606,"current_range_meters":20400,"station_id":"ce4bhbh2rcd13ifvqepg","pricing_plan_id":"cebpf4jnsgd1na2vs0mg"},{"bike_id":"5520c6b9-27a3-4bd3-86dc-f05bfdabc8a6","system_id":"levelo_inurba_marseille","lat":43.284219,"lon":5.3497,"is_reserved":false,"is_disabled":false,"rental_uris":{"android":"levelo://app?vid=5520c6b9-27a3-4bd3-86dc-f05bfdabc8a6","ios":"levelo://app?vid=5520c6b9-27a3-4bd3-86dc-f05bfdabc8a6"},"vehicle_type_id":"4","last_reported":1722096606,"current_range_meters":18400,"station_id":"ce4bhbh2rcd13ifvqepg","pricing_plan_id":"cebpf4jnsgd1na2vs0mg"},{"bike_id":"5d6bf629-d86f-472d-83d9-20600854bc23","system_id":"levelo_inurba_marseille","lat":43.2842,"lon":5.34992,"is_reserved":false,"is_disabled":false,"rental_uris":{"android":"levelo://app?vid=5d6bf629-d86f-472d-83d9-20600854bc23","ios":"levelo://app?vid=5d6bf629-d86f-472d-83d9-20600854bc23"},"vehicle_type_id":"4","last_reported":1722096606,"current_range_meters":3600,"station_id":"ce4bhbh2rcd13ifvqepg","pricing_plan_id":"cebpf4jnsgd1na2vs0mg"},{"bike_id":"51e03233-d3a2-4dde-9650-d4a6b7608358","system_id":"levelo_inurba_marseille","lat":43.284219,"lon":5.3497,"is_reserved":false,"is_disabled":false,"rental_uris":{"android":"levelo://app?vid=51e03233-d3a2-4dde-9650-d4a6b7608358","ios":"levelo://app?vid=51e03233-d3a2-4dde-9650-d4a6b7608358"},"vehicle_type_id":"4","last_reported":1722096606,"current_range_meters":21600,"station_id":"ce4bhbh2rcd13ifvqepg","pricing_plan_id":"cebpf4jnsgd1na2vs0mg"},{"bike_id":"8a2f0a15-aea4-4e78-a2d0-ba25af6ad899","system_id":"levelo_inurba_marseille","lat":43.284236,"lon":5.349775,"is_reserved":false,"is_disabled":false,"rental_uris":{"android":"levelo://app?vid=8a2f0a15-aea4-4e78-a2d0-ba25af6ad899","ios":"levelo://app?vid=8a2f0a15-aea4-4e78-a2d0-ba25af6ad899"},"vehicle_type_id":"4","last_reported":1722096606,"current_range_meters":0,"station_id":"ce4bhbh2rcd13ifvqepg","pricing_plan_id":"cebpf4jnsgd1na2vs0mg"},{"bike_id":"19adf7c2-2189-4fbe-8136-3a2fdc4b52d0","system_id":"levelo_inurba_marseille","lat":43.28419,"lon":5.34992,"is_reserved":false,"is_disabled":false,"rental_uris":{"android":"levelo://app?vid=19adf7c2-2189-4fbe-8136-3a2fdc4b52d0","ios":"levelo://app?vid=19adf7c2-2189-4fbe-8136-3a2fdc4b52d0"},"vehicle_type_id":"4","last_reported":1722096606,"current_range_meters":12000,"station_id":"ce4bhbh2rcd13ifvqepg","pricing_plan_id":"cebpf4jnsgd1na2vs0mg"},{"bike_id":"1a17753d-5897-4495-82d4-538943bd7573","system_id":"levelo_inurba_marseille","lat":43.284219,"lon":5.3497,"is_reserved":false,"is_disabled":false,"rental_uris":{"android":"levelo://app?vid=1a17753d-5897-4495-82d4-538943bd7573","ios":"levelo://app?vid=1a17753d-5897-4495-82d4-538943bd7573"},"vehicle_type_id":"4","last_reported":1722096606,"current_range_meters":31200,"station_id":"ce4bhbh2rcd13ifvqepg","pricing_plan_id":"cebpf4jnsgd1na2vs0mg"},{"bike_id":"f3dd4bf0-75c0-425d-a04a-6a6fe6743816","system_id":"levelo_inurba_marseille","lat":43.28417,"lon":5.34997,"is_reserved":false,"is_disabled":false,"rental_uris":{"android":"levelo://app?vid=f3dd4bf0-75c0-425d-a04a-6a6fe6743816","ios":"levelo://app?vid=f3dd4bf0-75c0-425d-a04a-6a6fe6743816"},"vehicle_type_id":"4","last_reported":1722096606,"current_range_meters":4400,"station_id":"ce4bhbh2rcd13ifvqepg","pricing_plan_id":"cebpf4jnsgd1na2vs0mg"},{"bike_id":"1b3e7ff9-87b3-445c-bcd3-f5283ae97a30","system_id":"levelo_inurba_marseille","lat":43.28419,"lon":5.3499,"is_reserved":false,"is_disabled":false,"rental_uris":{"android":"levelo://app?vid=1b3e7ff9-87b3-445c-bcd3-f5283ae97a30","ios":"levelo://app?vid=1b3e7ff9-87b3-445c-bcd3-f5283ae97a30"},"vehicle_type_id":"4","last_reported":1722096606,"current_range_meters":6800,"station_id":"ce4bhbh2rcd13ifvqepg","pricing_plan_id":"cebpf4jnsgd1na2vs0mg"},{"bike_id":"05a06871-24a8-4731-bb8a-f937b99c8b47","system_id":"levelo_inurba_marseille","lat":43.28418,"lon":5.34988,"is_reserved":false,"is_disabled":false,"rental_uris":{"android":"levelo://app?vid=05a06871-24a8-4731-bb8a-f937b99c8b47","ios":"levelo://app?vid=05a06871-24a8-4731-bb8a-f937b99c8b47"},"vehicle_type_id":"4","last_reported":1722096606,"current_range_meters":0,"station_id":"ce4bhbh2rcd13ifvqepg","pricing_plan_id":"cebpf4jnsgd1na2vs0mg"},{"bike_id":"d4caf244-5ddf-40aa-ac97-8dc17e136efc","system_id":"levelo_inurba_marseille","lat":43.284219,"lon":5.3497,"is_reserved":false,"is_disabled":false,"rental_uris":{"android":"levelo://app?vid=d4caf244-5ddf-40aa-ac97-8dc17e136efc","ios":"levelo://app?vid=d4caf244-5ddf-40aa-ac97-8dc17e136efc"},"vehicle_type_id":"4","last_reported":1722096606,"current_range_meters":23200,"station_id":"ce4bhbh2rcd13ifvqepg","pricing_plan_id":"cebpf4jnsgd1na2vs0mg"},{"bike_id":"be94c61f-0fcf-4e4a-b5b2-6281fda9e6d1","system_id":"levelo_inurba_marseille","lat":43.284219,"lon":5.3497,"is_reserved":false,"is_disabled":false,"rental_uris":{"android":"levelo://app?vid=be94c61f-0fcf-4e4a-b5b2-6281fda9e6d1","ios":"levelo://app?vid=be94c61f-0fcf-4e4a-b5b2-6281fda9e6d1"},"vehicle_type_id":"4","last_reported":1722096606,"current_range_meters":22800,"station_id":"ce4bhbh2rcd13ifvqepg","pricing_plan_id":"cebpf4jnsgd1na2vs0mg"},{"bike_id":"1ed11f14-d3eb-4669-ae8d-dcb7380b3d33","system_id":"levelo_inurba_marseille","lat":43.28419,"lon":5.3498,"is_reserved":false,"is_disabled":false,"rental_uris":{"android":"levelo://app?vid=1ed11f14-d3eb-4669-ae8d-dcb7380b3d33","ios":"levelo://app?vid=1ed11f14-d3eb-4669-ae8d-dcb7380b3d33"},"vehicle_type_id":"4","last_reported":1722096606,"current_range_meters":23200,"station_id":"ce4bhbh2rcd13ifvqepg","pricing_plan_id":"cebpf4jnsgd1na2vs0mg"},{"bike_id":"aa69235d-3355-442e-b43b-c999c94c7596","system_id":"levelo_inurba_marseille","lat":43.284219,"lon":5.3497,"is_reserved":false,"is_disabled":false,"rental_uris":{"android":"levelo://app?vid=aa69235d-3355-442e-b43b-c999c94c7596","ios":"levelo://app?vid=aa69235d-3355-442e-b43b-c999c94c7596"},"vehicle_type_id":"4","last_reported":1722096606,"current_range_meters":31200,"station_id":"ce4bhbh2rcd13ifvqepg","pricing_plan_id":"cebpf4jnsgd1na2vs0mg"},{"bike_id":"62249a5f-3b7d-4ba9-9e05-5386a501e9cd","system_id":"levelo_inurba_marseille","lat":43.284219,"lon":5.3497,"is_reserved":false,"is_disabled":false,"rental_uris":{"android":"levelo://app?vid=62249a5f-3b7d-4ba9-9e05-5386a501e9cd","ios":"levelo://app?vid=62249a5f-3b7d-4ba9-9e05-5386a501e9cd"},"vehicle_type_id":"4","last_reported":1722096606,"current_range_meters":24000,"station_id":"ce4bhbh2rcd13ifvqepg","pricing_plan_id":"cebpf4jnsgd1na2vs0mg"},{"bike_id":"b38fc8a4-0d71-4f48-be7a-2173a1af5021","system_id":"levelo_inurba_marseille","lat":43.28418,"lon":5.3498,"is_reserved":false,"is_disabled":false,"rental_uris":{"android":"levelo://app?vid=b38fc8a4-0d71-4f48-be7a-2173a1af5021","ios":"levelo://app?vid=b38fc8a4-0d71-4f48-be7a-2173a1af5021"},"vehicle_type_id":"4","last_reported":1722096606,"current_range_meters":27600,"station_id":"ce4bhbh2rcd13ifvqepg","pricing_plan_id":"cebpf4jnsgd1na2vs0mg"},{"bike_id":"450eb8f4-e710-4cb3-b7e7-e8ad10b996a2","system_id":"levelo_inurba_marseille","lat":43.28416,"lon":5.34982,"is_reserved":false,"is_disabled":false,"rental_uris":{"android":"levelo://app?vid=450eb8f4-e710-4cb3-b7e7-e8ad10b996a2","ios":"levelo://app?vid=450eb8f4-e710-4cb3-b7e7-e8ad10b996a2"},"vehicle_type_id":"4","last_reported":1722096606,"current_range_meters":29600,"station_id":"ce4bhbh2rcd13ifvqepg","pricing_plan_id":"cebpf4jnsgd1na2vs0mg"},{"bike_id":"3ec73c02-cede-4b81-845b-9e6245d33e8c","system_id":"levelo_inurba_marseille","lat":43.28415,"lon":5.34983,"is_reserved":false,"is_disabled":false,"rental_uris":{"android":"levelo://app?vid=3ec73c02-cede-4b81-845b-9e6245d33e8c","ios":"levelo://app?vid=3ec73c02-cede-4b81-845b-9e6245d33e8c"},"vehicle_type_id":"4","last_reported":1722096606,"current_range_meters":6400,"station_id":"ce4bhbh2rcd13ifvqepg","pricing_plan_id":"cebpf4jnsgd1na2vs0mg"},{"bike_id":"3ae3fa87-1a6b-4c08-aa8a-7f5c9fd92131","system_id":"levelo_inurba_marseille","lat":43.284219,"lon":5.3497,"is_reserved":false,"is_disabled":false,"rental_uris":{"android":"levelo://app?vid=3ae3fa87-1a6b-4c08-aa8a-7f5c9fd92131","ios":"levelo://app?vid=3ae3fa87-1a6b-4c08-aa8a-7f5c9fd92131"},"vehicle_type_id":"4","last_reported":1722096606,"current_range_meters":26000,"station_id":"ce4bhbh2rcd13ifvqepg","pricing_plan_id":"cebpf4jnsgd1na2vs0mg"},{"bike_id":"258cd763-bc40-45f8-9943-d2d5e6852ab2","system_id":"levelo_inurba_marseille","lat":43.28414,"lon":5.34985,"is_reserved":false,"is_disabled":false,"rental_uris":{"android":"levelo://app?vid=258cd763-bc40-45f8-9943-d2d5e6852ab2","ios":"levelo://app?vid=258cd763-bc40-45f8-9943-d2d5e6852ab2"},"vehicle_type_id":"4","last_reported":1722096606,"current_range_meters":18400,"station_id":"ce4bhbh2rcd13ifvqepg","pricing_plan_id":"cebpf4jnsgd1na2vs0mg"},{"bike_id":"39f39a5b-19b2-490c-9d09-2b61fae00c78","system_id":"levelo_inurba_marseille","lat":43.284219,"lon":5.3497,"is_reserved":false,"is_disabled":false,"rental_uris":{"android":"levelo://app?vid=39f39a5b-19b2-490c-9d09-2b61fae00c78","ios":"levelo://app?vid=39f39a5b-19b2-490c-9d09-2b61fae00c78"},"vehicle_type_id":"4","last_reported":1722096606,"current_range_meters":16400,"station_id":"ce4bhbh2rcd13ifvqepg","pricing_plan_id":"cebpf4jnsgd1na2vs0mg"},{"bike_id":"887bc06b-7b3a-47dc-8628-b5771bc391a9","system_id":"levelo_inurba_marseille","lat":43.284214,"lon":5.349706,"is_reserved":false,"is_disabled":false,"rental_uris":{"android":"levelo://app?vid=887bc06b-7b3a-47dc-8628-b5771bc391a9","ios":"levelo://app?vid=887bc06b-7b3a-47dc-8628-b5771bc391a9"},"vehicle_type_id":"4","last_reported":1722096606,"current_range_meters":0,"station_id":"ce4bhbh2rcd13ifvqepg","pricing_plan_id":"cebpf4jnsgd1na2vs0mg"},{"bike_id":"cd2108fe-305e-48ec-ad16-2b0cc033371a","system_id":"levelo_inurba_marseille","lat":43.28408,"lon":5.34973,"is_reserved":false,"is_disabled":false,"rental_uris":{"android":"levelo://app?vid=cd2108fe-305e-48ec-ad16-2b0cc033371a","ios":"levelo://app?vid=cd2108fe-305e-48ec-ad16-2b0cc033371a"},"vehicle_type_id":"4","last_reported":1722096606,"current_range_meters":5200,"station_id":"ce4bhbh2rcd13ifvqepg","pricing_plan_id":"cebpf4jnsgd1na2vs0mg"},{"bike_id":"8151f4fe-ad19-4099-a29a-bced0ac3d5c9","system_id":"levelo_inurba_marseille","lat":43.283502,"lon":5.386471,"is_reserved":false,"is_disabled":false,"rental_uris":{"android":"levelo://app?vid=8151f4fe-ad19-4099-a29a-bced0ac3d5c9","ios":"levelo://app?vid=8151f4fe-ad19-4099-a29a-bced0ac3d5c9"},"vehicle_type_id":"4","last_reported":1722096606,"current_range_meters":9200,"station_id":"ce4bh492rcd13ifvqdvg","pricing_plan_id":"cebpf4jnsgd1na2vs0mg"},{"bike_id":"fea4a2cd-fc11-42af-a527-08b5c7653f0e","system_id":"levelo_inurba_marseille","lat":43.289363,"lon":5.396322,"is_reserved":false,"is_disabled":false,"rental_uris":{"android":"levelo://app?vid=fea4a2cd-fc11-42af-a527-08b5c7653f0e","ios":"levelo://app?vid=fea4a2cd-fc11-42af-a527-08b5c7653f0e"},"vehicle_type_id":"4","last_reported":1722096606,"current_range_meters":7600,"station_id":"ce4bh3h2rcd13ifvqdn0","pricing_plan_id":"cebpf4jnsgd1na2vs0mg"},{"bike_id":"90d54eba-1b04-4c6b-8400-505a910f4863","system_id":"levelo_inurba_marseille","lat":43.28939,"lon":5.39634,"is_reserved":false,"is_disabled":false,"rental_uris":{"android":"levelo://app?vid=90d54eba-1b04-4c6b-8400-505a910f4863","ios":"levelo://app?vid=90d54eba-1b04-4c6b-8400-505a910f4863"},"vehicle_type_id":"4","last_reported":1722096606,"current_range_meters":0,"station_id":"ce4bh3h2rcd13ifvqdn0","pricing_plan_id":"cebpf4jnsgd1na2vs0mg"},