{"last_updated":1693238911,"ttl":30,"version":"2.2","data":{"bikes":[{"bike_id":"449f2608-d931-4668-9e6c-862136c89ba1","system_id":"levelo_inurba_marseille","lat":43.3134,"lon":5.36717,"is_reserved":false,"is_disabled":false,"rental_uris":{"android":"levelo://app?vid=449f2608-d931-4668-9e6c-862136c89ba1","ios":"levelo://app?vid=449f2608-d931-4668-9e6c-862136c89ba1"},"vehicle_type_id":"4","last_reported":1693238912,"current_range_meters":4800,"station_id":"ce4bgr92rcd13ifvqc6g","pricing_plan_id":"free"},{"bike_id":"429bdb4b-d2b1-4b75-b392-cc4d2d760006","system_id":"levelo_inurba_marseille","lat":43.31345,"lon":5.36703,"is_reserved":false,"is_disabled":false,"rental_uris":{"android":"levelo://app?vid=429bdb4b-d2b1-4b75-b392-cc4d2d760006","ios":"levelo://app?vid=429bdb4b-d2b1-4b75-b392-cc4d2d760006"},"vehicle_type_id":"4","last_reported":1693238912,"current_range_meters":25600,"station_id":"ce4bgr92rcd13ifvqc6g","pricing_plan_id":"free"},{"bike_id":"c707f76c-b728-4513-afde-1f71cddbb0b5","system_id":"levelo_inurba_marseille","lat":43.31344,"lon":5.36715,"is_reserved":false,"is_disabled":false,"rental_uris":{"android":"levelo://app?vid=c707f76c-b728-4513-afde-1f71cddbb0b5","ios":"levelo://app?vid=c707f76c-b728-4513-afde-1f71cddbb0b5"},"vehicle_type_id":"4","last_reported":1693238912,"current_range_meters":31200,"station_id":"ce4bgr92rcd13ifvqc6g","pricing_plan_id":"free"},{"bike_id":"77afa31f-ec1b-4a75-9f4e-265028ad998d","system_id":"levelo_inurba_marseille","lat":43.31347,"lon":5.36712,"is_reserved":false,"is_disabled":false,"rental_uris":{"android":"levelo://app?vid=77afa31f-ec1b-4a75-9f4e-265028ad998d","ios":"levelo://app?vid=77afa31f-ec1b-4a75-9f4e-265028ad998d"},"vehicle_type_id":"4","last_reported":1693238912,"current_range_meters":26800,"station_id":"ce4bgr92rcd13ifvqc6g","pricing_plan_id":"free"},{"bike_id":"9b066e02-82f9-46e9-9e20-d89fa1a8de53","system_id":"levelo_inurba_marseille","lat":43.31351,"lon":5.36713,"is_reserved":false,"is_disabled":false,"rental_uris":{"android":"levelo://app?vid=9b066e02-82f9-46e9-9e20-d89fa1a8de53","ios":"levelo://app?vid=9b066e02-82f9-46e9-9e20-d89fa1a8de53"},"vehicle_type_id":"4","last_reported":1693238912,"current_range_meters":19200,"station_id":"ce4bgr92rcd13ifvqc6g","pricing_plan_id":"free"},{"bike_id":"64ef7a1f-df2c-4a0a-aee6-9079b9f4f90b","system_id":"levelo_inurba_marseille","lat":43.312239,"lon":5.368562,"is_reserved":false,"is_disabled":false,"rental_uris":{"android":"levelo://app?vid=64ef7a1f-df2c-4a0a-aee6-9079b9f4f90b","ios":"levelo://app?vid=64ef7a1f-df2c-4a0a-aee6-9079b9f4f90b"},"vehicle_type_id":"4","last_reported":1693238912,"current_range_meters":29200,"station_id":"ce4bgl92rcd13ifvqbq0","pricing_plan_id":"free"},{"bike_id":"3cd6fdb8-dff3-4b34-949d-7f45463f69c6","system_id":"levelo_inurba_marseille","lat":43.30905,"lon":5.36858,"is_reserved":false,"is_disabled":false,"rental_uris":{"android":"levelo://app?vid=3cd6fdb8-dff3-4b34-949d-7f45463f69c6","ios":"levelo://app?vid=3cd6fdb8-dff3-4b34-949d-7f45463f69c6"},"vehicle_type_id":"4","last_reported":1693238912,"current_range_meters":20800,"station_id":"ce4bgn92rcd13ifvqbvg","pricing_plan_id":"free"},{"bike_id":"8a43db73-9d46-4d00-b4f6-bba37f18b4e2","system_id":"levelo_inurba_marseille","lat":43.31402,"lon":5.37255,"is_reserved":false,"is_disabled":false,"rental_uris":{"android":"levelo://app?vid=8a43db73-9d46-4d00-b4f6-bba37f18b4e2","ios":"levelo://app?vid=8a43db73-9d46-4d00-b4f6-bba37f18b4e2"},"vehicle_type_id":"4","last_reported":1693238912,"current_range_meters":400,"station_id":"","pricing_plan_id":"free"},{"bike_id":"d2be997d-44d2-40a5-bb20-02aeaaf65fa5","system_id":"levelo_inurba_marseille","lat":43.314811,"lon":5.373103,"is_reserved":false,"is_disabled":false,"rental_uris":{"android":"levelo://app?vid=d2be997d-44d2-40a5-bb20-02aeaaf65fa5","ios":"levelo://app?vid=d2be997d-44d2-40a5-bb20-02aeaaf65fa5"},"vehicle_type_id":"4","last_reported":1693238912,"current_range_meters":31200,"station_id":"ce4bgt12rcd13ifvqcd0","pricing_plan_id":"free"},{"bike_id":"04ef6336-644f-47d9-9243-7941b3a3306f","system_id":"levelo_inurba_marseille","lat":43.309039,"lon":5.371797,"is_reserved":false,"is_disabled":false,"rental_uris":{"android":"levelo://app?vid=04ef6336-644f-47d9-9243-7941b3a3306f","ios":"levelo://app?vid=04ef6336-644f-47d9-9243-7941b3a3306f"},"vehicle_type_id":"4","last_reported":1693238912,"current_range_meters":0,"station_id":"ce4bguh2rcd13ifvqckg","pricing_plan_id":"free"},{"bike_id":"cb9c1e93-c7cd-4ddd-a385-62f5cfb23b0e","system_id":"levelo_inurba_marseille","lat":43.309039,"lon":5.371797,"is_reserved":false,"is_disabled":false,"rental_uris":{"android":"levelo://app?vid=cb9c1e93-c7cd-4ddd-a385-62f5cfb23b0e","ios":"levelo://app?vid=cb9c1e93-c7cd-4ddd-a385-62f5cfb23b0e"},"vehicle_type_id":"4","last_reported":1693238912,"current_range_meters":26000,"station_id":"ce4bguh2rcd13ifvqckg","pricing_plan_id":"free"},{"bike_id":"f6a63588-c080-495e-8128-d7c13f43a8b0","system_id":"levelo_inurba_marseille","lat":43.309039,"lon":5.371797,"is_reserved":false,"is_disabled":false,"rental_uris":{"android":"levelo://app?vid=f6a63588-c080-495e-8128-d7c13f43a8b0","ios":"levelo://app?vid=f6a63588-c080-495e-8128-d7c13f43a8b0"},"vehicle_type_id":"4","last_reported":1693238912,"current_range_meters":24800,"station_id":"ce4bguh2rcd13ifvqckg","pricing_plan_id":"free"},{"bike_id":"f45cfd53-d80c-4df5-9fc3-218f1a1bf36d","system_id":"levelo_inurba_marseille","lat":43.305706,"lon":5.365654,"is_reserved":false,"is_disabled":false,"rental_uris":{"android":"levelo://app?vid=f45cfd53-d80c-4df5-9fc3-218f1a1bf36d","ios":"levelo://app?vid=f45cfd53-d80c-4df5-9fc3-218f1a1bf36d"},"vehicle_type_id":"4","last_reported":1693238912,"current_range_meters":23200,"station_id":"ce4bgs12rcd13ifvqcag","pricing_plan_id":"free"},{"bike_id":"b32e79fc-e7a2-47e3-a3f6-8a71a9a1bcdf","system_id":"levelo_inurba_marseille","lat":43.317075,"lon":5.377367,"is_reserved":false,"is_disabled":false,"rental_uris":{"android":"levelo://app?vid=b32e79fc-e7a2-47e3-a3f6-8a71a9a1bcdf","ios":"levelo://app?vid=b32e79fc-e7a2-47e3-a3f6-8a71a9a1bcdf"},"vehicle_type_id":"4","last_reported":1693238912,"current_range_meters":26000,"station_id":"ce4bgth2rcd13ifvqch0","pricing_plan_id":"free"},{"bike_id":"395521b6-0f10-4f5c-a7df-71869a7ea5a2","system_id":"levelo_inurba_marseille","lat":43.32124,"lon":5.3747,"is_reserved":false,"is_disabled":false,"rental_uris":{"android":"levelo://app?vid=395521b6-0f10-4f5c-a7df-71869a7ea5a2","ios":"levelo://app?vid=395521b6-0f10-4f5c-a7df-71869a7ea5a2"},"vehicle_type_id":"4","last_reported":1693238912,"current_range_meters":21200,"station_id":"","pricing_plan_id":"free"},{"bike_id":"cda07a50-8b79-441b-bf8f-dd4abe549209","system_id":"levelo_inurba_marseille","lat":43.308012,"lon":5.381511,"is_reserved":false,"is_disabled":false,"rental_uris":{"android":"levelo://app?vid=cda07a50-8b79-441b-bf8f-dd4abe549209","ios":"levelo://app?vid=cda07a50-8b79-441b-bf8f-dd4abe549209"},"vehicle_type_id":"4","last_reported":1693238912,"current_range_meters":400,"station_id":"ce4bgt12rcd13ifvqce0","pricing_plan_id":"free"},{"bike_id":"cc7c8bb6-a741-4d93-ba1b-f2e246c143d1","system_id":"levelo_inurba_marseille","lat":43.308012,"lon":5.381511,"is_reserved":false,"is_disabled":false,"rental_uris":{"android":"levelo://app?vid=cc7c8bb6-a741-4d93-ba1b-f2e246c143d1","ios":"levelo://app?vid=cc7c8bb6-a741-4d93-ba1b-f2e246c143d1"},"vehicle_type_id":"4","last_reported":1693238912,"current_range_meters":8400,"station_id":"ce4bgt12rcd13ifvqce0","pricing_plan_id":"free"},{"bike_id":"fa865fd4-b51f-44a1-8497-7495ce7b3c7c","system_id":"levelo_inurba_marseille","lat":43.308012,"lon":5.381511,"is_reserved":false,"is_disabled":false,"rental_uris":{"android":"levelo://app?vid=fa865fd4-b51f-44a1-8497-7495ce7b3c7c","ios":"levelo://app?vid=fa865fd4-b51f-44a1-8497-7495ce7b3c7c"},"vehicle_type_id":"4","last_reported":1693238912,"current_range_meters":28800,"station_id":"ce4bgt12rcd13ifvqce0","pricing_plan_id":"free"},{"bike_id":"1721506e-9fc6-47e3-8102-1d2cc8389bc1","system_id":"levelo_inurba_marseille","lat":43.304606,"lon":5.379026,"is_reserved":false,"is_disabled":false,"rental_uris":{"android":"levelo://app?vid=1721506e-9fc6-47e3-8102-1d2cc8389bc1","ios":"levelo://app?vid=1721506e-9fc6-47e3-8102-1d2cc8389bc1"},"vehicle_type_id":"4","last_reported":1693238912,"current_range_meters":30000,"station_id":"ce4bgup2rcd13ifvqcn0","pricing_plan_id":"free"},{"bike_id":"01c6a87a-b2aa-4f18-87d1-c5cd7638a29f","system_id":"levelo_inurba_marseille","lat":43.304606,"lon":5.379026,"is_reserved":false,"is_disabled":false,"rental_uris":{"android":"levelo://app?vid=01c6a87a-b2aa-4f18-87d1-c5cd7638a29f","ios":"levelo://app?vid=01c6a87a-b2aa-4f18-87d1-c5cd7638a29f"},"vehicle_type_id":"4","last_reported":1693238912,"current_range_meters":14400,"station_id":"ce4bgup2rcd13ifvqcn0","pricing_plan_id":"free"},{"bike_id":"bbf536e7-421e-4629-b188-904fb066e7fc","system_id":"levelo_inurba_marseille","lat":43.304606,"lon":5.379026,"is_reserved":false,"is_disabled":false,"rental_uris":{"android":"levelo://app?vid=bbf536e7-421e-4629-b188-904fb066e7fc","ios":"levelo://app?vid=bbf536e7-421e-4629-b188-904fb066e7fc"},"vehicle_type_id":"4","last_reported":1693238912,"current_range_meters":24000,"station_id":"ce4bgup2rcd13ifvqcn0","pricing_plan_id":"free"},{"bike_id":"8304167f-1c13-4990-b3a9-f94dc04574e6","system_id":"levelo_inurba_marseille","lat":43.304606,"lon":5.379026,"is_reserved":false,"is_disabled":false,"rental_uris":{"android":"levelo://app?vid=8304167f-1c13-4990-b3a9-f94dc04574e6","ios":"levelo://app?vid=8304167f-1c13-4990-b3a9-f94dc04574e6"},"vehicle_type_id":"4","last_reported":1693238912,"current_range_meters":28400,"station_id":"ce4bgup2rcd13ifvqcn0","pricing_plan_id":"free"},{"bike_id":"dad43ded-85c2-4cab-b74e-05965b76877b","system_id":"levelo_inurba_marseille","lat":43.304606,"lon":5.379026,"is_reserved":false,"is_disabled":false,"rental_uris":{"android":"levelo://app?vid=dad43ded-85c2-4cab-b74e-05965b76877b","ios":"levelo://app?vid=dad43ded-85c2-4cab-b74e-05965b76877b"},"vehicle_type_id":"4","last_reported":1693238912,"current_range_meters":11600,"station_id":"ce4bgup2rcd13ifvqcn0","pricing_plan_id":"free"},{"bike_id":"4328ab7b-2474-454a-9ce3-227327ab5b58","system_id":"levelo_inurba_marseille","lat":43.304606,"lon":5.379026,"is_reserved":false,"is_disabled":false,"rental_uris":{"android":"levelo://app?vid=4328ab7b-2474-454a-9ce3-227327ab5b58","ios":"levelo://app?vid=4328ab7b-2474-454a-9ce3-227327ab5b58"},"vehicle_type_id":"4","last_reported":1693238912,"current_range_meters":20400,"station_id":"ce4bgup2rcd13ifvqcn0","pricing_plan_id":"free"},{"bike_id":"19722e63-6d8a-4528-b6e1-e68676fdb5ad","system_id":"levelo_inurba_marseille","lat":43.304606,"lon":5.379026,"is_reserved":false,"is_disabled":false,"rental_uris":{"android":"levelo://app?vid=19722e63-6d8a-4528-b6e1-e68676fdb5ad","ios":"levelo://app?vid=19722e63-6d8a-4528-b6e1-e68676fdb5ad"},"vehicle_type_id":"4","last_reported":1693238912,"current_range_meters":31200,"station_id":"ce4bgup2rcd13ifvqcn0","pricing_plan_id":"free"},{"bike_id":"5ba7904b-9455-4c26-9805-49ddd57bbb80","system_id":"levelo_inurba_marseille","lat":43.304606,"lon":5.379026,"is_reserved":false,"is_disabled":false,"rental_uris":{"android":"levelo://app?vid=5ba7904b-9455-4c26-9805-49ddd57bbb80","ios":"levelo://app?vid=5ba7904b-9455-4c26-9805-49ddd57bbb80"},"vehicle_type_id":"4","last_reported":1693238912,"current_range_meters":31200,"station_id":"ce4bgup2rcd13ifvqcn0","pricing_plan_id":"free"},{"bike_id":"de828cda-712f-41be-8e22-d41dd04cf92b","system_id":"levelo_inurba_marseille","lat":43.304606,"lon":5.379026,"is_reserved":false,"is_disabled":false,"rental_uris":{"android":"levelo://app?vid=de828cda-712f-41be-8e22-d41dd04cf92b","ios":"levelo://app?vid=de828cda-712f-41be-8e22-d41dd04cf92b"},"vehicle_type_id":"4","last_reported":1693238912,"current_range_meters":19200,"station_id":"ce4bgup2rcd13ifvqcn0","pricing_plan_id":"free"},{"bike_id":"61547c4c-1adc-4da5-acca-c70d0cb5b22f","system_id":"levelo_inurba_marseille","lat":43.31099,"lon":5.38349,"is_reserved":false,"is_disabled":false,"rental_uris":{"android":"levelo://app?vid=61547c4c-1adc-4da5-acca-c70d0cb5b22f","ios":"levelo://app?vid=61547c4c-1adc-4da5-acca-c70d0cb5b22f"},"vehicle_type_id":"4","last_reported":1693238912,"current_range_meters":26800,"station_id":"","pricing_plan_id":"free"},{"bike_id":"9a09df39-f74d-4161-8829-837cc3c16c83","system_id":"levelo_inurba_marseille","lat":43.31676,"lon":5.38288,"is_reserved":false,"is_disabled":false,"rental_uris":{"android":"levelo://app?vid=9a09df39-f74d-4161-8829-837cc3c16c83","ios":"levelo://app?vid=9a09df39-f74d-4161-8829-837cc3c16c83"},"vehicle_type_id":"4","last_reported":1693238912,"current_range_meters":9600,"station_id":"","pricing_plan_id":"free"},{"bike_id":"2e53de2d-9e0e-45c6-a664-37ec4f41f633","system_id":"levelo_inurba_marseille","lat":43.302784,"lon":5.377158,"is_reserved":false,"is_disabled":false,"rental_uris":{"android":"levelo://app?vid=2e53de2d-9e0e-45c6-a664-37ec4f41f633","ios":"levelo://app?vid=2e53de2d-9e0e-45c6-a664-37ec4f41f633"},"vehicle_type_id":"4","last_reported":1693238912,"current_range_meters":800,"station_id":"ce4bguh2rcd13ifvqcj0","pricing_plan_id":"free"},{"bike_id":"6578c7d6-cfc9-4ce7-8c4a-760a027b9c37","system_id":"levelo_inurba_marseille","lat":43.302784,"lon":5.377158,"is_reserved":false,"is_disabled":false,"rental_uris":{"android":"levelo://app?vid=6578c7d6-cfc9-4ce7-8c4a-760a027b9c37","ios":"levelo://app?vid=6578c7d6-cfc9-4ce7-8c4a-760a027b9c37"},"vehicle_type_id":"4","last_reported":1693238912,"current_range_meters":26000,"station_id":"ce4bguh2rcd13ifvqcj0","pricing_plan_id":"free"},{"bike_id":"008fca76-a5e1-4e16-aa52-8cb2cf2c2bb6","system_id":"levelo_inurba_marseille","lat":43.302784,"lon":5.377158,"is_reserved":false,"is_disabled":false,"rental_uris":{"android":"levelo://app?vid=008fca76-a5e1-4e16-aa52-8cb2cf2c2bb6","ios":"levelo://app?vid=008fca76-a5e1-4e16-aa52-8cb2cf2c2bb6"},"vehicle_type_id":"4","last_reported":1693238912,"current_range_meters":25200,"station_id":"ce4bguh2rcd13ifvqcj0","pricing_plan_id":"free"},{"bike_id":"84b726cd-4012-4b55-9d38-7a214d830035","system_id":"levelo_inurba_marseille","lat":43.32001,"lon":5.38162,"is_reserved":false,"is_disabled":false,"rental_uris":{"android":"levelo://app?vid=84b726cd-4012-4b55-9d38-7a214d830035","ios":"levelo://app?vid=84b726cd-4012-4b55-9d38-7a214d830035"},"vehicle_type_id":"4","last_reported":1693238912,"current_range_meters":23200,"station_id":"ce4bhr12rcd13ifvqhpg","pricing_plan_id":"free"},{"bike_id":"c720572b-e3c7-4294-81bc-c88935916ee0","system_id":"levelo_inurba_marseille","lat":43.313571,"lon":5.384829,"is_reserved":false,"is_disabled":false,"rental_uris":{"android":"levelo://app?vid=c720572b-e3c7-4294-81bc-c88935916ee0","ios":"levelo://app?vid=c720572b-e3c7-4294-81bc-c88935916ee0"},"vehicle_type_id":"4","last_reported":1693238912,"current_range_meters":2400,"station_id":"ce4bgt92rcd13ifvqcf0","pricing_plan_id":"free"},{"bike_id":"226c1c3c-7ef5-47bc-8b54-141c4aac3737","system_id":"levelo_inurba_marseille","lat":43.313571,"lon":5.384829,"is_reserved":false,"is_disabled":false,"rental_uris":{"android":"levelo://app?vid=226c1c3c-7ef5-47bc-8b54-141c4aac3737","ios":"levelo://app?vid=226c1c3c-7ef5-47bc-8b54-141c4aac3737"},"vehicle_type_id":"4","last_reported":1693238912,"current_range_meters":0,"station_id":"ce4bgt92rcd13ifvqcf0","pricing_plan_id":"free"},{"bike_id":"e11cafb9-7c13-4eb8-8b06-8fb4db4eef02","system_id":"levelo_inurba_marseille","lat":43.29981,"lon":5.37183,"is_reserved":false,"is_disabled":false,"rental_uris":{"android":"levelo://app?vid=e11cafb9-7c13-4eb8-8b06-8fb4db4eef02","ios":"levelo://app?vid=e11cafb9-7c13-4eb8-8b06-8fb4db4eef02"},"vehicle_type_id":"4","last_reported":1693238912,"current_range_meters":12400,"station_id":"ce4bgr92rcd13ifvqc7g","pricing_plan_id":"free"},{"bike_id":"f9b62ccd-f89c-4f15-baac-3b9ee7878ee5","system_id":"levelo_inurba_marseille","lat":43.2993,"lon":5.36556,"is_reserved":false,"is_disabled":false,"rental_uris":{"android":"levelo://app?vid=f9b62ccd-f89c-4f15-baac-3b9ee7878ee5","ios":"levelo://app?vid=f9b62ccd-f89c-4f15-baac-3b9ee7878ee5"},"vehicle_type_id":"4","last_reported":1693238912,"current_range_meters":18800,"station_id":"ce4bgm92rcd13ifvqbr0","pricing_plan_id":"free"},{"bike_id":"9334c9bd-8211-4cec-beb8-b87412367857","system_id":"levelo_inurba_marseille","lat":43.299243,"lon":5.374807,"is_reserved":false,"is_disabled":false,"rental_uris":{"android":"levelo://app?vid=9334c9bd-8211-4cec-beb8-b87412367857","ios":"levelo://app?vid=9334c9bd-8211-4cec-beb8-b87412367857"},"vehicle_type_id":"4","last_reported":1693238912,"current_range_meters":14000,"station_id":"ce4bgjh2rcd13ifvqbg0","pricing_plan_id":"free"},{"bike_id":"ea628102-f413-4421-a451-01c3055a1ca3","system_id":"levelo_inurba_marseille","lat":43.30535,"lon":5.38428,"is_reserved":false,"is_disabled":false,"rental_uris":{"android":"levelo://app?vid=ea628102-f413-4421-a451-01c3055a1ca3","ios":"levelo://app?vid=ea628102-f413-4421-a451-01c3055a1ca3"},"vehicle_type_id":"4","last_reported":1693238912,"current_range_meters":30000,"station_id":"ce4bgg92rcd13ifvqb30","pricing_plan_id":"free"},{"bike_id":"05b32291-5baf-44dc-bb48-7b300b4e5880","system_id":"levelo_inurba_marseille","lat":43.299243,"lon":5.374807,"is_reserved":false,"is_disabled":false,"rental_uris":{"android":"levelo://app?vid=05b32291-5baf-44dc-bb48-7b300b4e5880","ios":"levelo://app?vid=05b32291-5baf-44dc-bb48-7b300b4e5880"},"vehicle_type_id":"4","last_reported":1693238912,"current_range_meters":13600,"station_id":"ce4bgjh2rcd13ifvqbg0","pricing_plan_id":"free"},{"bike_id":"841b22e7-9484-4295-97ab-2b64043b6504","system_id":"levelo_inurba_marseille","lat":43.311722,"lon":5.387247,"is_reserved":false,"is_disabled":false,"rental_uris":{"android":"levelo://app?vid=841b22e7-9484-4295-97ab-2b64043b6504","ios":"levelo://app?vid=841b22e7-9484-4295-97ab-2b64043b6504"},"vehicle_type_id":"4","last_reported":1693238912,"current_range_meters":11200,"station_id":"ce4bgv12rcd13ifvqcp0","pricing_plan_id":"free"},{"bike_id":"2f9e2def-2173-4eb4-a460-9a385f59debe","system_id":"levelo_inurba_marseille","lat":43.299243,"lon":5.37481,"is_reserved":false,"is_disabled":false,"rental_uris":{"android":"levelo://app?vid=2f9e2def-2173-4eb4-a460-9a385f59debe","ios":"levelo://app?vid=2f9e2def-2173-4eb4-a460-9a385f59debe"},"vehicle_type_id":"4","last_reported":1693238912,"current_range_meters":32000,"station_id":"ce4bgjh2rcd13ifvqbg0","pricing_plan_id":"free"},{"bike_id":"7dc13fe6-1dd0-4976-9142-a959499a1f26","system_id":"levelo_inurba_marseille","lat":43.29905,"lon":5.37471,"is_reserved":false,"is_disabled":false,"rental_uris":{"android":"levelo://app?vid=7dc13fe6-1dd0-4976-9142-a959499a1f26","ios":"levelo://app?vid=7dc13fe6-1dd0-4976-9142-a959499a1f26"},"vehicle_type_id":"4","last_reported":1693238912,"current_range_meters":6800,"station_id":"","pricing_plan_id":"free"},{"bike_id":"da9b975d-dc7c-456b-a260-6bb7d4a6ae42","system_id":"levelo_inurba_marseille","lat":43.328371,"lon":5.366909,"is_reserved":false,"is_disabled":false,"rental_uris":{"android":"levelo://app?vid=da9b975d-dc7c-456b-a260-6bb7d4a6ae42","ios":"levelo://app?vid=da9b975d-dc7c-456b-a260-6bb7d4a6ae42"},"vehicle_type_id":"4","last_reported":1693238912,"current_range_meters":27600,"station_id":"ce4bhs92rcd13ifvqi0g","pricing_plan_id":"free"},{"bike_id":"92475464-831d-4fbc-819a-fb97fe9d43a9","system_id":"levelo_inurba_marseille","lat":43.328371,"lon":5.366909,"is_reserved":false,"is_disabled":false,"rental_uris":{"android":"levelo://app?vid=92475464-831d-4fbc-819a-fb97fe9d43a9","ios":"levelo://app?vid=92475464-831d-4fbc-819a-fb97fe9d43a9"},"vehicle_type_id":"4","last_reported":1693238912,"current_range_meters":30400,"station_id":"ce4bhs92rcd13ifvqi0g","pricing_plan_id":"free"},{"bike_id":"6dbb40ee-f712-406e-83a7-1d9a34e25b5e","system_id":"levelo_inurba_marseille","lat":43.32826,"lon":5.36675,"is_reserved":false,"is_disabled":false,"rental_uris":{"android":"levelo://app?vid=6dbb40ee-f712-406e-83a7-1d9a34e25b5e","ios":"levelo://app?vid=6dbb40ee-f712-406e-83a7-1d9a34e25b5e"},"vehicle_type_id":"4","last_reported":1693238912,"current_range_meters":13200,"station_id":"ce4bhs92rcd13ifvqi0g","pricing_plan_id":"free"},{"bike_id":"99f78c61-0b82-4c69-bfba-9cb46f430f7b","system_id":"levelo_inurba_marseille","lat":43.32827,"lon":5.36679,"is_reserved":false,"is_disabled":false,"rental_uris":{"android":"levelo://app?vid=99f78c61-0b82-4c69-bfba-9cb46f430f7b","ios":"levelo://app?vid=99f78c61-0b82-4c69-bfba-9cb46f430f7b"},"vehicle_type_id":"4","last_reported":1693238912,"current_range_meters":31200,"station_id":"ce4bhs92rcd13ifvqi0g","pricing_plan_id":"free"},{"bike_id":"c59b47a8-9ce7-4fdc-a18b-d088da9ecf36","system_id":"levelo_inurba_marseille","lat":43.328371,"lon":5.366909,"is_reserved":false,"is_disabled":false,"rental_uris":{"android":"levelo://app?vid=c59b47a8-9ce7-4fdc-a18b-d088da9ecf36","ios":"levelo://app?vid=c59b47a8-9ce7-4fdc-a18b-d088da9ecf36"},"vehicle_type_id":"4","last_reported":1693238912,"current_range_meters":17600,"station_id":"ce4bhs92rcd13ifvqi0g","pricing_plan_id":"free"},{"bike_id":"a7075776-1bcd-4d09-8f9d-c0e7f4d3b943","system_id":"levelo_inurba_marseille","lat":43.32828,"lon":5.36694,"is_reserved":false,"is_disabled":false,"rental_uris":{"android":"levelo://app?vid=a7075776-1bcd-4d09-8f9d-c0e7f4d3b943","ios":"levelo://app?vid=a7075776-1bcd-4d09-8f9d-c0e7f4d3b943"},"vehicle_type_id":"4","last_reported":1693238912,"current_range_meters":5200,"station_id":"ce4bhs92rcd13ifvqi0g","pricing_plan_id":"free"},{"bike_id":"4cb13050-0153-46d8-8315-b9012ab94e15","system_id":"levelo_inurba_marseille","lat":43.32828,"lon":5.36696,"is_reserved":false,"is_disabled":false,"rental_uris":{"android":"levelo://app?vid=4cb13050-0153-46d8-8315-b9012ab94e15","ios":"levelo://app?vid=4cb13050-0153-46d8-8315-b9012ab94e15"},"vehicle_type_id":"4","last_reported":1693238912,"current_range_meters":29600,"station_id":"ce4bhs92rcd13ifvqi0g","pricing_plan_id":"free"},{"bike_id":"739ab2b5-1cad-43de-a44b-caacf41a986e","system_id":"levelo_inurba_marseille","lat":43.328371,"lon":5.366909,"is_reserved":false,"is_disabled":false,"rental_uris":{"android":"levelo://app?vid=739ab2b5-1cad-43de-a44b-caacf41a986e","ios":"levelo://app?vid=739ab2b5-1cad-43de-a44b-caacf41a986e"},"vehicle_type_id":"4","last_reported":1693238912,"current_range_meters":24000,"station_id":"ce4bhs92rcd13ifvqi0g","pricing_plan_id":"free"},{"bike_id":"a39a0b05-3e01-44f2-8dad-50f8a7eea39d","system_id":"levelo_inurba_marseille","lat":43.32829,"lon":5.36681,"is_reserved":false,"is_disabled":false,"rental_uris":{"android":"levelo://app?vid=a39a0b05-3e01-44f2-8dad-50f8a7eea39d","ios":"levelo://app?vid=a39a0b05-3e01-44f2-8dad-50f8a7eea39d"},"vehicle_type_id":"4","last_reported":1693238912,"current_range_meters":31200,"station_id":"ce4bhs92rcd13ifvqi0g","pricing_plan_id":"free"},{"bike_id":"1847012c-857e-48d5-9abf-2bd0179f2396","system_id":"levelo_inurba_marseille","lat":43.32829,"lon":5.36676,"is_reserved":false,"is_disabled":false,"rental_uris":{"android":"levelo://app?vid=1847012c-857e-48d5-9abf-2bd0179f2396","ios":"levelo://app?vid=1847012c-857e-48d5-9abf-2bd0179f2396"},"vehicle_type_id":"4","last_reported":1693238912,"current_range_meters":25600,"station_id":"ce4bhs92rcd13ifvqi0g","pricing_plan_id":"free"},{"bike_id":"93ccc168-ec2d-4bdd-b6a0-bccbd27120d9","system_id":"levelo_inurba_marseille","lat":43.328371,"lon":5.366909,"is_reserved":false,"is_disabled":false,"rental_uris":{"android":"levelo://app?vid=93ccc168-ec2d-4bdd-b6a0-bccbd27120d9","ios":"levelo://app?vid=93ccc168-ec2d-4bdd-b6a0-bccbd27120d9"},"vehicle_type_id":"4","last_reported":1693238912,"current_range_meters":29200,"station_id":"ce4bhs92rcd13ifvqi0g","pricing_plan_id":"free"},{"bike_id":"d8489c3e-e6d4-4773-8506-d61733f19127","system_id":"levelo_inurba_marseille","lat":43.32831,"lon":5.36674,"is_reserved":false,"is_disabled":false,"rental_uris":{"android":"levelo://app?vid=d8489c3e-e6d4-4773-8506-d61733f19127","ios":"levelo://app?vid=d8489c3e-e6d4-4773-8506-d61733f19127"},"vehicle_type_id":"4","last_reported":1693238912,"current_range_meters":22000,"station_id":"ce4bhs92rcd13ifvqi0g","pricing_plan_id":"free"},{"bike_id":"f27abec7-8fa0-4aea-88fc-c14b1aa36407","system_id":"levelo_inurba_marseille","lat":43.32832,"lon":5.36679,"is_reserved":false,"is_disabled":false,"rental_uris":{"android":"levelo://app?vid=f27abec7-8fa0-4aea-88fc-c14b1aa36407","ios":"levelo://app?vid=f27abec7-8fa0-4aea-88fc-c14b1aa36407"},"vehicle_type_id":"4","last_reported":1693238912,"current_range_meters":17200,"station_id":"ce4bhs92rcd13ifvqi0g","pricing_plan_id":"free"},{"bike_id":"6c408587-214f-4774-97d3-b91e232fd284","system_id":"levelo_inurba_marseille","lat":43.328371,"lon":5.366909,"is_reserved":false,"is_disabled":false,"rental_uris":{"android":"levelo://app?vid=6c408587-214f-4774-97d3-b91e232fd284","ios":"levelo://app?vid=6c408587-214f-4774-97d3-b91e232fd284"},"vehicle_type_id":"4","last_reported":1693238912,"current_range_meters":27600,"station_id":"ce4bhs92rcd13ifvqi0g","pricing_plan_id":"free"},{"bike_id":"dd789220-e7b5-42c1-b9dc-dc4243148021","system_id":"levelo_inurba_marseille","lat":43.297163,"lon":5.365866,"is_reserved":false,"is_disabled":false,"rental_uris":{"android":"levelo://app?vid=dd789220-e7b5-42c1-b9dc-dc4243148021","ios":"levelo://app?vid=dd789220-e7b5-42c1-b9dc-dc4243148021"},"vehicle_type_id":"4","last_reported":1693238912,"current_range_meters":31200,"station_id":"ce4bgn12rcd13ifvqbt0","pricing_plan_id":"free"},{"bike_id":"7336c651-de2b-458e-89f7-fce13fb9c538","system_id":"levelo_inurba_marseille","lat":43.328371,"lon":5.366909,"is_reserved":false,"is_disabled":false,"rental_uris":{"android":"levelo://app?vid=7336c651-de2b-458e-89f7-fce13fb9c538","ios":"levelo://app?vid=7336c651-de2b-458e-89f7-fce13fb9c538"},"vehicle_type_id":"4","last_reported":1693238912,"current_range_meters":20800,"station_id":"ce4bhs92rcd13ifvqi0g","pricing_plan_id":"free"},{"bike_id":"bd0bd295-6ecc-40c4-a4d0-89f645593756","system_id":"levelo_inurba_marseille","lat":43.297163,"lon":5.365866,"is_reserved":false,"is_disabled":false,"rental_uris":{"android":"levelo://app?vid=bd0bd295-6ecc-40c4-a4d0-89f645593756","ios":"levelo://app?vid=bd0bd295-6ecc-40c4-a4d0-89f645593756"},"vehicle_type_id":"4","last_reported":1693238912,"current_range_meters":22400,"station_id":"ce4bgn12rcd13ifvqbt0","pricing_plan_id":"free"},{"bike_id":"ecedddfd-2761-45dc-ab42-9a2bdfa00063","system_id":"levelo_inurba_marseille","lat":43.2968,"lon":5.37291,"is_reserved":false,"is_disabled":false,"rental_uris":{"android":"levelo://app?vid=ecedddfd-2761-45dc-ab42-9a2bdfa00063","ios":"levelo://app?vid=ecedddfd-2761-45dc-ab42-9a2bdfa00063"},"vehicle_type_id":"4","last_reported":1693238912,"current_range_meters":21200,"station_id":"ce4bgk12rcd13ifvqbj0","pricing_plan_id":"free"},{"bike_id":"3a495f5b-9158-4365-ad38-47e7eedab644","system_id":"levelo_inurba_marseille","lat":43.29573,"lon":5.367355,"is_reserved":false,"is_disabled":false,"rental_uris":{"android":"levelo://app?vid=3a495f5b-9158-4365-ad38-47e7eedab644","ios":"levelo://app?vid=3a495f5b-9158-4365-ad38-47e7eedab644"},"vehicle_type_id":"4","last_reported":1693238912,"current_range_meters":4800,"station_id":"ce4bgph2rcd13ifvqc2g","pricing_plan_id":"free"},{"bike_id":"65d934c8-ea94-404c-b991-a012f59c0b64","system_id":"levelo_inurba_marseille","lat":43.296129,"lon":5.370777,"is_reserved":false,"is_disabled":false,"rental_uris":{"android":"levelo://app?vid=65d934c8-ea94-404c-b991-a012f59c0b64","ios":"levelo://app?vid=65d934c8-ea94-404c-b991-a012f59c0b64"},"vehicle_type_id":"4","last_reported":1693238912,"current_range_meters":25600,"station_id":"ce4bgnh2rcd13ifvqc0g","pricing_plan_id":"free"},{"bike_id":"d3139180-8ba9-4c91-b6e4-8baae3c22113","system_id":"levelo_inurba_marseille","lat":43.296129,"lon":5.370777,"is_reserved":false,"is_disabled":false,"rental_uris":{"android":"levelo://app?vid=d3139180-8ba9-4c91-b6e4-8baae3c22113","ios":"levelo://app?vid=d3139180-8ba9-4c91-b6e4-8baae3c22113"},"vehicle_type_id":"4","last_reported":1693238912,"current_range_meters":30800,"station_id":"ce4bgnh2rcd13ifvqc0g","pricing_plan_id":"free"},{"bike_id":"c8dddf77-efcd-4212-9c94-45ba2d642dda","system_id":"levelo_inurba_marseille","lat":43.309589,"lon":5.390258,"is_reserved":false,"is_disabled":false,"rental_uris":{"android":"levelo://app?vid=c8dddf77-efcd-4212-9c94-45ba2d642dda","ios":"levelo://app?vid=c8dddf77-efcd-4212-9c94-45ba2d642dda"},"vehicle_type_id":"4","last_reported":1693238912,"current_range_meters":30000,"station_id":"ce4bgup2rcd13ifvqco0","pricing_plan_id":"free"},{"bike_id":"09bbbffa-95e8-4ff1-bb47-b2361ba5c4e5","system_id":"levelo_inurba_marseille","lat":43.30956,"lon":5.39025,"is_reserved":false,"is_disabled":false,"rental_uris":{"android":"levelo://app?vid=09bbbffa-95e8-4ff1-bb47-b2361ba5c4e5","ios":"levelo://app?vid=09bbbffa-95e8-4ff1-bb47-b2361ba5c4e5"},"vehicle_type_id":"4","last_reported":1693238912,"current_range_meters":30800,"station_id":"ce4bgup2rcd13ifvqco0","pricing_plan_id":"free"},{"bike_id":"26219afc-9f87-4c24-8338-3c7f412ed7ec","system_id":"levelo_inurba_marseille","lat":43.309589,"lon":5.390258,"is_reserved":false,"is_disabled":false,"rental_uris":{"android":"levelo://app?vid=26219afc-9f87-4c24-8338-3c7f412ed7ec","ios":"levelo://app?vid=26219afc-9f87-4c24-8338-3c7f412ed7ec"},"vehicle_type_id":"4","last_reported":1693238912,"current_range_meters":7200,"station_id":"ce4bgup2rcd13ifvqco0","pricing_plan_id":"free"},{"bike_id":"b56f9f6b-1f4b-4458-8a2c-ad2c5ec7221a","system_id":"levelo_inurba_marseille","lat":43.309589,"lon":5.390258,"is_reserved":false,"is_disabled":false,"rental_uris":{"android":"levelo://app?vid=b56f9f6b-1f4b-4458-8a2c-ad2c5ec7221a","ios":"levelo://app?vid=b56f9f6b-1f4b-4458-8a2c-ad2c5ec7221a"},"vehicle_type_id":"4","last_reported":1693238912,"current_range_meters":21600,"station_id":"ce4bgup2rcd13ifvqco0","pricing_plan_id":"free"},{"bike_id":"ce6e73c9-c446-4fbe-b51c-936fccc641b1","system_id":"levelo_inurba_marseille","lat":43.309589,"lon":5.390258,"is_reserved":false,"is_disabled":false,"rental_uris":{"android":"levelo://app?vid=ce6e73c9-c446-4fbe-b51c-936fccc641b1","ios":"levelo://app?vid=ce6e73c9-c446-4fbe-b51c-936fccc641b1"},"vehicle_type_id":"4","last_reported":1693238912,"current_range_meters":27600,"station_id":"ce4bgup2rcd13ifvqco0","pricing_plan_id":"free"},{"bike_id":"4c6e440d-4878-4ceb-a1a0-8c759d12f33b","system_id":"levelo_inurba_marseille","lat":43.30959,"lon":5.39038,"is_reserved":false,"is_disabled":false,"rental_uris":{"android":"levelo://app?vid=4c6e440d-4878-4ceb-a1a0-8c759d12f33b","ios":"levelo://app?vid=4c6e440d-4878-4ceb-a1a0-8c759d12f33b"},"vehicle_type_id":"4","last_reported":1693238912,"current_range_meters":12400,"station_id":"ce4bgup2rcd13ifvqco0","pricing_plan_id":"free"},{"bike_id":"146e0502-5871-4c43-a6af-3ce985b490f3","system_id":"levelo_inurba_marseille","lat":43.29847,"lon":5.38089,"is_reserved":false,"is_disabled":false,"rental_uris":{"android":"levelo://app?vid=146e0502-5871-4c43-a6af-3ce985b490f3","ios":"levelo://app?vid=146e0502-5871-4c43-a6af-3ce985b490f3"},"vehicle_type_id":"4","last_reported":1693238912,"current_range_meters":10000,"station_id":"","pricing_plan_id":"free"},{"bike_id":"b12fcb0f-aa7d-4992-80cc-bc7a787c758a","system_id":"levelo_inurba_marseille","lat":43.317557,"lon":5.390173,"is_reserved":false,"is_disabled":false,"rental_uris":{"android":"levelo://app?vid=b12fcb0f-aa7d-4992-80cc-bc7a787c758a","ios":"levelo://app?vid=b12fcb0f-aa7d-4992-80cc-bc7a787c758a"},"vehicle_type_id":"4","last_reported":1693238912,"current_range_meters":25600,"station_id":"ce4bhqp2rcd13ifvqhng","pricing_plan_id":"free"},{"bike_id":"a08d3576-4be2-428d-9a7f-ba2ae669abec","system_id":"levelo_inurba_marseille","lat":43.31758,"lon":5.39016,"is_reserved":false,"is_disabled":false,"rental_uris":{"android":"levelo://app?vid=a08d3576-4be2-428d-9a7f-ba2ae669abec","ios":"levelo://app?vid=a08d3576-4be2-428d-9a7f-ba2ae669abec"},"vehicle_type_id":"4","last_reported":1693238912,"current_range_meters":30400,"station_id":"ce4bhqp2rcd13ifvqhng","pricing_plan_id":"free"},{"bike_id":"5b6f6b46-bded-48fb-861a-a775fc6be310","system_id":"levelo_inurba_marseille","lat":43.31756,"lon":5.39018,"is_reserved":false,"is_disabled":false,"rental_uris":{"android":"levelo://app?vid=5b6f6b46-bded-48fb-861a-a775fc6be310","ios":"levelo://app?vid=5b6f6b46-bded-48fb-861a-a775fc6be310"},"vehicle_type_id":"4","last_reported":1693238912,"current_range_meters":31200,"station_id":"ce4bhqp2rcd13ifvqhng","pricing_plan_id":"free"},{"bike_id":"2c93ce6f-c5e1-4ec9-9941-ebb7469bb8f2","system_id":"levelo_inurba_marseille","lat":43.317557,"lon":5.390173,"is_reserved":false,"is_disabled":false,"rental_uris":{"android":"levelo://app?vid=2c93ce6f-c5e1-4ec9-9941-ebb7469bb8f2","ios":"levelo://app?vid=2c93ce6f-c5e1-4ec9-9941-ebb7469bb8f2"},"vehicle_type_id":"4","last_reported":1693238912,"current_range_meters":28000,"station_id":"ce4bhqp2rcd13ifvqhng","pricing_plan_id":"free"},{"bike_id":"12424557-26a1-481f-963c-96b3705fa485","system_id":"levelo_inurba_marseille","lat":43.29802,"lon":5.38089,"is_reserved":false,"is_disabled":false,"rental_uris":{"android":"levelo://app?vid=12424557-26a1-481f-963c-96b3705fa485","ios":"levelo://app?vid=12424557-26a1-481f-963c-96b3705fa485"},"vehicle_type_id":"4","last_reported":1693238912,"current_range_meters":23200,"station_id":"ce4bgip2rcd13ifvqbb0","pricing_plan_id":"free"},{"bike_id":"7da9e437-1e79-4b5f-9ab0-65254ac17dd7","system_id":"levelo_inurba_marseille","lat":43.29734,"lon":5.37969,"is_reserved":false,"is_disabled":false,"rental_uris":{"android":"levelo://app?vid=7da9e437-1e79-4b5f-9ab0-65254ac17dd7","ios":"levelo://app?vid=7da9e437-1e79-4b5f-9ab0-65254ac17dd7"},"vehicle_type_id":"4","last_reported":1693238912,"current_range_meters":16800,"station_id":"","pricing_plan_id":"free"},{"bike_id":"f81ad791-de8f-492d-95a0-6ea1fbedf1b6","system_id":"levelo_inurba_marseille","lat":43.296263,"lon":5.377094,"is_reserved":false,"is_disabled":false,"rental_uris":{"android":"levelo://app?vid=f81ad791-de8f-492d-95a0-6ea1fbedf1b6","ios":"levelo://app?vid=f81ad791-de8f-492d-95a0-6ea1fbedf1b6"},"vehicle_type_id":"4","last_reported":1693238912,"current_range_meters":24800,"station_id":"ce4bgi92rcd13ifvqb90","pricing_plan_id":"free"},{"bike_id":"ec2e4699-fc8e-4829-a46b-6ca22c73cd6e","system_id":"levelo_inurba_marseille","lat":43.30426,"lon":5.38882,"is_reserved":false,"is_disabled":false,"rental_uris":{"android":"levelo://app?vid=ec2e4699-fc8e-4829-a46b-6ca22c73cd6e","ios":"levelo://app?vid=ec2e4699-fc8e-4829-a46b-6ca22c73cd6e"},"vehicle_type_id":"4","last_reported":1693238912,"current_range_meters":3600,"station_id":"ce4bgk12rcd13ifvqbi0","pricing_plan_id":"free"},{"bike_id":"1cbe18fa-79e9-4e52-abe3-4e63c8c5279b","system_id":"levelo_inurba_marseille","lat":43.30432,"lon":5.38887,"is_reserved":false,"is_disabled":false,"rental_uris":{"android":"levelo://app?vid=1cbe18fa-79e9-4e52-abe3-4e63c8c5279b","ios":"levelo://app?vid=1cbe18fa-79e9-4e52-abe3-4e63c8c5279b"},"vehicle_type_id":"4","last_reported":1693238912,"current_range_meters":16400,"station_id":"ce4bgk12rcd13ifvqbi0","pricing_plan_id":"free"},{"bike_id":"bba6cd69-4010-4c50-aade-f5b055e5113b","system_id":"levelo_inurba_marseille","lat":43.30433,"lon":5.38891,"is_reserved":false,"is_disabled":false,"rental_uris":{"android":"levelo://app?vid=bba6cd69-4010-4c50-aade-f5b055e5113b","ios":"levelo://app?vid=bba6cd69-4010-4c50-aade-f5b055e5113b"},"vehicle_type_id":"4","last_reported":1693238912,"current_range_meters":14000,"station_id":"ce4bgk12rcd13ifvqbi0","pricing_plan_id":"free"},{"bike_id":"47896c09-c7d2-4cd9-832c-e80d281770ec","system_id":"levelo_inurba_marseille","lat":43.30425,"lon":5.38887,"is_reserved":false,"is_disabled":false,"rental_uris":{"android":"levelo://app?vid=47896c09-c7d2-4cd9-832c-e80d281770ec","ios":"levelo://app?vid=47896c09-c7d2-4cd9-832c-e80d281770ec"},"vehicle_type_id":"4","last_reported":1693238912,"current_range_meters":16800,"station_id":"ce4bgk12rcd13ifvqbi0","pricing_plan_id":"free"},{"bike_id":"5a28d3b9-a5d6-43c9-bd07-1a28e5016c59","system_id":"levelo_inurba_marseille","lat":43.296277,"lon":5.377108,"is_reserved":false,"is_disabled":false,"rental_uris":{"android":"levelo://app?vid=5a28d3b9-a5d6-43c9-bd07-1a28e5016c59","ios":"levelo://app?vid=5a28d3b9-a5d6-43c9-bd07-1a28e5016c59"},"vehicle_type_id":"4","last_reported":1693238912,"current_range_meters":31200,"station_id":"ce4bgi92rcd13ifvqb90","pricing_plan_id":"free"},{"bike_id":"952a19e7-6602-41c3-942f-79cfb514366f","system_id":"levelo_inurba_marseille","lat":43.296277,"lon":5.377108,"is_reserved":false,"is_disabled":false,"rental_uris":{"android":"levelo://app?vid=952a19e7-6602-41c3-942f-79cfb514366f","ios":"levelo://app?vid=952a19e7-6602-41c3-942f-79cfb514366f"},"vehicle_type_id":"4","last_reported":1693238912,"current_range_meters":30400,"station_id":"ce4bgi92rcd13ifvqb90","pricing_plan_id":"free"},{"bike_id":"fb459db8-ec6e-4310-8399-afd16025f64d","system_id":"levelo_inurba_marseille","lat":43.299724,"lon":5.384848,"is_reserved":false,"is_disabled":false,"rental_uris":{"android":"levelo://app?vid=fb459db8-ec6e-4310-8399-afd16025f64d","ios":"levelo://app?vid=fb459db8-ec6e-4310-8399-afd16025f64d"},"vehicle_type_id":"4","last_reported":1693238912,"current_range_meters":0,"station_id":"ce4bgj92rcd13ifvqbd0","pricing_plan_id":"free"},{"bike_id":"aaa5c227-2f25-4b69-b7c5-310e512f3516","system_id":"levelo_inurba_marseille","lat":43.299707,"lon":5.384859,"is_reserved":false,"is_disabled":false,"rental_uris":{"android":"levelo://app?vid=aaa5c227-2f25-4b69-b7c5-310e512f3516","ios":"levelo://app?vid=aaa5c227-2f25-4b69-b7c5-310e512f3516"},"vehicle_type_id":"4","last_reported":1693238912,"current_range_meters":12000,"station_id":"ce4bgj92rcd13ifvqbd0","pricing_plan_id":"free"},{"bike_id":"9f0c5028-19ff-4b52-979b-cca349056dca","system_id":"levelo_inurba_marseille","lat":43.299717,"lon":5.384845,"is_reserved":false,"is_disabled":false,"rental_uris":{"android":"levelo://app?vid=9f0c5028-19ff-4b52-979b-cca349056dca","ios":"levelo://app?vid=9f0c5028-19ff-4b52-979b-cca349056dca"},"vehicle_type_id":"4","last_reported":1693238912,"current_range_meters":400,"station_id":"ce4bgj92rcd13ifvqbd0","pricing_plan_id":"free"},{"bike_id":"458ce7c8-2eae-42c1-8ba9-4fa3bba9afc8","system_id":"levelo_inurba_marseille","lat":43.299724,"lon":5.384848,"is_reserved":false,"is_disabled":false,"rental_uris":{"android":"levelo://app?vid=458ce7c8-2eae-42c1-8ba9-4fa3bba9afc8","ios":"levelo://app?vid=458ce7c8-2eae-42c1-8ba9-4fa3bba9afc8"},"vehicle_type_id":"4","last_reported":1693238912,"current_range_meters":14400,"station_id":"ce4bgj92rcd13ifvqbd0","pricing_plan_id":"free"},{"bike_id":"5518e211-5039-4859-a912-b62e3c99e649","system_id":"levelo_inurba_marseille","lat":43.32368,"lon":5.3888,"is_reserved":false,"is_disabled":false,"rental_uris":{"android":"levelo://app?vid=5518e211-5039-4859-a912-b62e3c99e649","ios":"levelo://app?vid=5518e211-5039-4859-a912-b62e3c99e649"},"vehicle_type_id":"4","last_reported":1693238912,"current_range_meters":8400,"station_id":"ce4bhqp2rcd13ifvqhog","pricing_plan_id":"free"},{"bike_id":"59b527dd-bbbb-41a1-9470-e48d31174410","system_id":"levelo_inurba_marseille","lat":43.29601,"lon":5.381084,"is_reserved":false,"is_disabled":false,"rental_uris":{"android":"levelo://app?vid=59b527dd-bbbb-41a1-9470-e48d31174410","ios":"levelo://app?vid=59b527dd-bbbb-41a1-9470-e48d31174410"},"vehicle_type_id":"4","last_reported":1693238912,"current_range_meters":13200,"station_id":"ce4bgl12rcd13ifvqbo0","pricing_plan_id":"free"},{"bike_id":"74ae1fe3-bb88-434f-b2b7-ecf568147c81","system_id":"levelo_inurba_marseille","lat":43.29601,"lon":5.381084,"is_reserved":false,"is_disabled":false,"rental_uris":{"android":"levelo://app?vid=74ae1fe3-bb88-434f-b2b7-ecf568147c81","ios":"levelo://app?vid=74ae1fe3-bb88-434f-b2b7-ecf568147c81"},"vehicle_type_id":"4","last_reported":1693238912,"current_range_meters":23600,"station_id":"ce4bgl12rcd13ifvqbo0","pricing_plan_id":"free"},{"bike_id":"1c280d19-cedd-47b7-83d6-8abb57428be2","system_id":"levelo_inurba_marseille","lat":43.29298,"lon":5.37166,"is_reserved":false,"is_disabled":false,"rental_uris":{"android":"levelo://app?vid=1c280d19-cedd-47b7-83d6-8abb57428be2","ios":"levelo://app?vid=1c280d19-cedd-47b7-83d6-8abb57428be2"},"vehicle_type_id":"4","last_reported":1693238912,"current_range_meters":13600,"station_id":"ce4bgh92rcd13ifvqb40","pricing_plan_id":"free"},{"bike_id":"2eb616e4-b081-4b50-9813-e5a5e7caf924","system_id":"levelo_inurba_marseille","lat":43.305994,"lon":5.393687,"is_reserved":false,"is_disabled":false,"rental_uris":{"android":"levelo://app?vid=2eb616e4-b081-4b50-9813-e5a5e7caf924","ios":"levelo://app?vid=2eb616e4-b081-4b50-9813-e5a5e7caf924"},"vehicle_type_id":"4","last_reported":1693238912,"current_range_meters":30800,"station_id":"ce4bh0p2rcd13ifvqd80","pricing_plan_id":"free"},{"bike_id":"38fef587-7cc5-4800-b069-87b8f296a10a","system_id":"levelo_inurba_marseille","lat":43.293009,"lon":5.374584,"is_reserved":false,"is_disabled":false,"rental_uris":{"android":"levelo://app?vid=38fef587-7cc5-4800-b069-87b8f296a10a","ios":"levelo://app?vid=38fef587-7cc5-4800-b069-87b8f296a10a"},"vehicle_type_id":"4","last_reported":1693238912,"current_range_meters":31200,"station_id":"ce4bgi12rcd13ifvqb70","pricing_plan_id":"free"},{"bike_id":"30aefe43-36c9-4bd3-bcf0-3d9b793ff212","system_id":"levelo_inurba_marseille","lat":43.305994,"lon":5.393687,"is_reserved":false,"is_disabled":false,"rental_uris":{"android":"levelo://app?vid=30aefe43-36c9-4bd3-bcf0-3d9b793ff212","ios":"levelo://app?vid=30aefe43-36c9-4bd3-bcf0-3d9b793ff212"},"vehicle_type_id":"4","last_reported":1693238912,"current_range_meters":22400,"station_id":"ce4bh0p2rcd13ifvqd80","pricing_plan_id":"free"},{"bike_id":"5fe7271b-aa07-49df-aaa5-38e68acf757b","system_id":"levelo_inurba_marseille","lat":43.305994,"lon":5.393687,"is_reserved":false,"is_disabled":false,"rental_uris":{"android":"levelo://app?vid=5fe7271b-aa07-49df-aaa5-38e68acf757b","ios":"levelo://app?vid=5fe7271b-aa07-49df-aaa5-38e68acf757b"},"vehicle_type_id":"4","last_reported":1693238912,"current_range_meters":7200,"station_id":"ce4bh0p2rcd13ifvqd80","pricing_plan_id":"free"},{"bike_id":"6533c646-1091-4458-9ef2-bc9d36dce22d","system_id":"levelo_inurba_marseille","lat":43.293009,"lon":5.374584,"is_reserved":false,"is_disabled":false,"rental_uris":{"android":"levelo://app?vid=6533c646-1091-4458-9ef2-bc9d36dce22d","ios":"levelo://app?vid=6533c646-1091-4458-9ef2-bc9d36dce22d"},"vehicle_type_id":"4","last_reported":1693238912,"current_range_meters":31200,"station_id":"ce4bgi12rcd13ifvqb70","pricing_plan_id":"free"},{"bike_id":"f5255f40-e626-4a63-9e63-8c9937ad2a99","system_id":"levelo_inurba_marseille","lat":43.305994,"lon":5.393687,"is_reserved":false,"is_disabled":false,"rental_uris":{"android":"levelo://app?vid=f5255f40-e626-4a63-9e63-8c9937ad2a99","ios":"levelo://app?vid=f5255f40-e626-4a63-9e63-8c9937ad2a99"},"vehicle_type_id":"4","last_reported":1693238912,"current_range_meters":26800,"station_id":"ce4bh0p2rcd13ifvqd80","pricing_plan_id":"free"},{"bike_id":"0724f352-a262-45b7-9b71-9a09ff17d945","system_id":"levelo_inurba_marseille","lat":43.303,"lon":5.39205,"is_reserved":false,"is_disabled":false,"rental_uris":{"android":"levelo://app?vid=0724f352-a262-45b7-9b71-9a09ff17d945","ios":"levelo://app?vid=0724f352-a262-45b7-9b71-9a09ff17d945"},"vehicle_type_id":"4","last_reported":1693238912,"current_range_meters":23600,"station_id":"ce4bgkh2rcd13ifvqbk0","pricing_plan_id":"free"},{"bike_id":"59d4a7cc-c4d8-47e1-a63f-2e26b5d209c3","system_id":"levelo_inurba_marseille","lat":43.2936,"lon":5.37835,"is_reserved":false,"is_disabled":false,"rental_uris":{"android":"levelo://app?vid=59d4a7cc-c4d8-47e1-a63f-2e26b5d209c3","ios":"levelo://app?vid=59d4a7cc-c4d8-47e1-a63f-2e26b5d209c3"},"vehicle_type_id":"4","last_reported":1693238912,"current_range_meters":30000,"station_id":"ce4bgjh2rcd13ifvqbf0","pricing_plan_id":"free"},{"bike_id":"037cc8e4-07b7-4cde-ba35-4aed0ee3b967","system_id":"levelo_inurba_marseille","lat":43.292326,"lon":5.3604,"is_reserved":false,"is_disabled":false,"rental_uris":{"android":"levelo://app?vid=037cc8e4-07b7-4cde-ba35-4aed0ee3b967","ios":"levelo://app?vid=037cc8e4-07b7-4cde-ba35-4aed0ee3b967"},"vehicle_type_id":"4","last_reported":1693238912,"current_range_meters":29200,"station_id":"ce4bhbh2rcd13ifvqeqg","pricing_plan_id":"free"},{"bike_id":"f0140d15-05fb-4b49-adc6-a6ec3d7de040","system_id":"levelo_inurba_marseille","lat":43.300852,"lon":5.390859,"is_reserved":false,"is_disabled":false,"rental_uris":{"android":"levelo://app?vid=f0140d15-05fb-4b49-adc6-a6ec3d7de040","ios":"levelo://app?vid=f0140d15-05fb-4b49-adc6-a6ec3d7de040"},"vehicle_type_id":"4","last_reported":1693238912,"current_range_meters":23200,"station_id":"ce4bh192rcd13ifvqdb0","pricing_plan_id":"free"},{"bike_id":"720f8d2f-4d76-421f-ba82-8611c48e9d48","system_id":"levelo_inurba_marseille","lat":43.29226,"lon":5.36051,"is_reserved":false,"is_disabled":false,"rental_uris":{"android":"levelo://app?vid=720f8d2f-4d76-421f-ba82-8611c48e9d48","ios":"levelo://app?vid=720f8d2f-4d76-421f-ba82-8611c48e9d48"},"vehicle_type_id":"4","last_reported":1693238912,"current_range_meters":20000,"station_id":"ce4bhbh2rcd13ifvqeqg","pricing_plan_id":"free"},{"bike_id":"e76170c6-433f-4e4c-a7fa-31d730e9528d","system_id":"levelo_inurba_marseille","lat":43.30085,"lon":5.390856,"is_reserved":false,"is_disabled":false,"rental_uris":{"android":"levelo://app?vid=e76170c6-433f-4e4c-a7fa-31d730e9528d","ios":"levelo://app?vid=e76170c6-433f-4e4c-a7fa-31d730e9528d"},"vehicle_type_id":"4","last_reported":1693238912,"current_range_meters":23200,"station_id":"ce4bh192rcd13ifvqdb0","pricing_plan_id":"free"},{"bike_id":"89a7516e-1a53-4048-b4cd-7ba9da2f60cc","system_id":"levelo_inurba_marseille","lat":43.300852,"lon":5.390859,"is_reserved":false,"is_disabled":false,"rental_uris":{"android":"levelo://app?vid=89a7516e-1a53-4048-b4cd-7ba9da2f60cc","ios":"levelo://app?vid=89a7516e-1a53-4048-b4cd-7ba9da2f60cc"},"vehicle_type_id":"4","last_reported":1693238912,"current_range_meters":25200,"station_id":"ce4bh192rcd13ifvqdb0","pricing_plan_id":"free"},{"bike_id":"864efa0d-029b-49f9-bf26-fee0ca2cea95","system_id":"levelo_inurba_marseille","lat":43.291675,"lon":5.371583,"is_reserved":false,"is_disabled":false,"rental_uris":{"android":"levelo://app?vid=864efa0d-029b-49f9-bf26-fee0ca2cea95","ios":"levelo://app?vid=864efa0d-029b-49f9-bf26-fee0ca2cea95"},"vehicle_type_id":"4","last_reported":1693238912,"current_range_meters":2000,"station_id":"ce4bha92rcd13ifvqeh0","pricing_plan_id":"free"},{"bike_id":"1874071c-546d-4acd-b6d3-add303f1c61d","system_id":"levelo_inurba_marseille","lat":43.291675,"lon":5.371583,"is_reserved":false,"is_disabled":false,"rental_uris":{"android":"levelo://app?vid=1874071c-546d-4acd-b6d3-add303f1c61d","ios":"levelo://app?vid=1874071c-546d-4acd-b6d3-add303f1c61d"},"vehicle_type_id":"4","last_reported":1693238912,"current_range_meters":30000,"station_id":"ce4bha92rcd13ifvqeh0","pricing_plan_id":"free"},{"bike_id":"f0ef737d-5ad1-490d-9e7f-228c88ed7e68","system_id":"levelo_inurba_marseille","lat":43.29873,"lon":5.38911,"is_reserved":false,"is_disabled":false,"rental_uris":{"android":"levelo://app?vid=f0ef737d-5ad1-490d-9e7f-228c88ed7e68","ios":"levelo://app?vid=f0ef737d-5ad1-490d-9e7f-228c88ed7e68"},"vehicle_type_id":"4","last_reported":1693238912,"current_range_meters":12400,"station_id":"ce4bh392rcd13ifvqdl0","pricing_plan_id":"free"},{"bike_id":"df55086c-e54f-4e2e-963a-0d915456d709","system_id":"levelo_inurba_marseille","lat":43.30887,"lon":5.39621,"is_reserved":false,"is_disabled":false,"rental_uris":{"android":"levelo://app?vid=df55086c-e54f-4e2e-963a-0d915456d709","ios":"levelo://app?vid=df55086c-e54f-4e2e-963a-0d915456d709"},"vehicle_type_id":"4","last_reported":1693238912,"current_range_meters":31200,"station_id":"ce4bh012rcd13ifvqcv0","pricing_plan_id":"free"},{"bike_id":"c82f65e9-82fa-478a-9f3d-79190540ec09","system_id":"levelo_inurba_marseille","lat":43.30879,"lon":5.39622,"is_reserved":false,"is_disabled":false,"rental_uris":{"android":"levelo://app?vid=c82f65e9-82fa-478a-9f3d-79190540ec09","ios":"levelo://app?vid=c82f65e9-82fa-478a-9f3d-79190540ec09"},"vehicle_type_id":"4","last_reported":1693238912,"current_range_meters":22000,"station_id":"ce4bh012rcd13ifvqcv0","pricing_plan_id":"free"},{"bike_id":"349632f5-b9e4-45b0-85ee-c015e6d38254","system_id":"levelo_inurba_marseille","lat":43.309038,"lon":5.396546,"is_reserved":false,"is_disabled":false,"rental_uris":{"android":"levelo://app?vid=349632f5-b9e4-45b0-85ee-c015e6d38254","ios":"levelo://app?vid=349632f5-b9e4-45b0-85ee-c015e6d38254"},"vehicle_type_id":"4","last_reported":1693238912,"current_range_meters":18400,"station_id":"ce4bh012rcd13ifvqcv0","pricing_plan_id":"free"},{"bike_id":"759cc914-7aba-4818-b5f6-96120650491d","system_id":"levelo_inurba_marseille","lat":43.309038,"lon":5.396546,"is_reserved":false,"is_disabled":false,"rental_uris":{"android":"levelo://app?vid=759cc914-7aba-4818-b5f6-96120650491d","ios":"levelo://app?vid=759cc914-7aba-4818-b5f6-96120650491d"},"vehicle_type_id":"4","last_reported":1693238912,"current_range_meters":21600,"station_id":"ce4bh012rcd13ifvqcv0","pricing_plan_id":"free"},{"bike_id":"9cb0e1d7-da71-4945-9bd2-1833c134d8de","system_id":"levelo_inurba_marseille","lat":43.31324,"lon":5.39685,"is_reserved":false,"is_disabled":false,"rental_uris":{"android":"levelo://app?vid=9cb0e1d7-da71-4945-9bd2-1833c134d8de","ios":"levelo://app?vid=9cb0e1d7-da71-4945-9bd2-1833c134d8de"},"vehicle_type_id":"4","last_reported":1693238912,"current_range_meters":26400,"station_id":"ce4bgvp2rcd13ifvqcu0","pricing_plan_id":"free"},{"bike_id":"22df20d6-257b-4cc3-876b-cf3005f7af09","system_id":"levelo_inurba_marseille","lat":43.31321,"lon":5.39686,"is_reserved":false,"is_disabled":false,"rental_uris":{"android":"levelo://app?vid=22df20d6-257b-4cc3-876b-cf3005f7af09","ios":"levelo://app?vid=22df20d6-257b-4cc3-876b-cf3005f7af09"},"vehicle_type_id":"4","last_reported":1693238912,"current_range_meters":18800,"station_id":"ce4bgvp2rcd13ifvqcu0","pricing_plan_id":"free"},{"bike_id":"fd3d1205-0b2b-4bfe-bb8a-62a8e663f8ea","system_id":"levelo_inurba_marseille","lat":43.3133,"lon":5.39688,"is_reserved":false,"is_disabled":false,"rental_uris":{"android":"levelo://app?vid=fd3d1205-0b2b-4bfe-bb8a-62a8e663f8ea","ios":"levelo://app?vid=fd3d1205-0b2b-4bfe-bb8a-62a8e663f8ea"},"vehicle_type_id":"4","last_reported":1693238912,"current_range_meters":22400,"station_id":"ce4bgvp2rcd13ifvqcu0","pricing_plan_id":"free"},{"bike_id":"bbe0012c-1a90-426e-931c-6d730d3529a8","system_id":"levelo_inurba_marseille","lat":43.31318,"lon":5.39691,"is_reserved":false,"is_disabled":false,"rental_uris":{"android":"levelo://app?vid=bbe0012c-1a90-426e-931c-6d730d3529a8","ios":"levelo://app?vid=bbe0012c-1a90-426e-931c-6d730d3529a8"},"vehicle_type_id":"4","last_reported":1693238912,"current_range_meters":24000,"station_id":"ce4bgvp2rcd13ifvqcu0","pricing_plan_id":"free"},{"bike_id":"d1bdacf3-b6e2-4037-9913-9d14c667bd4e","system_id":"levelo_inurba_marseille","lat":43.31331,"lon":5.39693,"is_reserved":false,"is_disabled":false,"rental_uris":{"android":"levelo://app?vid=d1bdacf3-b6e2-4037-9913-9d14c667bd4e","ios":"levelo://app?vid=d1bdacf3-b6e2-4037-9913-9d14c667bd4e"},"vehicle_type_id":"4","last_reported":1693238912,"current_range_meters":15600,"station_id":"ce4bgvp2rcd13ifvqcu0","pricing_plan_id":"free"},{"bike_id":"b6cf9b6f-933f-4272-aa56-9ec754b19aa0","system_id":"levelo_inurba_marseille","lat":43.309038,"lon":5.396546,"is_reserved":false,"is_disabled":false,"rental_uris":{"android":"levelo://app?vid=b6cf9b6f-933f-4272-aa56-9ec754b19aa0","ios":"levelo://app?vid=b6cf9b6f-933f-4272-aa56-9ec754b19aa0"},"vehicle_type_id":"4","last_reported":1693238912,"current_range_meters":31200,"station_id":"ce4bh012rcd13ifvqcv0","pricing_plan_id":"free"},{"bike_id":"73c2e0c0-a939-4bc3-943a-e52094180bff","system_id":"levelo_inurba_marseille","lat":43.291994,"lon":5.357886,"is_reserved":false,"is_disabled":false,"rental_uris":{"android":"levelo://app?vid=73c2e0c0-a939-4bc3-943a-e52094180bff","ios":"levelo://app?vid=73c2e0c0-a939-4bc3-943a-e52094180bff"},"vehicle_type_id":"4","last_reported":1693238912,"current_range_meters":20400,"station_id":"ce4bhb12rcd13ifvqel0","pricing_plan_id":"free"},{"bike_id":"29e2344f-7b98-41e2-8ad8-fd638a8ec9b1","system_id":"levelo_inurba_marseille","lat":43.309038,"lon":5.396546,"is_reserved":false,"is_disabled":false,"rental_uris":{"android":"levelo://app?vid=29e2344f-7b98-41e2-8ad8-fd638a8ec9b1","ios":"levelo://app?vid=29e2344f-7b98-41e2-8ad8-fd638a8ec9b1"},"vehicle_type_id":"4","last_reported":1693238912,"current_range_meters":4400,"station_id":"ce4bh012rcd13ifvqcv0","pricing_plan_id":"free"},{"bike_id":"90f5567c-10dd-4518-9967-b82a6dac21c2","system_id":"levelo_inurba_marseille","lat":43.31333,"lon":5.39698,"is_reserved":false,"is_disabled":false,"rental_uris":{"android":"levelo://app?vid=90f5567c-10dd-4518-9967-b82a6dac21c2","ios":"levelo://app?vid=90f5567c-10dd-4518-9967-b82a6dac21c2"},"vehicle_type_id":"4","last_reported":1693238912,"current_range_meters":14000,"station_id":"ce4bgvp2rcd13ifvqcu0","pricing_plan_id":"free"},{"bike_id":"d2c4fcba-b35e-4be0-a661-4dc30d3bf7ee","system_id":"levelo_inurba_marseille","lat":43.313291,"lon":5.396838,"is_reserved":false,"is_disabled":false,"rental_uris":{"android":"levelo://app?vid=d2c4fcba-b35e-4be0-a661-4dc30d3bf7ee","ios":"levelo://app?vid=d2c4fcba-b35e-4be0-a661-4dc30d3bf7ee"},"vehicle_type_id":"4","last_reported":1693238912,"current_range_meters":30800,"station_id":"ce4bgvp2rcd13ifvqcu0","pricing_plan_id":"free"},{"bike_id":"c1d0af99-a00e-4bb7-bff2-7b81341d021e","system_id":"levelo_inurba_marseille","lat":43.29529,"lon":5.385581,"is_reserved":false,"is_disabled":false,"rental_uris":{"android":"levelo://app?vid=c1d0af99-a00e-4bb7-bff2-7b81341d021e","ios":"levelo://app?vid=c1d0af99-a00e-4bb7-bff2-7b81341d021e"},"vehicle_type_id":"4","last_reported":1693238912,"current_range_meters":9200,"station_id":"ce4bgih2rcd13ifvqba0","pricing_plan_id":"free"},{"bike_id":"42916846-7f50-4fd3-8b26-a068c133adc6","system_id":"levelo_inurba_marseille","lat":43.29529,"lon":5.385581,"is_reserved":false,"is_disabled":false,"rental_uris":{"android":"levelo://app?vid=42916846-7f50-4fd3-8b26-a068c133adc6","ios":"levelo://app?vid=42916846-7f50-4fd3-8b26-a068c133adc6"},"vehicle_type_id":"4","last_reported":1693238912,"current_range_meters":22800,"station_id":"ce4bgih2rcd13ifvqba0","pricing_plan_id":"free"},{"bike_id":"cf2b88d8-f8de-41a8-b893-ac9882eb130b","system_id":"levelo_inurba_marseille","lat":43.29529,"lon":5.385581,"is_reserved":false,"is_disabled":false,"rental_uris":{"android":"levelo://app?vid=cf2b88d8-f8de-41a8-b893-ac9882eb130b","ios":"levelo://app?vid=cf2b88d8-f8de-41a8-b893-ac9882eb130b"},"vehicle_type_id":"4","last_reported":1693238912,"current_range_meters":29200,"station_id":"ce4bgih2rcd13ifvqba0","pricing_plan_id":"free"},{"bike_id":"e51c759b-7865-4694-a94e-b48cbd0c5b65","system_id":"levelo_inurba_marseille","lat":43.29529,"lon":5.385581,"is_reserved":false,"is_disabled":false,"rental_uris":{"android":"levelo://app?vid=e51c759b-7865-4694-a94e-b48cbd0c5b65","ios":"levelo://app?vid=e51c759b-7865-4694-a94e-b48cbd0c5b65"},"vehicle_type_id":"4","last_reported":1693238912,"current_range_meters":31200,"station_id":"ce4bgih2rcd13ifvqba0","pricing_plan_id":"free"},{"bike_id":"133eb074-3b7d-4915-9a54-d45b3fb79a43","system_id":"levelo_inurba_marseille","lat":43.290779,"lon":5.371482,"is_reserved":false,"is_disabled":false,"rental_uris":{"android":"levelo://app?vid=133eb074-3b7d-4915-9a54-d45b3fb79a43","ios":"levelo://app?vid=133eb074-3b7d-4915-9a54-d45b3fb79a43"},"vehicle_type_id":"4","last_reported":1693238912,"current_range_meters":30000,"station_id":"ce4bh5p2rcd13ifvqe4g","pricing_plan_id":"free"},{"bike_id":"f905a654-ca1d-4b83-8848-093ad1f0337e","system_id":"levelo_inurba_marseille","lat":43.290779,"lon":5.371482,"is_reserved":false,"is_disabled":false,"rental_uris":{"android":"levelo://app?vid=f905a654-ca1d-4b83-8848-093ad1f0337e","ios":"levelo://app?vid=f905a654-ca1d-4b83-8848-093ad1f0337e"},"vehicle_type_id":"4","last_reported":1693238912,"current_range_meters":24000,"station_id":"ce4bh5p2rcd13ifvqe4g","pricing_plan_id":"free"},{"bike_id":"ba69d72e-61a4-42f0-a323-f08dc48e6baf","system_id":"levelo_inurba_marseille","lat":43.302008,"lon":5.394694,"is_reserved":false,"is_disabled":false,"rental_uris":{"android":"levelo://app?vid=ba69d72e-61a4-42f0-a323-f08dc48e6baf","ios":"levelo://app?vid=ba69d72e-61a4-42f0-a323-f08dc48e6baf"},"vehicle_type_id":"4","last_reported":1693238912,"current_range_meters":29200,"station_id":"ce4bh0p2rcd13ifvqd70","pricing_plan_id":"free"},{"bike_id":"b5dfd32e-7c6e-4d33-9a94-3c97a57d001b","system_id":"levelo_inurba_marseille","lat":43.302008,"lon":5.394694,"is_reserved":false,"is_disabled":false,"rental_uris":{"android":"levelo://app?vid=b5dfd32e-7c6e-4d33-9a94-3c97a57d001b","ios":"levelo://app?vid=b5dfd32e-7c6e-4d33-9a94-3c97a57d001b"},"vehicle_type_id":"4","last_reported":1693238912,"current_range_meters":28800,"station_id":"ce4bh0p2rcd13ifvqd70","pricing_plan_id":"free"},{"bike_id":"b230a89b-b957-425c-a013-c72e360705f4","system_id":"levelo_inurba_marseille","lat":43.290631,"lon":5.359244,"is_reserved":false,"is_disabled":false,"rental_uris":{"android":"levelo://app?vid=b230a89b-b957-425c-a013-c72e360705f4","ios":"levelo://app?vid=b230a89b-b957-425c-a013-c72e360705f4"},"vehicle_type_id":"4","last_reported":1693238912,"current_range_meters":18400,"station_id":"ce4bha92rcd13ifvqeg0","pricing_plan_id":"free"},{"bike_id":"97083d10-0d2b-45c3-93b3-2ceabd48c4cf","system_id":"levelo_inurba_marseille","lat":43.290631,"lon":5.359244,"is_reserved":false,"is_disabled":false,"rental_uris":{"android":"levelo://app?vid=97083d10-0d2b-45c3-93b3-2ceabd48c4cf","ios":"levelo://app?vid=97083d10-0d2b-45c3-93b3-2ceabd48c4cf"},"vehicle_type_id":"4","last_reported":1693238912,"current_range_meters":7200,"station_id":"ce4bha92rcd13ifvqeg0","pricing_plan_id":"free"},{"bike_id":"56e18537-7d0b-4c0f-97ad-06836350394e","system_id":"levelo_inurba_marseille","lat":43.294153,"lon":5.386305,"is_reserved":false,"is_disabled":false,"rental_uris":{"android":"levelo://app?vid=56e18537-7d0b-4c0f-97ad-06836350394e","ios":"levelo://app?vid=56e18537-7d0b-4c0f-97ad-06836350394e"},"vehicle_type_id":"4","last_reported":1693238912,"current_range_meters":23200,"station_id":"ce4bh2h2rcd13ifvqdh0","pricing_plan_id":"free"},{"bike_id":"ae3d5d69-57a6-4ac0-9268-1660b3cc3d64","system_id":"levelo_inurba_marseille","lat":43.290327,"lon":5.375711,"is_reserved":false,"is_disabled":false,"rental_uris":{"android":"levelo://app?vid=ae3d5d69-57a6-4ac0-9268-1660b3cc3d64","ios":"levelo://app?vid=ae3d5d69-57a6-4ac0-9268-1660b3cc3d64"},"vehicle_type_id":"4","last_reported":1693238912,"current_range_meters":12400,"station_id":"ce4bh692rcd13ifvqe90","pricing_plan_id":"free"},{"bike_id":"29493b06-1b77-4da9-a8d1-6b96edbfa09f","system_id":"levelo_inurba_marseille","lat":43.289184,"lon":5.366408,"is_reserved":false,"is_disabled":false,"rental_uris":{"android":"levelo://app?vid=29493b06-1b77-4da9-a8d1-6b96edbfa09f","ios":"levelo://app?vid=29493b06-1b77-4da9-a8d1-6b96edbfa09f"},"vehicle_type_id":"4","last_reported":1693238912,"current_range_meters":19200,"station_id":"ce4bhap2rcd13ifvqek0","pricing_plan_id":"free"},{"bike_id":"d99252ed-9505-4804-87f0-55a300047026","system_id":"levelo_inurba_marseille","lat":43.289184,"lon":5.366408,"is_reserved":false,"is_disabled":false,"rental_uris":{"android":"levelo://app?vid=d99252ed-9505-4804-87f0-55a300047026","ios":"levelo://app?vid=d99252ed-9505-4804-87f0-55a300047026"},"vehicle_type_id":"4","last_reported":1693238912,"current_range_meters":26000,"station_id":"ce4bhap2rcd13ifvqek0","pricing_plan_id":"free"},{"bike_id":"c4b0932a-3dec-4193-97f1-fbd86a7408f3","system_id":"levelo_inurba_marseille","lat":43.289184,"lon":5.366408,"is_reserved":false,"is_disabled":false,"rental_uris":{"android":"levelo://app?vid=c4b0932a-3dec-4193-97f1-fbd86a7408f3","ios":"levelo://app?vid=c4b0932a-3dec-4193-97f1-fbd86a7408f3"},"vehicle_type_id":"4","last_reported":1693238912,"current_range_meters":15200,"station_id":"ce4bhap2rcd13ifvqek0","pricing_plan_id":"free"},{"bike_id":"3b531f41-d2a5-4efa-9f09-1d3b81ea1586","system_id":"levelo_inurba_marseille","lat":43.289184,"lon":5.366408,"is_reserved":false,"is_disabled":false,"rental_uris":{"android":"levelo://app?vid=3b531f41-d2a5-4efa-9f09-1d3b81ea1586","ios":"levelo://app?vid=3b531f41-d2a5-4efa-9f09-1d3b81ea1586"},"vehicle_type_id":"4","last_reported":1693238912,"current_range_meters":28800,"station_id":"ce4bhap2rcd13ifvqek0","pricing_plan_id":"free"},{"bike_id":"2f93318d-a393-4e93-88c9-60d3ec241b0e","system_id":"levelo_inurba_marseille","lat":43.289184,"lon":5.366408,"is_reserved":false,"is_disabled":false,"rental_uris":{"android":"levelo://app?vid=2f93318d-a393-4e93-88c9-60d3ec241b0e","ios":"levelo://app?vid=2f93318d-a393-4e93-88c9-60d3ec241b0e"},"vehicle_type_id":"4","last_reported":1693238912,"current_range_meters":31600,"station_id":"ce4bhap2rcd13ifvqek0","pricing_plan_id":"free"},{"bike_id":"7843061a-c0dc-439b-88a6-0ed76fc4c071","system_id":"levelo_inurba_marseille","lat":43.289184,"lon":5.366408,"is_reserved":false,"is_disabled":false,"rental_uris":{"android":"levelo://app?vid=7843061a-c0dc-439b-88a6-0ed76fc4c071","ios":"levelo://app?vid=7843061a-c0dc-439b-88a6-0ed76fc4c071"},"vehicle_type_id":"4","last_reported":1693238912,"current_range_meters":16800,"station_id":"ce4bhap2rcd13ifvqek0","pricing_plan_id":"free"},{"bike_id":"98944793-8fd5-4fd4-9feb-b8bf7f1fb671","system_id":"levelo_inurba_marseille","lat":43.289184,"lon":5.366408,"is_reserved":false,"is_disabled":false,"rental_uris":{"android":"levelo://app?vid=98944793-8fd5-4fd4-9feb-b8bf7f1fb671","ios":"levelo://app?vid=98944793-8fd5-4fd4-9feb-b8bf7f1fb671"},"vehicle_type_id":"4","last_reported":1693238912,"current_range_meters":29200,"station_id":"ce4bhap2rcd13ifvqek0","pricing_plan_id":"free"},{"bike_id":"7d249736-e1ae-445e-a0aa-8f876004b850","system_id":"levelo_inurba_marseille","lat":43.289184,"lon":5.366408,"is_reserved":false,"is_disabled":false,"rental_uris":{"android":"levelo://app?vid=7d249736-e1ae-445e-a0aa-8f876004b850","ios":"levelo://app?vid=7d249736-e1ae-445e-a0aa-8f876004b850"},"vehicle_type_id":"4","last_reported":1693238912,"current_range_meters":19600,"station_id":"ce4bhap2rcd13ifvqek0","pricing_plan_id":"free"},{"bike_id":"9d30f470-f83e-49fb-b215-4484e649b61f","system_id":"levelo_inurba_marseille","lat":43.289184,"lon":5.366408,"is_reserved":false,"is_disabled":false,"rental_uris":{"android":"levelo://app?vid=9d30f470-f83e-49fb-b215-4484e649b61f","ios":"levelo://app?vid=9d30f470-f83e-49fb-b215-4484e649b61f"},"vehicle_type_id":"4","last_reported":1693238912,"current_range_meters":21600,"station_id":"ce4bhap2rcd13ifvqek0","pricing_plan_id":"free"},{"bike_id":"aeb2a374-4c77-4d86-ad82-83074bbf9a46","system_id":"levelo_inurba_marseille","lat":43.28929,"lon":5.36381,"is_reserved":false,"is_disabled":false,"rental_uris":{"android":"levelo://app?vid=aeb2a374-4c77-4d86-ad82-83074bbf9a46","ios":"levelo://app?vid=aeb2a374-4c77-4d86-ad82-83074bbf9a46"},"vehicle_type_id":"4","last_reported":1693238912,"current_range_meters":30800,"station_id":"ce4bhc92rcd13ifvqetg","pricing_plan_id":"free"},{"bike_id":"9f16ae3d-b562-49b2-bff5-ab86e0f4f6ed","system_id":"levelo_inurba_marseille","lat":43.289468,"lon":5.363719,"is_reserved":false,"is_disabled":false,"rental_uris":{"android":"levelo://app?vid=9f16ae3d-b562-49b2-bff5-ab86e0f4f6ed","ios":"levelo://app?vid=9f16ae3d-b562-49b2-bff5-ab86e0f4f6ed"},"vehicle_type_id":"4","last_reported":1693238912,"current_range_meters":29600,"station_id":"ce4bhc92rcd13ifvqetg","pricing_plan_id":"free"},{"bike_id":"534d0ef9-850d-4eda-b4d4-d4ebf2bb0a48","system_id":"levelo_inurba_marseille","lat":43.28925,"lon":5.36379,"is_reserved":false,"is_disabled":false,"rental_uris":{"android":"levelo://app?vid=534d0ef9-850d-4eda-b4d4-d4ebf2bb0a48","ios":"levelo://app?vid=534d0ef9-850d-4eda-b4d4-d4ebf2bb0a48"},"vehicle_type_id":"4","last_reported":1693238912,"current_range_meters":30800,"station_id":"ce4bhc92rcd13ifvqetg","pricing_plan_id":"free"},{"bike_id":"1d93164e-8cd2-423f-aef3-6380c1123a7e","system_id":"levelo_inurba_marseille","lat":43.289468,"lon":5.363719,"is_reserved":false,"is_disabled":false,"rental_uris":{"android":"levelo://app?vid=1d93164e-8cd2-423f-aef3-6380c1123a7e","ios":"levelo://app?vid=1d93164e-8cd2-423f-aef3-6380c1123a7e"},"vehicle_type_id":"4","last_reported":1693238912,"current_range_meters":29200,"station_id":"ce4bhc92rcd13ifvqetg","pricing_plan_id":"free"},{"bike_id":"ddc3d488-730c-43cc-bee9-4addd7d1df5d","system_id":"levelo_inurba_marseille","lat":43.292644,"lon":5.384257,"is_reserved":false,"is_disabled":false,"rental_uris":{"android":"levelo://app?vid=ddc3d488-730c-43cc-bee9-4addd7d1df5d","ios":"levelo://app?vid=ddc3d488-730c-43cc-bee9-4addd7d1df5d"},"vehicle_type_id":"4","last_reported":1693238912,"current_range_meters":26400,"station_id":"ce4bh692rcd13ifvqea0","pricing_plan_id":"free"},{"bike_id":"8cfbb322-1aed-4abd-a6bf-a803eaa346be","system_id":"levelo_inurba_marseille","lat":43.292644,"lon":5.384257,"is_reserved":false,"is_disabled":false,"rental_uris":{"android":"levelo://app?vid=8cfbb322-1aed-4abd-a6bf-a803eaa346be","ios":"levelo://app?vid=8cfbb322-1aed-4abd-a6bf-a803eaa346be"},"vehicle_type_id":"4","last_reported":1693238912,"current_range_meters":30800,"station_id":"ce4bh692rcd13ifvqea0","pricing_plan_id":"free"},{"bike_id":"5a2affcf-9be2-45fe-9ecd-e757e90e0159","system_id":"levelo_inurba_marseille","lat":43.29263,"lon":5.38449,"is_reserved":false,"is_disabled":false,"rental_uris":{"android":"levelo://app?vid=5a2affcf-9be2-45fe-9ecd-e757e90e0159","ios":"levelo://app?vid=5a2affcf-9be2-45fe-9ecd-e757e90e0159"},"vehicle_type_id":"4","last_reported":1693238912,"current_range_meters":8800,"station_id":"","pricing_plan_id":"free"},{"bike_id":"2f433e22-2771-4736-a903-9c2b3d45cce9","system_id":"levelo_inurba_marseille","lat":43.292642,"lon":5.384254,"is_reserved":false,"is_disabled":false,"rental_uris":{"android":"levelo://app?vid=2f433e22-2771-4736-a903-9c2b3d45cce9","ios":"levelo://app?vid=2f433e22-2771-4736-a903-9c2b3d45cce9"},"vehicle_type_id":"4","last_reported":1693238912,"current_range_meters":18400,"station_id":"ce4bh692rcd13ifvqea0","pricing_plan_id":"free"},{"bike_id":"f9cda1cd-c7b9-4695-8add-1f641fcc7c32","system_id":"levelo_inurba_marseille","lat":43.292642,"lon":5.384254,"is_reserved":false,"is_disabled":false,"rental_uris":{"android":"levelo://app?vid=f9cda1cd-c7b9-4695-8add-1f641fcc7c32","ios":"levelo://app?vid=f9cda1cd-c7b9-4695-8add-1f641fcc7c32"},"vehicle_type_id":"4","last_reported":1693238912,"current_range_meters":17200,"station_id":"ce4bh692rcd13ifvqea0","pricing_plan_id":"free"},{"bike_id":"fe16944e-9122-45ac-8405-fe99692f50d0","system_id":"levelo_inurba_marseille","lat":43.292644,"lon":5.384257,"is_reserved":false,"is_disabled":false,"rental_uris":{"android":"levelo://app?vid=fe16944e-9122-45ac-8405-fe99692f50d0","ios":"levelo://app?vid=fe16944e-9122-45ac-8405-fe99692f50d0"},"vehicle_type_id":"4","last_reported":1693238912,"current_range_meters":4000,"station_id":"ce4bh692rcd13ifvqea0","pricing_plan_id":"free"},{"bike_id":"0f9cf6ac-9e26-44db-9c7e-1a9eb1aaac30","system_id":"levelo_inurba_marseille","lat":43.292642,"lon":5.384254,"is_reserved":false,"is_disabled":false,"rental_uris":{"android":"levelo://app?vid=0f9cf6ac-9e26-44db-9c7e-1a9eb1aaac30","ios":"levelo://app?vid=0f9cf6ac-9e26-44db-9c7e-1a9eb1aaac30"},"vehicle_type_id":"4","last_reported":1693238912,"current_range_meters":30000,"station_id":"ce4bh692rcd13ifvqea0","pricing_plan_id":"free"},{"bike_id":"ff858340-936d-40f1-852d-c811a2b4dfb7","system_id":"levelo_inurba_marseille","lat":43.292644,"lon":5.384257,"is_reserved":false,"is_disabled":false,"rental_uris":{"android":"levelo://app?vid=ff858340-936d-40f1-852d-c811a2b4dfb7","ios":"levelo://app?vid=ff858340-936d-40f1-852d-c811a2b4dfb7"},"vehicle_type_id":"4","last_reported":1693238912,"current_range_meters":800,"station_id":"ce4bh692rcd13ifvqea0","pricing_plan_id":"free"},{"bike_id":"b36b18e4-aa4f-4b17-96df-98527a0c62b7","system_id":"levelo_inurba_marseille","lat":43.33037,"lon":5.38916,"is_reserved":false,"is_disabled":false,"rental_uris":{"android":"levelo://app?vid=b36b18e4-aa4f-4b17-96df-98527a0c62b7","ios":"levelo://app?vid=b36b18e4-aa4f-4b17-96df-98527a0c62b7"},"vehicle_type_id":"4","last_reported":1693238912,"current_range_meters":31200,"station_id":"ce4bhr92rcd13ifvqhrg","pricing_plan_id":"free"},{"bike_id":"51493663-dc9f-469b-a7a4-22391f604a01","system_id":"levelo_inurba_marseille","lat":43.33041,"lon":5.38917,"is_reserved":false,"is_disabled":false,"rental_uris":{"android":"levelo://app?vid=51493663-dc9f-469b-a7a4-22391f604a01","ios":"levelo://app?vid=51493663-dc9f-469b-a7a4-22391f604a01"},"vehicle_type_id":"4","last_reported":1693238912,"current_range_meters":31200,"station_id":"ce4bhr92rcd13ifvqhrg","pricing_plan_id":"free"},{"bike_id":"04b2c171-af35-47d2-ba0a-5d2a333d201e","system_id":"levelo_inurba_marseille","lat":43.33043,"lon":5.38916,"is_reserved":false,"is_disabled":false,"rental_uris":{"android":"levelo://app?vid=04b2c171-af35-47d2-ba0a-5d2a333d201e","ios":"levelo://app?vid=04b2c171-af35-47d2-ba0a-5d2a333d201e"},"vehicle_type_id":"4","last_reported":1693238912,"current_range_meters":20800,"station_id":"ce4bhr92rcd13ifvqhrg","pricing_plan_id":"free"},{"bike_id":"b7555b63-cabe-4ff3-9568-c8c476f7c99d","system_id":"levelo_inurba_marseille","lat":43.33046,"lon":5.38912,"is_reserved":false,"is_disabled":false,"rental_uris":{"android":"levelo://app?vid=b7555b63-cabe-4ff3-9568-c8c476f7c99d","ios":"levelo://app?vid=b7555b63-cabe-4ff3-9568-c8c476f7c99d"},"vehicle_type_id":"4","last_reported":1693238912,"current_range_meters":31200,"station_id":"ce4bhr92rcd13ifvqhrg","pricing_plan_id":"free"},{"bike_id":"0aff8a55-f6ba-4558-ae4d-2324051d0be9","system_id":"levelo_inurba_marseille","lat":43.33039,"lon":5.38923,"is_reserved":false,"is_disabled":false,"rental_uris":{"android":"levelo://app?vid=0aff8a55-f6ba-4558-ae4d-2324051d0be9","ios":"levelo://app?vid=0aff8a55-f6ba-4558-ae4d-2324051d0be9"},"vehicle_type_id":"4","last_reported":1693238912,"current_range_meters":22800,"station_id":"ce4bhr92rcd13ifvqhrg","pricing_plan_id":"free"},{"bike_id":"b4a7b5a9-c9d2-4472-bf23-bbceccb511d8","system_id":"levelo_inurba_marseille","lat":43.33045,"lon":5.38915,"is_reserved":false,"is_disabled":false,"rental_uris":{"android":"levelo://app?vid=b4a7b5a9-c9d2-4472-bf23-bbceccb511d8","ios":"levelo://app?vid=b4a7b5a9-c9d2-4472-bf23-bbceccb511d8"},"vehicle_type_id":"4","last_reported":1693238912,"current_range_meters":18800,"station_id":"ce4bhr92rcd13ifvqhrg","pricing_plan_id":"free"},{"bike_id":"3ee629d2-aa03-4ba3-8039-d4c7d1067576","system_id":"levelo_inurba_marseille","lat":43.33042,"lon":5.38921,"is_reserved":false,"is_disabled":false,"rental_uris":{"android":"levelo://app?vid=3ee629d2-aa03-4ba3-8039-d4c7d1067576","ios":"levelo://app?vid=3ee629d2-aa03-4ba3-8039-d4c7d1067576"},"vehicle_type_id":"4","last_reported":1693238912,"current_range_meters":17600,"station_id":"ce4bhr92rcd13ifvqhrg","pricing_plan_id":"free"},{"bike_id":"672f9914-cde1-4eb9-8c2f-725fac43d5ce","system_id":"levelo_inurba_marseille","lat":43.33045,"lon":5.38917,"is_reserved":false,"is_disabled":false,"rental_uris":{"android":"levelo://app?vid=672f9914-cde1-4eb9-8c2f-725fac43d5ce","ios":"levelo://app?vid=672f9914-cde1-4eb9-8c2f-725fac43d5ce"},"vehicle_type_id":"4","last_reported":1693238912,"current_range_meters":31200,"station_id":"ce4bhr92rcd13ifvqhrg","pricing_plan_id":"free"},{"bike_id":"028b16b4-c861-455c-93e2-214442c48086","system_id":"levelo_inurba_marseille","lat":43.290104,"lon":5.356111,"is_reserved":false,"is_disabled":false,"rental_uris":{"android":"levelo://app?vid=028b16b4-c861-455c-93e2-214442c48086","ios":"levelo://app?vid=028b16b4-c861-455c-93e2-214442c48086"},"vehicle_type_id":"4","last_reported":1693238912,"current_range_meters":31200,"station_id":"ce4bhb92rcd13ifvqen0","pricing_plan_id":"free"},{"bike_id":"944fa0c4-7c00-4d9f-9c5a-298084f9e0c2","system_id":"levelo_inurba_marseille","lat":43.33043,"lon":5.38923,"is_reserved":false,"is_disabled":false,"rental_uris":{"android":"levelo://app?vid=944fa0c4-7c00-4d9f-9c5a-298084f9e0c2","ios":"levelo://app?vid=944fa0c4-7c00-4d9f-9c5a-298084f9e0c2"},"vehicle_type_id":"4","last_reported":1693238912,"current_range_meters":15200,"station_id":"ce4bhr92rcd13ifvqhrg","pricing_plan_id":"free"},{"bike_id":"e8252885-f3b0-46f3-a666-497784d7ede7","system_id":"levelo_inurba_marseille","lat":43.33046,"lon":5.38919,"is_reserved":false,"is_disabled":false,"rental_uris":{"android":"levelo://app?vid=e8252885-f3b0-46f3-a666-497784d7ede7","ios":"levelo://app?vid=e8252885-f3b0-46f3-a666-497784d7ede7"},"vehicle_type_id":"4","last_reported":1693238912,"current_range_meters":25200,"station_id":"ce4bhr92rcd13ifvqhrg","pricing_plan_id":"free"},{"bike_id":"1895038e-acdb-4d35-aa35-e1291f23a30a","system_id":"levelo_inurba_marseille","lat":43.290104,"lon":5.356111,"is_reserved":false,"is_disabled":false,"rental_uris":{"android":"levelo://app?vid=1895038e-acdb-4d35-aa35-e1291f23a30a","ios":"levelo://app?vid=1895038e-acdb-4d35-aa35-e1291f23a30a"},"vehicle_type_id":"4","last_reported":1693238912,"current_range_meters":31200,"station_id":"ce4bhb92rcd13ifvqen0","pricing_plan_id":"free"},{"bike_id":"483487c7-5358-42d5-937f-3f93b8b85080","system_id":"levelo_inurba_marseille","lat":43.290995,"lon":5.381361,"is_reserved":false,"is_disabled":false,"rental_uris":{"android":"levelo://app?vid=483487c7-5358-42d5-937f-3f93b8b85080","ios":"levelo://app?vid=483487c7-5358-42d5-937f-3f93b8b85080"},"vehicle_type_id":"4","last_reported":1693238912,"current_range_meters":12000,"station_id":"ce4bh512rcd13ifvqe2g","pricing_plan_id":"free"},{"bike_id":"802a5298-e2f2-40f7-b7d2-0e323d430fd8","system_id":"levelo_inurba_marseille","lat":43.290995,"lon":5.381361,"is_reserved":false,"is_disabled":false,"rental_uris":{"android":"levelo://app?vid=802a5298-e2f2-40f7-b7d2-0e323d430fd8","ios":"levelo://app?vid=802a5298-e2f2-40f7-b7d2-0e323d430fd8"},"vehicle_type_id":"4","last_reported":1693238912,"current_range_meters":10400,"station_id":"ce4bh512rcd13ifvqe2g","pricing_plan_id":"free"},{"bike_id":"576a1a9c-b482-472d-a8cd-ea78e9bcb55d","system_id":"levelo_inurba_marseille","lat":43.295169,"lon":5.390426,"is_reserved":false,"is_disabled":false,"rental_uris":{"android":"levelo://app?vid=576a1a9c-b482-472d-a8cd-ea78e9bcb55d","ios":"levelo://app?vid=576a1a9c-b482-472d-a8cd-ea78e9bcb55d"},"vehicle_type_id":"4","last_reported":1693238912,"current_range_meters":19600,"station_id":"ce4bh3p2rcd13ifvqdp0","pricing_plan_id":"free"},{"bike_id":"9da41d16-4687-4efe-b077-5345bdcb68eb","system_id":"levelo_inurba_marseille","lat":43.304296,"lon":5.397513,"is_reserved":false,"is_disabled":false,"rental_uris":{"android":"levelo://app?vid=9da41d16-4687-4efe-b077-5345bdcb68eb","ios":"levelo://app?vid=9da41d16-4687-4efe-b077-5345bdcb68eb"},"vehicle_type_id":"4","last_reported":1693238912,"current_range_meters":28000,"station_id":"ce4bh092rcd13ifvqd20","pricing_plan_id":"free"},{"bike_id":"17946cfb-511a-4cd5-9948-b7a0f8925082","system_id":"levelo_inurba_marseille","lat":43.29791,"lon":5.39348,"is_reserved":false,"is_disabled":false,"rental_uris":{"android":"levelo://app?vid=17946cfb-511a-4cd5-9948-b7a0f8925082","ios":"levelo://app?vid=17946cfb-511a-4cd5-9948-b7a0f8925082"},"vehicle_type_id":"4","last_reported":1693238912,"current_range_meters":28000,"station_id":"chh1huq6cuj3fo74tm60","pricing_plan_id":"free"},{"bike_id":"c265dd42-095a-46f7-874d-8f4a19e5b16b","system_id":"levelo_inurba_marseille","lat":43.295169,"lon":5.390426,"is_reserved":false,"is_disabled":false,"rental_uris":{"android":"levelo://app?vid=c265dd42-095a-46f7-874d-8f4a19e5b16b","ios":"levelo://app?vid=c265dd42-095a-46f7-874d-8f4a19e5b16b"},"vehicle_type_id":"4","last_reported":1693238912,"current_range_meters":0,"station_id":"ce4bh3p2rcd13ifvqdp0","pricing_plan_id":"free"},{"bike_id":"5632a526-0858-4bbf-ad5a-8b5f56df41aa","system_id":"levelo_inurba_marseille","lat":43.28856,"lon":5.358371,"is_reserved":false,"is_disabled":false,"rental_uris":{"android":"levelo://app?vid=5632a526-0858-4bbf-ad5a-8b5f56df41aa","ios":"levelo://app?vid=5632a526-0858-4bbf-ad5a-8b5f56df41aa"},"vehicle_type_id":"4","last_reported":1693238912,"current_range_meters":18000,"station_id":"ce4bhb12rcd13ifvqem0","pricing_plan_id":"free"},{"bike_id":"29fbec2a-0a4d-486f-a6fb-821aa438fbbf","system_id":"levelo_inurba_marseille","lat":43.28856,"lon":5.358371,"is_reserved":false,"is_disabled":false,"rental_uris":{"android":"levelo://app?vid=29fbec2a-0a4d-486f-a6fb-821aa438fbbf","ios":"levelo://app?vid=29fbec2a-0a4d-486f-a6fb-821aa438fbbf"},"vehicle_type_id":"4","last_reported":1693238912,"current_range_meters":7600,"station_id":"ce4bhb12rcd13ifvqem0","pricing_plan_id":"free"},{"bike_id":"aef95ef2-7cdd-4ecb-bf41-1d1aa39d5277","system_id":"levelo_inurba_marseille","lat":43.28856,"lon":5.358371,"is_reserved":false,"is_disabled":false,"rental_uris":{"android":"levelo://app?vid=aef95ef2-7cdd-4ecb-bf41-1d1aa39d5277","ios":"levelo://app?vid=aef95ef2-7cdd-4ecb-bf41-1d1aa39d5277"},"vehicle_type_id":"4","last_reported":1693238912,"current_range_meters":26000,"station_id":"ce4bhb12rcd13ifvqem0","pricing_plan_id":"free"},{"bike_id":"ab4a8e8a-1f31-40b6-944a-7872faea8e04","system_id":"levelo_inurba_marseille","lat":43.28856,"lon":5.358371,"is_reserved":false,"is_disabled":false,"rental_uris":{"android":"levelo://app?vid=ab4a8e8a-1f31-40b6-944a-7872faea8e04","ios":"levelo://app?vid=ab4a8e8a-1f31-40b6-944a-7872faea8e04"},"vehicle_type_id":"4","last_reported":1693238912,"current_range_meters":25200,"station_id":"ce4bhb12rcd13ifvqem0","pricing_plan_id":"free"},{"bike_id":"71909322-ab7d-4b86-9837-2135d075702e","system_id":"levelo_inurba_marseille","lat":43.33726,"lon":5.37474,"is_reserved":false,"is_disabled":false,"rental_uris":{"android":"levelo://app?vid=71909322-ab7d-4b86-9837-2135d075702e","ios":"levelo://app?vid=71909322-ab7d-4b86-9837-2135d075702e"},"vehicle_type_id":"4","last_reported":1693238912,"current_range_meters":29200,"station_id":"","pricing_plan_id":"free"},{"bike_id":"f048455e-e8f8-4c5a-bf24-8b9b05b49933","system_id":"levelo_inurba_marseille","lat":43.30935,"lon":5.40141,"is_reserved":false,"is_disabled":false,"rental_uris":{"android":"levelo://app?vid=f048455e-e8f8-4c5a-bf24-8b9b05b49933","ios":"levelo://app?vid=f048455e-e8f8-4c5a-bf24-8b9b05b49933"},"vehicle_type_id":"4","last_reported":1693238912,"current_range_meters":21600,"station_id":"ce4bgvp2rcd13ifvqct0","pricing_plan_id":"free"},{"bike_id":"3ca270b4-b522-446a-a046-ed03b352b2dd","system_id":"levelo_inurba_marseille","lat":43.3094,"lon":5.40145,"is_reserved":false,"is_disabled":false,"rental_uris":{"android":"levelo://app?vid=3ca270b4-b522-446a-a046-ed03b352b2dd","ios":"levelo://app?vid=3ca270b4-b522-446a-a046-ed03b352b2dd"},"vehicle_type_id":"4","last_reported":1693238912,"current_range_meters":31200,"station_id":"ce4bgvp2rcd13ifvqct0","pricing_plan_id":"free"},{"bike_id":"3db48674-2f09-4338-9958-a1cebc99e35b","system_id":"levelo_inurba_marseille","lat":43.30929,"lon":5.40144,"is_reserved":false,"is_disabled":false,"rental_uris":{"android":"levelo://app?vid=3db48674-2f09-4338-9958-a1cebc99e35b","ios":"levelo://app?vid=3db48674-2f09-4338-9958-a1cebc99e35b"},"vehicle_type_id":"4","last_reported":1693238912,"current_range_meters":8400,"station_id":"ce4bgvp2rcd13ifvqct0","pricing_plan_id":"free"},{"bike_id":"905257ae-ee2a-4128-a55f-02cb6c8f3826","system_id":"levelo_inurba_marseille","lat":43.30927,"lon":5.40149,"is_reserved":false,"is_disabled":false,"rental_uris":{"android":"levelo://app?vid=905257ae-ee2a-4128-a55f-02cb6c8f3826","ios":"levelo://app?vid=905257ae-ee2a-4128-a55f-02cb6c8f3826"},"vehicle_type_id":"4","last_reported":1693238912,"current_range_meters":2000,"station_id":"ce4bgvp2rcd13ifvqct0","pricing_plan_id":"free"},{"bike_id":"b41b8751-423c-4433-9804-1b9d8dab0637","system_id":"levelo_inurba_marseille","lat":43.306412,"lon":5.401035,"is_reserved":false,"is_disabled":false,"rental_uris":{"android":"levelo://app?vid=b41b8751-423c-4433-9804-1b9d8dab0637","ios":"levelo://app?vid=b41b8751-423c-4433-9804-1b9d8dab0637"},"vehicle_type_id":"4","last_reported":1693238912,"current_range_meters":24000,"station_id":"ce4bh112rcd13ifvqda0","pricing_plan_id":"free"},{"bike_id":"81d060ba-ab53-4d1c-8f32-a40b7379b8a6","system_id":"levelo_inurba_marseille","lat":43.33756,"lon":5.37453,"is_reserved":false,"is_disabled":false,"rental_uris":{"android":"levelo://app?vid=81d060ba-ab53-4d1c-8f32-a40b7379b8a6","ios":"levelo://app?vid=81d060ba-ab53-4d1c-8f32-a40b7379b8a6"},"vehicle_type_id":"4","last_reported":1693238912,"current_range_meters":16800,"station_id":"","pricing_plan_id":"free"},{"bike_id":"fcb57706-b64c-465e-ab6e-a5f528efb87f","system_id":"levelo_inurba_marseille","lat":43.30655,"lon":5.40095,"is_reserved":false,"is_disabled":false,"rental_uris":{"android":"levelo://app?vid=fcb57706-b64c-465e-ab6e-a5f528efb87f","ios":"levelo://app?vid=fcb57706-b64c-465e-ab6e-a5f528efb87f"},"vehicle_type_id":"4","last_reported":1693238912,"current_range_meters":27600,"station_id":"ce4bh112rcd13ifvqda0","pricing_plan_id":"free"},{"bike_id":"23fae7e0-e602-4628-882f-4f9f3be23f49","system_id":"levelo_inurba_marseille","lat":43.30659,"lon":5.40101,"is_reserved":false,"is_disabled":false,"rental_uris":{"android":"levelo://app?vid=23fae7e0-e602-4628-882f-4f9f3be23f49","ios":"levelo://app?vid=23fae7e0-e602-4628-882f-4f9f3be23f49"},"vehicle_type_id":"4","last_reported":1693238912,"current_range_meters":8400,"station_id":"ce4bh112rcd13ifvqda0","pricing_plan_id":"free"},{"bike_id":"6cb3bbb3-c67b-48d0-aa1e-19874d322c6d","system_id":"levelo_inurba_marseille","lat":43.306412,"lon":5.401035,"is_reserved":false,"is_disabled":false,"rental_uris":{"android":"levelo://app?vid=6cb3bbb3-c67b-48d0-aa1e-19874d322c6d","ios":"levelo://app?vid=6cb3bbb3-c67b-48d0-aa1e-19874d322c6d"},"vehicle_type_id":"4","last_reported":1693238912,"current_range_meters":5200,"station_id":"ce4bh112rcd13ifvqda0","pricing_plan_id":"free"},{"bike_id":"aa2d5643-4d4c-4776-b20a-9f7d3ead67f9","system_id":"levelo_inurba_marseille","lat":43.301117,"lon":5.398795,"is_reserved":false,"is_disabled":false,"rental_uris":{"android":"levelo://app?vid=aa2d5643-4d4c-4776-b20a-9f7d3ead67f9","ios":"levelo://app?vid=aa2d5643-4d4c-4776-b20a-9f7d3ead67f9"},"vehicle_type_id":"4","last_reported":1693238912,"current_range_meters":20000,"station_id":"ce4bh0h2rcd13ifvqd40","pricing_plan_id":"free"},{"bike_id":"7230427c-9c90-4e66-a961-d2875e66b097","system_id":"levelo_inurba_marseille","lat":43.301117,"lon":5.398795,"is_reserved":false,"is_disabled":false,"rental_uris":{"android":"levelo://app?vid=7230427c-9c90-4e66-a961-d2875e66b097","ios":"levelo://app?vid=7230427c-9c90-4e66-a961-d2875e66b097"},"vehicle_type_id":"4","last_reported":1693238912,"current_range_meters":18400,"station_id":"ce4bh0h2rcd13ifvqd40","pricing_plan_id":"free"},{"bike_id":"6c5cbe41-250d-4fe4-beb3-01b8afd1c060","system_id":"levelo_inurba_marseille","lat":43.286961,"lon":5.373785,"is_reserved":false,"is_disabled":false,"rental_uris":{"android":"levelo://app?vid=6c5cbe41-250d-4fe4-beb3-01b8afd1c060","ios":"levelo://app?vid=6c5cbe41-250d-4fe4-beb3-01b8afd1c060"},"vehicle_type_id":"4","last_reported":1693238912,"current_range_meters":16800,"station_id":"ce4bh3p2rcd13ifvqdq0","pricing_plan_id":"free"},{"bike_id":"1e5f6741-c7b7-455b-959a-5ea8ef928e4a","system_id":"levelo_inurba_marseille","lat":43.286961,"lon":5.373785,"is_reserved":false,"is_disabled":false,"rental_uris":{"android":"levelo://app?vid=1e5f6741-c7b7-455b-959a-5ea8ef928e4a","ios":"levelo://app?vid=1e5f6741-c7b7-455b-959a-5ea8ef928e4a"},"vehicle_type_id":"4","last_reported":1693238912,"current_range_meters":31200,"station_id":"ce4bh3p2rcd13ifvqdq0","pricing_plan_id":"free"},{"bike_id":"ec88af83-94b0-4aaa-b619-26b131434a43","system_id":"levelo_inurba_marseille","lat":43.286961,"lon":5.373785,"is_reserved":false,"is_disabled":false,"rental_uris":{"android":"levelo://app?vid=ec88af83-94b0-4aaa-b619-26b131434a43","ios":"levelo://app?vid=ec88af83-94b0-4aaa-b619-26b131434a43"},"vehicle_type_id":"4","last_reported":1693238912,"current_range_meters":19600,"station_id":"ce4bh3p2rcd13ifvqdq0","pricing_plan_id":"free"},{"bike_id":"75199276-b705-4ad7-b6a9-49aeaa84628a","system_id":"levelo_inurba_marseille","lat":43.286591,"lon":5.363346,"is_reserved":false,"is_disabled":false,"rental_uris":{"android":"levelo://app?vid=75199276-b705-4ad7-b6a9-49aeaa84628a","ios":"levelo://app?vid=75199276-b705-4ad7-b6a9-49aeaa84628a"},"vehicle_type_id":"4","last_reported":1693238912,"current_range_meters":30400,"station_id":"ce4bhah2rcd13ifvqej0","pricing_plan_id":"free"},{"bike_id":"7a95b94d-5350-4834-9f6a-545acbefe186","system_id":"levelo_inurba_marseille","lat":43.29868,"lon":5.39732,"is_reserved":false,"is_disabled":false,"rental_uris":{"android":"levelo://app?vid=7a95b94d-5350-4834-9f6a-545acbefe186","ios":"levelo://app?vid=7a95b94d-5350-4834-9f6a-545acbefe186"},"vehicle_type_id":"4","last_reported":1693238912,"current_range_meters":27600,"station_id":"ce4bh0h2rcd13ifvqd50","pricing_plan_id":"free"},{"bike_id":"723477b8-ab50-4402-99e6-21506d71bab5","system_id":"levelo_inurba_marseille","lat":43.286961,"lon":5.373785,"is_reserved":false,"is_disabled":false,"rental_uris":{"android":"levelo://app?vid=723477b8-ab50-4402-99e6-21506d71bab5","ios":"levelo://app?vid=723477b8-ab50-4402-99e6-21506d71bab5"},"vehicle_type_id":"4","last_reported":1693238912,"current_range_meters":22000,"station_id":"ce4bh3p2rcd13ifvqdq0","pricing_plan_id":"free"},{"bike_id":"2365150f-73ab-4507-aea4-76016e6109c8","system_id":"levelo_inurba_marseille","lat":43.286593,"lon":5.363346,"is_reserved":false,"is_disabled":false,"rental_uris":{"android":"levelo://app?vid=2365150f-73ab-4507-aea4-76016e6109c8","ios":"levelo://app?vid=2365150f-73ab-4507-aea4-76016e6109c8"},"vehicle_type_id":"4","last_reported":1693238912,"current_range_meters":30000,"station_id":"ce4bhah2rcd13ifvqej0","pricing_plan_id":"free"},{"bike_id":"b1160d0a-36b2-4e6a-b90b-c7a32af5f361","system_id":"levelo_inurba_marseille","lat":43.302759,"lon":5.400793,"is_reserved":false,"is_disabled":false,"rental_uris":{"android":"levelo://app?vid=b1160d0a-36b2-4e6a-b90b-c7a32af5f361","ios":"levelo://app?vid=b1160d0a-36b2-4e6a-b90b-c7a32af5f361"},"vehicle_type_id":"4","last_reported":1693238912,"current_range_meters":12000,"station_id":"ce4bgvh2rcd13ifvqcs0","pricing_plan_id":"free"},{"bike_id":"06d478d0-9c49-467b-9697-42e8ea1bf67d","system_id":"levelo_inurba_marseille","lat":43.29037,"lon":5.38628,"is_reserved":false,"is_disabled":false,"rental_uris":{"android":"levelo://app?vid=06d478d0-9c49-467b-9697-42e8ea1bf67d","ios":"levelo://app?vid=06d478d0-9c49-467b-9697-42e8ea1bf67d"},"vehicle_type_id":"4","last_reported":1693238912,"current_range_meters":19200,"station_id":"ce4bh4p2rcd13ifvqe0g","pricing_plan_id":"free"},{"bike_id":"506867ff-d2e0-494f-84b9-b24d6036bf9e","system_id":"levelo_inurba_marseille","lat":43.290345,"lon":5.38646,"is_reserved":false,"is_disabled":false,"rental_uris":{"android":"levelo://app?vid=506867ff-d2e0-494f-84b9-b24d6036bf9e","ios":"levelo://app?vid=506867ff-d2e0-494f-84b9-b24d6036bf9e"},"vehicle_type_id":"4","last_reported":1693238912,"current_range_meters":15200,"station_id":"ce4bh4p2rcd13ifvqe0g","pricing_plan_id":"free"},{"bike_id":"25d67256-e6d3-4d99-b368-44743372377c","system_id":"levelo_inurba_marseille","lat":43.290336,"lon":5.386425,"is_reserved":false,"is_disabled":false,"rental_uris":{"android":"levelo://app?vid=25d67256-e6d3-4d99-b368-44743372377c","ios":"levelo://app?vid=25d67256-e6d3-4d99-b368-44743372377c"},"vehicle_type_id":"4","last_reported":1693238912,"current_range_meters":8000,"station_id":"ce4bh4p2rcd13ifvqe0g","pricing_plan_id":"free"},{"bike_id":"bf31f95f-fbb8-4370-8f20-476049287e5f","system_id":"levelo_inurba_marseille","lat":43.29034,"lon":5.38637,"is_reserved":false,"is_disabled":false,"rental_uris":{"android":"levelo://app?vid=bf31f95f-fbb8-4370-8f20-476049287e5f","ios":"levelo://app?vid=bf31f95f-fbb8-4370-8f20-476049287e5f"},"vehicle_type_id":"4","last_reported":1693238912,"current_range_meters":18400,"station_id":"ce4bh4p2rcd13ifvqe0g","pricing_plan_id":"free"},{"bike_id":"f47dc129-a6fe-44c7-8040-79aedc491c98","system_id":"levelo_inurba_marseille","lat":43.29508,"lon":5.39411,"is_reserved":false,"is_disabled":false,"rental_uris":{"android":"levelo://app?vid=f47dc129-a6fe-44c7-8040-79aedc491c98","ios":"levelo://app?vid=f47dc129-a6fe-44c7-8040-79aedc491c98"},"vehicle_type_id":"4","last_reported":1693238912,"current_range_meters":0,"station_id":"ce4bh292rcd13ifvqdf0","pricing_plan_id":"free"},{"bike_id":"181ecba0-3ed4-40b2-8ac9-d6e1e0f20645","system_id":"levelo_inurba_marseille","lat":43.302759,"lon":5.400793,"is_reserved":false,"is_disabled":false,"rental_uris":{"android":"levelo://app?vid=181ecba0-3ed4-40b2-8ac9-d6e1e0f20645","ios":"levelo://app?vid=181ecba0-3ed4-40b2-8ac9-d6e1e0f20645"},"vehicle_type_id":"4","last_reported":1693238912,"current_range_meters":5200,"station_id":"ce4bgvh2rcd13ifvqcs0","pricing_plan_id":"free"},{"bike_id":"240da5ea-e909-417e-b4f6-45a5b98144b3","system_id":"levelo_inurba_marseille","lat":43.302759,"lon":5.400793,"is_reserved":false,"is_disabled":false,"rental_uris":{"android":"levelo://app?vid=240da5ea-e909-417e-b4f6-45a5b98144b3","ios":"levelo://app?vid=240da5ea-e909-417e-b4f6-45a5b98144b3"},"vehicle_type_id":"4","last_reported":1693238912,"current_range_meters":28800,"station_id":"ce4bgvh2rcd13ifvqcs0","pricing_plan_id":"free"},{"bike_id":"e355d17e-966a-4f95-a28c-a1d85d5e19ea","system_id":"levelo_inurba_marseille","lat":43.302759,"lon":5.400793,"is_reserved":false,"is_disabled":false,"rental_uris":{"android":"levelo://app?vid=e355d17e-966a-4f95-a28c-a1d85d5e19ea","ios":"levelo://app?vid=e355d17e-966a-4f95-a28c-a1d85d5e19ea"},"vehicle_type_id":"4","last_reported":1693238912,"current_range_meters":30000,"station_id":"ce4bgvh2rcd13ifvqcs0","pricing_plan_id":"free"},{"bike_id":"19b19691-8ade-4daf-9dc4-92981a8a2b0b","system_id":"levelo_inurba_marseille","lat":43.290336,"lon":5.386425,"is_reserved":false,"is_disabled":false,"rental_uris":{"android":"levelo://app?vid=19b19691-8ade-4daf-9dc4-92981a8a2b0b","ios":"levelo://app?vid=19b19691-8ade-4daf-9dc4-92981a8a2b0b"},"vehicle_type_id":"4","last_reported":1693238912,"current_range_meters":14400,"station_id":"ce4bh4p2rcd13ifvqe0g","pricing_plan_id":"free"},{"bike_id":"093a24de-275b-4a21-9900-799923c39ab5","system_id":"levelo_inurba_marseille","lat":43.302759,"lon":5.400793,"is_reserved":false,"is_disabled":false,"rental_uris":{"android":"levelo://app?vid=093a24de-275b-4a21-9900-799923c39ab5","ios":"levelo://app?vid=093a24de-275b-4a21-9900-799923c39ab5"},"vehicle_type_id":"4","last_reported":1693238912,"current_range_meters":13600,"station_id":"ce4bgvh2rcd13ifvqcs0","pricing_plan_id":"free"},{"bike_id":"91a02f55-9f67-466e-95f6-32ec78ad7b9c","system_id":"levelo_inurba_marseille","lat":43.302759,"lon":5.400793,"is_reserved":false,"is_disabled":false,"rental_uris":{"android":"levelo://app?vid=91a02f55-9f67-466e-95f6-32ec78ad7b9c","ios":"levelo://app?vid=91a02f55-9f67-466e-95f6-32ec78ad7b9c"},"vehicle_type_id":"4","last_reported":1693238912,"current_range_meters":2800,"station_id":"ce4bgvh2rcd13ifvqcs0","pricing_plan_id":"free"},{"bike_id":"c31d41c2-63eb-4732-9185-89c0586bb334","system_id":"levelo_inurba_marseille","lat":43.28605,"lon":5.37069,"is_reserved":false,"is_disabled":false,"rental_uris":{"android":"levelo://app?vid=c31d41c2-63eb-4732-9185-89c0586bb334","ios":"levelo://app?vid=c31d41c2-63eb-4732-9185-89c0586bb334"},"vehicle_type_id":"4","last_reported":1693238912,"current_range_meters":27200,"station_id":"ce4bht12rcd13ifvqi60","pricing_plan_id":"free"},{"bike_id":"caeb7d9f-b7e5-4d5f-b824-f1455a8714b8","system_id":"levelo_inurba_marseille","lat":43.28702,"lon":5.37938,"is_reserved":false,"is_disabled":false,"rental_uris":{"android":"levelo://app?vid=caeb7d9f-b7e5-4d5f-b824-f1455a8714b8","ios":"levelo://app?vid=caeb7d9f-b7e5-4d5f-b824-f1455a8714b8"},"vehicle_type_id":"4","last_reported":1693238912,"current_range_meters":20000,"station_id":"ce4bh9p2rcd13ifvqec0","pricing_plan_id":"free"},{"bike_id":"c163992a-921c-46c9-9387-f60e211e2f38","system_id":"levelo_inurba_marseille","lat":43.316517,"lon":5.404375,"is_reserved":false,"is_disabled":false,"rental_uris":{"android":"levelo://app?vid=c163992a-921c-46c9-9387-f60e211e2f38","ios":"levelo://app?vid=c163992a-921c-46c9-9387-f60e211e2f38"},"vehicle_type_id":"4","last_reported":1693238912,"current_range_meters":7200,"station_id":"ce4bh012rcd13ifvqd00","pricing_plan_id":"free"},{"bike_id":"e7e135ca-a0f5-48a7-ad6f-e940b30a100b","system_id":"levelo_inurba_marseille","lat":43.31652,"lon":5.40436,"is_reserved":false,"is_disabled":false,"rental_uris":{"android":"levelo://app?vid=e7e135ca-a0f5-48a7-ad6f-e940b30a100b","ios":"levelo://app?vid=e7e135ca-a0f5-48a7-ad6f-e940b30a100b"},"vehicle_type_id":"4","last_reported":1693238912,"current_range_meters":19200,"station_id":"ce4bh012rcd13ifvqd00","pricing_plan_id":"free"},{"bike_id":"eed20d92-adbf-460e-88b1-426dcdbd4235","system_id":"levelo_inurba_marseille","lat":43.28556,"lon":5.37371,"is_reserved":false,"is_disabled":false,"rental_uris":{"android":"levelo://app?vid=eed20d92-adbf-460e-88b1-426dcdbd4235","ios":"levelo://app?vid=eed20d92-adbf-460e-88b1-426dcdbd4235"},"vehicle_type_id":"4","last_reported":1693238912,"current_range_meters":20000,"station_id":"ce4bh412rcd13ifvqds0","pricing_plan_id":"free"},{"bike_id":"65749c36-8409-4b4f-b998-2a0ee35ff955","system_id":"levelo_inurba_marseille","lat":43.28495,"lon":5.36727,"is_reserved":false,"is_disabled":false,"rental_uris":{"android":"levelo://app?vid=65749c36-8409-4b4f-b998-2a0ee35ff955","ios":"levelo://app?vid=65749c36-8409-4b4f-b998-2a0ee35ff955"},"vehicle_type_id":"4","last_reported":1693238912,"current_range_meters":12000,"station_id":"","pricing_plan_id":"free"},{"bike_id":"27d4c455-1b89-42a3-94d9-258b4f98a988","system_id":"levelo_inurba_marseille","lat":43.291994,"lon":5.392907,"is_reserved":false,"is_disabled":false,"rental_uris":{"android":"levelo://app?vid=27d4c455-1b89-42a3-94d9-258b4f98a988","ios":"levelo://app?vid=27d4c455-1b89-42a3-94d9-258b4f98a988"},"vehicle_type_id":"4","last_reported":1693238912,"current_range_meters":10000,"station_id":"ce4bh192rcd13ifvqdd0","pricing_plan_id":"free"},{"bike_id":"826b72fb-945d-44b3-812d-70f70e3ac649","system_id":"levelo_inurba_marseille","lat":43.291994,"lon":5.392907,"is_reserved":false,"is_disabled":false,"rental_uris":{"android":"levelo://app?vid=826b72fb-945d-44b3-812d-70f70e3ac649","ios":"levelo://app?vid=826b72fb-945d-44b3-812d-70f70e3ac649"},"vehicle_type_id":"4","last_reported":1693238912,"current_range_meters":24000,"station_id":"ce4bh192rcd13ifvqdd0","pricing_plan_id":"free"},{"bike_id":"179c5004-9c34-4a69-81e3-db2c804bbfdc","system_id":"levelo_inurba_marseille","lat":43.291994,"lon":5.392907,"is_reserved":false,"is_disabled":false,"rental_uris":{"android":"levelo://app?vid=179c5004-9c34-4a69-81e3-db2c804bbfdc","ios":"levelo://app?vid=179c5004-9c34-4a69-81e3-db2c804bbfdc"},"vehicle_type_id":"4","last_reported":1693238912,"current_range_meters":11600,"station_id":"ce4bh192rcd13ifvqdd0","pricing_plan_id":"free"},{"bike_id":"7ae5930e-8706-4ef2-8e28-2beb70234c98","system_id":"levelo_inurba_marseille","lat":43.294314,"lon":5.397498,"is_reserved":false,"is_disabled":false,"rental_uris":{"android":"levelo://app?vid=7ae5930e-8706-4ef2-8e28-2beb70234c98","ios":"levelo://app?vid=7ae5930e-8706-4ef2-8e28-2beb70234c98"},"vehicle_type_id":"4","last_reported":1693238912,"current_range_meters":17200,"station_id":"ce4bh3h2rcd13ifvqdo0","pricing_plan_id":"free"},{"bike_id":"b92921d6-9c3c-4aa5-9d66-0c6e64bb80de","system_id":"levelo_inurba_marseille","lat":43.294314,"lon":5.397498,"is_reserved":false,"is_disabled":false,"rental_uris":{"android":"levelo://app?vid=b92921d6-9c3c-4aa5-9d66-0c6e64bb80de","ios":"levelo://app?vid=b92921d6-9c3c-4aa5-9d66-0c6e64bb80de"},"vehicle_type_id":"4","last_reported":1693238912,"current_range_meters":2000,"station_id":"ce4bh3h2rcd13ifvqdo0","pricing_plan_id":"free"},{"bike_id":"627faf17-9198-4d9a-a149-b66b1ad2d060","system_id":"levelo_inurba_marseille","lat":43.2862,"lon":5.35112,"is_reserved":false,"is_disabled":false,"rental_uris":{"android":"levelo://app?vid=627faf17-9198-4d9a-a149-b66b1ad2d060","ios":"levelo://app?vid=627faf17-9198-4d9a-a149-b66b1ad2d060"},"vehicle_type_id":"4","last_reported":1693238912,"current_range_meters":7600,"station_id":"ce4bhch2rcd13ifvqeug","pricing_plan_id":"free"},{"bike_id":"8cc1293c-b3dd-4d77-ba9f-f796223b1606","system_id":"levelo_inurba_marseille","lat":43.28622,"lon":5.35105,"is_reserved":false,"is_disabled":false,"rental_uris":{"android":"levelo://app?vid=8cc1293c-b3dd-4d77-ba9f-f796223b1606","ios":"levelo://app?vid=8cc1293c-b3dd-4d77-ba9f-f796223b1606"},"vehicle_type_id":"4","last_reported":1693238912,"current_range_meters":15600,"station_id":"ce4bhch2rcd13ifvqeug","pricing_plan_id":"free"},{"bike_id":"62792872-348d-4ff9-8188-7f673531dd35","system_id":"levelo_inurba_marseille","lat":43.2862,"lon":5.35111,"is_reserved":false,"is_disabled":false,"rental_uris":{"android":"levelo://app?vid=62792872-348d-4ff9-8188-7f673531dd35","ios":"levelo://app?vid=62792872-348d-4ff9-8188-7f673531dd35"},"vehicle_type_id":"4","last_reported":1693238912,"current_range_meters":3600,"station_id":"ce4bhch2rcd13ifvqeug","pricing_plan_id":"free"},{"bike_id":"65a9a53d-50ff-49b1-89c4-30e514c1f6c2","system_id":"levelo_inurba_marseille","lat":43.285856,"lon":5.350771,"is_reserved":false,"is_disabled":false,"rental_uris":{"android":"levelo://app?vid=65a9a53d-50ff-49b1-89c4-30e514c1f6c2","ios":"levelo://app?vid=65a9a53d-50ff-49b1-89c4-30e514c1f6c2"},"vehicle_type_id":"4","last_reported":1693238912,"current_range_meters":31200,"station_id":"ce4bhch2rcd13ifvqeug","pricing_plan_id":"free"},{"bike_id":"9f4a68ce-1f3f-4ad5-ac48-5ff12affda93","system_id":"levelo_inurba_marseille","lat":43.286186,"lon":5.351101,"is_reserved":false,"is_disabled":false,"rental_uris":{"android":"levelo://app?vid=9f4a68ce-1f3f-4ad5-ac48-5ff12affda93","ios":"levelo://app?vid=9f4a68ce-1f3f-4ad5-ac48-5ff12affda93"},"vehicle_type_id":"4","last_reported":1693238912,"current_range_meters":29200,"station_id":"ce4bhch2rcd13ifvqeug","pricing_plan_id":"free"},{"bike_id":"1fd35749-c65d-4512-88c6-56774a52edd6","system_id":"levelo_inurba_marseille","lat":43.28619,"lon":5.35107,"is_reserved":false,"is_disabled":false,"rental_uris":{"android":"levelo://app?vid=1fd35749-c65d-4512-88c6-56774a52edd6","ios":"levelo://app?vid=1fd35749-c65d-4512-88c6-56774a52edd6"},"vehicle_type_id":"4","last_reported":1693238912,"current_range_meters":12800,"station_id":"ce4bhch2rcd13ifvqeug","pricing_plan_id":"free"},{"bike_id":"d60eb903-edf2-46ea-ba39-f3ed70ca82d0","system_id":"levelo_inurba_marseille","lat":43.28618,"lon":5.35107,"is_reserved":false,"is_disabled":false,"rental_uris":{"android":"levelo://app?vid=d60eb903-edf2-46ea-ba39-f3ed70ca82d0","ios":"levelo://app?vid=d60eb903-edf2-46ea-ba39-f3ed70ca82d0"},"vehicle_type_id":"4","last_reported":1693238912,"current_range_meters":14400,"station_id":"ce4bhch2rcd13ifvqeug","pricing_plan_id":"free"},