{"last_updated":1774615183,"ttl":60,"version":"2.2","data":{"bikes":[{"bike_id":"59ce99d5-00aa-4684-a9e7-e26aee87a0b1","system_id":"levelo_inurba_marseille","lat":43.337444,"lon":5.374475,"is_reserved":false,"is_disabled":false,"rental_uris":{"android":"levelo://app?vid=59ce99d5-00aa-4684-a9e7-e26aee87a0b1","ios":"levelo://app?vid=59ce99d5-00aa-4684-a9e7-e26aee87a0b1"},"vehicle_type_id":"4","last_reported":1774615184,"current_range_meters":0,"station_id":"","pricing_plan_id":"cebpf4jnsgd1na2vs0mg"},{"bike_id":"9495944a-f2e8-4d2e-b867-8c56f7a211e0","system_id":"levelo_inurba_marseille","lat":43.337444,"lon":5.374475,"is_reserved":false,"is_disabled":false,"rental_uris":{"android":"levelo://app?vid=9495944a-f2e8-4d2e-b867-8c56f7a211e0","ios":"levelo://app?vid=9495944a-f2e8-4d2e-b867-8c56f7a211e0"},"vehicle_type_id":"4","last_reported":1774615184,"current_range_meters":0,"station_id":"","pricing_plan_id":"cebpf4jnsgd1na2vs0mg"},{"bike_id":"25cc7e49-ffa3-48df-85fc-d75eb92e5736","system_id":"levelo_inurba_marseille","lat":43.337444,"lon":5.374475,"is_reserved":false,"is_disabled":false,"rental_uris":{"android":"levelo://app?vid=25cc7e49-ffa3-48df-85fc-d75eb92e5736","ios":"levelo://app?vid=25cc7e49-ffa3-48df-85fc-d75eb92e5736"},"vehicle_type_id":"4","last_reported":1774615184,"current_range_meters":0,"station_id":"","pricing_plan_id":"cebpf4jnsgd1na2vs0mg"},{"bike_id":"4b6f9c24-6628-430e-95b8-e16721d17022","system_id":"levelo_inurba_marseille","lat":43.337444,"lon":5.374475,"is_reserved":false,"is_disabled":false,"rental_uris":{"android":"levelo://app?vid=4b6f9c24-6628-430e-95b8-e16721d17022","ios":"levelo://app?vid=4b6f9c24-6628-430e-95b8-e16721d17022"},"vehicle_type_id":"4","last_reported":1774615184,"current_range_meters":0,"station_id":"","pricing_plan_id":"cebpf4jnsgd1na2vs0mg"},{"bike_id":"8efae5cb-3178-4575-9fb5-d15fbd65dd94","system_id":"levelo_inurba_marseille","lat":43.337444,"lon":5.374475,"is_reserved":false,"is_disabled":false,"rental_uris":{"android":"levelo://app?vid=8efae5cb-3178-4575-9fb5-d15fbd65dd94","ios":"levelo://app?vid=8efae5cb-3178-4575-9fb5-d15fbd65dd94"},"vehicle_type_id":"4","last_reported":1774615184,"current_range_meters":0,"station_id":"","pricing_plan_id":"cebpf4jnsgd1na2vs0mg"},{"bike_id":"c44f637d-eae3-463b-b7a8-5203b088ce34","system_id":"levelo_inurba_marseille","lat":43.337444,"lon":5.374475,"is_reserved":false,"is_disabled":false,"rental_uris":{"android":"levelo://app?vid=c44f637d-eae3-463b-b7a8-5203b088ce34","ios":"levelo://app?vid=c44f637d-eae3-463b-b7a8-5203b088ce34"},"vehicle_type_id":"4","last_reported":1774615184,"current_range_meters":0,"station_id":"","pricing_plan_id":"cebpf4jnsgd1na2vs0mg"},{"bike_id":"3e164fa2-7961-44c0-98eb-d09b29dac682","system_id":"levelo_inurba_marseille","lat":43.337444,"lon":5.374475,"is_reserved":false,"is_disabled":false,"rental_uris":{"android":"levelo://app?vid=3e164fa2-7961-44c0-98eb-d09b29dac682","ios":"levelo://app?vid=3e164fa2-7961-44c0-98eb-d09b29dac682"},"vehicle_type_id":"4","last_reported":1774615184,"current_range_meters":0,"station_id":"","pricing_plan_id":"cebpf4jnsgd1na2vs0mg"},{"bike_id":"afb7b8aa-2b18-4c1d-a2e6-29a4b70cce1c","system_id":"levelo_inurba_marseille","lat":43.337444,"lon":5.374475,"is_reserved":false,"is_disabled":false,"rental_uris":{"android":"levelo://app?vid=afb7b8aa-2b18-4c1d-a2e6-29a4b70cce1c","ios":"levelo://app?vid=afb7b8aa-2b18-4c1d-a2e6-29a4b70cce1c"},"vehicle_type_id":"4","last_reported":1774615184,"current_range_meters":0,"station_id":"","pricing_plan_id":"cebpf4jnsgd1na2vs0mg"},{"bike_id":"d8313b6a-f2d9-48de-9931-23d57a741313","system_id":"levelo_inurba_marseille","lat":43.337444,"lon":5.374475,"is_reserved":false,"is_disabled":false,"rental_uris":{"android":"levelo://app?vid=d8313b6a-f2d9-48de-9931-23d57a741313","ios":"levelo://app?vid=d8313b6a-f2d9-48de-9931-23d57a741313"},"vehicle_type_id":"4","last_reported":1774615184,"current_range_meters":0,"station_id":"","pricing_plan_id":"cebpf4jnsgd1na2vs0mg"},{"bike_id":"d5734656-d6a3-4f3d-bb3a-2ffb54fad8aa","system_id":"levelo_inurba_marseille","lat":43.337444,"lon":5.374475,"is_reserved":false,"is_disabled":false,"rental_uris":{"android":"levelo://app?vid=d5734656-d6a3-4f3d-bb3a-2ffb54fad8aa","ios":"levelo://app?vid=d5734656-d6a3-4f3d-bb3a-2ffb54fad8aa"},"vehicle_type_id":"4","last_reported":1774615184,"current_range_meters":0,"station_id":"","pricing_plan_id":"cebpf4jnsgd1na2vs0mg"},{"bike_id":"e0ccc528-7f55-4ae3-8324-bce3160e2a8a","system_id":"levelo_inurba_marseille","lat":43.337444,"lon":5.374475,"is_reserved":false,"is_disabled":false,"rental_uris":{"android":"levelo://app?vid=e0ccc528-7f55-4ae3-8324-bce3160e2a8a","ios":"levelo://app?vid=e0ccc528-7f55-4ae3-8324-bce3160e2a8a"},"vehicle_type_id":"4","last_reported":1774615184,"current_range_meters":0,"station_id":"","pricing_plan_id":"cebpf4jnsgd1na2vs0mg"},{"bike_id":"2ca568f3-e5e4-4b04-beb6-fa164e789005","system_id":"levelo_inurba_marseille","lat":43.337444,"lon":5.374475,"is_reserved":false,"is_disabled":false,"rental_uris":{"android":"levelo://app?vid=2ca568f3-e5e4-4b04-beb6-fa164e789005","ios":"levelo://app?vid=2ca568f3-e5e4-4b04-beb6-fa164e789005"},"vehicle_type_id":"4","last_reported":1774615184,"current_range_meters":0,"station_id":"","pricing_plan_id":"cebpf4jnsgd1na2vs0mg"},{"bike_id":"bb557652-0b34-42db-9ec8-e517a5b4c2fd","system_id":"levelo_inurba_marseille","lat":43.337444,"lon":5.374475,"is_reserved":false,"is_disabled":false,"rental_uris":{"android":"levelo://app?vid=bb557652-0b34-42db-9ec8-e517a5b4c2fd","ios":"levelo://app?vid=bb557652-0b34-42db-9ec8-e517a5b4c2fd"},"vehicle_type_id":"4","last_reported":1774615184,"current_range_meters":0,"station_id":"","pricing_plan_id":"cebpf4jnsgd1na2vs0mg"},{"bike_id":"ebc4a267-6ec0-464f-b3f1-12b6ebb856ab","system_id":"levelo_inurba_marseille","lat":43.337444,"lon":5.374475,"is_reserved":false,"is_disabled":false,"rental_uris":{"android":"levelo://app?vid=ebc4a267-6ec0-464f-b3f1-12b6ebb856ab","ios":"levelo://app?vid=ebc4a267-6ec0-464f-b3f1-12b6ebb856ab"},"vehicle_type_id":"4","last_reported":1774615184,"current_range_meters":0,"station_id":"","pricing_plan_id":"cebpf4jnsgd1na2vs0mg"},{"bike_id":"0d1b1bfe-4446-49dc-8a8a-1abbb0122839","system_id":"levelo_inurba_marseille","lat":43.337444,"lon":5.374475,"is_reserved":false,"is_disabled":false,"rental_uris":{"android":"levelo://app?vid=0d1b1bfe-4446-49dc-8a8a-1abbb0122839","ios":"levelo://app?vid=0d1b1bfe-4446-49dc-8a8a-1abbb0122839"},"vehicle_type_id":"4","last_reported":1774615184,"current_range_meters":0,"station_id":"","pricing_plan_id":"cebpf4jnsgd1na2vs0mg"},{"bike_id":"72323e2f-4962-4212-9ee2-b3739ecf5785","system_id":"levelo_inurba_marseille","lat":43.337444,"lon":5.374475,"is_reserved":false,"is_disabled":false,"rental_uris":{"android":"levelo://app?vid=72323e2f-4962-4212-9ee2-b3739ecf5785","ios":"levelo://app?vid=72323e2f-4962-4212-9ee2-b3739ecf5785"},"vehicle_type_id":"4","last_reported":1774615184,"current_range_meters":0,"station_id":"","pricing_plan_id":"cebpf4jnsgd1na2vs0mg"},{"bike_id":"6114e8f0-4e8f-49b0-94ee-bdda8209889f","system_id":"levelo_inurba_marseille","lat":43.337444,"lon":5.374475,"is_reserved":false,"is_disabled":false,"rental_uris":{"android":"levelo://app?vid=6114e8f0-4e8f-49b0-94ee-bdda8209889f","ios":"levelo://app?vid=6114e8f0-4e8f-49b0-94ee-bdda8209889f"},"vehicle_type_id":"4","last_reported":1774615184,"current_range_meters":0,"station_id":"","pricing_plan_id":"cebpf4jnsgd1na2vs0mg"},{"bike_id":"db10168c-9532-484b-be7c-657d09ccef42","system_id":"levelo_inurba_marseille","lat":43.337444,"lon":5.374475,"is_reserved":false,"is_disabled":false,"rental_uris":{"android":"levelo://app?vid=db10168c-9532-484b-be7c-657d09ccef42","ios":"levelo://app?vid=db10168c-9532-484b-be7c-657d09ccef42"},"vehicle_type_id":"4","last_reported":1774615184,"current_range_meters":0,"station_id":"","pricing_plan_id":"cebpf4jnsgd1na2vs0mg"},{"bike_id":"5cc69649-db34-4665-a96d-c18320ced050","system_id":"levelo_inurba_marseille","lat":43.337444,"lon":5.374475,"is_reserved":false,"is_disabled":false,"rental_uris":{"android":"levelo://app?vid=5cc69649-db34-4665-a96d-c18320ced050","ios":"levelo://app?vid=5cc69649-db34-4665-a96d-c18320ced050"},"vehicle_type_id":"4","last_reported":1774615184,"current_range_meters":0,"station_id":"","pricing_plan_id":"cebpf4jnsgd1na2vs0mg"},{"bike_id":"07442166-1d69-4cf0-aea8-baa88e6f54f3","system_id":"levelo_inurba_marseille","lat":43.337444,"lon":5.374475,"is_reserved":false,"is_disabled":false,"rental_uris":{"android":"levelo://app?vid=07442166-1d69-4cf0-aea8-baa88e6f54f3","ios":"levelo://app?vid=07442166-1d69-4cf0-aea8-baa88e6f54f3"},"vehicle_type_id":"4","last_reported":1774615184,"current_range_meters":0,"station_id":"","pricing_plan_id":"cebpf4jnsgd1na2vs0mg"},{"bike_id":"324b562f-ff50-493f-8e98-764b51a788ff","system_id":"levelo_inurba_marseille","lat":43.337444,"lon":5.374475,"is_reserved":false,"is_disabled":false,"rental_uris":{"android":"levelo://app?vid=324b562f-ff50-493f-8e98-764b51a788ff","ios":"levelo://app?vid=324b562f-ff50-493f-8e98-764b51a788ff"},"vehicle_type_id":"4","last_reported":1774615184,"current_range_meters":0,"station_id":"","pricing_plan_id":"cebpf4jnsgd1na2vs0mg"},{"bike_id":"92857438-f5ac-4cd6-a63e-d5e34b0b2521","system_id":"levelo_inurba_marseille","lat":43.337444,"lon":5.374475,"is_reserved":false,"is_disabled":false,"rental_uris":{"android":"levelo://app?vid=92857438-f5ac-4cd6-a63e-d5e34b0b2521","ios":"levelo://app?vid=92857438-f5ac-4cd6-a63e-d5e34b0b2521"},"vehicle_type_id":"4","last_reported":1774615184,"current_range_meters":0,"station_id":"","pricing_plan_id":"cebpf4jnsgd1na2vs0mg"},{"bike_id":"c9f119cf-b9b0-468a-99b4-a37c78d15d30","system_id":"levelo_inurba_marseille","lat":43.337444,"lon":5.374475,"is_reserved":false,"is_disabled":false,"rental_uris":{"android":"levelo://app?vid=c9f119cf-b9b0-468a-99b4-a37c78d15d30","ios":"levelo://app?vid=c9f119cf-b9b0-468a-99b4-a37c78d15d30"},"vehicle_type_id":"4","last_reported":1774615184,"current_range_meters":0,"station_id":"","pricing_plan_id":"cebpf4jnsgd1na2vs0mg"},{"bike_id":"6201779e-e2ce-4f79-ab11-a41515931be8","system_id":"levelo_inurba_marseille","lat":43.337444,"lon":5.374475,"is_reserved":false,"is_disabled":false,"rental_uris":{"android":"levelo://app?vid=6201779e-e2ce-4f79-ab11-a41515931be8","ios":"levelo://app?vid=6201779e-e2ce-4f79-ab11-a41515931be8"},"vehicle_type_id":"4","last_reported":1774615184,"current_range_meters":0,"station_id":"","pricing_plan_id":"cebpf4jnsgd1na2vs0mg"},{"bike_id":"5e7ecc9e-4904-4f19-8c39-db3e440e06c6","system_id":"levelo_inurba_marseille","lat":43.337444,"lon":5.374475,"is_reserved":false,"is_disabled":false,"rental_uris":{"android":"levelo://app?vid=5e7ecc9e-4904-4f19-8c39-db3e440e06c6","ios":"levelo://app?vid=5e7ecc9e-4904-4f19-8c39-db3e440e06c6"},"vehicle_type_id":"4","last_reported":1774615184,"current_range_meters":0,"station_id":"","pricing_plan_id":"cebpf4jnsgd1na2vs0mg"},{"bike_id":"0145f133-444a-4298-998f-56f015c01681","system_id":"levelo_inurba_marseille","lat":43.337444,"lon":5.374475,"is_reserved":false,"is_disabled":false,"rental_uris":{"android":"levelo://app?vid=0145f133-444a-4298-998f-56f015c01681","ios":"levelo://app?vid=0145f133-444a-4298-998f-56f015c01681"},"vehicle_type_id":"4","last_reported":1774615184,"current_range_meters":0,"station_id":"","pricing_plan_id":"cebpf4jnsgd1na2vs0mg"},{"bike_id":"b6cd94fe-1faf-400e-b037-2ac77431742c","system_id":"levelo_inurba_marseille","lat":43.337444,"lon":5.374475,"is_reserved":false,"is_disabled":false,"rental_uris":{"android":"levelo://app?vid=b6cd94fe-1faf-400e-b037-2ac77431742c","ios":"levelo://app?vid=b6cd94fe-1faf-400e-b037-2ac77431742c"},"vehicle_type_id":"4","last_reported":1774615184,"current_range_meters":0,"station_id":"","pricing_plan_id":"cebpf4jnsgd1na2vs0mg"},{"bike_id":"3d07d187-3712-4b90-917c-f09635e9a7d7","system_id":"levelo_inurba_marseille","lat":43.337444,"lon":5.374475,"is_reserved":false,"is_disabled":false,"rental_uris":{"android":"levelo://app?vid=3d07d187-3712-4b90-917c-f09635e9a7d7","ios":"levelo://app?vid=3d07d187-3712-4b90-917c-f09635e9a7d7"},"vehicle_type_id":"4","last_reported":1774615184,"current_range_meters":0,"station_id":"","pricing_plan_id":"cebpf4jnsgd1na2vs0mg"},{"bike_id":"6cbfe161-ddf3-451a-810d-2fd21e7ab6ca","system_id":"levelo_inurba_marseille","lat":43.337444,"lon":5.374475,"is_reserved":false,"is_disabled":false,"rental_uris":{"android":"levelo://app?vid=6cbfe161-ddf3-451a-810d-2fd21e7ab6ca","ios":"levelo://app?vid=6cbfe161-ddf3-451a-810d-2fd21e7ab6ca"},"vehicle_type_id":"4","last_reported":1774615184,"current_range_meters":0,"station_id":"","pricing_plan_id":"cebpf4jnsgd1na2vs0mg"},{"bike_id":"c720b774-9db5-4d11-b9ce-63b1eccf2077","system_id":"levelo_inurba_marseille","lat":43.337444,"lon":5.374475,"is_reserved":false,"is_disabled":false,"rental_uris":{"android":"levelo://app?vid=c720b774-9db5-4d11-b9ce-63b1eccf2077","ios":"levelo://app?vid=c720b774-9db5-4d11-b9ce-63b1eccf2077"},"vehicle_type_id":"4","last_reported":1774615184,"current_range_meters":0,"station_id":"","pricing_plan_id":"cebpf4jnsgd1na2vs0mg"},{"bike_id":"2cb5cd58-9e2d-42f2-add2-d82eea54ba59","system_id":"levelo_inurba_marseille","lat":43.320335,"lon":5.415688,"is_reserved":false,"is_disabled":false,"rental_uris":{"android":"levelo://app?vid=2cb5cd58-9e2d-42f2-add2-d82eea54ba59","ios":"levelo://app?vid=2cb5cd58-9e2d-42f2-add2-d82eea54ba59"},"vehicle_type_id":"4","last_reported":1774615184,"current_range_meters":2800,"station_id":"ce4bhq92rcd13ifvqhkg","pricing_plan_id":"cebpf4jnsgd1na2vs0mg"},{"bike_id":"d453f6e2-cfb9-40b2-88c3-d462dcf952f3","system_id":"levelo_inurba_marseille","lat":43.29027,"lon":5.38653,"is_reserved":false,"is_disabled":false,"rental_uris":{"android":"levelo://app?vid=d453f6e2-cfb9-40b2-88c3-d462dcf952f3","ios":"levelo://app?vid=d453f6e2-cfb9-40b2-88c3-d462dcf952f3"},"vehicle_type_id":"4","last_reported":1774615184,"current_range_meters":2800,"station_id":"ce4bh4p2rcd13ifvqe0g","pricing_plan_id":"cebpf4jnsgd1na2vs0mg"},{"bike_id":"fdd8bf84-b2fe-4508-9572-06ea662fa5ac","system_id":"levelo_inurba_marseille","lat":43.28479,"lon":5.48407,"is_reserved":false,"is_disabled":false,"rental_uris":{"android":"levelo://app?vid=fdd8bf84-b2fe-4508-9572-06ea662fa5ac","ios":"levelo://app?vid=fdd8bf84-b2fe-4508-9572-06ea662fa5ac"},"vehicle_type_id":"4","last_reported":1774615184,"current_range_meters":2800,"station_id":"","pricing_plan_id":"cebpf4jnsgd1na2vs0mg"},{"bike_id":"033fc95d-ed61-40ae-9784-51651485dc48","system_id":"levelo_inurba_marseille","lat":43.30908,"lon":5.40154,"is_reserved":false,"is_disabled":true,"rental_uris":{"android":"levelo://app?vid=033fc95d-ed61-40ae-9784-51651485dc48","ios":"levelo://app?vid=033fc95d-ed61-40ae-9784-51651485dc48"},"vehicle_type_id":"4","last_reported":1774615184,"current_range_meters":2800,"station_id":"ce4bgvp2rcd13ifvqct0","pricing_plan_id":"cebpf4jnsgd1na2vs0mg"},{"bike_id":"db8e1c36-1d9c-44d2-bc2d-f91041c6fca2","system_id":"levelo_inurba_marseille","lat":43.2855,"lon":5.45957,"is_reserved":false,"is_disabled":false,"rental_uris":{"android":"levelo://app?vid=db8e1c36-1d9c-44d2-bc2d-f91041c6fca2","ios":"levelo://app?vid=db8e1c36-1d9c-44d2-bc2d-f91041c6fca2"},"vehicle_type_id":"4","last_reported":1774615184,"current_range_meters":3200,"station_id":"","pricing_plan_id":"cebpf4jnsgd1na2vs0mg"},{"bike_id":"4ff1208b-b87a-4218-b942-95be4c2560b6","system_id":"levelo_inurba_marseille","lat":43.2841,"lon":5.34976,"is_reserved":false,"is_disabled":false,"rental_uris":{"android":"levelo://app?vid=4ff1208b-b87a-4218-b942-95be4c2560b6","ios":"levelo://app?vid=4ff1208b-b87a-4218-b942-95be4c2560b6"},"vehicle_type_id":"4","last_reported":1774615184,"current_range_meters":3200,"station_id":"ce4bhbh2rcd13ifvqepg","pricing_plan_id":"cebpf4jnsgd1na2vs0mg"},{"bike_id":"b15d28bf-754f-48cb-b3a0-bf5d138e4a87","system_id":"levelo_inurba_marseille","lat":43.23195,"lon":5.35564,"is_reserved":false,"is_disabled":false,"rental_uris":{"android":"levelo://app?vid=b15d28bf-754f-48cb-b3a0-bf5d138e4a87","ios":"levelo://app?vid=b15d28bf-754f-48cb-b3a0-bf5d138e4a87"},"vehicle_type_id":"4","last_reported":1774615184,"current_range_meters":3200,"station_id":"ce4bhu92rcd13ifvqi70","pricing_plan_id":"cebpf4jnsgd1na2vs0mg"},{"bike_id":"9ca7a35f-9820-474c-a80a-8de5807bccb5","system_id":"levelo_inurba_marseille","lat":43.30584,"lon":5.37205,"is_reserved":false,"is_disabled":false,"rental_uris":{"android":"levelo://app?vid=9ca7a35f-9820-474c-a80a-8de5807bccb5","ios":"levelo://app?vid=9ca7a35f-9820-474c-a80a-8de5807bccb5"},"vehicle_type_id":"4","last_reported":1774615184,"current_range_meters":3200,"station_id":"ce4bgqh2rcd13ifvqc4g","pricing_plan_id":"cebpf4jnsgd1na2vs0mg"},{"bike_id":"b492596c-1f93-4731-9219-481c3eebf72b","system_id":"levelo_inurba_marseille","lat":43.26369,"lon":5.41086,"is_reserved":false,"is_disabled":false,"rental_uris":{"android":"levelo://app?vid=b492596c-1f93-4731-9219-481c3eebf72b","ios":"levelo://app?vid=b492596c-1f93-4731-9219-481c3eebf72b"},"vehicle_type_id":"4","last_reported":1774615184,"current_range_meters":3200,"station_id":"st_d4e5ca6na9uc73bfl5fg","pricing_plan_id":"cebpf4jnsgd1na2vs0mg"},{"bike_id":"770ee2ec-62b5-4f13-b252-5e0a77aa2913","system_id":"levelo_inurba_marseille","lat":43.31863,"lon":5.37637,"is_reserved":false,"is_disabled":false,"rental_uris":{"android":"levelo://app?vid=770ee2ec-62b5-4f13-b252-5e0a77aa2913","ios":"levelo://app?vid=770ee2ec-62b5-4f13-b252-5e0a77aa2913"},"vehicle_type_id":"4","last_reported":1774615184,"current_range_meters":3200,"station_id":"","pricing_plan_id":"cebpf4jnsgd1na2vs0mg"},{"bike_id":"05eb7591-b8a3-403f-9900-eaebe9428266","system_id":"levelo_inurba_marseille","lat":43.240766,"lon":5.377595,"is_reserved":false,"is_disabled":true,"rental_uris":{"android":"levelo://app?vid=05eb7591-b8a3-403f-9900-eaebe9428266","ios":"levelo://app?vid=05eb7591-b8a3-403f-9900-eaebe9428266"},"vehicle_type_id":"4","last_reported":1774615184,"current_range_meters":3200,"station_id":"ce4bhnp2rcd13ifvqgvg","pricing_plan_id":"cebpf4jnsgd1na2vs0mg"},{"bike_id":"026bbd3e-661d-4021-a8c5-649d1bcfdca0","system_id":"levelo_inurba_marseille","lat":43.29501,"lon":5.37391,"is_reserved":false,"is_disabled":false,"rental_uris":{"android":"levelo://app?vid=026bbd3e-661d-4021-a8c5-649d1bcfdca0","ios":"levelo://app?vid=026bbd3e-661d-4021-a8c5-649d1bcfdca0"},"vehicle_type_id":"4","last_reported":1774615184,"current_range_meters":3600,"station_id":"","pricing_plan_id":"cebpf4jnsgd1na2vs0mg"},{"bike_id":"95062790-6cce-4e40-bd4c-3b693b1539eb","system_id":"levelo_inurba_marseille","lat":43.25688,"lon":5.41052,"is_reserved":false,"is_disabled":false,"rental_uris":{"android":"levelo://app?vid=95062790-6cce-4e40-bd4c-3b693b1539eb","ios":"levelo://app?vid=95062790-6cce-4e40-bd4c-3b693b1539eb"},"vehicle_type_id":"4","last_reported":1774615184,"current_range_meters":3600,"station_id":"ce4bhkp2rcd13ifvqgd0","pricing_plan_id":"cebpf4jnsgd1na2vs0mg"},{"bike_id":"d896d699-3ac7-4823-b169-2267a272f07c","system_id":"levelo_inurba_marseille","lat":43.25824,"lon":5.39415,"is_reserved":false,"is_disabled":false,"rental_uris":{"android":"levelo://app?vid=d896d699-3ac7-4823-b169-2267a272f07c","ios":"levelo://app?vid=d896d699-3ac7-4823-b169-2267a272f07c"},"vehicle_type_id":"4","last_reported":1774615184,"current_range_meters":3600,"station_id":"ce4bhip2rcd13ifvqft0","pricing_plan_id":"cebpf4jnsgd1na2vs0mg"},{"bike_id":"9a1b7562-5c14-4853-ad31-a4b1e826c8d0","system_id":"levelo_inurba_marseille","lat":43.22567,"lon":5.41616,"is_reserved":false,"is_disabled":false,"rental_uris":{"android":"levelo://app?vid=9a1b7562-5c14-4853-ad31-a4b1e826c8d0","ios":"levelo://app?vid=9a1b7562-5c14-4853-ad31-a4b1e826c8d0"},"vehicle_type_id":"4","last_reported":1774615184,"current_range_meters":3600,"station_id":"st_d2o4gvlbi1j2169b742g","pricing_plan_id":"cebpf4jnsgd1na2vs0mg"},{"bike_id":"8e59c891-a693-4473-9f8d-9d46c32e15ce","system_id":"levelo_inurba_marseille","lat":43.28407,"lon":5.3498,"is_reserved":false,"is_disabled":false,"rental_uris":{"android":"levelo://app?vid=8e59c891-a693-4473-9f8d-9d46c32e15ce","ios":"levelo://app?vid=8e59c891-a693-4473-9f8d-9d46c32e15ce"},"vehicle_type_id":"4","last_reported":1774615184,"current_range_meters":3600,"station_id":"ce4bhbh2rcd13ifvqepg","pricing_plan_id":"cebpf4jnsgd1na2vs0mg"},{"bike_id":"7aef4281-0ff4-43c1-b20b-8c14a286c836","system_id":"levelo_inurba_marseille","lat":43.26567,"lon":5.39024,"is_reserved":false,"is_disabled":false,"rental_uris":{"android":"levelo://app?vid=7aef4281-0ff4-43c1-b20b-8c14a286c836","ios":"levelo://app?vid=7aef4281-0ff4-43c1-b20b-8c14a286c836"},"vehicle_type_id":"4","last_reported":1774615184,"current_range_meters":3600,"station_id":"ce4bhe12rcd13ifvqf30","pricing_plan_id":"cebpf4jnsgd1na2vs0mg"},{"bike_id":"b3893f95-3cb0-432a-a562-85254097d9ad","system_id":"levelo_inurba_marseille","lat":43.23897,"lon":5.37431,"is_reserved":false,"is_disabled":false,"rental_uris":{"android":"levelo://app?vid=b3893f95-3cb0-432a-a562-85254097d9ad","ios":"levelo://app?vid=b3893f95-3cb0-432a-a562-85254097d9ad"},"vehicle_type_id":"4","last_reported":1774615184,"current_range_meters":4000,"station_id":"st_d6sm7csbq4hs73f8fpjg","pricing_plan_id":"cebpf4jnsgd1na2vs0mg"},{"bike_id":"e2fabea8-fec8-4403-91af-ad7f2d964bb9","system_id":"levelo_inurba_marseille","lat":43.29891,"lon":5.42083,"is_reserved":false,"is_disabled":false,"rental_uris":{"android":"levelo://app?vid=e2fabea8-fec8-4403-91af-ad7f2d964bb9","ios":"levelo://app?vid=e2fabea8-fec8-4403-91af-ad7f2d964bb9"},"vehicle_type_id":"4","last_reported":1774615184,"current_range_meters":4000,"station_id":"st_d6tc004otcvc738tfe70","pricing_plan_id":"cebpf4jnsgd1na2vs0mg"},{"bike_id":"a98e7b73-b30a-4f9b-96c6-ec530884d631","system_id":"levelo_inurba_marseille","lat":43.2378,"lon":5.36623,"is_reserved":false,"is_disabled":false,"rental_uris":{"android":"levelo://app?vid=a98e7b73-b30a-4f9b-96c6-ec530884d631","ios":"levelo://app?vid=a98e7b73-b30a-4f9b-96c6-ec530884d631"},"vehicle_type_id":"4","last_reported":1774615184,"current_range_meters":4000,"station_id":"st_d3nk18o9ro0c73en2l3g","pricing_plan_id":"cebpf4jnsgd1na2vs0mg"},{"bike_id":"0ceeb825-61d0-4218-a26c-40bd8fc78330","system_id":"levelo_inurba_marseille","lat":43.2868,"lon":5.3864,"is_reserved":false,"is_disabled":true,"rental_uris":{"android":"levelo://app?vid=0ceeb825-61d0-4218-a26c-40bd8fc78330","ios":"levelo://app?vid=0ceeb825-61d0-4218-a26c-40bd8fc78330"},"vehicle_type_id":"4","last_reported":1774615184,"current_range_meters":4000,"station_id":"ce4bh492rcd13ifvqdug","pricing_plan_id":"cebpf4jnsgd1na2vs0mg"},{"bike_id":"e4bb0251-ff0a-4814-a829-37ab91def002","system_id":"levelo_inurba_marseille","lat":43.2655,"lon":5.37288,"is_reserved":false,"is_disabled":false,"rental_uris":{"android":"levelo://app?vid=e4bb0251-ff0a-4814-a829-37ab91def002","ios":"levelo://app?vid=e4bb0251-ff0a-4814-a829-37ab91def002"},"vehicle_type_id":"4","last_reported":1774615184,"current_range_meters":4000,"station_id":"ce4bhg12rcd13ifvqf70","pricing_plan_id":"cebpf4jnsgd1na2vs0mg"},{"bike_id":"b0257da6-29b0-40f2-a5bf-6ff6c48b36b8","system_id":"levelo_inurba_marseille","lat":43.28458,"lon":5.48394,"is_reserved":false,"is_disabled":false,"rental_uris":{"android":"levelo://app?vid=b0257da6-29b0-40f2-a5bf-6ff6c48b36b8","ios":"levelo://app?vid=b0257da6-29b0-40f2-a5bf-6ff6c48b36b8"},"vehicle_type_id":"4","last_reported":1774615184,"current_range_meters":4000,"station_id":"","pricing_plan_id":"cebpf4jnsgd1na2vs0mg"},{"bike_id":"daeedf89-bca7-4be6-8862-39cfc6de5158","system_id":"levelo_inurba_marseille","lat":43.300165,"lon":5.38878,"is_reserved":false,"is_disabled":false,"rental_uris":{"android":"levelo://app?vid=daeedf89-bca7-4be6-8862-39cfc6de5158","ios":"levelo://app?vid=daeedf89-bca7-4be6-8862-39cfc6de5158"},"vehicle_type_id":"4","last_reported":1774615184,"current_range_meters":4000,"station_id":"ce4bh0p2rcd13ifvqd70","pricing_plan_id":"cebpf4jnsgd1na2vs0mg"},{"bike_id":"6823ffc9-5cad-4ce3-b86d-8d999ced6302","system_id":"levelo_inurba_marseille","lat":43.31227,"lon":5.36842,"is_reserved":false,"is_disabled":false,"rental_uris":{"android":"levelo://app?vid=6823ffc9-5cad-4ce3-b86d-8d999ced6302","ios":"levelo://app?vid=6823ffc9-5cad-4ce3-b86d-8d999ced6302"},"vehicle_type_id":"4","last_reported":1774615184,"current_range_meters":4000,"station_id":"ce4bgl92rcd13ifvqbq0","pricing_plan_id":"cebpf4jnsgd1na2vs0mg"},{"bike_id":"00a271aa-b1d7-4728-9b5e-ca0dafd230c5","system_id":"levelo_inurba_marseille","lat":43.26928,"lon":5.38915,"is_reserved":false,"is_disabled":false,"rental_uris":{"android":"levelo://app?vid=00a271aa-b1d7-4728-9b5e-ca0dafd230c5","ios":"levelo://app?vid=00a271aa-b1d7-4728-9b5e-ca0dafd230c5"},"vehicle_type_id":"4","last_reported":1774615184,"current_range_meters":4400,"station_id":"ce4bhhh2rcd13ifvqfl0","pricing_plan_id":"cebpf4jnsgd1na2vs0mg"},{"bike_id":"34e38693-88a0-4210-8378-96c0ff6bae28","system_id":"levelo_inurba_marseille","lat":43.29553,"lon":5.4229,"is_reserved":false,"is_disabled":false,"rental_uris":{"android":"levelo://app?vid=34e38693-88a0-4210-8378-96c0ff6bae28","ios":"levelo://app?vid=34e38693-88a0-4210-8378-96c0ff6bae28"},"vehicle_type_id":"4","last_reported":1774615184,"current_range_meters":4400,"station_id":"ce4bhph2rcd13ifvqhdg","pricing_plan_id":"cebpf4jnsgd1na2vs0mg"},{"bike_id":"aa929685-e4dd-4a31-a1c6-979463fa81a3","system_id":"levelo_inurba_marseille","lat":43.28491,"lon":5.48393,"is_reserved":false,"is_disabled":false,"rental_uris":{"android":"levelo://app?vid=aa929685-e4dd-4a31-a1c6-979463fa81a3","ios":"levelo://app?vid=aa929685-e4dd-4a31-a1c6-979463fa81a3"},"vehicle_type_id":"4","last_reported":1774615184,"current_range_meters":4400,"station_id":"st_d3svhcjqgbts73a3dn0g","pricing_plan_id":"cebpf4jnsgd1na2vs0mg"},{"bike_id":"4bf5ee1a-db28-4d49-a9e5-e023cbb5efa9","system_id":"levelo_inurba_marseille","lat":43.26531,"lon":5.37901,"is_reserved":false,"is_disabled":false,"rental_uris":{"android":"levelo://app?vid=4bf5ee1a-db28-4d49-a9e5-e023cbb5efa9","ios":"levelo://app?vid=4bf5ee1a-db28-4d49-a9e5-e023cbb5efa9"},"vehicle_type_id":"4","last_reported":1774615184,"current_range_meters":4400,"station_id":"","pricing_plan_id":"cebpf4jnsgd1na2vs0mg"},{"bike_id":"a206a1fc-ad71-47c7-8011-84675fafc178","system_id":"levelo_inurba_marseille","lat":43.31229,"lon":5.36862,"is_reserved":false,"is_disabled":false,"rental_uris":{"android":"levelo://app?vid=a206a1fc-ad71-47c7-8011-84675fafc178","ios":"levelo://app?vid=a206a1fc-ad71-47c7-8011-84675fafc178"},"vehicle_type_id":"4","last_reported":1774615184,"current_range_meters":4400,"station_id":"ce4bgl92rcd13ifvqbq0","pricing_plan_id":"cebpf4jnsgd1na2vs0mg"},{"bike_id":"5ee79f78-c077-4e4b-853f-9dadde04ec9a","system_id":"levelo_inurba_marseille","lat":43.32493,"lon":5.38298,"is_reserved":false,"is_disabled":false,"rental_uris":{"android":"levelo://app?vid=5ee79f78-c077-4e4b-853f-9dadde04ec9a","ios":"levelo://app?vid=5ee79f78-c077-4e4b-853f-9dadde04ec9a"},"vehicle_type_id":"4","last_reported":1774615184,"current_range_meters":4400,"station_id":"st_d4asgbiv49dc73anf9m0","pricing_plan_id":"cebpf4jnsgd1na2vs0mg"},{"bike_id":"3040bcfd-495a-4c62-ace9-27ab14a70009","system_id":"levelo_inurba_marseille","lat":43.27478,"lon":5.41606,"is_reserved":false,"is_disabled":false,"rental_uris":{"android":"levelo://app?vid=3040bcfd-495a-4c62-ace9-27ab14a70009","ios":"levelo://app?vid=3040bcfd-495a-4c62-ace9-27ab14a70009"},"vehicle_type_id":"4","last_reported":1774615184,"current_range_meters":4400,"station_id":"st_d6im8g6chgec73a5pndg","pricing_plan_id":"cebpf4jnsgd1na2vs0mg"},{"bike_id":"5d50e5a1-2776-45f5-b9ff-1dc20663f1a3","system_id":"levelo_inurba_marseille","lat":43.27187,"lon":5.40989,"is_reserved":false,"is_disabled":false,"rental_uris":{"android":"levelo://app?vid=5d50e5a1-2776-45f5-b9ff-1dc20663f1a3","ios":"levelo://app?vid=5d50e5a1-2776-45f5-b9ff-1dc20663f1a3"},"vehicle_type_id":"4","last_reported":1774615184,"current_range_meters":4400,"station_id":"ce4bhl12rcd13ifvqgf0","pricing_plan_id":"cebpf4jnsgd1na2vs0mg"},{"bike_id":"0f56ada4-0139-4533-81b0-539cec19117a","system_id":"levelo_inurba_marseille","lat":43.30032,"lon":5.37691,"is_reserved":false,"is_disabled":false,"rental_uris":{"android":"levelo://app?vid=0f56ada4-0139-4533-81b0-539cec19117a","ios":"levelo://app?vid=0f56ada4-0139-4533-81b0-539cec19117a"},"vehicle_type_id":"4","last_reported":1774615184,"current_range_meters":4400,"station_id":"","pricing_plan_id":"cebpf4jnsgd1na2vs0mg"},{"bike_id":"304f09eb-d9e2-49f5-ab92-08bad78da312","system_id":"levelo_inurba_marseille","lat":43.23804,"lon":5.36613,"is_reserved":false,"is_disabled":false,"rental_uris":{"android":"levelo://app?vid=304f09eb-d9e2-49f5-ab92-08bad78da312","ios":"levelo://app?vid=304f09eb-d9e2-49f5-ab92-08bad78da312"},"vehicle_type_id":"4","last_reported":1774615184,"current_range_meters":4400,"station_id":"st_d3nk18o9ro0c73en2l3g","pricing_plan_id":"cebpf4jnsgd1na2vs0mg"},{"bike_id":"9622d6a1-0148-4917-a3c8-65e1e3794664","system_id":"levelo_inurba_marseille","lat":43.28148,"lon":5.42636,"is_reserved":false,"is_disabled":false,"rental_uris":{"android":"levelo://app?vid=9622d6a1-0148-4917-a3c8-65e1e3794664","ios":"levelo://app?vid=9622d6a1-0148-4917-a3c8-65e1e3794664"},"vehicle_type_id":"4","last_reported":1774615184,"current_range_meters":4400,"station_id":"ce4bhnh2rcd13ifvqgug","pricing_plan_id":"cebpf4jnsgd1na2vs0mg"},{"bike_id":"d9f1e599-9996-4001-a299-ae38459379b5","system_id":"levelo_inurba_marseille","lat":43.31911,"lon":5.3681,"is_reserved":false,"is_disabled":false,"rental_uris":{"android":"levelo://app?vid=d9f1e599-9996-4001-a299-ae38459379b5","ios":"levelo://app?vid=d9f1e599-9996-4001-a299-ae38459379b5"},"vehicle_type_id":"4","last_reported":1774615184,"current_range_meters":4400,"station_id":"","pricing_plan_id":"cebpf4jnsgd1na2vs0mg"},{"bike_id":"87009622-812a-45ea-b11e-8da7917d2fc5","system_id":"levelo_inurba_marseille","lat":43.33719,"lon":5.39189,"is_reserved":false,"is_disabled":false,"rental_uris":{"android":"levelo://app?vid=87009622-812a-45ea-b11e-8da7917d2fc5","ios":"levelo://app?vid=87009622-812a-45ea-b11e-8da7917d2fc5"},"vehicle_type_id":"4","last_reported":1774615184,"current_range_meters":4400,"station_id":"ce4bhr92rcd13ifvqhsg","pricing_plan_id":"cebpf4jnsgd1na2vs0mg"},{"bike_id":"5cd215d1-959b-47e5-bd04-578f49aeef29","system_id":"levelo_inurba_marseille","lat":43.29735,"lon":5.3767,"is_reserved":false,"is_disabled":false,"rental_uris":{"android":"levelo://app?vid=5cd215d1-959b-47e5-bd04-578f49aeef29","ios":"levelo://app?vid=5cd215d1-959b-47e5-bd04-578f49aeef29"},"vehicle_type_id":"4","last_reported":1774615184,"current_range_meters":4800,"station_id":"ce4bgkh2rcd13ifvqbl0","pricing_plan_id":"cebpf4jnsgd1na2vs0mg"},{"bike_id":"2555a893-6a3e-4c23-8e6c-9c60bcd40259","system_id":"levelo_inurba_marseille","lat":43.29844,"lon":5.36269,"is_reserved":false,"is_disabled":false,"rental_uris":{"android":"levelo://app?vid=2555a893-6a3e-4c23-8e6c-9c60bcd40259","ios":"levelo://app?vid=2555a893-6a3e-4c23-8e6c-9c60bcd40259"},"vehicle_type_id":"4","last_reported":1774615184,"current_range_meters":4800,"station_id":"ce4bgpp2rcd13ifvqc3g","pricing_plan_id":"cebpf4jnsgd1na2vs0mg"},{"bike_id":"a4f92a99-813b-4b32-9b3d-e4264a2ff6c0","system_id":"levelo_inurba_marseille","lat":43.29927,"lon":5.37473,"is_reserved":false,"is_disabled":false,"rental_uris":{"android":"levelo://app?vid=a4f92a99-813b-4b32-9b3d-e4264a2ff6c0","ios":"levelo://app?vid=a4f92a99-813b-4b32-9b3d-e4264a2ff6c0"},"vehicle_type_id":"4","last_reported":1774615184,"current_range_meters":4800,"station_id":"ce4bgjh2rcd13ifvqbg0","pricing_plan_id":"cebpf4jnsgd1na2vs0mg"},{"bike_id":"8964bd80-3567-4527-88ee-5822174f4839","system_id":"levelo_inurba_marseille","lat":43.30548,"lon":5.36547,"is_reserved":false,"is_disabled":false,"rental_uris":{"android":"levelo://app?vid=8964bd80-3567-4527-88ee-5822174f4839","ios":"levelo://app?vid=8964bd80-3567-4527-88ee-5822174f4839"},"vehicle_type_id":"4","last_reported":1774615184,"current_range_meters":4800,"station_id":"ce4bgs12rcd13ifvqcag","pricing_plan_id":"cebpf4jnsgd1na2vs0mg"},{"bike_id":"5ac7a4a2-9586-4b06-ad58-8dfd7aa6ce5e","system_id":"levelo_inurba_marseille","lat":43.28625,"lon":5.35075,"is_reserved":false,"is_disabled":false,"rental_uris":{"android":"levelo://app?vid=5ac7a4a2-9586-4b06-ad58-8dfd7aa6ce5e","ios":"levelo://app?vid=5ac7a4a2-9586-4b06-ad58-8dfd7aa6ce5e"},"vehicle_type_id":"4","last_reported":1774615184,"current_range_meters":4800,"station_id":"ce4bhch2rcd13ifvqeug","pricing_plan_id":"cebpf4jnsgd1na2vs0mg"},{"bike_id":"3ab98d54-0020-4383-9198-d1ae40e931d7","system_id":"levelo_inurba_marseille","lat":43.26229,"lon":5.40451,"is_reserved":false,"is_disabled":false,"rental_uris":{"android":"levelo://app?vid=3ab98d54-0020-4383-9198-d1ae40e931d7","ios":"levelo://app?vid=3ab98d54-0020-4383-9198-d1ae40e931d7"},"vehicle_type_id":"4","last_reported":1774615184,"current_range_meters":4800,"station_id":"ce4bhmh2rcd13ifvqgmg","pricing_plan_id":"cebpf4jnsgd1na2vs0mg"},{"bike_id":"8faa42a3-c9ce-43b4-a8db-20cabe509edd","system_id":"levelo_inurba_marseille","lat":43.292687,"lon":5.384359,"is_reserved":false,"is_disabled":false,"rental_uris":{"android":"levelo://app?vid=8faa42a3-c9ce-43b4-a8db-20cabe509edd","ios":"levelo://app?vid=8faa42a3-c9ce-43b4-a8db-20cabe509edd"},"vehicle_type_id":"4","last_reported":1774615184,"current_range_meters":4800,"station_id":"ce4bh692rcd13ifvqea0","pricing_plan_id":"cebpf4jnsgd1na2vs0mg"},{"bike_id":"a432baf0-0704-4d0a-bd8c-ceae8a447104","system_id":"levelo_inurba_marseille","lat":43.25576,"lon":5.38223,"is_reserved":false,"is_disabled":false,"rental_uris":{"android":"levelo://app?vid=a432baf0-0704-4d0a-bd8c-ceae8a447104","ios":"levelo://app?vid=a432baf0-0704-4d0a-bd8c-ceae8a447104"},"vehicle_type_id":"4","last_reported":1774615184,"current_range_meters":4800,"station_id":"ce4bhih2rcd13ifvqfs0","pricing_plan_id":"cebpf4jnsgd1na2vs0mg"},{"bike_id":"5f84302b-a60d-4aba-a4a6-1a33c5d5487a","system_id":"levelo_inurba_marseille","lat":43.28262,"lon":5.35064,"is_reserved":false,"is_disabled":false,"rental_uris":{"android":"levelo://app?vid=5f84302b-a60d-4aba-a4a6-1a33c5d5487a","ios":"levelo://app?vid=5f84302b-a60d-4aba-a4a6-1a33c5d5487a"},"vehicle_type_id":"4","last_reported":1774615184,"current_range_meters":4800,"station_id":"ce4bhbp2rcd13ifvqerg","pricing_plan_id":"cebpf4jnsgd1na2vs0mg"},{"bike_id":"6f07c129-266c-469d-a387-50f1e4dab4dc","system_id":"levelo_inurba_marseille","lat":43.29552,"lon":5.42296,"is_reserved":false,"is_disabled":false,"rental_uris":{"android":"levelo://app?vid=6f07c129-266c-469d-a387-50f1e4dab4dc","ios":"levelo://app?vid=6f07c129-266c-469d-a387-50f1e4dab4dc"},"vehicle_type_id":"4","last_reported":1774615184,"current_range_meters":4800,"station_id":"ce4bhph2rcd13ifvqhdg","pricing_plan_id":"cebpf4jnsgd1na2vs0mg"},{"bike_id":"3b20de94-bd9c-440e-bcf0-c049ef93a50c","system_id":"levelo_inurba_marseille","lat":43.31111,"lon":5.3778,"is_reserved":false,"is_disabled":false,"rental_uris":{"android":"levelo://app?vid=3b20de94-bd9c-440e-bcf0-c049ef93a50c","ios":"levelo://app?vid=3b20de94-bd9c-440e-bcf0-c049ef93a50c"},"vehicle_type_id":"4","last_reported":1774615184,"current_range_meters":4800,"station_id":"ce4bgt92rcd13ifvqcg0","pricing_plan_id":"cebpf4jnsgd1na2vs0mg"},{"bike_id":"99fdde14-d00f-4b87-a06e-d19f16d9d69a","system_id":"levelo_inurba_marseille","lat":43.30214,"lon":5.38034,"is_reserved":false,"is_disabled":false,"rental_uris":{"android":"levelo://app?vid=99fdde14-d00f-4b87-a06e-d19f16d9d69a","ios":"levelo://app?vid=99fdde14-d00f-4b87-a06e-d19f16d9d69a"},"vehicle_type_id":"4","last_reported":1774615184,"current_range_meters":4800,"station_id":"","pricing_plan_id":"cebpf4jnsgd1na2vs0mg"},{"bike_id":"f39d8b02-6dc1-4aa3-9619-221f5e63d8fe","system_id":"levelo_inurba_marseille","lat":43.27059,"lon":5.42269,"is_reserved":false,"is_disabled":false,"rental_uris":{"android":"levelo://app?vid=f39d8b02-6dc1-4aa3-9619-221f5e63d8fe","ios":"levelo://app?vid=f39d8b02-6dc1-4aa3-9619-221f5e63d8fe"},"vehicle_type_id":"4","last_reported":1774615184,"current_range_meters":5600,"station_id":"ce4bhk92rcd13ifvqgb0","pricing_plan_id":"cebpf4jnsgd1na2vs0mg"},{"bike_id":"43e722d7-646d-4c84-a3da-6b319f18d15f","system_id":"levelo_inurba_marseille","lat":43.30172,"lon":5.3806,"is_reserved":false,"is_disabled":false,"rental_uris":{"android":"levelo://app?vid=43e722d7-646d-4c84-a3da-6b319f18d15f","ios":"levelo://app?vid=43e722d7-646d-4c84-a3da-6b319f18d15f"},"vehicle_type_id":"4","last_reported":1774615184,"current_range_meters":5600,"station_id":"ce4bgjp2rcd13ifvqbh0","pricing_plan_id":"cebpf4jnsgd1na2vs0mg"},{"bike_id":"6822967b-5bea-47e7-869e-63aaf1fa523b","system_id":"levelo_inurba_marseille","lat":43.29384,"lon":5.37864,"is_reserved":false,"is_disabled":false,"rental_uris":{"android":"levelo://app?vid=6822967b-5bea-47e7-869e-63aaf1fa523b","ios":"levelo://app?vid=6822967b-5bea-47e7-869e-63aaf1fa523b"},"vehicle_type_id":"4","last_reported":1774615184,"current_range_meters":5600,"station_id":"ce4bgjh2rcd13ifvqbf0","pricing_plan_id":"cebpf4jnsgd1na2vs0mg"},{"bike_id":"9ac2d7e7-51d6-4c20-9245-1abdbf115c06","system_id":"levelo_inurba_marseille","lat":43.27503,"lon":5.41565,"is_reserved":false,"is_disabled":false,"rental_uris":{"android":"levelo://app?vid=9ac2d7e7-51d6-4c20-9245-1abdbf115c06","ios":"levelo://app?vid=9ac2d7e7-51d6-4c20-9245-1abdbf115c06"},"vehicle_type_id":"4","last_reported":1774615184,"current_range_meters":5600,"station_id":"st_d6im8g6chgec73a5pndg","pricing_plan_id":"cebpf4jnsgd1na2vs0mg"},{"bike_id":"36d01a37-e759-48fe-bb99-dd18ab974c43","system_id":"levelo_inurba_marseille","lat":43.28341,"lon":5.38107,"is_reserved":false,"is_disabled":false,"rental_uris":{"android":"levelo://app?vid=36d01a37-e759-48fe-bb99-dd18ab974c43","ios":"levelo://app?vid=36d01a37-e759-48fe-bb99-dd18ab974c43"},"vehicle_type_id":"4","last_reported":1774615184,"current_range_meters":5600,"station_id":"ce4bh412rcd13ifvqdr0","pricing_plan_id":"cebpf4jnsgd1na2vs0mg"},{"bike_id":"4c0b450a-ae3a-467c-bc16-ab92c6d0119e","system_id":"levelo_inurba_marseille","lat":43.23891,"lon":5.3745,"is_reserved":false,"is_disabled":false,"rental_uris":{"android":"levelo://app?vid=4c0b450a-ae3a-467c-bc16-ab92c6d0119e","ios":"levelo://app?vid=4c0b450a-ae3a-467c-bc16-ab92c6d0119e"},"vehicle_type_id":"4","last_reported":1774615184,"current_range_meters":5600,"station_id":"st_d6sm7csbq4hs73f8fpjg","pricing_plan_id":"cebpf4jnsgd1na2vs0mg"},{"bike_id":"4c5577b9-3ba7-47b8-b7c6-2e099a47d91b","system_id":"levelo_inurba_marseille","lat":43.23172,"lon":5.43694,"is_reserved":false,"is_disabled":false,"rental_uris":{"android":"levelo://app?vid=4c5577b9-3ba7-47b8-b7c6-2e099a47d91b","ios":"levelo://app?vid=4c5577b9-3ba7-47b8-b7c6-2e099a47d91b"},"vehicle_type_id":"4","last_reported":1774615184,"current_range_meters":5600,"station_id":"ce4bhmp2rcd13ifvqgog","pricing_plan_id":"cebpf4jnsgd1na2vs0mg"},{"bike_id":"0fcda2a5-b15b-46ba-a144-50e39d7b47ab","system_id":"levelo_inurba_marseille","lat":43.27209,"lon":5.39166,"is_reserved":false,"is_disabled":false,"rental_uris":{"android":"levelo://app?vid=0fcda2a5-b15b-46ba-a144-50e39d7b47ab","ios":"levelo://app?vid=0fcda2a5-b15b-46ba-a144-50e39d7b47ab"},"vehicle_type_id":"4","last_reported":1774615184,"current_range_meters":5600,"station_id":"ce4bhhp2rcd13ifvqfm0","pricing_plan_id":"cebpf4jnsgd1na2vs0mg"},{"bike_id":"1e5bff54-3f98-4a34-a0a4-7b43a07fabd5","system_id":"levelo_inurba_marseille","lat":43.25006,"lon":5.38912,"is_reserved":false,"is_disabled":false,"rental_uris":{"android":"levelo://app?vid=1e5bff54-3f98-4a34-a0a4-7b43a07fabd5","ios":"levelo://app?vid=1e5bff54-3f98-4a34-a0a4-7b43a07fabd5"},"vehicle_type_id":"4","last_reported":1774615184,"current_range_meters":5600,"station_id":"ce4bhgp2rcd13ifvqfd0","pricing_plan_id":"cebpf4jnsgd1na2vs0mg"},{"bike_id":"6c914cf5-4be3-4f29-8404-6a8ef629122e","system_id":"levelo_inurba_marseille","lat":43.29521,"lon":5.39037,"is_reserved":false,"is_disabled":false,"rental_uris":{"android":"levelo://app?vid=6c914cf5-4be3-4f29-8404-6a8ef629122e","ios":"levelo://app?vid=6c914cf5-4be3-4f29-8404-6a8ef629122e"},"vehicle_type_id":"4","last_reported":1774615184,"current_range_meters":5600,"station_id":"ce4bh3p2rcd13ifvqdp0","pricing_plan_id":"cebpf4jnsgd1na2vs0mg"},{"bike_id":"c87bdda4-3bb0-4147-b8ab-d7ef57652d3c","system_id":"levelo_inurba_marseille","lat":43.30548,"lon":5.36509,"is_reserved":false,"is_disabled":false,"rental_uris":{"android":"levelo://app?vid=c87bdda4-3bb0-4147-b8ab-d7ef57652d3c","ios":"levelo://app?vid=c87bdda4-3bb0-4147-b8ab-d7ef57652d3c"},"vehicle_type_id":"4","last_reported":1774615184,"current_range_meters":6000,"station_id":"ce4bgs12rcd13ifvqcag","pricing_plan_id":"cebpf4jnsgd1na2vs0mg"},{"bike_id":"195e0631-ed2b-43bc-b6d1-51410ce940b3","system_id":"levelo_inurba_marseille","lat":43.28478,"lon":5.48416,"is_reserved":false,"is_disabled":false,"rental_uris":{"android":"levelo://app?vid=195e0631-ed2b-43bc-b6d1-51410ce940b3","ios":"levelo://app?vid=195e0631-ed2b-43bc-b6d1-51410ce940b3"},"vehicle_type_id":"4","last_reported":1774615184,"current_range_meters":6000,"station_id":"","pricing_plan_id":"cebpf4jnsgd1na2vs0mg"},{"bike_id":"beca5126-c985-47d5-859f-464bcda92937","system_id":"levelo_inurba_marseille","lat":43.23784,"lon":5.36624,"is_reserved":false,"is_disabled":false,"rental_uris":{"android":"levelo://app?vid=beca5126-c985-47d5-859f-464bcda92937","ios":"levelo://app?vid=beca5126-c985-47d5-859f-464bcda92937"},"vehicle_type_id":"4","last_reported":1774615184,"current_range_meters":6000,"station_id":"st_d3nk18o9ro0c73en2l3g","pricing_plan_id":"cebpf4jnsgd1na2vs0mg"},{"bike_id":"60745d19-0a4f-44d5-90ce-af1c93b483f7","system_id":"levelo_inurba_marseille","lat":43.28412,"lon":5.35004,"is_reserved":false,"is_disabled":false,"rental_uris":{"android":"levelo://app?vid=60745d19-0a4f-44d5-90ce-af1c93b483f7","ios":"levelo://app?vid=60745d19-0a4f-44d5-90ce-af1c93b483f7"},"vehicle_type_id":"4","last_reported":1774615184,"current_range_meters":6000,"station_id":"ce4bhbh2rcd13ifvqepg","pricing_plan_id":"cebpf4jnsgd1na2vs0mg"},{"bike_id":"b75f094d-8265-4229-a40a-119b557745b3","system_id":"levelo_inurba_marseille","lat":43.24994,"lon":5.38931,"is_reserved":false,"is_disabled":false,"rental_uris":{"android":"levelo://app?vid=b75f094d-8265-4229-a40a-119b557745b3","ios":"levelo://app?vid=b75f094d-8265-4229-a40a-119b557745b3"},"vehicle_type_id":"4","last_reported":1774615184,"current_range_meters":6000,"station_id":"ce4bhgp2rcd13ifvqfd0","pricing_plan_id":"cebpf4jnsgd1na2vs0mg"},{"bike_id":"83a9495b-6d73-4306-a4c1-0258966b50c5","system_id":"levelo_inurba_marseille","lat":43.29597,"lon":5.38093,"is_reserved":false,"is_disabled":false,"rental_uris":{"android":"levelo://app?vid=83a9495b-6d73-4306-a4c1-0258966b50c5","ios":"levelo://app?vid=83a9495b-6d73-4306-a4c1-0258966b50c5"},"vehicle_type_id":"4","last_reported":1774615184,"current_range_meters":6000,"station_id":"ce4bgl12rcd13ifvqbo0","pricing_plan_id":"cebpf4jnsgd1na2vs0mg"},{"bike_id":"d98423cf-94ce-4749-89f6-e8a1ee474779","system_id":"levelo_inurba_marseille","lat":43.28444,"lon":5.34966,"is_reserved":false,"is_disabled":false,"rental_uris":{"android":"levelo://app?vid=d98423cf-94ce-4749-89f6-e8a1ee474779","ios":"levelo://app?vid=d98423cf-94ce-4749-89f6-e8a1ee474779"},"vehicle_type_id":"4","last_reported":1774615184,"current_range_meters":6000,"station_id":"ce4bhbh2rcd13ifvqepg","pricing_plan_id":"cebpf4jnsgd1na2vs0mg"},{"bike_id":"e4a07499-c2e6-4aa7-ac42-955893842553","system_id":"levelo_inurba_marseille","lat":43.27311,"lon":5.39086,"is_reserved":false,"is_disabled":false,"rental_uris":{"android":"levelo://app?vid=e4a07499-c2e6-4aa7-ac42-955893842553","ios":"levelo://app?vid=e4a07499-c2e6-4aa7-ac42-955893842553"},"vehicle_type_id":"4","last_reported":1774615184,"current_range_meters":6000,"station_id":"ce4bhgp2rcd13ifvqfe0","pricing_plan_id":"cebpf4jnsgd1na2vs0mg"},{"bike_id":"a8f06237-a81d-423b-b1e0-bc4de728be68","system_id":"levelo_inurba_marseille","lat":43.24662,"lon":5.3816,"is_reserved":false,"is_disabled":false,"rental_uris":{"android":"levelo://app?vid=a8f06237-a81d-423b-b1e0-bc4de728be68","ios":"levelo://app?vid=a8f06237-a81d-423b-b1e0-bc4de728be68"},"vehicle_type_id":"4","last_reported":1774615184,"current_range_meters":6000,"station_id":"ce4bhih2rcd13ifvqfr0","pricing_plan_id":"cebpf4jnsgd1na2vs0mg"},{"bike_id":"10fe5563-f532-4492-919a-4905f9dfe4ff","system_id":"levelo_inurba_marseille","lat":43.28482,"lon":5.48393,"is_reserved":false,"is_disabled":false,"rental_uris":{"android":"levelo://app?vid=10fe5563-f532-4492-919a-4905f9dfe4ff","ios":"levelo://app?vid=10fe5563-f532-4492-919a-4905f9dfe4ff"},"vehicle_type_id":"4","last_reported":1774615184,"current_range_meters":6000,"station_id":"","pricing_plan_id":"cebpf4jnsgd1na2vs0mg"},{"bike_id":"29e4ea14-9f10-4fb6-8bd6-bd25c9a9f18d","system_id":"levelo_inurba_marseille","lat":43.26546,"lon":5.37288,"is_reserved":false,"is_disabled":false,"rental_uris":{"android":"levelo://app?vid=29e4ea14-9f10-4fb6-8bd6-bd25c9a9f18d","ios":"levelo://app?vid=29e4ea14-9f10-4fb6-8bd6-bd25c9a9f18d"},"vehicle_type_id":"4","last_reported":1774615184,"current_range_meters":6000,"station_id":"ce4bhg12rcd13ifvqf70","pricing_plan_id":"cebpf4jnsgd1na2vs0mg"},{"bike_id":"703c66e6-43cf-4833-ba2f-d06aa0c38c43","system_id":"levelo_inurba_marseille","lat":43.2707,"lon":5.42267,"is_reserved":false,"is_disabled":false,"rental_uris":{"android":"levelo://app?vid=703c66e6-43cf-4833-ba2f-d06aa0c38c43","ios":"levelo://app?vid=703c66e6-43cf-4833-ba2f-d06aa0c38c43"},"vehicle_type_id":"4","last_reported":1774615184,"current_range_meters":6000,"station_id":"ce4bhk92rcd13ifvqgb0","pricing_plan_id":"cebpf4jnsgd1na2vs0mg"},{"bike_id":"64914b56-8916-4d20-ba24-efe119ce8881","system_id":"levelo_inurba_marseille","lat":43.27809,"lon":5.4071,"is_reserved":false,"is_disabled":false,"rental_uris":{"android":"levelo://app?vid=64914b56-8916-4d20-ba24-efe119ce8881","ios":"levelo://app?vid=64914b56-8916-4d20-ba24-efe119ce8881"},"vehicle_type_id":"4","last_reported":1774615184,"current_range_meters":6000,"station_id":"ce4bhnh2rcd13ifvqgtg","pricing_plan_id":"cebpf4jnsgd1na2vs0mg"},{"bike_id":"b5114d54-1a10-4d09-9c82-f6aa7d7d3f8c","system_id":"levelo_inurba_marseille","lat":43.22516,"lon":5.41626,"is_reserved":false,"is_disabled":false,"rental_uris":{"android":"levelo://app?vid=b5114d54-1a10-4d09-9c82-f6aa7d7d3f8c","ios":"levelo://app?vid=b5114d54-1a10-4d09-9c82-f6aa7d7d3f8c"},"vehicle_type_id":"4","last_reported":1774615184,"current_range_meters":6400,"station_id":"","pricing_plan_id":"cebpf4jnsgd1na2vs0mg"},{"bike_id":"9c1cdab7-8171-442d-9864-8c0c68039557","system_id":"levelo_inurba_marseille","lat":43.32104,"lon":5.36779,"is_reserved":false,"is_disabled":false,"rental_uris":{"android":"levelo://app?vid=9c1cdab7-8171-442d-9864-8c0c68039557","ios":"levelo://app?vid=9c1cdab7-8171-442d-9864-8c0c68039557"},"vehicle_type_id":"4","last_reported":1774615184,"current_range_meters":6400,"station_id":"ce4bhrh2rcd13ifvqhug","pricing_plan_id":"cebpf4jnsgd1na2vs0mg"},{"bike_id":"4a6ad84e-6e22-459e-abd6-075453ffbbfd","system_id":"levelo_inurba_marseille","lat":43.30555,"lon":5.36524,"is_reserved":false,"is_disabled":false,"rental_uris":{"android":"levelo://app?vid=4a6ad84e-6e22-459e-abd6-075453ffbbfd","ios":"levelo://app?vid=4a6ad84e-6e22-459e-abd6-075453ffbbfd"},"vehicle_type_id":"4","last_reported":1774615184,"current_range_meters":6400,"station_id":"ce4bgs12rcd13ifvqcag","pricing_plan_id":"cebpf4jnsgd1na2vs0mg"},{"bike_id":"bc6f68ef-ff2e-4910-8fbf-a9c7619cd5d1","system_id":"levelo_inurba_marseille","lat":43.32839,"lon":5.37516,"is_reserved":false,"is_disabled":false,"rental_uris":{"android":"levelo://app?vid=bc6f68ef-ff2e-4910-8fbf-a9c7619cd5d1","ios":"levelo://app?vid=bc6f68ef-ff2e-4910-8fbf-a9c7619cd5d1"},"vehicle_type_id":"4","last_reported":1774615184,"current_range_meters":6400,"station_id":"","pricing_plan_id":"cebpf4jnsgd1na2vs0mg"},{"bike_id":"6cf1f13d-4ca5-48de-9e89-f00e3291824b","system_id":"levelo_inurba_marseille","lat":43.30208,"lon":5.3946,"is_reserved":false,"is_disabled":false,"rental_uris":{"android":"levelo://app?vid=6cf1f13d-4ca5-48de-9e89-f00e3291824b","ios":"levelo://app?vid=6cf1f13d-4ca5-48de-9e89-f00e3291824b"},"vehicle_type_id":"4","last_reported":1774615184,"current_range_meters":6400,"station_id":"ce4bh0p2rcd13ifvqd70","pricing_plan_id":"cebpf4jnsgd1na2vs0mg"},{"bike_id":"bfd7cb66-3073-4920-8151-129c410ea860","system_id":"levelo_inurba_marseille","lat":43.33536,"lon":5.37468,"is_reserved":false,"is_disabled":false,"rental_uris":{"android":"levelo://app?vid=bfd7cb66-3073-4920-8151-129c410ea860","ios":"levelo://app?vid=bfd7cb66-3073-4920-8151-129c410ea860"},"vehicle_type_id":"4","last_reported":1774615184,"current_range_meters":6400,"station_id":"st_d46tts09ee8s73dlu43g","pricing_plan_id":"cebpf4jnsgd1na2vs0mg"},{"bike_id":"01336c29-76f7-452a-a669-aca7c1c80632","system_id":"levelo_inurba_marseille","lat":43.28609,"lon":5.37071,"is_reserved":false,"is_disabled":false,"rental_uris":{"android":"levelo://app?vid=01336c29-76f7-452a-a669-aca7c1c80632","ios":"levelo://app?vid=01336c29-76f7-452a-a669-aca7c1c80632"},"vehicle_type_id":"4","last_reported":1774615184,"current_range_meters":6400,"station_id":"ce4bht12rcd13ifvqi60","pricing_plan_id":"cebpf4jnsgd1na2vs0mg"},{"bike_id":"0e3d4c2e-9c7b-478f-9fac-739f9f7dbdf6","system_id":"levelo_inurba_marseille","lat":43.31308,"lon":5.36727,"is_reserved":false,"is_disabled":false,"rental_uris":{"android":"levelo://app?vid=0e3d4c2e-9c7b-478f-9fac-739f9f7dbdf6","ios":"levelo://app?vid=0e3d4c2e-9c7b-478f-9fac-739f9f7dbdf6"},"vehicle_type_id":"4","last_reported":1774615184,"current_range_meters":6400,"station_id":"ce4bgr92rcd13ifvqc6g","pricing_plan_id":"cebpf4jnsgd1na2vs0mg"},{"bike_id":"65984f58-03cc-4376-bd6c-f65953fd9f0c","system_id":"levelo_inurba_marseille","lat":43.23156,"lon":5.43709,"is_reserved":false,"is_disabled":false,"rental_uris":{"android":"levelo://app?vid=65984f58-03cc-4376-bd6c-f65953fd9f0c","ios":"levelo://app?vid=65984f58-03cc-4376-bd6c-f65953fd9f0c"},"vehicle_type_id":"4","last_reported":1774615184,"current_range_meters":6400,"station_id":"ce4bhmp2rcd13ifvqgog","pricing_plan_id":"cebpf4jnsgd1na2vs0mg"},{"bike_id":"e32451f7-fc38-4c0a-8bf5-9f4be23d5540","system_id":"levelo_inurba_marseille","lat":43.33172,"lon":5.37668,"is_reserved":false,"is_disabled":false,"rental_uris":{"android":"levelo://app?vid=e32451f7-fc38-4c0a-8bf5-9f4be23d5540","ios":"levelo://app?vid=e32451f7-fc38-4c0a-8bf5-9f4be23d5540"},"vehicle_type_id":"4","last_reported":1774615184,"current_range_meters":6400,"station_id":"st_d46cu089ee8s73dldbu0","pricing_plan_id":"cebpf4jnsgd1na2vs0mg"},{"bike_id":"42d3532b-e25a-4905-9c9d-a30b8c0015ab","system_id":"levelo_inurba_marseille","lat":43.28415,"lon":5.3751,"is_reserved":false,"is_disabled":false,"rental_uris":{"android":"levelo://app?vid=42d3532b-e25a-4905-9c9d-a30b8c0015ab","ios":"levelo://app?vid=42d3532b-e25a-4905-9c9d-a30b8c0015ab"},"vehicle_type_id":"4","last_reported":1774615184,"current_range_meters":6400,"station_id":"ce4bh412rcd13ifvqds0","pricing_plan_id":"cebpf4jnsgd1na2vs0mg"},{"bike_id":"c9e84aaf-0d3b-4e90-aea5-67ba9d0bc119","system_id":"levelo_inurba_marseille","lat":43.29726,"lon":5.37718,"is_reserved":false,"is_disabled":false,"rental_uris":{"android":"levelo://app?vid=c9e84aaf-0d3b-4e90-aea5-67ba9d0bc119","ios":"levelo://app?vid=c9e84aaf-0d3b-4e90-aea5-67ba9d0bc119"},"vehicle_type_id":"4","last_reported":1774615184,"current_range_meters":6800,"station_id":"ce4bgkh2rcd13ifvqbl0","pricing_plan_id":"cebpf4jnsgd1na2vs0mg"},{"bike_id":"91bd31f2-be9b-436a-b78a-8cf5541031ec","system_id":"levelo_inurba_marseille","lat":43.33736,"lon":5.37493,"is_reserved":false,"is_disabled":false,"rental_uris":{"android":"levelo://app?vid=91bd31f2-be9b-436a-b78a-8cf5541031ec","ios":"levelo://app?vid=91bd31f2-be9b-436a-b78a-8cf5541031ec"},"vehicle_type_id":"4","last_reported":1774615184,"current_range_meters":6800,"station_id":"","pricing_plan_id":"cebpf4jnsgd1na2vs0mg"},{"bike_id":"2457fc1b-679d-4a71-90e9-ad408ab6ed9d","system_id":"levelo_inurba_marseille","lat":43.32563,"lon":5.38355,"is_reserved":false,"is_disabled":false,"rental_uris":{"android":"levelo://app?vid=2457fc1b-679d-4a71-90e9-ad408ab6ed9d","ios":"levelo://app?vid=2457fc1b-679d-4a71-90e9-ad408ab6ed9d"},"vehicle_type_id":"4","last_reported":1774615184,"current_range_meters":6800,"station_id":"","pricing_plan_id":"cebpf4jnsgd1na2vs0mg"},{"bike_id":"529427bc-37ad-490a-8d78-6796c0cbf3a7","system_id":"levelo_inurba_marseille","lat":43.29399,"lon":5.37609,"is_reserved":false,"is_disabled":false,"rental_uris":{"android":"levelo://app?vid=529427bc-37ad-490a-8d78-6796c0cbf3a7","ios":"levelo://app?vid=529427bc-37ad-490a-8d78-6796c0cbf3a7"},"vehicle_type_id":"4","last_reported":1774615184,"current_range_meters":6800,"station_id":"","pricing_plan_id":"cebpf4jnsgd1na2vs0mg"},{"bike_id":"ee5766f8-ffad-4847-b6aa-a4f3b10d40a9","system_id":"levelo_inurba_marseille","lat":43.28533,"lon":5.44092,"is_reserved":false,"is_disabled":false,"rental_uris":{"android":"levelo://app?vid=ee5766f8-ffad-4847-b6aa-a4f3b10d40a9","ios":"levelo://app?vid=ee5766f8-ffad-4847-b6aa-a4f3b10d40a9"},"vehicle_type_id":"4","last_reported":1774615184,"current_range_meters":6800,"station_id":"st_d3j3df2ikq2c7380ej80","pricing_plan_id":"cebpf4jnsgd1na2vs0mg"},{"bike_id":"a4123980-4df8-47ff-b3fc-691f304c8fc4","system_id":"levelo_inurba_marseille","lat":43.2904,"lon":5.37569,"is_reserved":false,"is_disabled":false,"rental_uris":{"android":"levelo://app?vid=a4123980-4df8-47ff-b3fc-691f304c8fc4","ios":"levelo://app?vid=a4123980-4df8-47ff-b3fc-691f304c8fc4"},"vehicle_type_id":"4","last_reported":1774615184,"current_range_meters":6800,"station_id":"ce4bh692rcd13ifvqe90","pricing_plan_id":"cebpf4jnsgd1na2vs0mg"},{"bike_id":"b11a5eb6-e267-4b68-a16f-60f96175833a","system_id":"levelo_inurba_marseille","lat":43.30611,"lon":5.37223,"is_reserved":false,"is_disabled":false,"rental_uris":{"android":"levelo://app?vid=b11a5eb6-e267-4b68-a16f-60f96175833a","ios":"levelo://app?vid=b11a5eb6-e267-4b68-a16f-60f96175833a"},"vehicle_type_id":"4","last_reported":1774615184,"current_range_meters":6800,"station_id":"ce4bgqh2rcd13ifvqc4g","pricing_plan_id":"cebpf4jnsgd1na2vs0mg"},{"bike_id":"78a5717b-9330-4082-ae1a-651da7cee451","system_id":"levelo_inurba_marseille","lat":43.26545,"lon":5.37288,"is_reserved":false,"is_disabled":false,"rental_uris":{"android":"levelo://app?vid=78a5717b-9330-4082-ae1a-651da7cee451","ios":"levelo://app?vid=78a5717b-9330-4082-ae1a-651da7cee451"},"vehicle_type_id":"4","last_reported":1774615184,"current_range_meters":6800,"station_id":"ce4bhg12rcd13ifvqf70","pricing_plan_id":"cebpf4jnsgd1na2vs0mg"},{"bike_id":"587aea89-5f5b-4224-9f4d-cff9d2e6c5f2","system_id":"levelo_inurba_marseille","lat":43.2862,"lon":5.35091,"is_reserved":false,"is_disabled":false,"rental_uris":{"android":"levelo://app?vid=587aea89-5f5b-4224-9f4d-cff9d2e6c5f2","ios":"levelo://app?vid=587aea89-5f5b-4224-9f4d-cff9d2e6c5f2"},"vehicle_type_id":"4","last_reported":1774615184,"current_range_meters":6800,"station_id":"ce4bhch2rcd13ifvqeug","pricing_plan_id":"cebpf4jnsgd1na2vs0mg"},{"bike_id":"ae758492-79f2-476f-b0b6-5b6613e02dd5","system_id":"levelo_inurba_marseille","lat":43.21188,"lon":5.35075,"is_reserved":false,"is_disabled":false,"rental_uris":{"android":"levelo://app?vid=ae758492-79f2-476f-b0b6-5b6613e02dd5","ios":"levelo://app?vid=ae758492-79f2-476f-b0b6-5b6613e02dd5"},"vehicle_type_id":"4","last_reported":1774615184,"current_range_meters":6800,"station_id":"st_cvj6sg6p6f1abm77japg","pricing_plan_id":"cebpf4jnsgd1na2vs0mg"},{"bike_id":"20ba71e0-3d55-4d07-b402-43fab81f2269","system_id":"levelo_inurba_marseille","lat":43.30756,"lon":5.36788,"is_reserved":false,"is_disabled":false,"rental_uris":{"android":"levelo://app?vid=20ba71e0-3d55-4d07-b402-43fab81f2269","ios":"levelo://app?vid=20ba71e0-3d55-4d07-b402-43fab81f2269"},"vehicle_type_id":"4","last_reported":1774615184,"current_range_meters":6800,"station_id":"ce4bgn92rcd13ifvqbvg","pricing_plan_id":"cebpf4jnsgd1na2vs0mg"},{"bike_id":"5d4074f7-be9f-44d7-b283-987566d29577","system_id":"levelo_inurba_marseille","lat":43.29906,"lon":5.38134,"is_reserved":false,"is_disabled":false,"rental_uris":{"android":"levelo://app?vid=5d4074f7-be9f-44d7-b283-987566d29577","ios":"levelo://app?vid=5d4074f7-be9f-44d7-b283-987566d29577"},"vehicle_type_id":"4","last_reported":1774615184,"current_range_meters":6800,"station_id":"ce4bgj12rcd13ifvqbc0","pricing_plan_id":"cebpf4jnsgd1na2vs0mg"},{"bike_id":"0a77b6e1-05db-46f0-a0db-225ba15242da","system_id":"levelo_inurba_marseille","lat":43.24674,"lon":5.38174,"is_reserved":false,"is_disabled":false,"rental_uris":{"android":"levelo://app?vid=0a77b6e1-05db-46f0-a0db-225ba15242da","ios":"levelo://app?vid=0a77b6e1-05db-46f0-a0db-225ba15242da"},"vehicle_type_id":"4","last_reported":1774615184,"current_range_meters":6800,"station_id":"ce4bhih2rcd13ifvqfr0","pricing_plan_id":"cebpf4jnsgd1na2vs0mg"},{"bike_id":"b38373c4-334e-43c0-8346-e67621fa9685","system_id":"levelo_inurba_marseille","lat":43.21189,"lon":5.35074,"is_reserved":false,"is_disabled":false,"rental_uris":{"android":"levelo://app?vid=b38373c4-334e-43c0-8346-e67621fa9685","ios":"levelo://app?vid=b38373c4-334e-43c0-8346-e67621fa9685"},"vehicle_type_id":"4","last_reported":1774615184,"current_range_meters":6800,"station_id":"st_cvj6sg6p6f1abm77japg","pricing_plan_id":"cebpf4jnsgd1na2vs0mg"},{"bike_id":"ed9b8903-fd7a-4bcd-a2f1-b692211d5c75","system_id":"levelo_inurba_marseille","lat":43.29823,"lon":5.4406,"is_reserved":false,"is_disabled":false,"rental_uris":{"android":"levelo://app?vid=ed9b8903-fd7a-4bcd-a2f1-b692211d5c75","ios":"levelo://app?vid=ed9b8903-fd7a-4bcd-a2f1-b692211d5c75"},"vehicle_type_id":"4","last_reported":1774615184,"current_range_meters":6800,"station_id":"st_d3jp68qikq2c7381ktn0","pricing_plan_id":"cebpf4jnsgd1na2vs0mg"},{"bike_id":"6401ef32-1158-4b92-959d-18b1f69f9ec5","system_id":"levelo_inurba_marseille","lat":43.337444,"lon":5.374475,"is_reserved":false,"is_disabled":false,"rental_uris":{"android":"levelo://app?vid=6401ef32-1158-4b92-959d-18b1f69f9ec5","ios":"levelo://app?vid=6401ef32-1158-4b92-959d-18b1f69f9ec5"},"vehicle_type_id":"4","last_reported":1774615184,"current_range_meters":6800,"station_id":"","pricing_plan_id":"cebpf4jnsgd1na2vs0mg"},{"bike_id":"23073227-3a78-43b2-9a20-abb8d01d4e7c","system_id":"levelo_inurba_marseille","lat":43.25583,"lon":5.38223,"is_reserved":false,"is_disabled":false,"rental_uris":{"android":"levelo://app?vid=23073227-3a78-43b2-9a20-abb8d01d4e7c","ios":"levelo://app?vid=23073227-3a78-43b2-9a20-abb8d01d4e7c"},"vehicle_type_id":"4","last_reported":1774615184,"current_range_meters":7200,"station_id":"ce4bhih2rcd13ifvqfs0","pricing_plan_id":"cebpf4jnsgd1na2vs0mg"},{"bike_id":"3d32f962-b55a-4d54-b5e9-049a588531b0","system_id":"levelo_inurba_marseille","lat":43.29638,"lon":5.37727,"is_reserved":false,"is_disabled":false,"rental_uris":{"android":"levelo://app?vid=3d32f962-b55a-4d54-b5e9-049a588531b0","ios":"levelo://app?vid=3d32f962-b55a-4d54-b5e9-049a588531b0"},"vehicle_type_id":"4","last_reported":1774615184,"current_range_meters":7200,"station_id":"ce4bgi92rcd13ifvqb90","pricing_plan_id":"cebpf4jnsgd1na2vs0mg"},{"bike_id":"553f6162-9bab-43c3-b5f1-09ad8ba5c227","system_id":"levelo_inurba_marseille","lat":43.26181,"lon":5.39351,"is_reserved":false,"is_disabled":false,"rental_uris":{"android":"levelo://app?vid=553f6162-9bab-43c3-b5f1-09ad8ba5c227","ios":"levelo://app?vid=553f6162-9bab-43c3-b5f1-09ad8ba5c227"},"vehicle_type_id":"4","last_reported":1774615184,"current_range_meters":7200,"station_id":"","pricing_plan_id":"cebpf4jnsgd1na2vs0mg"},{"bike_id":"b6e8f2fa-fae4-4140-af91-d0651531ab91","system_id":"levelo_inurba_marseille","lat":43.22571,"lon":5.4163,"is_reserved":false,"is_disabled":false,"rental_uris":{"android":"levelo://app?vid=b6e8f2fa-fae4-4140-af91-d0651531ab91","ios":"levelo://app?vid=b6e8f2fa-fae4-4140-af91-d0651531ab91"},"vehicle_type_id":"4","last_reported":1774615184,"current_range_meters":7200,"station_id":"st_d2o4gvlbi1j2169b742g","pricing_plan_id":"cebpf4jnsgd1na2vs0mg"},{"bike_id":"7b0174b4-4edc-4094-ae15-e6f9c8abcf29","system_id":"levelo_inurba_marseille","lat":43.29554,"lon":5.37526,"is_reserved":false,"is_disabled":false,"rental_uris":{"android":"levelo://app?vid=7b0174b4-4edc-4094-ae15-e6f9c8abcf29","ios":"levelo://app?vid=7b0174b4-4edc-4094-ae15-e6f9c8abcf29"},"vehicle_type_id":"4","last_reported":1774615184,"current_range_meters":7200,"station_id":"ce4bgh92rcd13ifvqb50","pricing_plan_id":"cebpf4jnsgd1na2vs0mg"},{"bike_id":"ac130e88-9e2f-4bea-b0d7-97afed67ab83","system_id":"levelo_inurba_marseille","lat":43.32349,"lon":5.3673,"is_reserved":false,"is_disabled":false,"rental_uris":{"android":"levelo://app?vid=ac130e88-9e2f-4bea-b0d7-97afed67ab83","ios":"levelo://app?vid=ac130e88-9e2f-4bea-b0d7-97afed67ab83"},"vehicle_type_id":"4","last_reported":1774615184,"current_range_meters":7200,"station_id":"ce4bhsh2rcd13ifvqi2g","pricing_plan_id":"cebpf4jnsgd1na2vs0mg"},{"bike_id":"f3a2a15f-dacc-4b34-a7b3-35ff58f8f02a","system_id":"levelo_inurba_marseille","lat":43.23156,"lon":5.43703,"is_reserved":false,"is_disabled":false,"rental_uris":{"android":"levelo://app?vid=f3a2a15f-dacc-4b34-a7b3-35ff58f8f02a","ios":"levelo://app?vid=f3a2a15f-dacc-4b34-a7b3-35ff58f8f02a"},"vehicle_type_id":"4","last_reported":1774615184,"current_range_meters":7200,"station_id":"ce4bhmp2rcd13ifvqgog","pricing_plan_id":"cebpf4jnsgd1na2vs0mg"},{"bike_id":"c24bc431-ded0-4618-b64c-e21b5bde7f3d","system_id":"levelo_inurba_marseille","lat":43.30943,"lon":5.3911,"is_reserved":false,"is_disabled":false,"rental_uris":{"android":"levelo://app?vid=c24bc431-ded0-4618-b64c-e21b5bde7f3d","ios":"levelo://app?vid=c24bc431-ded0-4618-b64c-e21b5bde7f3d"},"vehicle_type_id":"4","last_reported":1774615184,"current_range_meters":7200,"station_id":"","pricing_plan_id":"cebpf4jnsgd1na2vs0mg"},{"bike_id":"41215aec-5f35-41c4-8875-01313ebb4475","system_id":"levelo_inurba_marseille","lat":43.28884,"lon":5.43769,"is_reserved":false,"is_disabled":false,"rental_uris":{"android":"levelo://app?vid=41215aec-5f35-41c4-8875-01313ebb4475","ios":"levelo://app?vid=41215aec-5f35-41c4-8875-01313ebb4475"},"vehicle_type_id":"4","last_reported":1774615184,"current_range_meters":7200,"station_id":"","pricing_plan_id":"cebpf4jnsgd1na2vs0mg"},{"bike_id":"33c4c740-db80-485d-9c0e-f3083e547def","system_id":"levelo_inurba_marseille","lat":43.22579,"lon":5.4156,"is_reserved":false,"is_disabled":false,"rental_uris":{"android":"levelo://app?vid=33c4c740-db80-485d-9c0e-f3083e547def","ios":"levelo://app?vid=33c4c740-db80-485d-9c0e-f3083e547def"},"vehicle_type_id":"4","last_reported":1774615184,"current_range_meters":7200,"station_id":"","pricing_plan_id":"cebpf4jnsgd1na2vs0mg"},{"bike_id":"f67a31b2-11db-4330-9a58-5ff9c0fdd764","system_id":"levelo_inurba_marseille","lat":43.29625,"lon":5.37156,"is_reserved":false,"is_disabled":false,"rental_uris":{"android":"levelo://app?vid=f67a31b2-11db-4330-9a58-5ff9c0fdd764","ios":"levelo://app?vid=f67a31b2-11db-4330-9a58-5ff9c0fdd764"},"vehicle_type_id":"4","last_reported":1774615184,"current_range_meters":7200,"station_id":"ce4bgnh2rcd13ifvqc0g","pricing_plan_id":"cebpf4jnsgd1na2vs0mg"},{"bike_id":"5ff0b8e0-c6fc-4471-b906-1fb573f75580","system_id":"levelo_inurba_marseille","lat":43.26764,"lon":5.39419,"is_reserved":false,"is_disabled":false,"rental_uris":{"android":"levelo://app?vid=5ff0b8e0-c6fc-4471-b906-1fb573f75580","ios":"levelo://app?vid=5ff0b8e0-c6fc-4471-b906-1fb573f75580"},"vehicle_type_id":"4","last_reported":1774615184,"current_range_meters":7200,"station_id":"ce4bhh12rcd13ifvqfg0","pricing_plan_id":"cebpf4jnsgd1na2vs0mg"},{"bike_id":"76c2c9eb-e102-4bd2-8228-7fcdfd34ccbe","system_id":"levelo_inurba_marseille","lat":43.24664,"lon":5.38161,"is_reserved":false,"is_disabled":false,"rental_uris":{"android":"levelo://app?vid=76c2c9eb-e102-4bd2-8228-7fcdfd34ccbe","ios":"levelo://app?vid=76c2c9eb-e102-4bd2-8228-7fcdfd34ccbe"},"vehicle_type_id":"4","last_reported":1774615184,"current_range_meters":7200,"station_id":"ce4bhih2rcd13ifvqfr0","pricing_plan_id":"cebpf4jnsgd1na2vs0mg"},{"bike_id":"e7c950ae-a2fe-4611-a272-b0283c363a43","system_id":"levelo_inurba_marseille","lat":43.23138,"lon":5.43723,"is_reserved":false,"is_disabled":false,"rental_uris":{"android":"levelo://app?vid=e7c950ae-a2fe-4611-a272-b0283c363a43","ios":"levelo://app?vid=e7c950ae-a2fe-4611-a272-b0283c363a43"},"vehicle_type_id":"4","last_reported":1774615184,"current_range_meters":7200,"station_id":"ce4bhmp2rcd13ifvqgog","pricing_plan_id":"cebpf4jnsgd1na2vs0mg"},{"bike_id":"361bff30-6f65-4179-8930-4ff3d21333ec","system_id":"levelo_inurba_marseille","lat":43.27218,"lon":5.4098,"is_reserved":false,"is_disabled":false,"rental_uris":{"android":"levelo://app?vid=361bff30-6f65-4179-8930-4ff3d21333ec","ios":"levelo://app?vid=361bff30-6f65-4179-8930-4ff3d21333ec"},"vehicle_type_id":"4","last_reported":1774615184,"current_range_meters":8000,"station_id":"","pricing_plan_id":"cebpf4jnsgd1na2vs0mg"},{"bike_id":"631b1436-0bce-4e25-a422-5518de19ad77","system_id":"levelo_inurba_marseille","lat":43.28617,"lon":5.35101,"is_reserved":false,"is_disabled":false,"rental_uris":{"android":"levelo://app?vid=631b1436-0bce-4e25-a422-5518de19ad77","ios":"levelo://app?vid=631b1436-0bce-4e25-a422-5518de19ad77"},"vehicle_type_id":"4","last_reported":1774615184,"current_range_meters":8000,"station_id":"ce4bhch2rcd13ifvqeug","pricing_plan_id":"cebpf4jnsgd1na2vs0mg"},{"bike_id":"b0397b9f-5de1-4c92-8cc4-1208eca2a7d2","system_id":"levelo_inurba_marseille","lat":43.23151,"lon":5.4371,"is_reserved":false,"is_disabled":false,"rental_uris":{"android":"levelo://app?vid=b0397b9f-5de1-4c92-8cc4-1208eca2a7d2","ios":"levelo://app?vid=b0397b9f-5de1-4c92-8cc4-1208eca2a7d2"},"vehicle_type_id":"4","last_reported":1774615184,"current_range_meters":8000,"station_id":"ce4bhmp2rcd13ifvqgog","pricing_plan_id":"cebpf4jnsgd1na2vs0mg"},{"bike_id":"cd9d9b00-0f0e-4b81-98a5-32faab1cebb6","system_id":"levelo_inurba_marseille","lat":43.28415,"lon":5.34988,"is_reserved":false,"is_disabled":false,"rental_uris":{"android":"levelo://app?vid=cd9d9b00-0f0e-4b81-98a5-32faab1cebb6","ios":"levelo://app?vid=cd9d9b00-0f0e-4b81-98a5-32faab1cebb6"},"vehicle_type_id":"4","last_reported":1774615184,"current_range_meters":8000,"station_id":"ce4bhbh2rcd13ifvqepg","pricing_plan_id":"cebpf4jnsgd1na2vs0mg"},{"bike_id":"06594744-b5e1-46e8-b349-34c5ee793cf2","system_id":"levelo_inurba_marseille","lat":43.23147,"lon":5.43714,"is_reserved":false,"is_disabled":false,"rental_uris":{"android":"levelo://app?vid=06594744-b5e1-46e8-b349-34c5ee793cf2","ios":"levelo://app?vid=06594744-b5e1-46e8-b349-34c5ee793cf2"},"vehicle_type_id":"4","last_reported":1774615184,"current_range_meters":8000,"station_id":"ce4bhmp2rcd13ifvqgog","pricing_plan_id":"cebpf4jnsgd1na2vs0mg"},{"bike_id":"3c46df3f-f171-4967-bfe8-4d0fe3777ef0","system_id":"levelo_inurba_marseille","lat":43.27804,"lon":5.40739,"is_reserved":false,"is_disabled":false,"rental_uris":{"android":"levelo://app?vid=3c46df3f-f171-4967-bfe8-4d0fe3777ef0","ios":"levelo://app?vid=3c46df3f-f171-4967-bfe8-4d0fe3777ef0"},"vehicle_type_id":"4","last_reported":1774615184,"current_range_meters":8000,"station_id":"ce4bhnh2rcd13ifvqgtg","pricing_plan_id":"cebpf4jnsgd1na2vs0mg"},{"bike_id":"23c3e25c-45db-4e4f-b71e-e61afefc210a","system_id":"levelo_inurba_marseille","lat":43.27506,"lon":5.41579,"is_reserved":false,"is_disabled":true,"rental_uris":{"android":"levelo://app?vid=23c3e25c-45db-4e4f-b71e-e61afefc210a","ios":"levelo://app?vid=23c3e25c-45db-4e4f-b71e-e61afefc210a"},"vehicle_type_id":"4","last_reported":1774615184,"current_range_meters":8000,"station_id":"st_d6im8g6chgec73a5pndg","pricing_plan_id":"cebpf4jnsgd1na2vs0mg"},{"bike_id":"a2dc3a3f-4e0d-496d-b246-5d2073e3cd10","system_id":"levelo_inurba_marseille","lat":43.23784,"lon":5.36622,"is_reserved":false,"is_disabled":false,"rental_uris":{"android":"levelo://app?vid=a2dc3a3f-4e0d-496d-b246-5d2073e3cd10","ios":"levelo://app?vid=a2dc3a3f-4e0d-496d-b246-5d2073e3cd10"},"vehicle_type_id":"4","last_reported":1774615184,"current_range_meters":8000,"station_id":"st_d3nk18o9ro0c73en2l3g","pricing_plan_id":"cebpf4jnsgd1na2vs0mg"},{"bike_id":"12492906-ef96-44e4-b1d0-e2da6b5d61ec","system_id":"levelo_inurba_marseille","lat":43.27555,"lon":5.38417,"is_reserved":false,"is_disabled":false,"rental_uris":{"android":"levelo://app?vid=12492906-ef96-44e4-b1d0-e2da6b5d61ec","ios":"levelo://app?vid=12492906-ef96-44e4-b1d0-e2da6b5d61ec"},"vehicle_type_id":"4","last_reported":1774615184,"current_range_meters":8000,"station_id":"ce4bhh92rcd13ifvqfi0","pricing_plan_id":"cebpf4jnsgd1na2vs0mg"},{"bike_id":"bdc54c0f-48f2-41e0-9479-1295be491dee","system_id":"levelo_inurba_marseille","lat":43.30422,"lon":5.41273,"is_reserved":false,"is_disabled":false,"rental_uris":{"android":"levelo://app?vid=bdc54c0f-48f2-41e0-9479-1295be491dee","ios":"levelo://app?vid=bdc54c0f-48f2-41e0-9479-1295be491dee"},"vehicle_type_id":"4","last_reported":1774615184,"current_range_meters":8000,"station_id":"ce4bhop2rcd13ifvqh8g","pricing_plan_id":"cebpf4jnsgd1na2vs0mg"},{"bike_id":"29b8f791-7789-4e9b-8e39-c750aefccf04","system_id":"levelo_inurba_marseille","lat":43.23793,"lon":5.36627,"is_reserved":false,"is_disabled":false,"rental_uris":{"android":"levelo://app?vid=29b8f791-7789-4e9b-8e39-c750aefccf04","ios":"levelo://app?vid=29b8f791-7789-4e9b-8e39-c750aefccf04"},"vehicle_type_id":"4","last_reported":1774615184,"current_range_meters":8000,"station_id":"st_d3nk18o9ro0c73en2l3g","pricing_plan_id":"cebpf4jnsgd1na2vs0mg"},{"bike_id":"0bb41f39-21cb-491a-acd7-36d77bd73997","system_id":"levelo_inurba_marseille","lat":43.24665,"lon":5.38156,"is_reserved":false,"is_disabled":false,"rental_uris":{"android":"levelo://app?vid=0bb41f39-21cb-491a-acd7-36d77bd73997","ios":"levelo://app?vid=0bb41f39-21cb-491a-acd7-36d77bd73997"},"vehicle_type_id":"4","last_reported":1774615184,"current_range_meters":8000,"station_id":"ce4bhih2rcd13ifvqfr0","pricing_plan_id":"cebpf4jnsgd1na2vs0mg"},{"bike_id":"80db360c-7472-4e5e-a72d-ff0ab9900c5d","system_id":"levelo_inurba_marseille","lat":43.29201,"lon":5.42611,"is_reserved":false,"is_disabled":false,"rental_uris":{"android":"levelo://app?vid=80db360c-7472-4e5e-a72d-ff0ab9900c5d","ios":"levelo://app?vid=80db360c-7472-4e5e-a72d-ff0ab9900c5d"},"vehicle_type_id":"4","last_reported":1774615184,"current_range_meters":8000,"station_id":"","pricing_plan_id":"cebpf4jnsgd1na2vs0mg"},{"bike_id":"4397ae44-635b-43b0-a1ea-4e1a061d0889","system_id":"levelo_inurba_marseille","lat":43.24167,"lon":5.36435,"is_reserved":false,"is_disabled":false,"rental_uris":{"android":"levelo://app?vid=4397ae44-635b-43b0-a1ea-4e1a061d0889","ios":"levelo://app?vid=4397ae44-635b-43b0-a1ea-4e1a061d0889"},"vehicle_type_id":"4","last_reported":1774615184,"current_range_meters":8000,"station_id":"cpo36qri1sfpv3e86is0","pricing_plan_id":"cebpf4jnsgd1na2vs0mg"},{"bike_id":"885cc689-57e8-4d95-8cdc-ecb3e6fa8c21","system_id":"levelo_inurba_marseille","lat":43.26354,"lon":5.41127,"is_reserved":false,"is_disabled":false,"rental_uris":{"android":"levelo://app?vid=885cc689-57e8-4d95-8cdc-ecb3e6fa8c21","ios":"levelo://app?vid=885cc689-57e8-4d95-8cdc-ecb3e6fa8c21"},"vehicle_type_id":"4","last_reported":1774615184,"current_range_meters":8000,"station_id":"st_d4e5ca6na9uc73bfl5fg","pricing_plan_id":"cebpf4jnsgd1na2vs0mg"},{"bike_id":"56cb0588-0cba-43c1-96c5-d16467ba6932","system_id":"levelo_inurba_marseille","lat":43.32524,"lon":5.40898,"is_reserved":false,"is_disabled":false,"rental_uris":{"android":"levelo://app?vid=56cb0588-0cba-43c1-96c5-d16467ba6932","ios":"levelo://app?vid=56cb0588-0cba-43c1-96c5-d16467ba6932"},"vehicle_type_id":"4","last_reported":1774615184,"current_range_meters":8000,"station_id":"","pricing_plan_id":"cebpf4jnsgd1na2vs0mg"},{"bike_id":"6671c61a-045c-4d83-b5a9-69cb797098b8","system_id":"levelo_inurba_marseille","lat":43.34403,"lon":5.35981,"is_reserved":false,"is_disabled":false,"rental_uris":{"android":"levelo://app?vid=6671c61a-045c-4d83-b5a9-69cb797098b8","ios":"levelo://app?vid=6671c61a-045c-4d83-b5a9-69cb797098b8"},"vehicle_type_id":"4","last_reported":1774615184,"current_range_meters":8000,"station_id":"","pricing_plan_id":"cebpf4jnsgd1na2vs0mg"},{"bike_id":"687c5935-2b0b-48be-8e80-121ebef0c090","system_id":"levelo_inurba_marseille","lat":43.28859,"lon":5.35844,"is_reserved":false,"is_disabled":false,"rental_uris":{"android":"levelo://app?vid=687c5935-2b0b-48be-8e80-121ebef0c090","ios":"levelo://app?vid=687c5935-2b0b-48be-8e80-121ebef0c090"},"vehicle_type_id":"4","last_reported":1774615184,"current_range_meters":8400,"station_id":"ce4bhb12rcd13ifvqem0","pricing_plan_id":"cebpf4jnsgd1na2vs0mg"},{"bike_id":"18a91529-06e5-4b51-b178-940cb96e7217","system_id":"levelo_inurba_marseille","lat":43.23784,"lon":5.36628,"is_reserved":false,"is_disabled":false,"rental_uris":{"android":"levelo://app?vid=18a91529-06e5-4b51-b178-940cb96e7217","ios":"levelo://app?vid=18a91529-06e5-4b51-b178-940cb96e7217"},"vehicle_type_id":"4","last_reported":1774615184,"current_range_meters":8400,"station_id":"st_d3nk18o9ro0c73en2l3g","pricing_plan_id":"cebpf4jnsgd1na2vs0mg"},{"bike_id":"ee67d274-4fbd-4321-906c-22d4e8f3bac5","system_id":"levelo_inurba_marseille","lat":43.32491,"lon":5.36577,"is_reserved":false,"is_disabled":false,"rental_uris":{"android":"levelo://app?vid=ee67d274-4fbd-4321-906c-22d4e8f3bac5","ios":"levelo://app?vid=ee67d274-4fbd-4321-906c-22d4e8f3bac5"},"vehicle_type_id":"4","last_reported":1774615184,"current_range_meters":8400,"station_id":"ce4bhs12rcd13ifvqhvg","pricing_plan_id":"cebpf4jnsgd1na2vs0mg"},{"bike_id":"e4b97950-5826-475e-8558-d2e5bcc219f8","system_id":"levelo_inurba_marseille","lat":43.29816,"lon":5.36551,"is_reserved":false,"is_disabled":false,"rental_uris":{"android":"levelo://app?vid=e4b97950-5826-475e-8558-d2e5bcc219f8","ios":"levelo://app?vid=e4b97950-5826-475e-8558-d2e5bcc219f8"},"vehicle_type_id":"4","last_reported":1774615184,"current_range_meters":8400,"station_id":"","pricing_plan_id":"cebpf4jnsgd1na2vs0mg"},{"bike_id":"9514a192-93a3-42d2-82c6-bf4389f61812","system_id":"levelo_inurba_marseille","lat":43.28106,"lon":5.3784,"is_reserved":false,"is_disabled":false,"rental_uris":{"android":"levelo://app?vid=9514a192-93a3-42d2-82c6-bf4389f61812","ios":"levelo://app?vid=9514a192-93a3-42d2-82c6-bf4389f61812"},"vehicle_type_id":"4","last_reported":1774615184,"current_range_meters":8400,"station_id":"ce4bha12rcd13ifvqee0","pricing_plan_id":"cebpf4jnsgd1na2vs0mg"},{"bike_id":"e369da6f-cf9a-43c1-bdbc-66801ef116da","system_id":"levelo_inurba_marseille","lat":43.28618,"lon":5.35106,"is_reserved":false,"is_disabled":false,"rental_uris":{"android":"levelo://app?vid=e369da6f-cf9a-43c1-bdbc-66801ef116da","ios":"levelo://app?vid=e369da6f-cf9a-43c1-bdbc-66801ef116da"},"vehicle_type_id":"4","last_reported":1774615184,"current_range_meters":8400,"station_id":"ce4bhch2rcd13ifvqeug","pricing_plan_id":"cebpf4jnsgd1na2vs0mg"},{"bike_id":"7993b2a6-ccf1-42a0-9307-e94116230608","system_id":"levelo_inurba_marseille","lat":43.28619,"lon":5.35102,"is_reserved":false,"is_disabled":false,"rental_uris":{"android":"levelo://app?vid=7993b2a6-ccf1-42a0-9307-e94116230608","ios":"levelo://app?vid=7993b2a6-ccf1-42a0-9307-e94116230608"},"vehicle_type_id":"4","last_reported":1774615184,"current_range_meters":8400,"station_id":"ce4bhch2rcd13ifvqeug","pricing_plan_id":"cebpf4jnsgd1na2vs0mg"},{"bike_id":"27f65587-f91a-41b1-aacf-8da5e702b79e","system_id":"levelo_inurba_marseille","lat":43.29765,"lon":5.42772,"is_reserved":false,"is_disabled":false,"rental_uris":{"android":"levelo://app?vid=27f65587-f91a-41b1-aacf-8da5e702b79e","ios":"levelo://app?vid=27f65587-f91a-41b1-aacf-8da5e702b79e"},"vehicle_type_id":"4","last_reported":1774615184,"current_range_meters":8400,"station_id":"st_d3md5207bmas73dh9klg","pricing_plan_id":"cebpf4jnsgd1na2vs0mg"},{"bike_id":"70735250-f55d-426f-86fe-cd374ca04154","system_id":"levelo_inurba_marseille","lat":43.29232,"lon":5.36069,"is_reserved":false,"is_disabled":false,"rental_uris":{"android":"levelo://app?vid=70735250-f55d-426f-86fe-cd374ca04154","ios":"levelo://app?vid=70735250-f55d-426f-86fe-cd374ca04154"},"vehicle_type_id":"4","last_reported":1774615184,"current_range_meters":8400,"station_id":"ce4bhbh2rcd13ifvqeqg","pricing_plan_id":"cebpf4jnsgd1na2vs0mg"},{"bike_id":"86723fb3-7a32-4a1d-b53a-b3b04e07fae1","system_id":"levelo_inurba_marseille","lat":43.31054,"lon":5.37155,"is_reserved":false,"is_disabled":false,"rental_uris":{"android":"levelo://app?vid=86723fb3-7a32-4a1d-b53a-b3b04e07fae1","ios":"levelo://app?vid=86723fb3-7a32-4a1d-b53a-b3b04e07fae1"},"vehicle_type_id":"4","last_reported":1774615184,"current_range_meters":8400,"station_id":"st_d4kl2rp97mjs73e7tdfg","pricing_plan_id":"cebpf4jnsgd1na2vs0mg"},{"bike_id":"a858ea89-34aa-421e-b0a5-1ea8bb4dbce1","system_id":"levelo_inurba_marseille","lat":43.29273,"lon":5.36843,"is_reserved":false,"is_disabled":false,"rental_uris":{"android":"levelo://app?vid=a858ea89-34aa-421e-b0a5-1ea8bb4dbce1","ios":"levelo://app?vid=a858ea89-34aa-421e-b0a5-1ea8bb4dbce1"},"vehicle_type_id":"4","last_reported":1774615184,"current_range_meters":8400,"station_id":"ce4bhbp2rcd13ifvqesg","pricing_plan_id":"cebpf4jnsgd1na2vs0mg"},{"bike_id":"5c23e0f0-3718-460a-acbf-0792e1920dc6","system_id":"levelo_inurba_marseille","lat":43.28446,"lon":5.34971,"is_reserved":false,"is_disabled":false,"rental_uris":{"android":"levelo://app?vid=5c23e0f0-3718-460a-acbf-0792e1920dc6","ios":"levelo://app?vid=5c23e0f0-3718-460a-acbf-0792e1920dc6"},"vehicle_type_id":"4","last_reported":1774615184,"current_range_meters":8400,"station_id":"ce4bhbh2rcd13ifvqepg","pricing_plan_id":"cebpf4jnsgd1na2vs0mg"},{"bike_id":"be500756-1c0b-4c02-b419-04946b950617","system_id":"levelo_inurba_marseille","lat":43.26355,"lon":5.41065,"is_reserved":false,"is_disabled":false,"rental_uris":{"android":"levelo://app?vid=be500756-1c0b-4c02-b419-04946b950617","ios":"levelo://app?vid=be500756-1c0b-4c02-b419-04946b950617"},"vehicle_type_id":"4","last_reported":1774615184,"current_range_meters":8400,"station_id":"st_d4e5ca6na9uc73bfl5fg","pricing_plan_id":"cebpf4jnsgd1na2vs0mg"},{"bike_id":"23cf329e-2a98-4eef-833e-24c2dd24a483","system_id":"levelo_inurba_marseille","lat":43.30884,"lon":5.39633,"is_reserved":false,"is_disabled":false,"rental_uris":{"android":"levelo://app?vid=23cf329e-2a98-4eef-833e-24c2dd24a483","ios":"levelo://app?vid=23cf329e-2a98-4eef-833e-24c2dd24a483"},"vehicle_type_id":"4","last_reported":1774615184,"current_range_meters":8800,"station_id":"ce4bh012rcd13ifvqcv0","pricing_plan_id":"cebpf4jnsgd1na2vs0mg"},{"bike_id":"d853da6c-5cf5-41ea-807a-d36018f85d3c","system_id":"levelo_inurba_marseille","lat":43.23207,"lon":5.3999,"is_reserved":false,"is_disabled":true,"rental_uris":{"android":"levelo://app?vid=d853da6c-5cf5-41ea-807a-d36018f85d3c","ios":"levelo://app?vid=d853da6c-5cf5-41ea-807a-d36018f85d3c"},"vehicle_type_id":"4","last_reported":1774615184,"current_range_meters":8800,"station_id":"ce4bhn12rcd13ifvqgqg","pricing_plan_id":"cebpf4jnsgd1na2vs0mg"},{"bike_id":"6d1dd35d-1ce3-4297-9706-721b82716928","system_id":"levelo_inurba_marseille","lat":43.23778,"lon":5.36639,"is_reserved":false,"is_disabled":false,"rental_uris":{"android":"levelo://app?vid=6d1dd35d-1ce3-4297-9706-721b82716928","ios":"levelo://app?vid=6d1dd35d-1ce3-4297-9706-721b82716928"},"vehicle_type_id":"4","last_reported":1774615184,"current_range_meters":8800,"station_id":"st_d3nk18o9ro0c73en2l3g","pricing_plan_id":"cebpf4jnsgd1na2vs0mg"},{"bike_id":"ae213515-fd99-49eb-ae7e-6def076cc3a2","system_id":"levelo_inurba_marseille","lat":43.31764,"lon":5.39025,"is_reserved":false,"is_disabled":false,"rental_uris":{"android":"levelo://app?vid=ae213515-fd99-49eb-ae7e-6def076cc3a2","ios":"levelo://app?vid=ae213515-fd99-49eb-ae7e-6def076cc3a2"},"vehicle_type_id":"4","last_reported":1774615184,"current_range_meters":8800,"station_id":"ce4bhqp2rcd13ifvqhng","pricing_plan_id":"cebpf4jnsgd1na2vs0mg"},{"bike_id":"6a955117-a6f8-4dce-83db-37ec04942146","system_id":"levelo_inurba_marseille","lat":43.30468,"lon":5.37911,"is_reserved":false,"is_disabled":false,"rental_uris":{"android":"levelo://app?vid=6a955117-a6f8-4dce-83db-37ec04942146","ios":"levelo://app?vid=6a955117-a6f8-4dce-83db-37ec04942146"},"vehicle_type_id":"4","last_reported":1774615184,"current_range_meters":8800,"station_id":"ce4bgup2rcd13ifvqcn0","pricing_plan_id":"cebpf4jnsgd1na2vs0mg"},{"bike_id":"28860f21-a5a0-4495-931c-de4d869c17ca","system_id":"levelo_inurba_marseille","lat":43.26558,"lon":5.37278,"is_reserved":false,"is_disabled":false,"rental_uris":{"android":"levelo://app?vid=28860f21-a5a0-4495-931c-de4d869c17ca","ios":"levelo://app?vid=28860f21-a5a0-4495-931c-de4d869c17ca"},"vehicle_type_id":"4","last_reported":1774615184,"current_range_meters":8800,"station_id":"ce4bhg12rcd13ifvqf70","pricing_plan_id":"cebpf4jnsgd1na2vs0mg"},{"bike_id":"2079b28e-e67c-46f2-b341-0eb57b27bb0e","system_id":"levelo_inurba_marseille","lat":43.31238,"lon":5.36859,"is_reserved":false,"is_disabled":false,"rental_uris":{"android":"levelo://app?vid=2079b28e-e67c-46f2-b341-0eb57b27bb0e","ios":"levelo://app?vid=2079b28e-e67c-46f2-b341-0eb57b27bb0e"},"vehicle_type_id":"4","last_reported":1774615184,"current_range_meters":8800,"station_id":"ce4bgl92rcd13ifvqbq0","pricing_plan_id":"cebpf4jnsgd1na2vs0mg"},{"bike_id":"1e0058b4-5990-49eb-b859-8cc188b58512","system_id":"levelo_inurba_marseille","lat":43.24647,"lon":5.38886,"is_reserved":false,"is_disabled":false,"rental_uris":{"android":"levelo://app?vid=1e0058b4-5990-49eb-b859-8cc188b58512","ios":"levelo://app?vid=1e0058b4-5990-49eb-b859-8cc188b58512"},"vehicle_type_id":"4","last_reported":1774615184,"current_range_meters":8800,"station_id":"ce4bhg12rcd13ifvqf60","pricing_plan_id":"cebpf4jnsgd1na2vs0mg"},{"bike_id":"cdf48671-b824-4bd3-9ba9-9bb0058467b7","system_id":"levelo_inurba_marseille","lat":43.28621,"lon":5.3509,"is_reserved":false,"is_disabled":false,"rental_uris":{"android":"levelo://app?vid=cdf48671-b824-4bd3-9ba9-9bb0058467b7","ios":"levelo://app?vid=cdf48671-b824-4bd3-9ba9-9bb0058467b7"},"vehicle_type_id":"4","last_reported":1774615184,"current_range_meters":8800,"station_id":"ce4bhch2rcd13ifvqeug","pricing_plan_id":"cebpf4jnsgd1na2vs0mg"},{"bike_id":"84af83c6-3c1f-453e-8c2d-85b4ffdc5629","system_id":"levelo_inurba_marseille","lat":43.24469,"lon":5.42542,"is_reserved":false,"is_disabled":false,"rental_uris":{"android":"levelo://app?vid=84af83c6-3c1f-453e-8c2d-85b4ffdc5629","ios":"levelo://app?vid=84af83c6-3c1f-453e-8c2d-85b4ffdc5629"},"vehicle_type_id":"4","last_reported":1774615184,"current_range_meters":8800,"station_id":"st_d4a3vfp97mjs738cd8kg","pricing_plan_id":"cebpf4jnsgd1na2vs0mg"},{"bike_id":"530028de-a074-48ce-8e1d-e80fdff6a54e","system_id":"levelo_inurba_marseille","lat":43.26565,"lon":5.38978,"is_reserved":false,"is_disabled":false,"rental_uris":{"android":"levelo://app?vid=530028de-a074-48ce-8e1d-e80fdff6a54e","ios":"levelo://app?vid=530028de-a074-48ce-8e1d-e80fdff6a54e"},"vehicle_type_id":"4","last_reported":1774615184,"current_range_meters":8800,"station_id":"ce4bhe12rcd13ifvqf30","pricing_plan_id":"cebpf4jnsgd1na2vs0mg"},{"bike_id":"30e88e0e-470b-46c9-8ebc-1994865cdbf4","system_id":"levelo_inurba_marseille","lat":43.26222,"lon":5.40442,"is_reserved":false,"is_disabled":false,"rental_uris":{"android":"levelo://app?vid=30e88e0e-470b-46c9-8ebc-1994865cdbf4","ios":"levelo://app?vid=30e88e0e-470b-46c9-8ebc-1994865cdbf4"},"vehicle_type_id":"4","last_reported":1774615184,"current_range_meters":8800,"station_id":"ce4bhmh2rcd13ifvqgmg","pricing_plan_id":"cebpf4jnsgd1na2vs0mg"},{"bike_id":"e827ad63-c88d-46a4-bc98-9917b90409f4","system_id":"levelo_inurba_marseille","lat":43.30121,"lon":5.43115,"is_reserved":false,"is_disabled":false,"rental_uris":{"android":"levelo://app?vid=e827ad63-c88d-46a4-bc98-9917b90409f4","ios":"levelo://app?vid=e827ad63-c88d-46a4-bc98-9917b90409f4"},"vehicle_type_id":"4","last_reported":1774615184,"current_range_meters":8800,"station_id":"st_d3js3co5814s73ftftug","pricing_plan_id":"cebpf4jnsgd1na2vs0mg"},{"bike_id":"459048ff-0c7f-40aa-b3f3-6ef5eae5386a","system_id":"levelo_inurba_marseille","lat":43.23149,"lon":5.43696,"is_reserved":false,"is_disabled":true,"rental_uris":{"android":"levelo://app?vid=459048ff-0c7f-40aa-b3f3-6ef5eae5386a","ios":"levelo://app?vid=459048ff-0c7f-40aa-b3f3-6ef5eae5386a"},"vehicle_type_id":"4","last_reported":1774615184,"current_range_meters":9200,"station_id":"ce4bhmp2rcd13ifvqgog","pricing_plan_id":"cebpf4jnsgd1na2vs0mg"},{"bike_id":"2873a201-01ad-44f0-a3f4-1c2939d32934","system_id":"levelo_inurba_marseille","lat":43.3154,"lon":5.38022,"is_reserved":false,"is_disabled":false,"rental_uris":{"android":"levelo://app?vid=2873a201-01ad-44f0-a3f4-1c2939d32934","ios":"levelo://app?vid=2873a201-01ad-44f0-a3f4-1c2939d32934"},"vehicle_type_id":"4","last_reported":1774615184,"current_range_meters":9200,"station_id":"ce4bhsp2rcd13ifvqi50","pricing_plan_id":"cebpf4jnsgd1na2vs0mg"},{"bike_id":"017cc899-a510-41b6-b2c0-841cd8ab0838","system_id":"levelo_inurba_marseille","lat":43.31215,"lon":5.36855,"is_reserved":false,"is_disabled":false,"rental_uris":{"android":"levelo://app?vid=017cc899-a510-41b6-b2c0-841cd8ab0838","ios":"levelo://app?vid=017cc899-a510-41b6-b2c0-841cd8ab0838"},"vehicle_type_id":"4","last_reported":1774615184,"current_range_meters":9200,"station_id":"ce4bgl92rcd13ifvqbq0","pricing_plan_id":"cebpf4jnsgd1na2vs0mg"},{"bike_id":"28b27287-ec4b-436b-b067-ef179a4dde78","system_id":"levelo_inurba_marseille","lat":43.32111,"lon":5.3676,"is_reserved":false,"is_disabled":false,"rental_uris":{"android":"levelo://app?vid=28b27287-ec4b-436b-b067-ef179a4dde78","ios":"levelo://app?vid=28b27287-ec4b-436b-b067-ef179a4dde78"},"vehicle_type_id":"4","last_reported":1774615184,"current_range_meters":9200,"station_id":"ce4bhrh2rcd13ifvqhug","pricing_plan_id":"cebpf4jnsgd1na2vs0mg"},{"bike_id":"0dfbe600-db42-4e12-aead-9542b5a80cbd","system_id":"levelo_inurba_marseille","lat":43.32657,"lon":5.40993,"is_reserved":false,"is_disabled":false,"rental_uris":{"android":"levelo://app?vid=0dfbe600-db42-4e12-aead-9542b5a80cbd","ios":"levelo://app?vid=0dfbe600-db42-4e12-aead-9542b5a80cbd"},"vehicle_type_id":"4","last_reported":1774615184,"current_range_meters":9200,"station_id":"ce4bhpp2rcd13ifvqhgg","pricing_plan_id":"cebpf4jnsgd1na2vs0mg"},{"bike_id":"773997c8-ab20-410c-8268-f431f7e74dc9","system_id":"levelo_inurba_marseille","lat":43.27809,"lon":5.40698,"is_reserved":false,"is_disabled":false,"rental_uris":{"android":"levelo://app?vid=773997c8-ab20-410c-8268-f431f7e74dc9","ios":"levelo://app?vid=773997c8-ab20-410c-8268-f431f7e74dc9"},"vehicle_type_id":"4","last_reported":1774615184,"current_range_meters":9200,"station_id":"ce4bhnh2rcd13ifvqgtg","pricing_plan_id":"cebpf4jnsgd1na2vs0mg"},{"bike_id":"dd21cd2f-ab57-4cd4-a438-b1fa2bdb0a92","system_id":"levelo_inurba_marseille","lat":43.31189,"lon":5.36861,"is_reserved":false,"is_disabled":false,"rental_uris":{"android":"levelo://app?vid=dd21cd2f-ab57-4cd4-a438-b1fa2bdb0a92","ios":"levelo://app?vid=dd21cd2f-ab57-4cd4-a438-b1fa2bdb0a92"},"vehicle_type_id":"4","last_reported":1774615184,"current_range_meters":9200,"station_id":"ce4bgl92rcd13ifvqbq0","pricing_plan_id":"cebpf4jnsgd1na2vs0mg"},{"bike_id":"8fe4b1f4-9080-46b9-85a2-ce71bc022ee8","system_id":"levelo_inurba_marseille","lat":43.25106,"lon":5.4033,"is_reserved":false,"is_disabled":false,"rental_uris":{"android":"levelo://app?vid=8fe4b1f4-9080-46b9-85a2-ce71bc022ee8","ios":"levelo://app?vid=8fe4b1f4-9080-46b9-85a2-ce71bc022ee8"},"vehicle_type_id":"4","last_reported":1774615184,"current_range_meters":9200,"station_id":"ce4bhlh2rcd13ifvqgig","pricing_plan_id":"cebpf4jnsgd1na2vs0mg"},{"bike_id":"82bb8b8e-f57e-40ca-9893-62a813abcb13","system_id":"levelo_inurba_marseille","lat":43.27315,"lon":5.39074,"is_reserved":false,"is_disabled":false,"rental_uris":{"android":"levelo://app?vid=82bb8b8e-f57e-40ca-9893-62a813abcb13","ios":"levelo://app?vid=82bb8b8e-f57e-40ca-9893-62a813abcb13"},"vehicle_type_id":"4","last_reported":1774615184,"current_range_meters":9200,"station_id":"ce4bhgp2rcd13ifvqfe0","pricing_plan_id":"cebpf4jnsgd1na2vs0mg"},{"bike_id":"950609d1-dba2-4f21-90bf-a5ae736bc13f","system_id":"levelo_inurba_marseille","lat":43.24058,"lon":5.37754,"is_reserved":false,"is_disabled":false,"rental_uris":{"android":"levelo://app?vid=950609d1-dba2-4f21-90bf-a5ae736bc13f","ios":"levelo://app?vid=950609d1-dba2-4f21-90bf-a5ae736bc13f"},"vehicle_type_id":"4","last_reported":1774615184,"current_range_meters":9200,"station_id":"ce4bhnp2rcd13ifvqgvg","pricing_plan_id":"cebpf4jnsgd1na2vs0mg"},{"bike_id":"66082ae4-27a1-45f1-a299-9a130ccf5757","system_id":"levelo_inurba_marseille","lat":43.30951,"lon":5.39022,"is_reserved":false,"is_disabled":false,"rental_uris":{"android":"levelo://app?vid=66082ae4-27a1-45f1-a299-9a130ccf5757","ios":"levelo://app?vid=66082ae4-27a1-45f1-a299-9a130ccf5757"},"vehicle_type_id":"4","last_reported":1774615184,"current_range_meters":9200,"station_id":"ce4bgup2rcd13ifvqco0","pricing_plan_id":"cebpf4jnsgd1na2vs0mg"},{"bike_id":"13f0b17e-29eb-412c-8112-136d3a354331","system_id":"levelo_inurba_marseille","lat":43.28559,"lon":5.39533,"is_reserved":false,"is_disabled":false,"rental_uris":{"android":"levelo://app?vid=13f0b17e-29eb-412c-8112-136d3a354331","ios":"levelo://app?vid=13f0b17e-29eb-412c-8112-136d3a354331"},"vehicle_type_id":"4","last_reported":1774615184,"current_range_meters":9200,"station_id":"ce4bh292rcd13ifvqdg0","pricing_plan_id":"cebpf4jnsgd1na2vs0mg"},{"bike_id":"2d095ec1-44b8-4164-a185-0a73881873fc","system_id":"levelo_inurba_marseille","lat":43.3125,"lon":5.368,"is_reserved":false,"is_disabled":false,"rental_uris":{"android":"levelo://app?vid=2d095ec1-44b8-4164-a185-0a73881873fc","ios":"levelo://app?vid=2d095ec1-44b8-4164-a185-0a73881873fc"},"vehicle_type_id":"4","last_reported":1774615184,"current_range_meters":9200,"station_id":"ce4bgl92rcd13ifvqbq0","pricing_plan_id":"cebpf4jnsgd1na2vs0mg"},{"bike_id":"3137e3ea-7797-4cae-a237-2a996dd9ad4a","system_id":"levelo_inurba_marseille","lat":43.28485,"lon":5.48387,"is_reserved":false,"is_disabled":false,"rental_uris":{"android":"levelo://app?vid=3137e3ea-7797-4cae-a237-2a996dd9ad4a","ios":"levelo://app?vid=3137e3ea-7797-4cae-a237-2a996dd9ad4a"},"vehicle_type_id":"4","last_reported":1774615184,"current_range_meters":9600,"station_id":"","pricing_plan_id":"cebpf4jnsgd1na2vs0mg"},{"bike_id":"38d4b5fb-6c40-49bc-8782-b1dbf5006ae3","system_id":"levelo_inurba_marseille","lat":43.24171,"lon":5.39718,"is_reserved":false,"is_disabled":false,"rental_uris":{"android":"levelo://app?vid=38d4b5fb-6c40-49bc-8782-b1dbf5006ae3","ios":"levelo://app?vid=38d4b5fb-6c40-49bc-8782-b1dbf5006ae3"},"vehicle_type_id":"4","last_reported":1774615184,"current_range_meters":9600,"station_id":"ce4bhn12rcd13ifvqgpg","pricing_plan_id":"cebpf4jnsgd1na2vs0mg"},{"bike_id":"d32cdaf4-dccc-4757-9100-320132e3534c","system_id":"levelo_inurba_marseille","lat":43.286643,"lon":5.386699,"is_reserved":false,"is_disabled":false,"rental_uris":{"android":"levelo://app?vid=d32cdaf4-dccc-4757-9100-320132e3534c","ios":"levelo://app?vid=d32cdaf4-dccc-4757-9100-320132e3534c"},"vehicle_type_id":"4","last_reported":1774615184,"current_range_meters":9600,"station_id":"ce4bh492rcd13ifvqdug","pricing_plan_id":"cebpf4jnsgd1na2vs0mg"},{"bike_id":"3629b600-0973-43f7-911e-b3eb2f49b025","system_id":"levelo_inurba_marseille","lat":43.33541,"lon":5.37469,"is_reserved":false,"is_disabled":false,"rental_uris":{"android":"levelo://app?vid=3629b600-0973-43f7-911e-b3eb2f49b025","ios":"levelo://app?vid=3629b600-0973-43f7-911e-b3eb2f49b025"},"vehicle_type_id":"4","last_reported":1774615184,"current_range_meters":9600,"station_id":"st_d46tts09ee8s73dlu43g","pricing_plan_id":"cebpf4jnsgd1na2vs0mg"},{"bike_id":"c5412bb6-bec7-4456-bdb3-6b87df0ff39f","system_id":"levelo_inurba_marseille","lat":43.31203,"lon":5.36838,"is_reserved":false,"is_disabled":false,"rental_uris":{"android":"levelo://app?vid=c5412bb6-bec7-4456-bdb3-6b87df0ff39f","ios":"levelo://app?vid=c5412bb6-bec7-4456-bdb3-6b87df0ff39f"},"vehicle_type_id":"4","last_reported":1774615184,"current_range_meters":9600,"station_id":"ce4bgl92rcd13ifvqbq0","pricing_plan_id":"cebpf4jnsgd1na2vs0mg"},{"bike_id":"a926aea5-5e67-4e6b-9d4a-93bd23ad635a","system_id":"levelo_inurba_marseille","lat":43.27183,"lon":5.40983,"is_reserved":false,"is_disabled":false,"rental_uris":{"android":"levelo://app?vid=a926aea5-5e67-4e6b-9d4a-93bd23ad635a","ios":"levelo://app?vid=a926aea5-5e67-4e6b-9d4a-93bd23ad635a"},"vehicle_type_id":"4","last_reported":1774615184,"current_range_meters":9600,"station_id":"ce4bhl12rcd13ifvqgf0","pricing_plan_id":"cebpf4jnsgd1na2vs0mg"},{"bike_id":"a16ca1ac-390e-40aa-b1ec-41349dcbef8b","system_id":"levelo_inurba_marseille","lat":43.30543,"lon":5.36516,"is_reserved":false,"is_disabled":false,"rental_uris":{"android":"levelo://app?vid=a16ca1ac-390e-40aa-b1ec-41349dcbef8b","ios":"levelo://app?vid=a16ca1ac-390e-40aa-b1ec-41349dcbef8b"},"vehicle_type_id":"4","last_reported":1774615184,"current_range_meters":9600,"station_id":"ce4bgs12rcd13ifvqcag","pricing_plan_id":"cebpf4jnsgd1na2vs0mg"},{"bike_id":"7d38c45a-0011-4d05-9bbf-54b7323ff394","system_id":"levelo_inurba_marseille","lat":43.26373,"lon":5.41044,"is_reserved":false,"is_disabled":false,"rental_uris":{"android":"levelo://app?vid=7d38c45a-0011-4d05-9bbf-54b7323ff394","ios":"levelo://app?vid=7d38c45a-0011-4d05-9bbf-54b7323ff394"},"vehicle_type_id":"4","last_reported":1774615184,"current_range_meters":9600,"station_id":"st_d4e5ca6na9uc73bfl5fg","pricing_plan_id":"cebpf4jnsgd1na2vs0mg"},{"bike_id":"a36b32fe-3c3c-4e8e-bdc5-ac9d34714bd2","system_id":"levelo_inurba_marseille","lat":43.29874,"lon":5.42062,"is_reserved":false,"is_disabled":false,"rental_uris":{"android":"levelo://app?vid=a36b32fe-3c3c-4e8e-bdc5-ac9d34714bd2","ios":"levelo://app?vid=a36b32fe-3c3c-4e8e-bdc5-ac9d34714bd2"},"vehicle_type_id":"4","last_reported":1774615184,"current_range_meters":9600,"station_id":"st_d6tc004otcvc738tfe70","pricing_plan_id":"cebpf4jnsgd1na2vs0mg"},{"bike_id":"ccae95a5-965a-472f-8138-32ecadf6ef35","system_id":"levelo_inurba_marseille","lat":43.25349,"lon":5.42133,"is_reserved":false,"is_disabled":false,"rental_uris":{"android":"levelo://app?vid=ccae95a5-965a-472f-8138-32ecadf6ef35","ios":"levelo://app?vid=ccae95a5-965a-472f-8138-32ecadf6ef35"},"vehicle_type_id":"4","last_reported":1774615184,"current_range_meters":9600,"station_id":"st_d2m65c5bi1j21697t3ng","pricing_plan_id":"cebpf4jnsgd1na2vs0mg"},{"bike_id":"c177ae44-65c5-493a-9aa4-c7992f0aac69","system_id":"levelo_inurba_marseille","lat":43.30946,"lon":5.39036,"is_reserved":false,"is_disabled":false,"rental_uris":{"android":"levelo://app?vid=c177ae44-65c5-493a-9aa4-c7992f0aac69","ios":"levelo://app?vid=c177ae44-65c5-493a-9aa4-c7992f0aac69"},"vehicle_type_id":"4","last_reported":1774615184,"current_range_meters":9600,"station_id":"ce4bgup2rcd13ifvqco0","pricing_plan_id":"cebpf4jnsgd1na2vs0mg"},{"bike_id":"a1442ecf-8bef-4faf-987d-423dd088262f","system_id":"levelo_inurba_marseille","lat":43.30604,"lon":5.37222,"is_reserved":false,"is_disabled":false,"rental_uris":{"android":"levelo://app?vid=a1442ecf-8bef-4faf-987d-423dd088262f","ios":"levelo://app?vid=a1442ecf-8bef-4faf-987d-423dd088262f"},"vehicle_type_id":"4","last_reported":1774615184,"current_range_meters":9600,"station_id":"ce4bgqh2rcd13ifvqc4g","pricing_plan_id":"cebpf4jnsgd1na2vs0mg"},{"bike_id":"e4b8931c-03ca-41c7-bb73-d8e8fdaf8d69","system_id":"levelo_inurba_marseille","lat":43.25589,"lon":5.38223,"is_reserved":false,"is_disabled":false,"rental_uris":{"android":"levelo://app?vid=e4b8931c-03ca-41c7-bb73-d8e8fdaf8d69","ios":"levelo://app?vid=e4b8931c-03ca-41c7-bb73-d8e8fdaf8d69"},"vehicle_type_id":"4","last_reported":1774615184,"current_range_meters":9600,"station_id":"ce4bhih2rcd13ifvqfs0","pricing_plan_id":"cebpf4jnsgd1na2vs0mg"},{"bike_id":"ac228154-8718-4748-9ee1-0a3b29aa43e9","system_id":"levelo_inurba_marseille","lat":43.2958,"lon":5.36728,"is_reserved":false,"is_disabled":false,"rental_uris":{"android":"levelo://app?vid=ac228154-8718-4748-9ee1-0a3b29aa43e9","ios":"levelo://app?vid=ac228154-8718-4748-9ee1-0a3b29aa43e9"},"vehicle_type_id":"4","last_reported":1774615184,"current_range_meters":9600,"station_id":"ce4bgph2rcd13ifvqc2g","pricing_plan_id":"cebpf4jnsgd1na2vs0mg"},{"bike_id":"333f316c-e951-445b-b7ac-477afd60aafe","system_id":"levelo_inurba_marseille","lat":43.30252,"lon":5.40069,"is_reserved":false,"is_disabled":false,"rental_uris":{"android":"levelo://app?vid=333f316c-e951-445b-b7ac-477afd60aafe","ios":"levelo://app?vid=333f316c-e951-445b-b7ac-477afd60aafe"},"vehicle_type_id":"4","last_reported":1774615184,"current_range_meters":9600,"station_id":"ce4bgvh2rcd13ifvqcs0","pricing_plan_id":"cebpf4jnsgd1na2vs0mg"},{"bike_id":"7aa5aa8e-3159-4602-957b-e49b1795f05c","system_id":"levelo_inurba_marseille","lat":43.29739,"lon":5.37674,"is_reserved":false,"is_disabled":false,"rental_uris":{"android":"levelo://app?vid=7aa5aa8e-3159-4602-957b-e49b1795f05c","ios":"levelo://app?vid=7aa5aa8e-3159-4602-957b-e49b1795f05c"},"vehicle_type_id":"4","last_reported":1774615184,"current_range_meters":9600,"station_id":"ce4bgkh2rcd13ifvqbl0","pricing_plan_id":"cebpf4jnsgd1na2vs0mg"},{"bike_id":"6d106594-19d4-410a-8438-74af7bf89a11","system_id":"levelo_inurba_marseille","lat":43.2843,"lon":5.34962,"is_reserved":false,"is_disabled":false,"rental_uris":{"android":"levelo://app?vid=6d106594-19d4-410a-8438-74af7bf89a11","ios":"levelo://app?vid=6d106594-19d4-410a-8438-74af7bf89a11"},"vehicle_type_id":"4","last_reported":1774615184,"current_range_meters":9600,"station_id":"ce4bhbh2rcd13ifvqepg","pricing_plan_id":"cebpf4jnsgd1na2vs0mg"},{"bike_id":"2d5262be-582c-4d87-a7a2-b4c3f4ed4d38","system_id":"levelo_inurba_marseille","lat":43.22568,"lon":5.41628,"is_reserved":false,"is_disabled":false,"rental_uris":{"android":"levelo://app?vid=2d5262be-582c-4d87-a7a2-b4c3f4ed4d38","ios":"levelo://app?vid=2d5262be-582c-4d87-a7a2-b4c3f4ed4d38"},"vehicle_type_id":"4","last_reported":1774615184,"current_range_meters":9600,"station_id":"st_d2o4gvlbi1j2169b742g","pricing_plan_id":"cebpf4jnsgd1na2vs0mg"},{"bike_id":"0e158215-1434-44e6-b740-9d456d67dba0","system_id":"levelo_inurba_marseille","lat":43.23145,"lon":5.43719,"is_reserved":false,"is_disabled":false,"rental_uris":{"android":"levelo://app?vid=0e158215-1434-44e6-b740-9d456d67dba0","ios":"levelo://app?vid=0e158215-1434-44e6-b740-9d456d67dba0"},"vehicle_type_id":"4","last_reported":1774615184,"current_range_meters":9600,"station_id":"ce4bhmp2rcd13ifvqgog","pricing_plan_id":"cebpf4jnsgd1na2vs0mg"},{"bike_id":"f65cc0ab-7f79-436b-bda7-a98c7447c07e","system_id":"levelo_inurba_marseille","lat":43.23146,"lon":5.437,"is_reserved":false,"is_disabled":false,"rental_uris":{"android":"levelo://app?vid=f65cc0ab-7f79-436b-bda7-a98c7447c07e","ios":"levelo://app?vid=f65cc0ab-7f79-436b-bda7-a98c7447c07e"},"vehicle_type_id":"4","last_reported":1774615184,"current_range_meters":9600,"station_id":"ce4bhmp2rcd13ifvqgog","pricing_plan_id":"cebpf4jnsgd1na2vs0mg"},{"bike_id":"16ebecdb-fde7-47a2-b89d-5251baa3969f","system_id":"levelo_inurba_marseille","lat":43.26031,"lon":5.41732,"is_reserved":false,"is_disabled":false,"rental_uris":{"android":"levelo://app?vid=16ebecdb-fde7-47a2-b89d-5251baa3969f","ios":"levelo://app?vid=16ebecdb-fde7-47a2-b89d-5251baa3969f"},"vehicle_type_id":"4","last_reported":1774615184,"current_range_meters":9600,"station_id":"","pricing_plan_id":"cebpf4jnsgd1na2vs0mg"},