{"last_updated":1746796921,"ttl":60,"version":"2.2","data":{"bikes":[{"bike_id":"c8dca4bb-e856-4aef-9de5-3814d0eb9ded","system_id":"levelo_inurba_marseille","lat":43.28133,"lon":5.40499,"is_reserved":false,"is_disabled":true,"rental_uris":{"android":"levelo://app?vid=c8dca4bb-e856-4aef-9de5-3814d0eb9ded","ios":"levelo://app?vid=c8dca4bb-e856-4aef-9de5-3814d0eb9ded"},"vehicle_type_id":"4","last_reported":1746796921,"current_range_meters":0,"station_id":"","pricing_plan_id":"cebpf4jnsgd1na2vs0mg"},{"bike_id":"e43d995b-a136-4201-b650-ca62eacfe18a","system_id":"levelo_inurba_marseille","lat":43.27138,"lon":5.3636,"is_reserved":false,"is_disabled":true,"rental_uris":{"android":"levelo://app?vid=e43d995b-a136-4201-b650-ca62eacfe18a","ios":"levelo://app?vid=e43d995b-a136-4201-b650-ca62eacfe18a"},"vehicle_type_id":"4","last_reported":1746796921,"current_range_meters":0,"station_id":"","pricing_plan_id":"cebpf4jnsgd1na2vs0mg"},{"bike_id":"9ce8f207-b324-4290-9d4f-1f74be330877","system_id":"levelo_inurba_marseille","lat":43.311227,"lon":5.377615,"is_reserved":false,"is_disabled":true,"rental_uris":{"android":"levelo://app?vid=9ce8f207-b324-4290-9d4f-1f74be330877","ios":"levelo://app?vid=9ce8f207-b324-4290-9d4f-1f74be330877"},"vehicle_type_id":"4","last_reported":1746796921,"current_range_meters":0,"station_id":"ce4bgt92rcd13ifvqcg0","pricing_plan_id":"cebpf4jnsgd1na2vs0mg"},{"bike_id":"df0430f0-2daa-4403-a629-c76d3e787c70","system_id":"levelo_inurba_marseille","lat":43.27208,"lon":5.39175,"is_reserved":false,"is_disabled":true,"rental_uris":{"android":"levelo://app?vid=df0430f0-2daa-4403-a629-c76d3e787c70","ios":"levelo://app?vid=df0430f0-2daa-4403-a629-c76d3e787c70"},"vehicle_type_id":"4","last_reported":1746796921,"current_range_meters":0,"station_id":"ce4bhhp2rcd13ifvqfm0","pricing_plan_id":"cebpf4jnsgd1na2vs0mg"},{"bike_id":"a3696baa-cc66-48e9-be59-6ae7ed7d7d04","system_id":"levelo_inurba_marseille","lat":43.30979,"lon":5.36977,"is_reserved":false,"is_disabled":true,"rental_uris":{"android":"levelo://app?vid=a3696baa-cc66-48e9-be59-6ae7ed7d7d04","ios":"levelo://app?vid=a3696baa-cc66-48e9-be59-6ae7ed7d7d04"},"vehicle_type_id":"4","last_reported":1746796921,"current_range_meters":800,"station_id":"","pricing_plan_id":"cebpf4jnsgd1na2vs0mg"},{"bike_id":"72a0ea38-ffd1-4497-b39d-072366c3d248","system_id":"levelo_inurba_marseille","lat":43.28446,"lon":5.39204,"is_reserved":false,"is_disabled":true,"rental_uris":{"android":"levelo://app?vid=72a0ea38-ffd1-4497-b39d-072366c3d248","ios":"levelo://app?vid=72a0ea38-ffd1-4497-b39d-072366c3d248"},"vehicle_type_id":"4","last_reported":1746796921,"current_range_meters":800,"station_id":"ce4bhoh2rcd13ifvqh5g","pricing_plan_id":"cebpf4jnsgd1na2vs0mg"},{"bike_id":"c70d4a6d-02ef-492a-bb8e-eec7a4433262","system_id":"levelo_inurba_marseille","lat":43.22504,"lon":5.3478,"is_reserved":false,"is_disabled":true,"rental_uris":{"android":"levelo://app?vid=c70d4a6d-02ef-492a-bb8e-eec7a4433262","ios":"levelo://app?vid=c70d4a6d-02ef-492a-bb8e-eec7a4433262"},"vehicle_type_id":"4","last_reported":1746796921,"current_range_meters":1600,"station_id":"st_cvj5dfep6f1abm77gieg","pricing_plan_id":"cebpf4jnsgd1na2vs0mg"},{"bike_id":"be593b88-918b-4c70-bef3-81f4e2b9641c","system_id":"levelo_inurba_marseille","lat":43.21194,"lon":5.3507,"is_reserved":false,"is_disabled":true,"rental_uris":{"android":"levelo://app?vid=be593b88-918b-4c70-bef3-81f4e2b9641c","ios":"levelo://app?vid=be593b88-918b-4c70-bef3-81f4e2b9641c"},"vehicle_type_id":"4","last_reported":1746796921,"current_range_meters":2000,"station_id":"st_cvj6sg6p6f1abm77japg","pricing_plan_id":"cebpf4jnsgd1na2vs0mg"},{"bike_id":"31a2d2c8-f240-4ce3-9c3c-76d38878780b","system_id":"levelo_inurba_marseille","lat":43.31232,"lon":5.36883,"is_reserved":false,"is_disabled":false,"rental_uris":{"android":"levelo://app?vid=31a2d2c8-f240-4ce3-9c3c-76d38878780b","ios":"levelo://app?vid=31a2d2c8-f240-4ce3-9c3c-76d38878780b"},"vehicle_type_id":"4","last_reported":1746796921,"current_range_meters":2800,"station_id":"","pricing_plan_id":"cebpf4jnsgd1na2vs0mg"},{"bike_id":"0a08e25d-53b9-46f5-9755-1249eb6b822b","system_id":"levelo_inurba_marseille","lat":43.30416,"lon":5.41276,"is_reserved":false,"is_disabled":true,"rental_uris":{"android":"levelo://app?vid=0a08e25d-53b9-46f5-9755-1249eb6b822b","ios":"levelo://app?vid=0a08e25d-53b9-46f5-9755-1249eb6b822b"},"vehicle_type_id":"4","last_reported":1746796921,"current_range_meters":2800,"station_id":"ce4bhop2rcd13ifvqh8g","pricing_plan_id":"cebpf4jnsgd1na2vs0mg"},{"bike_id":"0fee1bde-ba20-4d0d-8c94-026680574009","system_id":"levelo_inurba_marseille","lat":43.31333,"lon":5.36726,"is_reserved":false,"is_disabled":false,"rental_uris":{"android":"levelo://app?vid=0fee1bde-ba20-4d0d-8c94-026680574009","ios":"levelo://app?vid=0fee1bde-ba20-4d0d-8c94-026680574009"},"vehicle_type_id":"4","last_reported":1746796921,"current_range_meters":3200,"station_id":"ce4bgr92rcd13ifvqc6g","pricing_plan_id":"cebpf4jnsgd1na2vs0mg"},{"bike_id":"9c5be583-1336-4ba5-aea0-d24f759aba42","system_id":"levelo_inurba_marseille","lat":43.27497,"lon":5.42453,"is_reserved":false,"is_disabled":false,"rental_uris":{"android":"levelo://app?vid=9c5be583-1336-4ba5-aea0-d24f759aba42","ios":"levelo://app?vid=9c5be583-1336-4ba5-aea0-d24f759aba42"},"vehicle_type_id":"4","last_reported":1746796921,"current_range_meters":3200,"station_id":"ce4bhn92rcd13ifvqgrg","pricing_plan_id":"cebpf4jnsgd1na2vs0mg"},{"bike_id":"db90afc0-096c-4c13-9b46-963199b64201","system_id":"levelo_inurba_marseille","lat":43.21768,"lon":5.34611,"is_reserved":false,"is_disabled":false,"rental_uris":{"android":"levelo://app?vid=db90afc0-096c-4c13-9b46-963199b64201","ios":"levelo://app?vid=db90afc0-096c-4c13-9b46-963199b64201"},"vehicle_type_id":"4","last_reported":1746796921,"current_range_meters":3600,"station_id":"st_cvj6r9ubvosntc0bgbag","pricing_plan_id":"cebpf4jnsgd1na2vs0mg"},{"bike_id":"8dcf11af-d8f8-4a78-b766-56ee425f08bb","system_id":"levelo_inurba_marseille","lat":43.2944,"lon":5.3917,"is_reserved":false,"is_disabled":false,"rental_uris":{"android":"levelo://app?vid=8dcf11af-d8f8-4a78-b766-56ee425f08bb","ios":"levelo://app?vid=8dcf11af-d8f8-4a78-b766-56ee425f08bb"},"vehicle_type_id":"4","last_reported":1746796921,"current_range_meters":4000,"station_id":"","pricing_plan_id":"cebpf4jnsgd1na2vs0mg"},{"bike_id":"cabd842c-640d-42d6-9af9-fe16fe1cbaaa","system_id":"levelo_inurba_marseille","lat":43.25584,"lon":5.38231,"is_reserved":false,"is_disabled":false,"rental_uris":{"android":"levelo://app?vid=cabd842c-640d-42d6-9af9-fe16fe1cbaaa","ios":"levelo://app?vid=cabd842c-640d-42d6-9af9-fe16fe1cbaaa"},"vehicle_type_id":"4","last_reported":1746796921,"current_range_meters":4000,"station_id":"ce4bhih2rcd13ifvqfs0","pricing_plan_id":"cebpf4jnsgd1na2vs0mg"},{"bike_id":"e70a6cc7-17eb-4c4e-8e7c-f66b5cfc0fab","system_id":"levelo_inurba_marseille","lat":43.2118,"lon":5.35048,"is_reserved":false,"is_disabled":false,"rental_uris":{"android":"levelo://app?vid=e70a6cc7-17eb-4c4e-8e7c-f66b5cfc0fab","ios":"levelo://app?vid=e70a6cc7-17eb-4c4e-8e7c-f66b5cfc0fab"},"vehicle_type_id":"4","last_reported":1746796921,"current_range_meters":4000,"station_id":"st_cvj6sg6p6f1abm77japg","pricing_plan_id":"cebpf4jnsgd1na2vs0mg"},{"bike_id":"f422e94b-fde0-4ff4-87f6-c497bb51c460","system_id":"levelo_inurba_marseille","lat":43.27131,"lon":5.392503,"is_reserved":false,"is_disabled":false,"rental_uris":{"android":"levelo://app?vid=f422e94b-fde0-4ff4-87f6-c497bb51c460","ios":"levelo://app?vid=f422e94b-fde0-4ff4-87f6-c497bb51c460"},"vehicle_type_id":"4","last_reported":1746796921,"current_range_meters":4800,"station_id":"","pricing_plan_id":"cebpf4jnsgd1na2vs0mg"},{"bike_id":"f5e4d53b-010b-4958-9cf7-a9a597e2d9b5","system_id":"levelo_inurba_marseille","lat":43.30994,"lon":5.3701,"is_reserved":false,"is_disabled":false,"rental_uris":{"android":"levelo://app?vid=f5e4d53b-010b-4958-9cf7-a9a597e2d9b5","ios":"levelo://app?vid=f5e4d53b-010b-4958-9cf7-a9a597e2d9b5"},"vehicle_type_id":"4","last_reported":1746796921,"current_range_meters":4800,"station_id":"","pricing_plan_id":"cebpf4jnsgd1na2vs0mg"},{"bike_id":"0f37e8d0-aff9-4e1b-b51f-36aa28adfa32","system_id":"levelo_inurba_marseille","lat":43.30882,"lon":5.3967,"is_reserved":false,"is_disabled":false,"rental_uris":{"android":"levelo://app?vid=0f37e8d0-aff9-4e1b-b51f-36aa28adfa32","ios":"levelo://app?vid=0f37e8d0-aff9-4e1b-b51f-36aa28adfa32"},"vehicle_type_id":"4","last_reported":1746796921,"current_range_meters":4800,"station_id":"ce4bh012rcd13ifvqcv0","pricing_plan_id":"cebpf4jnsgd1na2vs0mg"},{"bike_id":"aa5b56fd-285c-4f0b-8b82-69d5d5f3e2b3","system_id":"levelo_inurba_marseille","lat":43.32284,"lon":5.38282,"is_reserved":false,"is_disabled":false,"rental_uris":{"android":"levelo://app?vid=aa5b56fd-285c-4f0b-8b82-69d5d5f3e2b3","ios":"levelo://app?vid=aa5b56fd-285c-4f0b-8b82-69d5d5f3e2b3"},"vehicle_type_id":"4","last_reported":1746796921,"current_range_meters":4800,"station_id":"ce4bhr12rcd13ifvqhqg","pricing_plan_id":"cebpf4jnsgd1na2vs0mg"},{"bike_id":"37f3c365-7d39-464f-9aaf-3468fff5eb7f","system_id":"levelo_inurba_marseille","lat":43.31161,"lon":5.38718,"is_reserved":false,"is_disabled":false,"rental_uris":{"android":"levelo://app?vid=37f3c365-7d39-464f-9aaf-3468fff5eb7f","ios":"levelo://app?vid=37f3c365-7d39-464f-9aaf-3468fff5eb7f"},"vehicle_type_id":"4","last_reported":1746796921,"current_range_meters":5600,"station_id":"ce4bgv12rcd13ifvqcp0","pricing_plan_id":"cebpf4jnsgd1na2vs0mg"},{"bike_id":"04469f62-a09e-4384-a144-eb93923c1b6c","system_id":"levelo_inurba_marseille","lat":43.27054,"lon":5.4026,"is_reserved":false,"is_disabled":false,"rental_uris":{"android":"levelo://app?vid=04469f62-a09e-4384-a144-eb93923c1b6c","ios":"levelo://app?vid=04469f62-a09e-4384-a144-eb93923c1b6c"},"vehicle_type_id":"4","last_reported":1746796921,"current_range_meters":5600,"station_id":"ce4bhk92rcd13ifvqgc0","pricing_plan_id":"cebpf4jnsgd1na2vs0mg"},{"bike_id":"faed18a2-4553-4a38-91a8-7f48ec590d33","system_id":"levelo_inurba_marseille","lat":43.2591,"lon":5.40879,"is_reserved":false,"is_disabled":false,"rental_uris":{"android":"levelo://app?vid=faed18a2-4553-4a38-91a8-7f48ec590d33","ios":"levelo://app?vid=faed18a2-4553-4a38-91a8-7f48ec590d33"},"vehicle_type_id":"4","last_reported":1746796921,"current_range_meters":5600,"station_id":"ce4bhm92rcd13ifvqglg","pricing_plan_id":"cebpf4jnsgd1na2vs0mg"},{"bike_id":"10aa0aca-1d38-451a-b294-1af4bc614905","system_id":"levelo_inurba_marseille","lat":43.21749,"lon":5.34599,"is_reserved":false,"is_disabled":false,"rental_uris":{"android":"levelo://app?vid=10aa0aca-1d38-451a-b294-1af4bc614905","ios":"levelo://app?vid=10aa0aca-1d38-451a-b294-1af4bc614905"},"vehicle_type_id":"4","last_reported":1746796921,"current_range_meters":5600,"station_id":"st_cvj6r9ubvosntc0bgbag","pricing_plan_id":"cebpf4jnsgd1na2vs0mg"},{"bike_id":"c43ed3ca-340d-43d7-8ad5-7e6b2386ac59","system_id":"levelo_inurba_marseille","lat":43.29899,"lon":5.43672,"is_reserved":false,"is_disabled":false,"rental_uris":{"android":"levelo://app?vid=c43ed3ca-340d-43d7-8ad5-7e6b2386ac59","ios":"levelo://app?vid=c43ed3ca-340d-43d7-8ad5-7e6b2386ac59"},"vehicle_type_id":"4","last_reported":1746796921,"current_range_meters":6000,"station_id":"ce4bhpp2rcd13ifvqhfg","pricing_plan_id":"cebpf4jnsgd1na2vs0mg"},{"bike_id":"1f281ed5-8e05-43ba-b583-cf4e73bd4cb4","system_id":"levelo_inurba_marseille","lat":43.321171,"lon":5.367744,"is_reserved":false,"is_disabled":false,"rental_uris":{"android":"levelo://app?vid=1f281ed5-8e05-43ba-b583-cf4e73bd4cb4","ios":"levelo://app?vid=1f281ed5-8e05-43ba-b583-cf4e73bd4cb4"},"vehicle_type_id":"4","last_reported":1746796921,"current_range_meters":6000,"station_id":"ce4bhrh2rcd13ifvqhug","pricing_plan_id":"cebpf4jnsgd1na2vs0mg"},{"bike_id":"24a02016-a932-4bb5-b40e-e65338592af4","system_id":"levelo_inurba_marseille","lat":43.249937,"lon":5.389323,"is_reserved":false,"is_disabled":false,"rental_uris":{"android":"levelo://app?vid=24a02016-a932-4bb5-b40e-e65338592af4","ios":"levelo://app?vid=24a02016-a932-4bb5-b40e-e65338592af4"},"vehicle_type_id":"4","last_reported":1746796921,"current_range_meters":6400,"station_id":"ce4bhgp2rcd13ifvqfd0","pricing_plan_id":"cebpf4jnsgd1na2vs0mg"},{"bike_id":"e52bfd82-0d4c-4ec9-a63b-aa566ebda16e","system_id":"levelo_inurba_marseille","lat":43.31794,"lon":5.36715,"is_reserved":false,"is_disabled":false,"rental_uris":{"android":"levelo://app?vid=e52bfd82-0d4c-4ec9-a63b-aa566ebda16e","ios":"levelo://app?vid=e52bfd82-0d4c-4ec9-a63b-aa566ebda16e"},"vehicle_type_id":"4","last_reported":1746796921,"current_range_meters":6800,"station_id":"","pricing_plan_id":"cebpf4jnsgd1na2vs0mg"},{"bike_id":"ed35d9ad-345a-4749-8b61-e4a318243e21","system_id":"levelo_inurba_marseille","lat":43.2622,"lon":5.40444,"is_reserved":false,"is_disabled":false,"rental_uris":{"android":"levelo://app?vid=ed35d9ad-345a-4749-8b61-e4a318243e21","ios":"levelo://app?vid=ed35d9ad-345a-4749-8b61-e4a318243e21"},"vehicle_type_id":"4","last_reported":1746796921,"current_range_meters":6800,"station_id":"ce4bhmh2rcd13ifvqgmg","pricing_plan_id":"cebpf4jnsgd1na2vs0mg"},{"bike_id":"721faebf-7a23-4100-aee1-aac9b428466d","system_id":"levelo_inurba_marseille","lat":43.21195,"lon":5.35068,"is_reserved":false,"is_disabled":false,"rental_uris":{"android":"levelo://app?vid=721faebf-7a23-4100-aee1-aac9b428466d","ios":"levelo://app?vid=721faebf-7a23-4100-aee1-aac9b428466d"},"vehicle_type_id":"4","last_reported":1746796921,"current_range_meters":6800,"station_id":"st_cvj6sg6p6f1abm77japg","pricing_plan_id":"cebpf4jnsgd1na2vs0mg"},{"bike_id":"f487b5f5-8bd3-4a7a-9b09-de3a75a8b914","system_id":"levelo_inurba_marseille","lat":43.29594,"lon":5.36893,"is_reserved":false,"is_disabled":false,"rental_uris":{"android":"levelo://app?vid=f487b5f5-8bd3-4a7a-9b09-de3a75a8b914","ios":"levelo://app?vid=f487b5f5-8bd3-4a7a-9b09-de3a75a8b914"},"vehicle_type_id":"4","last_reported":1746796921,"current_range_meters":7200,"station_id":"","pricing_plan_id":"cebpf4jnsgd1na2vs0mg"},{"bike_id":"fbf2b229-4d4b-4cfb-bfcb-10499e9aef3a","system_id":"levelo_inurba_marseille","lat":43.28459,"lon":5.35896,"is_reserved":false,"is_disabled":false,"rental_uris":{"android":"levelo://app?vid=fbf2b229-4d4b-4cfb-bfcb-10499e9aef3a","ios":"levelo://app?vid=fbf2b229-4d4b-4cfb-bfcb-10499e9aef3a"},"vehicle_type_id":"4","last_reported":1746796921,"current_range_meters":7200,"station_id":"ce4bhah2rcd13ifvqei0","pricing_plan_id":"cebpf4jnsgd1na2vs0mg"},{"bike_id":"9ddd2d42-3564-44c4-a3ee-8443ed33a79e","system_id":"levelo_inurba_marseille","lat":43.27208,"lon":5.39182,"is_reserved":false,"is_disabled":false,"rental_uris":{"android":"levelo://app?vid=9ddd2d42-3564-44c4-a3ee-8443ed33a79e","ios":"levelo://app?vid=9ddd2d42-3564-44c4-a3ee-8443ed33a79e"},"vehicle_type_id":"4","last_reported":1746796921,"current_range_meters":7200,"station_id":"ce4bhhp2rcd13ifvqfm0","pricing_plan_id":"cebpf4jnsgd1na2vs0mg"},{"bike_id":"f673a50d-776a-4d4f-8bc2-0f75017ffb52","system_id":"levelo_inurba_marseille","lat":43.284499,"lon":5.358347,"is_reserved":false,"is_disabled":false,"rental_uris":{"android":"levelo://app?vid=f673a50d-776a-4d4f-8bc2-0f75017ffb52","ios":"levelo://app?vid=f673a50d-776a-4d4f-8bc2-0f75017ffb52"},"vehicle_type_id":"4","last_reported":1746796921,"current_range_meters":8400,"station_id":"ce4bhah2rcd13ifvqei0","pricing_plan_id":"cebpf4jnsgd1na2vs0mg"},{"bike_id":"3311c1f1-091b-4394-846c-138bab96fa5d","system_id":"levelo_inurba_marseille","lat":43.27905,"lon":5.380059,"is_reserved":false,"is_disabled":false,"rental_uris":{"android":"levelo://app?vid=3311c1f1-091b-4394-846c-138bab96fa5d","ios":"levelo://app?vid=3311c1f1-091b-4394-846c-138bab96fa5d"},"vehicle_type_id":"4","last_reported":1746796921,"current_range_meters":8400,"station_id":"ce4bhf92rcd13ifvqf50","pricing_plan_id":"cebpf4jnsgd1na2vs0mg"},{"bike_id":"5e7e769b-e5fd-4b02-bcea-179a39850b74","system_id":"levelo_inurba_marseille","lat":43.27945,"lon":5.41037,"is_reserved":false,"is_disabled":false,"rental_uris":{"android":"levelo://app?vid=5e7e769b-e5fd-4b02-bcea-179a39850b74","ios":"levelo://app?vid=5e7e769b-e5fd-4b02-bcea-179a39850b74"},"vehicle_type_id":"4","last_reported":1746796921,"current_range_meters":8400,"station_id":"ce4bhnp2rcd13ifvqh0g","pricing_plan_id":"cebpf4jnsgd1na2vs0mg"},{"bike_id":"caf9033d-5f00-49c3-b1ee-1328b62008dc","system_id":"levelo_inurba_marseille","lat":43.33578,"lon":5.42812,"is_reserved":false,"is_disabled":false,"rental_uris":{"android":"levelo://app?vid=caf9033d-5f00-49c3-b1ee-1328b62008dc","ios":"levelo://app?vid=caf9033d-5f00-49c3-b1ee-1328b62008dc"},"vehicle_type_id":"4","last_reported":1746796921,"current_range_meters":8800,"station_id":"","pricing_plan_id":"cebpf4jnsgd1na2vs0mg"},{"bike_id":"41566c1d-2af4-41fe-a3fe-55eec259e01d","system_id":"levelo_inurba_marseille","lat":43.304392,"lon":5.388837,"is_reserved":false,"is_disabled":false,"rental_uris":{"android":"levelo://app?vid=41566c1d-2af4-41fe-a3fe-55eec259e01d","ios":"levelo://app?vid=41566c1d-2af4-41fe-a3fe-55eec259e01d"},"vehicle_type_id":"4","last_reported":1746796921,"current_range_meters":8800,"station_id":"ce4bgj12rcd13ifvqbc0","pricing_plan_id":"cebpf4jnsgd1na2vs0mg"},{"bike_id":"47bb6f34-9c89-4a6c-b2ec-6a2d3e007f08","system_id":"levelo_inurba_marseille","lat":43.25725,"lon":5.41111,"is_reserved":false,"is_disabled":false,"rental_uris":{"android":"levelo://app?vid=47bb6f34-9c89-4a6c-b2ec-6a2d3e007f08","ios":"levelo://app?vid=47bb6f34-9c89-4a6c-b2ec-6a2d3e007f08"},"vehicle_type_id":"4","last_reported":1746796921,"current_range_meters":8800,"station_id":"ce4bhkp2rcd13ifvqgd0","pricing_plan_id":"cebpf4jnsgd1na2vs0mg"},{"bike_id":"294e5e93-618a-4492-9bac-02c9b5b12a80","system_id":"levelo_inurba_marseille","lat":43.32112,"lon":5.36811,"is_reserved":false,"is_disabled":false,"rental_uris":{"android":"levelo://app?vid=294e5e93-618a-4492-9bac-02c9b5b12a80","ios":"levelo://app?vid=294e5e93-618a-4492-9bac-02c9b5b12a80"},"vehicle_type_id":"4","last_reported":1746796921,"current_range_meters":8800,"station_id":"ce4bhrh2rcd13ifvqhug","pricing_plan_id":"cebpf4jnsgd1na2vs0mg"},{"bike_id":"812e31b7-42f9-4d63-b220-e99af5c192ed","system_id":"levelo_inurba_marseille","lat":43.3119,"lon":5.41616,"is_reserved":false,"is_disabled":false,"rental_uris":{"android":"levelo://app?vid=812e31b7-42f9-4d63-b220-e99af5c192ed","ios":"levelo://app?vid=812e31b7-42f9-4d63-b220-e99af5c192ed"},"vehicle_type_id":"4","last_reported":1746796921,"current_range_meters":9200,"station_id":"","pricing_plan_id":"cebpf4jnsgd1na2vs0mg"},{"bike_id":"6b436cc5-7026-4c76-a439-affd21c03016","system_id":"levelo_inurba_marseille","lat":43.305511,"lon":5.365601,"is_reserved":false,"is_disabled":false,"rental_uris":{"android":"levelo://app?vid=6b436cc5-7026-4c76-a439-affd21c03016","ios":"levelo://app?vid=6b436cc5-7026-4c76-a439-affd21c03016"},"vehicle_type_id":"4","last_reported":1746796921,"current_range_meters":9200,"station_id":"ce4bgs12rcd13ifvqcag","pricing_plan_id":"cebpf4jnsgd1na2vs0mg"},{"bike_id":"9e250d5f-4346-45b0-ba0e-7852771e4a6c","system_id":"levelo_inurba_marseille","lat":43.25501,"lon":5.37648,"is_reserved":false,"is_disabled":false,"rental_uris":{"android":"levelo://app?vid=9e250d5f-4346-45b0-ba0e-7852771e4a6c","ios":"levelo://app?vid=9e250d5f-4346-45b0-ba0e-7852771e4a6c"},"vehicle_type_id":"4","last_reported":1746796921,"current_range_meters":9200,"station_id":"ce4bhh12rcd13ifvqff0","pricing_plan_id":"cebpf4jnsgd1na2vs0mg"},{"bike_id":"167d5592-acfa-492b-b15c-aab72a861d42","system_id":"levelo_inurba_marseille","lat":43.31088,"lon":5.4243,"is_reserved":false,"is_disabled":false,"rental_uris":{"android":"levelo://app?vid=167d5592-acfa-492b-b15c-aab72a861d42","ios":"levelo://app?vid=167d5592-acfa-492b-b15c-aab72a861d42"},"vehicle_type_id":"4","last_reported":1746796921,"current_range_meters":9200,"station_id":"ce4bhp92rcd13ifvqhag","pricing_plan_id":"cebpf4jnsgd1na2vs0mg"},{"bike_id":"a2309e80-b2ba-42c9-9c60-147f0babf9f9","system_id":"levelo_inurba_marseille","lat":43.30839,"lon":5.36994,"is_reserved":false,"is_disabled":false,"rental_uris":{"android":"levelo://app?vid=a2309e80-b2ba-42c9-9c60-147f0babf9f9","ios":"levelo://app?vid=a2309e80-b2ba-42c9-9c60-147f0babf9f9"},"vehicle_type_id":"4","last_reported":1746796921,"current_range_meters":9600,"station_id":"","pricing_plan_id":"cebpf4jnsgd1na2vs0mg"},{"bike_id":"ccd1571f-9d11-424b-afc0-23941d7ee43e","system_id":"levelo_inurba_marseille","lat":43.298882,"lon":5.388975,"is_reserved":false,"is_disabled":false,"rental_uris":{"android":"levelo://app?vid=ccd1571f-9d11-424b-afc0-23941d7ee43e","ios":"levelo://app?vid=ccd1571f-9d11-424b-afc0-23941d7ee43e"},"vehicle_type_id":"4","last_reported":1746796921,"current_range_meters":9600,"station_id":"ce4bh392rcd13ifvqdl0","pricing_plan_id":"cebpf4jnsgd1na2vs0mg"},{"bike_id":"d173aa68-ac29-4aee-be94-a2dc30490f90","system_id":"levelo_inurba_marseille","lat":43.25722,"lon":5.41109,"is_reserved":false,"is_disabled":false,"rental_uris":{"android":"levelo://app?vid=d173aa68-ac29-4aee-be94-a2dc30490f90","ios":"levelo://app?vid=d173aa68-ac29-4aee-be94-a2dc30490f90"},"vehicle_type_id":"4","last_reported":1746796921,"current_range_meters":9600,"station_id":"ce4bhkp2rcd13ifvqgd0","pricing_plan_id":"cebpf4jnsgd1na2vs0mg"},{"bike_id":"d8b8f9bf-bf04-4c01-ac6b-3516f202bba9","system_id":"levelo_inurba_marseille","lat":43.27946,"lon":5.41044,"is_reserved":false,"is_disabled":false,"rental_uris":{"android":"levelo://app?vid=d8b8f9bf-bf04-4c01-ac6b-3516f202bba9","ios":"levelo://app?vid=d8b8f9bf-bf04-4c01-ac6b-3516f202bba9"},"vehicle_type_id":"4","last_reported":1746796921,"current_range_meters":9600,"station_id":"ce4bhnp2rcd13ifvqh0g","pricing_plan_id":"cebpf4jnsgd1na2vs0mg"},{"bike_id":"91312870-d6c6-4946-b631-c8be8e8cee46","system_id":"levelo_inurba_marseille","lat":43.21751,"lon":5.34609,"is_reserved":false,"is_disabled":false,"rental_uris":{"android":"levelo://app?vid=91312870-d6c6-4946-b631-c8be8e8cee46","ios":"levelo://app?vid=91312870-d6c6-4946-b631-c8be8e8cee46"},"vehicle_type_id":"4","last_reported":1746796921,"current_range_meters":9600,"station_id":"st_cvj6r9ubvosntc0bgbag","pricing_plan_id":"cebpf4jnsgd1na2vs0mg"},{"bike_id":"caccb556-2ad0-45b8-84b8-819024dd44e6","system_id":"levelo_inurba_marseille","lat":43.29792,"lon":5.36791,"is_reserved":false,"is_disabled":false,"rental_uris":{"android":"levelo://app?vid=caccb556-2ad0-45b8-84b8-819024dd44e6","ios":"levelo://app?vid=caccb556-2ad0-45b8-84b8-819024dd44e6"},"vehicle_type_id":"4","last_reported":1746796921,"current_range_meters":10000,"station_id":"","pricing_plan_id":"cebpf4jnsgd1na2vs0mg"},{"bike_id":"7ffb369a-c208-40fe-98d6-6f71c1bae83b","system_id":"levelo_inurba_marseille","lat":43.25689,"lon":5.41114,"is_reserved":false,"is_disabled":false,"rental_uris":{"android":"levelo://app?vid=7ffb369a-c208-40fe-98d6-6f71c1bae83b","ios":"levelo://app?vid=7ffb369a-c208-40fe-98d6-6f71c1bae83b"},"vehicle_type_id":"4","last_reported":1746796921,"current_range_meters":10000,"station_id":"ce4bhkp2rcd13ifvqgd0","pricing_plan_id":"cebpf4jnsgd1na2vs0mg"},{"bike_id":"044478cb-8194-4092-b984-4fc9c042ef68","system_id":"levelo_inurba_marseille","lat":43.28687,"lon":5.46567,"is_reserved":false,"is_disabled":false,"rental_uris":{"android":"levelo://app?vid=044478cb-8194-4092-b984-4fc9c042ef68","ios":"levelo://app?vid=044478cb-8194-4092-b984-4fc9c042ef68"},"vehicle_type_id":"4","last_reported":1746796921,"current_range_meters":10800,"station_id":"","pricing_plan_id":"cebpf4jnsgd1na2vs0mg"},{"bike_id":"b0c54ead-2c9a-4d45-904a-5e1b9abf7338","system_id":"levelo_inurba_marseille","lat":43.278893,"lon":5.440721,"is_reserved":false,"is_disabled":false,"rental_uris":{"android":"levelo://app?vid=b0c54ead-2c9a-4d45-904a-5e1b9abf7338","ios":"levelo://app?vid=b0c54ead-2c9a-4d45-904a-5e1b9abf7338"},"vehicle_type_id":"4","last_reported":1746796921,"current_range_meters":10800,"station_id":"","pricing_plan_id":"cebpf4jnsgd1na2vs0mg"},{"bike_id":"24a505b4-3f90-403d-80b1-49eafe9567d2","system_id":"levelo_inurba_marseille","lat":43.29581,"lon":5.36738,"is_reserved":false,"is_disabled":false,"rental_uris":{"android":"levelo://app?vid=24a505b4-3f90-403d-80b1-49eafe9567d2","ios":"levelo://app?vid=24a505b4-3f90-403d-80b1-49eafe9567d2"},"vehicle_type_id":"4","last_reported":1746796921,"current_range_meters":10800,"station_id":"ce4bgph2rcd13ifvqc2g","pricing_plan_id":"cebpf4jnsgd1na2vs0mg"},{"bike_id":"ceaca1f2-a04d-40e4-b133-5ba5859cd656","system_id":"levelo_inurba_marseille","lat":43.30565,"lon":5.36726,"is_reserved":false,"is_disabled":false,"rental_uris":{"android":"levelo://app?vid=ceaca1f2-a04d-40e4-b133-5ba5859cd656","ios":"levelo://app?vid=ceaca1f2-a04d-40e4-b133-5ba5859cd656"},"vehicle_type_id":"4","last_reported":1746796921,"current_range_meters":10800,"station_id":"ce4bgrp2rcd13ifvqc9g","pricing_plan_id":"cebpf4jnsgd1na2vs0mg"},{"bike_id":"6fa74ce8-f299-4d6e-bae1-741bd54af124","system_id":"levelo_inurba_marseille","lat":43.27068,"lon":5.42276,"is_reserved":false,"is_disabled":false,"rental_uris":{"android":"levelo://app?vid=6fa74ce8-f299-4d6e-bae1-741bd54af124","ios":"levelo://app?vid=6fa74ce8-f299-4d6e-bae1-741bd54af124"},"vehicle_type_id":"4","last_reported":1746796921,"current_range_meters":10800,"station_id":"ce4bhk92rcd13ifvqgb0","pricing_plan_id":"cebpf4jnsgd1na2vs0mg"},{"bike_id":"6354e3d3-b870-44ff-a315-cfbbdf1a665c","system_id":"levelo_inurba_marseille","lat":43.2512,"lon":5.40314,"is_reserved":false,"is_disabled":false,"rental_uris":{"android":"levelo://app?vid=6354e3d3-b870-44ff-a315-cfbbdf1a665c","ios":"levelo://app?vid=6354e3d3-b870-44ff-a315-cfbbdf1a665c"},"vehicle_type_id":"4","last_reported":1746796921,"current_range_meters":10800,"station_id":"ce4bhlh2rcd13ifvqgig","pricing_plan_id":"cebpf4jnsgd1na2vs0mg"},{"bike_id":"809c8673-c032-46b9-aa07-62c38e26d44e","system_id":"levelo_inurba_marseille","lat":43.23148,"lon":5.43714,"is_reserved":false,"is_disabled":false,"rental_uris":{"android":"levelo://app?vid=809c8673-c032-46b9-aa07-62c38e26d44e","ios":"levelo://app?vid=809c8673-c032-46b9-aa07-62c38e26d44e"},"vehicle_type_id":"4","last_reported":1746796921,"current_range_meters":10800,"station_id":"ce4bhmp2rcd13ifvqgog","pricing_plan_id":"cebpf4jnsgd1na2vs0mg"},{"bike_id":"46c5f25a-d918-4f12-89a5-09fc03506c8d","system_id":"levelo_inurba_marseille","lat":43.30119,"lon":5.39856,"is_reserved":false,"is_disabled":false,"rental_uris":{"android":"levelo://app?vid=46c5f25a-d918-4f12-89a5-09fc03506c8d","ios":"levelo://app?vid=46c5f25a-d918-4f12-89a5-09fc03506c8d"},"vehicle_type_id":"4","last_reported":1746796921,"current_range_meters":11600,"station_id":"ce4bh0h2rcd13ifvqd40","pricing_plan_id":"cebpf4jnsgd1na2vs0mg"},{"bike_id":"7d36a207-68a5-4d3d-97c0-27a887733755","system_id":"levelo_inurba_marseille","lat":43.29089,"lon":5.38141,"is_reserved":false,"is_disabled":false,"rental_uris":{"android":"levelo://app?vid=7d36a207-68a5-4d3d-97c0-27a887733755","ios":"levelo://app?vid=7d36a207-68a5-4d3d-97c0-27a887733755"},"vehicle_type_id":"4","last_reported":1746796921,"current_range_meters":11600,"station_id":"ce4bh512rcd13ifvqe2g","pricing_plan_id":"cebpf4jnsgd1na2vs0mg"},{"bike_id":"eab91693-a2a5-406e-bc0a-507bb8316497","system_id":"levelo_inurba_marseille","lat":43.28714,"lon":5.37938,"is_reserved":false,"is_disabled":false,"rental_uris":{"android":"levelo://app?vid=eab91693-a2a5-406e-bc0a-507bb8316497","ios":"levelo://app?vid=eab91693-a2a5-406e-bc0a-507bb8316497"},"vehicle_type_id":"4","last_reported":1746796921,"current_range_meters":11600,"station_id":"ce4bh9p2rcd13ifvqec0","pricing_plan_id":"cebpf4jnsgd1na2vs0mg"},{"bike_id":"8f9f14f5-32c0-4abb-83fb-b1e302581157","system_id":"levelo_inurba_marseille","lat":43.25944,"lon":5.409,"is_reserved":false,"is_disabled":false,"rental_uris":{"android":"levelo://app?vid=8f9f14f5-32c0-4abb-83fb-b1e302581157","ios":"levelo://app?vid=8f9f14f5-32c0-4abb-83fb-b1e302581157"},"vehicle_type_id":"4","last_reported":1746796921,"current_range_meters":11600,"station_id":"ce4bhm92rcd13ifvqglg","pricing_plan_id":"cebpf4jnsgd1na2vs0mg"},{"bike_id":"549cba5d-9ae2-4d85-b52d-14b0c8e3f3ab","system_id":"levelo_inurba_marseille","lat":43.29536,"lon":5.38542,"is_reserved":false,"is_disabled":false,"rental_uris":{"android":"levelo://app?vid=549cba5d-9ae2-4d85-b52d-14b0c8e3f3ab","ios":"levelo://app?vid=549cba5d-9ae2-4d85-b52d-14b0c8e3f3ab"},"vehicle_type_id":"4","last_reported":1746796921,"current_range_meters":12000,"station_id":"ce4bgih2rcd13ifvqba0","pricing_plan_id":"cebpf4jnsgd1na2vs0mg"},{"bike_id":"ccf486d1-2036-4358-a970-b68530575cba","system_id":"levelo_inurba_marseille","lat":43.25105,"lon":5.40324,"is_reserved":false,"is_disabled":false,"rental_uris":{"android":"levelo://app?vid=ccf486d1-2036-4358-a970-b68530575cba","ios":"levelo://app?vid=ccf486d1-2036-4358-a970-b68530575cba"},"vehicle_type_id":"4","last_reported":1746796921,"current_range_meters":12000,"station_id":"ce4bhlh2rcd13ifvqgig","pricing_plan_id":"cebpf4jnsgd1na2vs0mg"},{"bike_id":"a20a1240-7ac9-4476-9baa-68d9ee79a31b","system_id":"levelo_inurba_marseille","lat":43.325383,"lon":5.414577,"is_reserved":false,"is_disabled":false,"rental_uris":{"android":"levelo://app?vid=a20a1240-7ac9-4476-9baa-68d9ee79a31b","ios":"levelo://app?vid=a20a1240-7ac9-4476-9baa-68d9ee79a31b"},"vehicle_type_id":"4","last_reported":1746796921,"current_range_meters":12000,"station_id":"ce4bhq12rcd13ifvqhhg","pricing_plan_id":"cebpf4jnsgd1na2vs0mg"},{"bike_id":"8ac5e6d9-1b9e-4663-b313-c57df37201f9","system_id":"levelo_inurba_marseille","lat":43.23068,"lon":5.35491,"is_reserved":false,"is_disabled":false,"rental_uris":{"android":"levelo://app?vid=8ac5e6d9-1b9e-4663-b313-c57df37201f9","ios":"levelo://app?vid=8ac5e6d9-1b9e-4663-b313-c57df37201f9"},"vehicle_type_id":"4","last_reported":1746796921,"current_range_meters":12000,"station_id":"cpo3342slgdg3j2ifvpg","pricing_plan_id":"cebpf4jnsgd1na2vs0mg"},{"bike_id":"42be837f-fe27-4f22-9abf-a449ab129170","system_id":"levelo_inurba_marseille","lat":43.26561,"lon":5.37285,"is_reserved":false,"is_disabled":false,"rental_uris":{"android":"levelo://app?vid=42be837f-fe27-4f22-9abf-a449ab129170","ios":"levelo://app?vid=42be837f-fe27-4f22-9abf-a449ab129170"},"vehicle_type_id":"4","last_reported":1746796921,"current_range_meters":12400,"station_id":"ce4bhg12rcd13ifvqf70","pricing_plan_id":"cebpf4jnsgd1na2vs0mg"},{"bike_id":"94b1c6a7-a958-417d-853f-1e7583bcb7f5","system_id":"levelo_inurba_marseille","lat":43.323604,"lon":5.367582,"is_reserved":false,"is_disabled":false,"rental_uris":{"android":"levelo://app?vid=94b1c6a7-a958-417d-853f-1e7583bcb7f5","ios":"levelo://app?vid=94b1c6a7-a958-417d-853f-1e7583bcb7f5"},"vehicle_type_id":"4","last_reported":1746796921,"current_range_meters":12800,"station_id":"ce4bhsh2rcd13ifvqi2g","pricing_plan_id":"cebpf4jnsgd1na2vs0mg"},{"bike_id":"4fc2916e-fd8a-4057-add3-fd7205558b49","system_id":"levelo_inurba_marseille","lat":43.31461,"lon":5.39079,"is_reserved":false,"is_disabled":false,"rental_uris":{"android":"levelo://app?vid=4fc2916e-fd8a-4057-add3-fd7205558b49","ios":"levelo://app?vid=4fc2916e-fd8a-4057-add3-fd7205558b49"},"vehicle_type_id":"4","last_reported":1746796921,"current_range_meters":13600,"station_id":"","pricing_plan_id":"cebpf4jnsgd1na2vs0mg"},{"bike_id":"334689d1-9693-4450-8a62-3585e9bb1917","system_id":"levelo_inurba_marseille","lat":43.31072,"lon":5.3836,"is_reserved":false,"is_disabled":false,"rental_uris":{"android":"levelo://app?vid=334689d1-9693-4450-8a62-3585e9bb1917","ios":"levelo://app?vid=334689d1-9693-4450-8a62-3585e9bb1917"},"vehicle_type_id":"4","last_reported":1746796921,"current_range_meters":13600,"station_id":"ce4bgv92rcd13ifvqcr0","pricing_plan_id":"cebpf4jnsgd1na2vs0mg"},{"bike_id":"e2e777d7-e94a-467c-9fde-cf0bf8d24e7d","system_id":"levelo_inurba_marseille","lat":43.29419,"lon":5.38628,"is_reserved":false,"is_disabled":false,"rental_uris":{"android":"levelo://app?vid=e2e777d7-e94a-467c-9fde-cf0bf8d24e7d","ios":"levelo://app?vid=e2e777d7-e94a-467c-9fde-cf0bf8d24e7d"},"vehicle_type_id":"4","last_reported":1746796921,"current_range_meters":13600,"station_id":"ce4bh2h2rcd13ifvqdh0","pricing_plan_id":"cebpf4jnsgd1na2vs0mg"},{"bike_id":"e6282093-23fb-41a9-859d-c0d9ad966535","system_id":"levelo_inurba_marseille","lat":43.31545,"lon":5.3823,"is_reserved":false,"is_disabled":false,"rental_uris":{"android":"levelo://app?vid=e6282093-23fb-41a9-859d-c0d9ad966535","ios":"levelo://app?vid=e6282093-23fb-41a9-859d-c0d9ad966535"},"vehicle_type_id":"4","last_reported":1746796921,"current_range_meters":14000,"station_id":"","pricing_plan_id":"cebpf4jnsgd1na2vs0mg"},{"bike_id":"96e327b1-2985-4562-8ae3-5116fbd3cfcb","system_id":"levelo_inurba_marseille","lat":43.29038,"lon":5.37569,"is_reserved":false,"is_disabled":false,"rental_uris":{"android":"levelo://app?vid=96e327b1-2985-4562-8ae3-5116fbd3cfcb","ios":"levelo://app?vid=96e327b1-2985-4562-8ae3-5116fbd3cfcb"},"vehicle_type_id":"4","last_reported":1746796921,"current_range_meters":14000,"station_id":"ce4bh692rcd13ifvqe90","pricing_plan_id":"cebpf4jnsgd1na2vs0mg"},{"bike_id":"28b53380-3e9d-49e7-b475-58d1dec906a9","system_id":"levelo_inurba_marseille","lat":43.27309,"lon":5.39083,"is_reserved":false,"is_disabled":false,"rental_uris":{"android":"levelo://app?vid=28b53380-3e9d-49e7-b475-58d1dec906a9","ios":"levelo://app?vid=28b53380-3e9d-49e7-b475-58d1dec906a9"},"vehicle_type_id":"4","last_reported":1746796921,"current_range_meters":14000,"station_id":"ce4bhgp2rcd13ifvqfe0","pricing_plan_id":"cebpf4jnsgd1na2vs0mg"},{"bike_id":"8be7e82a-022e-4e16-9664-bf697ad57aa9","system_id":"levelo_inurba_marseille","lat":43.24546,"lon":5.39524,"is_reserved":false,"is_disabled":false,"rental_uris":{"android":"levelo://app?vid=8be7e82a-022e-4e16-9664-bf697ad57aa9","ios":"levelo://app?vid=8be7e82a-022e-4e16-9664-bf697ad57aa9"},"vehicle_type_id":"4","last_reported":1746796921,"current_range_meters":14000,"station_id":"ce4bhlp2rcd13ifvqgjg","pricing_plan_id":"cebpf4jnsgd1na2vs0mg"},{"bike_id":"411f55a4-9de3-4326-9be0-0048c135833b","system_id":"levelo_inurba_marseille","lat":43.2861,"lon":5.3706,"is_reserved":false,"is_disabled":false,"rental_uris":{"android":"levelo://app?vid=411f55a4-9de3-4326-9be0-0048c135833b","ios":"levelo://app?vid=411f55a4-9de3-4326-9be0-0048c135833b"},"vehicle_type_id":"4","last_reported":1746796921,"current_range_meters":14000,"station_id":"ce4bht12rcd13ifvqi60","pricing_plan_id":"cebpf4jnsgd1na2vs0mg"},{"bike_id":"44355d28-d86b-44dd-a795-f92231357464","system_id":"levelo_inurba_marseille","lat":43.259441,"lon":5.408998,"is_reserved":false,"is_disabled":false,"rental_uris":{"android":"levelo://app?vid=44355d28-d86b-44dd-a795-f92231357464","ios":"levelo://app?vid=44355d28-d86b-44dd-a795-f92231357464"},"vehicle_type_id":"4","last_reported":1746796921,"current_range_meters":14400,"station_id":"ce4bhm92rcd13ifvqglg","pricing_plan_id":"cebpf4jnsgd1na2vs0mg"},{"bike_id":"bfa0a5fd-fe33-4812-8ea7-83c49d42ee3a","system_id":"levelo_inurba_marseille","lat":43.32536,"lon":5.41426,"is_reserved":false,"is_disabled":false,"rental_uris":{"android":"levelo://app?vid=bfa0a5fd-fe33-4812-8ea7-83c49d42ee3a","ios":"levelo://app?vid=bfa0a5fd-fe33-4812-8ea7-83c49d42ee3a"},"vehicle_type_id":"4","last_reported":1746796921,"current_range_meters":14400,"station_id":"ce4bhq12rcd13ifvqhhg","pricing_plan_id":"cebpf4jnsgd1na2vs0mg"},{"bike_id":"3ffbdbcc-7993-4224-a457-998febbb238c","system_id":"levelo_inurba_marseille","lat":43.2979,"lon":5.38084,"is_reserved":false,"is_disabled":false,"rental_uris":{"android":"levelo://app?vid=3ffbdbcc-7993-4224-a457-998febbb238c","ios":"levelo://app?vid=3ffbdbcc-7993-4224-a457-998febbb238c"},"vehicle_type_id":"4","last_reported":1746796921,"current_range_meters":14800,"station_id":"ce4bgip2rcd13ifvqbb0","pricing_plan_id":"cebpf4jnsgd1na2vs0mg"},{"bike_id":"0cba2588-f0b4-4c5b-aeab-0ec8bbbf3064","system_id":"levelo_inurba_marseille","lat":43.25579,"lon":5.38225,"is_reserved":false,"is_disabled":false,"rental_uris":{"android":"levelo://app?vid=0cba2588-f0b4-4c5b-aeab-0ec8bbbf3064","ios":"levelo://app?vid=0cba2588-f0b4-4c5b-aeab-0ec8bbbf3064"},"vehicle_type_id":"4","last_reported":1746796921,"current_range_meters":14800,"station_id":"ce4bhih2rcd13ifvqfs0","pricing_plan_id":"cebpf4jnsgd1na2vs0mg"},{"bike_id":"f969b97c-1c1a-4079-a8d8-16efa103018e","system_id":"levelo_inurba_marseille","lat":43.25924,"lon":5.40898,"is_reserved":false,"is_disabled":false,"rental_uris":{"android":"levelo://app?vid=f969b97c-1c1a-4079-a8d8-16efa103018e","ios":"levelo://app?vid=f969b97c-1c1a-4079-a8d8-16efa103018e"},"vehicle_type_id":"4","last_reported":1746796921,"current_range_meters":15200,"station_id":"ce4bhm92rcd13ifvqglg","pricing_plan_id":"cebpf4jnsgd1na2vs0mg"},{"bike_id":"ca0282d4-3359-417f-ba1e-8fffe2f3bd45","system_id":"levelo_inurba_marseille","lat":43.2293,"lon":5.35373,"is_reserved":false,"is_disabled":false,"rental_uris":{"android":"levelo://app?vid=ca0282d4-3359-417f-ba1e-8fffe2f3bd45","ios":"levelo://app?vid=ca0282d4-3359-417f-ba1e-8fffe2f3bd45"},"vehicle_type_id":"4","last_reported":1746796921,"current_range_meters":15200,"station_id":"cpo3532slgdg3j2ikp40","pricing_plan_id":"cebpf4jnsgd1na2vs0mg"},{"bike_id":"d5ef6276-5c24-471b-8c1a-027971beff96","system_id":"levelo_inurba_marseille","lat":43.26201,"lon":5.37453,"is_reserved":false,"is_disabled":false,"rental_uris":{"android":"levelo://app?vid=d5ef6276-5c24-471b-8c1a-027971beff96","ios":"levelo://app?vid=d5ef6276-5c24-471b-8c1a-027971beff96"},"vehicle_type_id":"4","last_reported":1746796921,"current_range_meters":16000,"station_id":"ce4bhgp2rcd13ifvqfc0","pricing_plan_id":"cebpf4jnsgd1na2vs0mg"},{"bike_id":"8f8dbcde-5209-4723-8097-7706155dfa94","system_id":"levelo_inurba_marseille","lat":43.25815,"lon":5.39436,"is_reserved":false,"is_disabled":false,"rental_uris":{"android":"levelo://app?vid=8f8dbcde-5209-4723-8097-7706155dfa94","ios":"levelo://app?vid=8f8dbcde-5209-4723-8097-7706155dfa94"},"vehicle_type_id":"4","last_reported":1746796921,"current_range_meters":16000,"station_id":"ce4bhip2rcd13ifvqft0","pricing_plan_id":"cebpf4jnsgd1na2vs0mg"},{"bike_id":"0cb542d0-661d-4a86-904d-249f6866850a","system_id":"levelo_inurba_marseille","lat":43.25716,"lon":5.41112,"is_reserved":false,"is_disabled":false,"rental_uris":{"android":"levelo://app?vid=0cb542d0-661d-4a86-904d-249f6866850a","ios":"levelo://app?vid=0cb542d0-661d-4a86-904d-249f6866850a"},"vehicle_type_id":"4","last_reported":1746796921,"current_range_meters":16000,"station_id":"ce4bhkp2rcd13ifvqgd0","pricing_plan_id":"cebpf4jnsgd1na2vs0mg"},{"bike_id":"88a39f4d-0bd9-459c-a687-8d6dbefb2d12","system_id":"levelo_inurba_marseille","lat":43.28077,"lon":5.39612,"is_reserved":false,"is_disabled":false,"rental_uris":{"android":"levelo://app?vid=88a39f4d-0bd9-459c-a687-8d6dbefb2d12","ios":"levelo://app?vid=88a39f4d-0bd9-459c-a687-8d6dbefb2d12"},"vehicle_type_id":"4","last_reported":1746796921,"current_range_meters":16000,"station_id":"ce4bho12rcd13ifvqh2g","pricing_plan_id":"cebpf4jnsgd1na2vs0mg"},{"bike_id":"60493a38-b685-4086-9079-7c7f7a86cdf9","system_id":"levelo_inurba_marseille","lat":43.29781,"lon":5.38099,"is_reserved":false,"is_disabled":false,"rental_uris":{"android":"levelo://app?vid=60493a38-b685-4086-9079-7c7f7a86cdf9","ios":"levelo://app?vid=60493a38-b685-4086-9079-7c7f7a86cdf9"},"vehicle_type_id":"4","last_reported":1746796921,"current_range_meters":16400,"station_id":"ce4bgip2rcd13ifvqbb0","pricing_plan_id":"cebpf4jnsgd1na2vs0mg"},{"bike_id":"d5ae9987-3c36-4197-a244-adc74140878e","system_id":"levelo_inurba_marseille","lat":43.31382,"lon":5.36722,"is_reserved":false,"is_disabled":false,"rental_uris":{"android":"levelo://app?vid=d5ae9987-3c36-4197-a244-adc74140878e","ios":"levelo://app?vid=d5ae9987-3c36-4197-a244-adc74140878e"},"vehicle_type_id":"4","last_reported":1746796921,"current_range_meters":16400,"station_id":"ce4bgr92rcd13ifvqc6g","pricing_plan_id":"cebpf4jnsgd1na2vs0mg"},{"bike_id":"577b6fa1-01aa-4b90-beb1-386dce7ef354","system_id":"levelo_inurba_marseille","lat":43.25918,"lon":5.40889,"is_reserved":false,"is_disabled":false,"rental_uris":{"android":"levelo://app?vid=577b6fa1-01aa-4b90-beb1-386dce7ef354","ios":"levelo://app?vid=577b6fa1-01aa-4b90-beb1-386dce7ef354"},"vehicle_type_id":"4","last_reported":1746796921,"current_range_meters":16400,"station_id":"ce4bhm92rcd13ifvqglg","pricing_plan_id":"cebpf4jnsgd1na2vs0mg"},{"bike_id":"71eafe54-f3d2-4978-a324-05892d411c7d","system_id":"levelo_inurba_marseille","lat":43.262241,"lon":5.404501,"is_reserved":false,"is_disabled":false,"rental_uris":{"android":"levelo://app?vid=71eafe54-f3d2-4978-a324-05892d411c7d","ios":"levelo://app?vid=71eafe54-f3d2-4978-a324-05892d411c7d"},"vehicle_type_id":"4","last_reported":1746796921,"current_range_meters":16400,"station_id":"ce4bhmh2rcd13ifvqgmg","pricing_plan_id":"cebpf4jnsgd1na2vs0mg"},{"bike_id":"7fc1829d-d006-4438-a4e0-ef73bf018d8d","system_id":"levelo_inurba_marseille","lat":43.27492,"lon":5.42457,"is_reserved":false,"is_disabled":false,"rental_uris":{"android":"levelo://app?vid=7fc1829d-d006-4438-a4e0-ef73bf018d8d","ios":"levelo://app?vid=7fc1829d-d006-4438-a4e0-ef73bf018d8d"},"vehicle_type_id":"4","last_reported":1746796921,"current_range_meters":16400,"station_id":"ce4bhn92rcd13ifvqgrg","pricing_plan_id":"cebpf4jnsgd1na2vs0mg"},{"bike_id":"1f67836b-1b40-476f-9a50-7f6ff65e0774","system_id":"levelo_inurba_marseille","lat":43.32291,"lon":5.38266,"is_reserved":false,"is_disabled":false,"rental_uris":{"android":"levelo://app?vid=1f67836b-1b40-476f-9a50-7f6ff65e0774","ios":"levelo://app?vid=1f67836b-1b40-476f-9a50-7f6ff65e0774"},"vehicle_type_id":"4","last_reported":1746796921,"current_range_meters":16400,"station_id":"ce4bhr12rcd13ifvqhqg","pricing_plan_id":"cebpf4jnsgd1na2vs0mg"},{"bike_id":"0bdcdff3-8294-49b9-80e9-145bbc1ad711","system_id":"levelo_inurba_marseille","lat":43.32245,"lon":5.36769,"is_reserved":false,"is_disabled":false,"rental_uris":{"android":"levelo://app?vid=0bdcdff3-8294-49b9-80e9-145bbc1ad711","ios":"levelo://app?vid=0bdcdff3-8294-49b9-80e9-145bbc1ad711"},"vehicle_type_id":"4","last_reported":1746796921,"current_range_meters":16800,"station_id":"","pricing_plan_id":"cebpf4jnsgd1na2vs0mg"},{"bike_id":"61487991-fc72-4432-b63b-28f0ded191d8","system_id":"levelo_inurba_marseille","lat":43.30947,"lon":5.39049,"is_reserved":false,"is_disabled":false,"rental_uris":{"android":"levelo://app?vid=61487991-fc72-4432-b63b-28f0ded191d8","ios":"levelo://app?vid=61487991-fc72-4432-b63b-28f0ded191d8"},"vehicle_type_id":"4","last_reported":1746796921,"current_range_meters":16800,"station_id":"ce4bgup2rcd13ifvqco0","pricing_plan_id":"cebpf4jnsgd1na2vs0mg"},{"bike_id":"97990454-32f0-4760-af92-434f99781228","system_id":"levelo_inurba_marseille","lat":43.30947,"lon":5.39032,"is_reserved":false,"is_disabled":false,"rental_uris":{"android":"levelo://app?vid=97990454-32f0-4760-af92-434f99781228","ios":"levelo://app?vid=97990454-32f0-4760-af92-434f99781228"},"vehicle_type_id":"4","last_reported":1746796921,"current_range_meters":16800,"station_id":"ce4bgup2rcd13ifvqco0","pricing_plan_id":"cebpf4jnsgd1na2vs0mg"},{"bike_id":"846bbfd1-490a-4ea9-916a-f515009b6ec9","system_id":"levelo_inurba_marseille","lat":43.21193,"lon":5.35068,"is_reserved":false,"is_disabled":false,"rental_uris":{"android":"levelo://app?vid=846bbfd1-490a-4ea9-916a-f515009b6ec9","ios":"levelo://app?vid=846bbfd1-490a-4ea9-916a-f515009b6ec9"},"vehicle_type_id":"4","last_reported":1746796921,"current_range_meters":16800,"station_id":"st_cvj6sg6p6f1abm77japg","pricing_plan_id":"cebpf4jnsgd1na2vs0mg"},{"bike_id":"d50061f1-38d8-4fdc-97c8-68f09ad63f80","system_id":"levelo_inurba_marseille","lat":43.30595,"lon":5.37236,"is_reserved":false,"is_disabled":false,"rental_uris":{"android":"levelo://app?vid=d50061f1-38d8-4fdc-97c8-68f09ad63f80","ios":"levelo://app?vid=d50061f1-38d8-4fdc-97c8-68f09ad63f80"},"vehicle_type_id":"4","last_reported":1746796921,"current_range_meters":17200,"station_id":"ce4bgqh2rcd13ifvqc4g","pricing_plan_id":"cebpf4jnsgd1na2vs0mg"},{"bike_id":"9a519679-fe2b-4681-ac1e-1e3e83cb5078","system_id":"levelo_inurba_marseille","lat":43.23187,"lon":5.39987,"is_reserved":false,"is_disabled":false,"rental_uris":{"android":"levelo://app?vid=9a519679-fe2b-4681-ac1e-1e3e83cb5078","ios":"levelo://app?vid=9a519679-fe2b-4681-ac1e-1e3e83cb5078"},"vehicle_type_id":"4","last_reported":1746796921,"current_range_meters":17200,"station_id":"ce4bhn12rcd13ifvqgqg","pricing_plan_id":"cebpf4jnsgd1na2vs0mg"},{"bike_id":"853f7e14-6a93-46df-978e-81a3d7f36783","system_id":"levelo_inurba_marseille","lat":43.21749,"lon":5.34603,"is_reserved":false,"is_disabled":false,"rental_uris":{"android":"levelo://app?vid=853f7e14-6a93-46df-978e-81a3d7f36783","ios":"levelo://app?vid=853f7e14-6a93-46df-978e-81a3d7f36783"},"vehicle_type_id":"4","last_reported":1746796921,"current_range_meters":17200,"station_id":"st_cvj6r9ubvosntc0bgbag","pricing_plan_id":"cebpf4jnsgd1na2vs0mg"},{"bike_id":"e27d84df-3a29-4497-af36-65d308c3652c","system_id":"levelo_inurba_marseille","lat":43.29569,"lon":5.37526,"is_reserved":false,"is_disabled":false,"rental_uris":{"android":"levelo://app?vid=e27d84df-3a29-4497-af36-65d308c3652c","ios":"levelo://app?vid=e27d84df-3a29-4497-af36-65d308c3652c"},"vehicle_type_id":"4","last_reported":1746796921,"current_range_meters":17600,"station_id":"ce4bgh92rcd13ifvqb50","pricing_plan_id":"cebpf4jnsgd1na2vs0mg"},{"bike_id":"fde282df-0be2-46dc-9b7d-c04e041ee37e","system_id":"levelo_inurba_marseille","lat":43.29916,"lon":5.37476,"is_reserved":false,"is_disabled":false,"rental_uris":{"android":"levelo://app?vid=fde282df-0be2-46dc-9b7d-c04e041ee37e","ios":"levelo://app?vid=fde282df-0be2-46dc-9b7d-c04e041ee37e"},"vehicle_type_id":"4","last_reported":1746796921,"current_range_meters":17600,"station_id":"ce4bgjh2rcd13ifvqbg0","pricing_plan_id":"cebpf4jnsgd1na2vs0mg"},{"bike_id":"db1d5f79-a0ff-42df-aeb5-73a9037e3c59","system_id":"levelo_inurba_marseille","lat":43.30548,"lon":5.36521,"is_reserved":false,"is_disabled":false,"rental_uris":{"android":"levelo://app?vid=db1d5f79-a0ff-42df-aeb5-73a9037e3c59","ios":"levelo://app?vid=db1d5f79-a0ff-42df-aeb5-73a9037e3c59"},"vehicle_type_id":"4","last_reported":1746796921,"current_range_meters":17600,"station_id":"ce4bgs12rcd13ifvqcag","pricing_plan_id":"cebpf4jnsgd1na2vs0mg"},{"bike_id":"faa0bbc4-2016-4843-9281-bc5614fb6728","system_id":"levelo_inurba_marseille","lat":43.29193,"lon":5.39324,"is_reserved":false,"is_disabled":false,"rental_uris":{"android":"levelo://app?vid=faa0bbc4-2016-4843-9281-bc5614fb6728","ios":"levelo://app?vid=faa0bbc4-2016-4843-9281-bc5614fb6728"},"vehicle_type_id":"4","last_reported":1746796921,"current_range_meters":17600,"station_id":"ce4bh192rcd13ifvqdd0","pricing_plan_id":"cebpf4jnsgd1na2vs0mg"},{"bike_id":"19fbfea0-3b16-459f-b5df-95ecc2acee0f","system_id":"levelo_inurba_marseille","lat":43.27072,"lon":5.40298,"is_reserved":false,"is_disabled":false,"rental_uris":{"android":"levelo://app?vid=19fbfea0-3b16-459f-b5df-95ecc2acee0f","ios":"levelo://app?vid=19fbfea0-3b16-459f-b5df-95ecc2acee0f"},"vehicle_type_id":"4","last_reported":1746796921,"current_range_meters":17600,"station_id":"ce4bhk92rcd13ifvqgc0","pricing_plan_id":"cebpf4jnsgd1na2vs0mg"},{"bike_id":"506022b5-3ed3-4538-9b5d-ea09ca3195da","system_id":"levelo_inurba_marseille","lat":43.299,"lon":5.43652,"is_reserved":false,"is_disabled":false,"rental_uris":{"android":"levelo://app?vid=506022b5-3ed3-4538-9b5d-ea09ca3195da","ios":"levelo://app?vid=506022b5-3ed3-4538-9b5d-ea09ca3195da"},"vehicle_type_id":"4","last_reported":1746796921,"current_range_meters":17600,"station_id":"ce4bhpp2rcd13ifvqhfg","pricing_plan_id":"cebpf4jnsgd1na2vs0mg"},{"bike_id":"d79fa4d9-5838-4ff4-9313-ae3fa6c38eaa","system_id":"levelo_inurba_marseille","lat":43.29907,"lon":5.37479,"is_reserved":false,"is_disabled":false,"rental_uris":{"android":"levelo://app?vid=d79fa4d9-5838-4ff4-9313-ae3fa6c38eaa","ios":"levelo://app?vid=d79fa4d9-5838-4ff4-9313-ae3fa6c38eaa"},"vehicle_type_id":"4","last_reported":1746796921,"current_range_meters":18000,"station_id":"ce4bgjh2rcd13ifvqbg0","pricing_plan_id":"cebpf4jnsgd1na2vs0mg"},{"bike_id":"dbaef177-368a-440f-bbb8-42d06c5ce019","system_id":"levelo_inurba_marseille","lat":43.298759,"lon":5.389177,"is_reserved":false,"is_disabled":false,"rental_uris":{"android":"levelo://app?vid=dbaef177-368a-440f-bbb8-42d06c5ce019","ios":"levelo://app?vid=dbaef177-368a-440f-bbb8-42d06c5ce019"},"vehicle_type_id":"4","last_reported":1746796921,"current_range_meters":18000,"station_id":"ce4bh392rcd13ifvqdl0","pricing_plan_id":"cebpf4jnsgd1na2vs0mg"},{"bike_id":"2686c857-8de9-400b-b47d-5afe0c092100","system_id":"levelo_inurba_marseille","lat":43.28944,"lon":5.36638,"is_reserved":false,"is_disabled":false,"rental_uris":{"android":"levelo://app?vid=2686c857-8de9-400b-b47d-5afe0c092100","ios":"levelo://app?vid=2686c857-8de9-400b-b47d-5afe0c092100"},"vehicle_type_id":"4","last_reported":1746796921,"current_range_meters":18000,"station_id":"ce4bhap2rcd13ifvqek0","pricing_plan_id":"cebpf4jnsgd1na2vs0mg"},{"bike_id":"881c097a-b180-44f5-9d6b-1f54f714978b","system_id":"levelo_inurba_marseille","lat":43.27079,"lon":5.42283,"is_reserved":false,"is_disabled":false,"rental_uris":{"android":"levelo://app?vid=881c097a-b180-44f5-9d6b-1f54f714978b","ios":"levelo://app?vid=881c097a-b180-44f5-9d6b-1f54f714978b"},"vehicle_type_id":"4","last_reported":1746796921,"current_range_meters":18000,"station_id":"ce4bhk92rcd13ifvqgb0","pricing_plan_id":"cebpf4jnsgd1na2vs0mg"},{"bike_id":"c65732d7-d6e4-4134-b90d-85c2276db215","system_id":"levelo_inurba_marseille","lat":43.26212,"lon":5.40445,"is_reserved":false,"is_disabled":false,"rental_uris":{"android":"levelo://app?vid=c65732d7-d6e4-4134-b90d-85c2276db215","ios":"levelo://app?vid=c65732d7-d6e4-4134-b90d-85c2276db215"},"vehicle_type_id":"4","last_reported":1746796921,"current_range_meters":18000,"station_id":"ce4bhmh2rcd13ifvqgmg","pricing_plan_id":"cebpf4jnsgd1na2vs0mg"},{"bike_id":"9d5f51b6-844c-4d70-a1db-8fd8fc1a0846","system_id":"levelo_inurba_marseille","lat":43.32676,"lon":5.40991,"is_reserved":false,"is_disabled":false,"rental_uris":{"android":"levelo://app?vid=9d5f51b6-844c-4d70-a1db-8fd8fc1a0846","ios":"levelo://app?vid=9d5f51b6-844c-4d70-a1db-8fd8fc1a0846"},"vehicle_type_id":"4","last_reported":1746796921,"current_range_meters":18000,"station_id":"ce4bhpp2rcd13ifvqhgg","pricing_plan_id":"cebpf4jnsgd1na2vs0mg"},{"bike_id":"0a1a2cf6-8ec4-4374-a505-7537295ab120","system_id":"levelo_inurba_marseille","lat":43.33606,"lon":5.41056,"is_reserved":false,"is_disabled":false,"rental_uris":{"android":"levelo://app?vid=0a1a2cf6-8ec4-4374-a505-7537295ab120","ios":"levelo://app?vid=0a1a2cf6-8ec4-4374-a505-7537295ab120"},"vehicle_type_id":"4","last_reported":1746796921,"current_range_meters":18000,"station_id":"ce4bhqh2rcd13ifvqhmg","pricing_plan_id":"cebpf4jnsgd1na2vs0mg"},{"bike_id":"3a16fa91-39cc-4cad-9790-391d64f7345b","system_id":"levelo_inurba_marseille","lat":43.299329,"lon":5.363799,"is_reserved":false,"is_disabled":false,"rental_uris":{"android":"levelo://app?vid=3a16fa91-39cc-4cad-9790-391d64f7345b","ios":"levelo://app?vid=3a16fa91-39cc-4cad-9790-391d64f7345b"},"vehicle_type_id":"4","last_reported":1746796921,"current_range_meters":18800,"station_id":"","pricing_plan_id":"cebpf4jnsgd1na2vs0mg"},{"bike_id":"621f5b7a-3051-4cc8-8254-53e8da0e6465","system_id":"levelo_inurba_marseille","lat":43.29202,"lon":5.39332,"is_reserved":false,"is_disabled":false,"rental_uris":{"android":"levelo://app?vid=621f5b7a-3051-4cc8-8254-53e8da0e6465","ios":"levelo://app?vid=621f5b7a-3051-4cc8-8254-53e8da0e6465"},"vehicle_type_id":"4","last_reported":1746796921,"current_range_meters":18800,"station_id":"ce4bh192rcd13ifvqdd0","pricing_plan_id":"cebpf4jnsgd1na2vs0mg"},{"bike_id":"bb495b1d-188b-49e3-8195-6b30e0477e72","system_id":"levelo_inurba_marseille","lat":43.25007,"lon":5.38915,"is_reserved":false,"is_disabled":false,"rental_uris":{"android":"levelo://app?vid=bb495b1d-188b-49e3-8195-6b30e0477e72","ios":"levelo://app?vid=bb495b1d-188b-49e3-8195-6b30e0477e72"},"vehicle_type_id":"4","last_reported":1746796921,"current_range_meters":18800,"station_id":"ce4bhgp2rcd13ifvqfd0","pricing_plan_id":"cebpf4jnsgd1na2vs0mg"},{"bike_id":"624d3175-4cd8-4d4d-9282-7c42dbfe62ca","system_id":"levelo_inurba_marseille","lat":43.279402,"lon":5.410454,"is_reserved":false,"is_disabled":false,"rental_uris":{"android":"levelo://app?vid=624d3175-4cd8-4d4d-9282-7c42dbfe62ca","ios":"levelo://app?vid=624d3175-4cd8-4d4d-9282-7c42dbfe62ca"},"vehicle_type_id":"4","last_reported":1746796921,"current_range_meters":18800,"station_id":"ce4bhnp2rcd13ifvqh0g","pricing_plan_id":"cebpf4jnsgd1na2vs0mg"},{"bike_id":"2b695556-5fdc-4725-a789-9b7b81b7a3a6","system_id":"levelo_inurba_marseille","lat":43.323562,"lon":5.367399,"is_reserved":false,"is_disabled":false,"rental_uris":{"android":"levelo://app?vid=2b695556-5fdc-4725-a789-9b7b81b7a3a6","ios":"levelo://app?vid=2b695556-5fdc-4725-a789-9b7b81b7a3a6"},"vehicle_type_id":"4","last_reported":1746796921,"current_range_meters":18800,"station_id":"ce4bhsh2rcd13ifvqi2g","pricing_plan_id":"cebpf4jnsgd1na2vs0mg"},{"bike_id":"fc2577e7-1497-425b-9d4f-ab8d7dc843c6","system_id":"levelo_inurba_marseille","lat":43.33771,"lon":5.37485,"is_reserved":false,"is_disabled":false,"rental_uris":{"android":"levelo://app?vid=fc2577e7-1497-425b-9d4f-ab8d7dc843c6","ios":"levelo://app?vid=fc2577e7-1497-425b-9d4f-ab8d7dc843c6"},"vehicle_type_id":"4","last_reported":1746796921,"current_range_meters":19200,"station_id":"","pricing_plan_id":"cebpf4jnsgd1na2vs0mg"},{"bike_id":"545e5687-b7df-4883-81be-75a8925d5f91","system_id":"levelo_inurba_marseille","lat":43.337444,"lon":5.374475,"is_reserved":false,"is_disabled":false,"rental_uris":{"android":"levelo://app?vid=545e5687-b7df-4883-81be-75a8925d5f91","ios":"levelo://app?vid=545e5687-b7df-4883-81be-75a8925d5f91"},"vehicle_type_id":"4","last_reported":1746796921,"current_range_meters":19200,"station_id":"","pricing_plan_id":"cebpf4jnsgd1na2vs0mg"},{"bike_id":"ffe00c70-daef-4e3b-8f3f-f64353dfe483","system_id":"levelo_inurba_marseille","lat":43.29572,"lon":5.37523,"is_reserved":false,"is_disabled":false,"rental_uris":{"android":"levelo://app?vid=ffe00c70-daef-4e3b-8f3f-f64353dfe483","ios":"levelo://app?vid=ffe00c70-daef-4e3b-8f3f-f64353dfe483"},"vehicle_type_id":"4","last_reported":1746796921,"current_range_meters":19200,"station_id":"ce4bgh92rcd13ifvqb50","pricing_plan_id":"cebpf4jnsgd1na2vs0mg"},{"bike_id":"edd60f3c-8f20-43fd-b8a1-002c70da4042","system_id":"levelo_inurba_marseille","lat":43.24546,"lon":5.39532,"is_reserved":false,"is_disabled":false,"rental_uris":{"android":"levelo://app?vid=edd60f3c-8f20-43fd-b8a1-002c70da4042","ios":"levelo://app?vid=edd60f3c-8f20-43fd-b8a1-002c70da4042"},"vehicle_type_id":"4","last_reported":1746796921,"current_range_meters":19200,"station_id":"ce4bhlp2rcd13ifvqgjg","pricing_plan_id":"cebpf4jnsgd1na2vs0mg"},{"bike_id":"66d39f5f-1aac-423b-9ea7-bf9c1b0e5079","system_id":"levelo_inurba_marseille","lat":43.27514,"lon":5.41159,"is_reserved":false,"is_disabled":false,"rental_uris":{"android":"levelo://app?vid=66d39f5f-1aac-423b-9ea7-bf9c1b0e5079","ios":"levelo://app?vid=66d39f5f-1aac-423b-9ea7-bf9c1b0e5079"},"vehicle_type_id":"4","last_reported":1746796921,"current_range_meters":19600,"station_id":"","pricing_plan_id":"cebpf4jnsgd1na2vs0mg"},{"bike_id":"c8142ff4-c608-4b73-ac6a-4859689a35ab","system_id":"levelo_inurba_marseille","lat":43.30954,"lon":5.39001,"is_reserved":false,"is_disabled":false,"rental_uris":{"android":"levelo://app?vid=c8142ff4-c608-4b73-ac6a-4859689a35ab","ios":"levelo://app?vid=c8142ff4-c608-4b73-ac6a-4859689a35ab"},"vehicle_type_id":"4","last_reported":1746796921,"current_range_meters":20000,"station_id":"","pricing_plan_id":"cebpf4jnsgd1na2vs0mg"},{"bike_id":"dca64dac-032a-49ff-b1bb-dfc141fe5371","system_id":"levelo_inurba_marseille","lat":43.29373,"lon":5.37845,"is_reserved":false,"is_disabled":false,"rental_uris":{"android":"levelo://app?vid=dca64dac-032a-49ff-b1bb-dfc141fe5371","ios":"levelo://app?vid=dca64dac-032a-49ff-b1bb-dfc141fe5371"},"vehicle_type_id":"4","last_reported":1746796921,"current_range_meters":20000,"station_id":"ce4bgjh2rcd13ifvqbf0","pricing_plan_id":"cebpf4jnsgd1na2vs0mg"},{"bike_id":"2d9003fe-98f4-461e-a3ff-8d60954341ed","system_id":"levelo_inurba_marseille","lat":43.30186,"lon":5.36632,"is_reserved":false,"is_disabled":false,"rental_uris":{"android":"levelo://app?vid=2d9003fe-98f4-461e-a3ff-8d60954341ed","ios":"levelo://app?vid=2d9003fe-98f4-461e-a3ff-8d60954341ed"},"vehicle_type_id":"4","last_reported":1746796921,"current_range_meters":20000,"station_id":"ce4bgrh2rcd13ifvqc8g","pricing_plan_id":"cebpf4jnsgd1na2vs0mg"},{"bike_id":"e0ce3b17-c205-4e13-a01b-500581843b8d","system_id":"levelo_inurba_marseille","lat":43.30557,"lon":5.36713,"is_reserved":false,"is_disabled":false,"rental_uris":{"android":"levelo://app?vid=e0ce3b17-c205-4e13-a01b-500581843b8d","ios":"levelo://app?vid=e0ce3b17-c205-4e13-a01b-500581843b8d"},"vehicle_type_id":"4","last_reported":1746796921,"current_range_meters":20000,"station_id":"ce4bgrp2rcd13ifvqc9g","pricing_plan_id":"cebpf4jnsgd1na2vs0mg"},{"bike_id":"4929638c-1fc6-4ef2-9bfa-aac1e7ebf397","system_id":"levelo_inurba_marseille","lat":43.30147,"lon":5.37422,"is_reserved":false,"is_disabled":false,"rental_uris":{"android":"levelo://app?vid=4929638c-1fc6-4ef2-9bfa-aac1e7ebf397","ios":"levelo://app?vid=4929638c-1fc6-4ef2-9bfa-aac1e7ebf397"},"vehicle_type_id":"4","last_reported":1746796921,"current_range_meters":20000,"station_id":"ce4bgs92rcd13ifvqcc0","pricing_plan_id":"cebpf4jnsgd1na2vs0mg"},{"bike_id":"315d2909-a4e1-4b60-995d-515d1c4cee1b","system_id":"levelo_inurba_marseille","lat":43.30875,"lon":5.39631,"is_reserved":false,"is_disabled":false,"rental_uris":{"android":"levelo://app?vid=315d2909-a4e1-4b60-995d-515d1c4cee1b","ios":"levelo://app?vid=315d2909-a4e1-4b60-995d-515d1c4cee1b"},"vehicle_type_id":"4","last_reported":1746796921,"current_range_meters":20000,"station_id":"ce4bh012rcd13ifvqcv0","pricing_plan_id":"cebpf4jnsgd1na2vs0mg"},{"bike_id":"8f0cbe76-df55-4614-8d55-2314fdd938a3","system_id":"levelo_inurba_marseille","lat":43.2857,"lon":5.39502,"is_reserved":false,"is_disabled":false,"rental_uris":{"android":"levelo://app?vid=8f0cbe76-df55-4614-8d55-2314fdd938a3","ios":"levelo://app?vid=8f0cbe76-df55-4614-8d55-2314fdd938a3"},"vehicle_type_id":"4","last_reported":1746796921,"current_range_meters":20000,"station_id":"ce4bh292rcd13ifvqdg0","pricing_plan_id":"cebpf4jnsgd1na2vs0mg"},{"bike_id":"351797a0-ee3f-4e96-acf3-26e39630bfa6","system_id":"levelo_inurba_marseille","lat":43.28704,"lon":5.37392,"is_reserved":false,"is_disabled":false,"rental_uris":{"android":"levelo://app?vid=351797a0-ee3f-4e96-acf3-26e39630bfa6","ios":"levelo://app?vid=351797a0-ee3f-4e96-acf3-26e39630bfa6"},"vehicle_type_id":"4","last_reported":1746796921,"current_range_meters":20000,"station_id":"ce4bh3p2rcd13ifvqdq0","pricing_plan_id":"cebpf4jnsgd1na2vs0mg"},{"bike_id":"e4e5cd56-f379-4b7f-9d16-2b6ab9e5b838","system_id":"levelo_inurba_marseille","lat":43.280783,"lon":5.396533,"is_reserved":false,"is_disabled":false,"rental_uris":{"android":"levelo://app?vid=e4e5cd56-f379-4b7f-9d16-2b6ab9e5b838","ios":"levelo://app?vid=e4e5cd56-f379-4b7f-9d16-2b6ab9e5b838"},"vehicle_type_id":"4","last_reported":1746796921,"current_range_meters":20000,"station_id":"ce4bho12rcd13ifvqh2g","pricing_plan_id":"cebpf4jnsgd1na2vs0mg"},{"bike_id":"6519b47e-9950-4d92-8563-4c9e133cff56","system_id":"levelo_inurba_marseille","lat":43.32652,"lon":5.40991,"is_reserved":false,"is_disabled":false,"rental_uris":{"android":"levelo://app?vid=6519b47e-9950-4d92-8563-4c9e133cff56","ios":"levelo://app?vid=6519b47e-9950-4d92-8563-4c9e133cff56"},"vehicle_type_id":"4","last_reported":1746796921,"current_range_meters":20000,"station_id":"ce4bhpp2rcd13ifvqhgg","pricing_plan_id":"cebpf4jnsgd1na2vs0mg"},{"bike_id":"41e5ce55-0c16-4f98-8fd9-da7b5ed13c37","system_id":"levelo_inurba_marseille","lat":43.22933,"lon":5.35378,"is_reserved":false,"is_disabled":false,"rental_uris":{"android":"levelo://app?vid=41e5ce55-0c16-4f98-8fd9-da7b5ed13c37","ios":"levelo://app?vid=41e5ce55-0c16-4f98-8fd9-da7b5ed13c37"},"vehicle_type_id":"4","last_reported":1746796921,"current_range_meters":20000,"station_id":"cpo3532slgdg3j2ikp40","pricing_plan_id":"cebpf4jnsgd1na2vs0mg"},{"bike_id":"9b84e65f-2424-4f8e-b51b-21355d123536","system_id":"levelo_inurba_marseille","lat":43.31502,"lon":5.37283,"is_reserved":false,"is_disabled":false,"rental_uris":{"android":"levelo://app?vid=9b84e65f-2424-4f8e-b51b-21355d123536","ios":"levelo://app?vid=9b84e65f-2424-4f8e-b51b-21355d123536"},"vehicle_type_id":"4","last_reported":1746796921,"current_range_meters":20400,"station_id":"ce4bgt12rcd13ifvqcd0","pricing_plan_id":"cebpf4jnsgd1na2vs0mg"},{"bike_id":"27d081e0-c652-4e54-9549-1b7116cc2e46","system_id":"levelo_inurba_marseille","lat":43.2582,"lon":5.39439,"is_reserved":false,"is_disabled":false,"rental_uris":{"android":"levelo://app?vid=27d081e0-c652-4e54-9549-1b7116cc2e46","ios":"levelo://app?vid=27d081e0-c652-4e54-9549-1b7116cc2e46"},"vehicle_type_id":"4","last_reported":1746796921,"current_range_meters":20400,"station_id":"ce4bhip2rcd13ifvqft0","pricing_plan_id":"cebpf4jnsgd1na2vs0mg"},{"bike_id":"a1121b36-b5cd-4dda-96ef-13a3dfaa55e1","system_id":"levelo_inurba_marseille","lat":43.301401,"lon":5.387791,"is_reserved":false,"is_disabled":false,"rental_uris":{"android":"levelo://app?vid=a1121b36-b5cd-4dda-96ef-13a3dfaa55e1","ios":"levelo://app?vid=a1121b36-b5cd-4dda-96ef-13a3dfaa55e1"},"vehicle_type_id":"4","last_reported":1746796921,"current_range_meters":20800,"station_id":"","pricing_plan_id":"cebpf4jnsgd1na2vs0mg"},{"bike_id":"3f60d699-9141-4d7c-b7a0-7670691cbb3c","system_id":"levelo_inurba_marseille","lat":43.31336,"lon":5.39687,"is_reserved":false,"is_disabled":false,"rental_uris":{"android":"levelo://app?vid=3f60d699-9141-4d7c-b7a0-7670691cbb3c","ios":"levelo://app?vid=3f60d699-9141-4d7c-b7a0-7670691cbb3c"},"vehicle_type_id":"4","last_reported":1746796921,"current_range_meters":20800,"station_id":"ce4bgvp2rcd13ifvqcu0","pricing_plan_id":"cebpf4jnsgd1na2vs0mg"},{"bike_id":"dc87e86b-52ac-43da-a967-3b3c20be364e","system_id":"levelo_inurba_marseille","lat":43.273093,"lon":5.39136,"is_reserved":false,"is_disabled":false,"rental_uris":{"android":"levelo://app?vid=dc87e86b-52ac-43da-a967-3b3c20be364e","ios":"levelo://app?vid=dc87e86b-52ac-43da-a967-3b3c20be364e"},"vehicle_type_id":"4","last_reported":1746796921,"current_range_meters":20800,"station_id":"ce4bhgp2rcd13ifvqfe0","pricing_plan_id":"cebpf4jnsgd1na2vs0mg"},{"bike_id":"a7ad83d4-b109-4b29-aaf3-aaaf261d1a57","system_id":"levelo_inurba_marseille","lat":43.25891,"lon":5.40873,"is_reserved":false,"is_disabled":false,"rental_uris":{"android":"levelo://app?vid=a7ad83d4-b109-4b29-aaf3-aaaf261d1a57","ios":"levelo://app?vid=a7ad83d4-b109-4b29-aaf3-aaaf261d1a57"},"vehicle_type_id":"4","last_reported":1746796921,"current_range_meters":20800,"station_id":"ce4bhm92rcd13ifvqglg","pricing_plan_id":"cebpf4jnsgd1na2vs0mg"},{"bike_id":"bf19a164-6f27-424e-8bc1-24d5070fd33a","system_id":"levelo_inurba_marseille","lat":43.30142,"lon":5.38077,"is_reserved":false,"is_disabled":false,"rental_uris":{"android":"levelo://app?vid=bf19a164-6f27-424e-8bc1-24d5070fd33a","ios":"levelo://app?vid=bf19a164-6f27-424e-8bc1-24d5070fd33a"},"vehicle_type_id":"4","last_reported":1746796921,"current_range_meters":21600,"station_id":"ce4bgjp2rcd13ifvqbh0","pricing_plan_id":"cebpf4jnsgd1na2vs0mg"},{"bike_id":"ab92b26e-d49f-4dc7-af1b-8e10eee274c9","system_id":"levelo_inurba_marseille","lat":43.3053,"lon":5.366985,"is_reserved":false,"is_disabled":false,"rental_uris":{"android":"levelo://app?vid=ab92b26e-d49f-4dc7-af1b-8e10eee274c9","ios":"levelo://app?vid=ab92b26e-d49f-4dc7-af1b-8e10eee274c9"},"vehicle_type_id":"4","last_reported":1746796921,"current_range_meters":21600,"station_id":"ce4bgrp2rcd13ifvqc9g","pricing_plan_id":"cebpf4jnsgd1na2vs0mg"},{"bike_id":"ef9af619-31da-4d4a-9502-0bd35f68a88a","system_id":"levelo_inurba_marseille","lat":43.30312,"lon":5.40417,"is_reserved":false,"is_disabled":false,"rental_uris":{"android":"levelo://app?vid=ef9af619-31da-4d4a-9502-0bd35f68a88a","ios":"levelo://app?vid=ef9af619-31da-4d4a-9502-0bd35f68a88a"},"vehicle_type_id":"4","last_reported":1746796921,"current_range_meters":21600,"station_id":"ce4bh012rcd13ifvqd10","pricing_plan_id":"cebpf4jnsgd1na2vs0mg"},{"bike_id":"f0398a64-9e21-402f-a2b4-28d100260574","system_id":"levelo_inurba_marseille","lat":43.28367,"lon":5.38098,"is_reserved":false,"is_disabled":false,"rental_uris":{"android":"levelo://app?vid=f0398a64-9e21-402f-a2b4-28d100260574","ios":"levelo://app?vid=f0398a64-9e21-402f-a2b4-28d100260574"},"vehicle_type_id":"4","last_reported":1746796921,"current_range_meters":21600,"station_id":"ce4bh412rcd13ifvqdr0","pricing_plan_id":"cebpf4jnsgd1na2vs0mg"},{"bike_id":"0025fc8d-38cb-4d4d-ab88-942beb905aa3","system_id":"levelo_inurba_marseille","lat":43.30526,"lon":5.38421,"is_reserved":false,"is_disabled":false,"rental_uris":{"android":"levelo://app?vid=0025fc8d-38cb-4d4d-ab88-942beb905aa3","ios":"levelo://app?vid=0025fc8d-38cb-4d4d-ab88-942beb905aa3"},"vehicle_type_id":"4","last_reported":1746796921,"current_range_meters":22000,"station_id":"ce4bgg92rcd13ifvqb30","pricing_plan_id":"cebpf4jnsgd1na2vs0mg"},{"bike_id":"5f80f2dd-3741-468c-a68a-b12581b6d6dc","system_id":"levelo_inurba_marseille","lat":43.29726,"lon":5.37689,"is_reserved":false,"is_disabled":false,"rental_uris":{"android":"levelo://app?vid=5f80f2dd-3741-468c-a68a-b12581b6d6dc","ios":"levelo://app?vid=5f80f2dd-3741-468c-a68a-b12581b6d6dc"},"vehicle_type_id":"4","last_reported":1746796921,"current_range_meters":22000,"station_id":"ce4bgkh2rcd13ifvqbl0","pricing_plan_id":"cebpf4jnsgd1na2vs0mg"},{"bike_id":"a8472821-ac6c-4cb3-aea8-6d5dd2cc3a4c","system_id":"levelo_inurba_marseille","lat":43.30548,"lon":5.3669,"is_reserved":false,"is_disabled":false,"rental_uris":{"android":"levelo://app?vid=a8472821-ac6c-4cb3-aea8-6d5dd2cc3a4c","ios":"levelo://app?vid=a8472821-ac6c-4cb3-aea8-6d5dd2cc3a4c"},"vehicle_type_id":"4","last_reported":1746796921,"current_range_meters":22000,"station_id":"ce4bgrp2rcd13ifvqc9g","pricing_plan_id":"cebpf4jnsgd1na2vs0mg"},{"bike_id":"6f195d7c-ae8f-4bec-ae63-1e1543bfd339","system_id":"levelo_inurba_marseille","lat":43.29169,"lon":5.393,"is_reserved":false,"is_disabled":false,"rental_uris":{"android":"levelo://app?vid=6f195d7c-ae8f-4bec-ae63-1e1543bfd339","ios":"levelo://app?vid=6f195d7c-ae8f-4bec-ae63-1e1543bfd339"},"vehicle_type_id":"4","last_reported":1746796921,"current_range_meters":22000,"station_id":"ce4bh192rcd13ifvqdd0","pricing_plan_id":"cebpf4jnsgd1na2vs0mg"},{"bike_id":"2d6856ac-db8e-4729-a56c-d8940dfaff9b","system_id":"levelo_inurba_marseille","lat":43.2593,"lon":5.40909,"is_reserved":false,"is_disabled":false,"rental_uris":{"android":"levelo://app?vid=2d6856ac-db8e-4729-a56c-d8940dfaff9b","ios":"levelo://app?vid=2d6856ac-db8e-4729-a56c-d8940dfaff9b"},"vehicle_type_id":"4","last_reported":1746796921,"current_range_meters":22000,"station_id":"ce4bhm92rcd13ifvqglg","pricing_plan_id":"cebpf4jnsgd1na2vs0mg"},{"bike_id":"737d6b9e-1201-43d3-ade4-1cdf6e01a511","system_id":"levelo_inurba_marseille","lat":43.211891,"lon":5.350779,"is_reserved":false,"is_disabled":false,"rental_uris":{"android":"levelo://app?vid=737d6b9e-1201-43d3-ade4-1cdf6e01a511","ios":"levelo://app?vid=737d6b9e-1201-43d3-ade4-1cdf6e01a511"},"vehicle_type_id":"4","last_reported":1746796921,"current_range_meters":22000,"station_id":"st_cvj6sg6p6f1abm77japg","pricing_plan_id":"cebpf4jnsgd1na2vs0mg"},{"bike_id":"7f26b5c9-fc01-4daf-94dd-4f64f2a168d1","system_id":"levelo_inurba_marseille","lat":43.29621,"lon":5.38122,"is_reserved":false,"is_disabled":false,"rental_uris":{"android":"levelo://app?vid=7f26b5c9-fc01-4daf-94dd-4f64f2a168d1","ios":"levelo://app?vid=7f26b5c9-fc01-4daf-94dd-4f64f2a168d1"},"vehicle_type_id":"4","last_reported":1746796921,"current_range_meters":22400,"station_id":"ce4bgl12rcd13ifvqbo0","pricing_plan_id":"cebpf4jnsgd1na2vs0mg"},{"bike_id":"51cd4176-6594-46c4-aa75-39a0c9cb5d7a","system_id":"levelo_inurba_marseille","lat":43.314838,"lon":5.373094,"is_reserved":false,"is_disabled":false,"rental_uris":{"android":"levelo://app?vid=51cd4176-6594-46c4-aa75-39a0c9cb5d7a","ios":"levelo://app?vid=51cd4176-6594-46c4-aa75-39a0c9cb5d7a"},"vehicle_type_id":"4","last_reported":1746796921,"current_range_meters":22400,"station_id":"ce4bgt12rcd13ifvqcd0","pricing_plan_id":"cebpf4jnsgd1na2vs0mg"},{"bike_id":"4807993a-3268-4005-9e95-f6cd341a4ced","system_id":"levelo_inurba_marseille","lat":43.29028,"lon":5.399518,"is_reserved":false,"is_disabled":false,"rental_uris":{"android":"levelo://app?vid=4807993a-3268-4005-9e95-f6cd341a4ced","ios":"levelo://app?vid=4807993a-3268-4005-9e95-f6cd341a4ced"},"vehicle_type_id":"4","last_reported":1746796921,"current_range_meters":22400,"station_id":"ce4bh392rcd13ifvqdm0","pricing_plan_id":"cebpf4jnsgd1na2vs0mg"},{"bike_id":"4f12f37e-139c-41ea-8536-c84b7cacbde8","system_id":"levelo_inurba_marseille","lat":43.28974,"lon":5.3783,"is_reserved":false,"is_disabled":false,"rental_uris":{"android":"levelo://app?vid=4f12f37e-139c-41ea-8536-c84b7cacbde8","ios":"levelo://app?vid=4f12f37e-139c-41ea-8536-c84b7cacbde8"},"vehicle_type_id":"4","last_reported":1746796921,"current_range_meters":22400,"station_id":"ce4bh9p2rcd13ifvqed0","pricing_plan_id":"cebpf4jnsgd1na2vs0mg"},{"bike_id":"e452c63a-c77f-4b5c-9712-2be0fc8111c4","system_id":"levelo_inurba_marseille","lat":43.32536,"lon":5.41477,"is_reserved":false,"is_disabled":false,"rental_uris":{"android":"levelo://app?vid=e452c63a-c77f-4b5c-9712-2be0fc8111c4","ios":"levelo://app?vid=e452c63a-c77f-4b5c-9712-2be0fc8111c4"},"vehicle_type_id":"4","last_reported":1746796921,"current_range_meters":22400,"station_id":"ce4bhq12rcd13ifvqhhg","pricing_plan_id":"cebpf4jnsgd1na2vs0mg"},{"bike_id":"589be833-6fc8-4c7e-abe3-20b2a016c12e","system_id":"levelo_inurba_marseille","lat":43.212,"lon":5.35078,"is_reserved":false,"is_disabled":false,"rental_uris":{"android":"levelo://app?vid=589be833-6fc8-4c7e-abe3-20b2a016c12e","ios":"levelo://app?vid=589be833-6fc8-4c7e-abe3-20b2a016c12e"},"vehicle_type_id":"4","last_reported":1746796921,"current_range_meters":22400,"station_id":"st_cvj6sg6p6f1abm77japg","pricing_plan_id":"cebpf4jnsgd1na2vs0mg"},{"bike_id":"229359d9-1c94-4966-917d-184906ea0e90","system_id":"levelo_inurba_marseille","lat":43.29574,"lon":5.37501,"is_reserved":false,"is_disabled":false,"rental_uris":{"android":"levelo://app?vid=229359d9-1c94-4966-917d-184906ea0e90","ios":"levelo://app?vid=229359d9-1c94-4966-917d-184906ea0e90"},"vehicle_type_id":"4","last_reported":1746796921,"current_range_meters":22800,"station_id":"ce4bgh92rcd13ifvqb50","pricing_plan_id":"cebpf4jnsgd1na2vs0mg"},{"bike_id":"e2742018-34fe-4ec1-baf7-3f3bb48e5f7e","system_id":"levelo_inurba_marseille","lat":43.30132,"lon":5.38781,"is_reserved":false,"is_disabled":false,"rental_uris":{"android":"levelo://app?vid=e2742018-34fe-4ec1-baf7-3f3bb48e5f7e","ios":"levelo://app?vid=e2742018-34fe-4ec1-baf7-3f3bb48e5f7e"},"vehicle_type_id":"4","last_reported":1746796921,"current_range_meters":22800,"station_id":"ce4bghh2rcd13ifvqb60","pricing_plan_id":"cebpf4jnsgd1na2vs0mg"},{"bike_id":"8d013404-2553-48ab-8026-6ed37891fe5d","system_id":"levelo_inurba_marseille","lat":43.297948,"lon":5.38109,"is_reserved":false,"is_disabled":false,"rental_uris":{"android":"levelo://app?vid=8d013404-2553-48ab-8026-6ed37891fe5d","ios":"levelo://app?vid=8d013404-2553-48ab-8026-6ed37891fe5d"},"vehicle_type_id":"4","last_reported":1746796921,"current_range_meters":22800,"station_id":"ce4bgip2rcd13ifvqbb0","pricing_plan_id":"cebpf4jnsgd1na2vs0mg"},{"bike_id":"56ade970-0816-4a77-9adb-398921fe1e62","system_id":"levelo_inurba_marseille","lat":43.29617,"lon":5.37156,"is_reserved":false,"is_disabled":false,"rental_uris":{"android":"levelo://app?vid=56ade970-0816-4a77-9adb-398921fe1e62","ios":"levelo://app?vid=56ade970-0816-4a77-9adb-398921fe1e62"},"vehicle_type_id":"4","last_reported":1746796921,"current_range_meters":22800,"station_id":"ce4bgnh2rcd13ifvqc0g","pricing_plan_id":"cebpf4jnsgd1na2vs0mg"},{"bike_id":"08dbeb2a-efa1-45e5-872b-9c88ec32e877","system_id":"levelo_inurba_marseille","lat":43.30592,"lon":5.37231,"is_reserved":false,"is_disabled":false,"rental_uris":{"android":"levelo://app?vid=08dbeb2a-efa1-45e5-872b-9c88ec32e877","ios":"levelo://app?vid=08dbeb2a-efa1-45e5-872b-9c88ec32e877"},"vehicle_type_id":"4","last_reported":1746796921,"current_range_meters":22800,"station_id":"ce4bgqh2rcd13ifvqc4g","pricing_plan_id":"cebpf4jnsgd1na2vs0mg"},{"bike_id":"fcc8b52d-0b0f-403b-80e0-f52f14aced48","system_id":"levelo_inurba_marseille","lat":43.31124,"lon":5.37767,"is_reserved":false,"is_disabled":false,"rental_uris":{"android":"levelo://app?vid=fcc8b52d-0b0f-403b-80e0-f52f14aced48","ios":"levelo://app?vid=fcc8b52d-0b0f-403b-80e0-f52f14aced48"},"vehicle_type_id":"4","last_reported":1746796921,"current_range_meters":22800,"station_id":"ce4bgt92rcd13ifvqcg0","pricing_plan_id":"cebpf4jnsgd1na2vs0mg"},{"bike_id":"99ab0b52-1e8f-4e02-91dd-e66dc1e333eb","system_id":"levelo_inurba_marseille","lat":43.25582,"lon":5.38232,"is_reserved":false,"is_disabled":false,"rental_uris":{"android":"levelo://app?vid=99ab0b52-1e8f-4e02-91dd-e66dc1e333eb","ios":"levelo://app?vid=99ab0b52-1e8f-4e02-91dd-e66dc1e333eb"},"vehicle_type_id":"4","last_reported":1746796921,"current_range_meters":22800,"station_id":"ce4bhih2rcd13ifvqfs0","pricing_plan_id":"cebpf4jnsgd1na2vs0mg"},{"bike_id":"41fb1b4e-f0b2-47b8-a7ca-db437515f380","system_id":"levelo_inurba_marseille","lat":43.26218,"lon":5.40443,"is_reserved":false,"is_disabled":false,"rental_uris":{"android":"levelo://app?vid=41fb1b4e-f0b2-47b8-a7ca-db437515f380","ios":"levelo://app?vid=41fb1b4e-f0b2-47b8-a7ca-db437515f380"},"vehicle_type_id":"4","last_reported":1746796921,"current_range_meters":22800,"station_id":"ce4bhmh2rcd13ifvqgmg","pricing_plan_id":"cebpf4jnsgd1na2vs0mg"},{"bike_id":"52756607-7827-4f61-8695-3cabe7ff1d7c","system_id":"levelo_inurba_marseille","lat":43.241743,"lon":5.397233,"is_reserved":false,"is_disabled":false,"rental_uris":{"android":"levelo://app?vid=52756607-7827-4f61-8695-3cabe7ff1d7c","ios":"levelo://app?vid=52756607-7827-4f61-8695-3cabe7ff1d7c"},"vehicle_type_id":"4","last_reported":1746796921,"current_range_meters":22800,"station_id":"ce4bhn12rcd13ifvqgpg","pricing_plan_id":"cebpf4jnsgd1na2vs0mg"},{"bike_id":"9064b38d-bcdb-4be1-b489-ce67e3b1bec7","system_id":"levelo_inurba_marseille","lat":43.27486,"lon":5.42446,"is_reserved":false,"is_disabled":false,"rental_uris":{"android":"levelo://app?vid=9064b38d-bcdb-4be1-b489-ce67e3b1bec7","ios":"levelo://app?vid=9064b38d-bcdb-4be1-b489-ce67e3b1bec7"},"vehicle_type_id":"4","last_reported":1746796921,"current_range_meters":22800,"station_id":"ce4bhn92rcd13ifvqgrg","pricing_plan_id":"cebpf4jnsgd1na2vs0mg"},{"bike_id":"b29d91df-e2cb-4a9b-b982-cdf67db12468","system_id":"levelo_inurba_marseille","lat":43.217503,"lon":5.346075,"is_reserved":false,"is_disabled":false,"rental_uris":{"android":"levelo://app?vid=b29d91df-e2cb-4a9b-b982-cdf67db12468","ios":"levelo://app?vid=b29d91df-e2cb-4a9b-b982-cdf67db12468"},"vehicle_type_id":"4","last_reported":1746796921,"current_range_meters":22800,"station_id":"st_cvj6r9ubvosntc0bgbag","pricing_plan_id":"cebpf4jnsgd1na2vs0mg"},{"bike_id":"11bac9a6-0e04-4c68-9615-f13539342864","system_id":"levelo_inurba_marseille","lat":43.21195,"lon":5.35066,"is_reserved":false,"is_disabled":false,"rental_uris":{"android":"levelo://app?vid=11bac9a6-0e04-4c68-9615-f13539342864","ios":"levelo://app?vid=11bac9a6-0e04-4c68-9615-f13539342864"},"vehicle_type_id":"4","last_reported":1746796921,"current_range_meters":22800,"station_id":"st_cvj6sg6p6f1abm77japg","pricing_plan_id":"cebpf4jnsgd1na2vs0mg"},{"bike_id":"e858f57b-d866-421a-b1c0-6f12bf0ed267","system_id":"levelo_inurba_marseille","lat":43.29911,"lon":5.38138,"is_reserved":false,"is_disabled":false,"rental_uris":{"android":"levelo://app?vid=e858f57b-d866-421a-b1c0-6f12bf0ed267","ios":"levelo://app?vid=e858f57b-d866-421a-b1c0-6f12bf0ed267"},"vehicle_type_id":"4","last_reported":1746796921,"current_range_meters":23200,"station_id":"ce4bgj12rcd13ifvqbc0","pricing_plan_id":"cebpf4jnsgd1na2vs0mg"},{"bike_id":"cb94898d-e72c-4849-8eb0-b1cfe7bfbd81","system_id":"levelo_inurba_marseille","lat":43.29872,"lon":5.39741,"is_reserved":false,"is_disabled":false,"rental_uris":{"android":"levelo://app?vid=cb94898d-e72c-4849-8eb0-b1cfe7bfbd81","ios":"levelo://app?vid=cb94898d-e72c-4849-8eb0-b1cfe7bfbd81"},"vehicle_type_id":"4","last_reported":1746796921,"current_range_meters":23200,"station_id":"ce4bh0h2rcd13ifvqd50","pricing_plan_id":"cebpf4jnsgd1na2vs0mg"},{"bike_id":"32c8e5e1-71f5-4dcc-b043-2dbb1c185022","system_id":"levelo_inurba_marseille","lat":43.28411,"lon":5.37504,"is_reserved":false,"is_disabled":false,"rental_uris":{"android":"levelo://app?vid=32c8e5e1-71f5-4dcc-b043-2dbb1c185022","ios":"levelo://app?vid=32c8e5e1-71f5-4dcc-b043-2dbb1c185022"},"vehicle_type_id":"4","last_reported":1746796921,"current_range_meters":23200,"station_id":"ce4bh412rcd13ifvqds0","pricing_plan_id":"cebpf4jnsgd1na2vs0mg"},{"bike_id":"29287861-81d3-4729-bcbe-f60ca113e29a","system_id":"levelo_inurba_marseille","lat":43.2318,"lon":5.39985,"is_reserved":false,"is_disabled":false,"rental_uris":{"android":"levelo://app?vid=29287861-81d3-4729-bcbe-f60ca113e29a","ios":"levelo://app?vid=29287861-81d3-4729-bcbe-f60ca113e29a"},"vehicle_type_id":"4","last_reported":1746796921,"current_range_meters":23200,"station_id":"ce4bhn12rcd13ifvqgqg","pricing_plan_id":"cebpf4jnsgd1na2vs0mg"},{"bike_id":"70a21497-693a-48bf-93c0-f97748aea4c4","system_id":"levelo_inurba_marseille","lat":43.287002,"lon":5.399885,"is_reserved":false,"is_disabled":false,"rental_uris":{"android":"levelo://app?vid=70a21497-693a-48bf-93c0-f97748aea4c4","ios":"levelo://app?vid=70a21497-693a-48bf-93c0-f97748aea4c4"},"vehicle_type_id":"4","last_reported":1746796921,"current_range_meters":23200,"station_id":"ce4bho92rcd13ifvqh3g","pricing_plan_id":"cebpf4jnsgd1na2vs0mg"},{"bike_id":"d882010d-8318-40d1-8aee-e9e36ae8ad57","system_id":"levelo_inurba_marseille","lat":43.30853,"lon":5.37019,"is_reserved":false,"is_disabled":false,"rental_uris":{"android":"levelo://app?vid=d882010d-8318-40d1-8aee-e9e36ae8ad57","ios":"levelo://app?vid=d882010d-8318-40d1-8aee-e9e36ae8ad57"},"vehicle_type_id":"4","last_reported":1746796921,"current_range_meters":24000,"station_id":"","pricing_plan_id":"cebpf4jnsgd1na2vs0mg"},{"bike_id":"182399c7-0ebd-418a-bdbe-a39f1e0cc174","system_id":"levelo_inurba_marseille","lat":43.28855,"lon":5.393,"is_reserved":false,"is_disabled":false,"rental_uris":{"android":"levelo://app?vid=182399c7-0ebd-418a-bdbe-a39f1e0cc174","ios":"levelo://app?vid=182399c7-0ebd-418a-bdbe-a39f1e0cc174"},"vehicle_type_id":"4","last_reported":1746796921,"current_range_meters":24000,"station_id":"ce4bh2p2rcd13ifvqdi0","pricing_plan_id":"cebpf4jnsgd1na2vs0mg"},{"bike_id":"201b1500-94b2-4a96-a059-6e429366d277","system_id":"levelo_inurba_marseille","lat":43.27052,"lon":5.40257,"is_reserved":false,"is_disabled":false,"rental_uris":{"android":"levelo://app?vid=201b1500-94b2-4a96-a059-6e429366d277","ios":"levelo://app?vid=201b1500-94b2-4a96-a059-6e429366d277"},"vehicle_type_id":"4","last_reported":1746796921,"current_range_meters":24000,"station_id":"ce4bhk92rcd13ifvqgc0","pricing_plan_id":"cebpf4jnsgd1na2vs0mg"},{"bike_id":"51175372-f1e7-4651-801b-e3b291a6302e","system_id":"levelo_inurba_marseille","lat":43.26224,"lon":5.40459,"is_reserved":false,"is_disabled":false,"rental_uris":{"android":"levelo://app?vid=51175372-f1e7-4651-801b-e3b291a6302e","ios":"levelo://app?vid=51175372-f1e7-4651-801b-e3b291a6302e"},"vehicle_type_id":"4","last_reported":1746796921,"current_range_meters":24000,"station_id":"ce4bhmh2rcd13ifvqgmg","pricing_plan_id":"cebpf4jnsgd1na2vs0mg"},{"bike_id":"f52c819d-ca4b-4640-b458-b877db1bf990","system_id":"levelo_inurba_marseille","lat":43.29899,"lon":5.40992,"is_reserved":false,"is_disabled":false,"rental_uris":{"android":"levelo://app?vid=f52c819d-ca4b-4640-b458-b877db1bf990","ios":"levelo://app?vid=f52c819d-ca4b-4640-b458-b877db1bf990"},"vehicle_type_id":"4","last_reported":1746796921,"current_range_meters":24400,"station_id":"","pricing_plan_id":"cebpf4jnsgd1na2vs0mg"},{"bike_id":"f0943fa2-0a49-45fc-84c1-5bbf38e96efd","system_id":"levelo_inurba_marseille","lat":43.30977,"lon":5.37739,"is_reserved":false,"is_disabled":false,"rental_uris":{"android":"levelo://app?vid=f0943fa2-0a49-45fc-84c1-5bbf38e96efd","ios":"levelo://app?vid=f0943fa2-0a49-45fc-84c1-5bbf38e96efd"},"vehicle_type_id":"4","last_reported":1746796921,"current_range_meters":24400,"station_id":"","pricing_plan_id":"cebpf4jnsgd1na2vs0mg"},{"bike_id":"5073a569-5dbe-4ee9-8836-8a1cfc3182f3","system_id":"levelo_inurba_marseille","lat":43.29005,"lon":5.35608,"is_reserved":false,"is_disabled":false,"rental_uris":{"android":"levelo://app?vid=5073a569-5dbe-4ee9-8836-8a1cfc3182f3","ios":"levelo://app?vid=5073a569-5dbe-4ee9-8836-8a1cfc3182f3"},"vehicle_type_id":"4","last_reported":1746796921,"current_range_meters":24400,"station_id":"","pricing_plan_id":"cebpf4jnsgd1na2vs0mg"},{"bike_id":"db5c40b3-b343-4a74-b1e8-cafb84f98649","system_id":"levelo_inurba_marseille","lat":43.22351,"lon":5.34671,"is_reserved":false,"is_disabled":false,"rental_uris":{"android":"levelo://app?vid=db5c40b3-b343-4a74-b1e8-cafb84f98649","ios":"levelo://app?vid=db5c40b3-b343-4a74-b1e8-cafb84f98649"},"vehicle_type_id":"4","last_reported":1746796921,"current_range_meters":24400,"station_id":"","pricing_plan_id":"cebpf4jnsgd1na2vs0mg"},{"bike_id":"f4bf1e03-d0a4-4139-b3f0-7bc0e843af84","system_id":"levelo_inurba_marseille","lat":43.27613,"lon":5.3611,"is_reserved":false,"is_disabled":false,"rental_uris":{"android":"levelo://app?vid=f4bf1e03-d0a4-4139-b3f0-7bc0e843af84","ios":"levelo://app?vid=f4bf1e03-d0a4-4139-b3f0-7bc0e843af84"},"vehicle_type_id":"4","last_reported":1746796921,"current_range_meters":24400,"station_id":"ce4bgj92rcd13ifvqbe0","pricing_plan_id":"cebpf4jnsgd1na2vs0mg"},{"bike_id":"425a7cc1-a9be-4da3-9aff-d97467d72368","system_id":"levelo_inurba_marseille","lat":43.309318,"lon":5.401402,"is_reserved":false,"is_disabled":false,"rental_uris":{"android":"levelo://app?vid=425a7cc1-a9be-4da3-9aff-d97467d72368","ios":"levelo://app?vid=425a7cc1-a9be-4da3-9aff-d97467d72368"},"vehicle_type_id":"4","last_reported":1746796921,"current_range_meters":24400,"station_id":"ce4bgvp2rcd13ifvqct0","pricing_plan_id":"cebpf4jnsgd1na2vs0mg"},{"bike_id":"9997013b-e71d-4878-a6f6-d1f263636399","system_id":"levelo_inurba_marseille","lat":43.28848,"lon":5.39302,"is_reserved":false,"is_disabled":false,"rental_uris":{"android":"levelo://app?vid=9997013b-e71d-4878-a6f6-d1f263636399","ios":"levelo://app?vid=9997013b-e71d-4878-a6f6-d1f263636399"},"vehicle_type_id":"4","last_reported":1746796921,"current_range_meters":24400,"station_id":"ce4bh2p2rcd13ifvqdi0","pricing_plan_id":"cebpf4jnsgd1na2vs0mg"},{"bike_id":"bd313c50-ca03-447c-bb55-be613d408b29","system_id":"levelo_inurba_marseille","lat":43.29877,"lon":5.38899,"is_reserved":false,"is_disabled":false,"rental_uris":{"android":"levelo://app?vid=bd313c50-ca03-447c-bb55-be613d408b29","ios":"levelo://app?vid=bd313c50-ca03-447c-bb55-be613d408b29"},"vehicle_type_id":"4","last_reported":1746796921,"current_range_meters":24400,"station_id":"ce4bh392rcd13ifvqdl0","pricing_plan_id":"cebpf4jnsgd1na2vs0mg"},{"bike_id":"67386896-5615-40d1-858f-d2250acf2848","system_id":"levelo_inurba_marseille","lat":43.28461,"lon":5.35891,"is_reserved":false,"is_disabled":false,"rental_uris":{"android":"levelo://app?vid=67386896-5615-40d1-858f-d2250acf2848","ios":"levelo://app?vid=67386896-5615-40d1-858f-d2250acf2848"},"vehicle_type_id":"4","last_reported":1746796921,"current_range_meters":24400,"station_id":"ce4bhah2rcd13ifvqei0","pricing_plan_id":"cebpf4jnsgd1na2vs0mg"},{"bike_id":"a8d269cf-a390-4e0e-9f1e-7d4944953d20","system_id":"levelo_inurba_marseille","lat":43.28612,"lon":5.35111,"is_reserved":false,"is_disabled":false,"rental_uris":{"android":"levelo://app?vid=a8d269cf-a390-4e0e-9f1e-7d4944953d20","ios":"levelo://app?vid=a8d269cf-a390-4e0e-9f1e-7d4944953d20"},"vehicle_type_id":"4","last_reported":1746796921,"current_range_meters":24400,"station_id":"ce4bhch2rcd13ifvqeug","pricing_plan_id":"cebpf4jnsgd1na2vs0mg"},{"bike_id":"dc86b814-e7fc-4ace-9848-6e4336d946f0","system_id":"levelo_inurba_marseille","lat":43.251069,"lon":5.403231,"is_reserved":false,"is_disabled":false,"rental_uris":{"android":"levelo://app?vid=dc86b814-e7fc-4ace-9848-6e4336d946f0","ios":"levelo://app?vid=dc86b814-e7fc-4ace-9848-6e4336d946f0"},"vehicle_type_id":"4","last_reported":1746796921,"current_range_meters":24400,"station_id":"ce4bhlh2rcd13ifvqgig","pricing_plan_id":"cebpf4jnsgd1na2vs0mg"},{"bike_id":"d995c097-7163-4161-b21c-4a3153346d93","system_id":"levelo_inurba_marseille","lat":43.31712,"lon":5.4371,"is_reserved":false,"is_disabled":false,"rental_uris":{"android":"levelo://app?vid=d995c097-7163-4161-b21c-4a3153346d93","ios":"levelo://app?vid=d995c097-7163-4161-b21c-4a3153346d93"},"vehicle_type_id":"4","last_reported":1746796921,"current_range_meters":24400,"station_id":"ce4bhp92rcd13ifvqhcg","pricing_plan_id":"cebpf4jnsgd1na2vs0mg"},{"bike_id":"830ca2f3-14a2-40d4-b14d-f14634d8ac66","system_id":"levelo_inurba_marseille","lat":43.31757,"lon":5.43729,"is_reserved":false,"is_disabled":false,"rental_uris":{"android":"levelo://app?vid=830ca2f3-14a2-40d4-b14d-f14634d8ac66","ios":"levelo://app?vid=830ca2f3-14a2-40d4-b14d-f14634d8ac66"},"vehicle_type_id":"4","last_reported":1746796921,"current_range_meters":24800,"station_id":"","pricing_plan_id":"cebpf4jnsgd1na2vs0mg"},{"bike_id":"fcc5a475-5ad9-4783-93a7-f0efcfc89c98","system_id":"levelo_inurba_marseille","lat":43.29607,"lon":5.38101,"is_reserved":false,"is_disabled":false,"rental_uris":{"android":"levelo://app?vid=fcc5a475-5ad9-4783-93a7-f0efcfc89c98","ios":"levelo://app?vid=fcc5a475-5ad9-4783-93a7-f0efcfc89c98"},"vehicle_type_id":"4","last_reported":1746796921,"current_range_meters":24800,"station_id":"ce4bgl12rcd13ifvqbo0","pricing_plan_id":"cebpf4jnsgd1na2vs0mg"},{"bike_id":"0759e5f4-3d94-41cc-80db-0c1931d31dc9","system_id":"levelo_inurba_marseille","lat":43.30145,"lon":5.37412,"is_reserved":false,"is_disabled":false,"rental_uris":{"android":"levelo://app?vid=0759e5f4-3d94-41cc-80db-0c1931d31dc9","ios":"levelo://app?vid=0759e5f4-3d94-41cc-80db-0c1931d31dc9"},"vehicle_type_id":"4","last_reported":1746796921,"current_range_meters":24800,"station_id":"ce4bgs92rcd13ifvqcc0","pricing_plan_id":"cebpf4jnsgd1na2vs0mg"},{"bike_id":"a4c1e82d-9609-4f34-b798-a5fa26140cd2","system_id":"levelo_inurba_marseille","lat":43.29549,"lon":5.42293,"is_reserved":false,"is_disabled":false,"rental_uris":{"android":"levelo://app?vid=a4c1e82d-9609-4f34-b798-a5fa26140cd2","ios":"levelo://app?vid=a4c1e82d-9609-4f34-b798-a5fa26140cd2"},"vehicle_type_id":"4","last_reported":1746796921,"current_range_meters":24800,"station_id":"ce4bhph2rcd13ifvqhdg","pricing_plan_id":"cebpf4jnsgd1na2vs0mg"},{"bike_id":"c685de6c-7e1c-4f6d-a85e-677faf50b2ff","system_id":"levelo_inurba_marseille","lat":43.21185,"lon":5.35063,"is_reserved":false,"is_disabled":false,"rental_uris":{"android":"levelo://app?vid=c685de6c-7e1c-4f6d-a85e-677faf50b2ff","ios":"levelo://app?vid=c685de6c-7e1c-4f6d-a85e-677faf50b2ff"},"vehicle_type_id":"4","last_reported":1746796921,"current_range_meters":24800,"station_id":"st_cvj6sg6p6f1abm77japg","pricing_plan_id":"cebpf4jnsgd1na2vs0mg"},{"bike_id":"ac45ef80-46b1-45b7-a4a5-cd5eba094388","system_id":"levelo_inurba_marseille","lat":43.31486,"lon":5.37315,"is_reserved":false,"is_disabled":false,"rental_uris":{"android":"levelo://app?vid=ac45ef80-46b1-45b7-a4a5-cd5eba094388","ios":"levelo://app?vid=ac45ef80-46b1-45b7-a4a5-cd5eba094388"},"vehicle_type_id":"4","last_reported":1746796921,"current_range_meters":25200,"station_id":"ce4bgt12rcd13ifvqcd0","pricing_plan_id":"cebpf4jnsgd1na2vs0mg"},{"bike_id":"7a568d98-e18a-4321-9913-23ebd8b00a9a","system_id":"levelo_inurba_marseille","lat":43.29019,"lon":5.38133,"is_reserved":false,"is_disabled":false,"rental_uris":{"android":"levelo://app?vid=7a568d98-e18a-4321-9913-23ebd8b00a9a","ios":"levelo://app?vid=7a568d98-e18a-4321-9913-23ebd8b00a9a"},"vehicle_type_id":"4","last_reported":1746796921,"current_range_meters":25200,"station_id":"ce4bh4p2rcd13ifvqe1g","pricing_plan_id":"cebpf4jnsgd1na2vs0mg"},{"bike_id":"a3ffee22-a963-4c94-a648-d5ae798ca773","system_id":"levelo_inurba_marseille","lat":43.25822,"lon":5.39437,"is_reserved":false,"is_disabled":false,"rental_uris":{"android":"levelo://app?vid=a3ffee22-a963-4c94-a648-d5ae798ca773","ios":"levelo://app?vid=a3ffee22-a963-4c94-a648-d5ae798ca773"},"vehicle_type_id":"4","last_reported":1746796921,"current_range_meters":25200,"station_id":"ce4bhip2rcd13ifvqft0","pricing_plan_id":"cebpf4jnsgd1na2vs0mg"},{"bike_id":"02bac07a-9186-49eb-a666-f70d86d99978","system_id":"levelo_inurba_marseille","lat":43.21191,"lon":5.35072,"is_reserved":false,"is_disabled":false,"rental_uris":{"android":"levelo://app?vid=02bac07a-9186-49eb-a666-f70d86d99978","ios":"levelo://app?vid=02bac07a-9186-49eb-a666-f70d86d99978"},"vehicle_type_id":"4","last_reported":1746796921,"current_range_meters":25200,"station_id":"st_cvj6sg6p6f1abm77japg","pricing_plan_id":"cebpf4jnsgd1na2vs0mg"},{"bike_id":"b26a1784-55c1-491f-8c7d-1830f1a97943","system_id":"levelo_inurba_marseille","lat":43.29535,"lon":5.37503,"is_reserved":false,"is_disabled":false,"rental_uris":{"android":"levelo://app?vid=b26a1784-55c1-491f-8c7d-1830f1a97943","ios":"levelo://app?vid=b26a1784-55c1-491f-8c7d-1830f1a97943"},"vehicle_type_id":"4","last_reported":1746796921,"current_range_meters":25600,"station_id":"ce4bgkp2rcd13ifvqbmg","pricing_plan_id":"cebpf4jnsgd1na2vs0mg"},{"bike_id":"faf0e1dd-2462-4713-9e0c-d9ca58cdb773","system_id":"levelo_inurba_marseille","lat":43.29416,"lon":5.38628,"is_reserved":false,"is_disabled":false,"rental_uris":{"android":"levelo://app?vid=faf0e1dd-2462-4713-9e0c-d9ca58cdb773","ios":"levelo://app?vid=faf0e1dd-2462-4713-9e0c-d9ca58cdb773"},"vehicle_type_id":"4","last_reported":1746796921,"current_range_meters":25600,"station_id":"ce4bh2h2rcd13ifvqdh0","pricing_plan_id":"cebpf4jnsgd1na2vs0mg"},{"bike_id":"e1690497-788a-46e5-9549-4c53d70cffe8","system_id":"levelo_inurba_marseille","lat":43.23131,"lon":5.43706,"is_reserved":false,"is_disabled":false,"rental_uris":{"android":"levelo://app?vid=e1690497-788a-46e5-9549-4c53d70cffe8","ios":"levelo://app?vid=e1690497-788a-46e5-9549-4c53d70cffe8"},"vehicle_type_id":"4","last_reported":1746796921,"current_range_meters":25600,"station_id":"ce4bhmp2rcd13ifvqgog","pricing_plan_id":"cebpf4jnsgd1na2vs0mg"},{"bike_id":"91b4a3c3-8512-4883-bd1c-c82d1f5bf6cd","system_id":"levelo_inurba_marseille","lat":43.2318,"lon":5.39991,"is_reserved":false,"is_disabled":false,"rental_uris":{"android":"levelo://app?vid=91b4a3c3-8512-4883-bd1c-c82d1f5bf6cd","ios":"levelo://app?vid=91b4a3c3-8512-4883-bd1c-c82d1f5bf6cd"},"vehicle_type_id":"4","last_reported":1746796921,"current_range_meters":25600,"station_id":"ce4bhn12rcd13ifvqgqg","pricing_plan_id":"cebpf4jnsgd1na2vs0mg"},{"bike_id":"9f81d7ae-b6fc-4e6b-b3bf-37321ac064e4","system_id":"levelo_inurba_marseille","lat":43.27482,"lon":5.42463,"is_reserved":false,"is_disabled":false,"rental_uris":{"android":"levelo://app?vid=9f81d7ae-b6fc-4e6b-b3bf-37321ac064e4","ios":"levelo://app?vid=9f81d7ae-b6fc-4e6b-b3bf-37321ac064e4"},"vehicle_type_id":"4","last_reported":1746796921,"current_range_meters":25600,"station_id":"ce4bhn92rcd13ifvqgrg","pricing_plan_id":"cebpf4jnsgd1na2vs0mg"},{"bike_id":"d6cffec6-7aa8-4215-94ab-614413867a91","system_id":"levelo_inurba_marseille","lat":43.29547,"lon":5.42291,"is_reserved":false,"is_disabled":false,"rental_uris":{"android":"levelo://app?vid=d6cffec6-7aa8-4215-94ab-614413867a91","ios":"levelo://app?vid=d6cffec6-7aa8-4215-94ab-614413867a91"},"vehicle_type_id":"4","last_reported":1746796921,"current_range_meters":25600,"station_id":"ce4bhph2rcd13ifvqhdg","pricing_plan_id":"cebpf4jnsgd1na2vs0mg"},{"bike_id":"8c8e3cf7-6ebe-4023-9931-a52e243193b1","system_id":"levelo_inurba_marseille","lat":43.29787,"lon":5.39336,"is_reserved":false,"is_disabled":false,"rental_uris":{"android":"levelo://app?vid=8c8e3cf7-6ebe-4023-9931-a52e243193b1","ios":"levelo://app?vid=8c8e3cf7-6ebe-4023-9931-a52e243193b1"},"vehicle_type_id":"4","last_reported":1746796921,"current_range_meters":25600,"station_id":"chh1huq6cuj3fo74tm60","pricing_plan_id":"cebpf4jnsgd1na2vs0mg"},{"bike_id":"48ed43fb-4ad0-4001-acee-f6ea4523cfc5","system_id":"levelo_inurba_marseille","lat":43.286013,"lon":5.477025,"is_reserved":false,"is_disabled":false,"rental_uris":{"android":"levelo://app?vid=48ed43fb-4ad0-4001-acee-f6ea4523cfc5","ios":"levelo://app?vid=48ed43fb-4ad0-4001-acee-f6ea4523cfc5"},"vehicle_type_id":"4","last_reported":1746796921,"current_range_meters":26000,"station_id":"","pricing_plan_id":"cebpf4jnsgd1na2vs0mg"},{"bike_id":"42b61490-7b23-43fb-9509-f5665b4d4989","system_id":"levelo_inurba_marseille","lat":43.31493,"lon":5.37316,"is_reserved":false,"is_disabled":false,"rental_uris":{"android":"levelo://app?vid=42b61490-7b23-43fb-9509-f5665b4d4989","ios":"levelo://app?vid=42b61490-7b23-43fb-9509-f5665b4d4989"},"vehicle_type_id":"4","last_reported":1746796921,"current_range_meters":26000,"station_id":"ce4bgt12rcd13ifvqcd0","pricing_plan_id":"cebpf4jnsgd1na2vs0mg"},{"bike_id":"eb8b6b14-1c03-47d0-ac74-d896b425e3c9","system_id":"levelo_inurba_marseille","lat":43.29036,"lon":5.35917,"is_reserved":false,"is_disabled":false,"rental_uris":{"android":"levelo://app?vid=eb8b6b14-1c03-47d0-ac74-d896b425e3c9","ios":"levelo://app?vid=eb8b6b14-1c03-47d0-ac74-d896b425e3c9"},"vehicle_type_id":"4","last_reported":1746796921,"current_range_meters":26000,"station_id":"ce4bha92rcd13ifvqeg0","pricing_plan_id":"cebpf4jnsgd1na2vs0mg"},{"bike_id":"17d04247-5bd2-4457-b4ce-76163cce39e3","system_id":"levelo_inurba_marseille","lat":43.25954,"lon":5.40911,"is_reserved":false,"is_disabled":false,"rental_uris":{"android":"levelo://app?vid=17d04247-5bd2-4457-b4ce-76163cce39e3","ios":"levelo://app?vid=17d04247-5bd2-4457-b4ce-76163cce39e3"},"vehicle_type_id":"4","last_reported":1746796921,"current_range_meters":26000,"station_id":"ce4bhm92rcd13ifvqglg","pricing_plan_id":"cebpf4jnsgd1na2vs0mg"},{"bike_id":"6056d7eb-beeb-429e-b45c-de5ff3df49f3","system_id":"levelo_inurba_marseille","lat":43.25941,"lon":5.40906,"is_reserved":false,"is_disabled":false,"rental_uris":{"android":"levelo://app?vid=6056d7eb-beeb-429e-b45c-de5ff3df49f3","ios":"levelo://app?vid=6056d7eb-beeb-429e-b45c-de5ff3df49f3"},"vehicle_type_id":"4","last_reported":1746796921,"current_range_meters":26000,"station_id":"ce4bhm92rcd13ifvqglg","pricing_plan_id":"cebpf4jnsgd1na2vs0mg"},{"bike_id":"17239759-3263-4a3b-92c4-4700bbbec4ed","system_id":"levelo_inurba_marseille","lat":43.32541,"lon":5.41503,"is_reserved":false,"is_disabled":false,"rental_uris":{"android":"levelo://app?vid=17239759-3263-4a3b-92c4-4700bbbec4ed","ios":"levelo://app?vid=17239759-3263-4a3b-92c4-4700bbbec4ed"},"vehicle_type_id":"4","last_reported":1746796921,"current_range_meters":26000,"station_id":"ce4bhq12rcd13ifvqhhg","pricing_plan_id":"cebpf4jnsgd1na2vs0mg"},{"bike_id":"88a283f3-362b-4004-bca5-6e2994650457","system_id":"levelo_inurba_marseille","lat":43.29774,"lon":5.3934,"is_reserved":false,"is_disabled":false,"rental_uris":{"android":"levelo://app?vid=88a283f3-362b-4004-bca5-6e2994650457","ios":"levelo://app?vid=88a283f3-362b-4004-bca5-6e2994650457"},"vehicle_type_id":"4","last_reported":1746796921,"current_range_meters":26000,"station_id":"chh1huq6cuj3fo74tm60","pricing_plan_id":"cebpf4jnsgd1na2vs0mg"},{"bike_id":"60c4e89d-b14b-4a37-b8a6-6ec602d9bf66","system_id":"levelo_inurba_marseille","lat":43.31411,"lon":5.36737,"is_reserved":false,"is_disabled":false,"rental_uris":{"android":"levelo://app?vid=60c4e89d-b14b-4a37-b8a6-6ec602d9bf66","ios":"levelo://app?vid=60c4e89d-b14b-4a37-b8a6-6ec602d9bf66"},"vehicle_type_id":"4","last_reported":1746796921,"current_range_meters":26800,"station_id":"","pricing_plan_id":"cebpf4jnsgd1na2vs0mg"},{"bike_id":"1c304be6-2678-4c38-b6bf-47f06657d93b","system_id":"levelo_inurba_marseille","lat":43.313666,"lon":5.367079,"is_reserved":false,"is_disabled":false,"rental_uris":{"android":"levelo://app?vid=1c304be6-2678-4c38-b6bf-47f06657d93b","ios":"levelo://app?vid=1c304be6-2678-4c38-b6bf-47f06657d93b"},"vehicle_type_id":"4","last_reported":1746796921,"current_range_meters":26800,"station_id":"ce4bgr92rcd13ifvqc6g","pricing_plan_id":"cebpf4jnsgd1na2vs0mg"},{"bike_id":"93192c09-84bc-4a45-af2e-d87a2ddf61d6","system_id":"levelo_inurba_marseille","lat":43.30523,"lon":5.36715,"is_reserved":false,"is_disabled":false,"rental_uris":{"android":"levelo://app?vid=93192c09-84bc-4a45-af2e-d87a2ddf61d6","ios":"levelo://app?vid=93192c09-84bc-4a45-af2e-d87a2ddf61d6"},"vehicle_type_id":"4","last_reported":1746796921,"current_range_meters":26800,"station_id":"ce4bgrp2rcd13ifvqc9g","pricing_plan_id":"cebpf4jnsgd1na2vs0mg"},{"bike_id":"b20fba7b-1a83-4686-ab8c-d227bc79891a","system_id":"levelo_inurba_marseille","lat":43.29244,"lon":5.40893,"is_reserved":false,"is_disabled":false,"rental_uris":{"android":"levelo://app?vid=b20fba7b-1a83-4686-ab8c-d227bc79891a","ios":"levelo://app?vid=b20fba7b-1a83-4686-ab8c-d227bc79891a"},"vehicle_type_id":"4","last_reported":1746796921,"current_range_meters":26800,"station_id":"ce4bh192rcd13ifvqdc0","pricing_plan_id":"cebpf4jnsgd1na2vs0mg"},{"bike_id":"f80b2ca6-8348-4381-9e00-bdcf4bc987b5","system_id":"levelo_inurba_marseille","lat":43.28472,"lon":5.35888,"is_reserved":false,"is_disabled":false,"rental_uris":{"android":"levelo://app?vid=f80b2ca6-8348-4381-9e00-bdcf4bc987b5","ios":"levelo://app?vid=f80b2ca6-8348-4381-9e00-bdcf4bc987b5"},"vehicle_type_id":"4","last_reported":1746796921,"current_range_meters":26800,"station_id":"ce4bhah2rcd13ifvqei0","pricing_plan_id":"cebpf4jnsgd1na2vs0mg"},{"bike_id":"c23bf927-81e6-42a9-ba6f-7ead21892131","system_id":"levelo_inurba_marseille","lat":43.282664,"lon":5.350648,"is_reserved":false,"is_disabled":false,"rental_uris":{"android":"levelo://app?vid=c23bf927-81e6-42a9-ba6f-7ead21892131","ios":"levelo://app?vid=c23bf927-81e6-42a9-ba6f-7ead21892131"},"vehicle_type_id":"4","last_reported":1746796921,"current_range_meters":26800,"station_id":"ce4bhbp2rcd13ifvqerg","pricing_plan_id":"cebpf4jnsgd1na2vs0mg"},{"bike_id":"e02d7ecc-58a6-424a-acf0-c639d22fa250","system_id":"levelo_inurba_marseille","lat":43.26552,"lon":5.37284,"is_reserved":false,"is_disabled":false,"rental_uris":{"android":"levelo://app?vid=e02d7ecc-58a6-424a-acf0-c639d22fa250","ios":"levelo://app?vid=e02d7ecc-58a6-424a-acf0-c639d22fa250"},"vehicle_type_id":"4","last_reported":1746796921,"current_range_meters":26800,"station_id":"ce4bhg12rcd13ifvqf70","pricing_plan_id":"cebpf4jnsgd1na2vs0mg"},{"bike_id":"1f72ebfb-9623-4475-8f4b-44ec861d83f5","system_id":"levelo_inurba_marseille","lat":43.25826,"lon":5.39438,"is_reserved":false,"is_disabled":false,"rental_uris":{"android":"levelo://app?vid=1f72ebfb-9623-4475-8f4b-44ec861d83f5","ios":"levelo://app?vid=1f72ebfb-9623-4475-8f4b-44ec861d83f5"},"vehicle_type_id":"4","last_reported":1746796921,"current_range_meters":26800,"station_id":"ce4bhip2rcd13ifvqft0","pricing_plan_id":"cebpf4jnsgd1na2vs0mg"},{"bike_id":"c88a963d-c066-47ea-9cc0-1803ced0299a","system_id":"levelo_inurba_marseille","lat":43.25709,"lon":5.41116,"is_reserved":false,"is_disabled":false,"rental_uris":{"android":"levelo://app?vid=c88a963d-c066-47ea-9cc0-1803ced0299a","ios":"levelo://app?vid=c88a963d-c066-47ea-9cc0-1803ced0299a"},"vehicle_type_id":"4","last_reported":1746796921,"current_range_meters":26800,"station_id":"ce4bhkp2rcd13ifvqgd0","pricing_plan_id":"cebpf4jnsgd1na2vs0mg"},