{"last_updated":1738465913,"ttl":60,"version":"2.2","data":{"bikes":[{"bike_id":"5121270c-1c11-4ce0-892b-9a8960db6210","system_id":"levelo_inurba_marseille","lat":43.31748,"lon":5.39004,"is_reserved":false,"is_disabled":false,"rental_uris":{"android":"levelo://app?vid=5121270c-1c11-4ce0-892b-9a8960db6210","ios":"levelo://app?vid=5121270c-1c11-4ce0-892b-9a8960db6210"},"vehicle_type_id":"4","last_reported":1738465914,"current_range_meters":27600,"station_id":"ce4bhqp2rcd13ifvqhng","pricing_plan_id":"cebpf4jnsgd1na2vs0mg"},{"bike_id":"7ac6de87-4cb5-4d58-adc2-a7c162322d3f","system_id":"levelo_inurba_marseille","lat":43.28469,"lon":5.38432,"is_reserved":false,"is_disabled":true,"rental_uris":{"android":"levelo://app?vid=7ac6de87-4cb5-4d58-adc2-a7c162322d3f","ios":"levelo://app?vid=7ac6de87-4cb5-4d58-adc2-a7c162322d3f"},"vehicle_type_id":"4","last_reported":1738465914,"current_range_meters":22400,"station_id":"ce4bh512rcd13ifvqe3g","pricing_plan_id":"cebpf4jnsgd1na2vs0mg"},{"bike_id":"14c1bc37-69d3-49f3-93af-18021b2d3375","system_id":"levelo_inurba_marseille","lat":43.3138,"lon":5.36677,"is_reserved":false,"is_disabled":false,"rental_uris":{"android":"levelo://app?vid=14c1bc37-69d3-49f3-93af-18021b2d3375","ios":"levelo://app?vid=14c1bc37-69d3-49f3-93af-18021b2d3375"},"vehicle_type_id":"4","last_reported":1738465914,"current_range_meters":38000,"station_id":"ce4bgr92rcd13ifvqc6g","pricing_plan_id":"cebpf4jnsgd1na2vs0mg"},{"bike_id":"8a338e01-d54a-41aa-b224-e6699b184593","system_id":"levelo_inurba_marseille","lat":43.29159,"lon":5.3716,"is_reserved":false,"is_disabled":false,"rental_uris":{"android":"levelo://app?vid=8a338e01-d54a-41aa-b224-e6699b184593","ios":"levelo://app?vid=8a338e01-d54a-41aa-b224-e6699b184593"},"vehicle_type_id":"4","last_reported":1738465914,"current_range_meters":38800,"station_id":"ce4bha92rcd13ifvqeh0","pricing_plan_id":"cebpf4jnsgd1na2vs0mg"},{"bike_id":"e6787a1a-b65f-4948-af6c-658806d5bf80","system_id":"levelo_inurba_marseille","lat":43.28155,"lon":5.42638,"is_reserved":false,"is_disabled":false,"rental_uris":{"android":"levelo://app?vid=e6787a1a-b65f-4948-af6c-658806d5bf80","ios":"levelo://app?vid=e6787a1a-b65f-4948-af6c-658806d5bf80"},"vehicle_type_id":"4","last_reported":1738465914,"current_range_meters":17200,"station_id":"ce4bhnh2rcd13ifvqgug","pricing_plan_id":"cebpf4jnsgd1na2vs0mg"},{"bike_id":"34f1ec3b-0c63-49ff-b3ef-cf82a07a00a4","system_id":"levelo_inurba_marseille","lat":43.25121,"lon":5.40318,"is_reserved":false,"is_disabled":false,"rental_uris":{"android":"levelo://app?vid=34f1ec3b-0c63-49ff-b3ef-cf82a07a00a4","ios":"levelo://app?vid=34f1ec3b-0c63-49ff-b3ef-cf82a07a00a4"},"vehicle_type_id":"4","last_reported":1738465914,"current_range_meters":32000,"station_id":"ce4bhlh2rcd13ifvqgig","pricing_plan_id":"cebpf4jnsgd1na2vs0mg"},{"bike_id":"68ec889f-fbad-4ec7-bbe1-dbda6b88a3f5","system_id":"levelo_inurba_marseille","lat":43.290263,"lon":5.386396,"is_reserved":false,"is_disabled":true,"rental_uris":{"android":"levelo://app?vid=68ec889f-fbad-4ec7-bbe1-dbda6b88a3f5","ios":"levelo://app?vid=68ec889f-fbad-4ec7-bbe1-dbda6b88a3f5"},"vehicle_type_id":"4","last_reported":1738465914,"current_range_meters":27200,"station_id":"ce4bh4p2rcd13ifvqe0g","pricing_plan_id":"cebpf4jnsgd1na2vs0mg"},{"bike_id":"9ce610fb-10e6-4c85-8f79-3c4377232d1a","system_id":"levelo_inurba_marseille","lat":43.25831,"lon":5.39427,"is_reserved":false,"is_disabled":false,"rental_uris":{"android":"levelo://app?vid=9ce610fb-10e6-4c85-8f79-3c4377232d1a","ios":"levelo://app?vid=9ce610fb-10e6-4c85-8f79-3c4377232d1a"},"vehicle_type_id":"4","last_reported":1738465914,"current_range_meters":21600,"station_id":"ce4bhip2rcd13ifvqft0","pricing_plan_id":"cebpf4jnsgd1na2vs0mg"},{"bike_id":"5ea494a9-f9ff-4383-9015-015e8afcf20e","system_id":"levelo_inurba_marseille","lat":43.31275,"lon":5.4016,"is_reserved":false,"is_disabled":false,"rental_uris":{"android":"levelo://app?vid=5ea494a9-f9ff-4383-9015-015e8afcf20e","ios":"levelo://app?vid=5ea494a9-f9ff-4383-9015-015e8afcf20e"},"vehicle_type_id":"4","last_reported":1738465914,"current_range_meters":8400,"station_id":"ce4bh092rcd13ifvqd30","pricing_plan_id":"cebpf4jnsgd1na2vs0mg"},{"bike_id":"a5918221-b328-4f92-8cf0-9e78fe89c070","system_id":"levelo_inurba_marseille","lat":43.26551,"lon":5.3728,"is_reserved":false,"is_disabled":false,"rental_uris":{"android":"levelo://app?vid=a5918221-b328-4f92-8cf0-9e78fe89c070","ios":"levelo://app?vid=a5918221-b328-4f92-8cf0-9e78fe89c070"},"vehicle_type_id":"4","last_reported":1738465914,"current_range_meters":32400,"station_id":"ce4bhg12rcd13ifvqf70","pricing_plan_id":"cebpf4jnsgd1na2vs0mg"},{"bike_id":"ed3b7fbe-dd9d-4bab-8f42-a2405c5dd34c","system_id":"levelo_inurba_marseille","lat":43.26692,"lon":5.38241,"is_reserved":false,"is_disabled":false,"rental_uris":{"android":"levelo://app?vid=ed3b7fbe-dd9d-4bab-8f42-a2405c5dd34c","ios":"levelo://app?vid=ed3b7fbe-dd9d-4bab-8f42-a2405c5dd34c"},"vehicle_type_id":"4","last_reported":1738465914,"current_range_meters":38800,"station_id":"ce4bhg92rcd13ifvqf90","pricing_plan_id":"cebpf4jnsgd1na2vs0mg"},{"bike_id":"f9165bc5-a4f7-4750-bf6a-07aec6f96b4f","system_id":"levelo_inurba_marseille","lat":43.27058,"lon":5.40277,"is_reserved":false,"is_disabled":false,"rental_uris":{"android":"levelo://app?vid=f9165bc5-a4f7-4750-bf6a-07aec6f96b4f","ios":"levelo://app?vid=f9165bc5-a4f7-4750-bf6a-07aec6f96b4f"},"vehicle_type_id":"4","last_reported":1738465914,"current_range_meters":22400,"station_id":"ce4bhk92rcd13ifvqgc0","pricing_plan_id":"cebpf4jnsgd1na2vs0mg"},{"bike_id":"0fbceb1b-1a09-42c6-8f5f-4eab86b3daff","system_id":"levelo_inurba_marseille","lat":43.302514,"lon":5.400695,"is_reserved":false,"is_disabled":false,"rental_uris":{"android":"levelo://app?vid=0fbceb1b-1a09-42c6-8f5f-4eab86b3daff","ios":"levelo://app?vid=0fbceb1b-1a09-42c6-8f5f-4eab86b3daff"},"vehicle_type_id":"4","last_reported":1738465914,"current_range_meters":38800,"station_id":"ce4bgvh2rcd13ifvqcs0","pricing_plan_id":"cebpf4jnsgd1na2vs0mg"},{"bike_id":"a259a954-2d53-4ee2-b442-2539440d0511","system_id":"levelo_inurba_marseille","lat":43.28658,"lon":5.36363,"is_reserved":false,"is_disabled":false,"rental_uris":{"android":"levelo://app?vid=a259a954-2d53-4ee2-b442-2539440d0511","ios":"levelo://app?vid=a259a954-2d53-4ee2-b442-2539440d0511"},"vehicle_type_id":"4","last_reported":1738465914,"current_range_meters":38800,"station_id":"ce4bhah2rcd13ifvqej0","pricing_plan_id":"cebpf4jnsgd1na2vs0mg"},{"bike_id":"28b52c59-cbe5-442e-b38f-328b4bd9e4a7","system_id":"levelo_inurba_marseille","lat":43.3089,"lon":5.39645,"is_reserved":false,"is_disabled":false,"rental_uris":{"android":"levelo://app?vid=28b52c59-cbe5-442e-b38f-328b4bd9e4a7","ios":"levelo://app?vid=28b52c59-cbe5-442e-b38f-328b4bd9e4a7"},"vehicle_type_id":"4","last_reported":1738465914,"current_range_meters":19200,"station_id":"ce4bh012rcd13ifvqcv0","pricing_plan_id":"cebpf4jnsgd1na2vs0mg"},{"bike_id":"5a7e5fe6-ab60-4777-afb3-11f4d28725f2","system_id":"levelo_inurba_marseille","lat":43.28566,"lon":5.39497,"is_reserved":false,"is_disabled":false,"rental_uris":{"android":"levelo://app?vid=5a7e5fe6-ab60-4777-afb3-11f4d28725f2","ios":"levelo://app?vid=5a7e5fe6-ab60-4777-afb3-11f4d28725f2"},"vehicle_type_id":"4","last_reported":1738465914,"current_range_meters":28400,"station_id":"ce4bh292rcd13ifvqdg0","pricing_plan_id":"cebpf4jnsgd1na2vs0mg"},{"bike_id":"babeb983-9900-45dd-9c39-c974059de659","system_id":"levelo_inurba_marseille","lat":43.26799,"lon":5.40231,"is_reserved":false,"is_disabled":false,"rental_uris":{"android":"levelo://app?vid=babeb983-9900-45dd-9c39-c974059de659","ios":"levelo://app?vid=babeb983-9900-45dd-9c39-c974059de659"},"vehicle_type_id":"4","last_reported":1738465914,"current_range_meters":38800,"station_id":"ce501612rcd8frsf0b60","pricing_plan_id":"cebpf4jnsgd1na2vs0mg"},{"bike_id":"c26284e6-53ee-4b35-a0cc-ee8d0a2119d1","system_id":"levelo_inurba_marseille","lat":43.28717,"lon":5.37933,"is_reserved":false,"is_disabled":true,"rental_uris":{"android":"levelo://app?vid=c26284e6-53ee-4b35-a0cc-ee8d0a2119d1","ios":"levelo://app?vid=c26284e6-53ee-4b35-a0cc-ee8d0a2119d1"},"vehicle_type_id":"4","last_reported":1738465914,"current_range_meters":16400,"station_id":"ce4bh9p2rcd13ifvqec0","pricing_plan_id":"cebpf4jnsgd1na2vs0mg"},{"bike_id":"0cfeb70a-0a8b-4c9e-bd06-c150e627b9d5","system_id":"levelo_inurba_marseille","lat":43.268,"lon":5.40271,"is_reserved":false,"is_disabled":false,"rental_uris":{"android":"levelo://app?vid=0cfeb70a-0a8b-4c9e-bd06-c150e627b9d5","ios":"levelo://app?vid=0cfeb70a-0a8b-4c9e-bd06-c150e627b9d5"},"vehicle_type_id":"4","last_reported":1738465914,"current_range_meters":38800,"station_id":"ce501612rcd8frsf0b60","pricing_plan_id":"cebpf4jnsgd1na2vs0mg"},{"bike_id":"ae2fe14a-e87c-4652-b769-02c8e85dd956","system_id":"levelo_inurba_marseille","lat":43.28107,"lon":5.37825,"is_reserved":false,"is_disabled":false,"rental_uris":{"android":"levelo://app?vid=ae2fe14a-e87c-4652-b769-02c8e85dd956","ios":"levelo://app?vid=ae2fe14a-e87c-4652-b769-02c8e85dd956"},"vehicle_type_id":"4","last_reported":1738465914,"current_range_meters":38000,"station_id":"ce4bha12rcd13ifvqee0","pricing_plan_id":"cebpf4jnsgd1na2vs0mg"},{"bike_id":"a1104083-84ab-4184-bfe4-a21de59f9d5d","system_id":"levelo_inurba_marseille","lat":43.29006,"lon":5.35602,"is_reserved":false,"is_disabled":false,"rental_uris":{"android":"levelo://app?vid=a1104083-84ab-4184-bfe4-a21de59f9d5d","ios":"levelo://app?vid=a1104083-84ab-4184-bfe4-a21de59f9d5d"},"vehicle_type_id":"4","last_reported":1738465914,"current_range_meters":39200,"station_id":"ce4bhb92rcd13ifvqen0","pricing_plan_id":"cebpf4jnsgd1na2vs0mg"},{"bike_id":"8d54af54-24d2-4781-81ce-174a43c53017","system_id":"levelo_inurba_marseille","lat":43.27902,"lon":5.38006,"is_reserved":false,"is_disabled":false,"rental_uris":{"android":"levelo://app?vid=8d54af54-24d2-4781-81ce-174a43c53017","ios":"levelo://app?vid=8d54af54-24d2-4781-81ce-174a43c53017"},"vehicle_type_id":"4","last_reported":1738465914,"current_range_meters":4800,"station_id":"ce4bhf92rcd13ifvqf50","pricing_plan_id":"cebpf4jnsgd1na2vs0mg"},{"bike_id":"1fbf3f20-0930-4b85-8900-561217e5a0eb","system_id":"levelo_inurba_marseille","lat":43.30406,"lon":5.41275,"is_reserved":false,"is_disabled":false,"rental_uris":{"android":"levelo://app?vid=1fbf3f20-0930-4b85-8900-561217e5a0eb","ios":"levelo://app?vid=1fbf3f20-0930-4b85-8900-561217e5a0eb"},"vehicle_type_id":"4","last_reported":1738465914,"current_range_meters":22800,"station_id":"ce4bhop2rcd13ifvqh8g","pricing_plan_id":"cebpf4jnsgd1na2vs0mg"},{"bike_id":"db3aea96-2190-4a42-ad15-c255066e1f3e","system_id":"levelo_inurba_marseille","lat":43.32496,"lon":5.36565,"is_reserved":false,"is_disabled":false,"rental_uris":{"android":"levelo://app?vid=db3aea96-2190-4a42-ad15-c255066e1f3e","ios":"levelo://app?vid=db3aea96-2190-4a42-ad15-c255066e1f3e"},"vehicle_type_id":"4","last_reported":1738465914,"current_range_meters":27200,"station_id":"ce4bhs12rcd13ifvqhvg","pricing_plan_id":"cebpf4jnsgd1na2vs0mg"},{"bike_id":"b7e1f20f-055e-479b-88c2-d857a7220b74","system_id":"levelo_inurba_marseille","lat":43.25104,"lon":5.40332,"is_reserved":false,"is_disabled":false,"rental_uris":{"android":"levelo://app?vid=b7e1f20f-055e-479b-88c2-d857a7220b74","ios":"levelo://app?vid=b7e1f20f-055e-479b-88c2-d857a7220b74"},"vehicle_type_id":"4","last_reported":1738465914,"current_range_meters":38800,"station_id":"ce4bhlh2rcd13ifvqgig","pricing_plan_id":"cebpf4jnsgd1na2vs0mg"},{"bike_id":"b53cf432-0e47-4b61-a305-952377a64c88","system_id":"levelo_inurba_marseille","lat":43.30807,"lon":5.3815,"is_reserved":false,"is_disabled":true,"rental_uris":{"android":"levelo://app?vid=b53cf432-0e47-4b61-a305-952377a64c88","ios":"levelo://app?vid=b53cf432-0e47-4b61-a305-952377a64c88"},"vehicle_type_id":"4","last_reported":1738465914,"current_range_meters":38000,"station_id":"ce4bgt12rcd13ifvqce0","pricing_plan_id":"cebpf4jnsgd1na2vs0mg"},{"bike_id":"5206335d-6e33-40fd-97fa-4c2d2c1057e1","system_id":"levelo_inurba_marseille","lat":43.27936,"lon":5.41051,"is_reserved":false,"is_disabled":false,"rental_uris":{"android":"levelo://app?vid=5206335d-6e33-40fd-97fa-4c2d2c1057e1","ios":"levelo://app?vid=5206335d-6e33-40fd-97fa-4c2d2c1057e1"},"vehicle_type_id":"4","last_reported":1738465914,"current_range_meters":22000,"station_id":"ce4bhnp2rcd13ifvqh0g","pricing_plan_id":"cebpf4jnsgd1na2vs0mg"},{"bike_id":"13a71ca0-af90-4e61-a6f2-18a028732efe","system_id":"levelo_inurba_marseille","lat":43.25087,"lon":5.39518,"is_reserved":false,"is_disabled":false,"rental_uris":{"android":"levelo://app?vid=13a71ca0-af90-4e61-a6f2-18a028732efe","ios":"levelo://app?vid=13a71ca0-af90-4e61-a6f2-18a028732efe"},"vehicle_type_id":"4","last_reported":1738465914,"current_range_meters":30000,"station_id":"ce4bhm12rcd13ifvqgkg","pricing_plan_id":"cebpf4jnsgd1na2vs0mg"},{"bike_id":"fdaf3d47-f682-4b4d-beac-216d22b92a76","system_id":"levelo_inurba_marseille","lat":43.289361,"lon":5.36411,"is_reserved":false,"is_disabled":false,"rental_uris":{"android":"levelo://app?vid=fdaf3d47-f682-4b4d-beac-216d22b92a76","ios":"levelo://app?vid=fdaf3d47-f682-4b4d-beac-216d22b92a76"},"vehicle_type_id":"4","last_reported":1738465914,"current_range_meters":17600,"station_id":"ce4bhc92rcd13ifvqetg","pricing_plan_id":"cebpf4jnsgd1na2vs0mg"},{"bike_id":"e914e5fb-b215-49e0-bc8c-cced11f7a4e0","system_id":"levelo_inurba_marseille","lat":43.26805,"lon":5.40265,"is_reserved":false,"is_disabled":false,"rental_uris":{"android":"levelo://app?vid=e914e5fb-b215-49e0-bc8c-cced11f7a4e0","ios":"levelo://app?vid=e914e5fb-b215-49e0-bc8c-cced11f7a4e0"},"vehicle_type_id":"4","last_reported":1738465914,"current_range_meters":13600,"station_id":"ce501612rcd8frsf0b60","pricing_plan_id":"cebpf4jnsgd1na2vs0mg"},{"bike_id":"8784a30a-a330-4b05-89bf-f5db332a6fc3","system_id":"levelo_inurba_marseille","lat":43.287113,"lon":5.379241,"is_reserved":false,"is_disabled":false,"rental_uris":{"android":"levelo://app?vid=8784a30a-a330-4b05-89bf-f5db332a6fc3","ios":"levelo://app?vid=8784a30a-a330-4b05-89bf-f5db332a6fc3"},"vehicle_type_id":"4","last_reported":1738465914,"current_range_meters":32800,"station_id":"ce4bh9p2rcd13ifvqec0","pricing_plan_id":"cebpf4jnsgd1na2vs0mg"},{"bike_id":"b133c5d8-0c44-4adb-969d-84c97a5acb94","system_id":"levelo_inurba_marseille","lat":43.32489,"lon":5.36568,"is_reserved":false,"is_disabled":false,"rental_uris":{"android":"levelo://app?vid=b133c5d8-0c44-4adb-969d-84c97a5acb94","ios":"levelo://app?vid=b133c5d8-0c44-4adb-969d-84c97a5acb94"},"vehicle_type_id":"4","last_reported":1738465914,"current_range_meters":27600,"station_id":"ce4bhs12rcd13ifvqhvg","pricing_plan_id":"cebpf4jnsgd1na2vs0mg"},{"bike_id":"a1361b83-7dfc-447a-91a0-ca180866041b","system_id":"levelo_inurba_marseille","lat":43.3237,"lon":5.3676,"is_reserved":false,"is_disabled":false,"rental_uris":{"android":"levelo://app?vid=a1361b83-7dfc-447a-91a0-ca180866041b","ios":"levelo://app?vid=a1361b83-7dfc-447a-91a0-ca180866041b"},"vehicle_type_id":"4","last_reported":1738465914,"current_range_meters":28400,"station_id":"ce4bhsh2rcd13ifvqi2g","pricing_plan_id":"cebpf4jnsgd1na2vs0mg"},{"bike_id":"ddb9c7e9-65ef-4267-9499-9c9d26630482","system_id":"levelo_inurba_marseille","lat":43.32485,"lon":5.36572,"is_reserved":false,"is_disabled":false,"rental_uris":{"android":"levelo://app?vid=ddb9c7e9-65ef-4267-9499-9c9d26630482","ios":"levelo://app?vid=ddb9c7e9-65ef-4267-9499-9c9d26630482"},"vehicle_type_id":"4","last_reported":1738465914,"current_range_meters":32800,"station_id":"ce4bhs12rcd13ifvqhvg","pricing_plan_id":"cebpf4jnsgd1na2vs0mg"},{"bike_id":"8b4d9178-5c29-4d78-b3ab-543cf39d1d34","system_id":"levelo_inurba_marseille","lat":43.3145,"lon":5.37558,"is_reserved":false,"is_disabled":false,"rental_uris":{"android":"levelo://app?vid=8b4d9178-5c29-4d78-b3ab-543cf39d1d34","ios":"levelo://app?vid=8b4d9178-5c29-4d78-b3ab-543cf39d1d34"},"vehicle_type_id":"4","last_reported":1738465914,"current_range_meters":22800,"station_id":"","pricing_plan_id":"cebpf4jnsgd1na2vs0mg"},{"bike_id":"cc47836a-b908-432f-8e0e-2f793407f141","system_id":"levelo_inurba_marseille","lat":43.22936,"lon":5.35381,"is_reserved":false,"is_disabled":false,"rental_uris":{"android":"levelo://app?vid=cc47836a-b908-432f-8e0e-2f793407f141","ios":"levelo://app?vid=cc47836a-b908-432f-8e0e-2f793407f141"},"vehicle_type_id":"4","last_reported":1738465914,"current_range_meters":36800,"station_id":"cpo3532slgdg3j2ikp40","pricing_plan_id":"cebpf4jnsgd1na2vs0mg"},{"bike_id":"b7b8b73a-0c1c-45e0-b545-54a4098ad50c","system_id":"levelo_inurba_marseille","lat":43.2756,"lon":5.38418,"is_reserved":false,"is_disabled":true,"rental_uris":{"android":"levelo://app?vid=b7b8b73a-0c1c-45e0-b545-54a4098ad50c","ios":"levelo://app?vid=b7b8b73a-0c1c-45e0-b545-54a4098ad50c"},"vehicle_type_id":"4","last_reported":1738465914,"current_range_meters":4000,"station_id":"ce4bhh92rcd13ifvqfi0","pricing_plan_id":"cebpf4jnsgd1na2vs0mg"},{"bike_id":"eccf3e1b-479c-430a-81d9-b77c081460ec","system_id":"levelo_inurba_marseille","lat":43.31769,"lon":5.39029,"is_reserved":false,"is_disabled":true,"rental_uris":{"android":"levelo://app?vid=eccf3e1b-479c-430a-81d9-b77c081460ec","ios":"levelo://app?vid=eccf3e1b-479c-430a-81d9-b77c081460ec"},"vehicle_type_id":"4","last_reported":1738465914,"current_range_meters":11200,"station_id":"ce4bhqp2rcd13ifvqhng","pricing_plan_id":"cebpf4jnsgd1na2vs0mg"},{"bike_id":"d71d72c3-6ab1-418b-a776-4e0c7c5959e7","system_id":"levelo_inurba_marseille","lat":43.2586,"lon":5.39425,"is_reserved":false,"is_disabled":false,"rental_uris":{"android":"levelo://app?vid=d71d72c3-6ab1-418b-a776-4e0c7c5959e7","ios":"levelo://app?vid=d71d72c3-6ab1-418b-a776-4e0c7c5959e7"},"vehicle_type_id":"4","last_reported":1738465914,"current_range_meters":38800,"station_id":"ce4bhip2rcd13ifvqft0","pricing_plan_id":"cebpf4jnsgd1na2vs0mg"},{"bike_id":"1ef35f1d-5c30-4cf4-91b4-baabb07b38d8","system_id":"levelo_inurba_marseille","lat":43.31131,"lon":5.37767,"is_reserved":false,"is_disabled":false,"rental_uris":{"android":"levelo://app?vid=1ef35f1d-5c30-4cf4-91b4-baabb07b38d8","ios":"levelo://app?vid=1ef35f1d-5c30-4cf4-91b4-baabb07b38d8"},"vehicle_type_id":"4","last_reported":1738465914,"current_range_meters":8800,"station_id":"ce4bgt92rcd13ifvqcg0","pricing_plan_id":"cebpf4jnsgd1na2vs0mg"},{"bike_id":"0edaa840-e8b0-4f2c-ad98-c123355c590c","system_id":"levelo_inurba_marseille","lat":43.26062,"lon":5.39389,"is_reserved":false,"is_disabled":true,"rental_uris":{"android":"levelo://app?vid=0edaa840-e8b0-4f2c-ad98-c123355c590c","ios":"levelo://app?vid=0edaa840-e8b0-4f2c-ad98-c123355c590c"},"vehicle_type_id":"4","last_reported":1738465914,"current_range_meters":31200,"station_id":"ce4bhh92rcd13ifvqfj0","pricing_plan_id":"cebpf4jnsgd1na2vs0mg"},{"bike_id":"0c8187f5-988a-4457-bbb8-4cf908ac31d3","system_id":"levelo_inurba_marseille","lat":43.25841,"lon":5.39429,"is_reserved":false,"is_disabled":false,"rental_uris":{"android":"levelo://app?vid=0c8187f5-988a-4457-bbb8-4cf908ac31d3","ios":"levelo://app?vid=0c8187f5-988a-4457-bbb8-4cf908ac31d3"},"vehicle_type_id":"4","last_reported":1738465914,"current_range_meters":15200,"station_id":"ce4bhip2rcd13ifvqft0","pricing_plan_id":"cebpf4jnsgd1na2vs0mg"},{"bike_id":"29ba31de-2e2d-473e-82b8-385e19143b60","system_id":"levelo_inurba_marseille","lat":43.26503,"lon":5.39547,"is_reserved":false,"is_disabled":false,"rental_uris":{"android":"levelo://app?vid=29ba31de-2e2d-473e-82b8-385e19143b60","ios":"levelo://app?vid=29ba31de-2e2d-473e-82b8-385e19143b60"},"vehicle_type_id":"4","last_reported":1738465914,"current_range_meters":37600,"station_id":"ce4bhi12rcd13ifvqfq0","pricing_plan_id":"cebpf4jnsgd1na2vs0mg"},{"bike_id":"95563961-3631-4dfc-8485-34ec9ae8a964","system_id":"levelo_inurba_marseille","lat":43.29982,"lon":5.38506,"is_reserved":false,"is_disabled":false,"rental_uris":{"android":"levelo://app?vid=95563961-3631-4dfc-8485-34ec9ae8a964","ios":"levelo://app?vid=95563961-3631-4dfc-8485-34ec9ae8a964"},"vehicle_type_id":"4","last_reported":1738465914,"current_range_meters":38000,"station_id":"ce4bgj92rcd13ifvqbd0","pricing_plan_id":"cebpf4jnsgd1na2vs0mg"},{"bike_id":"8b23552f-b7c0-40c8-9d4f-37ff82774c67","system_id":"levelo_inurba_marseille","lat":43.25572,"lon":5.38241,"is_reserved":false,"is_disabled":false,"rental_uris":{"android":"levelo://app?vid=8b23552f-b7c0-40c8-9d4f-37ff82774c67","ios":"levelo://app?vid=8b23552f-b7c0-40c8-9d4f-37ff82774c67"},"vehicle_type_id":"4","last_reported":1738465914,"current_range_meters":29600,"station_id":"ce4bhih2rcd13ifvqfs0","pricing_plan_id":"cebpf4jnsgd1na2vs0mg"},{"bike_id":"637e7848-7b84-4e1d-9cee-355c6601f7c3","system_id":"levelo_inurba_marseille","lat":43.279914,"lon":5.416549,"is_reserved":false,"is_disabled":true,"rental_uris":{"android":"levelo://app?vid=637e7848-7b84-4e1d-9cee-355c6601f7c3","ios":"levelo://app?vid=637e7848-7b84-4e1d-9cee-355c6601f7c3"},"vehicle_type_id":"4","last_reported":1738465914,"current_range_meters":4400,"station_id":"ce4bho12rcd13ifvqh1g","pricing_plan_id":"cebpf4jnsgd1na2vs0mg"},{"bike_id":"7a3d8c66-0114-475d-b38c-385b6eaec847","system_id":"levelo_inurba_marseille","lat":43.278114,"lon":5.407153,"is_reserved":false,"is_disabled":false,"rental_uris":{"android":"levelo://app?vid=7a3d8c66-0114-475d-b38c-385b6eaec847","ios":"levelo://app?vid=7a3d8c66-0114-475d-b38c-385b6eaec847"},"vehicle_type_id":"4","last_reported":1738465914,"current_range_meters":38800,"station_id":"ce4bhnh2rcd13ifvqgtg","pricing_plan_id":"cebpf4jnsgd1na2vs0mg"},{"bike_id":"99dbe1f2-9a16-4cec-b8ff-b1c3ad795990","system_id":"levelo_inurba_marseille","lat":43.301979,"lon":5.394733,"is_reserved":false,"is_disabled":false,"rental_uris":{"android":"levelo://app?vid=99dbe1f2-9a16-4cec-b8ff-b1c3ad795990","ios":"levelo://app?vid=99dbe1f2-9a16-4cec-b8ff-b1c3ad795990"},"vehicle_type_id":"4","last_reported":1738465914,"current_range_meters":38800,"station_id":"ce4bh0p2rcd13ifvqd70","pricing_plan_id":"cebpf4jnsgd1na2vs0mg"},{"bike_id":"719ef290-08f5-4e21-9cf6-997772e28671","system_id":"levelo_inurba_marseille","lat":43.30191,"lon":5.36618,"is_reserved":false,"is_disabled":false,"rental_uris":{"android":"levelo://app?vid=719ef290-08f5-4e21-9cf6-997772e28671","ios":"levelo://app?vid=719ef290-08f5-4e21-9cf6-997772e28671"},"vehicle_type_id":"4","last_reported":1738465914,"current_range_meters":33600,"station_id":"ce4bgrh2rcd13ifvqc8g","pricing_plan_id":"cebpf4jnsgd1na2vs0mg"},{"bike_id":"6b9691b7-1d3c-496e-a246-f1c8ef4fa423","system_id":"levelo_inurba_marseille","lat":43.27549,"lon":5.38419,"is_reserved":false,"is_disabled":false,"rental_uris":{"android":"levelo://app?vid=6b9691b7-1d3c-496e-a246-f1c8ef4fa423","ios":"levelo://app?vid=6b9691b7-1d3c-496e-a246-f1c8ef4fa423"},"vehicle_type_id":"4","last_reported":1738465914,"current_range_meters":37600,"station_id":"ce4bhh92rcd13ifvqfi0","pricing_plan_id":"cebpf4jnsgd1na2vs0mg"},{"bike_id":"ffa8a266-adfd-4e30-82b3-ab3356d6a295","system_id":"levelo_inurba_marseille","lat":43.29559,"lon":5.37513,"is_reserved":false,"is_disabled":false,"rental_uris":{"android":"levelo://app?vid=ffa8a266-adfd-4e30-82b3-ab3356d6a295","ios":"levelo://app?vid=ffa8a266-adfd-4e30-82b3-ab3356d6a295"},"vehicle_type_id":"4","last_reported":1738465914,"current_range_meters":30000,"station_id":"ce4bgh92rcd13ifvqb50","pricing_plan_id":"cebpf4jnsgd1na2vs0mg"},{"bike_id":"259d0f82-ff8f-4bf3-a2f7-d3c692636e3a","system_id":"levelo_inurba_marseille","lat":43.29735,"lon":5.36614,"is_reserved":false,"is_disabled":false,"rental_uris":{"android":"levelo://app?vid=259d0f82-ff8f-4bf3-a2f7-d3c692636e3a","ios":"levelo://app?vid=259d0f82-ff8f-4bf3-a2f7-d3c692636e3a"},"vehicle_type_id":"4","last_reported":1738465914,"current_range_meters":37600,"station_id":"ce4bgn12rcd13ifvqbt0","pricing_plan_id":"cebpf4jnsgd1na2vs0mg"},{"bike_id":"62dc1b07-9488-419e-9b82-315680199b16","system_id":"levelo_inurba_marseille","lat":43.28353,"lon":5.38108,"is_reserved":false,"is_disabled":false,"rental_uris":{"android":"levelo://app?vid=62dc1b07-9488-419e-9b82-315680199b16","ios":"levelo://app?vid=62dc1b07-9488-419e-9b82-315680199b16"},"vehicle_type_id":"4","last_reported":1738465914,"current_range_meters":6800,"station_id":"ce4bh412rcd13ifvqdr0","pricing_plan_id":"cebpf4jnsgd1na2vs0mg"},{"bike_id":"83f69f04-e8f1-4840-ba7a-561f5d3dfdc6","system_id":"levelo_inurba_marseille","lat":43.29183,"lon":5.39326,"is_reserved":false,"is_disabled":false,"rental_uris":{"android":"levelo://app?vid=83f69f04-e8f1-4840-ba7a-561f5d3dfdc6","ios":"levelo://app?vid=83f69f04-e8f1-4840-ba7a-561f5d3dfdc6"},"vehicle_type_id":"4","last_reported":1738465914,"current_range_meters":36400,"station_id":"ce4bh192rcd13ifvqdd0","pricing_plan_id":"cebpf4jnsgd1na2vs0mg"},{"bike_id":"33a3400f-2ab5-4497-9477-14c8cba9604a","system_id":"levelo_inurba_marseille","lat":43.313153,"lon":5.397262,"is_reserved":false,"is_disabled":false,"rental_uris":{"android":"levelo://app?vid=33a3400f-2ab5-4497-9477-14c8cba9604a","ios":"levelo://app?vid=33a3400f-2ab5-4497-9477-14c8cba9604a"},"vehicle_type_id":"4","last_reported":1738465914,"current_range_meters":38800,"station_id":"ce4bgvp2rcd13ifvqcu0","pricing_plan_id":"cebpf4jnsgd1na2vs0mg"},{"bike_id":"095e5291-f842-4478-bc34-3769cd441c0c","system_id":"levelo_inurba_marseille","lat":43.28147,"lon":5.42632,"is_reserved":false,"is_disabled":false,"rental_uris":{"android":"levelo://app?vid=095e5291-f842-4478-bc34-3769cd441c0c","ios":"levelo://app?vid=095e5291-f842-4478-bc34-3769cd441c0c"},"vehicle_type_id":"4","last_reported":1738465914,"current_range_meters":16000,"station_id":"ce4bhnh2rcd13ifvqgug","pricing_plan_id":"cebpf4jnsgd1na2vs0mg"},{"bike_id":"1c7ba9f3-fe6d-4377-a2c2-edec2027673d","system_id":"levelo_inurba_marseille","lat":43.28414,"lon":5.37514,"is_reserved":false,"is_disabled":false,"rental_uris":{"android":"levelo://app?vid=1c7ba9f3-fe6d-4377-a2c2-edec2027673d","ios":"levelo://app?vid=1c7ba9f3-fe6d-4377-a2c2-edec2027673d"},"vehicle_type_id":"4","last_reported":1738465914,"current_range_meters":26000,"station_id":"ce4bh412rcd13ifvqds0","pricing_plan_id":"cebpf4jnsgd1na2vs0mg"},{"bike_id":"9f7cbc3c-6e0b-4442-8c70-64c0b2a1452e","system_id":"levelo_inurba_marseille","lat":43.23058,"lon":5.35494,"is_reserved":false,"is_disabled":false,"rental_uris":{"android":"levelo://app?vid=9f7cbc3c-6e0b-4442-8c70-64c0b2a1452e","ios":"levelo://app?vid=9f7cbc3c-6e0b-4442-8c70-64c0b2a1452e"},"vehicle_type_id":"4","last_reported":1738465914,"current_range_meters":34000,"station_id":"cpo3342slgdg3j2ifvpg","pricing_plan_id":"cebpf4jnsgd1na2vs0mg"},{"bike_id":"c8a3a0ed-dff2-4f3c-87dc-2e6b47b1ad28","system_id":"levelo_inurba_marseille","lat":43.337444,"lon":5.374475,"is_reserved":false,"is_disabled":true,"rental_uris":{"android":"levelo://app?vid=c8a3a0ed-dff2-4f3c-87dc-2e6b47b1ad28","ios":"levelo://app?vid=c8a3a0ed-dff2-4f3c-87dc-2e6b47b1ad28"},"vehicle_type_id":"4","last_reported":1738465914,"current_range_meters":0,"station_id":"","pricing_plan_id":"cebpf4jnsgd1na2vs0mg"},{"bike_id":"8afdb513-b832-4957-b577-864c8e16af85","system_id":"levelo_inurba_marseille","lat":43.30119,"lon":5.37438,"is_reserved":false,"is_disabled":false,"rental_uris":{"android":"levelo://app?vid=8afdb513-b832-4957-b577-864c8e16af85","ios":"levelo://app?vid=8afdb513-b832-4957-b577-864c8e16af85"},"vehicle_type_id":"4","last_reported":1738465914,"current_range_meters":39200,"station_id":"ce4bgs92rcd13ifvqcc0","pricing_plan_id":"cebpf4jnsgd1na2vs0mg"},{"bike_id":"1a099706-33fc-4319-9169-be6696b08b48","system_id":"levelo_inurba_marseille","lat":43.309102,"lon":5.368584,"is_reserved":false,"is_disabled":false,"rental_uris":{"android":"levelo://app?vid=1a099706-33fc-4319-9169-be6696b08b48","ios":"levelo://app?vid=1a099706-33fc-4319-9169-be6696b08b48"},"vehicle_type_id":"4","last_reported":1738465914,"current_range_meters":28400,"station_id":"ce4bgn92rcd13ifvqbvg","pricing_plan_id":"cebpf4jnsgd1na2vs0mg"},{"bike_id":"9191983c-f500-4e34-800a-5c4da4f130cb","system_id":"levelo_inurba_marseille","lat":43.27949,"lon":5.41044,"is_reserved":false,"is_disabled":false,"rental_uris":{"android":"levelo://app?vid=9191983c-f500-4e34-800a-5c4da4f130cb","ios":"levelo://app?vid=9191983c-f500-4e34-800a-5c4da4f130cb"},"vehicle_type_id":"4","last_reported":1738465914,"current_range_meters":34000,"station_id":"ce4bhnp2rcd13ifvqh0g","pricing_plan_id":"cebpf4jnsgd1na2vs0mg"},{"bike_id":"62d565b0-7cae-461b-b7c1-5becd732430d","system_id":"levelo_inurba_marseille","lat":43.270491,"lon":5.40249,"is_reserved":false,"is_disabled":false,"rental_uris":{"android":"levelo://app?vid=62d565b0-7cae-461b-b7c1-5becd732430d","ios":"levelo://app?vid=62d565b0-7cae-461b-b7c1-5becd732430d"},"vehicle_type_id":"4","last_reported":1738465914,"current_range_meters":22000,"station_id":"ce4bhk92rcd13ifvqgc0","pricing_plan_id":"cebpf4jnsgd1na2vs0mg"},{"bike_id":"a6d42b51-640d-4d65-9fd4-ad4ca94cec41","system_id":"levelo_inurba_marseille","lat":43.23964,"lon":5.36633,"is_reserved":false,"is_disabled":false,"rental_uris":{"android":"levelo://app?vid=a6d42b51-640d-4d65-9fd4-ad4ca94cec41","ios":"levelo://app?vid=a6d42b51-640d-4d65-9fd4-ad4ca94cec41"},"vehicle_type_id":"4","last_reported":1738465914,"current_range_meters":23200,"station_id":"ce4bhi12rcd13ifvqfp0","pricing_plan_id":"cebpf4jnsgd1na2vs0mg"},{"bike_id":"5299667e-c55c-45d5-a50f-9880a25cdbb8","system_id":"levelo_inurba_marseille","lat":43.29704,"lon":5.37283,"is_reserved":false,"is_disabled":false,"rental_uris":{"android":"levelo://app?vid=5299667e-c55c-45d5-a50f-9880a25cdbb8","ios":"levelo://app?vid=5299667e-c55c-45d5-a50f-9880a25cdbb8"},"vehicle_type_id":"4","last_reported":1738465914,"current_range_meters":38800,"station_id":"ce4bgk12rcd13ifvqbj0","pricing_plan_id":"cebpf4jnsgd1na2vs0mg"},{"bike_id":"fc3f441f-cf92-4b8d-bbc1-ecd0a0012fb0","system_id":"levelo_inurba_marseille","lat":43.29245,"lon":5.40917,"is_reserved":false,"is_disabled":false,"rental_uris":{"android":"levelo://app?vid=fc3f441f-cf92-4b8d-bbc1-ecd0a0012fb0","ios":"levelo://app?vid=fc3f441f-cf92-4b8d-bbc1-ecd0a0012fb0"},"vehicle_type_id":"4","last_reported":1738465914,"current_range_meters":39200,"station_id":"ce4bh192rcd13ifvqdc0","pricing_plan_id":"cebpf4jnsgd1na2vs0mg"},{"bike_id":"ee03fb8c-a170-4e8a-bfc7-8fdf50092698","system_id":"levelo_inurba_marseille","lat":43.25116,"lon":5.40313,"is_reserved":false,"is_disabled":false,"rental_uris":{"android":"levelo://app?vid=ee03fb8c-a170-4e8a-bfc7-8fdf50092698","ios":"levelo://app?vid=ee03fb8c-a170-4e8a-bfc7-8fdf50092698"},"vehicle_type_id":"4","last_reported":1738465914,"current_range_meters":38400,"station_id":"ce4bhlh2rcd13ifvqgig","pricing_plan_id":"cebpf4jnsgd1na2vs0mg"},{"bike_id":"96be0a16-e50d-451d-b41b-3ff1b458496c","system_id":"levelo_inurba_marseille","lat":43.28459,"lon":5.35902,"is_reserved":false,"is_disabled":false,"rental_uris":{"android":"levelo://app?vid=96be0a16-e50d-451d-b41b-3ff1b458496c","ios":"levelo://app?vid=96be0a16-e50d-451d-b41b-3ff1b458496c"},"vehicle_type_id":"4","last_reported":1738465914,"current_range_meters":33200,"station_id":"ce4bhah2rcd13ifvqei0","pricing_plan_id":"cebpf4jnsgd1na2vs0mg"},{"bike_id":"842cb586-b14a-4907-8c8b-f0ebf26ea15c","system_id":"levelo_inurba_marseille","lat":43.31317,"lon":5.39707,"is_reserved":false,"is_disabled":false,"rental_uris":{"android":"levelo://app?vid=842cb586-b14a-4907-8c8b-f0ebf26ea15c","ios":"levelo://app?vid=842cb586-b14a-4907-8c8b-f0ebf26ea15c"},"vehicle_type_id":"4","last_reported":1738465914,"current_range_meters":18000,"station_id":"ce4bgvp2rcd13ifvqcu0","pricing_plan_id":"cebpf4jnsgd1na2vs0mg"},{"bike_id":"cddc303e-00e9-41dc-9d5a-46fc7878f76f","system_id":"levelo_inurba_marseille","lat":43.287285,"lon":5.360818,"is_reserved":false,"is_disabled":false,"rental_uris":{"android":"levelo://app?vid=cddc303e-00e9-41dc-9d5a-46fc7878f76f","ios":"levelo://app?vid=cddc303e-00e9-41dc-9d5a-46fc7878f76f"},"vehicle_type_id":"4","last_reported":1738465914,"current_range_meters":38800,"station_id":"cki0cbj6b192h4jlfktg","pricing_plan_id":"cebpf4jnsgd1na2vs0mg"},{"bike_id":"cb6cbad1-9be5-49a8-997b-c3e9153eb9e1","system_id":"levelo_inurba_marseille","lat":43.24544,"lon":5.39532,"is_reserved":false,"is_disabled":false,"rental_uris":{"android":"levelo://app?vid=cb6cbad1-9be5-49a8-997b-c3e9153eb9e1","ios":"levelo://app?vid=cb6cbad1-9be5-49a8-997b-c3e9153eb9e1"},"vehicle_type_id":"4","last_reported":1738465914,"current_range_meters":39200,"station_id":"ce4bhlp2rcd13ifvqgjg","pricing_plan_id":"cebpf4jnsgd1na2vs0mg"},{"bike_id":"c63d9fb0-668c-4ae0-a12d-30f1e5cb6d92","system_id":"levelo_inurba_marseille","lat":43.26489,"lon":5.39551,"is_reserved":false,"is_disabled":false,"rental_uris":{"android":"levelo://app?vid=c63d9fb0-668c-4ae0-a12d-30f1e5cb6d92","ios":"levelo://app?vid=c63d9fb0-668c-4ae0-a12d-30f1e5cb6d92"},"vehicle_type_id":"4","last_reported":1738465914,"current_range_meters":9600,"station_id":"ce4bhi12rcd13ifvqfq0","pricing_plan_id":"cebpf4jnsgd1na2vs0mg"},{"bike_id":"9fd1d072-3a8b-4482-b70f-62cd25efe66f","system_id":"levelo_inurba_marseille","lat":43.28148,"lon":5.42637,"is_reserved":false,"is_disabled":false,"rental_uris":{"android":"levelo://app?vid=9fd1d072-3a8b-4482-b70f-62cd25efe66f","ios":"levelo://app?vid=9fd1d072-3a8b-4482-b70f-62cd25efe66f"},"vehicle_type_id":"4","last_reported":1738465914,"current_range_meters":36400,"station_id":"ce4bhnh2rcd13ifvqgug","pricing_plan_id":"cebpf4jnsgd1na2vs0mg"},{"bike_id":"5a583af2-ee7a-46d4-9499-f00aba451f9a","system_id":"levelo_inurba_marseille","lat":43.303201,"lon":5.404473,"is_reserved":false,"is_disabled":false,"rental_uris":{"android":"levelo://app?vid=5a583af2-ee7a-46d4-9499-f00aba451f9a","ios":"levelo://app?vid=5a583af2-ee7a-46d4-9499-f00aba451f9a"},"vehicle_type_id":"4","last_reported":1738465914,"current_range_meters":38800,"station_id":"ce4bh012rcd13ifvqd10","pricing_plan_id":"cebpf4jnsgd1na2vs0mg"},{"bike_id":"3b9ec21a-c5cf-47fa-a6f7-7853c2e66346","system_id":"levelo_inurba_marseille","lat":43.26197,"lon":5.37929,"is_reserved":false,"is_disabled":false,"rental_uris":{"android":"levelo://app?vid=3b9ec21a-c5cf-47fa-a6f7-7853c2e66346","ios":"levelo://app?vid=3b9ec21a-c5cf-47fa-a6f7-7853c2e66346"},"vehicle_type_id":"4","last_reported":1738465914,"current_range_meters":38800,"station_id":"ce4bhjp2rcd13ifvqg90","pricing_plan_id":"cebpf4jnsgd1na2vs0mg"},{"bike_id":"a48c354a-8e9e-41e8-b9b1-0e3ea3494ae1","system_id":"levelo_inurba_marseille","lat":43.25498,"lon":5.37649,"is_reserved":false,"is_disabled":false,"rental_uris":{"android":"levelo://app?vid=a48c354a-8e9e-41e8-b9b1-0e3ea3494ae1","ios":"levelo://app?vid=a48c354a-8e9e-41e8-b9b1-0e3ea3494ae1"},"vehicle_type_id":"4","last_reported":1738465914,"current_range_meters":38000,"station_id":"ce4bhh12rcd13ifvqff0","pricing_plan_id":"cebpf4jnsgd1na2vs0mg"},{"bike_id":"0c23a347-e336-4988-9361-6d0780e65074","system_id":"levelo_inurba_marseille","lat":43.313419,"lon":5.375966,"is_reserved":false,"is_disabled":false,"rental_uris":{"android":"levelo://app?vid=0c23a347-e336-4988-9361-6d0780e65074","ios":"levelo://app?vid=0c23a347-e336-4988-9361-6d0780e65074"},"vehicle_type_id":"4","last_reported":1738465914,"current_range_meters":35200,"station_id":"","pricing_plan_id":"cebpf4jnsgd1na2vs0mg"},{"bike_id":"cfdc3e36-f1ca-4859-b324-931a3f1626bd","system_id":"levelo_inurba_marseille","lat":43.25582,"lon":5.38233,"is_reserved":false,"is_disabled":false,"rental_uris":{"android":"levelo://app?vid=cfdc3e36-f1ca-4859-b324-931a3f1626bd","ios":"levelo://app?vid=cfdc3e36-f1ca-4859-b324-931a3f1626bd"},"vehicle_type_id":"4","last_reported":1738465914,"current_range_meters":38800,"station_id":"ce4bhih2rcd13ifvqfs0","pricing_plan_id":"cebpf4jnsgd1na2vs0mg"},{"bike_id":"b8d4935e-8f46-4f4c-a217-7106521d1e57","system_id":"levelo_inurba_marseille","lat":43.32335,"lon":5.4062,"is_reserved":false,"is_disabled":false,"rental_uris":{"android":"levelo://app?vid=b8d4935e-8f46-4f4c-a217-7106521d1e57","ios":"levelo://app?vid=b8d4935e-8f46-4f4c-a217-7106521d1e57"},"vehicle_type_id":"4","last_reported":1738465914,"current_range_meters":36400,"station_id":"ce4bhq92rcd13ifvqhjg","pricing_plan_id":"cebpf4jnsgd1na2vs0mg"},{"bike_id":"29f86acd-aa50-4395-9377-730a470ce878","system_id":"levelo_inurba_marseille","lat":43.30809,"lon":5.43523,"is_reserved":false,"is_disabled":false,"rental_uris":{"android":"levelo://app?vid=29f86acd-aa50-4395-9377-730a470ce878","ios":"levelo://app?vid=29f86acd-aa50-4395-9377-730a470ce878"},"vehicle_type_id":"4","last_reported":1738465914,"current_range_meters":4400,"station_id":"ce4bhph2rcd13ifvqheg","pricing_plan_id":"cebpf4jnsgd1na2vs0mg"},{"bike_id":"79d0b2db-3ea3-44dd-aa4c-c52652ea8c59","system_id":"levelo_inurba_marseille","lat":43.29813,"lon":5.40405,"is_reserved":false,"is_disabled":false,"rental_uris":{"android":"levelo://app?vid=79d0b2db-3ea3-44dd-aa4c-c52652ea8c59","ios":"levelo://app?vid=79d0b2db-3ea3-44dd-aa4c-c52652ea8c59"},"vehicle_type_id":"4","last_reported":1738465914,"current_range_meters":38800,"station_id":"ce4bh112rcd13ifvqd90","pricing_plan_id":"cebpf4jnsgd1na2vs0mg"},{"bike_id":"64f3d068-4285-4007-878c-7cb4a952f6ce","system_id":"levelo_inurba_marseille","lat":43.28003,"lon":5.40008,"is_reserved":false,"is_disabled":false,"rental_uris":{"android":"levelo://app?vid=64f3d068-4285-4007-878c-7cb4a952f6ce","ios":"levelo://app?vid=64f3d068-4285-4007-878c-7cb4a952f6ce"},"vehicle_type_id":"4","last_reported":1738465914,"current_range_meters":35200,"station_id":"ce4bho92rcd13ifvqh4g","pricing_plan_id":"cebpf4jnsgd1na2vs0mg"},{"bike_id":"10670e9f-2065-40ed-8863-f51a95d5ec60","system_id":"levelo_inurba_marseille","lat":43.29699,"lon":5.37277,"is_reserved":false,"is_disabled":false,"rental_uris":{"android":"levelo://app?vid=10670e9f-2065-40ed-8863-f51a95d5ec60","ios":"levelo://app?vid=10670e9f-2065-40ed-8863-f51a95d5ec60"},"vehicle_type_id":"4","last_reported":1738465914,"current_range_meters":38800,"station_id":"ce4bgk12rcd13ifvqbj0","pricing_plan_id":"cebpf4jnsgd1na2vs0mg"},{"bike_id":"204b9cd7-89fd-4273-9bb6-521b0cef5a71","system_id":"levelo_inurba_marseille","lat":43.27941,"lon":5.41043,"is_reserved":false,"is_disabled":false,"rental_uris":{"android":"levelo://app?vid=204b9cd7-89fd-4273-9bb6-521b0cef5a71","ios":"levelo://app?vid=204b9cd7-89fd-4273-9bb6-521b0cef5a71"},"vehicle_type_id":"4","last_reported":1738465914,"current_range_meters":21600,"station_id":"ce4bhnp2rcd13ifvqh0g","pricing_plan_id":"cebpf4jnsgd1na2vs0mg"},{"bike_id":"29e433c5-f86e-40bf-8cf3-374b024916b0","system_id":"levelo_inurba_marseille","lat":43.32297,"lon":5.38268,"is_reserved":false,"is_disabled":false,"rental_uris":{"android":"levelo://app?vid=29e433c5-f86e-40bf-8cf3-374b024916b0","ios":"levelo://app?vid=29e433c5-f86e-40bf-8cf3-374b024916b0"},"vehicle_type_id":"4","last_reported":1738465914,"current_range_meters":38800,"station_id":"ce4bhr12rcd13ifvqhqg","pricing_plan_id":"cebpf4jnsgd1na2vs0mg"},{"bike_id":"256b8d70-5423-448f-98b3-1ac32056c67f","system_id":"levelo_inurba_marseille","lat":43.2845,"lon":5.35893,"is_reserved":false,"is_disabled":false,"rental_uris":{"android":"levelo://app?vid=256b8d70-5423-448f-98b3-1ac32056c67f","ios":"levelo://app?vid=256b8d70-5423-448f-98b3-1ac32056c67f"},"vehicle_type_id":"4","last_reported":1738465914,"current_range_meters":39200,"station_id":"ce4bhah2rcd13ifvqei0","pricing_plan_id":"cebpf4jnsgd1na2vs0mg"},{"bike_id":"59e98682-9355-45ca-aaa0-29b37b791d30","system_id":"levelo_inurba_marseille","lat":43.295604,"lon":5.422838,"is_reserved":false,"is_disabled":false,"rental_uris":{"android":"levelo://app?vid=59e98682-9355-45ca-aaa0-29b37b791d30","ios":"levelo://app?vid=59e98682-9355-45ca-aaa0-29b37b791d30"},"vehicle_type_id":"4","last_reported":1738465914,"current_range_meters":4800,"station_id":"ce4bhph2rcd13ifvqhdg","pricing_plan_id":"cebpf4jnsgd1na2vs0mg"},{"bike_id":"13729350-063e-4d4a-bf59-1cbcfbb9dc7a","system_id":"levelo_inurba_marseille","lat":43.28849,"lon":5.39337,"is_reserved":false,"is_disabled":false,"rental_uris":{"android":"levelo://app?vid=13729350-063e-4d4a-bf59-1cbcfbb9dc7a","ios":"levelo://app?vid=13729350-063e-4d4a-bf59-1cbcfbb9dc7a"},"vehicle_type_id":"4","last_reported":1738465914,"current_range_meters":28000,"station_id":"ce4bh2p2rcd13ifvqdi0","pricing_plan_id":"cebpf4jnsgd1na2vs0mg"},{"bike_id":"a1798e31-a890-4218-afdc-197b4881f4a6","system_id":"levelo_inurba_marseille","lat":43.28924,"lon":5.36377,"is_reserved":false,"is_disabled":false,"rental_uris":{"android":"levelo://app?vid=a1798e31-a890-4218-afdc-197b4881f4a6","ios":"levelo://app?vid=a1798e31-a890-4218-afdc-197b4881f4a6"},"vehicle_type_id":"4","last_reported":1738465914,"current_range_meters":25600,"station_id":"ce4bhc92rcd13ifvqetg","pricing_plan_id":"cebpf4jnsgd1na2vs0mg"},{"bike_id":"e2c49145-d80d-4c68-8184-02b30e52c755","system_id":"levelo_inurba_marseille","lat":43.30793,"lon":5.43521,"is_reserved":false,"is_disabled":false,"rental_uris":{"android":"levelo://app?vid=e2c49145-d80d-4c68-8184-02b30e52c755","ios":"levelo://app?vid=e2c49145-d80d-4c68-8184-02b30e52c755"},"vehicle_type_id":"4","last_reported":1738465914,"current_range_meters":22800,"station_id":"ce4bhph2rcd13ifvqheg","pricing_plan_id":"cebpf4jnsgd1na2vs0mg"},{"bike_id":"21f3cf1f-71e5-4975-8f92-4ce137edf8ce","system_id":"levelo_inurba_marseille","lat":43.27174,"lon":5.40984,"is_reserved":false,"is_disabled":false,"rental_uris":{"android":"levelo://app?vid=21f3cf1f-71e5-4975-8f92-4ce137edf8ce","ios":"levelo://app?vid=21f3cf1f-71e5-4975-8f92-4ce137edf8ce"},"vehicle_type_id":"4","last_reported":1738465914,"current_range_meters":38400,"station_id":"ce4bhl12rcd13ifvqgf0","pricing_plan_id":"cebpf4jnsgd1na2vs0mg"},{"bike_id":"d979d8d2-ec65-47af-9229-e4270aab279a","system_id":"levelo_inurba_marseille","lat":43.23063,"lon":5.35493,"is_reserved":false,"is_disabled":false,"rental_uris":{"android":"levelo://app?vid=d979d8d2-ec65-47af-9229-e4270aab279a","ios":"levelo://app?vid=d979d8d2-ec65-47af-9229-e4270aab279a"},"vehicle_type_id":"4","last_reported":1738465914,"current_range_meters":38800,"station_id":"cpo3342slgdg3j2ifvpg","pricing_plan_id":"cebpf4jnsgd1na2vs0mg"},{"bike_id":"e8487e23-353a-4c8c-8ba4-9aad0bfaca48","system_id":"levelo_inurba_marseille","lat":43.29004,"lon":5.35618,"is_reserved":false,"is_disabled":false,"rental_uris":{"android":"levelo://app?vid=e8487e23-353a-4c8c-8ba4-9aad0bfaca48","ios":"levelo://app?vid=e8487e23-353a-4c8c-8ba4-9aad0bfaca48"},"vehicle_type_id":"4","last_reported":1738465914,"current_range_meters":32000,"station_id":"ce4bhb92rcd13ifvqen0","pricing_plan_id":"cebpf4jnsgd1na2vs0mg"},{"bike_id":"82c6eebf-0519-4b18-a727-88dc1d4c976d","system_id":"levelo_inurba_marseille","lat":43.28278,"lon":5.35082,"is_reserved":false,"is_disabled":true,"rental_uris":{"android":"levelo://app?vid=82c6eebf-0519-4b18-a727-88dc1d4c976d","ios":"levelo://app?vid=82c6eebf-0519-4b18-a727-88dc1d4c976d"},"vehicle_type_id":"4","last_reported":1738465914,"current_range_meters":24800,"station_id":"ce4bhbp2rcd13ifvqerg","pricing_plan_id":"cebpf4jnsgd1na2vs0mg"},{"bike_id":"72c5f7d9-b44a-49bc-8db6-4d124b4dff5c","system_id":"levelo_inurba_marseille","lat":43.27218,"lon":5.3921,"is_reserved":false,"is_disabled":false,"rental_uris":{"android":"levelo://app?vid=72c5f7d9-b44a-49bc-8db6-4d124b4dff5c","ios":"levelo://app?vid=72c5f7d9-b44a-49bc-8db6-4d124b4dff5c"},"vehicle_type_id":"4","last_reported":1738465914,"current_range_meters":38800,"station_id":"ce4bhhp2rcd13ifvqfm0","pricing_plan_id":"cebpf4jnsgd1na2vs0mg"},{"bike_id":"3ccd196e-cddd-41f1-8a25-97e7f22947f7","system_id":"levelo_inurba_marseille","lat":43.25124,"lon":5.40319,"is_reserved":false,"is_disabled":true,"rental_uris":{"android":"levelo://app?vid=3ccd196e-cddd-41f1-8a25-97e7f22947f7","ios":"levelo://app?vid=3ccd196e-cddd-41f1-8a25-97e7f22947f7"},"vehicle_type_id":"4","last_reported":1738465914,"current_range_meters":2800,"station_id":"ce4bhlh2rcd13ifvqgig","pricing_plan_id":"cebpf4jnsgd1na2vs0mg"},{"bike_id":"e8c84a16-b185-487d-a213-6d83ed3d959b","system_id":"levelo_inurba_marseille","lat":43.27324,"lon":5.39119,"is_reserved":false,"is_disabled":false,"rental_uris":{"android":"levelo://app?vid=e8c84a16-b185-487d-a213-6d83ed3d959b","ios":"levelo://app?vid=e8c84a16-b185-487d-a213-6d83ed3d959b"},"vehicle_type_id":"4","last_reported":1738465914,"current_range_meters":11200,"station_id":"ce4bhgp2rcd13ifvqfe0","pricing_plan_id":"cebpf4jnsgd1na2vs0mg"},{"bike_id":"c007eca9-6cc6-4cd6-8a1c-8521731a13ef","system_id":"levelo_inurba_marseille","lat":43.304676,"lon":5.379104,"is_reserved":false,"is_disabled":false,"rental_uris":{"android":"levelo://app?vid=c007eca9-6cc6-4cd6-8a1c-8521731a13ef","ios":"levelo://app?vid=c007eca9-6cc6-4cd6-8a1c-8521731a13ef"},"vehicle_type_id":"4","last_reported":1738465914,"current_range_meters":38800,"station_id":"ce4bgup2rcd13ifvqcn0","pricing_plan_id":"cebpf4jnsgd1na2vs0mg"},{"bike_id":"14eb7a59-9b20-4e76-b93d-5c9f392068a1","system_id":"levelo_inurba_marseille","lat":43.28152,"lon":5.42646,"is_reserved":false,"is_disabled":false,"rental_uris":{"android":"levelo://app?vid=14eb7a59-9b20-4e76-b93d-5c9f392068a1","ios":"levelo://app?vid=14eb7a59-9b20-4e76-b93d-5c9f392068a1"},"vehicle_type_id":"4","last_reported":1738465914,"current_range_meters":17200,"station_id":"ce4bhnh2rcd13ifvqgug","pricing_plan_id":"cebpf4jnsgd1na2vs0mg"},{"bike_id":"90d8247b-1174-449d-9eb0-b1f3c78024c6","system_id":"levelo_inurba_marseille","lat":43.279916,"lon":5.41657,"is_reserved":false,"is_disabled":false,"rental_uris":{"android":"levelo://app?vid=90d8247b-1174-449d-9eb0-b1f3c78024c6","ios":"levelo://app?vid=90d8247b-1174-449d-9eb0-b1f3c78024c6"},"vehicle_type_id":"4","last_reported":1738465914,"current_range_meters":30000,"station_id":"ce4bho12rcd13ifvqh1g","pricing_plan_id":"cebpf4jnsgd1na2vs0mg"},{"bike_id":"feff91c2-2700-4416-86fe-7cbdd076b5f0","system_id":"levelo_inurba_marseille","lat":43.301211,"lon":5.39879,"is_reserved":false,"is_disabled":false,"rental_uris":{"android":"levelo://app?vid=feff91c2-2700-4416-86fe-7cbdd076b5f0","ios":"levelo://app?vid=feff91c2-2700-4416-86fe-7cbdd076b5f0"},"vehicle_type_id":"4","last_reported":1738465914,"current_range_meters":38800,"station_id":"ce4bh0h2rcd13ifvqd40","pricing_plan_id":"cebpf4jnsgd1na2vs0mg"},{"bike_id":"f99e91c4-2330-4795-bfe7-3495ca9ba92c","system_id":"levelo_inurba_marseille","lat":43.28955,"lon":5.36624,"is_reserved":false,"is_disabled":true,"rental_uris":{"android":"levelo://app?vid=f99e91c4-2330-4795-bfe7-3495ca9ba92c","ios":"levelo://app?vid=f99e91c4-2330-4795-bfe7-3495ca9ba92c"},"vehicle_type_id":"4","last_reported":1738465914,"current_range_meters":30400,"station_id":"ce4bhap2rcd13ifvqek0","pricing_plan_id":"cebpf4jnsgd1na2vs0mg"},{"bike_id":"4404d625-caec-4501-b6a9-435bce582ed0","system_id":"levelo_inurba_marseille","lat":43.27497,"lon":5.42451,"is_reserved":false,"is_disabled":false,"rental_uris":{"android":"levelo://app?vid=4404d625-caec-4501-b6a9-435bce582ed0","ios":"levelo://app?vid=4404d625-caec-4501-b6a9-435bce582ed0"},"vehicle_type_id":"4","last_reported":1738465914,"current_range_meters":32400,"station_id":"ce4bhn92rcd13ifvqgrg","pricing_plan_id":"cebpf4jnsgd1na2vs0mg"},{"bike_id":"d8b1c3f9-ff6e-4179-8423-4ba0d2a2af0e","system_id":"levelo_inurba_marseille","lat":43.33727,"lon":5.39184,"is_reserved":false,"is_disabled":false,"rental_uris":{"android":"levelo://app?vid=d8b1c3f9-ff6e-4179-8423-4ba0d2a2af0e","ios":"levelo://app?vid=d8b1c3f9-ff6e-4179-8423-4ba0d2a2af0e"},"vehicle_type_id":"4","last_reported":1738465914,"current_range_meters":37600,"station_id":"ce4bhr92rcd13ifvqhsg","pricing_plan_id":"cebpf4jnsgd1na2vs0mg"},{"bike_id":"aa9a502a-bd2c-4129-b0a1-12c36b93e0b4","system_id":"levelo_inurba_marseille","lat":43.24808,"lon":5.37461,"is_reserved":false,"is_disabled":false,"rental_uris":{"android":"levelo://app?vid=aa9a502a-bd2c-4129-b0a1-12c36b93e0b4","ios":"levelo://app?vid=aa9a502a-bd2c-4129-b0a1-12c36b93e0b4"},"vehicle_type_id":"4","last_reported":1738465914,"current_range_meters":38800,"station_id":"ce4bhgh2rcd13ifvqfb0","pricing_plan_id":"cebpf4jnsgd1na2vs0mg"},{"bike_id":"88863c51-ac18-48a5-839c-f4a459246281","system_id":"levelo_inurba_marseille","lat":43.30209,"lon":5.39479,"is_reserved":false,"is_disabled":false,"rental_uris":{"android":"levelo://app?vid=88863c51-ac18-48a5-839c-f4a459246281","ios":"levelo://app?vid=88863c51-ac18-48a5-839c-f4a459246281"},"vehicle_type_id":"4","last_reported":1738465914,"current_range_meters":38800,"station_id":"ce4bh0p2rcd13ifvqd70","pricing_plan_id":"cebpf4jnsgd1na2vs0mg"},{"bike_id":"5d5eb9fe-5d60-4a66-888c-10a94f038faa","system_id":"levelo_inurba_marseille","lat":43.24177,"lon":5.39725,"is_reserved":false,"is_disabled":false,"rental_uris":{"android":"levelo://app?vid=5d5eb9fe-5d60-4a66-888c-10a94f038faa","ios":"levelo://app?vid=5d5eb9fe-5d60-4a66-888c-10a94f038faa"},"vehicle_type_id":"4","last_reported":1738465914,"current_range_meters":27600,"station_id":"ce4bhn12rcd13ifvqgpg","pricing_plan_id":"cebpf4jnsgd1na2vs0mg"},{"bike_id":"15ced002-0d65-4c4b-8206-e2cbbbbb76df","system_id":"levelo_inurba_marseille","lat":43.28219,"lon":5.39081,"is_reserved":false,"is_disabled":false,"rental_uris":{"android":"levelo://app?vid=15ced002-0d65-4c4b-8206-e2cbbbbb76df","ios":"levelo://app?vid=15ced002-0d65-4c4b-8206-e2cbbbbb76df"},"vehicle_type_id":"4","last_reported":1738465914,"current_range_meters":36400,"station_id":"","pricing_plan_id":"cebpf4jnsgd1na2vs0mg"},{"bike_id":"0ef83bbd-06ec-47f7-a25d-62aa89428599","system_id":"levelo_inurba_marseille","lat":43.25853,"lon":5.39894,"is_reserved":false,"is_disabled":false,"rental_uris":{"android":"levelo://app?vid=0ef83bbd-06ec-47f7-a25d-62aa89428599","ios":"levelo://app?vid=0ef83bbd-06ec-47f7-a25d-62aa89428599"},"vehicle_type_id":"4","last_reported":1738465914,"current_range_meters":32800,"station_id":"ce4bhl92rcd13ifvqghg","pricing_plan_id":"cebpf4jnsgd1na2vs0mg"},{"bike_id":"96cdde99-07e1-4e29-ada8-0165767ba907","system_id":"levelo_inurba_marseille","lat":43.279414,"lon":5.410446,"is_reserved":false,"is_disabled":false,"rental_uris":{"android":"levelo://app?vid=96cdde99-07e1-4e29-ada8-0165767ba907","ios":"levelo://app?vid=96cdde99-07e1-4e29-ada8-0165767ba907"},"vehicle_type_id":"4","last_reported":1738465914,"current_range_meters":11200,"station_id":"ce4bhnp2rcd13ifvqh0g","pricing_plan_id":"cebpf4jnsgd1na2vs0mg"},{"bike_id":"12df765e-637f-462b-a03d-2ae0598bb568","system_id":"levelo_inurba_marseille","lat":43.29614,"lon":5.37731,"is_reserved":false,"is_disabled":false,"rental_uris":{"android":"levelo://app?vid=12df765e-637f-462b-a03d-2ae0598bb568","ios":"levelo://app?vid=12df765e-637f-462b-a03d-2ae0598bb568"},"vehicle_type_id":"4","last_reported":1738465914,"current_range_meters":38800,"station_id":"ce4bgi92rcd13ifvqb90","pricing_plan_id":"cebpf4jnsgd1na2vs0mg"},{"bike_id":"8344a4b9-fe19-4ccf-9e1e-c66810831c8c","system_id":"levelo_inurba_marseille","lat":43.243864,"lon":5.370468,"is_reserved":false,"is_disabled":false,"rental_uris":{"android":"levelo://app?vid=8344a4b9-fe19-4ccf-9e1e-c66810831c8c","ios":"levelo://app?vid=8344a4b9-fe19-4ccf-9e1e-c66810831c8c"},"vehicle_type_id":"4","last_reported":1738465914,"current_range_meters":14000,"station_id":"ce4bhhh2rcd13ifvqfk0","pricing_plan_id":"cebpf4jnsgd1na2vs0mg"},{"bike_id":"0ca225f9-859a-4a49-becc-73f5dbda677f","system_id":"levelo_inurba_marseille","lat":43.2797,"lon":5.3874,"is_reserved":false,"is_disabled":false,"rental_uris":{"android":"levelo://app?vid=0ca225f9-859a-4a49-becc-73f5dbda677f","ios":"levelo://app?vid=0ca225f9-859a-4a49-becc-73f5dbda677f"},"vehicle_type_id":"4","last_reported":1738465914,"current_range_meters":38800,"station_id":"ce4bhg12rcd13ifvqf80","pricing_plan_id":"cebpf4jnsgd1na2vs0mg"},{"bike_id":"9a49bcfb-c308-49e4-8283-8b2ba552d367","system_id":"levelo_inurba_marseille","lat":43.32477,"lon":5.36557,"is_reserved":false,"is_disabled":false,"rental_uris":{"android":"levelo://app?vid=9a49bcfb-c308-49e4-8283-8b2ba552d367","ios":"levelo://app?vid=9a49bcfb-c308-49e4-8283-8b2ba552d367"},"vehicle_type_id":"4","last_reported":1738465914,"current_range_meters":34000,"station_id":"ce4bhs12rcd13ifvqhvg","pricing_plan_id":"cebpf4jnsgd1na2vs0mg"},{"bike_id":"2047e938-57e3-4375-958a-69a4e97a2c7d","system_id":"levelo_inurba_marseille","lat":43.23185,"lon":5.39991,"is_reserved":false,"is_disabled":true,"rental_uris":{"android":"levelo://app?vid=2047e938-57e3-4375-958a-69a4e97a2c7d","ios":"levelo://app?vid=2047e938-57e3-4375-958a-69a4e97a2c7d"},"vehicle_type_id":"4","last_reported":1738465914,"current_range_meters":8000,"station_id":"ce4bhn12rcd13ifvqgqg","pricing_plan_id":"cebpf4jnsgd1na2vs0mg"},{"bike_id":"03318d1a-44ca-4d4e-bc09-621c39d9b03a","system_id":"levelo_inurba_marseille","lat":43.29575,"lon":5.37495,"is_reserved":false,"is_disabled":false,"rental_uris":{"android":"levelo://app?vid=03318d1a-44ca-4d4e-bc09-621c39d9b03a","ios":"levelo://app?vid=03318d1a-44ca-4d4e-bc09-621c39d9b03a"},"vehicle_type_id":"4","last_reported":1738465914,"current_range_meters":30800,"station_id":"ce4bgh92rcd13ifvqb50","pricing_plan_id":"cebpf4jnsgd1na2vs0mg"},{"bike_id":"a238c4a6-ec26-44f6-8339-e268c5213da9","system_id":"levelo_inurba_marseille","lat":43.30796,"lon":5.38147,"is_reserved":false,"is_disabled":false,"rental_uris":{"android":"levelo://app?vid=a238c4a6-ec26-44f6-8339-e268c5213da9","ios":"levelo://app?vid=a238c4a6-ec26-44f6-8339-e268c5213da9"},"vehicle_type_id":"4","last_reported":1738465914,"current_range_meters":38400,"station_id":"ce4bgt12rcd13ifvqce0","pricing_plan_id":"cebpf4jnsgd1na2vs0mg"},{"bike_id":"d472bcef-9801-4895-baf7-59eeae826349","system_id":"levelo_inurba_marseille","lat":43.29513,"lon":5.37508,"is_reserved":false,"is_disabled":false,"rental_uris":{"android":"levelo://app?vid=d472bcef-9801-4895-baf7-59eeae826349","ios":"levelo://app?vid=d472bcef-9801-4895-baf7-59eeae826349"},"vehicle_type_id":"4","last_reported":1738465914,"current_range_meters":34800,"station_id":"ce4bgkp2rcd13ifvqbmg","pricing_plan_id":"cebpf4jnsgd1na2vs0mg"},{"bike_id":"f400731c-7fdb-444e-a0b2-4e35fe94b18c","system_id":"levelo_inurba_marseille","lat":43.32671,"lon":5.40973,"is_reserved":false,"is_disabled":false,"rental_uris":{"android":"levelo://app?vid=f400731c-7fdb-444e-a0b2-4e35fe94b18c","ios":"levelo://app?vid=f400731c-7fdb-444e-a0b2-4e35fe94b18c"},"vehicle_type_id":"4","last_reported":1738465914,"current_range_meters":38800,"station_id":"ce4bhpp2rcd13ifvqhgg","pricing_plan_id":"cebpf4jnsgd1na2vs0mg"},{"bike_id":"0ffc35e5-a6f9-4e38-a9e9-9348dbfd549e","system_id":"levelo_inurba_marseille","lat":43.30438,"lon":5.38905,"is_reserved":false,"is_disabled":false,"rental_uris":{"android":"levelo://app?vid=0ffc35e5-a6f9-4e38-a9e9-9348dbfd549e","ios":"levelo://app?vid=0ffc35e5-a6f9-4e38-a9e9-9348dbfd549e"},"vehicle_type_id":"4","last_reported":1738465914,"current_range_meters":34000,"station_id":"ce4bgk12rcd13ifvqbi0","pricing_plan_id":"cebpf4jnsgd1na2vs0mg"},{"bike_id":"406fe245-55dd-4b3e-b004-2c2ee355124b","system_id":"levelo_inurba_marseille","lat":43.29571,"lon":5.39979,"is_reserved":false,"is_disabled":false,"rental_uris":{"android":"levelo://app?vid=406fe245-55dd-4b3e-b004-2c2ee355124b","ios":"levelo://app?vid=406fe245-55dd-4b3e-b004-2c2ee355124b"},"vehicle_type_id":"4","last_reported":1738465914,"current_range_meters":36400,"station_id":"ce4bh312rcd13ifvqdj0","pricing_plan_id":"cebpf4jnsgd1na2vs0mg"},{"bike_id":"87f5ea6f-2674-4270-9787-98ea01aee1df","system_id":"levelo_inurba_marseille","lat":43.295691,"lon":5.399777,"is_reserved":false,"is_disabled":false,"rental_uris":{"android":"levelo://app?vid=87f5ea6f-2674-4270-9787-98ea01aee1df","ios":"levelo://app?vid=87f5ea6f-2674-4270-9787-98ea01aee1df"},"vehicle_type_id":"4","last_reported":1738465914,"current_range_meters":38800,"station_id":"ce4bh312rcd13ifvqdj0","pricing_plan_id":"cebpf4jnsgd1na2vs0mg"},{"bike_id":"86081c0e-433e-48d1-a299-05a43f95e50d","system_id":"levelo_inurba_marseille","lat":43.29915,"lon":5.374506,"is_reserved":false,"is_disabled":false,"rental_uris":{"android":"levelo://app?vid=86081c0e-433e-48d1-a299-05a43f95e50d","ios":"levelo://app?vid=86081c0e-433e-48d1-a299-05a43f95e50d"},"vehicle_type_id":"4","last_reported":1738465914,"current_range_meters":34000,"station_id":"ce4bgjh2rcd13ifvqbg0","pricing_plan_id":"cebpf4jnsgd1na2vs0mg"},{"bike_id":"fb61e29e-90af-49f0-9573-1c79283eebf4","system_id":"levelo_inurba_marseille","lat":43.309,"lon":5.37204,"is_reserved":false,"is_disabled":false,"rental_uris":{"android":"levelo://app?vid=fb61e29e-90af-49f0-9573-1c79283eebf4","ios":"levelo://app?vid=fb61e29e-90af-49f0-9573-1c79283eebf4"},"vehicle_type_id":"4","last_reported":1738465914,"current_range_meters":38800,"station_id":"ce4bguh2rcd13ifvqckg","pricing_plan_id":"cebpf4jnsgd1na2vs0mg"},{"bike_id":"39deeebf-6ddb-4486-b697-7a127dff7ee4","system_id":"levelo_inurba_marseille","lat":43.24073,"lon":5.37759,"is_reserved":false,"is_disabled":false,"rental_uris":{"android":"levelo://app?vid=39deeebf-6ddb-4486-b697-7a127dff7ee4","ios":"levelo://app?vid=39deeebf-6ddb-4486-b697-7a127dff7ee4"},"vehicle_type_id":"4","last_reported":1738465914,"current_range_meters":6400,"station_id":"ce4bhnp2rcd13ifvqgvg","pricing_plan_id":"cebpf4jnsgd1na2vs0mg"},{"bike_id":"3a60ebc0-dac7-4b3e-a8c5-4699cca32d17","system_id":"levelo_inurba_marseille","lat":43.30797,"lon":5.43539,"is_reserved":false,"is_disabled":false,"rental_uris":{"android":"levelo://app?vid=3a60ebc0-dac7-4b3e-a8c5-4699cca32d17","ios":"levelo://app?vid=3a60ebc0-dac7-4b3e-a8c5-4699cca32d17"},"vehicle_type_id":"4","last_reported":1738465914,"current_range_meters":30800,"station_id":"ce4bhph2rcd13ifvqheg","pricing_plan_id":"cebpf4jnsgd1na2vs0mg"},{"bike_id":"30c92c2f-c1c2-45c4-b8da-3293b66736ed","system_id":"levelo_inurba_marseille","lat":43.32478,"lon":5.36565,"is_reserved":false,"is_disabled":false,"rental_uris":{"android":"levelo://app?vid=30c92c2f-c1c2-45c4-b8da-3293b66736ed","ios":"levelo://app?vid=30c92c2f-c1c2-45c4-b8da-3293b66736ed"},"vehicle_type_id":"4","last_reported":1738465914,"current_range_meters":20800,"station_id":"ce4bhs12rcd13ifvqhvg","pricing_plan_id":"cebpf4jnsgd1na2vs0mg"},{"bike_id":"7b8beff4-cd5b-4483-b8d6-4c3973d4c4ae","system_id":"levelo_inurba_marseille","lat":43.30247,"lon":5.40065,"is_reserved":false,"is_disabled":false,"rental_uris":{"android":"levelo://app?vid=7b8beff4-cd5b-4483-b8d6-4c3973d4c4ae","ios":"levelo://app?vid=7b8beff4-cd5b-4483-b8d6-4c3973d4c4ae"},"vehicle_type_id":"4","last_reported":1738465914,"current_range_meters":38400,"station_id":"ce4bgvh2rcd13ifvqcs0","pricing_plan_id":"cebpf4jnsgd1na2vs0mg"},{"bike_id":"5a21eaa3-1c03-4809-a521-aa9d94e8ccb5","system_id":"levelo_inurba_marseille","lat":43.29818,"lon":5.38223,"is_reserved":false,"is_disabled":false,"rental_uris":{"android":"levelo://app?vid=5a21eaa3-1c03-4809-a521-aa9d94e8ccb5","ios":"levelo://app?vid=5a21eaa3-1c03-4809-a521-aa9d94e8ccb5"},"vehicle_type_id":"4","last_reported":1738465914,"current_range_meters":35600,"station_id":"ce4bgip2rcd13ifvqbb0","pricing_plan_id":"cebpf4jnsgd1na2vs0mg"},{"bike_id":"a53922d2-d018-42f1-b9cf-5c1bb51d5505","system_id":"levelo_inurba_marseille","lat":43.29572,"lon":5.39975,"is_reserved":false,"is_disabled":false,"rental_uris":{"android":"levelo://app?vid=a53922d2-d018-42f1-b9cf-5c1bb51d5505","ios":"levelo://app?vid=a53922d2-d018-42f1-b9cf-5c1bb51d5505"},"vehicle_type_id":"4","last_reported":1738465914,"current_range_meters":38800,"station_id":"ce4bh312rcd13ifvqdj0","pricing_plan_id":"cebpf4jnsgd1na2vs0mg"},{"bike_id":"56b09552-4219-4565-a734-8e0fd6e4802e","system_id":"levelo_inurba_marseille","lat":43.262172,"lon":5.374477,"is_reserved":false,"is_disabled":false,"rental_uris":{"android":"levelo://app?vid=56b09552-4219-4565-a734-8e0fd6e4802e","ios":"levelo://app?vid=56b09552-4219-4565-a734-8e0fd6e4802e"},"vehicle_type_id":"4","last_reported":1738465914,"current_range_meters":39200,"station_id":"ce4bhgp2rcd13ifvqfc0","pricing_plan_id":"cebpf4jnsgd1na2vs0mg"},{"bike_id":"f9a8bd69-665c-48a7-ad3c-2e9818255e07","system_id":"levelo_inurba_marseille","lat":43.32486,"lon":5.36564,"is_reserved":false,"is_disabled":false,"rental_uris":{"android":"levelo://app?vid=f9a8bd69-665c-48a7-ad3c-2e9818255e07","ios":"levelo://app?vid=f9a8bd69-665c-48a7-ad3c-2e9818255e07"},"vehicle_type_id":"4","last_reported":1738465914,"current_range_meters":38400,"station_id":"ce4bhs12rcd13ifvqhvg","pricing_plan_id":"cebpf4jnsgd1na2vs0mg"},{"bike_id":"8e0380af-2c54-4df2-a6df-9b347e200a76","system_id":"levelo_inurba_marseille","lat":43.298514,"lon":5.362931,"is_reserved":false,"is_disabled":false,"rental_uris":{"android":"levelo://app?vid=8e0380af-2c54-4df2-a6df-9b347e200a76","ios":"levelo://app?vid=8e0380af-2c54-4df2-a6df-9b347e200a76"},"vehicle_type_id":"4","last_reported":1738465914,"current_range_meters":29600,"station_id":"ce4bgpp2rcd13ifvqc3g","pricing_plan_id":"cebpf4jnsgd1na2vs0mg"},{"bike_id":"a400cb11-351f-4890-b5eb-6c927b2cc51d","system_id":"levelo_inurba_marseille","lat":43.323536,"lon":5.388919,"is_reserved":false,"is_disabled":false,"rental_uris":{"android":"levelo://app?vid=a400cb11-351f-4890-b5eb-6c927b2cc51d","ios":"levelo://app?vid=a400cb11-351f-4890-b5eb-6c927b2cc51d"},"vehicle_type_id":"4","last_reported":1738465914,"current_range_meters":19200,"station_id":"ce4bhqp2rcd13ifvqhog","pricing_plan_id":"cebpf4jnsgd1na2vs0mg"},{"bike_id":"ab2c796a-c23b-4a3a-9534-777b873d6a05","system_id":"levelo_inurba_marseille","lat":43.24166,"lon":5.36396,"is_reserved":false,"is_disabled":false,"rental_uris":{"android":"levelo://app?vid=ab2c796a-c23b-4a3a-9534-777b873d6a05","ios":"levelo://app?vid=ab2c796a-c23b-4a3a-9534-777b873d6a05"},"vehicle_type_id":"4","last_reported":1738465914,"current_range_meters":30400,"station_id":"cpo36qri1sfpv3e86is0","pricing_plan_id":"cebpf4jnsgd1na2vs0mg"},{"bike_id":"8c1053cb-f2df-4a57-9e26-1127bc273edf","system_id":"levelo_inurba_marseille","lat":43.28471,"lon":5.3844,"is_reserved":false,"is_disabled":true,"rental_uris":{"android":"levelo://app?vid=8c1053cb-f2df-4a57-9e26-1127bc273edf","ios":"levelo://app?vid=8c1053cb-f2df-4a57-9e26-1127bc273edf"},"vehicle_type_id":"4","last_reported":1738465914,"current_range_meters":0,"station_id":"ce4bh512rcd13ifvqe3g","pricing_plan_id":"cebpf4jnsgd1na2vs0mg"},{"bike_id":"c344dba0-3eaa-4f42-9beb-e24da2046f9b","system_id":"levelo_inurba_marseille","lat":43.3122,"lon":5.36856,"is_reserved":false,"is_disabled":false,"rental_uris":{"android":"levelo://app?vid=c344dba0-3eaa-4f42-9beb-e24da2046f9b","ios":"levelo://app?vid=c344dba0-3eaa-4f42-9beb-e24da2046f9b"},"vehicle_type_id":"4","last_reported":1738465914,"current_range_meters":37600,"station_id":"ce4bgl92rcd13ifvqbq0","pricing_plan_id":"cebpf4jnsgd1na2vs0mg"},{"bike_id":"5828b83b-f7c6-4d80-a783-c5c9cb673d67","system_id":"levelo_inurba_marseille","lat":43.3014,"lon":5.37414,"is_reserved":false,"is_disabled":false,"rental_uris":{"android":"levelo://app?vid=5828b83b-f7c6-4d80-a783-c5c9cb673d67","ios":"levelo://app?vid=5828b83b-f7c6-4d80-a783-c5c9cb673d67"},"vehicle_type_id":"4","last_reported":1738465914,"current_range_meters":39200,"station_id":"ce4bgs92rcd13ifvqcc0","pricing_plan_id":"cebpf4jnsgd1na2vs0mg"},{"bike_id":"58feef8f-17b5-470d-8151-c7a13f0dbe24","system_id":"levelo_inurba_marseille","lat":43.28411,"lon":5.37455,"is_reserved":false,"is_disabled":true,"rental_uris":{"android":"levelo://app?vid=58feef8f-17b5-470d-8151-c7a13f0dbe24","ios":"levelo://app?vid=58feef8f-17b5-470d-8151-c7a13f0dbe24"},"vehicle_type_id":"4","last_reported":1738465914,"current_range_meters":0,"station_id":"ce4bh412rcd13ifvqds0","pricing_plan_id":"cebpf4jnsgd1na2vs0mg"},{"bike_id":"9652d2d1-357f-4d10-be23-ae515ab22239","system_id":"levelo_inurba_marseille","lat":43.289258,"lon":5.366386,"is_reserved":false,"is_disabled":false,"rental_uris":{"android":"levelo://app?vid=9652d2d1-357f-4d10-be23-ae515ab22239","ios":"levelo://app?vid=9652d2d1-357f-4d10-be23-ae515ab22239"},"vehicle_type_id":"4","last_reported":1738465914,"current_range_meters":4000,"station_id":"ce4bhap2rcd13ifvqek0","pricing_plan_id":"cebpf4jnsgd1na2vs0mg"},{"bike_id":"7b1972b5-4724-4ee7-8ef3-3d52a3645f58","system_id":"levelo_inurba_marseille","lat":43.28145,"lon":5.42656,"is_reserved":false,"is_disabled":false,"rental_uris":{"android":"levelo://app?vid=7b1972b5-4724-4ee7-8ef3-3d52a3645f58","ios":"levelo://app?vid=7b1972b5-4724-4ee7-8ef3-3d52a3645f58"},"vehicle_type_id":"4","last_reported":1738465914,"current_range_meters":28000,"station_id":"ce4bhnh2rcd13ifvqgug","pricing_plan_id":"cebpf4jnsgd1na2vs0mg"},{"bike_id":"b0fbef52-287b-4774-8a30-b50fd2ccc74a","system_id":"levelo_inurba_marseille","lat":43.30339,"lon":5.40429,"is_reserved":false,"is_disabled":false,"rental_uris":{"android":"levelo://app?vid=b0fbef52-287b-4774-8a30-b50fd2ccc74a","ios":"levelo://app?vid=b0fbef52-287b-4774-8a30-b50fd2ccc74a"},"vehicle_type_id":"4","last_reported":1738465914,"current_range_meters":12000,"station_id":"ce4bh012rcd13ifvqd10","pricing_plan_id":"cebpf4jnsgd1na2vs0mg"},{"bike_id":"e91ad5d9-e7e7-46c0-b582-3c39abb7cb1c","system_id":"levelo_inurba_marseille","lat":43.25114,"lon":5.40321,"is_reserved":false,"is_disabled":false,"rental_uris":{"android":"levelo://app?vid=e91ad5d9-e7e7-46c0-b582-3c39abb7cb1c","ios":"levelo://app?vid=e91ad5d9-e7e7-46c0-b582-3c39abb7cb1c"},"vehicle_type_id":"4","last_reported":1738465914,"current_range_meters":28000,"station_id":"ce4bhlh2rcd13ifvqgig","pricing_plan_id":"cebpf4jnsgd1na2vs0mg"},{"bike_id":"a09d3ce7-7ea9-4d99-a3be-65580c591d93","system_id":"levelo_inurba_marseille","lat":43.28624,"lon":5.35093,"is_reserved":false,"is_disabled":false,"rental_uris":{"android":"levelo://app?vid=a09d3ce7-7ea9-4d99-a3be-65580c591d93","ios":"levelo://app?vid=a09d3ce7-7ea9-4d99-a3be-65580c591d93"},"vehicle_type_id":"4","last_reported":1738465914,"current_range_meters":36400,"station_id":"ce4bhch2rcd13ifvqeug","pricing_plan_id":"cebpf4jnsgd1na2vs0mg"},{"bike_id":"4fb17c63-b2ba-43e2-86af-56f46c0bfcb7","system_id":"levelo_inurba_marseille","lat":43.30403,"lon":5.38888,"is_reserved":false,"is_disabled":false,"rental_uris":{"android":"levelo://app?vid=4fb17c63-b2ba-43e2-86af-56f46c0bfcb7","ios":"levelo://app?vid=4fb17c63-b2ba-43e2-86af-56f46c0bfcb7"},"vehicle_type_id":"4","last_reported":1738465914,"current_range_meters":38800,"station_id":"ce4bgk12rcd13ifvqbi0","pricing_plan_id":"cebpf4jnsgd1na2vs0mg"},{"bike_id":"e1d4a2f1-c484-42e0-9232-e98e59dd1624","system_id":"levelo_inurba_marseille","lat":43.290329,"lon":5.386351,"is_reserved":false,"is_disabled":true,"rental_uris":{"android":"levelo://app?vid=e1d4a2f1-c484-42e0-9232-e98e59dd1624","ios":"levelo://app?vid=e1d4a2f1-c484-42e0-9232-e98e59dd1624"},"vehicle_type_id":"4","last_reported":1738465914,"current_range_meters":38800,"station_id":"ce4bh4p2rcd13ifvqe0g","pricing_plan_id":"cebpf4jnsgd1na2vs0mg"},{"bike_id":"f5192a48-f127-416f-ac25-5dcd6cb43014","system_id":"levelo_inurba_marseille","lat":43.310781,"lon":5.42432,"is_reserved":false,"is_disabled":false,"rental_uris":{"android":"levelo://app?vid=f5192a48-f127-416f-ac25-5dcd6cb43014","ios":"levelo://app?vid=f5192a48-f127-416f-ac25-5dcd6cb43014"},"vehicle_type_id":"4","last_reported":1738465914,"current_range_meters":36000,"station_id":"ce4bhp92rcd13ifvqhag","pricing_plan_id":"cebpf4jnsgd1na2vs0mg"},{"bike_id":"e8e1f7c6-d773-4c38-bfcc-4a6d773355ce","system_id":"levelo_inurba_marseille","lat":43.22938,"lon":5.35374,"is_reserved":false,"is_disabled":false,"rental_uris":{"android":"levelo://app?vid=e8e1f7c6-d773-4c38-bfcc-4a6d773355ce","ios":"levelo://app?vid=e8e1f7c6-d773-4c38-bfcc-4a6d773355ce"},"vehicle_type_id":"4","last_reported":1738465914,"current_range_meters":38800,"station_id":"cpo3532slgdg3j2ikp40","pricing_plan_id":"cebpf4jnsgd1na2vs0mg"},{"bike_id":"e417b4f5-a4f4-466a-acb9-f059b415a4e2","system_id":"levelo_inurba_marseille","lat":43.3009,"lon":5.3907,"is_reserved":false,"is_disabled":false,"rental_uris":{"android":"levelo://app?vid=e417b4f5-a4f4-466a-acb9-f059b415a4e2","ios":"levelo://app?vid=e417b4f5-a4f4-466a-acb9-f059b415a4e2"},"vehicle_type_id":"4","last_reported":1738465914,"current_range_meters":38000,"station_id":"ce4bh192rcd13ifvqdb0","pricing_plan_id":"cebpf4jnsgd1na2vs0mg"},{"bike_id":"c8838f5c-e0b5-4700-9683-05d5ceb4a64d","system_id":"levelo_inurba_marseille","lat":43.2976,"lon":5.37691,"is_reserved":false,"is_disabled":false,"rental_uris":{"android":"levelo://app?vid=c8838f5c-e0b5-4700-9683-05d5ceb4a64d","ios":"levelo://app?vid=c8838f5c-e0b5-4700-9683-05d5ceb4a64d"},"vehicle_type_id":"4","last_reported":1738465914,"current_range_meters":33600,"station_id":"ce4bgkh2rcd13ifvqbl0","pricing_plan_id":"cebpf4jnsgd1na2vs0mg"},{"bike_id":"3d5cd3e3-9417-45ac-91cc-715af0568bfc","system_id":"levelo_inurba_marseille","lat":43.25872,"lon":5.39894,"is_reserved":false,"is_disabled":false,"rental_uris":{"android":"levelo://app?vid=3d5cd3e3-9417-45ac-91cc-715af0568bfc","ios":"levelo://app?vid=3d5cd3e3-9417-45ac-91cc-715af0568bfc"},"vehicle_type_id":"4","last_reported":1738465914,"current_range_meters":36800,"station_id":"ce4bhl92rcd13ifvqghg","pricing_plan_id":"cebpf4jnsgd1na2vs0mg"},{"bike_id":"ea6c894d-2016-4405-87c2-24a4ddf729fd","system_id":"levelo_inurba_marseille","lat":43.262111,"lon":5.374397,"is_reserved":false,"is_disabled":false,"rental_uris":{"android":"levelo://app?vid=ea6c894d-2016-4405-87c2-24a4ddf729fd","ios":"levelo://app?vid=ea6c894d-2016-4405-87c2-24a4ddf729fd"},"vehicle_type_id":"4","last_reported":1738465914,"current_range_meters":39200,"station_id":"ce4bhgp2rcd13ifvqfc0","pricing_plan_id":"cebpf4jnsgd1na2vs0mg"},{"bike_id":"446cfbd8-380d-483d-82ba-61ff47e31d05","system_id":"levelo_inurba_marseille","lat":43.2925,"lon":5.38437,"is_reserved":false,"is_disabled":true,"rental_uris":{"android":"levelo://app?vid=446cfbd8-380d-483d-82ba-61ff47e31d05","ios":"levelo://app?vid=446cfbd8-380d-483d-82ba-61ff47e31d05"},"vehicle_type_id":"4","last_reported":1738465914,"current_range_meters":32000,"station_id":"ce4bh692rcd13ifvqea0","pricing_plan_id":"cebpf4jnsgd1na2vs0mg"},{"bike_id":"6d8d7d5f-bcf3-4645-9619-220b98c5dc26","system_id":"levelo_inurba_marseille","lat":43.28167,"lon":5.42625,"is_reserved":false,"is_disabled":false,"rental_uris":{"android":"levelo://app?vid=6d8d7d5f-bcf3-4645-9619-220b98c5dc26","ios":"levelo://app?vid=6d8d7d5f-bcf3-4645-9619-220b98c5dc26"},"vehicle_type_id":"4","last_reported":1738465914,"current_range_meters":20800,"station_id":"ce4bhnh2rcd13ifvqgug","pricing_plan_id":"cebpf4jnsgd1na2vs0mg"},{"bike_id":"3d2ad4eb-c3df-4be8-82a3-1864655479da","system_id":"levelo_inurba_marseille","lat":43.28615,"lon":5.351,"is_reserved":false,"is_disabled":false,"rental_uris":{"android":"levelo://app?vid=3d2ad4eb-c3df-4be8-82a3-1864655479da","ios":"levelo://app?vid=3d2ad4eb-c3df-4be8-82a3-1864655479da"},"vehicle_type_id":"4","last_reported":1738465914,"current_range_meters":37600,"station_id":"ce4bhch2rcd13ifvqeug","pricing_plan_id":"cebpf4jnsgd1na2vs0mg"},{"bike_id":"8d45ff27-2b3d-4990-b55a-582c0dd633ef","system_id":"levelo_inurba_marseille","lat":43.296184,"lon":5.40586,"is_reserved":false,"is_disabled":false,"rental_uris":{"android":"levelo://app?vid=8d45ff27-2b3d-4990-b55a-582c0dd633ef","ios":"levelo://app?vid=8d45ff27-2b3d-4990-b55a-582c0dd633ef"},"vehicle_type_id":"4","last_reported":1738465914,"current_range_meters":28400,"station_id":"ce4bh0h2rcd13ifvqd60","pricing_plan_id":"cebpf4jnsgd1na2vs0mg"},{"bike_id":"995fc9c5-9cc3-404c-bd94-5898daf1a360","system_id":"levelo_inurba_marseille","lat":43.308939,"lon":5.368423,"is_reserved":false,"is_disabled":true,"rental_uris":{"android":"levelo://app?vid=995fc9c5-9cc3-404c-bd94-5898daf1a360","ios":"levelo://app?vid=995fc9c5-9cc3-404c-bd94-5898daf1a360"},"vehicle_type_id":"4","last_reported":1738465914,"current_range_meters":36400,"station_id":"ce4bgn92rcd13ifvqbvg","pricing_plan_id":"cebpf4jnsgd1na2vs0mg"},{"bike_id":"bed8df55-8232-4631-b910-a7e6e5f8c113","system_id":"levelo_inurba_marseille","lat":43.26942,"lon":5.40245,"is_reserved":false,"is_disabled":false,"rental_uris":{"android":"levelo://app?vid=bed8df55-8232-4631-b910-a7e6e5f8c113","ios":"levelo://app?vid=bed8df55-8232-4631-b910-a7e6e5f8c113"},"vehicle_type_id":"4","last_reported":1738465914,"current_range_meters":23200,"station_id":"cjm6bp8fraef2m0cb0m0","pricing_plan_id":"cebpf4jnsgd1na2vs0mg"},{"bike_id":"8b409302-a9d3-4581-9d93-e2b201acf045","system_id":"levelo_inurba_marseille","lat":43.30544,"lon":5.36532,"is_reserved":false,"is_disabled":false,"rental_uris":{"android":"levelo://app?vid=8b409302-a9d3-4581-9d93-e2b201acf045","ios":"levelo://app?vid=8b409302-a9d3-4581-9d93-e2b201acf045"},"vehicle_type_id":"4","last_reported":1738465914,"current_range_meters":24400,"station_id":"ce4bgs12rcd13ifvqcag","pricing_plan_id":"cebpf4jnsgd1na2vs0mg"},{"bike_id":"7095d643-c88c-4380-b0d5-45028aa7507f","system_id":"levelo_inurba_marseille","lat":43.24634,"lon":5.38897,"is_reserved":false,"is_disabled":false,"rental_uris":{"android":"levelo://app?vid=7095d643-c88c-4380-b0d5-45028aa7507f","ios":"levelo://app?vid=7095d643-c88c-4380-b0d5-45028aa7507f"},"vehicle_type_id":"4","last_reported":1738465914,"current_range_meters":20000,"station_id":"ce4bhg12rcd13ifvqf60","pricing_plan_id":"cebpf4jnsgd1na2vs0mg"},{"bike_id":"bbb50bd1-1308-41e5-aa5c-c9e291f5d5ca","system_id":"levelo_inurba_marseille","lat":43.26693,"lon":5.38244,"is_reserved":false,"is_disabled":false,"rental_uris":{"android":"levelo://app?vid=bbb50bd1-1308-41e5-aa5c-c9e291f5d5ca","ios":"levelo://app?vid=bbb50bd1-1308-41e5-aa5c-c9e291f5d5ca"},"vehicle_type_id":"4","last_reported":1738465914,"current_range_meters":6800,"station_id":"ce4bhg92rcd13ifvqf90","pricing_plan_id":"cebpf4jnsgd1na2vs0mg"},{"bike_id":"ddd00e95-387d-4687-9b99-27d0e7bf1447","system_id":"levelo_inurba_marseille","lat":43.296408,"lon":5.390321,"is_reserved":false,"is_disabled":true,"rental_uris":{"android":"levelo://app?vid=ddd00e95-387d-4687-9b99-27d0e7bf1447","ios":"levelo://app?vid=ddd00e95-387d-4687-9b99-27d0e7bf1447"},"vehicle_type_id":"4","last_reported":1738465914,"current_range_meters":0,"station_id":"","pricing_plan_id":"cebpf4jnsgd1na2vs0mg"},{"bike_id":"9ec89f7c-bbcb-44ac-a4d6-d72ce4984143","system_id":"levelo_inurba_marseille","lat":43.29204,"lon":5.36029,"is_reserved":false,"is_disabled":false,"rental_uris":{"android":"levelo://app?vid=9ec89f7c-bbcb-44ac-a4d6-d72ce4984143","ios":"levelo://app?vid=9ec89f7c-bbcb-44ac-a4d6-d72ce4984143"},"vehicle_type_id":"4","last_reported":1738465914,"current_range_meters":37600,"station_id":"ce4bhbh2rcd13ifvqeqg","pricing_plan_id":"cebpf4jnsgd1na2vs0mg"},{"bike_id":"71f34f72-d3b7-46a5-9bd4-1fe057b3152f","system_id":"levelo_inurba_marseille","lat":43.22933,"lon":5.35377,"is_reserved":false,"is_disabled":false,"rental_uris":{"android":"levelo://app?vid=71f34f72-d3b7-46a5-9bd4-1fe057b3152f","ios":"levelo://app?vid=71f34f72-d3b7-46a5-9bd4-1fe057b3152f"},"vehicle_type_id":"4","last_reported":1738465914,"current_range_meters":39200,"station_id":"cpo3532slgdg3j2ikp40","pricing_plan_id":"cebpf4jnsgd1na2vs0mg"},{"bike_id":"ba1b16dd-09e2-4536-8411-babb750bcb3c","system_id":"levelo_inurba_marseille","lat":43.23177,"lon":5.40027,"is_reserved":false,"is_disabled":true,"rental_uris":{"android":"levelo://app?vid=ba1b16dd-09e2-4536-8411-babb750bcb3c","ios":"levelo://app?vid=ba1b16dd-09e2-4536-8411-babb750bcb3c"},"vehicle_type_id":"4","last_reported":1738465914,"current_range_meters":24800,"station_id":"ce4bhn12rcd13ifvqgqg","pricing_plan_id":"cebpf4jnsgd1na2vs0mg"},{"bike_id":"20029bdd-9f9c-4ff9-86e4-5ba6ed30f46a","system_id":"levelo_inurba_marseille","lat":43.23148,"lon":5.43705,"is_reserved":false,"is_disabled":true,"rental_uris":{"android":"levelo://app?vid=20029bdd-9f9c-4ff9-86e4-5ba6ed30f46a","ios":"levelo://app?vid=20029bdd-9f9c-4ff9-86e4-5ba6ed30f46a"},"vehicle_type_id":"4","last_reported":1738465914,"current_range_meters":0,"station_id":"ce4bhmp2rcd13ifvqgog","pricing_plan_id":"cebpf4jnsgd1na2vs0mg"},{"bike_id":"2f8e50eb-5c16-4e06-b4c8-95750fa01244","system_id":"levelo_inurba_marseille","lat":43.30902,"lon":5.37176,"is_reserved":false,"is_disabled":false,"rental_uris":{"android":"levelo://app?vid=2f8e50eb-5c16-4e06-b4c8-95750fa01244","ios":"levelo://app?vid=2f8e50eb-5c16-4e06-b4c8-95750fa01244"},"vehicle_type_id":"4","last_reported":1738465914,"current_range_meters":32000,"station_id":"ce4bguh2rcd13ifvqckg","pricing_plan_id":"cebpf4jnsgd1na2vs0mg"},{"bike_id":"d939c892-40c0-4722-81b1-c0d3b2d3ae6f","system_id":"levelo_inurba_marseille","lat":43.30935,"lon":5.40139,"is_reserved":false,"is_disabled":false,"rental_uris":{"android":"levelo://app?vid=d939c892-40c0-4722-81b1-c0d3b2d3ae6f","ios":"levelo://app?vid=d939c892-40c0-4722-81b1-c0d3b2d3ae6f"},"vehicle_type_id":"4","last_reported":1738465914,"current_range_meters":19600,"station_id":"ce4bgvp2rcd13ifvqct0","pricing_plan_id":"cebpf4jnsgd1na2vs0mg"},{"bike_id":"de47befa-6569-4d5d-85ec-9957335503b6","system_id":"levelo_inurba_marseille","lat":43.29044,"lon":5.35912,"is_reserved":false,"is_disabled":false,"rental_uris":{"android":"levelo://app?vid=de47befa-6569-4d5d-85ec-9957335503b6","ios":"levelo://app?vid=de47befa-6569-4d5d-85ec-9957335503b6"},"vehicle_type_id":"4","last_reported":1738465914,"current_range_meters":37600,"station_id":"ce4bha92rcd13ifvqeg0","pricing_plan_id":"cebpf4jnsgd1na2vs0mg"},{"bike_id":"5805abe4-d33a-4c57-986f-3167b5b7a28d","system_id":"levelo_inurba_marseille","lat":43.279114,"lon":5.395864,"is_reserved":false,"is_disabled":true,"rental_uris":{"android":"levelo://app?vid=5805abe4-d33a-4c57-986f-3167b5b7a28d","ios":"levelo://app?vid=5805abe4-d33a-4c57-986f-3167b5b7a28d"},"vehicle_type_id":"4","last_reported":1738465914,"current_range_meters":0,"station_id":"ce4bhf92rcd13ifvqf40","pricing_plan_id":"cebpf4jnsgd1na2vs0mg"},{"bike_id":"4e383d3d-cd5f-4b50-a672-2190c1242906","system_id":"levelo_inurba_marseille","lat":43.24648,"lon":5.389,"is_reserved":false,"is_disabled":false,"rental_uris":{"android":"levelo://app?vid=4e383d3d-cd5f-4b50-a672-2190c1242906","ios":"levelo://app?vid=4e383d3d-cd5f-4b50-a672-2190c1242906"},"vehicle_type_id":"4","last_reported":1738465914,"current_range_meters":28400,"station_id":"ce4bhg12rcd13ifvqf60","pricing_plan_id":"cebpf4jnsgd1na2vs0mg"},{"bike_id":"2e5dc8eb-0762-4ba4-9b0a-1e055bb6d5bf","system_id":"levelo_inurba_marseille","lat":43.289416,"lon":5.366309,"is_reserved":false,"is_disabled":false,"rental_uris":{"android":"levelo://app?vid=2e5dc8eb-0762-4ba4-9b0a-1e055bb6d5bf","ios":"levelo://app?vid=2e5dc8eb-0762-4ba4-9b0a-1e055bb6d5bf"},"vehicle_type_id":"4","last_reported":1738465914,"current_range_meters":35600,"station_id":"ce4bhap2rcd13ifvqek0","pricing_plan_id":"cebpf4jnsgd1na2vs0mg"},{"bike_id":"40a7643c-4412-458a-8c42-dae55fb7313f","system_id":"levelo_inurba_marseille","lat":43.312321,"lon":5.368637,"is_reserved":false,"is_disabled":false,"rental_uris":{"android":"levelo://app?vid=40a7643c-4412-458a-8c42-dae55fb7313f","ios":"levelo://app?vid=40a7643c-4412-458a-8c42-dae55fb7313f"},"vehicle_type_id":"4","last_reported":1738465914,"current_range_meters":38000,"station_id":"ce4bgl92rcd13ifvqbq0","pricing_plan_id":"cebpf4jnsgd1na2vs0mg"},{"bike_id":"491407c5-a175-44f0-86fc-0f4ccadf82e3","system_id":"levelo_inurba_marseille","lat":43.337444,"lon":5.374475,"is_reserved":false,"is_disabled":true,"rental_uris":{"android":"levelo://app?vid=491407c5-a175-44f0-86fc-0f4ccadf82e3","ios":"levelo://app?vid=491407c5-a175-44f0-86fc-0f4ccadf82e3"},"vehicle_type_id":"4","last_reported":1738465914,"current_range_meters":0,"station_id":"","pricing_plan_id":"cebpf4jnsgd1na2vs0mg"},{"bike_id":"84d74042-6d18-4c0e-b451-499513e01527","system_id":"levelo_inurba_marseille","lat":43.296315,"lon":5.37723,"is_reserved":false,"is_disabled":false,"rental_uris":{"android":"levelo://app?vid=84d74042-6d18-4c0e-b451-499513e01527","ios":"levelo://app?vid=84d74042-6d18-4c0e-b451-499513e01527"},"vehicle_type_id":"4","last_reported":1738465914,"current_range_meters":31200,"station_id":"ce4bgi92rcd13ifvqb90","pricing_plan_id":"cebpf4jnsgd1na2vs0mg"},{"bike_id":"1378643c-565d-4955-a191-2b018f9dd2eb","system_id":"levelo_inurba_marseille","lat":43.30389,"lon":5.37071,"is_reserved":false,"is_disabled":false,"rental_uris":{"android":"levelo://app?vid=1378643c-565d-4955-a191-2b018f9dd2eb","ios":"levelo://app?vid=1378643c-565d-4955-a191-2b018f9dd2eb"},"vehicle_type_id":"4","last_reported":1738465914,"current_range_meters":27600,"station_id":"","pricing_plan_id":"cebpf4jnsgd1na2vs0mg"},{"bike_id":"5e9ce0df-a564-466e-83df-64ae6c352e91","system_id":"levelo_inurba_marseille","lat":43.32476,"lon":5.36576,"is_reserved":false,"is_disabled":false,"rental_uris":{"android":"levelo://app?vid=5e9ce0df-a564-466e-83df-64ae6c352e91","ios":"levelo://app?vid=5e9ce0df-a564-466e-83df-64ae6c352e91"},"vehicle_type_id":"4","last_reported":1738465914,"current_range_meters":30400,"station_id":"ce4bhs12rcd13ifvqhvg","pricing_plan_id":"cebpf4jnsgd1na2vs0mg"},{"bike_id":"521186e3-b3f3-4f94-bb48-9b6608c1a91e","system_id":"levelo_inurba_marseille","lat":43.29823,"lon":5.40409,"is_reserved":false,"is_disabled":false,"rental_uris":{"android":"levelo://app?vid=521186e3-b3f3-4f94-bb48-9b6608c1a91e","ios":"levelo://app?vid=521186e3-b3f3-4f94-bb48-9b6608c1a91e"},"vehicle_type_id":"4","last_reported":1738465914,"current_range_meters":28000,"station_id":"ce4bh112rcd13ifvqd90","pricing_plan_id":"cebpf4jnsgd1na2vs0mg"},{"bike_id":"22bfe184-b376-4b07-80ff-e854631c2e1d","system_id":"levelo_inurba_marseille","lat":43.30537,"lon":5.367,"is_reserved":false,"is_disabled":false,"rental_uris":{"android":"levelo://app?vid=22bfe184-b376-4b07-80ff-e854631c2e1d","ios":"levelo://app?vid=22bfe184-b376-4b07-80ff-e854631c2e1d"},"vehicle_type_id":"4","last_reported":1738465914,"current_range_meters":25600,"station_id":"ce4bgrp2rcd13ifvqc9g","pricing_plan_id":"cebpf4jnsgd1na2vs0mg"},{"bike_id":"249b7b60-8305-4794-bc88-bf145ce1b67c","system_id":"levelo_inurba_marseille","lat":43.23183,"lon":5.39982,"is_reserved":false,"is_disabled":false,"rental_uris":{"android":"levelo://app?vid=249b7b60-8305-4794-bc88-bf145ce1b67c","ios":"levelo://app?vid=249b7b60-8305-4794-bc88-bf145ce1b67c"},"vehicle_type_id":"4","last_reported":1738465914,"current_range_meters":4000,"station_id":"ce4bhn12rcd13ifvqgqg","pricing_plan_id":"cebpf4jnsgd1na2vs0mg"},{"bike_id":"0b439ceb-bbef-470b-b522-3e20f798d948","system_id":"levelo_inurba_marseille","lat":43.29087,"lon":5.38161,"is_reserved":false,"is_disabled":true,"rental_uris":{"android":"levelo://app?vid=0b439ceb-bbef-470b-b522-3e20f798d948","ios":"levelo://app?vid=0b439ceb-bbef-470b-b522-3e20f798d948"},"vehicle_type_id":"4","last_reported":1738465914,"current_range_meters":19600,"station_id":"ce4bh512rcd13ifvqe2g","pricing_plan_id":"cebpf4jnsgd1na2vs0mg"},{"bike_id":"528fe304-774b-4f5e-99b0-3a6df52f7bd5","system_id":"levelo_inurba_marseille","lat":43.26687,"lon":5.38267,"is_reserved":false,"is_disabled":false,"rental_uris":{"android":"levelo://app?vid=528fe304-774b-4f5e-99b0-3a6df52f7bd5","ios":"levelo://app?vid=528fe304-774b-4f5e-99b0-3a6df52f7bd5"},"vehicle_type_id":"4","last_reported":1738465914,"current_range_meters":17200,"station_id":"ce4bhg92rcd13ifvqf90","pricing_plan_id":"cebpf4jnsgd1na2vs0mg"},{"bike_id":"693a29bd-5ac5-4712-a645-e5d8a8553060","system_id":"levelo_inurba_marseille","lat":43.29587,"lon":5.39967,"is_reserved":false,"is_disabled":true,"rental_uris":{"android":"levelo://app?vid=693a29bd-5ac5-4712-a645-e5d8a8553060","ios":"levelo://app?vid=693a29bd-5ac5-4712-a645-e5d8a8553060"},"vehicle_type_id":"4","last_reported":1738465914,"current_range_meters":39200,"station_id":"ce4bh312rcd13ifvqdj0","pricing_plan_id":"cebpf4jnsgd1na2vs0mg"},{"bike_id":"246cfd69-3f92-4e90-aa97-e3988a738d3e","system_id":"levelo_inurba_marseille","lat":43.28667,"lon":5.38659,"is_reserved":false,"is_disabled":true,"rental_uris":{"android":"levelo://app?vid=246cfd69-3f92-4e90-aa97-e3988a738d3e","ios":"levelo://app?vid=246cfd69-3f92-4e90-aa97-e3988a738d3e"},"vehicle_type_id":"4","last_reported":1738465914,"current_range_meters":32800,"station_id":"ce4bh492rcd13ifvqdug","pricing_plan_id":"cebpf4jnsgd1na2vs0mg"},{"bike_id":"f38a9b51-7bc8-4445-89b3-2095fb6b771f","system_id":"levelo_inurba_marseille","lat":43.28713,"lon":5.37402,"is_reserved":false,"is_disabled":true,"rental_uris":{"android":"levelo://app?vid=f38a9b51-7bc8-4445-89b3-2095fb6b771f","ios":"levelo://app?vid=f38a9b51-7bc8-4445-89b3-2095fb6b771f"},"vehicle_type_id":"4","last_reported":1738465914,"current_range_meters":25200,"station_id":"ce4bh3p2rcd13ifvqdq0","pricing_plan_id":"cebpf4jnsgd1na2vs0mg"},{"bike_id":"b535da92-53d0-4704-9a9a-67bfbd9cc2d0","system_id":"levelo_inurba_marseille","lat":43.30933,"lon":5.40129,"is_reserved":false,"is_disabled":false,"rental_uris":{"android":"levelo://app?vid=b535da92-53d0-4704-9a9a-67bfbd9cc2d0","ios":"levelo://app?vid=b535da92-53d0-4704-9a9a-67bfbd9cc2d0"},"vehicle_type_id":"4","last_reported":1738465914,"current_range_meters":30400,"station_id":"ce4bgvp2rcd13ifvqct0","pricing_plan_id":"cebpf4jnsgd1na2vs0mg"},{"bike_id":"fe117411-d9ae-46ad-96d7-1d4828206f4a","system_id":"levelo_inurba_marseille","lat":43.25935,"lon":5.40922,"is_reserved":false,"is_disabled":false,"rental_uris":{"android":"levelo://app?vid=fe117411-d9ae-46ad-96d7-1d4828206f4a","ios":"levelo://app?vid=fe117411-d9ae-46ad-96d7-1d4828206f4a"},"vehicle_type_id":"4","last_reported":1738465914,"current_range_meters":37600,"station_id":"ce4bhm92rcd13ifvqglg","pricing_plan_id":"cebpf4jnsgd1na2vs0mg"},{"bike_id":"280a6fd2-e02b-4f1f-b76f-c469c57691c3","system_id":"levelo_inurba_marseille","lat":43.28011,"lon":5.39967,"is_reserved":false,"is_disabled":false,"rental_uris":{"android":"levelo://app?vid=280a6fd2-e02b-4f1f-b76f-c469c57691c3","ios":"levelo://app?vid=280a6fd2-e02b-4f1f-b76f-c469c57691c3"},"vehicle_type_id":"4","last_reported":1738465914,"current_range_meters":33600,"station_id":"ce4bho92rcd13ifvqh4g","pricing_plan_id":"cebpf4jnsgd1na2vs0mg"},{"bike_id":"855af0f3-5c6d-42ac-a614-132ef4c3efbb","system_id":"levelo_inurba_marseille","lat":43.29727,"lon":5.37697,"is_reserved":false,"is_disabled":false,"rental_uris":{"android":"levelo://app?vid=855af0f3-5c6d-42ac-a614-132ef4c3efbb","ios":"levelo://app?vid=855af0f3-5c6d-42ac-a614-132ef4c3efbb"},"vehicle_type_id":"4","last_reported":1738465914,"current_range_meters":33600,"station_id":"ce4bgkh2rcd13ifvqbl0","pricing_plan_id":"cebpf4jnsgd1na2vs0mg"},{"bike_id":"6725a974-636a-4cad-bf4d-273395199ad4","system_id":"levelo_inurba_marseille","lat":43.337311,"lon":5.391931,"is_reserved":false,"is_disabled":false,"rental_uris":{"android":"levelo://app?vid=6725a974-636a-4cad-bf4d-273395199ad4","ios":"levelo://app?vid=6725a974-636a-4cad-bf4d-273395199ad4"},"vehicle_type_id":"4","last_reported":1738465914,"current_range_meters":14800,"station_id":"ce4bhr92rcd13ifvqhsg","pricing_plan_id":"cebpf4jnsgd1na2vs0mg"},{"bike_id":"dd71fa81-3d5d-4ec8-822a-2e568fe5f14f","system_id":"levelo_inurba_marseille","lat":43.28422,"lon":5.34959,"is_reserved":false,"is_disabled":false,"rental_uris":{"android":"levelo://app?vid=dd71fa81-3d5d-4ec8-822a-2e568fe5f14f","ios":"levelo://app?vid=dd71fa81-3d5d-4ec8-822a-2e568fe5f14f"},"vehicle_type_id":"4","last_reported":1738465914,"current_range_meters":12000,"station_id":"ce4bhbh2rcd13ifvqepg","pricing_plan_id":"cebpf4jnsgd1na2vs0mg"},{"bike_id":"7a3ee36d-dff6-4fc1-9633-547c3474f6a7","system_id":"levelo_inurba_marseille","lat":43.312677,"lon":5.401724,"is_reserved":false,"is_disabled":false,"rental_uris":{"android":"levelo://app?vid=7a3ee36d-dff6-4fc1-9633-547c3474f6a7","ios":"levelo://app?vid=7a3ee36d-dff6-4fc1-9633-547c3474f6a7"},"vehicle_type_id":"4","last_reported":1738465914,"current_range_meters":28000,"station_id":"ce4bh092rcd13ifvqd30","pricing_plan_id":"cebpf4jnsgd1na2vs0mg"},{"bike_id":"b1a018ed-ba36-4ed5-938e-1a18166db9e4","system_id":"levelo_inurba_marseille","lat":43.2955,"lon":5.37483,"is_reserved":false,"is_disabled":false,"rental_uris":{"android":"levelo://app?vid=b1a018ed-ba36-4ed5-938e-1a18166db9e4","ios":"levelo://app?vid=b1a018ed-ba36-4ed5-938e-1a18166db9e4"},"vehicle_type_id":"4","last_reported":1738465914,"current_range_meters":36000,"station_id":"ce4bgkp2rcd13ifvqbmg","pricing_plan_id":"cebpf4jnsgd1na2vs0mg"},{"bike_id":"fe25e42e-6666-4b39-b1e1-07b924955063","system_id":"levelo_inurba_marseille","lat":43.27917,"lon":5.395795,"is_reserved":false,"is_disabled":false,"rental_uris":{"android":"levelo://app?vid=fe25e42e-6666-4b39-b1e1-07b924955063","ios":"levelo://app?vid=fe25e42e-6666-4b39-b1e1-07b924955063"},"vehicle_type_id":"4","last_reported":1738465914,"current_range_meters":20800,"station_id":"ce4bhf92rcd13ifvqf40","pricing_plan_id":"cebpf4jnsgd1na2vs0mg"},{"bike_id":"6776c658-c40e-43c6-afec-1fbf7f649de2","system_id":"levelo_inurba_marseille","lat":43.28474,"lon":5.39201,"is_reserved":false,"is_disabled":false,"rental_uris":{"android":"levelo://app?vid=6776c658-c40e-43c6-afec-1fbf7f649de2","ios":"levelo://app?vid=6776c658-c40e-43c6-afec-1fbf7f649de2"},"vehicle_type_id":"4","last_reported":1738465914,"current_range_meters":37600,"station_id":"ce4bhoh2rcd13ifvqh5g","pricing_plan_id":"cebpf4jnsgd1na2vs0mg"},{"bike_id":"17df0e2a-701f-463a-8754-26f7eb7ef5bb","system_id":"levelo_inurba_marseille","lat":43.29504,"lon":5.37521,"is_reserved":false,"is_disabled":false,"rental_uris":{"android":"levelo://app?vid=17df0e2a-701f-463a-8754-26f7eb7ef5bb","ios":"levelo://app?vid=17df0e2a-701f-463a-8754-26f7eb7ef5bb"},"vehicle_type_id":"4","last_reported":1738465914,"current_range_meters":20400,"station_id":"ce4bgkp2rcd13ifvqbmg","pricing_plan_id":"cebpf4jnsgd1na2vs0mg"},{"bike_id":"38156b20-5ac3-4f5c-b564-8b8cdab00b53","system_id":"levelo_inurba_marseille","lat":43.29931,"lon":5.37447,"is_reserved":false,"is_disabled":false,"rental_uris":{"android":"levelo://app?vid=38156b20-5ac3-4f5c-b564-8b8cdab00b53","ios":"levelo://app?vid=38156b20-5ac3-4f5c-b564-8b8cdab00b53"},"vehicle_type_id":"4","last_reported":1738465914,"current_range_meters":27200,"station_id":"ce4bgjh2rcd13ifvqbg0","pricing_plan_id":"cebpf4jnsgd1na2vs0mg"},{"bike_id":"7a808d24-aa18-4018-b799-e98352764325","system_id":"levelo_inurba_marseille","lat":43.24076,"lon":5.37763,"is_reserved":false,"is_disabled":false,"rental_uris":{"android":"levelo://app?vid=7a808d24-aa18-4018-b799-e98352764325","ios":"levelo://app?vid=7a808d24-aa18-4018-b799-e98352764325"},"vehicle_type_id":"4","last_reported":1738465914,"current_range_meters":23200,"station_id":"ce4bhnp2rcd13ifvqgvg","pricing_plan_id":"cebpf4jnsgd1na2vs0mg"},{"bike_id":"e6a78895-ad4f-4241-ba59-c8dcfdff5098","system_id":"levelo_inurba_marseille","lat":43.31886,"lon":5.4074,"is_reserved":false,"is_disabled":false,"rental_uris":{"android":"levelo://app?vid=e6a78895-ad4f-4241-ba59-c8dcfdff5098","ios":"levelo://app?vid=e6a78895-ad4f-4241-ba59-c8dcfdff5098"},"vehicle_type_id":"4","last_reported":1738465914,"current_range_meters":38000,"station_id":"ce4bhq12rcd13ifvqhig","pricing_plan_id":"cebpf4jnsgd1na2vs0mg"},{"bike_id":"e61ab79e-1af1-4809-b1d6-f5e83250bddb","system_id":"levelo_inurba_marseille","lat":43.25076,"lon":5.39524,"is_reserved":false,"is_disabled":false,"rental_uris":{"android":"levelo://app?vid=e61ab79e-1af1-4809-b1d6-f5e83250bddb","ios":"levelo://app?vid=e61ab79e-1af1-4809-b1d6-f5e83250bddb"},"vehicle_type_id":"4","last_reported":1738465914,"current_range_meters":39200,"station_id":"ce4bhm12rcd13ifvqgkg","pricing_plan_id":"cebpf4jnsgd1na2vs0mg"},{"bike_id":"1f4e4183-ba38-4674-b19d-0c758736fe8e","system_id":"levelo_inurba_marseille","lat":43.25091,"lon":5.39518,"is_reserved":false,"is_disabled":false,"rental_uris":{"android":"levelo://app?vid=1f4e4183-ba38-4674-b19d-0c758736fe8e","ios":"levelo://app?vid=1f4e4183-ba38-4674-b19d-0c758736fe8e"},"vehicle_type_id":"4","last_reported":1738465914,"current_range_meters":26800,"station_id":"ce4bhm12rcd13ifvqgkg","pricing_plan_id":"cebpf4jnsgd1na2vs0mg"},{"bike_id":"c890785b-a449-4d52-91fc-f5f1b26df012","system_id":"levelo_inurba_marseille","lat":43.258661,"lon":5.399072,"is_reserved":false,"is_disabled":false,"rental_uris":{"android":"levelo://app?vid=c890785b-a449-4d52-91fc-f5f1b26df012","ios":"levelo://app?vid=c890785b-a449-4d52-91fc-f5f1b26df012"},"vehicle_type_id":"4","last_reported":1738465914,"current_range_meters":17200,"station_id":"ce4bhl92rcd13ifvqghg","pricing_plan_id":"cebpf4jnsgd1na2vs0mg"},{"bike_id":"9bf21a81-04d3-463d-a3a8-28fcef1cc5f8","system_id":"levelo_inurba_marseille","lat":43.330199,"lon":5.390524,"is_reserved":false,"is_disabled":false,"rental_uris":{"android":"levelo://app?vid=9bf21a81-04d3-463d-a3a8-28fcef1cc5f8","ios":"levelo://app?vid=9bf21a81-04d3-463d-a3a8-28fcef1cc5f8"},"vehicle_type_id":"4","last_reported":1738465914,"current_range_meters":38800,"station_id":"ce4bhr92rcd13ifvqhrg","pricing_plan_id":"cebpf4jnsgd1na2vs0mg"},{"bike_id":"48158306-16df-4e77-a994-eeac95d3bb26","system_id":"levelo_inurba_marseille","lat":43.2767,"lon":5.38887,"is_reserved":false,"is_disabled":false,"rental_uris":{"android":"levelo://app?vid=48158306-16df-4e77-a994-eeac95d3bb26","ios":"levelo://app?vid=48158306-16df-4e77-a994-eeac95d3bb26"},"vehicle_type_id":"4","last_reported":1738465914,"current_range_meters":38800,"station_id":"ce4bhi12rcd13ifvqfo0","pricing_plan_id":"cebpf4jnsgd1na2vs0mg"},{"bike_id":"56d6b97f-30a2-4c2a-8be6-a12a9fc19507","system_id":"levelo_inurba_marseille","lat":43.31762,"lon":5.39021,"is_reserved":false,"is_disabled":false,"rental_uris":{"android":"levelo://app?vid=56d6b97f-30a2-4c2a-8be6-a12a9fc19507","ios":"levelo://app?vid=56d6b97f-30a2-4c2a-8be6-a12a9fc19507"},"vehicle_type_id":"4","last_reported":1738465914,"current_range_meters":8000,"station_id":"ce4bhqp2rcd13ifvqhng","pricing_plan_id":"cebpf4jnsgd1na2vs0mg"},{"bike_id":"a895efa9-50aa-435c-91d1-c119eaf59a54","system_id":"levelo_inurba_marseille","lat":43.26485,"lon":5.39556,"is_reserved":false,"is_disabled":false,"rental_uris":{"android":"levelo://app?vid=a895efa9-50aa-435c-91d1-c119eaf59a54","ios":"levelo://app?vid=a895efa9-50aa-435c-91d1-c119eaf59a54"},"vehicle_type_id":"4","last_reported":1738465914,"current_range_meters":33200,"station_id":"ce4bhi12rcd13ifvqfq0","pricing_plan_id":"cebpf4jnsgd1na2vs0mg"},{"bike_id":"32e8657c-7e52-4c6f-9cc3-fa9c15f63333","system_id":"levelo_inurba_marseille","lat":43.30056,"lon":5.39091,"is_reserved":false,"is_disabled":false,"rental_uris":{"android":"levelo://app?vid=32e8657c-7e52-4c6f-9cc3-fa9c15f63333","ios":"levelo://app?vid=32e8657c-7e52-4c6f-9cc3-fa9c15f63333"},"vehicle_type_id":"4","last_reported":1738465914,"current_range_meters":13600,"station_id":"ce4bh192rcd13ifvqdb0","pricing_plan_id":"cebpf4jnsgd1na2vs0mg"},{"bike_id":"8e104399-aef2-4f9b-ac7b-a192d80911fa","system_id":"levelo_inurba_marseille","lat":43.26566,"lon":5.38992,"is_reserved":false,"is_disabled":false,"rental_uris":{"android":"levelo://app?vid=8e104399-aef2-4f9b-ac7b-a192d80911fa","ios":"levelo://app?vid=8e104399-aef2-4f9b-ac7b-a192d80911fa"},"vehicle_type_id":"4","last_reported":1738465914,"current_range_meters":38400,"station_id":"ce4bhe12rcd13ifvqf30","pricing_plan_id":"cebpf4jnsgd1na2vs0mg"},{"bike_id":"7e3fb6d9-ccd4-42a0-ad5f-bbecad48c859","system_id":"levelo_inurba_marseille","lat":43.31348,"lon":5.36752,"is_reserved":false,"is_disabled":false,"rental_uris":{"android":"levelo://app?vid=7e3fb6d9-ccd4-42a0-ad5f-bbecad48c859","ios":"levelo://app?vid=7e3fb6d9-ccd4-42a0-ad5f-bbecad48c859"},"vehicle_type_id":"4","last_reported":1738465914,"current_range_meters":29600,"station_id":"ce4bgr92rcd13ifvqc6g","pricing_plan_id":"cebpf4jnsgd1na2vs0mg"},{"bike_id":"d8ed3149-1b3d-468c-b65c-32b89925f608","system_id":"levelo_inurba_marseille","lat":43.33012,"lon":5.41269,"is_reserved":false,"is_disabled":false,"rental_uris":{"android":"levelo://app?vid=d8ed3149-1b3d-468c-b65c-32b89925f608","ios":"levelo://app?vid=d8ed3149-1b3d-468c-b65c-32b89925f608"},"vehicle_type_id":"4","last_reported":1738465914,"current_range_meters":8400,"station_id":"","pricing_plan_id":"cebpf4jnsgd1na2vs0mg"},{"bike_id":"dd726779-5800-4957-b987-a80b76d90d6f","system_id":"levelo_inurba_marseille","lat":43.30806,"lon":5.38138,"is_reserved":false,"is_disabled":false,"rental_uris":{"android":"levelo://app?vid=dd726779-5800-4957-b987-a80b76d90d6f","ios":"levelo://app?vid=dd726779-5800-4957-b987-a80b76d90d6f"},"vehicle_type_id":"4","last_reported":1738465914,"current_range_meters":34000,"station_id":"ce4bgt12rcd13ifvqce0","pricing_plan_id":"cebpf4jnsgd1na2vs0mg"},{"bike_id":"d73d9353-306e-4216-a2c5-242e7210998b","system_id":"levelo_inurba_marseille","lat":43.306107,"lon":5.372323,"is_reserved":false,"is_disabled":false,"rental_uris":{"android":"levelo://app?vid=d73d9353-306e-4216-a2c5-242e7210998b","ios":"levelo://app?vid=d73d9353-306e-4216-a2c5-242e7210998b"},"vehicle_type_id":"4","last_reported":1738465914,"current_range_meters":18800,"station_id":"ce4bgqh2rcd13ifvqc4g","pricing_plan_id":"cebpf4jnsgd1na2vs0mg"},{"bike_id":"7a163fc0-07aa-41da-86bd-3a408e536729","system_id":"levelo_inurba_marseille","lat":43.30532,"lon":5.36502,"is_reserved":false,"is_disabled":false,"rental_uris":{"android":"levelo://app?vid=7a163fc0-07aa-41da-86bd-3a408e536729","ios":"levelo://app?vid=7a163fc0-07aa-41da-86bd-3a408e536729"},"vehicle_type_id":"4","last_reported":1738465914,"current_range_meters":24000,"station_id":"ce4bgs12rcd13ifvqcag","pricing_plan_id":"cebpf4jnsgd1na2vs0mg"},{"bike_id":"51e98b31-1659-413c-a2fd-ad1f5f5b25a8","system_id":"levelo_inurba_marseille","lat":43.31011,"lon":5.36709,"is_reserved":false,"is_disabled":false,"rental_uris":{"android":"levelo://app?vid=51e98b31-1659-413c-a2fd-ad1f5f5b25a8","ios":"levelo://app?vid=51e98b31-1659-413c-a2fd-ad1f5f5b25a8"},"vehicle_type_id":"4","last_reported":1738465914,"current_range_meters":34000,"station_id":"","pricing_plan_id":"cebpf4jnsgd1na2vs0mg"},{"bike_id":"df24545b-590b-418c-9ab9-9f9ec88b5ad8","system_id":"levelo_inurba_marseille","lat":43.27559,"lon":5.3841,"is_reserved":false,"is_disabled":false,"rental_uris":{"android":"levelo://app?vid=df24545b-590b-418c-9ab9-9f9ec88b5ad8","ios":"levelo://app?vid=df24545b-590b-418c-9ab9-9f9ec88b5ad8"},"vehicle_type_id":"4","last_reported":1738465914,"current_range_meters":38800,"station_id":"ce4bhh92rcd13ifvqfi0","pricing_plan_id":"cebpf4jnsgd1na2vs0mg"},{"bike_id":"bfc62d32-6530-4095-9e14-8e2530dc280f","system_id":"levelo_inurba_marseille","lat":43.258632,"lon":5.399076,"is_reserved":false,"is_disabled":false,"rental_uris":{"android":"levelo://app?vid=bfc62d32-6530-4095-9e14-8e2530dc280f","ios":"levelo://app?vid=bfc62d32-6530-4095-9e14-8e2530dc280f"},"vehicle_type_id":"4","last_reported":1738465914,"current_range_meters":38800,"station_id":"ce4bhl92rcd13ifvqghg","pricing_plan_id":"cebpf4jnsgd1na2vs0mg"},{"bike_id":"1dea0d1d-b5f5-454c-bafa-5ed21154abef","system_id":"levelo_inurba_marseille","lat":43.29731,"lon":5.37717,"is_reserved":false,"is_disabled":false,"rental_uris":{"android":"levelo://app?vid=1dea0d1d-b5f5-454c-bafa-5ed21154abef","ios":"levelo://app?vid=1dea0d1d-b5f5-454c-bafa-5ed21154abef"},"vehicle_type_id":"4","last_reported":1738465914,"current_range_meters":38800,"station_id":"ce4bgkh2rcd13ifvqbl0","pricing_plan_id":"cebpf4jnsgd1na2vs0mg"},{"bike_id":"c93d18e4-6c4f-45bc-b834-aea4e196dcd1","system_id":"levelo_inurba_marseille","lat":43.28959,"lon":5.36417,"is_reserved":false,"is_disabled":false,"rental_uris":{"android":"levelo://app?vid=c93d18e4-6c4f-45bc-b834-aea4e196dcd1","ios":"levelo://app?vid=c93d18e4-6c4f-45bc-b834-aea4e196dcd1"},"vehicle_type_id":"4","last_reported":1738465914,"current_range_meters":28400,"station_id":"ce4bhc92rcd13ifvqetg","pricing_plan_id":"cebpf4jnsgd1na2vs0mg"},{"bike_id":"b511f513-b54b-42d2-984d-136f6d4facc1","system_id":"levelo_inurba_marseille","lat":43.27996,"lon":5.41658,"is_reserved":false,"is_disabled":false,"rental_uris":{"android":"levelo://app?vid=b511f513-b54b-42d2-984d-136f6d4facc1","ios":"levelo://app?vid=b511f513-b54b-42d2-984d-136f6d4facc1"},"vehicle_type_id":"4","last_reported":1738465914,"current_range_meters":39200,"station_id":"ce4bho12rcd13ifvqh1g","pricing_plan_id":"cebpf4jnsgd1na2vs0mg"},