{"last_updated":1743754415,"ttl":60,"version":"2.2","data":{"bikes":[{"bike_id":"f87e996c-206a-47d9-8697-84a2d463fdc3","system_id":"levelo_inurba_marseille","lat":43.2319,"lon":5.3556,"is_reserved":false,"is_disabled":false,"rental_uris":{"android":"levelo://app?vid=f87e996c-206a-47d9-8697-84a2d463fdc3","ios":"levelo://app?vid=f87e996c-206a-47d9-8697-84a2d463fdc3"},"vehicle_type_id":"4","last_reported":1743754415,"current_range_meters":2800,"station_id":"ce4bhu92rcd13ifvqi70","pricing_plan_id":"cebpf4jnsgd1na2vs0mg"},{"bike_id":"cdd58a93-b82b-4f86-b712-63c2b463db2f","system_id":"levelo_inurba_marseille","lat":43.26588,"lon":5.39037,"is_reserved":false,"is_disabled":false,"rental_uris":{"android":"levelo://app?vid=cdd58a93-b82b-4f86-b712-63c2b463db2f","ios":"levelo://app?vid=cdd58a93-b82b-4f86-b712-63c2b463db2f"},"vehicle_type_id":"4","last_reported":1743754415,"current_range_meters":2800,"station_id":"ce4bhe12rcd13ifvqf30","pricing_plan_id":"cebpf4jnsgd1na2vs0mg"},{"bike_id":"d2457e82-1147-4e30-9642-dcb938c9bfb7","system_id":"levelo_inurba_marseille","lat":43.284207,"lon":5.349925,"is_reserved":false,"is_disabled":false,"rental_uris":{"android":"levelo://app?vid=d2457e82-1147-4e30-9642-dcb938c9bfb7","ios":"levelo://app?vid=d2457e82-1147-4e30-9642-dcb938c9bfb7"},"vehicle_type_id":"4","last_reported":1743754415,"current_range_meters":3200,"station_id":"ce4bhbh2rcd13ifvqepg","pricing_plan_id":"cebpf4jnsgd1na2vs0mg"},{"bike_id":"fc809848-6879-41a0-9604-33a25df57d01","system_id":"levelo_inurba_marseille","lat":43.3077,"lon":5.387506,"is_reserved":false,"is_disabled":false,"rental_uris":{"android":"levelo://app?vid=fc809848-6879-41a0-9604-33a25df57d01","ios":"levelo://app?vid=fc809848-6879-41a0-9604-33a25df57d01"},"vehicle_type_id":"4","last_reported":1743754415,"current_range_meters":3200,"station_id":"ce4bgup2rcd13ifvqcn0","pricing_plan_id":"cebpf4jnsgd1na2vs0mg"},{"bike_id":"9d13c440-da3b-4535-b70d-8105619f88bd","system_id":"levelo_inurba_marseille","lat":43.32345,"lon":5.38913,"is_reserved":false,"is_disabled":true,"rental_uris":{"android":"levelo://app?vid=9d13c440-da3b-4535-b70d-8105619f88bd","ios":"levelo://app?vid=9d13c440-da3b-4535-b70d-8105619f88bd"},"vehicle_type_id":"4","last_reported":1743754415,"current_range_meters":3200,"station_id":"ce4bhqp2rcd13ifvqhog","pricing_plan_id":"cebpf4jnsgd1na2vs0mg"},{"bike_id":"1d38907f-1a03-4a46-885f-495106bba42e","system_id":"levelo_inurba_marseille","lat":43.27501,"lon":5.42463,"is_reserved":false,"is_disabled":false,"rental_uris":{"android":"levelo://app?vid=1d38907f-1a03-4a46-885f-495106bba42e","ios":"levelo://app?vid=1d38907f-1a03-4a46-885f-495106bba42e"},"vehicle_type_id":"4","last_reported":1743754415,"current_range_meters":3200,"station_id":"ce4bhn92rcd13ifvqgrg","pricing_plan_id":"cebpf4jnsgd1na2vs0mg"},{"bike_id":"b00ae40a-8d84-49c9-ab1f-47c1ad60fead","system_id":"levelo_inurba_marseille","lat":43.30604,"lon":5.37113,"is_reserved":false,"is_disabled":false,"rental_uris":{"android":"levelo://app?vid=b00ae40a-8d84-49c9-ab1f-47c1ad60fead","ios":"levelo://app?vid=b00ae40a-8d84-49c9-ab1f-47c1ad60fead"},"vehicle_type_id":"4","last_reported":1743754415,"current_range_meters":3600,"station_id":"","pricing_plan_id":"cebpf4jnsgd1na2vs0mg"},{"bike_id":"cadfa437-686b-4667-a686-6d481cc31238","system_id":"levelo_inurba_marseille","lat":43.29007,"lon":5.35612,"is_reserved":false,"is_disabled":false,"rental_uris":{"android":"levelo://app?vid=cadfa437-686b-4667-a686-6d481cc31238","ios":"levelo://app?vid=cadfa437-686b-4667-a686-6d481cc31238"},"vehicle_type_id":"4","last_reported":1743754415,"current_range_meters":3600,"station_id":"ce4bhb92rcd13ifvqen0","pricing_plan_id":"cebpf4jnsgd1na2vs0mg"},{"bike_id":"9684f4b4-207e-41dc-9a54-f1411fe6fae7","system_id":"levelo_inurba_marseille","lat":43.30496,"lon":5.36953,"is_reserved":false,"is_disabled":true,"rental_uris":{"android":"levelo://app?vid=9684f4b4-207e-41dc-9a54-f1411fe6fae7","ios":"levelo://app?vid=9684f4b4-207e-41dc-9a54-f1411fe6fae7"},"vehicle_type_id":"4","last_reported":1743754415,"current_range_meters":4000,"station_id":"","pricing_plan_id":"cebpf4jnsgd1na2vs0mg"},{"bike_id":"bddd4ccf-1482-4a9d-a8d7-0870910ef155","system_id":"levelo_inurba_marseille","lat":43.27933,"lon":5.41058,"is_reserved":false,"is_disabled":false,"rental_uris":{"android":"levelo://app?vid=bddd4ccf-1482-4a9d-a8d7-0870910ef155","ios":"levelo://app?vid=bddd4ccf-1482-4a9d-a8d7-0870910ef155"},"vehicle_type_id":"4","last_reported":1743754415,"current_range_meters":4000,"station_id":"ce4bhnp2rcd13ifvqh0g","pricing_plan_id":"cebpf4jnsgd1na2vs0mg"},{"bike_id":"55ebf477-e2e7-4edf-aa6c-33e9e6b70749","system_id":"levelo_inurba_marseille","lat":43.24387,"lon":5.37058,"is_reserved":false,"is_disabled":false,"rental_uris":{"android":"levelo://app?vid=55ebf477-e2e7-4edf-aa6c-33e9e6b70749","ios":"levelo://app?vid=55ebf477-e2e7-4edf-aa6c-33e9e6b70749"},"vehicle_type_id":"4","last_reported":1743754415,"current_range_meters":4000,"station_id":"ce4bhhh2rcd13ifvqfk0","pricing_plan_id":"cebpf4jnsgd1na2vs0mg"},{"bike_id":"32a978e0-d0c2-43d4-9b03-19a5c41c27de","system_id":"levelo_inurba_marseille","lat":43.31083,"lon":5.38353,"is_reserved":false,"is_disabled":true,"rental_uris":{"android":"levelo://app?vid=32a978e0-d0c2-43d4-9b03-19a5c41c27de","ios":"levelo://app?vid=32a978e0-d0c2-43d4-9b03-19a5c41c27de"},"vehicle_type_id":"4","last_reported":1743754415,"current_range_meters":4000,"station_id":"ce4bgv92rcd13ifvqcr0","pricing_plan_id":"cebpf4jnsgd1na2vs0mg"},{"bike_id":"4170ef91-44b5-48dd-b893-58656f2d53b1","system_id":"levelo_inurba_marseille","lat":43.297333,"lon":5.37069,"is_reserved":false,"is_disabled":false,"rental_uris":{"android":"levelo://app?vid=4170ef91-44b5-48dd-b893-58656f2d53b1","ios":"levelo://app?vid=4170ef91-44b5-48dd-b893-58656f2d53b1"},"vehicle_type_id":"4","last_reported":1743754415,"current_range_meters":4000,"station_id":"","pricing_plan_id":"cebpf4jnsgd1na2vs0mg"},{"bike_id":"152ae4ed-cba9-4ea0-8c1a-bd98a3ce8d3c","system_id":"levelo_inurba_marseille","lat":43.24086,"lon":5.37771,"is_reserved":false,"is_disabled":false,"rental_uris":{"android":"levelo://app?vid=152ae4ed-cba9-4ea0-8c1a-bd98a3ce8d3c","ios":"levelo://app?vid=152ae4ed-cba9-4ea0-8c1a-bd98a3ce8d3c"},"vehicle_type_id":"4","last_reported":1743754415,"current_range_meters":4000,"station_id":"ce4bhnp2rcd13ifvqgvg","pricing_plan_id":"cebpf4jnsgd1na2vs0mg"},{"bike_id":"abe82edf-86d7-443d-8856-ca4748d0da17","system_id":"levelo_inurba_marseille","lat":43.25002,"lon":5.38927,"is_reserved":false,"is_disabled":false,"rental_uris":{"android":"levelo://app?vid=abe82edf-86d7-443d-8856-ca4748d0da17","ios":"levelo://app?vid=abe82edf-86d7-443d-8856-ca4748d0da17"},"vehicle_type_id":"4","last_reported":1743754415,"current_range_meters":4000,"station_id":"ce4bhgp2rcd13ifvqfd0","pricing_plan_id":"cebpf4jnsgd1na2vs0mg"},{"bike_id":"81179123-d7b4-4851-9622-51456881795f","system_id":"levelo_inurba_marseille","lat":43.25925,"lon":5.394,"is_reserved":false,"is_disabled":false,"rental_uris":{"android":"levelo://app?vid=81179123-d7b4-4851-9622-51456881795f","ios":"levelo://app?vid=81179123-d7b4-4851-9622-51456881795f"},"vehicle_type_id":"4","last_reported":1743754415,"current_range_meters":4000,"station_id":"ce4bhh92rcd13ifvqfj0","pricing_plan_id":"cebpf4jnsgd1na2vs0mg"},{"bike_id":"3374421a-949f-40b6-870f-59a2d8ba0de4","system_id":"levelo_inurba_marseille","lat":43.24165,"lon":5.36423,"is_reserved":false,"is_disabled":false,"rental_uris":{"android":"levelo://app?vid=3374421a-949f-40b6-870f-59a2d8ba0de4","ios":"levelo://app?vid=3374421a-949f-40b6-870f-59a2d8ba0de4"},"vehicle_type_id":"4","last_reported":1743754415,"current_range_meters":4400,"station_id":"cpo36qri1sfpv3e86is0","pricing_plan_id":"cebpf4jnsgd1na2vs0mg"},{"bike_id":"de8d28c5-2c85-4a6c-ab1d-ccf527660273","system_id":"levelo_inurba_marseille","lat":43.27491,"lon":5.42457,"is_reserved":false,"is_disabled":false,"rental_uris":{"android":"levelo://app?vid=de8d28c5-2c85-4a6c-ab1d-ccf527660273","ios":"levelo://app?vid=de8d28c5-2c85-4a6c-ab1d-ccf527660273"},"vehicle_type_id":"4","last_reported":1743754415,"current_range_meters":4400,"station_id":"ce4bhn92rcd13ifvqgrg","pricing_plan_id":"cebpf4jnsgd1na2vs0mg"},{"bike_id":"237f4b52-fb30-477b-9d9b-400306194de0","system_id":"levelo_inurba_marseille","lat":43.29247,"lon":5.36854,"is_reserved":false,"is_disabled":false,"rental_uris":{"android":"levelo://app?vid=237f4b52-fb30-477b-9d9b-400306194de0","ios":"levelo://app?vid=237f4b52-fb30-477b-9d9b-400306194de0"},"vehicle_type_id":"4","last_reported":1743754415,"current_range_meters":4800,"station_id":"ce4bhbp2rcd13ifvqesg","pricing_plan_id":"cebpf4jnsgd1na2vs0mg"},{"bike_id":"9aec93fd-e646-47ff-a176-78f844f818cd","system_id":"levelo_inurba_marseille","lat":43.29005,"lon":5.35609,"is_reserved":false,"is_disabled":false,"rental_uris":{"android":"levelo://app?vid=9aec93fd-e646-47ff-a176-78f844f818cd","ios":"levelo://app?vid=9aec93fd-e646-47ff-a176-78f844f818cd"},"vehicle_type_id":"4","last_reported":1743754415,"current_range_meters":4800,"station_id":"ce4bhb92rcd13ifvqen0","pricing_plan_id":"cebpf4jnsgd1na2vs0mg"},{"bike_id":"0a4ed365-838d-4aae-89e6-94698f643968","system_id":"levelo_inurba_marseille","lat":43.290748,"lon":5.371694,"is_reserved":false,"is_disabled":false,"rental_uris":{"android":"levelo://app?vid=0a4ed365-838d-4aae-89e6-94698f643968","ios":"levelo://app?vid=0a4ed365-838d-4aae-89e6-94698f643968"},"vehicle_type_id":"4","last_reported":1743754415,"current_range_meters":11200,"station_id":"ce4bh5p2rcd13ifvqe4g","pricing_plan_id":"cebpf4jnsgd1na2vs0mg"},{"bike_id":"2df3b5e0-fa04-4284-bdcb-e49276cc5fb3","system_id":"levelo_inurba_marseille","lat":43.25012,"lon":5.38932,"is_reserved":false,"is_disabled":false,"rental_uris":{"android":"levelo://app?vid=2df3b5e0-fa04-4284-bdcb-e49276cc5fb3","ios":"levelo://app?vid=2df3b5e0-fa04-4284-bdcb-e49276cc5fb3"},"vehicle_type_id":"4","last_reported":1743754415,"current_range_meters":4800,"station_id":"ce4bhgp2rcd13ifvqfd0","pricing_plan_id":"cebpf4jnsgd1na2vs0mg"},{"bike_id":"fede0e43-1609-4a28-9f97-913c3f149703","system_id":"levelo_inurba_marseille","lat":43.23182,"lon":5.35571,"is_reserved":false,"is_disabled":false,"rental_uris":{"android":"levelo://app?vid=fede0e43-1609-4a28-9f97-913c3f149703","ios":"levelo://app?vid=fede0e43-1609-4a28-9f97-913c3f149703"},"vehicle_type_id":"4","last_reported":1743754415,"current_range_meters":4800,"station_id":"ce4bhu92rcd13ifvqi70","pricing_plan_id":"cebpf4jnsgd1na2vs0mg"},{"bike_id":"d6c096ab-eb9f-410d-a994-f03cb790f1ba","system_id":"levelo_inurba_marseille","lat":43.30479,"lon":5.37905,"is_reserved":false,"is_disabled":false,"rental_uris":{"android":"levelo://app?vid=d6c096ab-eb9f-410d-a994-f03cb790f1ba","ios":"levelo://app?vid=d6c096ab-eb9f-410d-a994-f03cb790f1ba"},"vehicle_type_id":"4","last_reported":1743754415,"current_range_meters":4800,"station_id":"ce4bgup2rcd13ifvqcn0","pricing_plan_id":"cebpf4jnsgd1na2vs0mg"},{"bike_id":"0491a2e1-674b-4388-8228-146192daa588","system_id":"levelo_inurba_marseille","lat":43.27483,"lon":5.42473,"is_reserved":false,"is_disabled":false,"rental_uris":{"android":"levelo://app?vid=0491a2e1-674b-4388-8228-146192daa588","ios":"levelo://app?vid=0491a2e1-674b-4388-8228-146192daa588"},"vehicle_type_id":"4","last_reported":1743754415,"current_range_meters":4800,"station_id":"ce4bhn92rcd13ifvqgrg","pricing_plan_id":"cebpf4jnsgd1na2vs0mg"},{"bike_id":"3232655f-8b00-4002-bd8e-1cd4f29e5a46","system_id":"levelo_inurba_marseille","lat":43.30912,"lon":5.36836,"is_reserved":false,"is_disabled":false,"rental_uris":{"android":"levelo://app?vid=3232655f-8b00-4002-bd8e-1cd4f29e5a46","ios":"levelo://app?vid=3232655f-8b00-4002-bd8e-1cd4f29e5a46"},"vehicle_type_id":"4","last_reported":1743754415,"current_range_meters":5600,"station_id":"ce4bgn92rcd13ifvqbvg","pricing_plan_id":"cebpf4jnsgd1na2vs0mg"},{"bike_id":"08e59574-0da5-4ce2-abc3-f83bc212dd4c","system_id":"levelo_inurba_marseille","lat":43.2749,"lon":5.42454,"is_reserved":false,"is_disabled":false,"rental_uris":{"android":"levelo://app?vid=08e59574-0da5-4ce2-abc3-f83bc212dd4c","ios":"levelo://app?vid=08e59574-0da5-4ce2-abc3-f83bc212dd4c"},"vehicle_type_id":"4","last_reported":1743754415,"current_range_meters":5600,"station_id":"ce4bhn92rcd13ifvqgrg","pricing_plan_id":"cebpf4jnsgd1na2vs0mg"},{"bike_id":"839fd345-8576-4b62-868a-d18d9259e15e","system_id":"levelo_inurba_marseille","lat":43.297,"lon":5.37692,"is_reserved":false,"is_disabled":false,"rental_uris":{"android":"levelo://app?vid=839fd345-8576-4b62-868a-d18d9259e15e","ios":"levelo://app?vid=839fd345-8576-4b62-868a-d18d9259e15e"},"vehicle_type_id":"4","last_reported":1743754415,"current_range_meters":4800,"station_id":"ce4bgkh2rcd13ifvqbl0","pricing_plan_id":"cebpf4jnsgd1na2vs0mg"},{"bike_id":"31e8450f-0363-4e59-b00d-d65c3404da8e","system_id":"levelo_inurba_marseille","lat":43.29317,"lon":5.3718,"is_reserved":false,"is_disabled":false,"rental_uris":{"android":"levelo://app?vid=31e8450f-0363-4e59-b00d-d65c3404da8e","ios":"levelo://app?vid=31e8450f-0363-4e59-b00d-d65c3404da8e"},"vehicle_type_id":"4","last_reported":1743754415,"current_range_meters":5600,"station_id":"ce4bgh92rcd13ifvqb40","pricing_plan_id":"cebpf4jnsgd1na2vs0mg"},{"bike_id":"15ea3e20-e3c1-434f-8b50-88d1ebba3f71","system_id":"levelo_inurba_marseille","lat":43.23196,"lon":5.35576,"is_reserved":false,"is_disabled":false,"rental_uris":{"android":"levelo://app?vid=15ea3e20-e3c1-434f-8b50-88d1ebba3f71","ios":"levelo://app?vid=15ea3e20-e3c1-434f-8b50-88d1ebba3f71"},"vehicle_type_id":"4","last_reported":1743754415,"current_range_meters":5600,"station_id":"ce4bhu92rcd13ifvqi70","pricing_plan_id":"cebpf4jnsgd1na2vs0mg"},{"bike_id":"c2e6881a-04a3-4a38-9cc0-75cacf165e78","system_id":"levelo_inurba_marseille","lat":43.28832,"lon":5.364645,"is_reserved":false,"is_disabled":false,"rental_uris":{"android":"levelo://app?vid=c2e6881a-04a3-4a38-9cc0-75cacf165e78","ios":"levelo://app?vid=c2e6881a-04a3-4a38-9cc0-75cacf165e78"},"vehicle_type_id":"4","last_reported":1743754415,"current_range_meters":6000,"station_id":"","pricing_plan_id":"cebpf4jnsgd1na2vs0mg"},{"bike_id":"ed910235-7712-4f43-a3a3-b84c24c262e1","system_id":"levelo_inurba_marseille","lat":43.28354,"lon":5.38107,"is_reserved":false,"is_disabled":false,"rental_uris":{"android":"levelo://app?vid=ed910235-7712-4f43-a3a3-b84c24c262e1","ios":"levelo://app?vid=ed910235-7712-4f43-a3a3-b84c24c262e1"},"vehicle_type_id":"4","last_reported":1743754415,"current_range_meters":6000,"station_id":"ce4bh412rcd13ifvqdr0","pricing_plan_id":"cebpf4jnsgd1na2vs0mg"},{"bike_id":"1c1a02ce-c0e7-40ff-bb8a-073ea9e446c8","system_id":"levelo_inurba_marseille","lat":43.27176,"lon":5.40995,"is_reserved":false,"is_disabled":false,"rental_uris":{"android":"levelo://app?vid=1c1a02ce-c0e7-40ff-bb8a-073ea9e446c8","ios":"levelo://app?vid=1c1a02ce-c0e7-40ff-bb8a-073ea9e446c8"},"vehicle_type_id":"4","last_reported":1743754415,"current_range_meters":6000,"station_id":"ce4bhl12rcd13ifvqgf0","pricing_plan_id":"cebpf4jnsgd1na2vs0mg"},{"bike_id":"3fd283c5-171d-46ec-9324-2de2c345f1af","system_id":"levelo_inurba_marseille","lat":43.30895,"lon":5.36861,"is_reserved":false,"is_disabled":false,"rental_uris":{"android":"levelo://app?vid=3fd283c5-171d-46ec-9324-2de2c345f1af","ios":"levelo://app?vid=3fd283c5-171d-46ec-9324-2de2c345f1af"},"vehicle_type_id":"4","last_reported":1743754415,"current_range_meters":6000,"station_id":"ce4bgn92rcd13ifvqbvg","pricing_plan_id":"cebpf4jnsgd1na2vs0mg"},{"bike_id":"3b51d0af-78d1-44bf-b45c-6107eae20a7e","system_id":"levelo_inurba_marseille","lat":43.30968,"lon":5.39042,"is_reserved":false,"is_disabled":false,"rental_uris":{"android":"levelo://app?vid=3b51d0af-78d1-44bf-b45c-6107eae20a7e","ios":"levelo://app?vid=3b51d0af-78d1-44bf-b45c-6107eae20a7e"},"vehicle_type_id":"4","last_reported":1743754415,"current_range_meters":6000,"station_id":"ce4bgup2rcd13ifvqco0","pricing_plan_id":"cebpf4jnsgd1na2vs0mg"},{"bike_id":"604985d4-92ce-478f-aa52-92760a12c1e2","system_id":"levelo_inurba_marseille","lat":43.26822,"lon":5.39448,"is_reserved":false,"is_disabled":false,"rental_uris":{"android":"levelo://app?vid=604985d4-92ce-478f-aa52-92760a12c1e2","ios":"levelo://app?vid=604985d4-92ce-478f-aa52-92760a12c1e2"},"vehicle_type_id":"4","last_reported":1743754415,"current_range_meters":6000,"station_id":"ce4bhh12rcd13ifvqfg0","pricing_plan_id":"cebpf4jnsgd1na2vs0mg"},{"bike_id":"cd83c8ac-ed09-4369-9279-b6f36f2bbd3c","system_id":"levelo_inurba_marseille","lat":43.30826,"lon":5.38195,"is_reserved":false,"is_disabled":false,"rental_uris":{"android":"levelo://app?vid=cd83c8ac-ed09-4369-9279-b6f36f2bbd3c","ios":"levelo://app?vid=cd83c8ac-ed09-4369-9279-b6f36f2bbd3c"},"vehicle_type_id":"4","last_reported":1743754415,"current_range_meters":6400,"station_id":"ce4bgt12rcd13ifvqce0","pricing_plan_id":"cebpf4jnsgd1na2vs0mg"},{"bike_id":"2f5ebb33-56ac-48ac-8004-513ec8b3c9df","system_id":"levelo_inurba_marseille","lat":43.25942,"lon":5.4093,"is_reserved":false,"is_disabled":false,"rental_uris":{"android":"levelo://app?vid=2f5ebb33-56ac-48ac-8004-513ec8b3c9df","ios":"levelo://app?vid=2f5ebb33-56ac-48ac-8004-513ec8b3c9df"},"vehicle_type_id":"4","last_reported":1743754415,"current_range_meters":6400,"station_id":"ce4bhm92rcd13ifvqglg","pricing_plan_id":"cebpf4jnsgd1na2vs0mg"},{"bike_id":"6242a91e-cd87-4d7a-bf34-c1bc4f1656b2","system_id":"levelo_inurba_marseille","lat":43.28724,"lon":5.37946,"is_reserved":false,"is_disabled":false,"rental_uris":{"android":"levelo://app?vid=6242a91e-cd87-4d7a-bf34-c1bc4f1656b2","ios":"levelo://app?vid=6242a91e-cd87-4d7a-bf34-c1bc4f1656b2"},"vehicle_type_id":"4","last_reported":1743754415,"current_range_meters":6400,"station_id":"ce4bh9p2rcd13ifvqec0","pricing_plan_id":"cebpf4jnsgd1na2vs0mg"},{"bike_id":"f37d8f5c-d063-4e35-8e15-0215542ca205","system_id":"levelo_inurba_marseille","lat":43.23729,"lon":5.40404,"is_reserved":false,"is_disabled":false,"rental_uris":{"android":"levelo://app?vid=f37d8f5c-d063-4e35-8e15-0215542ca205","ios":"levelo://app?vid=f37d8f5c-d063-4e35-8e15-0215542ca205"},"vehicle_type_id":"4","last_reported":1743754415,"current_range_meters":6400,"station_id":"","pricing_plan_id":"cebpf4jnsgd1na2vs0mg"},{"bike_id":"983ea277-bb42-4be6-9ee6-86e1ff75b31f","system_id":"levelo_inurba_marseille","lat":43.29915,"lon":5.37493,"is_reserved":false,"is_disabled":false,"rental_uris":{"android":"levelo://app?vid=983ea277-bb42-4be6-9ee6-86e1ff75b31f","ios":"levelo://app?vid=983ea277-bb42-4be6-9ee6-86e1ff75b31f"},"vehicle_type_id":"4","last_reported":1743754415,"current_range_meters":6000,"station_id":"ce4bgjh2rcd13ifvqbg0","pricing_plan_id":"cebpf4jnsgd1na2vs0mg"},{"bike_id":"8ebf8223-ca28-4bca-93ea-fefb20db5d50","system_id":"levelo_inurba_marseille","lat":43.25,"lon":5.38925,"is_reserved":false,"is_disabled":false,"rental_uris":{"android":"levelo://app?vid=8ebf8223-ca28-4bca-93ea-fefb20db5d50","ios":"levelo://app?vid=8ebf8223-ca28-4bca-93ea-fefb20db5d50"},"vehicle_type_id":"4","last_reported":1743754415,"current_range_meters":6400,"station_id":"ce4bhgp2rcd13ifvqfd0","pricing_plan_id":"cebpf4jnsgd1na2vs0mg"},{"bike_id":"51b37761-f4db-4850-a6e4-1f3b516e8001","system_id":"levelo_inurba_marseille","lat":43.23148,"lon":5.43725,"is_reserved":false,"is_disabled":false,"rental_uris":{"android":"levelo://app?vid=51b37761-f4db-4850-a6e4-1f3b516e8001","ios":"levelo://app?vid=51b37761-f4db-4850-a6e4-1f3b516e8001"},"vehicle_type_id":"4","last_reported":1743754415,"current_range_meters":6800,"station_id":"ce4bhmp2rcd13ifvqgog","pricing_plan_id":"cebpf4jnsgd1na2vs0mg"},{"bike_id":"71e55f99-90e5-4133-8167-5af8b2b35d7e","system_id":"levelo_inurba_marseille","lat":43.23053,"lon":5.35499,"is_reserved":false,"is_disabled":false,"rental_uris":{"android":"levelo://app?vid=71e55f99-90e5-4133-8167-5af8b2b35d7e","ios":"levelo://app?vid=71e55f99-90e5-4133-8167-5af8b2b35d7e"},"vehicle_type_id":"4","last_reported":1743754415,"current_range_meters":6800,"station_id":"cpo3342slgdg3j2ifvpg","pricing_plan_id":"cebpf4jnsgd1na2vs0mg"},{"bike_id":"12722531-4a55-424a-91fd-8bea4f4d40da","system_id":"levelo_inurba_marseille","lat":43.30548,"lon":5.36706,"is_reserved":false,"is_disabled":true,"rental_uris":{"android":"levelo://app?vid=12722531-4a55-424a-91fd-8bea4f4d40da","ios":"levelo://app?vid=12722531-4a55-424a-91fd-8bea4f4d40da"},"vehicle_type_id":"4","last_reported":1743754415,"current_range_meters":6800,"station_id":"ce4bgrp2rcd13ifvqc9g","pricing_plan_id":"cebpf4jnsgd1na2vs0mg"},{"bike_id":"08412614-9a7f-42c5-91c9-6bf43ea0736a","system_id":"levelo_inurba_marseille","lat":43.23143,"lon":5.43715,"is_reserved":false,"is_disabled":false,"rental_uris":{"android":"levelo://app?vid=08412614-9a7f-42c5-91c9-6bf43ea0736a","ios":"levelo://app?vid=08412614-9a7f-42c5-91c9-6bf43ea0736a"},"vehicle_type_id":"4","last_reported":1743754415,"current_range_meters":6800,"station_id":"ce4bhmp2rcd13ifvqgog","pricing_plan_id":"cebpf4jnsgd1na2vs0mg"},{"bike_id":"4cba49d4-c5bd-4502-803e-6c3eb368c36a","system_id":"levelo_inurba_marseille","lat":43.28457,"lon":5.358826,"is_reserved":false,"is_disabled":false,"rental_uris":{"android":"levelo://app?vid=4cba49d4-c5bd-4502-803e-6c3eb368c36a","ios":"levelo://app?vid=4cba49d4-c5bd-4502-803e-6c3eb368c36a"},"vehicle_type_id":"4","last_reported":1743754415,"current_range_meters":6800,"station_id":"ce4bhah2rcd13ifvqei0","pricing_plan_id":"cebpf4jnsgd1na2vs0mg"},{"bike_id":"54aa232c-bfa2-40dc-bb91-a4b8d7a609dd","system_id":"levelo_inurba_marseille","lat":43.24178,"lon":5.39729,"is_reserved":false,"is_disabled":false,"rental_uris":{"android":"levelo://app?vid=54aa232c-bfa2-40dc-bb91-a4b8d7a609dd","ios":"levelo://app?vid=54aa232c-bfa2-40dc-bb91-a4b8d7a609dd"},"vehicle_type_id":"4","last_reported":1743754415,"current_range_meters":6800,"station_id":"ce4bhn12rcd13ifvqgpg","pricing_plan_id":"cebpf4jnsgd1na2vs0mg"},{"bike_id":"6b47b7fa-3901-4c16-a18d-dd6c6e60c2b6","system_id":"levelo_inurba_marseille","lat":43.23151,"lon":5.437,"is_reserved":false,"is_disabled":false,"rental_uris":{"android":"levelo://app?vid=6b47b7fa-3901-4c16-a18d-dd6c6e60c2b6","ios":"levelo://app?vid=6b47b7fa-3901-4c16-a18d-dd6c6e60c2b6"},"vehicle_type_id":"4","last_reported":1743754415,"current_range_meters":7200,"station_id":"ce4bhmp2rcd13ifvqgog","pricing_plan_id":"cebpf4jnsgd1na2vs0mg"},{"bike_id":"5eeb5e50-0db0-41c6-afc4-e17fd1bc146e","system_id":"levelo_inurba_marseille","lat":43.31492,"lon":5.37249,"is_reserved":false,"is_disabled":false,"rental_uris":{"android":"levelo://app?vid=5eeb5e50-0db0-41c6-afc4-e17fd1bc146e","ios":"levelo://app?vid=5eeb5e50-0db0-41c6-afc4-e17fd1bc146e"},"vehicle_type_id":"4","last_reported":1743754415,"current_range_meters":7200,"station_id":"ce4bgt12rcd13ifvqcd0","pricing_plan_id":"cebpf4jnsgd1na2vs0mg"},{"bike_id":"809ab426-da69-405a-9ff2-30b58e1aceb6","system_id":"levelo_inurba_marseille","lat":43.2998,"lon":5.38729,"is_reserved":false,"is_disabled":false,"rental_uris":{"android":"levelo://app?vid=809ab426-da69-405a-9ff2-30b58e1aceb6","ios":"levelo://app?vid=809ab426-da69-405a-9ff2-30b58e1aceb6"},"vehicle_type_id":"4","last_reported":1743754415,"current_range_meters":7200,"station_id":"","pricing_plan_id":"cebpf4jnsgd1na2vs0mg"},{"bike_id":"abbadd4b-9448-44da-801d-66456e6b2a4e","system_id":"levelo_inurba_marseille","lat":43.28614,"lon":5.35103,"is_reserved":false,"is_disabled":true,"rental_uris":{"android":"levelo://app?vid=abbadd4b-9448-44da-801d-66456e6b2a4e","ios":"levelo://app?vid=abbadd4b-9448-44da-801d-66456e6b2a4e"},"vehicle_type_id":"4","last_reported":1743754415,"current_range_meters":7200,"station_id":"ce4bhch2rcd13ifvqeug","pricing_plan_id":"cebpf4jnsgd1na2vs0mg"},{"bike_id":"835ba050-c4e1-4478-9730-4d0cf0157070","system_id":"levelo_inurba_marseille","lat":43.27481,"lon":5.42458,"is_reserved":false,"is_disabled":false,"rental_uris":{"android":"levelo://app?vid=835ba050-c4e1-4478-9730-4d0cf0157070","ios":"levelo://app?vid=835ba050-c4e1-4478-9730-4d0cf0157070"},"vehicle_type_id":"4","last_reported":1743754415,"current_range_meters":7200,"station_id":"ce4bhn92rcd13ifvqgrg","pricing_plan_id":"cebpf4jnsgd1na2vs0mg"},{"bike_id":"6997e810-3f4c-46f4-a539-996e89fe73bb","system_id":"levelo_inurba_marseille","lat":43.28153,"lon":5.42645,"is_reserved":false,"is_disabled":false,"rental_uris":{"android":"levelo://app?vid=6997e810-3f4c-46f4-a539-996e89fe73bb","ios":"levelo://app?vid=6997e810-3f4c-46f4-a539-996e89fe73bb"},"vehicle_type_id":"4","last_reported":1743754415,"current_range_meters":7200,"station_id":"ce4bhnh2rcd13ifvqgug","pricing_plan_id":"cebpf4jnsgd1na2vs0mg"},{"bike_id":"c13336a2-47ce-488c-b5b6-77c01a3ac1d1","system_id":"levelo_inurba_marseille","lat":43.3191,"lon":5.40706,"is_reserved":false,"is_disabled":true,"rental_uris":{"android":"levelo://app?vid=c13336a2-47ce-488c-b5b6-77c01a3ac1d1","ios":"levelo://app?vid=c13336a2-47ce-488c-b5b6-77c01a3ac1d1"},"vehicle_type_id":"4","last_reported":1743754415,"current_range_meters":7200,"station_id":"ce4bhq12rcd13ifvqhig","pricing_plan_id":"cebpf4jnsgd1na2vs0mg"},{"bike_id":"446e803b-ba2a-4c33-8c33-6c261ff323ca","system_id":"levelo_inurba_marseille","lat":43.24082,"lon":5.37747,"is_reserved":false,"is_disabled":false,"rental_uris":{"android":"levelo://app?vid=446e803b-ba2a-4c33-8c33-6c261ff323ca","ios":"levelo://app?vid=446e803b-ba2a-4c33-8c33-6c261ff323ca"},"vehicle_type_id":"4","last_reported":1743754415,"current_range_meters":7200,"station_id":"ce4bhnp2rcd13ifvqgvg","pricing_plan_id":"cebpf4jnsgd1na2vs0mg"},{"bike_id":"84c459ae-aa5b-4897-8679-f3a065b3d39a","system_id":"levelo_inurba_marseille","lat":43.27196,"lon":5.3919,"is_reserved":false,"is_disabled":false,"rental_uris":{"android":"levelo://app?vid=84c459ae-aa5b-4897-8679-f3a065b3d39a","ios":"levelo://app?vid=84c459ae-aa5b-4897-8679-f3a065b3d39a"},"vehicle_type_id":"4","last_reported":1743754415,"current_range_meters":7200,"station_id":"ce4bhhp2rcd13ifvqfm0","pricing_plan_id":"cebpf4jnsgd1na2vs0mg"},{"bike_id":"8d7eab5b-bc43-48f5-9c97-0948b42ca6cf","system_id":"levelo_inurba_marseille","lat":43.22929,"lon":5.35421,"is_reserved":false,"is_disabled":false,"rental_uris":{"android":"levelo://app?vid=8d7eab5b-bc43-48f5-9c97-0948b42ca6cf","ios":"levelo://app?vid=8d7eab5b-bc43-48f5-9c97-0948b42ca6cf"},"vehicle_type_id":"4","last_reported":1743754415,"current_range_meters":7200,"station_id":"cpo3532slgdg3j2ikp40","pricing_plan_id":"cebpf4jnsgd1na2vs0mg"},{"bike_id":"73d854ad-9eb6-4d68-8878-e9b2295ae65a","system_id":"levelo_inurba_marseille","lat":43.23067,"lon":5.35493,"is_reserved":false,"is_disabled":false,"rental_uris":{"android":"levelo://app?vid=73d854ad-9eb6-4d68-8878-e9b2295ae65a","ios":"levelo://app?vid=73d854ad-9eb6-4d68-8878-e9b2295ae65a"},"vehicle_type_id":"4","last_reported":1743754415,"current_range_meters":8000,"station_id":"cpo3342slgdg3j2ifvpg","pricing_plan_id":"cebpf4jnsgd1na2vs0mg"},{"bike_id":"9f46d7ae-6782-46f5-94a3-4d6487131983","system_id":"levelo_inurba_marseille","lat":43.300938,"lon":5.390894,"is_reserved":false,"is_disabled":false,"rental_uris":{"android":"levelo://app?vid=9f46d7ae-6782-46f5-94a3-4d6487131983","ios":"levelo://app?vid=9f46d7ae-6782-46f5-94a3-4d6487131983"},"vehicle_type_id":"4","last_reported":1743754415,"current_range_meters":8000,"station_id":"ce4bh192rcd13ifvqdb0","pricing_plan_id":"cebpf4jnsgd1na2vs0mg"},{"bike_id":"b2fe3062-6f99-485a-a5ab-06b091755bb3","system_id":"levelo_inurba_marseille","lat":43.23194,"lon":5.35556,"is_reserved":false,"is_disabled":false,"rental_uris":{"android":"levelo://app?vid=b2fe3062-6f99-485a-a5ab-06b091755bb3","ios":"levelo://app?vid=b2fe3062-6f99-485a-a5ab-06b091755bb3"},"vehicle_type_id":"4","last_reported":1743754415,"current_range_meters":8000,"station_id":"ce4bhu92rcd13ifvqi70","pricing_plan_id":"cebpf4jnsgd1na2vs0mg"},{"bike_id":"d2c003fc-36f2-4b47-afc6-5a9083f2a58a","system_id":"levelo_inurba_marseille","lat":43.26033,"lon":5.37549,"is_reserved":false,"is_disabled":false,"rental_uris":{"android":"levelo://app?vid=d2c003fc-36f2-4b47-afc6-5a9083f2a58a","ios":"levelo://app?vid=d2c003fc-36f2-4b47-afc6-5a9083f2a58a"},"vehicle_type_id":"4","last_reported":1743754415,"current_range_meters":8000,"station_id":"ce4bhgh2rcd13ifvqfa0","pricing_plan_id":"cebpf4jnsgd1na2vs0mg"},{"bike_id":"c5f5937c-b4a1-4754-972e-eff86c7cff26","system_id":"levelo_inurba_marseille","lat":43.311,"lon":5.37779,"is_reserved":false,"is_disabled":false,"rental_uris":{"android":"levelo://app?vid=c5f5937c-b4a1-4754-972e-eff86c7cff26","ios":"levelo://app?vid=c5f5937c-b4a1-4754-972e-eff86c7cff26"},"vehicle_type_id":"4","last_reported":1743754415,"current_range_meters":8000,"station_id":"ce4bgt92rcd13ifvqcg0","pricing_plan_id":"cebpf4jnsgd1na2vs0mg"},{"bike_id":"57291bbb-6580-4b9c-91ec-3202a0b1012f","system_id":"levelo_inurba_marseille","lat":43.33611,"lon":5.41031,"is_reserved":false,"is_disabled":false,"rental_uris":{"android":"levelo://app?vid=57291bbb-6580-4b9c-91ec-3202a0b1012f","ios":"levelo://app?vid=57291bbb-6580-4b9c-91ec-3202a0b1012f"},"vehicle_type_id":"4","last_reported":1743754415,"current_range_meters":8000,"station_id":"ce4bhqh2rcd13ifvqhmg","pricing_plan_id":"cebpf4jnsgd1na2vs0mg"},{"bike_id":"b4cb4e28-e514-44da-9db3-2c7d453900ef","system_id":"levelo_inurba_marseille","lat":43.28154,"lon":5.42681,"is_reserved":false,"is_disabled":false,"rental_uris":{"android":"levelo://app?vid=b4cb4e28-e514-44da-9db3-2c7d453900ef","ios":"levelo://app?vid=b4cb4e28-e514-44da-9db3-2c7d453900ef"},"vehicle_type_id":"4","last_reported":1743754415,"current_range_meters":8000,"station_id":"ce4bhnh2rcd13ifvqgug","pricing_plan_id":"cebpf4jnsgd1na2vs0mg"},{"bike_id":"73593452-6f9a-4600-be1f-8277dcf6a9f9","system_id":"levelo_inurba_marseille","lat":43.24655,"lon":5.38893,"is_reserved":false,"is_disabled":false,"rental_uris":{"android":"levelo://app?vid=73593452-6f9a-4600-be1f-8277dcf6a9f9","ios":"levelo://app?vid=73593452-6f9a-4600-be1f-8277dcf6a9f9"},"vehicle_type_id":"4","last_reported":1743754415,"current_range_meters":7200,"station_id":"ce4bhg12rcd13ifvqf60","pricing_plan_id":"cebpf4jnsgd1na2vs0mg"},{"bike_id":"b7ef7853-a7bf-439e-9af6-a24e26292122","system_id":"levelo_inurba_marseille","lat":43.28487,"lon":5.38554,"is_reserved":false,"is_disabled":false,"rental_uris":{"android":"levelo://app?vid=b7ef7853-a7bf-439e-9af6-a24e26292122","ios":"levelo://app?vid=b7ef7853-a7bf-439e-9af6-a24e26292122"},"vehicle_type_id":"4","last_reported":1743754415,"current_range_meters":8000,"station_id":"ce4bh8p2rcd13ifvqeb0","pricing_plan_id":"cebpf4jnsgd1na2vs0mg"},{"bike_id":"55a458b5-99f0-4a0e-bf15-969bb5b742d8","system_id":"levelo_inurba_marseille","lat":43.31627,"lon":5.39424,"is_reserved":false,"is_disabled":false,"rental_uris":{"android":"levelo://app?vid=55a458b5-99f0-4a0e-bf15-969bb5b742d8","ios":"levelo://app?vid=55a458b5-99f0-4a0e-bf15-969bb5b742d8"},"vehicle_type_id":"4","last_reported":1743754415,"current_range_meters":8000,"station_id":"","pricing_plan_id":"cebpf4jnsgd1na2vs0mg"},{"bike_id":"59cc0335-bc7c-4f7c-b695-a5cff05bf6b1","system_id":"levelo_inurba_marseille","lat":43.33606,"lon":5.41036,"is_reserved":false,"is_disabled":false,"rental_uris":{"android":"levelo://app?vid=59cc0335-bc7c-4f7c-b695-a5cff05bf6b1","ios":"levelo://app?vid=59cc0335-bc7c-4f7c-b695-a5cff05bf6b1"},"vehicle_type_id":"4","last_reported":1743754415,"current_range_meters":8000,"station_id":"ce4bhqh2rcd13ifvqhmg","pricing_plan_id":"cebpf4jnsgd1na2vs0mg"},{"bike_id":"4ef1f24a-cdc0-4dae-93b8-59602c159aa4","system_id":"levelo_inurba_marseille","lat":43.31806,"lon":5.37484,"is_reserved":false,"is_disabled":false,"rental_uris":{"android":"levelo://app?vid=4ef1f24a-cdc0-4dae-93b8-59602c159aa4","ios":"levelo://app?vid=4ef1f24a-cdc0-4dae-93b8-59602c159aa4"},"vehicle_type_id":"4","last_reported":1743754415,"current_range_meters":8400,"station_id":"","pricing_plan_id":"cebpf4jnsgd1na2vs0mg"},{"bike_id":"808d382b-947f-4935-9c6a-31d8f9a57cd8","system_id":"levelo_inurba_marseille","lat":43.29253,"lon":5.37622,"is_reserved":false,"is_disabled":false,"rental_uris":{"android":"levelo://app?vid=808d382b-947f-4935-9c6a-31d8f9a57cd8","ios":"levelo://app?vid=808d382b-947f-4935-9c6a-31d8f9a57cd8"},"vehicle_type_id":"4","last_reported":1743754415,"current_range_meters":8400,"station_id":"ce4bgi12rcd13ifvqb80","pricing_plan_id":"cebpf4jnsgd1na2vs0mg"},{"bike_id":"d76832c4-3604-4de9-b7a5-182f7c6e995c","system_id":"levelo_inurba_marseille","lat":43.31356,"lon":5.38511,"is_reserved":false,"is_disabled":true,"rental_uris":{"android":"levelo://app?vid=d76832c4-3604-4de9-b7a5-182f7c6e995c","ios":"levelo://app?vid=d76832c4-3604-4de9-b7a5-182f7c6e995c"},"vehicle_type_id":"4","last_reported":1743754415,"current_range_meters":8400,"station_id":"ce4bgt92rcd13ifvqcf0","pricing_plan_id":"cebpf4jnsgd1na2vs0mg"},{"bike_id":"69acddf6-1674-4a48-b247-b816dce31989","system_id":"levelo_inurba_marseille","lat":43.341419,"lon":5.409115,"is_reserved":false,"is_disabled":false,"rental_uris":{"android":"levelo://app?vid=69acddf6-1674-4a48-b247-b816dce31989","ios":"levelo://app?vid=69acddf6-1674-4a48-b247-b816dce31989"},"vehicle_type_id":"4","last_reported":1743754415,"current_range_meters":8400,"station_id":"ce4bhqh2rcd13ifvqhlg","pricing_plan_id":"cebpf4jnsgd1na2vs0mg"},{"bike_id":"d4b87664-1a5d-4007-a865-88a227083b4c","system_id":"levelo_inurba_marseille","lat":43.26782,"lon":5.39414,"is_reserved":false,"is_disabled":false,"rental_uris":{"android":"levelo://app?vid=d4b87664-1a5d-4007-a865-88a227083b4c","ios":"levelo://app?vid=d4b87664-1a5d-4007-a865-88a227083b4c"},"vehicle_type_id":"4","last_reported":1743754415,"current_range_meters":8000,"station_id":"ce4bhh12rcd13ifvqfg0","pricing_plan_id":"cebpf4jnsgd1na2vs0mg"},{"bike_id":"e3a29d38-a611-4b12-87ef-2fb8a21c41d5","system_id":"levelo_inurba_marseille","lat":43.22916,"lon":5.35374,"is_reserved":false,"is_disabled":false,"rental_uris":{"android":"levelo://app?vid=e3a29d38-a611-4b12-87ef-2fb8a21c41d5","ios":"levelo://app?vid=e3a29d38-a611-4b12-87ef-2fb8a21c41d5"},"vehicle_type_id":"4","last_reported":1743754415,"current_range_meters":8400,"station_id":"cpo3532slgdg3j2ikp40","pricing_plan_id":"cebpf4jnsgd1na2vs0mg"},{"bike_id":"efddeda7-6eb2-4c14-868d-fa0ce0b35ef3","system_id":"levelo_inurba_marseille","lat":43.31299,"lon":5.38299,"is_reserved":false,"is_disabled":false,"rental_uris":{"android":"levelo://app?vid=efddeda7-6eb2-4c14-868d-fa0ce0b35ef3","ios":"levelo://app?vid=efddeda7-6eb2-4c14-868d-fa0ce0b35ef3"},"vehicle_type_id":"4","last_reported":1743754415,"current_range_meters":8400,"station_id":"","pricing_plan_id":"cebpf4jnsgd1na2vs0mg"},{"bike_id":"0ab3b6ef-336a-4056-bd5f-1786f8b2b472","system_id":"levelo_inurba_marseille","lat":43.2656,"lon":5.39013,"is_reserved":false,"is_disabled":false,"rental_uris":{"android":"levelo://app?vid=0ab3b6ef-336a-4056-bd5f-1786f8b2b472","ios":"levelo://app?vid=0ab3b6ef-336a-4056-bd5f-1786f8b2b472"},"vehicle_type_id":"4","last_reported":1743754415,"current_range_meters":8400,"station_id":"ce4bhe12rcd13ifvqf30","pricing_plan_id":"cebpf4jnsgd1na2vs0mg"},{"bike_id":"424ee29c-6572-493b-810f-20201b6df2e3","system_id":"levelo_inurba_marseille","lat":43.27487,"lon":5.42451,"is_reserved":false,"is_disabled":false,"rental_uris":{"android":"levelo://app?vid=424ee29c-6572-493b-810f-20201b6df2e3","ios":"levelo://app?vid=424ee29c-6572-493b-810f-20201b6df2e3"},"vehicle_type_id":"4","last_reported":1743754415,"current_range_meters":8400,"station_id":"ce4bhn92rcd13ifvqgrg","pricing_plan_id":"cebpf4jnsgd1na2vs0mg"},{"bike_id":"4d021dc5-da23-461e-96b2-594066586ca8","system_id":"levelo_inurba_marseille","lat":43.27926,"lon":5.40882,"is_reserved":false,"is_disabled":false,"rental_uris":{"android":"levelo://app?vid=4d021dc5-da23-461e-96b2-594066586ca8","ios":"levelo://app?vid=4d021dc5-da23-461e-96b2-594066586ca8"},"vehicle_type_id":"4","last_reported":1743754415,"current_range_meters":8400,"station_id":"","pricing_plan_id":"cebpf4jnsgd1na2vs0mg"},{"bike_id":"b3eac9c5-b95b-4848-a104-d84634d1a70c","system_id":"levelo_inurba_marseille","lat":43.30974,"lon":5.38018,"is_reserved":false,"is_disabled":false,"rental_uris":{"android":"levelo://app?vid=b3eac9c5-b95b-4848-a104-d84634d1a70c","ios":"levelo://app?vid=b3eac9c5-b95b-4848-a104-d84634d1a70c"},"vehicle_type_id":"4","last_reported":1743754415,"current_range_meters":8400,"station_id":"","pricing_plan_id":"cebpf4jnsgd1na2vs0mg"},{"bike_id":"63c19073-a7de-46ed-a396-8639743b910e","system_id":"levelo_inurba_marseille","lat":43.23177,"lon":5.35565,"is_reserved":false,"is_disabled":false,"rental_uris":{"android":"levelo://app?vid=63c19073-a7de-46ed-a396-8639743b910e","ios":"levelo://app?vid=63c19073-a7de-46ed-a396-8639743b910e"},"vehicle_type_id":"4","last_reported":1743754415,"current_range_meters":8400,"station_id":"ce4bhu92rcd13ifvqi70","pricing_plan_id":"cebpf4jnsgd1na2vs0mg"},{"bike_id":"9e611599-fc3a-4a2f-a1ae-af0629db6ee7","system_id":"levelo_inurba_marseille","lat":43.26587,"lon":5.39044,"is_reserved":false,"is_disabled":false,"rental_uris":{"android":"levelo://app?vid=9e611599-fc3a-4a2f-a1ae-af0629db6ee7","ios":"levelo://app?vid=9e611599-fc3a-4a2f-a1ae-af0629db6ee7"},"vehicle_type_id":"4","last_reported":1743754415,"current_range_meters":8800,"station_id":"ce4bhe12rcd13ifvqf30","pricing_plan_id":"cebpf4jnsgd1na2vs0mg"},{"bike_id":"3cf22d29-90b6-4c79-a643-886bc3743ca7","system_id":"levelo_inurba_marseille","lat":43.33416,"lon":5.40072,"is_reserved":false,"is_disabled":false,"rental_uris":{"android":"levelo://app?vid=3cf22d29-90b6-4c79-a643-886bc3743ca7","ios":"levelo://app?vid=3cf22d29-90b6-4c79-a643-886bc3743ca7"},"vehicle_type_id":"4","last_reported":1743754415,"current_range_meters":8800,"station_id":"","pricing_plan_id":"cebpf4jnsgd1na2vs0mg"},{"bike_id":"abb3a774-cdd1-457e-b7b5-5b21eb1a1a36","system_id":"levelo_inurba_marseille","lat":43.31486,"lon":5.37305,"is_reserved":false,"is_disabled":false,"rental_uris":{"android":"levelo://app?vid=abb3a774-cdd1-457e-b7b5-5b21eb1a1a36","ios":"levelo://app?vid=abb3a774-cdd1-457e-b7b5-5b21eb1a1a36"},"vehicle_type_id":"4","last_reported":1743754415,"current_range_meters":8800,"station_id":"ce4bgt12rcd13ifvqcd0","pricing_plan_id":"cebpf4jnsgd1na2vs0mg"},{"bike_id":"19224d95-e048-4cbb-8884-43e0e6b3db9b","system_id":"levelo_inurba_marseille","lat":43.29868,"lon":5.39735,"is_reserved":false,"is_disabled":true,"rental_uris":{"android":"levelo://app?vid=19224d95-e048-4cbb-8884-43e0e6b3db9b","ios":"levelo://app?vid=19224d95-e048-4cbb-8884-43e0e6b3db9b"},"vehicle_type_id":"4","last_reported":1743754415,"current_range_meters":8800,"station_id":"ce4bh0h2rcd13ifvqd50","pricing_plan_id":"cebpf4jnsgd1na2vs0mg"},{"bike_id":"f7bb8436-ecd2-4874-be2e-726e23b6b5f6","system_id":"levelo_inurba_marseille","lat":43.33603,"lon":5.41029,"is_reserved":false,"is_disabled":false,"rental_uris":{"android":"levelo://app?vid=f7bb8436-ecd2-4874-be2e-726e23b6b5f6","ios":"levelo://app?vid=f7bb8436-ecd2-4874-be2e-726e23b6b5f6"},"vehicle_type_id":"4","last_reported":1743754415,"current_range_meters":8800,"station_id":"ce4bhqh2rcd13ifvqhmg","pricing_plan_id":"cebpf4jnsgd1na2vs0mg"},{"bike_id":"77e1cca1-9afa-4062-8d36-bac30c3b0ae7","system_id":"levelo_inurba_marseille","lat":43.323586,"lon":5.367544,"is_reserved":false,"is_disabled":false,"rental_uris":{"android":"levelo://app?vid=77e1cca1-9afa-4062-8d36-bac30c3b0ae7","ios":"levelo://app?vid=77e1cca1-9afa-4062-8d36-bac30c3b0ae7"},"vehicle_type_id":"4","last_reported":1743754415,"current_range_meters":9200,"station_id":"ce4bhsh2rcd13ifvqi2g","pricing_plan_id":"cebpf4jnsgd1na2vs0mg"},{"bike_id":"63139285-137c-4e8d-8e95-6c2a275f8333","system_id":"levelo_inurba_marseille","lat":43.321123,"lon":5.367933,"is_reserved":false,"is_disabled":false,"rental_uris":{"android":"levelo://app?vid=63139285-137c-4e8d-8e95-6c2a275f8333","ios":"levelo://app?vid=63139285-137c-4e8d-8e95-6c2a275f8333"},"vehicle_type_id":"4","last_reported":1743754415,"current_range_meters":9200,"station_id":"ce4bhrh2rcd13ifvqhug","pricing_plan_id":"cebpf4jnsgd1na2vs0mg"},{"bike_id":"0e54924c-c421-47dc-a19b-78867bf9bea0","system_id":"levelo_inurba_marseille","lat":43.30373,"lon":5.42485,"is_reserved":false,"is_disabled":false,"rental_uris":{"android":"levelo://app?vid=0e54924c-c421-47dc-a19b-78867bf9bea0","ios":"levelo://app?vid=0e54924c-c421-47dc-a19b-78867bf9bea0"},"vehicle_type_id":"4","last_reported":1743754415,"current_range_meters":9200,"station_id":"ce4bhoh2rcd13ifvqh6g","pricing_plan_id":"cebpf4jnsgd1na2vs0mg"},{"bike_id":"5f46717b-05d1-4f34-a220-8087932d755b","system_id":"levelo_inurba_marseille","lat":43.30116,"lon":5.36961,"is_reserved":false,"is_disabled":false,"rental_uris":{"android":"levelo://app?vid=5f46717b-05d1-4f34-a220-8087932d755b","ios":"levelo://app?vid=5f46717b-05d1-4f34-a220-8087932d755b"},"vehicle_type_id":"4","last_reported":1743754415,"current_range_meters":9200,"station_id":"","pricing_plan_id":"cebpf4jnsgd1na2vs0mg"},{"bike_id":"40b1a489-3550-4c62-b43f-1d634f10d2cf","system_id":"levelo_inurba_marseille","lat":43.27481,"lon":5.42475,"is_reserved":false,"is_disabled":false,"rental_uris":{"android":"levelo://app?vid=40b1a489-3550-4c62-b43f-1d634f10d2cf","ios":"levelo://app?vid=40b1a489-3550-4c62-b43f-1d634f10d2cf"},"vehicle_type_id":"4","last_reported":1743754415,"current_range_meters":9600,"station_id":"ce4bhn92rcd13ifvqgrg","pricing_plan_id":"cebpf4jnsgd1na2vs0mg"},{"bike_id":"433f021f-d390-46a8-8bff-f5d45dc61da5","system_id":"levelo_inurba_marseille","lat":43.29603,"lon":5.38096,"is_reserved":false,"is_disabled":false,"rental_uris":{"android":"levelo://app?vid=433f021f-d390-46a8-8bff-f5d45dc61da5","ios":"levelo://app?vid=433f021f-d390-46a8-8bff-f5d45dc61da5"},"vehicle_type_id":"4","last_reported":1743754415,"current_range_meters":9200,"station_id":"ce4bgl12rcd13ifvqbo0","pricing_plan_id":"cebpf4jnsgd1na2vs0mg"},{"bike_id":"69c0db05-6ded-4dc6-9720-2452c83c1020","system_id":"levelo_inurba_marseille","lat":43.22943,"lon":5.35397,"is_reserved":false,"is_disabled":false,"rental_uris":{"android":"levelo://app?vid=69c0db05-6ded-4dc6-9720-2452c83c1020","ios":"levelo://app?vid=69c0db05-6ded-4dc6-9720-2452c83c1020"},"vehicle_type_id":"4","last_reported":1743754415,"current_range_meters":9600,"station_id":"cpo3532slgdg3j2ikp40","pricing_plan_id":"cebpf4jnsgd1na2vs0mg"},{"bike_id":"f259431a-e985-4bd4-9468-aeef8a8469e4","system_id":"levelo_inurba_marseille","lat":43.30462,"lon":5.37909,"is_reserved":false,"is_disabled":false,"rental_uris":{"android":"levelo://app?vid=f259431a-e985-4bd4-9468-aeef8a8469e4","ios":"levelo://app?vid=f259431a-e985-4bd4-9468-aeef8a8469e4"},"vehicle_type_id":"4","last_reported":1743754415,"current_range_meters":10000,"station_id":"ce4bgup2rcd13ifvqcn0","pricing_plan_id":"cebpf4jnsgd1na2vs0mg"},{"bike_id":"3a0b0f90-790c-4160-b50c-b4d5547d0490","system_id":"levelo_inurba_marseille","lat":43.30359,"lon":5.42494,"is_reserved":false,"is_disabled":false,"rental_uris":{"android":"levelo://app?vid=3a0b0f90-790c-4160-b50c-b4d5547d0490","ios":"levelo://app?vid=3a0b0f90-790c-4160-b50c-b4d5547d0490"},"vehicle_type_id":"4","last_reported":1743754415,"current_range_meters":10800,"station_id":"ce4bhoh2rcd13ifvqh6g","pricing_plan_id":"cebpf4jnsgd1na2vs0mg"},{"bike_id":"cf65ed8c-317d-4d5b-9505-8d0b999d79c8","system_id":"levelo_inurba_marseille","lat":43.27488,"lon":5.4245,"is_reserved":false,"is_disabled":false,"rental_uris":{"android":"levelo://app?vid=cf65ed8c-317d-4d5b-9505-8d0b999d79c8","ios":"levelo://app?vid=cf65ed8c-317d-4d5b-9505-8d0b999d79c8"},"vehicle_type_id":"4","last_reported":1743754415,"current_range_meters":10800,"station_id":"ce4bhn92rcd13ifvqgrg","pricing_plan_id":"cebpf4jnsgd1na2vs0mg"},{"bike_id":"5369890d-f541-4d50-ab81-81b5025f23f5","system_id":"levelo_inurba_marseille","lat":43.29378,"lon":5.37826,"is_reserved":false,"is_disabled":false,"rental_uris":{"android":"levelo://app?vid=5369890d-f541-4d50-ab81-81b5025f23f5","ios":"levelo://app?vid=5369890d-f541-4d50-ab81-81b5025f23f5"},"vehicle_type_id":"4","last_reported":1743754415,"current_range_meters":10000,"station_id":"ce4bgjh2rcd13ifvqbf0","pricing_plan_id":"cebpf4jnsgd1na2vs0mg"},{"bike_id":"cb02cba4-8859-4243-b700-40407cf9d104","system_id":"levelo_inurba_marseille","lat":43.29277,"lon":5.36855,"is_reserved":false,"is_disabled":false,"rental_uris":{"android":"levelo://app?vid=cb02cba4-8859-4243-b700-40407cf9d104","ios":"levelo://app?vid=cb02cba4-8859-4243-b700-40407cf9d104"},"vehicle_type_id":"4","last_reported":1743754415,"current_range_meters":10800,"station_id":"ce4bhbp2rcd13ifvqesg","pricing_plan_id":"cebpf4jnsgd1na2vs0mg"},{"bike_id":"64cd3283-8a55-4240-818a-8735273cc3b9","system_id":"levelo_inurba_marseille","lat":43.26672,"lon":5.3825,"is_reserved":false,"is_disabled":false,"rental_uris":{"android":"levelo://app?vid=64cd3283-8a55-4240-818a-8735273cc3b9","ios":"levelo://app?vid=64cd3283-8a55-4240-818a-8735273cc3b9"},"vehicle_type_id":"4","last_reported":1743754415,"current_range_meters":10800,"station_id":"ce4bhg92rcd13ifvqf90","pricing_plan_id":"cebpf4jnsgd1na2vs0mg"},{"bike_id":"758c2355-846a-4f3d-bcd8-eac4b3145cd6","system_id":"levelo_inurba_marseille","lat":43.23216,"lon":5.35558,"is_reserved":false,"is_disabled":false,"rental_uris":{"android":"levelo://app?vid=758c2355-846a-4f3d-bcd8-eac4b3145cd6","ios":"levelo://app?vid=758c2355-846a-4f3d-bcd8-eac4b3145cd6"},"vehicle_type_id":"4","last_reported":1743754415,"current_range_meters":10800,"station_id":"ce4bhu92rcd13ifvqi70","pricing_plan_id":"cebpf4jnsgd1na2vs0mg"},{"bike_id":"ed034283-1492-4da7-9409-35bdead80f30","system_id":"levelo_inurba_marseille","lat":43.30136,"lon":5.38777,"is_reserved":false,"is_disabled":true,"rental_uris":{"android":"levelo://app?vid=ed034283-1492-4da7-9409-35bdead80f30","ios":"levelo://app?vid=ed034283-1492-4da7-9409-35bdead80f30"},"vehicle_type_id":"4","last_reported":1743754415,"current_range_meters":10800,"station_id":"ce4bghh2rcd13ifvqb60","pricing_plan_id":"cebpf4jnsgd1na2vs0mg"},{"bike_id":"873c31b7-1ed3-4551-9039-d8861202b6bf","system_id":"levelo_inurba_marseille","lat":43.30132,"lon":5.37422,"is_reserved":false,"is_disabled":false,"rental_uris":{"android":"levelo://app?vid=873c31b7-1ed3-4551-9039-d8861202b6bf","ios":"levelo://app?vid=873c31b7-1ed3-4551-9039-d8861202b6bf"},"vehicle_type_id":"4","last_reported":1743754415,"current_range_meters":10800,"station_id":"ce4bgs92rcd13ifvqcc0","pricing_plan_id":"cebpf4jnsgd1na2vs0mg"},{"bike_id":"f1e5f20d-e5bb-4349-9a72-f7ab8a004414","system_id":"levelo_inurba_marseille","lat":43.30345,"lon":5.40454,"is_reserved":false,"is_disabled":true,"rental_uris":{"android":"levelo://app?vid=f1e5f20d-e5bb-4349-9a72-f7ab8a004414","ios":"levelo://app?vid=f1e5f20d-e5bb-4349-9a72-f7ab8a004414"},"vehicle_type_id":"4","last_reported":1743754415,"current_range_meters":10800,"station_id":"ce4bh012rcd13ifvqd10","pricing_plan_id":"cebpf4jnsgd1na2vs0mg"},{"bike_id":"74a13a18-430a-4f50-ba26-e7dfbad23482","system_id":"levelo_inurba_marseille","lat":43.23091,"lon":5.3548,"is_reserved":false,"is_disabled":false,"rental_uris":{"android":"levelo://app?vid=74a13a18-430a-4f50-ba26-e7dfbad23482","ios":"levelo://app?vid=74a13a18-430a-4f50-ba26-e7dfbad23482"},"vehicle_type_id":"4","last_reported":1743754415,"current_range_meters":10800,"station_id":"cpo3342slgdg3j2ifvpg","pricing_plan_id":"cebpf4jnsgd1na2vs0mg"},{"bike_id":"9396f31d-e485-4f45-a818-9888089b5bb6","system_id":"levelo_inurba_marseille","lat":43.23207,"lon":5.35558,"is_reserved":false,"is_disabled":false,"rental_uris":{"android":"levelo://app?vid=9396f31d-e485-4f45-a818-9888089b5bb6","ios":"levelo://app?vid=9396f31d-e485-4f45-a818-9888089b5bb6"},"vehicle_type_id":"4","last_reported":1743754415,"current_range_meters":10800,"station_id":"ce4bhu92rcd13ifvqi70","pricing_plan_id":"cebpf4jnsgd1na2vs0mg"},{"bike_id":"386f038a-a86c-4c6a-bf90-638d2a627842","system_id":"levelo_inurba_marseille","lat":43.3248,"lon":5.3656,"is_reserved":false,"is_disabled":false,"rental_uris":{"android":"levelo://app?vid=386f038a-a86c-4c6a-bf90-638d2a627842","ios":"levelo://app?vid=386f038a-a86c-4c6a-bf90-638d2a627842"},"vehicle_type_id":"4","last_reported":1743754415,"current_range_meters":11200,"station_id":"ce4bhs12rcd13ifvqhvg","pricing_plan_id":"cebpf4jnsgd1na2vs0mg"},{"bike_id":"db0256d2-a97e-4d03-a221-6da31de51188","system_id":"levelo_inurba_marseille","lat":43.303345,"lon":5.397369,"is_reserved":false,"is_disabled":false,"rental_uris":{"android":"levelo://app?vid=db0256d2-a97e-4d03-a221-6da31de51188","ios":"levelo://app?vid=db0256d2-a97e-4d03-a221-6da31de51188"},"vehicle_type_id":"4","last_reported":1743754415,"current_range_meters":10800,"station_id":"ce4bh0h2rcd13ifvqd50","pricing_plan_id":"cebpf4jnsgd1na2vs0mg"},{"bike_id":"66320bc1-008b-48fe-b35a-1ba41c7b488a","system_id":"levelo_inurba_marseille","lat":43.30545,"lon":5.36559,"is_reserved":false,"is_disabled":false,"rental_uris":{"android":"levelo://app?vid=66320bc1-008b-48fe-b35a-1ba41c7b488a","ios":"levelo://app?vid=66320bc1-008b-48fe-b35a-1ba41c7b488a"},"vehicle_type_id":"4","last_reported":1743754415,"current_range_meters":11200,"station_id":"ce4bgs12rcd13ifvqcag","pricing_plan_id":"cebpf4jnsgd1na2vs0mg"},{"bike_id":"8cd9aa00-57df-4021-beff-76b2ed7b3886","system_id":"levelo_inurba_marseille","lat":43.24077,"lon":5.37757,"is_reserved":false,"is_disabled":false,"rental_uris":{"android":"levelo://app?vid=8cd9aa00-57df-4021-beff-76b2ed7b3886","ios":"levelo://app?vid=8cd9aa00-57df-4021-beff-76b2ed7b3886"},"vehicle_type_id":"4","last_reported":1743754415,"current_range_meters":11200,"station_id":"ce4bhnp2rcd13ifvqgvg","pricing_plan_id":"cebpf4jnsgd1na2vs0mg"},{"bike_id":"2464a9cc-f9f7-466f-aa41-994b6fa88f32","system_id":"levelo_inurba_marseille","lat":43.30905,"lon":5.36845,"is_reserved":false,"is_disabled":false,"rental_uris":{"android":"levelo://app?vid=2464a9cc-f9f7-466f-aa41-994b6fa88f32","ios":"levelo://app?vid=2464a9cc-f9f7-466f-aa41-994b6fa88f32"},"vehicle_type_id":"4","last_reported":1743754415,"current_range_meters":11200,"station_id":"ce4bgn92rcd13ifvqbvg","pricing_plan_id":"cebpf4jnsgd1na2vs0mg"},{"bike_id":"c0b6e6ac-ed70-43f7-b18c-bce8f2821649","system_id":"levelo_inurba_marseille","lat":43.29626,"lon":5.37727,"is_reserved":false,"is_disabled":false,"rental_uris":{"android":"levelo://app?vid=c0b6e6ac-ed70-43f7-b18c-bce8f2821649","ios":"levelo://app?vid=c0b6e6ac-ed70-43f7-b18c-bce8f2821649"},"vehicle_type_id":"4","last_reported":1743754415,"current_range_meters":11200,"station_id":"ce4bgi92rcd13ifvqb90","pricing_plan_id":"cebpf4jnsgd1na2vs0mg"},{"bike_id":"9a7a874d-82cf-47b8-a025-c585a2e47e19","system_id":"levelo_inurba_marseille","lat":43.28354,"lon":5.38108,"is_reserved":false,"is_disabled":false,"rental_uris":{"android":"levelo://app?vid=9a7a874d-82cf-47b8-a025-c585a2e47e19","ios":"levelo://app?vid=9a7a874d-82cf-47b8-a025-c585a2e47e19"},"vehicle_type_id":"4","last_reported":1743754415,"current_range_meters":10800,"station_id":"ce4bh412rcd13ifvqdr0","pricing_plan_id":"cebpf4jnsgd1na2vs0mg"},{"bike_id":"a5767c78-124d-4df5-9a34-444b742cb735","system_id":"levelo_inurba_marseille","lat":43.241829,"lon":5.39726,"is_reserved":false,"is_disabled":false,"rental_uris":{"android":"levelo://app?vid=a5767c78-124d-4df5-9a34-444b742cb735","ios":"levelo://app?vid=a5767c78-124d-4df5-9a34-444b742cb735"},"vehicle_type_id":"4","last_reported":1743754415,"current_range_meters":11200,"station_id":"ce4bhn12rcd13ifvqgpg","pricing_plan_id":"cebpf4jnsgd1na2vs0mg"},{"bike_id":"fb348b09-6abb-47a4-a266-91f2eeaee291","system_id":"levelo_inurba_marseille","lat":43.32102,"lon":5.36787,"is_reserved":false,"is_disabled":false,"rental_uris":{"android":"levelo://app?vid=fb348b09-6abb-47a4-a266-91f2eeaee291","ios":"levelo://app?vid=fb348b09-6abb-47a4-a266-91f2eeaee291"},"vehicle_type_id":"4","last_reported":1743754415,"current_range_meters":11600,"station_id":"ce4bhrh2rcd13ifvqhug","pricing_plan_id":"cebpf4jnsgd1na2vs0mg"},{"bike_id":"9d2e5acf-5c57-4136-b4b1-d8a7474fb9a6","system_id":"levelo_inurba_marseille","lat":43.28101,"lon":5.37821,"is_reserved":false,"is_disabled":false,"rental_uris":{"android":"levelo://app?vid=9d2e5acf-5c57-4136-b4b1-d8a7474fb9a6","ios":"levelo://app?vid=9d2e5acf-5c57-4136-b4b1-d8a7474fb9a6"},"vehicle_type_id":"4","last_reported":1743754415,"current_range_meters":11600,"station_id":"ce4bha12rcd13ifvqee0","pricing_plan_id":"cebpf4jnsgd1na2vs0mg"},{"bike_id":"b2d4bc21-8d52-4625-8436-dc5dc4dc8096","system_id":"levelo_inurba_marseille","lat":43.29261,"lon":5.37618,"is_reserved":false,"is_disabled":false,"rental_uris":{"android":"levelo://app?vid=b2d4bc21-8d52-4625-8436-dc5dc4dc8096","ios":"levelo://app?vid=b2d4bc21-8d52-4625-8436-dc5dc4dc8096"},"vehicle_type_id":"4","last_reported":1743754415,"current_range_meters":11600,"station_id":"ce4bgi12rcd13ifvqb80","pricing_plan_id":"cebpf4jnsgd1na2vs0mg"},{"bike_id":"55ebdf25-0357-4ec1-a3b5-737d5b6b88c2","system_id":"levelo_inurba_marseille","lat":43.30553,"lon":5.36542,"is_reserved":false,"is_disabled":false,"rental_uris":{"android":"levelo://app?vid=55ebdf25-0357-4ec1-a3b5-737d5b6b88c2","ios":"levelo://app?vid=55ebdf25-0357-4ec1-a3b5-737d5b6b88c2"},"vehicle_type_id":"4","last_reported":1743754415,"current_range_meters":11600,"station_id":"ce4bgs12rcd13ifvqcag","pricing_plan_id":"cebpf4jnsgd1na2vs0mg"},{"bike_id":"7b602871-0a68-47e6-b31b-78235f3c21af","system_id":"levelo_inurba_marseille","lat":43.30955,"lon":5.39055,"is_reserved":false,"is_disabled":false,"rental_uris":{"android":"levelo://app?vid=7b602871-0a68-47e6-b31b-78235f3c21af","ios":"levelo://app?vid=7b602871-0a68-47e6-b31b-78235f3c21af"},"vehicle_type_id":"4","last_reported":1743754415,"current_range_meters":12000,"station_id":"ce4bgup2rcd13ifvqco0","pricing_plan_id":"cebpf4jnsgd1na2vs0mg"},{"bike_id":"988930ae-cf6e-4cc6-a663-6be8d5a86333","system_id":"levelo_inurba_marseille","lat":43.32106,"lon":5.36799,"is_reserved":false,"is_disabled":true,"rental_uris":{"android":"levelo://app?vid=988930ae-cf6e-4cc6-a663-6be8d5a86333","ios":"levelo://app?vid=988930ae-cf6e-4cc6-a663-6be8d5a86333"},"vehicle_type_id":"4","last_reported":1743754415,"current_range_meters":12000,"station_id":"ce4bhrh2rcd13ifvqhug","pricing_plan_id":"cebpf4jnsgd1na2vs0mg"},{"bike_id":"bfb11b41-82f2-4c9c-851a-97bba3e1d8be","system_id":"levelo_inurba_marseille","lat":43.28911,"lon":5.38819,"is_reserved":false,"is_disabled":true,"rental_uris":{"android":"levelo://app?vid=bfb11b41-82f2-4c9c-851a-97bba3e1d8be","ios":"levelo://app?vid=bfb11b41-82f2-4c9c-851a-97bba3e1d8be"},"vehicle_type_id":"4","last_reported":1743754415,"current_range_meters":12000,"station_id":"","pricing_plan_id":"cebpf4jnsgd1na2vs0mg"},{"bike_id":"7e4805f6-857a-459b-9314-46d42a77b951","system_id":"levelo_inurba_marseille","lat":43.29421,"lon":5.38617,"is_reserved":false,"is_disabled":false,"rental_uris":{"android":"levelo://app?vid=7e4805f6-857a-459b-9314-46d42a77b951","ios":"levelo://app?vid=7e4805f6-857a-459b-9314-46d42a77b951"},"vehicle_type_id":"4","last_reported":1743754415,"current_range_meters":11600,"station_id":"ce4bh2h2rcd13ifvqdh0","pricing_plan_id":"cebpf4jnsgd1na2vs0mg"},{"bike_id":"392f67b3-b6c6-4c2f-84da-a46eebebdf48","system_id":"levelo_inurba_marseille","lat":43.3095,"lon":5.39045,"is_reserved":false,"is_disabled":false,"rental_uris":{"android":"levelo://app?vid=392f67b3-b6c6-4c2f-84da-a46eebebdf48","ios":"levelo://app?vid=392f67b3-b6c6-4c2f-84da-a46eebebdf48"},"vehicle_type_id":"4","last_reported":1743754415,"current_range_meters":12000,"station_id":"ce4bgup2rcd13ifvqco0","pricing_plan_id":"cebpf4jnsgd1na2vs0mg"},{"bike_id":"8a8c69e9-2b0b-42a8-9467-6ea5e208d74d","system_id":"levelo_inurba_marseille","lat":43.3123,"lon":5.3686,"is_reserved":false,"is_disabled":false,"rental_uris":{"android":"levelo://app?vid=8a8c69e9-2b0b-42a8-9467-6ea5e208d74d","ios":"levelo://app?vid=8a8c69e9-2b0b-42a8-9467-6ea5e208d74d"},"vehicle_type_id":"4","last_reported":1743754415,"current_range_meters":12000,"station_id":"ce4bgl92rcd13ifvqbq0","pricing_plan_id":"cebpf4jnsgd1na2vs0mg"},{"bike_id":"405d5958-822c-449c-b757-d75c3f6fc08d","system_id":"levelo_inurba_marseille","lat":43.24391,"lon":5.3706,"is_reserved":false,"is_disabled":false,"rental_uris":{"android":"levelo://app?vid=405d5958-822c-449c-b757-d75c3f6fc08d","ios":"levelo://app?vid=405d5958-822c-449c-b757-d75c3f6fc08d"},"vehicle_type_id":"4","last_reported":1743754415,"current_range_meters":12000,"station_id":"ce4bhhh2rcd13ifvqfk0","pricing_plan_id":"cebpf4jnsgd1na2vs0mg"},{"bike_id":"d90a6df2-01d7-4c51-b3d8-369495ab9875","system_id":"levelo_inurba_marseille","lat":43.30595,"lon":5.39339,"is_reserved":false,"is_disabled":false,"rental_uris":{"android":"levelo://app?vid=d90a6df2-01d7-4c51-b3d8-369495ab9875","ios":"levelo://app?vid=d90a6df2-01d7-4c51-b3d8-369495ab9875"},"vehicle_type_id":"4","last_reported":1743754415,"current_range_meters":12400,"station_id":"ce4bh0p2rcd13ifvqd80","pricing_plan_id":"cebpf4jnsgd1na2vs0mg"},{"bike_id":"1b07f5d0-df62-4495-a42c-4a12cca8ef22","system_id":"levelo_inurba_marseille","lat":43.30234,"lon":5.40044,"is_reserved":false,"is_disabled":true,"rental_uris":{"android":"levelo://app?vid=1b07f5d0-df62-4495-a42c-4a12cca8ef22","ios":"levelo://app?vid=1b07f5d0-df62-4495-a42c-4a12cca8ef22"},"vehicle_type_id":"4","last_reported":1743754415,"current_range_meters":12400,"station_id":"ce4bgvh2rcd13ifvqcs0","pricing_plan_id":"cebpf4jnsgd1na2vs0mg"},{"bike_id":"46e40aa5-72ae-444f-9358-a676d369a477","system_id":"levelo_inurba_marseille","lat":43.33005,"lon":5.43808,"is_reserved":false,"is_disabled":false,"rental_uris":{"android":"levelo://app?vid=46e40aa5-72ae-444f-9358-a676d369a477","ios":"levelo://app?vid=46e40aa5-72ae-444f-9358-a676d369a477"},"vehicle_type_id":"4","last_reported":1743754415,"current_range_meters":12400,"station_id":"","pricing_plan_id":"cebpf4jnsgd1na2vs0mg"},{"bike_id":"aedc5b1f-732b-487a-b512-4b2f211caf36","system_id":"levelo_inurba_marseille","lat":43.26676,"lon":5.38298,"is_reserved":false,"is_disabled":true,"rental_uris":{"android":"levelo://app?vid=aedc5b1f-732b-487a-b512-4b2f211caf36","ios":"levelo://app?vid=aedc5b1f-732b-487a-b512-4b2f211caf36"},"vehicle_type_id":"4","last_reported":1743754415,"current_range_meters":12400,"station_id":"ce4bhg92rcd13ifvqf90","pricing_plan_id":"cebpf4jnsgd1na2vs0mg"},{"bike_id":"c6f4d592-cd67-4536-ac34-585a4a6a050a","system_id":"levelo_inurba_marseille","lat":43.274933,"lon":5.424563,"is_reserved":false,"is_disabled":false,"rental_uris":{"android":"levelo://app?vid=c6f4d592-cd67-4536-ac34-585a4a6a050a","ios":"levelo://app?vid=c6f4d592-cd67-4536-ac34-585a4a6a050a"},"vehicle_type_id":"4","last_reported":1743754415,"current_range_meters":12400,"station_id":"ce4bhn92rcd13ifvqgrg","pricing_plan_id":"cebpf4jnsgd1na2vs0mg"},{"bike_id":"2a877350-b835-4223-9491-4ace09844217","system_id":"levelo_inurba_marseille","lat":43.23145,"lon":5.43722,"is_reserved":false,"is_disabled":false,"rental_uris":{"android":"levelo://app?vid=2a877350-b835-4223-9491-4ace09844217","ios":"levelo://app?vid=2a877350-b835-4223-9491-4ace09844217"},"vehicle_type_id":"4","last_reported":1743754415,"current_range_meters":12400,"station_id":"ce4bhmp2rcd13ifvqgog","pricing_plan_id":"cebpf4jnsgd1na2vs0mg"},{"bike_id":"f062b518-da70-4819-ba8a-ddaf33cb4821","system_id":"levelo_inurba_marseille","lat":43.28475,"lon":5.35882,"is_reserved":false,"is_disabled":false,"rental_uris":{"android":"levelo://app?vid=f062b518-da70-4819-ba8a-ddaf33cb4821","ios":"levelo://app?vid=f062b518-da70-4819-ba8a-ddaf33cb4821"},"vehicle_type_id":"4","last_reported":1743754415,"current_range_meters":12400,"station_id":"","pricing_plan_id":"cebpf4jnsgd1na2vs0mg"},{"bike_id":"66a078d0-f110-4e76-b508-93197b7850b1","system_id":"levelo_inurba_marseille","lat":43.23148,"lon":5.4371,"is_reserved":false,"is_disabled":false,"rental_uris":{"android":"levelo://app?vid=66a078d0-f110-4e76-b508-93197b7850b1","ios":"levelo://app?vid=66a078d0-f110-4e76-b508-93197b7850b1"},"vehicle_type_id":"4","last_reported":1743754415,"current_range_meters":12400,"station_id":"ce4bhmp2rcd13ifvqgog","pricing_plan_id":"cebpf4jnsgd1na2vs0mg"},{"bike_id":"4621ad45-29bf-48cb-8077-88f2e1f7279f","system_id":"levelo_inurba_marseille","lat":43.23186,"lon":5.35548,"is_reserved":false,"is_disabled":false,"rental_uris":{"android":"levelo://app?vid=4621ad45-29bf-48cb-8077-88f2e1f7279f","ios":"levelo://app?vid=4621ad45-29bf-48cb-8077-88f2e1f7279f"},"vehicle_type_id":"4","last_reported":1743754415,"current_range_meters":12800,"station_id":"ce4bhu92rcd13ifvqi70","pricing_plan_id":"cebpf4jnsgd1na2vs0mg"},{"bike_id":"a7d58268-0beb-49e5-8273-4762f58b770f","system_id":"levelo_inurba_marseille","lat":43.27485,"lon":5.42469,"is_reserved":false,"is_disabled":false,"rental_uris":{"android":"levelo://app?vid=a7d58268-0beb-49e5-8273-4762f58b770f","ios":"levelo://app?vid=a7d58268-0beb-49e5-8273-4762f58b770f"},"vehicle_type_id":"4","last_reported":1743754415,"current_range_meters":12800,"station_id":"ce4bhn92rcd13ifvqgrg","pricing_plan_id":"cebpf4jnsgd1na2vs0mg"},{"bike_id":"5a8f5ee5-69ef-4467-a713-2b1a8a882f99","system_id":"levelo_inurba_marseille","lat":43.29606,"lon":5.377,"is_reserved":false,"is_disabled":true,"rental_uris":{"android":"levelo://app?vid=5a8f5ee5-69ef-4467-a713-2b1a8a882f99","ios":"levelo://app?vid=5a8f5ee5-69ef-4467-a713-2b1a8a882f99"},"vehicle_type_id":"4","last_reported":1743754415,"current_range_meters":12800,"station_id":"ce4bgi92rcd13ifvqb90","pricing_plan_id":"cebpf4jnsgd1na2vs0mg"},{"bike_id":"98acdaf8-1429-4b55-b845-9ca13b11dcf1","system_id":"levelo_inurba_marseille","lat":43.27172,"lon":5.40995,"is_reserved":false,"is_disabled":false,"rental_uris":{"android":"levelo://app?vid=98acdaf8-1429-4b55-b845-9ca13b11dcf1","ios":"levelo://app?vid=98acdaf8-1429-4b55-b845-9ca13b11dcf1"},"vehicle_type_id":"4","last_reported":1743754415,"current_range_meters":12800,"station_id":"ce4bhl12rcd13ifvqgf0","pricing_plan_id":"cebpf4jnsgd1na2vs0mg"},{"bike_id":"8336c2e5-6021-4a8f-8e32-78361134cd8d","system_id":"levelo_inurba_marseille","lat":43.26679,"lon":5.3827,"is_reserved":false,"is_disabled":false,"rental_uris":{"android":"levelo://app?vid=8336c2e5-6021-4a8f-8e32-78361134cd8d","ios":"levelo://app?vid=8336c2e5-6021-4a8f-8e32-78361134cd8d"},"vehicle_type_id":"4","last_reported":1743754415,"current_range_meters":12800,"station_id":"ce4bhg92rcd13ifvqf90","pricing_plan_id":"cebpf4jnsgd1na2vs0mg"},{"bike_id":"fe021999-f491-4e4e-ba59-10f5fa9f56ca","system_id":"levelo_inurba_marseille","lat":43.27689,"lon":5.38892,"is_reserved":false,"is_disabled":true,"rental_uris":{"android":"levelo://app?vid=fe021999-f491-4e4e-ba59-10f5fa9f56ca","ios":"levelo://app?vid=fe021999-f491-4e4e-ba59-10f5fa9f56ca"},"vehicle_type_id":"4","last_reported":1743754415,"current_range_meters":12800,"station_id":"ce4bhi12rcd13ifvqfo0","pricing_plan_id":"cebpf4jnsgd1na2vs0mg"},{"bike_id":"0e20f154-4524-4b0b-b0b5-fbe830a9859e","system_id":"levelo_inurba_marseille","lat":43.26488,"lon":5.39544,"is_reserved":false,"is_disabled":false,"rental_uris":{"android":"levelo://app?vid=0e20f154-4524-4b0b-b0b5-fbe830a9859e","ios":"levelo://app?vid=0e20f154-4524-4b0b-b0b5-fbe830a9859e"},"vehicle_type_id":"4","last_reported":1743754415,"current_range_meters":13600,"station_id":"ce4bhi12rcd13ifvqfq0","pricing_plan_id":"cebpf4jnsgd1na2vs0mg"},{"bike_id":"f40fc4e8-cfdd-40aa-8507-3bd8857476a8","system_id":"levelo_inurba_marseille","lat":43.30239,"lon":5.40058,"is_reserved":false,"is_disabled":true,"rental_uris":{"android":"levelo://app?vid=f40fc4e8-cfdd-40aa-8507-3bd8857476a8","ios":"levelo://app?vid=f40fc4e8-cfdd-40aa-8507-3bd8857476a8"},"vehicle_type_id":"4","last_reported":1743754415,"current_range_meters":13600,"station_id":"ce4bgvh2rcd13ifvqcs0","pricing_plan_id":"cebpf4jnsgd1na2vs0mg"},{"bike_id":"c9ab5bfd-fa91-4b45-8fa2-52813c43fa45","system_id":"levelo_inurba_marseille","lat":43.23068,"lon":5.35496,"is_reserved":false,"is_disabled":false,"rental_uris":{"android":"levelo://app?vid=c9ab5bfd-fa91-4b45-8fa2-52813c43fa45","ios":"levelo://app?vid=c9ab5bfd-fa91-4b45-8fa2-52813c43fa45"},"vehicle_type_id":"4","last_reported":1743754415,"current_range_meters":13600,"station_id":"cpo3342slgdg3j2ifvpg","pricing_plan_id":"cebpf4jnsgd1na2vs0mg"},{"bike_id":"4061b211-a04c-48ea-b6e7-f9ba55f57b61","system_id":"levelo_inurba_marseille","lat":43.27211,"lon":5.39174,"is_reserved":false,"is_disabled":false,"rental_uris":{"android":"levelo://app?vid=4061b211-a04c-48ea-b6e7-f9ba55f57b61","ios":"levelo://app?vid=4061b211-a04c-48ea-b6e7-f9ba55f57b61"},"vehicle_type_id":"4","last_reported":1743754415,"current_range_meters":12800,"station_id":"ce4bhhp2rcd13ifvqfm0","pricing_plan_id":"cebpf4jnsgd1na2vs0mg"},{"bike_id":"ad24643f-1a63-49bc-b3f1-d1508dda9e4f","system_id":"levelo_inurba_marseille","lat":43.24379,"lon":5.37089,"is_reserved":false,"is_disabled":false,"rental_uris":{"android":"levelo://app?vid=ad24643f-1a63-49bc-b3f1-d1508dda9e4f","ios":"levelo://app?vid=ad24643f-1a63-49bc-b3f1-d1508dda9e4f"},"vehicle_type_id":"4","last_reported":1743754415,"current_range_meters":13600,"station_id":"ce4bhhh2rcd13ifvqfk0","pricing_plan_id":"cebpf4jnsgd1na2vs0mg"},{"bike_id":"64fdbb2b-e20c-450b-87b0-deaa705d4ef0","system_id":"levelo_inurba_marseille","lat":43.31364,"lon":5.36699,"is_reserved":false,"is_disabled":false,"rental_uris":{"android":"levelo://app?vid=64fdbb2b-e20c-450b-87b0-deaa705d4ef0","ios":"levelo://app?vid=64fdbb2b-e20c-450b-87b0-deaa705d4ef0"},"vehicle_type_id":"4","last_reported":1743754415,"current_range_meters":13600,"station_id":"ce4bgr92rcd13ifvqc6g","pricing_plan_id":"cebpf4jnsgd1na2vs0mg"},{"bike_id":"df2b21a7-d23b-4e81-8ba8-409cb58860a7","system_id":"levelo_inurba_marseille","lat":43.27946,"lon":5.41038,"is_reserved":false,"is_disabled":false,"rental_uris":{"android":"levelo://app?vid=df2b21a7-d23b-4e81-8ba8-409cb58860a7","ios":"levelo://app?vid=df2b21a7-d23b-4e81-8ba8-409cb58860a7"},"vehicle_type_id":"4","last_reported":1743754415,"current_range_meters":13600,"station_id":"ce4bhnp2rcd13ifvqh0g","pricing_plan_id":"cebpf4jnsgd1na2vs0mg"},{"bike_id":"cf017a30-2297-414b-a74a-2e08739ba01c","system_id":"levelo_inurba_marseille","lat":43.30938,"lon":5.39028,"is_reserved":false,"is_disabled":false,"rental_uris":{"android":"levelo://app?vid=cf017a30-2297-414b-a74a-2e08739ba01c","ios":"levelo://app?vid=cf017a30-2297-414b-a74a-2e08739ba01c"},"vehicle_type_id":"4","last_reported":1743754415,"current_range_meters":13600,"station_id":"ce4bgup2rcd13ifvqco0","pricing_plan_id":"cebpf4jnsgd1na2vs0mg"},{"bike_id":"4b77ab12-533c-45bf-b4cf-30e680dcb1e0","system_id":"levelo_inurba_marseille","lat":43.27191,"lon":5.39183,"is_reserved":false,"is_disabled":false,"rental_uris":{"android":"levelo://app?vid=4b77ab12-533c-45bf-b4cf-30e680dcb1e0","ios":"levelo://app?vid=4b77ab12-533c-45bf-b4cf-30e680dcb1e0"},"vehicle_type_id":"4","last_reported":1743754415,"current_range_meters":14000,"station_id":"ce4bhhp2rcd13ifvqfm0","pricing_plan_id":"cebpf4jnsgd1na2vs0mg"},{"bike_id":"ca2d9c42-0927-4fbc-b00e-5f505030cbf6","system_id":"levelo_inurba_marseille","lat":43.30134,"lon":5.37424,"is_reserved":false,"is_disabled":false,"rental_uris":{"android":"levelo://app?vid=ca2d9c42-0927-4fbc-b00e-5f505030cbf6","ios":"levelo://app?vid=ca2d9c42-0927-4fbc-b00e-5f505030cbf6"},"vehicle_type_id":"4","last_reported":1743754415,"current_range_meters":14000,"station_id":"ce4bgs92rcd13ifvqcc0","pricing_plan_id":"cebpf4jnsgd1na2vs0mg"},{"bike_id":"538954b0-bc54-45c5-9cef-16a29fd18cc8","system_id":"levelo_inurba_marseille","lat":43.25933,"lon":5.40905,"is_reserved":false,"is_disabled":false,"rental_uris":{"android":"levelo://app?vid=538954b0-bc54-45c5-9cef-16a29fd18cc8","ios":"levelo://app?vid=538954b0-bc54-45c5-9cef-16a29fd18cc8"},"vehicle_type_id":"4","last_reported":1743754415,"current_range_meters":14000,"station_id":"ce4bhm92rcd13ifvqglg","pricing_plan_id":"cebpf4jnsgd1na2vs0mg"},{"bike_id":"82c18343-d62d-45b1-b0eb-7aaaf4cb1c91","system_id":"levelo_inurba_marseille","lat":43.30096,"lon":5.39078,"is_reserved":false,"is_disabled":false,"rental_uris":{"android":"levelo://app?vid=82c18343-d62d-45b1-b0eb-7aaaf4cb1c91","ios":"levelo://app?vid=82c18343-d62d-45b1-b0eb-7aaaf4cb1c91"},"vehicle_type_id":"4","last_reported":1743754415,"current_range_meters":14000,"station_id":"ce4bh192rcd13ifvqdb0","pricing_plan_id":"cebpf4jnsgd1na2vs0mg"},{"bike_id":"b956a246-5006-4c32-9466-439b4c73e42f","system_id":"levelo_inurba_marseille","lat":43.27486,"lon":5.42488,"is_reserved":false,"is_disabled":false,"rental_uris":{"android":"levelo://app?vid=b956a246-5006-4c32-9466-439b4c73e42f","ios":"levelo://app?vid=b956a246-5006-4c32-9466-439b4c73e42f"},"vehicle_type_id":"4","last_reported":1743754415,"current_range_meters":14000,"station_id":"ce4bhn92rcd13ifvqgrg","pricing_plan_id":"cebpf4jnsgd1na2vs0mg"},{"bike_id":"7518bbf0-5e0c-4693-9826-ecfe0f23e6c5","system_id":"levelo_inurba_marseille","lat":43.30128,"lon":5.37418,"is_reserved":false,"is_disabled":false,"rental_uris":{"android":"levelo://app?vid=7518bbf0-5e0c-4693-9826-ecfe0f23e6c5","ios":"levelo://app?vid=7518bbf0-5e0c-4693-9826-ecfe0f23e6c5"},"vehicle_type_id":"4","last_reported":1743754415,"current_range_meters":14400,"station_id":"ce4bgs92rcd13ifvqcc0","pricing_plan_id":"cebpf4jnsgd1na2vs0mg"},{"bike_id":"f2c7295c-edaa-4723-b578-50b4f377b10a","system_id":"levelo_inurba_marseille","lat":43.33598,"lon":5.41026,"is_reserved":false,"is_disabled":false,"rental_uris":{"android":"levelo://app?vid=f2c7295c-edaa-4723-b578-50b4f377b10a","ios":"levelo://app?vid=f2c7295c-edaa-4723-b578-50b4f377b10a"},"vehicle_type_id":"4","last_reported":1743754415,"current_range_meters":14400,"station_id":"ce4bhqh2rcd13ifvqhmg","pricing_plan_id":"cebpf4jnsgd1na2vs0mg"},{"bike_id":"3b4ad8c6-6244-4378-90d7-dac703d1508d","system_id":"levelo_inurba_marseille","lat":43.23196,"lon":5.35575,"is_reserved":false,"is_disabled":false,"rental_uris":{"android":"levelo://app?vid=3b4ad8c6-6244-4378-90d7-dac703d1508d","ios":"levelo://app?vid=3b4ad8c6-6244-4378-90d7-dac703d1508d"},"vehicle_type_id":"4","last_reported":1743754415,"current_range_meters":14400,"station_id":"ce4bhu92rcd13ifvqi70","pricing_plan_id":"cebpf4jnsgd1na2vs0mg"},{"bike_id":"1036ccb8-28c1-4319-bb97-6f6b9f195cc5","system_id":"levelo_inurba_marseille","lat":43.30139,"lon":5.38073,"is_reserved":false,"is_disabled":false,"rental_uris":{"android":"levelo://app?vid=1036ccb8-28c1-4319-bb97-6f6b9f195cc5","ios":"levelo://app?vid=1036ccb8-28c1-4319-bb97-6f6b9f195cc5"},"vehicle_type_id":"4","last_reported":1743754415,"current_range_meters":14400,"station_id":"ce4bgjp2rcd13ifvqbh0","pricing_plan_id":"cebpf4jnsgd1na2vs0mg"},{"bike_id":"a6303451-5b45-435c-bf0e-748f94cc010d","system_id":"levelo_inurba_marseille","lat":43.23199,"lon":5.35545,"is_reserved":false,"is_disabled":false,"rental_uris":{"android":"levelo://app?vid=a6303451-5b45-435c-bf0e-748f94cc010d","ios":"levelo://app?vid=a6303451-5b45-435c-bf0e-748f94cc010d"},"vehicle_type_id":"4","last_reported":1743754415,"current_range_meters":14400,"station_id":"ce4bhu92rcd13ifvqi70","pricing_plan_id":"cebpf4jnsgd1na2vs0mg"},{"bike_id":"f3f2d5c7-c7c7-4f0a-ad22-d04730134ab9","system_id":"levelo_inurba_marseille","lat":43.30881,"lon":5.39643,"is_reserved":false,"is_disabled":true,"rental_uris":{"android":"levelo://app?vid=f3f2d5c7-c7c7-4f0a-ad22-d04730134ab9","ios":"levelo://app?vid=f3f2d5c7-c7c7-4f0a-ad22-d04730134ab9"},"vehicle_type_id":"4","last_reported":1743754415,"current_range_meters":14400,"station_id":"ce4bh012rcd13ifvqcv0","pricing_plan_id":"cebpf4jnsgd1na2vs0mg"},{"bike_id":"05d00f93-8e3a-4dda-843a-8c55f4e7abcc","system_id":"levelo_inurba_marseille","lat":43.31347,"lon":5.36666,"is_reserved":false,"is_disabled":false,"rental_uris":{"android":"levelo://app?vid=05d00f93-8e3a-4dda-843a-8c55f4e7abcc","ios":"levelo://app?vid=05d00f93-8e3a-4dda-843a-8c55f4e7abcc"},"vehicle_type_id":"4","last_reported":1743754415,"current_range_meters":14400,"station_id":"ce4bgr92rcd13ifvqc6g","pricing_plan_id":"cebpf4jnsgd1na2vs0mg"},{"bike_id":"978f00e3-47d2-481d-80c8-31e1e7283ad6","system_id":"levelo_inurba_marseille","lat":43.22924,"lon":5.35367,"is_reserved":false,"is_disabled":false,"rental_uris":{"android":"levelo://app?vid=978f00e3-47d2-481d-80c8-31e1e7283ad6","ios":"levelo://app?vid=978f00e3-47d2-481d-80c8-31e1e7283ad6"},"vehicle_type_id":"4","last_reported":1743754415,"current_range_meters":14400,"station_id":"cpo3532slgdg3j2ikp40","pricing_plan_id":"cebpf4jnsgd1na2vs0mg"},{"bike_id":"c2055a2a-1cff-4f19-a52d-9b52baeaa63f","system_id":"levelo_inurba_marseille","lat":43.31988,"lon":5.38166,"is_reserved":false,"is_disabled":true,"rental_uris":{"android":"levelo://app?vid=c2055a2a-1cff-4f19-a52d-9b52baeaa63f","ios":"levelo://app?vid=c2055a2a-1cff-4f19-a52d-9b52baeaa63f"},"vehicle_type_id":"4","last_reported":1743754415,"current_range_meters":14400,"station_id":"ce4bhr12rcd13ifvqhpg","pricing_plan_id":"cebpf4jnsgd1na2vs0mg"},{"bike_id":"d753329f-5aba-4070-ae60-284ba5c17cfe","system_id":"levelo_inurba_marseille","lat":43.29306,"lon":5.3717,"is_reserved":false,"is_disabled":false,"rental_uris":{"android":"levelo://app?vid=d753329f-5aba-4070-ae60-284ba5c17cfe","ios":"levelo://app?vid=d753329f-5aba-4070-ae60-284ba5c17cfe"},"vehicle_type_id":"4","last_reported":1743754415,"current_range_meters":14800,"station_id":"ce4bgh92rcd13ifvqb40","pricing_plan_id":"cebpf4jnsgd1na2vs0mg"},{"bike_id":"27ebc7eb-5de4-43f0-933c-44535f627bc9","system_id":"levelo_inurba_marseille","lat":43.25388,"lon":5.41856,"is_reserved":false,"is_disabled":false,"rental_uris":{"android":"levelo://app?vid=27ebc7eb-5de4-43f0-933c-44535f627bc9","ios":"levelo://app?vid=27ebc7eb-5de4-43f0-933c-44535f627bc9"},"vehicle_type_id":"4","last_reported":1743754415,"current_range_meters":15200,"station_id":"","pricing_plan_id":"cebpf4jnsgd1na2vs0mg"},{"bike_id":"0e971649-0408-4b65-a036-b992dd17429e","system_id":"levelo_inurba_marseille","lat":43.23193,"lon":5.35559,"is_reserved":false,"is_disabled":false,"rental_uris":{"android":"levelo://app?vid=0e971649-0408-4b65-a036-b992dd17429e","ios":"levelo://app?vid=0e971649-0408-4b65-a036-b992dd17429e"},"vehicle_type_id":"4","last_reported":1743754415,"current_range_meters":15200,"station_id":"ce4bhu92rcd13ifvqi70","pricing_plan_id":"cebpf4jnsgd1na2vs0mg"},{"bike_id":"0182140a-2247-43c8-9f4c-a243aeffefba","system_id":"levelo_inurba_marseille","lat":43.27495,"lon":5.42457,"is_reserved":false,"is_disabled":false,"rental_uris":{"android":"levelo://app?vid=0182140a-2247-43c8-9f4c-a243aeffefba","ios":"levelo://app?vid=0182140a-2247-43c8-9f4c-a243aeffefba"},"vehicle_type_id":"4","last_reported":1743754415,"current_range_meters":15200,"station_id":"ce4bhn92rcd13ifvqgrg","pricing_plan_id":"cebpf4jnsgd1na2vs0mg"},{"bike_id":"928eb9bb-e280-4ab8-9ceb-28a021c08faa","system_id":"levelo_inurba_marseille","lat":43.25578,"lon":5.38241,"is_reserved":false,"is_disabled":false,"rental_uris":{"android":"levelo://app?vid=928eb9bb-e280-4ab8-9ceb-28a021c08faa","ios":"levelo://app?vid=928eb9bb-e280-4ab8-9ceb-28a021c08faa"},"vehicle_type_id":"4","last_reported":1743754415,"current_range_meters":15200,"station_id":"ce4bhih2rcd13ifvqfs0","pricing_plan_id":"cebpf4jnsgd1na2vs0mg"},{"bike_id":"0eb30f16-826e-404e-9494-cbd59d704ab7","system_id":"levelo_inurba_marseille","lat":43.29023,"lon":5.38637,"is_reserved":false,"is_disabled":true,"rental_uris":{"android":"levelo://app?vid=0eb30f16-826e-404e-9494-cbd59d704ab7","ios":"levelo://app?vid=0eb30f16-826e-404e-9494-cbd59d704ab7"},"vehicle_type_id":"4","last_reported":1743754415,"current_range_meters":15200,"station_id":"ce4bh4p2rcd13ifvqe0g","pricing_plan_id":"cebpf4jnsgd1na2vs0mg"},{"bike_id":"cccce150-77a7-4565-8ca1-36858ce9e6b0","system_id":"levelo_inurba_marseille","lat":43.32122,"lon":5.36773,"is_reserved":false,"is_disabled":false,"rental_uris":{"android":"levelo://app?vid=cccce150-77a7-4565-8ca1-36858ce9e6b0","ios":"levelo://app?vid=cccce150-77a7-4565-8ca1-36858ce9e6b0"},"vehicle_type_id":"4","last_reported":1743754415,"current_range_meters":15200,"station_id":"ce4bhrh2rcd13ifvqhug","pricing_plan_id":"cebpf4jnsgd1na2vs0mg"},{"bike_id":"1d5ef6d0-a413-45b3-8100-7222d11689f2","system_id":"levelo_inurba_marseille","lat":43.2892,"lon":5.38394,"is_reserved":false,"is_disabled":true,"rental_uris":{"android":"levelo://app?vid=1d5ef6d0-a413-45b3-8100-7222d11689f2","ios":"levelo://app?vid=1d5ef6d0-a413-45b3-8100-7222d11689f2"},"vehicle_type_id":"4","last_reported":1743754415,"current_range_meters":15200,"station_id":"ce4bh612rcd13ifvqe6g","pricing_plan_id":"cebpf4jnsgd1na2vs0mg"},{"bike_id":"0244a9d7-07d8-4974-af21-df45550d20c0","system_id":"levelo_inurba_marseille","lat":43.30489,"lon":5.37876,"is_reserved":false,"is_disabled":false,"rental_uris":{"android":"levelo://app?vid=0244a9d7-07d8-4974-af21-df45550d20c0","ios":"levelo://app?vid=0244a9d7-07d8-4974-af21-df45550d20c0"},"vehicle_type_id":"4","last_reported":1743754415,"current_range_meters":16000,"station_id":"ce4bgup2rcd13ifvqcn0","pricing_plan_id":"cebpf4jnsgd1na2vs0mg"},{"bike_id":"368b8265-2179-44f5-a6dd-a88659b7d528","system_id":"levelo_inurba_marseille","lat":43.3027,"lon":5.37702,"is_reserved":false,"is_disabled":false,"rental_uris":{"android":"levelo://app?vid=368b8265-2179-44f5-a6dd-a88659b7d528","ios":"levelo://app?vid=368b8265-2179-44f5-a6dd-a88659b7d528"},"vehicle_type_id":"4","last_reported":1743754415,"current_range_meters":15200,"station_id":"ce4bguh2rcd13ifvqcj0","pricing_plan_id":"cebpf4jnsgd1na2vs0mg"},{"bike_id":"eb79d1f9-7c91-4ea2-b5f8-796189743e1a","system_id":"levelo_inurba_marseille","lat":43.337319,"lon":5.391766,"is_reserved":false,"is_disabled":false,"rental_uris":{"android":"levelo://app?vid=eb79d1f9-7c91-4ea2-b5f8-796189743e1a","ios":"levelo://app?vid=eb79d1f9-7c91-4ea2-b5f8-796189743e1a"},"vehicle_type_id":"4","last_reported":1743754415,"current_range_meters":16000,"station_id":"ce4bhr92rcd13ifvqhsg","pricing_plan_id":"cebpf4jnsgd1na2vs0mg"},{"bike_id":"d1d13155-8627-4226-a423-2fd2dca5c5f7","system_id":"levelo_inurba_marseille","lat":43.260609,"lon":5.393988,"is_reserved":false,"is_disabled":false,"rental_uris":{"android":"levelo://app?vid=d1d13155-8627-4226-a423-2fd2dca5c5f7","ios":"levelo://app?vid=d1d13155-8627-4226-a423-2fd2dca5c5f7"},"vehicle_type_id":"4","last_reported":1743754415,"current_range_meters":16000,"station_id":"ce4bhh92rcd13ifvqfj0","pricing_plan_id":"cebpf4jnsgd1na2vs0mg"},{"bike_id":"22c024d7-cd03-4420-9ef1-965ecba6e78a","system_id":"levelo_inurba_marseille","lat":43.30461,"lon":5.37907,"is_reserved":false,"is_disabled":false,"rental_uris":{"android":"levelo://app?vid=22c024d7-cd03-4420-9ef1-965ecba6e78a","ios":"levelo://app?vid=22c024d7-cd03-4420-9ef1-965ecba6e78a"},"vehicle_type_id":"4","last_reported":1743754415,"current_range_meters":16000,"station_id":"ce4bgup2rcd13ifvqcn0","pricing_plan_id":"cebpf4jnsgd1na2vs0mg"},{"bike_id":"9cbcffc2-4a43-46a0-8887-102112814f6b","system_id":"levelo_inurba_marseille","lat":43.23192,"lon":5.35555,"is_reserved":false,"is_disabled":false,"rental_uris":{"android":"levelo://app?vid=9cbcffc2-4a43-46a0-8887-102112814f6b","ios":"levelo://app?vid=9cbcffc2-4a43-46a0-8887-102112814f6b"},"vehicle_type_id":"4","last_reported":1743754415,"current_range_meters":15200,"station_id":"ce4bhu92rcd13ifvqi70","pricing_plan_id":"cebpf4jnsgd1na2vs0mg"},{"bike_id":"48ec1fe3-fdf4-49a5-977a-526829b4e2e3","system_id":"levelo_inurba_marseille","lat":43.23058,"lon":5.355,"is_reserved":false,"is_disabled":false,"rental_uris":{"android":"levelo://app?vid=48ec1fe3-fdf4-49a5-977a-526829b4e2e3","ios":"levelo://app?vid=48ec1fe3-fdf4-49a5-977a-526829b4e2e3"},"vehicle_type_id":"4","last_reported":1743754415,"current_range_meters":16000,"station_id":"cpo3342slgdg3j2ifvpg","pricing_plan_id":"cebpf4jnsgd1na2vs0mg"},{"bike_id":"cf00e7a5-a3fc-4b45-88d7-cf9ed031045d","system_id":"levelo_inurba_marseille","lat":43.24058,"lon":5.37766,"is_reserved":false,"is_disabled":false,"rental_uris":{"android":"levelo://app?vid=cf00e7a5-a3fc-4b45-88d7-cf9ed031045d","ios":"levelo://app?vid=cf00e7a5-a3fc-4b45-88d7-cf9ed031045d"},"vehicle_type_id":"4","last_reported":1743754415,"current_range_meters":16000,"station_id":"ce4bhnp2rcd13ifvqgvg","pricing_plan_id":"cebpf4jnsgd1na2vs0mg"},{"bike_id":"188e01b9-65db-4a5b-b580-c3a2d1a3e000","system_id":"levelo_inurba_marseille","lat":43.28735,"lon":5.37103,"is_reserved":false,"is_disabled":false,"rental_uris":{"android":"levelo://app?vid=188e01b9-65db-4a5b-b580-c3a2d1a3e000","ios":"levelo://app?vid=188e01b9-65db-4a5b-b580-c3a2d1a3e000"},"vehicle_type_id":"4","last_reported":1743754415,"current_range_meters":16000,"station_id":"","pricing_plan_id":"cebpf4jnsgd1na2vs0mg"},{"bike_id":"ca8e2c30-70c1-4ec5-a309-c1cfa0470107","system_id":"levelo_inurba_marseille","lat":43.30136,"lon":5.37415,"is_reserved":false,"is_disabled":false,"rental_uris":{"android":"levelo://app?vid=ca8e2c30-70c1-4ec5-a309-c1cfa0470107","ios":"levelo://app?vid=ca8e2c30-70c1-4ec5-a309-c1cfa0470107"},"vehicle_type_id":"4","last_reported":1743754415,"current_range_meters":16000,"station_id":"ce4bgs92rcd13ifvqcc0","pricing_plan_id":"cebpf4jnsgd1na2vs0mg"},{"bike_id":"6d9715e6-045f-417b-844a-144b6e5c1132","system_id":"levelo_inurba_marseille","lat":43.29213,"lon":5.35715,"is_reserved":false,"is_disabled":false,"rental_uris":{"android":"levelo://app?vid=6d9715e6-045f-417b-844a-144b6e5c1132","ios":"levelo://app?vid=6d9715e6-045f-417b-844a-144b6e5c1132"},"vehicle_type_id":"4","last_reported":1743754415,"current_range_meters":16000,"station_id":"","pricing_plan_id":"cebpf4jnsgd1na2vs0mg"},{"bike_id":"65518e52-d299-4aa2-88c9-3cc76063340c","system_id":"levelo_inurba_marseille","lat":43.231667,"lon":5.399537,"is_reserved":false,"is_disabled":false,"rental_uris":{"android":"levelo://app?vid=65518e52-d299-4aa2-88c9-3cc76063340c","ios":"levelo://app?vid=65518e52-d299-4aa2-88c9-3cc76063340c"},"vehicle_type_id":"4","last_reported":1743754415,"current_range_meters":16000,"station_id":"ce4bhn12rcd13ifvqgqg","pricing_plan_id":"cebpf4jnsgd1na2vs0mg"},{"bike_id":"d1ef5f56-a77a-4566-a805-8e39e02e74b6","system_id":"levelo_inurba_marseille","lat":43.30547,"lon":5.3652,"is_reserved":false,"is_disabled":true,"rental_uris":{"android":"levelo://app?vid=d1ef5f56-a77a-4566-a805-8e39e02e74b6","ios":"levelo://app?vid=d1ef5f56-a77a-4566-a805-8e39e02e74b6"},"vehicle_type_id":"4","last_reported":1743754415,"current_range_meters":16400,"station_id":"ce4bgs12rcd13ifvqcag","pricing_plan_id":"cebpf4jnsgd1na2vs0mg"},{"bike_id":"35354df1-58d1-4693-a885-3624bc1a5277","system_id":"levelo_inurba_marseille","lat":43.30177,"lon":5.36635,"is_reserved":false,"is_disabled":false,"rental_uris":{"android":"levelo://app?vid=35354df1-58d1-4693-a885-3624bc1a5277","ios":"levelo://app?vid=35354df1-58d1-4693-a885-3624bc1a5277"},"vehicle_type_id":"4","last_reported":1743754415,"current_range_meters":16400,"station_id":"ce4bgrh2rcd13ifvqc8g","pricing_plan_id":"cebpf4jnsgd1na2vs0mg"},{"bike_id":"621051f1-7a47-4f84-b12e-af5b7be70385","system_id":"levelo_inurba_marseille","lat":43.22909,"lon":5.35389,"is_reserved":false,"is_disabled":false,"rental_uris":{"android":"levelo://app?vid=621051f1-7a47-4f84-b12e-af5b7be70385","ios":"levelo://app?vid=621051f1-7a47-4f84-b12e-af5b7be70385"},"vehicle_type_id":"4","last_reported":1743754415,"current_range_meters":16400,"station_id":"cpo3532slgdg3j2ikp40","pricing_plan_id":"cebpf4jnsgd1na2vs0mg"},{"bike_id":"c8caf517-4b21-45ea-a698-7fa8af901d46","system_id":"levelo_inurba_marseille","lat":43.26788,"lon":5.39408,"is_reserved":false,"is_disabled":false,"rental_uris":{"android":"levelo://app?vid=c8caf517-4b21-45ea-a698-7fa8af901d46","ios":"levelo://app?vid=c8caf517-4b21-45ea-a698-7fa8af901d46"},"vehicle_type_id":"4","last_reported":1743754415,"current_range_meters":16000,"station_id":"ce4bhh12rcd13ifvqfg0","pricing_plan_id":"cebpf4jnsgd1na2vs0mg"},{"bike_id":"317c9fed-aa43-4ebc-a3ec-1c4e036450e0","system_id":"levelo_inurba_marseille","lat":43.284572,"lon":5.358916,"is_reserved":false,"is_disabled":false,"rental_uris":{"android":"levelo://app?vid=317c9fed-aa43-4ebc-a3ec-1c4e036450e0","ios":"levelo://app?vid=317c9fed-aa43-4ebc-a3ec-1c4e036450e0"},"vehicle_type_id":"4","last_reported":1743754415,"current_range_meters":16400,"station_id":"ce4bhah2rcd13ifvqei0","pricing_plan_id":"cebpf4jnsgd1na2vs0mg"},{"bike_id":"3cd93d1f-595a-4ee4-b64d-5aeb9061d218","system_id":"levelo_inurba_marseille","lat":43.24065,"lon":5.37755,"is_reserved":false,"is_disabled":false,"rental_uris":{"android":"levelo://app?vid=3cd93d1f-595a-4ee4-b64d-5aeb9061d218","ios":"levelo://app?vid=3cd93d1f-595a-4ee4-b64d-5aeb9061d218"},"vehicle_type_id":"4","last_reported":1743754415,"current_range_meters":16400,"station_id":"ce4bhnp2rcd13ifvqgvg","pricing_plan_id":"cebpf4jnsgd1na2vs0mg"},{"bike_id":"ab52ed22-b137-4a55-b178-90d1ecb67d9a","system_id":"levelo_inurba_marseille","lat":43.30467,"lon":5.37923,"is_reserved":false,"is_disabled":false,"rental_uris":{"android":"levelo://app?vid=ab52ed22-b137-4a55-b178-90d1ecb67d9a","ios":"levelo://app?vid=ab52ed22-b137-4a55-b178-90d1ecb67d9a"},"vehicle_type_id":"4","last_reported":1743754415,"current_range_meters":16400,"station_id":"ce4bgup2rcd13ifvqcn0","pricing_plan_id":"cebpf4jnsgd1na2vs0mg"},{"bike_id":"eaf859a6-ff3d-4281-be3e-7de787fa533a","system_id":"levelo_inurba_marseille","lat":43.30316,"lon":5.39245,"is_reserved":false,"is_disabled":true,"rental_uris":{"android":"levelo://app?vid=eaf859a6-ff3d-4281-be3e-7de787fa533a","ios":"levelo://app?vid=eaf859a6-ff3d-4281-be3e-7de787fa533a"},"vehicle_type_id":"4","last_reported":1743754415,"current_range_meters":16800,"station_id":"ce4bgkh2rcd13ifvqbk0","pricing_plan_id":"cebpf4jnsgd1na2vs0mg"},{"bike_id":"d72ae546-019d-42c4-ab8a-aa9b8ed4f063","system_id":"levelo_inurba_marseille","lat":43.304646,"lon":5.379153,"is_reserved":false,"is_disabled":false,"rental_uris":{"android":"levelo://app?vid=d72ae546-019d-42c4-ab8a-aa9b8ed4f063","ios":"levelo://app?vid=d72ae546-019d-42c4-ab8a-aa9b8ed4f063"},"vehicle_type_id":"4","last_reported":1743754415,"current_range_meters":16800,"station_id":"ce4bgup2rcd13ifvqcn0","pricing_plan_id":"cebpf4jnsgd1na2vs0mg"},{"bike_id":"67a3cdac-1756-47e2-abc8-75b8c9fd5195","system_id":"levelo_inurba_marseille","lat":43.29985,"lon":5.37152,"is_reserved":false,"is_disabled":false,"rental_uris":{"android":"levelo://app?vid=67a3cdac-1756-47e2-abc8-75b8c9fd5195","ios":"levelo://app?vid=67a3cdac-1756-47e2-abc8-75b8c9fd5195"},"vehicle_type_id":"4","last_reported":1743754415,"current_range_meters":16400,"station_id":"ce4bgr92rcd13ifvqc7g","pricing_plan_id":"cebpf4jnsgd1na2vs0mg"},{"bike_id":"85ea2a9c-8124-4772-a144-afc738e57457","system_id":"levelo_inurba_marseille","lat":43.30464,"lon":5.37914,"is_reserved":false,"is_disabled":false,"rental_uris":{"android":"levelo://app?vid=85ea2a9c-8124-4772-a144-afc738e57457","ios":"levelo://app?vid=85ea2a9c-8124-4772-a144-afc738e57457"},"vehicle_type_id":"4","last_reported":1743754415,"current_range_meters":16800,"station_id":"ce4bgup2rcd13ifvqcn0","pricing_plan_id":"cebpf4jnsgd1na2vs0mg"},{"bike_id":"4c8d0580-f351-4840-9e9b-3d33f7b2dd5a","system_id":"levelo_inurba_marseille","lat":43.31122,"lon":5.37774,"is_reserved":false,"is_disabled":false,"rental_uris":{"android":"levelo://app?vid=4c8d0580-f351-4840-9e9b-3d33f7b2dd5a","ios":"levelo://app?vid=4c8d0580-f351-4840-9e9b-3d33f7b2dd5a"},"vehicle_type_id":"4","last_reported":1743754415,"current_range_meters":16400,"station_id":"ce4bhjp2rcd13ifvqga0","pricing_plan_id":"cebpf4jnsgd1na2vs0mg"},{"bike_id":"bce27f57-0341-43e9-87fd-9109712e4bf4","system_id":"levelo_inurba_marseille","lat":43.28701,"lon":5.37922,"is_reserved":false,"is_disabled":false,"rental_uris":{"android":"levelo://app?vid=bce27f57-0341-43e9-87fd-9109712e4bf4","ios":"levelo://app?vid=bce27f57-0341-43e9-87fd-9109712e4bf4"},"vehicle_type_id":"4","last_reported":1743754415,"current_range_meters":16800,"station_id":"ce4bh9p2rcd13ifvqec0","pricing_plan_id":"cebpf4jnsgd1na2vs0mg"},{"bike_id":"dd534b88-b712-46a5-ac0a-286a44bcfb80","system_id":"levelo_inurba_marseille","lat":43.284593,"lon":5.35887,"is_reserved":false,"is_disabled":false,"rental_uris":{"android":"levelo://app?vid=dd534b88-b712-46a5-ac0a-286a44bcfb80","ios":"levelo://app?vid=dd534b88-b712-46a5-ac0a-286a44bcfb80"},"vehicle_type_id":"4","last_reported":1743754415,"current_range_meters":16800,"station_id":"ce4bhah2rcd13ifvqei0","pricing_plan_id":"cebpf4jnsgd1na2vs0mg"},{"bike_id":"fa3e5d89-fa1e-4836-97d3-3e5628c401c7","system_id":"levelo_inurba_marseille","lat":43.28612,"lon":5.37058,"is_reserved":false,"is_disabled":false,"rental_uris":{"android":"levelo://app?vid=fa3e5d89-fa1e-4836-97d3-3e5628c401c7","ios":"levelo://app?vid=fa3e5d89-fa1e-4836-97d3-3e5628c401c7"},"vehicle_type_id":"4","last_reported":1743754415,"current_range_meters":16800,"station_id":"ce4bht12rcd13ifvqi60","pricing_plan_id":"cebpf4jnsgd1na2vs0mg"},{"bike_id":"1bb33d04-dbfe-4c3a-b70e-e236c9f3bdd9","system_id":"levelo_inurba_marseille","lat":43.30465,"lon":5.37918,"is_reserved":false,"is_disabled":false,"rental_uris":{"android":"levelo://app?vid=1bb33d04-dbfe-4c3a-b70e-e236c9f3bdd9","ios":"levelo://app?vid=1bb33d04-dbfe-4c3a-b70e-e236c9f3bdd9"},"vehicle_type_id":"4","last_reported":1743754415,"current_range_meters":16800,"station_id":"ce4bgup2rcd13ifvqcn0","pricing_plan_id":"cebpf4jnsgd1na2vs0mg"},{"bike_id":"4602486f-8ebc-44c7-b0c3-55584c3862b1","system_id":"levelo_inurba_marseille","lat":43.23152,"lon":5.43711,"is_reserved":false,"is_disabled":false,"rental_uris":{"android":"levelo://app?vid=4602486f-8ebc-44c7-b0c3-55584c3862b1","ios":"levelo://app?vid=4602486f-8ebc-44c7-b0c3-55584c3862b1"},"vehicle_type_id":"4","last_reported":1743754415,"current_range_meters":16800,"station_id":"ce4bhmp2rcd13ifvqgog","pricing_plan_id":"cebpf4jnsgd1na2vs0mg"},{"bike_id":"2bf0c055-c730-4441-bb71-3d96d95d81ba","system_id":"levelo_inurba_marseille","lat":43.31229,"lon":5.36856,"is_reserved":false,"is_disabled":false,"rental_uris":{"android":"levelo://app?vid=2bf0c055-c730-4441-bb71-3d96d95d81ba","ios":"levelo://app?vid=2bf0c055-c730-4441-bb71-3d96d95d81ba"},"vehicle_type_id":"4","last_reported":1743754415,"current_range_meters":16800,"station_id":"ce4bgl92rcd13ifvqbq0","pricing_plan_id":"cebpf4jnsgd1na2vs0mg"},{"bike_id":"1c6a9a4d-5ef6-476b-b921-e44abfffd79e","system_id":"levelo_inurba_marseille","lat":43.25931,"lon":5.40907,"is_reserved":false,"is_disabled":false,"rental_uris":{"android":"levelo://app?vid=1c6a9a4d-5ef6-476b-b921-e44abfffd79e","ios":"levelo://app?vid=1c6a9a4d-5ef6-476b-b921-e44abfffd79e"},"vehicle_type_id":"4","last_reported":1743754415,"current_range_meters":17200,"station_id":"ce4bhm92rcd13ifvqglg","pricing_plan_id":"cebpf4jnsgd1na2vs0mg"},{"bike_id":"ae6ecea5-f015-4699-b852-ef5eb8d96575","system_id":"levelo_inurba_marseille","lat":43.2467,"lon":5.38164,"is_reserved":false,"is_disabled":false,"rental_uris":{"android":"levelo://app?vid=ae6ecea5-f015-4699-b852-ef5eb8d96575","ios":"levelo://app?vid=ae6ecea5-f015-4699-b852-ef5eb8d96575"},"vehicle_type_id":"4","last_reported":1743754415,"current_range_meters":16800,"station_id":"ce4bhih2rcd13ifvqfr0","pricing_plan_id":"cebpf4jnsgd1na2vs0mg"},{"bike_id":"873934dc-376b-4de8-9351-e83fa6178468","system_id":"levelo_inurba_marseille","lat":43.24161,"lon":5.36405,"is_reserved":false,"is_disabled":false,"rental_uris":{"android":"levelo://app?vid=873934dc-376b-4de8-9351-e83fa6178468","ios":"levelo://app?vid=873934dc-376b-4de8-9351-e83fa6178468"},"vehicle_type_id":"4","last_reported":1743754415,"current_range_meters":17200,"station_id":"cpo36qri1sfpv3e86is0","pricing_plan_id":"cebpf4jnsgd1na2vs0mg"},{"bike_id":"1b186f9a-9e2f-4e16-a605-a4299a436671","system_id":"levelo_inurba_marseille","lat":43.30512,"lon":5.37921,"is_reserved":false,"is_disabled":false,"rental_uris":{"android":"levelo://app?vid=1b186f9a-9e2f-4e16-a605-a4299a436671","ios":"levelo://app?vid=1b186f9a-9e2f-4e16-a605-a4299a436671"},"vehicle_type_id":"4","last_reported":1743754415,"current_range_meters":17200,"station_id":"","pricing_plan_id":"cebpf4jnsgd1na2vs0mg"},{"bike_id":"675fc0a8-10aa-40f4-ac3a-a3b605237bd7","system_id":"levelo_inurba_marseille","lat":43.23198,"lon":5.35551,"is_reserved":false,"is_disabled":false,"rental_uris":{"android":"levelo://app?vid=675fc0a8-10aa-40f4-ac3a-a3b605237bd7","ios":"levelo://app?vid=675fc0a8-10aa-40f4-ac3a-a3b605237bd7"},"vehicle_type_id":"4","last_reported":1743754415,"current_range_meters":17200,"station_id":"ce4bhu92rcd13ifvqi70","pricing_plan_id":"cebpf4jnsgd1na2vs0mg"},{"bike_id":"0a6fa01c-7fdf-4e96-8a8c-79cb46d88dc5","system_id":"levelo_inurba_marseille","lat":43.30467,"lon":5.37906,"is_reserved":false,"is_disabled":false,"rental_uris":{"android":"levelo://app?vid=0a6fa01c-7fdf-4e96-8a8c-79cb46d88dc5","ios":"levelo://app?vid=0a6fa01c-7fdf-4e96-8a8c-79cb46d88dc5"},"vehicle_type_id":"4","last_reported":1743754415,"current_range_meters":17200,"station_id":"ce4bgup2rcd13ifvqcn0","pricing_plan_id":"cebpf4jnsgd1na2vs0mg"},{"bike_id":"6bf14c99-e35c-4943-8d7f-ebd03076256f","system_id":"levelo_inurba_marseille","lat":43.2318,"lon":5.39984,"is_reserved":false,"is_disabled":false,"rental_uris":{"android":"levelo://app?vid=6bf14c99-e35c-4943-8d7f-ebd03076256f","ios":"levelo://app?vid=6bf14c99-e35c-4943-8d7f-ebd03076256f"},"vehicle_type_id":"4","last_reported":1743754415,"current_range_meters":17200,"station_id":"ce4bhn12rcd13ifvqgqg","pricing_plan_id":"cebpf4jnsgd1na2vs0mg"},{"bike_id":"30b57730-cb66-4122-bd93-7dabcaba84e7","system_id":"levelo_inurba_marseille","lat":43.24921,"lon":5.40686,"is_reserved":false,"is_disabled":false,"rental_uris":{"android":"levelo://app?vid=30b57730-cb66-4122-bd93-7dabcaba84e7","ios":"levelo://app?vid=30b57730-cb66-4122-bd93-7dabcaba84e7"},"vehicle_type_id":"4","last_reported":1743754415,"current_range_meters":17200,"station_id":"","pricing_plan_id":"cebpf4jnsgd1na2vs0mg"},{"bike_id":"c0549e52-379f-409b-b17d-8972632a51ac","system_id":"levelo_inurba_marseille","lat":43.301805,"lon":5.366256,"is_reserved":false,"is_disabled":false,"rental_uris":{"android":"levelo://app?vid=c0549e52-379f-409b-b17d-8972632a51ac","ios":"levelo://app?vid=c0549e52-379f-409b-b17d-8972632a51ac"},"vehicle_type_id":"4","last_reported":1743754415,"current_range_meters":17200,"station_id":"ce4bgrh2rcd13ifvqc8g","pricing_plan_id":"cebpf4jnsgd1na2vs0mg"},{"bike_id":"8d995d24-59e0-4a06-a303-8c506ffbdbf9","system_id":"levelo_inurba_marseille","lat":43.27489,"lon":5.42467,"is_reserved":false,"is_disabled":false,"rental_uris":{"android":"levelo://app?vid=8d995d24-59e0-4a06-a303-8c506ffbdbf9","ios":"levelo://app?vid=8d995d24-59e0-4a06-a303-8c506ffbdbf9"},"vehicle_type_id":"4","last_reported":1743754415,"current_range_meters":17200,"station_id":"ce4bhn92rcd13ifvqgrg","pricing_plan_id":"cebpf4jnsgd1na2vs0mg"},{"bike_id":"d2a45f6f-90ea-4a7a-a7cb-e82a1ca5ca7c","system_id":"levelo_inurba_marseille","lat":43.304664,"lon":5.379152,"is_reserved":false,"is_disabled":false,"rental_uris":{"android":"levelo://app?vid=d2a45f6f-90ea-4a7a-a7cb-e82a1ca5ca7c","ios":"levelo://app?vid=d2a45f6f-90ea-4a7a-a7cb-e82a1ca5ca7c"},"vehicle_type_id":"4","last_reported":1743754415,"current_range_meters":17200,"station_id":"ce4bgup2rcd13ifvqcn0","pricing_plan_id":"cebpf4jnsgd1na2vs0mg"},{"bike_id":"27ed36e0-426d-4992-8e9c-3113efe2caa5","system_id":"levelo_inurba_marseille","lat":43.29007,"lon":5.35609,"is_reserved":false,"is_disabled":false,"rental_uris":{"android":"levelo://app?vid=27ed36e0-426d-4992-8e9c-3113efe2caa5","ios":"levelo://app?vid=27ed36e0-426d-4992-8e9c-3113efe2caa5"},"vehicle_type_id":"4","last_reported":1743754415,"current_range_meters":17600,"station_id":"ce4bhb92rcd13ifvqen0","pricing_plan_id":"cebpf4jnsgd1na2vs0mg"},{"bike_id":"07691b30-a8d6-48df-83af-def33f4d68e2","system_id":"levelo_inurba_marseille","lat":43.29677,"lon":5.36159,"is_reserved":false,"is_disabled":true,"rental_uris":{"android":"levelo://app?vid=07691b30-a8d6-48df-83af-def33f4d68e2","ios":"levelo://app?vid=07691b30-a8d6-48df-83af-def33f4d68e2"},"vehicle_type_id":"4","last_reported":1743754415,"current_range_meters":17600,"station_id":"","pricing_plan_id":"cebpf4jnsgd1na2vs0mg"},{"bike_id":"c14a22d5-3451-4a08-b284-d6e77e4b2064","system_id":"levelo_inurba_marseille","lat":43.30948,"lon":5.39055,"is_reserved":false,"is_disabled":false,"rental_uris":{"android":"levelo://app?vid=c14a22d5-3451-4a08-b284-d6e77e4b2064","ios":"levelo://app?vid=c14a22d5-3451-4a08-b284-d6e77e4b2064"},"vehicle_type_id":"4","last_reported":1743754415,"current_range_meters":17200,"station_id":"ce4bgup2rcd13ifvqco0","pricing_plan_id":"cebpf4jnsgd1na2vs0mg"},{"bike_id":"e663260e-df9c-4b43-81e4-7f9a14e3ff50","system_id":"levelo_inurba_marseille","lat":43.296919,"lon":5.367435,"is_reserved":false,"is_disabled":false,"rental_uris":{"android":"levelo://app?vid=e663260e-df9c-4b43-81e4-7f9a14e3ff50","ios":"levelo://app?vid=e663260e-df9c-4b43-81e4-7f9a14e3ff50"},"vehicle_type_id":"4","last_reported":1743754415,"current_range_meters":17600,"station_id":"ce4bgn12rcd13ifvqbt0","pricing_plan_id":"cebpf4jnsgd1na2vs0mg"},{"bike_id":"2e0c68ea-3361-418e-9d72-bccb3e4de1ab","system_id":"levelo_inurba_marseille","lat":43.30533,"lon":5.36542,"is_reserved":false,"is_disabled":false,"rental_uris":{"android":"levelo://app?vid=2e0c68ea-3361-418e-9d72-bccb3e4de1ab","ios":"levelo://app?vid=2e0c68ea-3361-418e-9d72-bccb3e4de1ab"},"vehicle_type_id":"4","last_reported":1743754415,"current_range_meters":17600,"station_id":"ce4bgs12rcd13ifvqcag","pricing_plan_id":"cebpf4jnsgd1na2vs0mg"},{"bike_id":"85551e97-4c5f-4ccf-a3e3-6c6a724090b2","system_id":"levelo_inurba_marseille","lat":43.31889,"lon":5.40738,"is_reserved":false,"is_disabled":false,"rental_uris":{"android":"levelo://app?vid=85551e97-4c5f-4ccf-a3e3-6c6a724090b2","ios":"levelo://app?vid=85551e97-4c5f-4ccf-a3e3-6c6a724090b2"},"vehicle_type_id":"4","last_reported":1743754415,"current_range_meters":17600,"station_id":"ce4bhq12rcd13ifvqhig","pricing_plan_id":"cebpf4jnsgd1na2vs0mg"},{"bike_id":"7e886135-4525-4cbb-b034-0093109220fa","system_id":"levelo_inurba_marseille","lat":43.27311,"lon":5.39093,"is_reserved":false,"is_disabled":false,"rental_uris":{"android":"levelo://app?vid=7e886135-4525-4cbb-b034-0093109220fa","ios":"levelo://app?vid=7e886135-4525-4cbb-b034-0093109220fa"},"vehicle_type_id":"4","last_reported":1743754415,"current_range_meters":18000,"station_id":"ce4bhgp2rcd13ifvqfe0","pricing_plan_id":"cebpf4jnsgd1na2vs0mg"},{"bike_id":"9cf88250-cb1b-4afe-9f86-175249483bd4","system_id":"levelo_inurba_marseille","lat":43.30487,"lon":5.37908,"is_reserved":false,"is_disabled":false,"rental_uris":{"android":"levelo://app?vid=9cf88250-cb1b-4afe-9f86-175249483bd4","ios":"levelo://app?vid=9cf88250-cb1b-4afe-9f86-175249483bd4"},"vehicle_type_id":"4","last_reported":1743754415,"current_range_meters":18000,"station_id":"ce4bgup2rcd13ifvqcn0","pricing_plan_id":"cebpf4jnsgd1na2vs0mg"},{"bike_id":"889b1957-aae9-43ce-bfa6-76a08eff7ab5","system_id":"levelo_inurba_marseille","lat":43.30181,"lon":5.36627,"is_reserved":false,"is_disabled":false,"rental_uris":{"android":"levelo://app?vid=889b1957-aae9-43ce-bfa6-76a08eff7ab5","ios":"levelo://app?vid=889b1957-aae9-43ce-bfa6-76a08eff7ab5"},"vehicle_type_id":"4","last_reported":1743754415,"current_range_meters":18000,"station_id":"ce4bgrh2rcd13ifvqc8g","pricing_plan_id":"cebpf4jnsgd1na2vs0mg"},{"bike_id":"14e7b531-32f3-4ddf-ad68-f63f9060694a","system_id":"levelo_inurba_marseille","lat":43.266833,"lon":5.382774,"is_reserved":false,"is_disabled":true,"rental_uris":{"android":"levelo://app?vid=14e7b531-32f3-4ddf-ad68-f63f9060694a","ios":"levelo://app?vid=14e7b531-32f3-4ddf-ad68-f63f9060694a"},"vehicle_type_id":"4","last_reported":1743754415,"current_range_meters":18000,"station_id":"ce4bhg92rcd13ifvqf90","pricing_plan_id":"cebpf4jnsgd1na2vs0mg"},{"bike_id":"38c05c9b-15ed-49af-8f55-72205ff8fe47","system_id":"levelo_inurba_marseille","lat":43.284563,"lon":5.358837,"is_reserved":false,"is_disabled":false,"rental_uris":{"android":"levelo://app?vid=38c05c9b-15ed-49af-8f55-72205ff8fe47","ios":"levelo://app?vid=38c05c9b-15ed-49af-8f55-72205ff8fe47"},