{"last_updated":1744373969,"ttl":60,"version":"2.2","data":{"bikes":[{"bike_id":"c307d500-39c4-4045-9450-89916488cd8c","system_id":"levelo_inurba_marseille","lat":43.30879,"lon":5.37194,"is_reserved":false,"is_disabled":false,"rental_uris":{"android":"levelo://app?vid=c307d500-39c4-4045-9450-89916488cd8c","ios":"levelo://app?vid=c307d500-39c4-4045-9450-89916488cd8c"},"vehicle_type_id":"4","last_reported":1744373969,"current_range_meters":2800,"station_id":"ce4bguh2rcd13ifvqckg","pricing_plan_id":"cebpf4jnsgd1na2vs0mg"},{"bike_id":"b78e0332-3591-4edc-b0bf-426caabea85c","system_id":"levelo_inurba_marseille","lat":43.291992,"lon":5.393086,"is_reserved":false,"is_disabled":false,"rental_uris":{"android":"levelo://app?vid=b78e0332-3591-4edc-b0bf-426caabea85c","ios":"levelo://app?vid=b78e0332-3591-4edc-b0bf-426caabea85c"},"vehicle_type_id":"4","last_reported":1744373969,"current_range_meters":3200,"station_id":"ce4bh192rcd13ifvqdd0","pricing_plan_id":"cebpf4jnsgd1na2vs0mg"},{"bike_id":"dcc63f70-f24a-4395-8caa-31407617f0ad","system_id":"levelo_inurba_marseille","lat":43.26551,"lon":5.37284,"is_reserved":false,"is_disabled":false,"rental_uris":{"android":"levelo://app?vid=dcc63f70-f24a-4395-8caa-31407617f0ad","ios":"levelo://app?vid=dcc63f70-f24a-4395-8caa-31407617f0ad"},"vehicle_type_id":"4","last_reported":1744373969,"current_range_meters":3200,"station_id":"ce4bhg12rcd13ifvqf70","pricing_plan_id":"cebpf4jnsgd1na2vs0mg"},{"bike_id":"7b521754-de2d-4893-845b-69ac7841b48a","system_id":"levelo_inurba_marseille","lat":43.23148,"lon":5.43717,"is_reserved":false,"is_disabled":false,"rental_uris":{"android":"levelo://app?vid=7b521754-de2d-4893-845b-69ac7841b48a","ios":"levelo://app?vid=7b521754-de2d-4893-845b-69ac7841b48a"},"vehicle_type_id":"4","last_reported":1744373969,"current_range_meters":3200,"station_id":"ce4bhmp2rcd13ifvqgog","pricing_plan_id":"cebpf4jnsgd1na2vs0mg"},{"bike_id":"019fdc2b-305c-49d0-91e6-4abb0d39d649","system_id":"levelo_inurba_marseille","lat":43.286508,"lon":5.363314,"is_reserved":false,"is_disabled":false,"rental_uris":{"android":"levelo://app?vid=019fdc2b-305c-49d0-91e6-4abb0d39d649","ios":"levelo://app?vid=019fdc2b-305c-49d0-91e6-4abb0d39d649"},"vehicle_type_id":"4","last_reported":1744373969,"current_range_meters":3200,"station_id":"ce4bh512rcd13ifvqe2g","pricing_plan_id":"cebpf4jnsgd1na2vs0mg"},{"bike_id":"c91c7d86-e9f5-4df1-bf5b-08a6721f835d","system_id":"levelo_inurba_marseille","lat":43.23158,"lon":5.43701,"is_reserved":false,"is_disabled":false,"rental_uris":{"android":"levelo://app?vid=c91c7d86-e9f5-4df1-bf5b-08a6721f835d","ios":"levelo://app?vid=c91c7d86-e9f5-4df1-bf5b-08a6721f835d"},"vehicle_type_id":"4","last_reported":1744373969,"current_range_meters":3200,"station_id":"ce4bhmp2rcd13ifvqgog","pricing_plan_id":"cebpf4jnsgd1na2vs0mg"},{"bike_id":"cac25137-ffbd-431e-bb3e-40e2dd37ca19","system_id":"levelo_inurba_marseille","lat":43.30271,"lon":5.37713,"is_reserved":false,"is_disabled":false,"rental_uris":{"android":"levelo://app?vid=cac25137-ffbd-431e-bb3e-40e2dd37ca19","ios":"levelo://app?vid=cac25137-ffbd-431e-bb3e-40e2dd37ca19"},"vehicle_type_id":"4","last_reported":1744373969,"current_range_meters":3600,"station_id":"ce4bguh2rcd13ifvqcj0","pricing_plan_id":"cebpf4jnsgd1na2vs0mg"},{"bike_id":"052efa1d-60f1-4586-869e-dc4f762b4fa8","system_id":"levelo_inurba_marseille","lat":43.27372,"lon":5.36257,"is_reserved":false,"is_disabled":false,"rental_uris":{"android":"levelo://app?vid=052efa1d-60f1-4586-869e-dc4f762b4fa8","ios":"levelo://app?vid=052efa1d-60f1-4586-869e-dc4f762b4fa8"},"vehicle_type_id":"4","last_reported":1744373969,"current_range_meters":3600,"station_id":"ce4bhbh2rcd13ifvqeo0","pricing_plan_id":"cebpf4jnsgd1na2vs0mg"},{"bike_id":"83c132b1-a954-4d5a-a32d-9f99af4faa3c","system_id":"levelo_inurba_marseille","lat":43.30939,"lon":5.41522,"is_reserved":false,"is_disabled":false,"rental_uris":{"android":"levelo://app?vid=83c132b1-a954-4d5a-a32d-9f99af4faa3c","ios":"levelo://app?vid=83c132b1-a954-4d5a-a32d-9f99af4faa3c"},"vehicle_type_id":"4","last_reported":1744373969,"current_range_meters":4400,"station_id":"","pricing_plan_id":"cebpf4jnsgd1na2vs0mg"},{"bike_id":"c243072f-6bd2-4d94-ba83-04162cf2a05c","system_id":"levelo_inurba_marseille","lat":43.27148,"lon":5.40164,"is_reserved":false,"is_disabled":false,"rental_uris":{"android":"levelo://app?vid=c243072f-6bd2-4d94-ba83-04162cf2a05c","ios":"levelo://app?vid=c243072f-6bd2-4d94-ba83-04162cf2a05c"},"vehicle_type_id":"4","last_reported":1744373969,"current_range_meters":4400,"station_id":"","pricing_plan_id":"cebpf4jnsgd1na2vs0mg"},{"bike_id":"137c39d0-180b-4bb1-94d3-7d7a19ada71b","system_id":"levelo_inurba_marseille","lat":43.29573,"lon":5.39977,"is_reserved":false,"is_disabled":false,"rental_uris":{"android":"levelo://app?vid=137c39d0-180b-4bb1-94d3-7d7a19ada71b","ios":"levelo://app?vid=137c39d0-180b-4bb1-94d3-7d7a19ada71b"},"vehicle_type_id":"4","last_reported":1744373969,"current_range_meters":4800,"station_id":"ce4bh312rcd13ifvqdj0","pricing_plan_id":"cebpf4jnsgd1na2vs0mg"},{"bike_id":"e6dd8d80-be0a-4f29-8a63-c965be523b06","system_id":"levelo_inurba_marseille","lat":43.28263,"lon":5.35063,"is_reserved":false,"is_disabled":false,"rental_uris":{"android":"levelo://app?vid=e6dd8d80-be0a-4f29-8a63-c965be523b06","ios":"levelo://app?vid=e6dd8d80-be0a-4f29-8a63-c965be523b06"},"vehicle_type_id":"4","last_reported":1744373969,"current_range_meters":1200,"station_id":"ce4bhbp2rcd13ifvqerg","pricing_plan_id":"cebpf4jnsgd1na2vs0mg"},{"bike_id":"69369d32-4cfb-4d28-bb91-9df282cbf273","system_id":"levelo_inurba_marseille","lat":43.3029,"lon":5.39208,"is_reserved":false,"is_disabled":false,"rental_uris":{"android":"levelo://app?vid=69369d32-4cfb-4d28-bb91-9df282cbf273","ios":"levelo://app?vid=69369d32-4cfb-4d28-bb91-9df282cbf273"},"vehicle_type_id":"4","last_reported":1744373969,"current_range_meters":5600,"station_id":"ce4bgkh2rcd13ifvqbk0","pricing_plan_id":"cebpf4jnsgd1na2vs0mg"},{"bike_id":"42644588-78be-46b9-9121-1119a7c91922","system_id":"levelo_inurba_marseille","lat":43.32492,"lon":5.36562,"is_reserved":false,"is_disabled":false,"rental_uris":{"android":"levelo://app?vid=42644588-78be-46b9-9121-1119a7c91922","ios":"levelo://app?vid=42644588-78be-46b9-9121-1119a7c91922"},"vehicle_type_id":"4","last_reported":1744373969,"current_range_meters":5600,"station_id":"ce4bhs12rcd13ifvqhvg","pricing_plan_id":"cebpf4jnsgd1na2vs0mg"},{"bike_id":"5d62edbf-aab8-4b7a-86ca-1c44a7b1e8d1","system_id":"levelo_inurba_marseille","lat":43.29634,"lon":5.40601,"is_reserved":false,"is_disabled":false,"rental_uris":{"android":"levelo://app?vid=5d62edbf-aab8-4b7a-86ca-1c44a7b1e8d1","ios":"levelo://app?vid=5d62edbf-aab8-4b7a-86ca-1c44a7b1e8d1"},"vehicle_type_id":"4","last_reported":1744373969,"current_range_meters":5600,"station_id":"ce4bh0h2rcd13ifvqd60","pricing_plan_id":"cebpf4jnsgd1na2vs0mg"},{"bike_id":"9c6a225d-f567-47a0-9c65-9d898b580e79","system_id":"levelo_inurba_marseille","lat":43.23159,"lon":5.43718,"is_reserved":false,"is_disabled":false,"rental_uris":{"android":"levelo://app?vid=9c6a225d-f567-47a0-9c65-9d898b580e79","ios":"levelo://app?vid=9c6a225d-f567-47a0-9c65-9d898b580e79"},"vehicle_type_id":"4","last_reported":1744373969,"current_range_meters":6000,"station_id":"ce4bhmp2rcd13ifvqgog","pricing_plan_id":"cebpf4jnsgd1na2vs0mg"},{"bike_id":"7383fce2-4d63-4726-8c9c-bb267b7600cd","system_id":"levelo_inurba_marseille","lat":43.28938,"lon":5.36642,"is_reserved":false,"is_disabled":false,"rental_uris":{"android":"levelo://app?vid=7383fce2-4d63-4726-8c9c-bb267b7600cd","ios":"levelo://app?vid=7383fce2-4d63-4726-8c9c-bb267b7600cd"},"vehicle_type_id":"4","last_reported":1744373969,"current_range_meters":6000,"station_id":"ce4bhap2rcd13ifvqek0","pricing_plan_id":"cebpf4jnsgd1na2vs0mg"},{"bike_id":"34660db3-04fa-4a1e-af6a-dd56f9e3ff95","system_id":"levelo_inurba_marseille","lat":43.29291,"lon":5.37471,"is_reserved":false,"is_disabled":false,"rental_uris":{"android":"levelo://app?vid=34660db3-04fa-4a1e-af6a-dd56f9e3ff95","ios":"levelo://app?vid=34660db3-04fa-4a1e-af6a-dd56f9e3ff95"},"vehicle_type_id":"4","last_reported":1744373969,"current_range_meters":6800,"station_id":"ce4bgi12rcd13ifvqb70","pricing_plan_id":"cebpf4jnsgd1na2vs0mg"},{"bike_id":"8e8277f0-2311-4fc1-b44b-f4b00a83dc15","system_id":"levelo_inurba_marseille","lat":43.2781,"lon":5.40724,"is_reserved":false,"is_disabled":false,"rental_uris":{"android":"levelo://app?vid=8e8277f0-2311-4fc1-b44b-f4b00a83dc15","ios":"levelo://app?vid=8e8277f0-2311-4fc1-b44b-f4b00a83dc15"},"vehicle_type_id":"4","last_reported":1744373969,"current_range_meters":6400,"station_id":"ce4bhnh2rcd13ifvqgtg","pricing_plan_id":"cebpf4jnsgd1na2vs0mg"},{"bike_id":"41f2f1c5-a00a-48a8-b51a-f3e951ef5e54","system_id":"levelo_inurba_marseille","lat":43.23138,"lon":5.43731,"is_reserved":false,"is_disabled":false,"rental_uris":{"android":"levelo://app?vid=41f2f1c5-a00a-48a8-b51a-f3e951ef5e54","ios":"levelo://app?vid=41f2f1c5-a00a-48a8-b51a-f3e951ef5e54"},"vehicle_type_id":"4","last_reported":1744373969,"current_range_meters":6400,"station_id":"","pricing_plan_id":"cebpf4jnsgd1na2vs0mg"},{"bike_id":"4a3e0919-27c2-445a-a961-2bd3243a227d","system_id":"levelo_inurba_marseille","lat":43.31638,"lon":5.37326,"is_reserved":false,"is_disabled":false,"rental_uris":{"android":"levelo://app?vid=4a3e0919-27c2-445a-a961-2bd3243a227d","ios":"levelo://app?vid=4a3e0919-27c2-445a-a961-2bd3243a227d"},"vehicle_type_id":"4","last_reported":1744373969,"current_range_meters":6800,"station_id":"","pricing_plan_id":"cebpf4jnsgd1na2vs0mg"},{"bike_id":"c75536cf-ac29-45f1-9de5-83dcbcb2dd7c","system_id":"levelo_inurba_marseille","lat":43.26683,"lon":5.38265,"is_reserved":false,"is_disabled":false,"rental_uris":{"android":"levelo://app?vid=c75536cf-ac29-45f1-9de5-83dcbcb2dd7c","ios":"levelo://app?vid=c75536cf-ac29-45f1-9de5-83dcbcb2dd7c"},"vehicle_type_id":"4","last_reported":1744373969,"current_range_meters":6800,"station_id":"ce4bhg92rcd13ifvqf90","pricing_plan_id":"cebpf4jnsgd1na2vs0mg"},{"bike_id":"9b790c86-f53a-4798-9a97-6cef8c96bb55","system_id":"levelo_inurba_marseille","lat":43.30316,"lon":5.36888,"is_reserved":false,"is_disabled":false,"rental_uris":{"android":"levelo://app?vid=9b790c86-f53a-4798-9a97-6cef8c96bb55","ios":"levelo://app?vid=9b790c86-f53a-4798-9a97-6cef8c96bb55"},"vehicle_type_id":"4","last_reported":1744373969,"current_range_meters":7200,"station_id":"ce4bgqh2rcd13ifvqc5g","pricing_plan_id":"cebpf4jnsgd1na2vs0mg"},{"bike_id":"9bf51446-b41d-4406-b7d4-986252ba4586","system_id":"levelo_inurba_marseille","lat":43.30145,"lon":5.38074,"is_reserved":false,"is_disabled":false,"rental_uris":{"android":"levelo://app?vid=9bf51446-b41d-4406-b7d4-986252ba4586","ios":"levelo://app?vid=9bf51446-b41d-4406-b7d4-986252ba4586"},"vehicle_type_id":"4","last_reported":1744373969,"current_range_meters":7200,"station_id":"ce4bgjp2rcd13ifvqbh0","pricing_plan_id":"cebpf4jnsgd1na2vs0mg"},{"bike_id":"9cf24eff-c658-4158-a857-9cbcab483d75","system_id":"levelo_inurba_marseille","lat":43.25499,"lon":5.37647,"is_reserved":false,"is_disabled":false,"rental_uris":{"android":"levelo://app?vid=9cf24eff-c658-4158-a857-9cbcab483d75","ios":"levelo://app?vid=9cf24eff-c658-4158-a857-9cbcab483d75"},"vehicle_type_id":"4","last_reported":1744373969,"current_range_meters":7200,"station_id":"ce4bhh12rcd13ifvqff0","pricing_plan_id":"cebpf4jnsgd1na2vs0mg"},{"bike_id":"893ccd6e-2ced-4823-ae9b-a5b23d9f8df0","system_id":"levelo_inurba_marseille","lat":43.23154,"lon":5.43702,"is_reserved":false,"is_disabled":false,"rental_uris":{"android":"levelo://app?vid=893ccd6e-2ced-4823-ae9b-a5b23d9f8df0","ios":"levelo://app?vid=893ccd6e-2ced-4823-ae9b-a5b23d9f8df0"},"vehicle_type_id":"4","last_reported":1744373969,"current_range_meters":8000,"station_id":"ce4bhmp2rcd13ifvqgog","pricing_plan_id":"cebpf4jnsgd1na2vs0mg"},{"bike_id":"42b9b87c-76e8-4240-bb25-27f571424476","system_id":"levelo_inurba_marseille","lat":43.21745,"lon":5.34617,"is_reserved":false,"is_disabled":false,"rental_uris":{"android":"levelo://app?vid=42b9b87c-76e8-4240-bb25-27f571424476","ios":"levelo://app?vid=42b9b87c-76e8-4240-bb25-27f571424476"},"vehicle_type_id":"4","last_reported":1744373969,"current_range_meters":8000,"station_id":"st_cvj6r9ubvosntc0bgbag","pricing_plan_id":"cebpf4jnsgd1na2vs0mg"},{"bike_id":"91a8b62a-eba6-4430-9bcc-1bb2cb3a3467","system_id":"levelo_inurba_marseille","lat":43.30482,"lon":5.37894,"is_reserved":false,"is_disabled":false,"rental_uris":{"android":"levelo://app?vid=91a8b62a-eba6-4430-9bcc-1bb2cb3a3467","ios":"levelo://app?vid=91a8b62a-eba6-4430-9bcc-1bb2cb3a3467"},"vehicle_type_id":"4","last_reported":1744373969,"current_range_meters":8000,"station_id":"ce4bgup2rcd13ifvqcn0","pricing_plan_id":"cebpf4jnsgd1na2vs0mg"},{"bike_id":"eedad56a-f272-4cd2-b0c5-4ecf14e9c1cb","system_id":"levelo_inurba_marseille","lat":43.31487,"lon":5.37309,"is_reserved":false,"is_disabled":false,"rental_uris":{"android":"levelo://app?vid=eedad56a-f272-4cd2-b0c5-4ecf14e9c1cb","ios":"levelo://app?vid=eedad56a-f272-4cd2-b0c5-4ecf14e9c1cb"},"vehicle_type_id":"4","last_reported":1744373969,"current_range_meters":8400,"station_id":"ce4bgt12rcd13ifvqcd0","pricing_plan_id":"cebpf4jnsgd1na2vs0mg"},{"bike_id":"3bc7c9ae-f927-4f6a-a09a-6cfc7f761bcb","system_id":"levelo_inurba_marseille","lat":43.27816,"lon":5.40719,"is_reserved":false,"is_disabled":false,"rental_uris":{"android":"levelo://app?vid=3bc7c9ae-f927-4f6a-a09a-6cfc7f761bcb","ios":"levelo://app?vid=3bc7c9ae-f927-4f6a-a09a-6cfc7f761bcb"},"vehicle_type_id":"4","last_reported":1744373969,"current_range_meters":8400,"station_id":"ce4bhnh2rcd13ifvqgtg","pricing_plan_id":"cebpf4jnsgd1na2vs0mg"},{"bike_id":"adf7b692-360e-44ae-917d-c6e582b85c4c","system_id":"levelo_inurba_marseille","lat":43.28489,"lon":5.38566,"is_reserved":false,"is_disabled":false,"rental_uris":{"android":"levelo://app?vid=adf7b692-360e-44ae-917d-c6e582b85c4c","ios":"levelo://app?vid=adf7b692-360e-44ae-917d-c6e582b85c4c"},"vehicle_type_id":"4","last_reported":1744373969,"current_range_meters":8800,"station_id":"ce4bh8p2rcd13ifvqeb0","pricing_plan_id":"cebpf4jnsgd1na2vs0mg"},{"bike_id":"eab36e65-40b1-4e41-a531-858852d16a81","system_id":"levelo_inurba_marseille","lat":43.24545,"lon":5.39532,"is_reserved":false,"is_disabled":false,"rental_uris":{"android":"levelo://app?vid=eab36e65-40b1-4e41-a531-858852d16a81","ios":"levelo://app?vid=eab36e65-40b1-4e41-a531-858852d16a81"},"vehicle_type_id":"4","last_reported":1744373969,"current_range_meters":9200,"station_id":"ce4bhlp2rcd13ifvqgjg","pricing_plan_id":"cebpf4jnsgd1na2vs0mg"},{"bike_id":"362903b3-a9a0-4c09-9107-e3a97ffbaa7a","system_id":"levelo_inurba_marseille","lat":43.28634,"lon":5.35068,"is_reserved":false,"is_disabled":false,"rental_uris":{"android":"levelo://app?vid=362903b3-a9a0-4c09-9107-e3a97ffbaa7a","ios":"levelo://app?vid=362903b3-a9a0-4c09-9107-e3a97ffbaa7a"},"vehicle_type_id":"4","last_reported":1744373969,"current_range_meters":9200,"station_id":"ce4bhch2rcd13ifvqeug","pricing_plan_id":"cebpf4jnsgd1na2vs0mg"},{"bike_id":"01b1dc52-9280-4e2d-a789-b4d0515b3729","system_id":"levelo_inurba_marseille","lat":43.30554,"lon":5.36556,"is_reserved":false,"is_disabled":false,"rental_uris":{"android":"levelo://app?vid=01b1dc52-9280-4e2d-a789-b4d0515b3729","ios":"levelo://app?vid=01b1dc52-9280-4e2d-a789-b4d0515b3729"},"vehicle_type_id":"4","last_reported":1744373969,"current_range_meters":9200,"station_id":"ce4bgs12rcd13ifvqcag","pricing_plan_id":"cebpf4jnsgd1na2vs0mg"},{"bike_id":"cbf82b67-61eb-4e4e-bc38-11b597f49991","system_id":"levelo_inurba_marseille","lat":43.265744,"lon":5.390035,"is_reserved":false,"is_disabled":false,"rental_uris":{"android":"levelo://app?vid=cbf82b67-61eb-4e4e-bc38-11b597f49991","ios":"levelo://app?vid=cbf82b67-61eb-4e4e-bc38-11b597f49991"},"vehicle_type_id":"4","last_reported":1744373969,"current_range_meters":9200,"station_id":"ce4bhe12rcd13ifvqf30","pricing_plan_id":"cebpf4jnsgd1na2vs0mg"},{"bike_id":"ca756828-caa3-4ee0-82e2-9070c4e6d0c7","system_id":"levelo_inurba_marseille","lat":43.27493,"lon":5.4245,"is_reserved":false,"is_disabled":false,"rental_uris":{"android":"levelo://app?vid=ca756828-caa3-4ee0-82e2-9070c4e6d0c7","ios":"levelo://app?vid=ca756828-caa3-4ee0-82e2-9070c4e6d0c7"},"vehicle_type_id":"4","last_reported":1744373969,"current_range_meters":9200,"station_id":"ce4bhn92rcd13ifvqgrg","pricing_plan_id":"cebpf4jnsgd1na2vs0mg"},{"bike_id":"30e7be75-b0d9-4a9d-a98a-5c23f42adae2","system_id":"levelo_inurba_marseille","lat":43.23151,"lon":5.437032,"is_reserved":false,"is_disabled":false,"rental_uris":{"android":"levelo://app?vid=30e7be75-b0d9-4a9d-a98a-5c23f42adae2","ios":"levelo://app?vid=30e7be75-b0d9-4a9d-a98a-5c23f42adae2"},"vehicle_type_id":"4","last_reported":1744373969,"current_range_meters":9200,"station_id":"ce4bhmp2rcd13ifvqgog","pricing_plan_id":"cebpf4jnsgd1na2vs0mg"},{"bike_id":"1b2a2f65-3246-46da-a318-10a826df64f2","system_id":"levelo_inurba_marseille","lat":43.33027,"lon":5.39032,"is_reserved":false,"is_disabled":false,"rental_uris":{"android":"levelo://app?vid=1b2a2f65-3246-46da-a318-10a826df64f2","ios":"levelo://app?vid=1b2a2f65-3246-46da-a318-10a826df64f2"},"vehicle_type_id":"4","last_reported":1744373969,"current_range_meters":9200,"station_id":"ce4bhr92rcd13ifvqhrg","pricing_plan_id":"cebpf4jnsgd1na2vs0mg"},{"bike_id":"1b5726c3-259c-4107-812b-7f4278221e66","system_id":"levelo_inurba_marseille","lat":43.26581,"lon":5.38996,"is_reserved":false,"is_disabled":false,"rental_uris":{"android":"levelo://app?vid=1b5726c3-259c-4107-812b-7f4278221e66","ios":"levelo://app?vid=1b5726c3-259c-4107-812b-7f4278221e66"},"vehicle_type_id":"4","last_reported":1744373969,"current_range_meters":9600,"station_id":"ce4bhe12rcd13ifvqf30","pricing_plan_id":"cebpf4jnsgd1na2vs0mg"},{"bike_id":"3d2b8ff4-325c-49bf-b719-fc7495a3fb03","system_id":"levelo_inurba_marseille","lat":43.23144,"lon":5.4373,"is_reserved":false,"is_disabled":false,"rental_uris":{"android":"levelo://app?vid=3d2b8ff4-325c-49bf-b719-fc7495a3fb03","ios":"levelo://app?vid=3d2b8ff4-325c-49bf-b719-fc7495a3fb03"},"vehicle_type_id":"4","last_reported":1744373969,"current_range_meters":9600,"station_id":"ce4bhmp2rcd13ifvqgog","pricing_plan_id":"cebpf4jnsgd1na2vs0mg"},{"bike_id":"7d6a15be-c60f-46ef-870e-d14c80a7ef1a","system_id":"levelo_inurba_marseille","lat":43.30332,"lon":5.40432,"is_reserved":false,"is_disabled":false,"rental_uris":{"android":"levelo://app?vid=7d6a15be-c60f-46ef-870e-d14c80a7ef1a","ios":"levelo://app?vid=7d6a15be-c60f-46ef-870e-d14c80a7ef1a"},"vehicle_type_id":"4","last_reported":1744373969,"current_range_meters":9600,"station_id":"ce4bh012rcd13ifvqd10","pricing_plan_id":"cebpf4jnsgd1na2vs0mg"},{"bike_id":"eab6cbfa-cb8e-47d7-b0d6-226ab7facec7","system_id":"levelo_inurba_marseille","lat":43.317138,"lon":5.424068,"is_reserved":false,"is_disabled":true,"rental_uris":{"android":"levelo://app?vid=eab6cbfa-cb8e-47d7-b0d6-226ab7facec7","ios":"levelo://app?vid=eab6cbfa-cb8e-47d7-b0d6-226ab7facec7"},"vehicle_type_id":"4","last_reported":1744373969,"current_range_meters":9600,"station_id":"ce4bhp92rcd13ifvqhbg","pricing_plan_id":"cebpf4jnsgd1na2vs0mg"},{"bike_id":"36134544-6942-4912-b84b-8be12be8f2c1","system_id":"levelo_inurba_marseille","lat":43.29568,"lon":5.42303,"is_reserved":false,"is_disabled":false,"rental_uris":{"android":"levelo://app?vid=36134544-6942-4912-b84b-8be12be8f2c1","ios":"levelo://app?vid=36134544-6942-4912-b84b-8be12be8f2c1"},"vehicle_type_id":"4","last_reported":1744373969,"current_range_meters":10000,"station_id":"ce4bhph2rcd13ifvqhdg","pricing_plan_id":"cebpf4jnsgd1na2vs0mg"},{"bike_id":"e4584e81-d0ff-45d4-a366-ed824c8de9b6","system_id":"levelo_inurba_marseille","lat":43.23156,"lon":5.43703,"is_reserved":false,"is_disabled":false,"rental_uris":{"android":"levelo://app?vid=e4584e81-d0ff-45d4-a366-ed824c8de9b6","ios":"levelo://app?vid=e4584e81-d0ff-45d4-a366-ed824c8de9b6"},"vehicle_type_id":"4","last_reported":1744373969,"current_range_meters":10000,"station_id":"ce4bhmp2rcd13ifvqgog","pricing_plan_id":"cebpf4jnsgd1na2vs0mg"},{"bike_id":"b9107271-0663-4808-8003-7ceb0d2c8834","system_id":"levelo_inurba_marseille","lat":43.243887,"lon":5.37052,"is_reserved":false,"is_disabled":false,"rental_uris":{"android":"levelo://app?vid=b9107271-0663-4808-8003-7ceb0d2c8834","ios":"levelo://app?vid=b9107271-0663-4808-8003-7ceb0d2c8834"},"vehicle_type_id":"4","last_reported":1744373969,"current_range_meters":10000,"station_id":"ce4bhhh2rcd13ifvqfk0","pricing_plan_id":"cebpf4jnsgd1na2vs0mg"},{"bike_id":"4b62ceb0-3657-48c1-8c0f-5ef42bdc9c04","system_id":"levelo_inurba_marseille","lat":43.23058,"lon":5.355,"is_reserved":false,"is_disabled":false,"rental_uris":{"android":"levelo://app?vid=4b62ceb0-3657-48c1-8c0f-5ef42bdc9c04","ios":"levelo://app?vid=4b62ceb0-3657-48c1-8c0f-5ef42bdc9c04"},"vehicle_type_id":"4","last_reported":1744373969,"current_range_meters":10000,"station_id":"cpo3342slgdg3j2ifvpg","pricing_plan_id":"cebpf4jnsgd1na2vs0mg"},{"bike_id":"6096d8e4-4720-4fb3-9e2d-c4f2bdfc9da1","system_id":"levelo_inurba_marseille","lat":43.29055,"lon":5.35914,"is_reserved":false,"is_disabled":false,"rental_uris":{"android":"levelo://app?vid=6096d8e4-4720-4fb3-9e2d-c4f2bdfc9da1","ios":"levelo://app?vid=6096d8e4-4720-4fb3-9e2d-c4f2bdfc9da1"},"vehicle_type_id":"4","last_reported":1744373969,"current_range_meters":10000,"station_id":"ce4bha92rcd13ifvqeg0","pricing_plan_id":"cebpf4jnsgd1na2vs0mg"},{"bike_id":"0fb423c3-7ce5-456b-bfc1-c4c8f0e9c3fc","system_id":"levelo_inurba_marseille","lat":43.29195,"lon":5.35815,"is_reserved":false,"is_disabled":false,"rental_uris":{"android":"levelo://app?vid=0fb423c3-7ce5-456b-bfc1-c4c8f0e9c3fc","ios":"levelo://app?vid=0fb423c3-7ce5-456b-bfc1-c4c8f0e9c3fc"},"vehicle_type_id":"4","last_reported":1744373969,"current_range_meters":10000,"station_id":"ce4bhb12rcd13ifvqel0","pricing_plan_id":"cebpf4jnsgd1na2vs0mg"},{"bike_id":"168f80ff-fdd3-4713-893e-9ecc4c0ffecf","system_id":"levelo_inurba_marseille","lat":43.22936,"lon":5.3539,"is_reserved":false,"is_disabled":false,"rental_uris":{"android":"levelo://app?vid=168f80ff-fdd3-4713-893e-9ecc4c0ffecf","ios":"levelo://app?vid=168f80ff-fdd3-4713-893e-9ecc4c0ffecf"},"vehicle_type_id":"4","last_reported":1744373969,"current_range_meters":10800,"station_id":"cpo3532slgdg3j2ikp40","pricing_plan_id":"cebpf4jnsgd1na2vs0mg"},{"bike_id":"ae922ace-6a9c-48fb-bcbf-cfa52f89e736","system_id":"levelo_inurba_marseille","lat":43.27816,"lon":5.40721,"is_reserved":false,"is_disabled":false,"rental_uris":{"android":"levelo://app?vid=ae922ace-6a9c-48fb-bcbf-cfa52f89e736","ios":"levelo://app?vid=ae922ace-6a9c-48fb-bcbf-cfa52f89e736"},"vehicle_type_id":"4","last_reported":1744373969,"current_range_meters":10800,"station_id":"ce4bhnh2rcd13ifvqgtg","pricing_plan_id":"cebpf4jnsgd1na2vs0mg"},{"bike_id":"b659c376-8302-4703-8558-463c193d44f9","system_id":"levelo_inurba_marseille","lat":43.31358,"lon":5.36707,"is_reserved":false,"is_disabled":false,"rental_uris":{"android":"levelo://app?vid=b659c376-8302-4703-8558-463c193d44f9","ios":"levelo://app?vid=b659c376-8302-4703-8558-463c193d44f9"},"vehicle_type_id":"4","last_reported":1744373969,"current_range_meters":10800,"station_id":"ce4bgr92rcd13ifvqc6g","pricing_plan_id":"cebpf4jnsgd1na2vs0mg"},{"bike_id":"51a356e6-19ea-4bd4-b785-00950cb6513a","system_id":"levelo_inurba_marseille","lat":43.29222,"lon":5.36096,"is_reserved":false,"is_disabled":false,"rental_uris":{"android":"levelo://app?vid=51a356e6-19ea-4bd4-b785-00950cb6513a","ios":"levelo://app?vid=51a356e6-19ea-4bd4-b785-00950cb6513a"},"vehicle_type_id":"4","last_reported":1744373969,"current_range_meters":10800,"station_id":"ce4bhbh2rcd13ifvqeqg","pricing_plan_id":"cebpf4jnsgd1na2vs0mg"},{"bike_id":"4e9a793a-051a-46c8-aa46-07137de25067","system_id":"levelo_inurba_marseille","lat":43.30303,"lon":5.36879,"is_reserved":false,"is_disabled":false,"rental_uris":{"android":"levelo://app?vid=4e9a793a-051a-46c8-aa46-07137de25067","ios":"levelo://app?vid=4e9a793a-051a-46c8-aa46-07137de25067"},"vehicle_type_id":"4","last_reported":1744373969,"current_range_meters":10800,"station_id":"ce4bgqh2rcd13ifvqc5g","pricing_plan_id":"cebpf4jnsgd1na2vs0mg"},{"bike_id":"0922821c-4e1d-4817-9469-860e55f8f0d1","system_id":"levelo_inurba_marseille","lat":43.337444,"lon":5.374475,"is_reserved":false,"is_disabled":false,"rental_uris":{"android":"levelo://app?vid=0922821c-4e1d-4817-9469-860e55f8f0d1","ios":"levelo://app?vid=0922821c-4e1d-4817-9469-860e55f8f0d1"},"vehicle_type_id":"4","last_reported":1744373969,"current_range_meters":10800,"station_id":"","pricing_plan_id":"cebpf4jnsgd1na2vs0mg"},{"bike_id":"a1602530-e283-4ef9-bab3-26a90affb116","system_id":"levelo_inurba_marseille","lat":43.27373,"lon":5.3625,"is_reserved":false,"is_disabled":false,"rental_uris":{"android":"levelo://app?vid=a1602530-e283-4ef9-bab3-26a90affb116","ios":"levelo://app?vid=a1602530-e283-4ef9-bab3-26a90affb116"},"vehicle_type_id":"4","last_reported":1744373969,"current_range_meters":11200,"station_id":"ce4bhbh2rcd13ifvqeo0","pricing_plan_id":"cebpf4jnsgd1na2vs0mg"},{"bike_id":"3f756594-5e26-43c3-b31e-f9e251388bf4","system_id":"levelo_inurba_marseille","lat":43.30535,"lon":5.38417,"is_reserved":false,"is_disabled":false,"rental_uris":{"android":"levelo://app?vid=3f756594-5e26-43c3-b31e-f9e251388bf4","ios":"levelo://app?vid=3f756594-5e26-43c3-b31e-f9e251388bf4"},"vehicle_type_id":"4","last_reported":1744373969,"current_range_meters":11200,"station_id":"ce4bgg92rcd13ifvqb30","pricing_plan_id":"cebpf4jnsgd1na2vs0mg"},{"bike_id":"4f3acd91-ce8e-4583-bef1-d80af5069254","system_id":"levelo_inurba_marseille","lat":43.24187,"lon":5.39694,"is_reserved":false,"is_disabled":false,"rental_uris":{"android":"levelo://app?vid=4f3acd91-ce8e-4583-bef1-d80af5069254","ios":"levelo://app?vid=4f3acd91-ce8e-4583-bef1-d80af5069254"},"vehicle_type_id":"4","last_reported":1744373969,"current_range_meters":11600,"station_id":"ce4bhn12rcd13ifvqgpg","pricing_plan_id":"cebpf4jnsgd1na2vs0mg"},{"bike_id":"f2a980f2-02b1-4dff-828e-3b7430d6f843","system_id":"levelo_inurba_marseille","lat":43.323005,"lon":5.382786,"is_reserved":false,"is_disabled":false,"rental_uris":{"android":"levelo://app?vid=f2a980f2-02b1-4dff-828e-3b7430d6f843","ios":"levelo://app?vid=f2a980f2-02b1-4dff-828e-3b7430d6f843"},"vehicle_type_id":"4","last_reported":1744373969,"current_range_meters":11600,"station_id":"ce4bhr12rcd13ifvqhqg","pricing_plan_id":"cebpf4jnsgd1na2vs0mg"},{"bike_id":"ab9fe35b-e7ca-47d6-9358-5c6b0ea94420","system_id":"levelo_inurba_marseille","lat":43.24388,"lon":5.37068,"is_reserved":false,"is_disabled":false,"rental_uris":{"android":"levelo://app?vid=ab9fe35b-e7ca-47d6-9358-5c6b0ea94420","ios":"levelo://app?vid=ab9fe35b-e7ca-47d6-9358-5c6b0ea94420"},"vehicle_type_id":"4","last_reported":1744373969,"current_range_meters":11600,"station_id":"ce4bhhh2rcd13ifvqfk0","pricing_plan_id":"cebpf4jnsgd1na2vs0mg"},{"bike_id":"68b0afa8-52de-4356-86bd-f5fbcdfe8006","system_id":"levelo_inurba_marseille","lat":43.28488,"lon":5.38431,"is_reserved":false,"is_disabled":false,"rental_uris":{"android":"levelo://app?vid=68b0afa8-52de-4356-86bd-f5fbcdfe8006","ios":"levelo://app?vid=68b0afa8-52de-4356-86bd-f5fbcdfe8006"},"vehicle_type_id":"4","last_reported":1744373969,"current_range_meters":11600,"station_id":"ce4bh9p2rcd13ifvqed0","pricing_plan_id":"cebpf4jnsgd1na2vs0mg"},{"bike_id":"6ae42d22-449e-430c-b887-6a8836aa2696","system_id":"levelo_inurba_marseille","lat":43.30541,"lon":5.36526,"is_reserved":false,"is_disabled":false,"rental_uris":{"android":"levelo://app?vid=6ae42d22-449e-430c-b887-6a8836aa2696","ios":"levelo://app?vid=6ae42d22-449e-430c-b887-6a8836aa2696"},"vehicle_type_id":"4","last_reported":1744373969,"current_range_meters":12000,"station_id":"ce4bgs12rcd13ifvqcag","pricing_plan_id":"cebpf4jnsgd1na2vs0mg"},{"bike_id":"c20cd6a4-73a2-4385-a5a5-58c77e17d4f4","system_id":"levelo_inurba_marseille","lat":43.28667,"lon":5.36353,"is_reserved":false,"is_disabled":false,"rental_uris":{"android":"levelo://app?vid=c20cd6a4-73a2-4385-a5a5-58c77e17d4f4","ios":"levelo://app?vid=c20cd6a4-73a2-4385-a5a5-58c77e17d4f4"},"vehicle_type_id":"4","last_reported":1744373969,"current_range_meters":12000,"station_id":"ce4bhah2rcd13ifvqej0","pricing_plan_id":"cebpf4jnsgd1na2vs0mg"},{"bike_id":"94455896-0f19-4fae-bd72-9879f01fcd6e","system_id":"levelo_inurba_marseille","lat":43.29556,"lon":5.42295,"is_reserved":false,"is_disabled":true,"rental_uris":{"android":"levelo://app?vid=94455896-0f19-4fae-bd72-9879f01fcd6e","ios":"levelo://app?vid=94455896-0f19-4fae-bd72-9879f01fcd6e"},"vehicle_type_id":"4","last_reported":1744373969,"current_range_meters":12000,"station_id":"ce4bhph2rcd13ifvqhdg","pricing_plan_id":"cebpf4jnsgd1na2vs0mg"},{"bike_id":"78a7a2f4-b28b-4caa-8ef3-5d3bd2acefce","system_id":"levelo_inurba_marseille","lat":43.2827,"lon":5.35059,"is_reserved":false,"is_disabled":false,"rental_uris":{"android":"levelo://app?vid=78a7a2f4-b28b-4caa-8ef3-5d3bd2acefce","ios":"levelo://app?vid=78a7a2f4-b28b-4caa-8ef3-5d3bd2acefce"},"vehicle_type_id":"4","last_reported":1744373969,"current_range_meters":12000,"station_id":"ce4bhbp2rcd13ifvqerg","pricing_plan_id":"cebpf4jnsgd1na2vs0mg"},{"bike_id":"171be39c-0592-4774-8097-c6fbfb74b440","system_id":"levelo_inurba_marseille","lat":43.25871,"lon":5.39894,"is_reserved":false,"is_disabled":false,"rental_uris":{"android":"levelo://app?vid=171be39c-0592-4774-8097-c6fbfb74b440","ios":"levelo://app?vid=171be39c-0592-4774-8097-c6fbfb74b440"},"vehicle_type_id":"4","last_reported":1744373969,"current_range_meters":11600,"station_id":"ce4bhl92rcd13ifvqghg","pricing_plan_id":"cebpf4jnsgd1na2vs0mg"},{"bike_id":"feb04d1c-c2bd-4d38-91ca-a0075a753750","system_id":"levelo_inurba_marseille","lat":43.28428,"lon":5.34985,"is_reserved":false,"is_disabled":false,"rental_uris":{"android":"levelo://app?vid=feb04d1c-c2bd-4d38-91ca-a0075a753750","ios":"levelo://app?vid=feb04d1c-c2bd-4d38-91ca-a0075a753750"},"vehicle_type_id":"4","last_reported":1744373969,"current_range_meters":12400,"station_id":"ce4bhbh2rcd13ifvqepg","pricing_plan_id":"cebpf4jnsgd1na2vs0mg"},{"bike_id":"118784bc-ace5-42b2-8d69-119b9fcf300c","system_id":"levelo_inurba_marseille","lat":43.23152,"lon":5.43716,"is_reserved":false,"is_disabled":false,"rental_uris":{"android":"levelo://app?vid=118784bc-ace5-42b2-8d69-119b9fcf300c","ios":"levelo://app?vid=118784bc-ace5-42b2-8d69-119b9fcf300c"},"vehicle_type_id":"4","last_reported":1744373969,"current_range_meters":12400,"station_id":"ce4bhmp2rcd13ifvqgog","pricing_plan_id":"cebpf4jnsgd1na2vs0mg"},{"bike_id":"33551090-e6d0-4b4b-819a-3dbf58b9aa84","system_id":"levelo_inurba_marseille","lat":43.28614,"lon":5.35112,"is_reserved":false,"is_disabled":false,"rental_uris":{"android":"levelo://app?vid=33551090-e6d0-4b4b-819a-3dbf58b9aa84","ios":"levelo://app?vid=33551090-e6d0-4b4b-819a-3dbf58b9aa84"},"vehicle_type_id":"4","last_reported":1744373969,"current_range_meters":12800,"station_id":"ce4bhch2rcd13ifvqeug","pricing_plan_id":"cebpf4jnsgd1na2vs0mg"},{"bike_id":"463b41fd-37bb-48c0-a6e4-12f737a3d7cf","system_id":"levelo_inurba_marseille","lat":43.2693,"lon":5.40343,"is_reserved":false,"is_disabled":true,"rental_uris":{"android":"levelo://app?vid=463b41fd-37bb-48c0-a6e4-12f737a3d7cf","ios":"levelo://app?vid=463b41fd-37bb-48c0-a6e4-12f737a3d7cf"},"vehicle_type_id":"4","last_reported":1744373969,"current_range_meters":12800,"station_id":"","pricing_plan_id":"cebpf4jnsgd1na2vs0mg"},{"bike_id":"16c98848-ed32-4ab0-ab4f-913000f8514d","system_id":"levelo_inurba_marseille","lat":43.23184,"lon":5.39992,"is_reserved":false,"is_disabled":false,"rental_uris":{"android":"levelo://app?vid=16c98848-ed32-4ab0-ab4f-913000f8514d","ios":"levelo://app?vid=16c98848-ed32-4ab0-ab4f-913000f8514d"},"vehicle_type_id":"4","last_reported":1744373969,"current_range_meters":12800,"station_id":"ce4bhn12rcd13ifvqgqg","pricing_plan_id":"cebpf4jnsgd1na2vs0mg"},{"bike_id":"11605470-636b-42f3-af73-666dbb2d6aa0","system_id":"levelo_inurba_marseille","lat":43.27373,"lon":5.36255,"is_reserved":false,"is_disabled":false,"rental_uris":{"android":"levelo://app?vid=11605470-636b-42f3-af73-666dbb2d6aa0","ios":"levelo://app?vid=11605470-636b-42f3-af73-666dbb2d6aa0"},"vehicle_type_id":"4","last_reported":1744373969,"current_range_meters":12800,"station_id":"ce4bhbh2rcd13ifvqeo0","pricing_plan_id":"cebpf4jnsgd1na2vs0mg"},{"bike_id":"8def42d5-7601-461e-b69f-dd41878701ec","system_id":"levelo_inurba_marseille","lat":43.30482,"lon":5.37906,"is_reserved":false,"is_disabled":false,"rental_uris":{"android":"levelo://app?vid=8def42d5-7601-461e-b69f-dd41878701ec","ios":"levelo://app?vid=8def42d5-7601-461e-b69f-dd41878701ec"},"vehicle_type_id":"4","last_reported":1744373969,"current_range_meters":13600,"station_id":"ce4bgup2rcd13ifvqcn0","pricing_plan_id":"cebpf4jnsgd1na2vs0mg"},{"bike_id":"2d2e31a1-75bd-4ef3-8efc-056c6e4199ac","system_id":"levelo_inurba_marseille","lat":43.28616,"lon":5.35102,"is_reserved":false,"is_disabled":false,"rental_uris":{"android":"levelo://app?vid=2d2e31a1-75bd-4ef3-8efc-056c6e4199ac","ios":"levelo://app?vid=2d2e31a1-75bd-4ef3-8efc-056c6e4199ac"},"vehicle_type_id":"4","last_reported":1744373969,"current_range_meters":14000,"station_id":"ce4bhch2rcd13ifvqeug","pricing_plan_id":"cebpf4jnsgd1na2vs0mg"},{"bike_id":"6eb8c57a-4190-4f8d-86a1-123baf9063f7","system_id":"levelo_inurba_marseille","lat":43.3052,"lon":5.36496,"is_reserved":false,"is_disabled":false,"rental_uris":{"android":"levelo://app?vid=6eb8c57a-4190-4f8d-86a1-123baf9063f7","ios":"levelo://app?vid=6eb8c57a-4190-4f8d-86a1-123baf9063f7"},"vehicle_type_id":"4","last_reported":1744373969,"current_range_meters":14000,"station_id":"ce4bgs12rcd13ifvqcag","pricing_plan_id":"cebpf4jnsgd1na2vs0mg"},{"bike_id":"f1849247-1a3b-4eef-b251-a7a4f51ab6d4","system_id":"levelo_inurba_marseille","lat":43.22934,"lon":5.35406,"is_reserved":false,"is_disabled":false,"rental_uris":{"android":"levelo://app?vid=f1849247-1a3b-4eef-b251-a7a4f51ab6d4","ios":"levelo://app?vid=f1849247-1a3b-4eef-b251-a7a4f51ab6d4"},"vehicle_type_id":"4","last_reported":1744373969,"current_range_meters":14000,"station_id":"cpo3532slgdg3j2ikp40","pricing_plan_id":"cebpf4jnsgd1na2vs0mg"},{"bike_id":"b62519d7-7117-4af2-8166-db06333a922f","system_id":"levelo_inurba_marseille","lat":43.23156,"lon":5.43709,"is_reserved":false,"is_disabled":false,"rental_uris":{"android":"levelo://app?vid=b62519d7-7117-4af2-8166-db06333a922f","ios":"levelo://app?vid=b62519d7-7117-4af2-8166-db06333a922f"},"vehicle_type_id":"4","last_reported":1744373969,"current_range_meters":14000,"station_id":"ce4bhmp2rcd13ifvqgog","pricing_plan_id":"cebpf4jnsgd1na2vs0mg"},{"bike_id":"4bcdcc82-d58d-4172-b626-a8c82408681c","system_id":"levelo_inurba_marseille","lat":43.31232,"lon":5.36861,"is_reserved":false,"is_disabled":true,"rental_uris":{"android":"levelo://app?vid=4bcdcc82-d58d-4172-b626-a8c82408681c","ios":"levelo://app?vid=4bcdcc82-d58d-4172-b626-a8c82408681c"},"vehicle_type_id":"4","last_reported":1744373969,"current_range_meters":14400,"station_id":"ce4bgl92rcd13ifvqbq0","pricing_plan_id":"cebpf4jnsgd1na2vs0mg"},{"bike_id":"17e08284-d806-4d99-aee8-fc07921dc7b1","system_id":"levelo_inurba_marseille","lat":43.27807,"lon":5.40714,"is_reserved":false,"is_disabled":false,"rental_uris":{"android":"levelo://app?vid=17e08284-d806-4d99-aee8-fc07921dc7b1","ios":"levelo://app?vid=17e08284-d806-4d99-aee8-fc07921dc7b1"},"vehicle_type_id":"4","last_reported":1744373969,"current_range_meters":14400,"station_id":"ce4bhnh2rcd13ifvqgtg","pricing_plan_id":"cebpf4jnsgd1na2vs0mg"},{"bike_id":"0ddf776c-d331-4742-a390-e261c54b7ae1","system_id":"levelo_inurba_marseille","lat":43.21198,"lon":5.35068,"is_reserved":false,"is_disabled":false,"rental_uris":{"android":"levelo://app?vid=0ddf776c-d331-4742-a390-e261c54b7ae1","ios":"levelo://app?vid=0ddf776c-d331-4742-a390-e261c54b7ae1"},"vehicle_type_id":"4","last_reported":1744373969,"current_range_meters":14400,"station_id":"st_cvj6sg6p6f1abm77japg","pricing_plan_id":"cebpf4jnsgd1na2vs0mg"},{"bike_id":"8f364d93-dbca-4091-94b6-18d3a6920020","system_id":"levelo_inurba_marseille","lat":43.21192,"lon":5.35071,"is_reserved":false,"is_disabled":false,"rental_uris":{"android":"levelo://app?vid=8f364d93-dbca-4091-94b6-18d3a6920020","ios":"levelo://app?vid=8f364d93-dbca-4091-94b6-18d3a6920020"},"vehicle_type_id":"4","last_reported":1744373969,"current_range_meters":14400,"station_id":"st_cvj6sg6p6f1abm77japg","pricing_plan_id":"cebpf4jnsgd1na2vs0mg"},{"bike_id":"8e5be984-786e-48c8-8c8c-71288750e9a0","system_id":"levelo_inurba_marseille","lat":43.30552,"lon":5.36544,"is_reserved":false,"is_disabled":false,"rental_uris":{"android":"levelo://app?vid=8e5be984-786e-48c8-8c8c-71288750e9a0","ios":"levelo://app?vid=8e5be984-786e-48c8-8c8c-71288750e9a0"},"vehicle_type_id":"4","last_reported":1744373969,"current_range_meters":14400,"station_id":"ce4bgs12rcd13ifvqcag","pricing_plan_id":"cebpf4jnsgd1na2vs0mg"},{"bike_id":"7ecb8ede-57ca-44aa-8298-85b1b4a01d10","system_id":"levelo_inurba_marseille","lat":43.25121,"lon":5.40355,"is_reserved":false,"is_disabled":false,"rental_uris":{"android":"levelo://app?vid=7ecb8ede-57ca-44aa-8298-85b1b4a01d10","ios":"levelo://app?vid=7ecb8ede-57ca-44aa-8298-85b1b4a01d10"},"vehicle_type_id":"4","last_reported":1744373969,"current_range_meters":14800,"station_id":"ce4bhlh2rcd13ifvqgig","pricing_plan_id":"cebpf4jnsgd1na2vs0mg"},{"bike_id":"2ba24ca1-f9ca-431f-9eba-b0e65972a4cc","system_id":"levelo_inurba_marseille","lat":43.26951,"lon":5.38932,"is_reserved":false,"is_disabled":false,"rental_uris":{"android":"levelo://app?vid=2ba24ca1-f9ca-431f-9eba-b0e65972a4cc","ios":"levelo://app?vid=2ba24ca1-f9ca-431f-9eba-b0e65972a4cc"},"vehicle_type_id":"4","last_reported":1744373969,"current_range_meters":14800,"station_id":"ce4bhhh2rcd13ifvqfl0","pricing_plan_id":"cebpf4jnsgd1na2vs0mg"},{"bike_id":"0a12228f-61f9-48c1-9f2f-bd8159dce7a6","system_id":"levelo_inurba_marseille","lat":43.26224,"lon":5.37463,"is_reserved":false,"is_disabled":true,"rental_uris":{"android":"levelo://app?vid=0a12228f-61f9-48c1-9f2f-bd8159dce7a6","ios":"levelo://app?vid=0a12228f-61f9-48c1-9f2f-bd8159dce7a6"},"vehicle_type_id":"4","last_reported":1744373969,"current_range_meters":14800,"station_id":"","pricing_plan_id":"cebpf4jnsgd1na2vs0mg"},{"bike_id":"22565024-bc91-4ea2-8958-596447b0ed26","system_id":"levelo_inurba_marseille","lat":43.27219,"lon":5.39184,"is_reserved":false,"is_disabled":false,"rental_uris":{"android":"levelo://app?vid=22565024-bc91-4ea2-8958-596447b0ed26","ios":"levelo://app?vid=22565024-bc91-4ea2-8958-596447b0ed26"},"vehicle_type_id":"4","last_reported":1744373969,"current_range_meters":14800,"station_id":"ce4bhhp2rcd13ifvqfm0","pricing_plan_id":"cebpf4jnsgd1na2vs0mg"},{"bike_id":"037b22b7-4f58-415e-a936-e3a2b5445e6a","system_id":"levelo_inurba_marseille","lat":43.26027,"lon":5.37548,"is_reserved":false,"is_disabled":false,"rental_uris":{"android":"levelo://app?vid=037b22b7-4f58-415e-a936-e3a2b5445e6a","ios":"levelo://app?vid=037b22b7-4f58-415e-a936-e3a2b5445e6a"},"vehicle_type_id":"4","last_reported":1744373969,"current_range_meters":14800,"station_id":"ce4bhgh2rcd13ifvqfa0","pricing_plan_id":"cebpf4jnsgd1na2vs0mg"},{"bike_id":"b3d15aa1-72a7-4586-9239-713f2a344c92","system_id":"levelo_inurba_marseille","lat":43.25019,"lon":5.38936,"is_reserved":false,"is_disabled":false,"rental_uris":{"android":"levelo://app?vid=b3d15aa1-72a7-4586-9239-713f2a344c92","ios":"levelo://app?vid=b3d15aa1-72a7-4586-9239-713f2a344c92"},"vehicle_type_id":"4","last_reported":1744373969,"current_range_meters":15200,"station_id":"ce4bhgp2rcd13ifvqfd0","pricing_plan_id":"cebpf4jnsgd1na2vs0mg"},{"bike_id":"4c893399-b4ed-40ed-a49f-713da320f269","system_id":"levelo_inurba_marseille","lat":43.29861,"lon":5.37841,"is_reserved":false,"is_disabled":false,"rental_uris":{"android":"levelo://app?vid=4c893399-b4ed-40ed-a49f-713da320f269","ios":"levelo://app?vid=4c893399-b4ed-40ed-a49f-713da320f269"},"vehicle_type_id":"4","last_reported":1744373969,"current_range_meters":15200,"station_id":"","pricing_plan_id":"cebpf4jnsgd1na2vs0mg"},{"bike_id":"c40401d5-b7fe-4755-b4f5-3f76908a80c3","system_id":"levelo_inurba_marseille","lat":43.28617,"lon":5.35107,"is_reserved":false,"is_disabled":false,"rental_uris":{"android":"levelo://app?vid=c40401d5-b7fe-4755-b4f5-3f76908a80c3","ios":"levelo://app?vid=c40401d5-b7fe-4755-b4f5-3f76908a80c3"},"vehicle_type_id":"4","last_reported":1744373969,"current_range_meters":15200,"station_id":"ce4bhch2rcd13ifvqeug","pricing_plan_id":"cebpf4jnsgd1na2vs0mg"},{"bike_id":"03254550-141f-4ac6-8b3c-515301772ddd","system_id":"levelo_inurba_marseille","lat":43.25118,"lon":5.4032,"is_reserved":false,"is_disabled":false,"rental_uris":{"android":"levelo://app?vid=03254550-141f-4ac6-8b3c-515301772ddd","ios":"levelo://app?vid=03254550-141f-4ac6-8b3c-515301772ddd"},"vehicle_type_id":"4","last_reported":1744373969,"current_range_meters":18000,"station_id":"ce4bhlh2rcd13ifvqgig","pricing_plan_id":"cebpf4jnsgd1na2vs0mg"},{"bike_id":"12f552fb-128b-4f39-a171-4a4db7cfeac8","system_id":"levelo_inurba_marseille","lat":43.284165,"lon":5.349725,"is_reserved":false,"is_disabled":false,"rental_uris":{"android":"levelo://app?vid=12f552fb-128b-4f39-a171-4a4db7cfeac8","ios":"levelo://app?vid=12f552fb-128b-4f39-a171-4a4db7cfeac8"},"vehicle_type_id":"4","last_reported":1744373969,"current_range_meters":16000,"station_id":"ce4bhbh2rcd13ifvqepg","pricing_plan_id":"cebpf4jnsgd1na2vs0mg"},{"bike_id":"ef291804-1477-432e-b153-82ea15725418","system_id":"levelo_inurba_marseille","lat":43.33742,"lon":5.37454,"is_reserved":false,"is_disabled":false,"rental_uris":{"android":"levelo://app?vid=ef291804-1477-432e-b153-82ea15725418","ios":"levelo://app?vid=ef291804-1477-432e-b153-82ea15725418"},"vehicle_type_id":"4","last_reported":1744373969,"current_range_meters":16000,"station_id":"","pricing_plan_id":"cebpf4jnsgd1na2vs0mg"},{"bike_id":"5e5d5919-e11c-45c7-98c5-dab1eab23575","system_id":"levelo_inurba_marseille","lat":43.24172,"lon":5.39732,"is_reserved":false,"is_disabled":false,"rental_uris":{"android":"levelo://app?vid=5e5d5919-e11c-45c7-98c5-dab1eab23575","ios":"levelo://app?vid=5e5d5919-e11c-45c7-98c5-dab1eab23575"},"vehicle_type_id":"4","last_reported":1744373969,"current_range_meters":16000,"station_id":"ce4bhn12rcd13ifvqgpg","pricing_plan_id":"cebpf4jnsgd1na2vs0mg"},{"bike_id":"e4b00dd6-105f-48c9-98a5-081c8fd864c2","system_id":"levelo_inurba_marseille","lat":43.306435,"lon":5.400944,"is_reserved":false,"is_disabled":false,"rental_uris":{"android":"levelo://app?vid=e4b00dd6-105f-48c9-98a5-081c8fd864c2","ios":"levelo://app?vid=e4b00dd6-105f-48c9-98a5-081c8fd864c2"},"vehicle_type_id":"4","last_reported":1744373969,"current_range_meters":16000,"station_id":"ce4bh112rcd13ifvqda0","pricing_plan_id":"cebpf4jnsgd1na2vs0mg"},{"bike_id":"8c58f2fa-99e1-41f8-bf90-9c1648b679b1","system_id":"levelo_inurba_marseille","lat":43.273016,"lon":5.41417,"is_reserved":false,"is_disabled":false,"rental_uris":{"android":"levelo://app?vid=8c58f2fa-99e1-41f8-bf90-9c1648b679b1","ios":"levelo://app?vid=8c58f2fa-99e1-41f8-bf90-9c1648b679b1"},"vehicle_type_id":"4","last_reported":1744373969,"current_range_meters":16000,"station_id":"","pricing_plan_id":"cebpf4jnsgd1na2vs0mg"},{"bike_id":"ae0ff523-1d2b-4c8c-a6e3-e54a575ae618","system_id":"levelo_inurba_marseille","lat":43.2439,"lon":5.37065,"is_reserved":false,"is_disabled":false,"rental_uris":{"android":"levelo://app?vid=ae0ff523-1d2b-4c8c-a6e3-e54a575ae618","ios":"levelo://app?vid=ae0ff523-1d2b-4c8c-a6e3-e54a575ae618"},"vehicle_type_id":"4","last_reported":1744373969,"current_range_meters":16000,"station_id":"ce4bhhh2rcd13ifvqfk0","pricing_plan_id":"cebpf4jnsgd1na2vs0mg"},{"bike_id":"a408342e-ce9a-4c4e-aa2d-f41986a985a9","system_id":"levelo_inurba_marseille","lat":43.27072,"lon":5.42279,"is_reserved":false,"is_disabled":false,"rental_uris":{"android":"levelo://app?vid=a408342e-ce9a-4c4e-aa2d-f41986a985a9","ios":"levelo://app?vid=a408342e-ce9a-4c4e-aa2d-f41986a985a9"},"vehicle_type_id":"4","last_reported":1744373969,"current_range_meters":16000,"station_id":"ce4bhk92rcd13ifvqgb0","pricing_plan_id":"cebpf4jnsgd1na2vs0mg"},{"bike_id":"a3992239-134e-40db-88b9-48de251f27f8","system_id":"levelo_inurba_marseille","lat":43.31082,"lon":5.38363,"is_reserved":false,"is_disabled":false,"rental_uris":{"android":"levelo://app?vid=a3992239-134e-40db-88b9-48de251f27f8","ios":"levelo://app?vid=a3992239-134e-40db-88b9-48de251f27f8"},"vehicle_type_id":"4","last_reported":1744373969,"current_range_meters":16400,"station_id":"ce4bgv92rcd13ifvqcr0","pricing_plan_id":"cebpf4jnsgd1na2vs0mg"},{"bike_id":"b2ce936b-391b-47f6-a1f9-02af9a4ea3b0","system_id":"levelo_inurba_marseille","lat":43.31386,"lon":5.36683,"is_reserved":false,"is_disabled":false,"rental_uris":{"android":"levelo://app?vid=b2ce936b-391b-47f6-a1f9-02af9a4ea3b0","ios":"levelo://app?vid=b2ce936b-391b-47f6-a1f9-02af9a4ea3b0"},"vehicle_type_id":"4","last_reported":1744373969,"current_range_meters":16400,"station_id":"","pricing_plan_id":"cebpf4jnsgd1na2vs0mg"},{"bike_id":"74eab4be-1036-4b86-85b1-2d2f2b51f075","system_id":"levelo_inurba_marseille","lat":43.31883,"lon":5.40737,"is_reserved":false,"is_disabled":false,"rental_uris":{"android":"levelo://app?vid=74eab4be-1036-4b86-85b1-2d2f2b51f075","ios":"levelo://app?vid=74eab4be-1036-4b86-85b1-2d2f2b51f075"},"vehicle_type_id":"4","last_reported":1744373969,"current_range_meters":16400,"station_id":"ce4bhq12rcd13ifvqhig","pricing_plan_id":"cebpf4jnsgd1na2vs0mg"},{"bike_id":"ed8183f5-7ce2-494c-a4f3-b14bf2217047","system_id":"levelo_inurba_marseille","lat":43.33606,"lon":5.41036,"is_reserved":false,"is_disabled":false,"rental_uris":{"android":"levelo://app?vid=ed8183f5-7ce2-494c-a4f3-b14bf2217047","ios":"levelo://app?vid=ed8183f5-7ce2-494c-a4f3-b14bf2217047"},"vehicle_type_id":"4","last_reported":1744373969,"current_range_meters":16400,"station_id":"ce4bhqh2rcd13ifvqhmg","pricing_plan_id":"cebpf4jnsgd1na2vs0mg"},{"bike_id":"56743c8f-0faf-4423-886e-5703d2c4b192","system_id":"levelo_inurba_marseille","lat":43.28702,"lon":5.39989,"is_reserved":false,"is_disabled":false,"rental_uris":{"android":"levelo://app?vid=56743c8f-0faf-4423-886e-5703d2c4b192","ios":"levelo://app?vid=56743c8f-0faf-4423-886e-5703d2c4b192"},"vehicle_type_id":"4","last_reported":1744373969,"current_range_meters":16400,"station_id":"ce4bho92rcd13ifvqh3g","pricing_plan_id":"cebpf4jnsgd1na2vs0mg"},{"bike_id":"9a42562a-9aa0-456b-a04f-6d1eb00eb553","system_id":"levelo_inurba_marseille","lat":43.26568,"lon":5.3729,"is_reserved":false,"is_disabled":false,"rental_uris":{"android":"levelo://app?vid=9a42562a-9aa0-456b-a04f-6d1eb00eb553","ios":"levelo://app?vid=9a42562a-9aa0-456b-a04f-6d1eb00eb553"},"vehicle_type_id":"4","last_reported":1744373969,"current_range_meters":16400,"station_id":"ce4bhg12rcd13ifvqf70","pricing_plan_id":"cebpf4jnsgd1na2vs0mg"},{"bike_id":"b23c94b8-d5d3-4e0b-8152-41fe9d7297e8","system_id":"levelo_inurba_marseille","lat":43.32352,"lon":5.3675,"is_reserved":false,"is_disabled":false,"rental_uris":{"android":"levelo://app?vid=b23c94b8-d5d3-4e0b-8152-41fe9d7297e8","ios":"levelo://app?vid=b23c94b8-d5d3-4e0b-8152-41fe9d7297e8"},"vehicle_type_id":"4","last_reported":1744373969,"current_range_meters":16800,"station_id":"ce4bhsh2rcd13ifvqi2g","pricing_plan_id":"cebpf4jnsgd1na2vs0mg"},{"bike_id":"675a3e52-bc57-476e-8c51-d19ddaa42d0c","system_id":"levelo_inurba_marseille","lat":43.28484,"lon":5.3857,"is_reserved":false,"is_disabled":false,"rental_uris":{"android":"levelo://app?vid=675a3e52-bc57-476e-8c51-d19ddaa42d0c","ios":"levelo://app?vid=675a3e52-bc57-476e-8c51-d19ddaa42d0c"},"vehicle_type_id":"4","last_reported":1744373969,"current_range_meters":16800,"station_id":"ce4bh8p2rcd13ifvqeb0","pricing_plan_id":"cebpf4jnsgd1na2vs0mg"},{"bike_id":"54a7d26a-c5f8-4008-b945-bcc5a036c746","system_id":"levelo_inurba_marseille","lat":43.23323,"lon":5.3616,"is_reserved":false,"is_disabled":false,"rental_uris":{"android":"levelo://app?vid=54a7d26a-c5f8-4008-b945-bcc5a036c746","ios":"levelo://app?vid=54a7d26a-c5f8-4008-b945-bcc5a036c746"},"vehicle_type_id":"4","last_reported":1744373969,"current_range_meters":16800,"station_id":"","pricing_plan_id":"cebpf4jnsgd1na2vs0mg"},{"bike_id":"549918be-d79a-4899-a870-6473907900ee","system_id":"levelo_inurba_marseille","lat":43.298523,"lon":5.36286,"is_reserved":false,"is_disabled":false,"rental_uris":{"android":"levelo://app?vid=549918be-d79a-4899-a870-6473907900ee","ios":"levelo://app?vid=549918be-d79a-4899-a870-6473907900ee"},"vehicle_type_id":"4","last_reported":1744373969,"current_range_meters":16800,"station_id":"ce4bgpp2rcd13ifvqc3g","pricing_plan_id":"cebpf4jnsgd1na2vs0mg"},{"bike_id":"2473096a-dfc1-4573-87fc-a0162a53cb4c","system_id":"levelo_inurba_marseille","lat":43.28632,"lon":5.35089,"is_reserved":false,"is_disabled":false,"rental_uris":{"android":"levelo://app?vid=2473096a-dfc1-4573-87fc-a0162a53cb4c","ios":"levelo://app?vid=2473096a-dfc1-4573-87fc-a0162a53cb4c"},"vehicle_type_id":"4","last_reported":1744373969,"current_range_meters":16800,"station_id":"ce4bhch2rcd13ifvqeug","pricing_plan_id":"cebpf4jnsgd1na2vs0mg"},{"bike_id":"0809e8c9-ea96-4917-9ec2-511462bf713d","system_id":"levelo_inurba_marseille","lat":43.30424,"lon":5.39746,"is_reserved":false,"is_disabled":false,"rental_uris":{"android":"levelo://app?vid=0809e8c9-ea96-4917-9ec2-511462bf713d","ios":"levelo://app?vid=0809e8c9-ea96-4917-9ec2-511462bf713d"},"vehicle_type_id":"4","last_reported":1744373969,"current_range_meters":16400,"station_id":"ce4bh092rcd13ifvqd20","pricing_plan_id":"cebpf4jnsgd1na2vs0mg"},{"bike_id":"94285f83-3b5d-462b-97b6-1d5eba6c8ae0","system_id":"levelo_inurba_marseille","lat":43.30478,"lon":5.37897,"is_reserved":false,"is_disabled":false,"rental_uris":{"android":"levelo://app?vid=94285f83-3b5d-462b-97b6-1d5eba6c8ae0","ios":"levelo://app?vid=94285f83-3b5d-462b-97b6-1d5eba6c8ae0"},"vehicle_type_id":"4","last_reported":1744373969,"current_range_meters":16800,"station_id":"ce4bgup2rcd13ifvqcn0","pricing_plan_id":"cebpf4jnsgd1na2vs0mg"},{"bike_id":"d6d6be4a-85da-467c-b6fe-306a2b7fe0e7","system_id":"levelo_inurba_marseille","lat":43.27211,"lon":5.39182,"is_reserved":false,"is_disabled":false,"rental_uris":{"android":"levelo://app?vid=d6d6be4a-85da-467c-b6fe-306a2b7fe0e7","ios":"levelo://app?vid=d6d6be4a-85da-467c-b6fe-306a2b7fe0e7"},"vehicle_type_id":"4","last_reported":1744373969,"current_range_meters":16800,"station_id":"ce4bhhp2rcd13ifvqfm0","pricing_plan_id":"cebpf4jnsgd1na2vs0mg"},{"bike_id":"5b77a833-8185-45c2-9fe3-07eb40df54ca","system_id":"levelo_inurba_marseille","lat":43.33995,"lon":5.38057,"is_reserved":false,"is_disabled":false,"rental_uris":{"android":"levelo://app?vid=5b77a833-8185-45c2-9fe3-07eb40df54ca","ios":"levelo://app?vid=5b77a833-8185-45c2-9fe3-07eb40df54ca"},"vehicle_type_id":"4","last_reported":1744373969,"current_range_meters":16800,"station_id":"","pricing_plan_id":"cebpf4jnsgd1na2vs0mg"},{"bike_id":"874610fc-3b64-4457-99ae-ce0a442087ea","system_id":"levelo_inurba_marseille","lat":43.2418,"lon":5.39734,"is_reserved":false,"is_disabled":false,"rental_uris":{"android":"levelo://app?vid=874610fc-3b64-4457-99ae-ce0a442087ea","ios":"levelo://app?vid=874610fc-3b64-4457-99ae-ce0a442087ea"},"vehicle_type_id":"4","last_reported":1744373969,"current_range_meters":17200,"station_id":"ce4bhn12rcd13ifvqgpg","pricing_plan_id":"cebpf4jnsgd1na2vs0mg"},{"bike_id":"80f98af0-2f31-427f-aca2-71ca911dbdea","system_id":"levelo_inurba_marseille","lat":43.27805,"lon":5.4073,"is_reserved":false,"is_disabled":false,"rental_uris":{"android":"levelo://app?vid=80f98af0-2f31-427f-aca2-71ca911dbdea","ios":"levelo://app?vid=80f98af0-2f31-427f-aca2-71ca911dbdea"},"vehicle_type_id":"4","last_reported":1744373969,"current_range_meters":17600,"station_id":"ce4bhnh2rcd13ifvqgtg","pricing_plan_id":"cebpf4jnsgd1na2vs0mg"},{"bike_id":"09374a37-9976-47e2-9cfc-276a8de6dc26","system_id":"levelo_inurba_marseille","lat":43.288747,"lon":5.358511,"is_reserved":false,"is_disabled":false,"rental_uris":{"android":"levelo://app?vid=09374a37-9976-47e2-9cfc-276a8de6dc26","ios":"levelo://app?vid=09374a37-9976-47e2-9cfc-276a8de6dc26"},"vehicle_type_id":"4","last_reported":1744373969,"current_range_meters":17600,"station_id":"","pricing_plan_id":"cebpf4jnsgd1na2vs0mg"},{"bike_id":"e8a976c7-9f07-472d-bdf5-db09d89d483d","system_id":"levelo_inurba_marseille","lat":43.25108,"lon":5.40326,"is_reserved":false,"is_disabled":false,"rental_uris":{"android":"levelo://app?vid=e8a976c7-9f07-472d-bdf5-db09d89d483d","ios":"levelo://app?vid=e8a976c7-9f07-472d-bdf5-db09d89d483d"},"vehicle_type_id":"4","last_reported":1744373969,"current_range_meters":17200,"station_id":"ce4bhlh2rcd13ifvqgig","pricing_plan_id":"cebpf4jnsgd1na2vs0mg"},{"bike_id":"0e7bf4ae-5aed-4055-a1f8-96debbb9847e","system_id":"levelo_inurba_marseille","lat":43.24175,"lon":5.36399,"is_reserved":false,"is_disabled":false,"rental_uris":{"android":"levelo://app?vid=0e7bf4ae-5aed-4055-a1f8-96debbb9847e","ios":"levelo://app?vid=0e7bf4ae-5aed-4055-a1f8-96debbb9847e"},"vehicle_type_id":"4","last_reported":1744373969,"current_range_meters":17600,"station_id":"cpo36qri1sfpv3e86is0","pricing_plan_id":"cebpf4jnsgd1na2vs0mg"},{"bike_id":"5ba68d68-988d-4e0d-82b5-6e5c047bd70c","system_id":"levelo_inurba_marseille","lat":43.22928,"lon":5.35379,"is_reserved":false,"is_disabled":false,"rental_uris":{"android":"levelo://app?vid=5ba68d68-988d-4e0d-82b5-6e5c047bd70c","ios":"levelo://app?vid=5ba68d68-988d-4e0d-82b5-6e5c047bd70c"},"vehicle_type_id":"4","last_reported":1744373969,"current_range_meters":18000,"station_id":"cpo3532slgdg3j2ikp40","pricing_plan_id":"cebpf4jnsgd1na2vs0mg"},{"bike_id":"4d6720cd-1fa8-4e2a-a7ea-2bbf7044bd7d","system_id":"levelo_inurba_marseille","lat":43.30552,"lon":5.36536,"is_reserved":false,"is_disabled":false,"rental_uris":{"android":"levelo://app?vid=4d6720cd-1fa8-4e2a-a7ea-2bbf7044bd7d","ios":"levelo://app?vid=4d6720cd-1fa8-4e2a-a7ea-2bbf7044bd7d"},"vehicle_type_id":"4","last_reported":1744373969,"current_range_meters":18000,"station_id":"ce4bgs12rcd13ifvqcag","pricing_plan_id":"cebpf4jnsgd1na2vs0mg"},{"bike_id":"7c4545c3-c1b1-465e-91cc-14a8c8097af0","system_id":"levelo_inurba_marseille","lat":43.30603,"lon":5.39376,"is_reserved":false,"is_disabled":true,"rental_uris":{"android":"levelo://app?vid=7c4545c3-c1b1-465e-91cc-14a8c8097af0","ios":"levelo://app?vid=7c4545c3-c1b1-465e-91cc-14a8c8097af0"},"vehicle_type_id":"4","last_reported":1744373969,"current_range_meters":18000,"station_id":"ce4bh0p2rcd13ifvqd80","pricing_plan_id":"cebpf4jnsgd1na2vs0mg"},{"bike_id":"790effc8-5351-42cb-a7c5-d60166bea5fe","system_id":"levelo_inurba_marseille","lat":43.24996,"lon":5.38932,"is_reserved":false,"is_disabled":false,"rental_uris":{"android":"levelo://app?vid=790effc8-5351-42cb-a7c5-d60166bea5fe","ios":"levelo://app?vid=790effc8-5351-42cb-a7c5-d60166bea5fe"},"vehicle_type_id":"4","last_reported":1744373969,"current_range_meters":18000,"station_id":"ce4bhgp2rcd13ifvqfd0","pricing_plan_id":"cebpf4jnsgd1na2vs0mg"},{"bike_id":"754619a5-d780-44fe-9ede-cee00907c36d","system_id":"levelo_inurba_marseille","lat":43.337444,"lon":5.374475,"is_reserved":false,"is_disabled":true,"rental_uris":{"android":"levelo://app?vid=754619a5-d780-44fe-9ede-cee00907c36d","ios":"levelo://app?vid=754619a5-d780-44fe-9ede-cee00907c36d"},"vehicle_type_id":"4","last_reported":1744373969,"current_range_meters":18000,"station_id":"","pricing_plan_id":"cebpf4jnsgd1na2vs0mg"},{"bike_id":"7a5c9c76-4e30-46ad-a0c8-64088d059970","system_id":"levelo_inurba_marseille","lat":43.24079,"lon":5.37725,"is_reserved":false,"is_disabled":false,"rental_uris":{"android":"levelo://app?vid=7a5c9c76-4e30-46ad-a0c8-64088d059970","ios":"levelo://app?vid=7a5c9c76-4e30-46ad-a0c8-64088d059970"},"vehicle_type_id":"4","last_reported":1744373969,"current_range_meters":18000,"station_id":"ce4bhnp2rcd13ifvqgvg","pricing_plan_id":"cebpf4jnsgd1na2vs0mg"},{"bike_id":"ea747d2a-66d8-4c91-9ba9-e534c94b4922","system_id":"levelo_inurba_marseille","lat":43.22934,"lon":5.35378,"is_reserved":false,"is_disabled":false,"rental_uris":{"android":"levelo://app?vid=ea747d2a-66d8-4c91-9ba9-e534c94b4922","ios":"levelo://app?vid=ea747d2a-66d8-4c91-9ba9-e534c94b4922"},"vehicle_type_id":"4","last_reported":1744373969,"current_range_meters":18000,"station_id":"cpo3532slgdg3j2ikp40","pricing_plan_id":"cebpf4jnsgd1na2vs0mg"},{"bike_id":"d1739956-1e6b-466e-b9d4-144f60d3d7cb","system_id":"levelo_inurba_marseille","lat":43.23068,"lon":5.35491,"is_reserved":false,"is_disabled":false,"rental_uris":{"android":"levelo://app?vid=d1739956-1e6b-466e-b9d4-144f60d3d7cb","ios":"levelo://app?vid=d1739956-1e6b-466e-b9d4-144f60d3d7cb"},"vehicle_type_id":"4","last_reported":1744373969,"current_range_meters":18800,"station_id":"cpo3342slgdg3j2ifvpg","pricing_plan_id":"cebpf4jnsgd1na2vs0mg"},{"bike_id":"dabbfa0b-93d3-476f-8c94-3a282a1b910a","system_id":"levelo_inurba_marseille","lat":43.23967,"lon":5.36635,"is_reserved":false,"is_disabled":false,"rental_uris":{"android":"levelo://app?vid=dabbfa0b-93d3-476f-8c94-3a282a1b910a","ios":"levelo://app?vid=dabbfa0b-93d3-476f-8c94-3a282a1b910a"},"vehicle_type_id":"4","last_reported":1744373969,"current_range_meters":18800,"station_id":"ce4bhi12rcd13ifvqfp0","pricing_plan_id":"cebpf4jnsgd1na2vs0mg"},{"bike_id":"a47f6968-953e-421d-8a0f-9ca425f8a6cc","system_id":"levelo_inurba_marseille","lat":43.28937,"lon":5.36634,"is_reserved":false,"is_disabled":false,"rental_uris":{"android":"levelo://app?vid=a47f6968-953e-421d-8a0f-9ca425f8a6cc","ios":"levelo://app?vid=a47f6968-953e-421d-8a0f-9ca425f8a6cc"},"vehicle_type_id":"4","last_reported":1744373969,"current_range_meters":18800,"station_id":"ce4bhap2rcd13ifvqek0","pricing_plan_id":"cebpf4jnsgd1na2vs0mg"},{"bike_id":"eb489c2e-1675-434f-bbfa-6a9ed74fea49","system_id":"levelo_inurba_marseille","lat":43.21192,"lon":5.3507,"is_reserved":false,"is_disabled":false,"rental_uris":{"android":"levelo://app?vid=eb489c2e-1675-434f-bbfa-6a9ed74fea49","ios":"levelo://app?vid=eb489c2e-1675-434f-bbfa-6a9ed74fea49"},"vehicle_type_id":"4","last_reported":1744373969,"current_range_meters":18800,"station_id":"st_cvj6sg6p6f1abm77japg","pricing_plan_id":"cebpf4jnsgd1na2vs0mg"},{"bike_id":"4bd32862-97e5-4ad7-8fb2-d66781c62ebf","system_id":"levelo_inurba_marseille","lat":43.24652,"lon":5.38889,"is_reserved":false,"is_disabled":false,"rental_uris":{"android":"levelo://app?vid=4bd32862-97e5-4ad7-8fb2-d66781c62ebf","ios":"levelo://app?vid=4bd32862-97e5-4ad7-8fb2-d66781c62ebf"},"vehicle_type_id":"4","last_reported":1744373969,"current_range_meters":18800,"station_id":"ce4bhg12rcd13ifvqf60","pricing_plan_id":"cebpf4jnsgd1na2vs0mg"},{"bike_id":"57d285a1-6478-40fe-b201-4555df50bb72","system_id":"levelo_inurba_marseille","lat":43.26209,"lon":5.40408,"is_reserved":false,"is_disabled":false,"rental_uris":{"android":"levelo://app?vid=57d285a1-6478-40fe-b201-4555df50bb72","ios":"levelo://app?vid=57d285a1-6478-40fe-b201-4555df50bb72"},"vehicle_type_id":"4","last_reported":1744373969,"current_range_meters":18800,"station_id":"ce4bhmh2rcd13ifvqgmg","pricing_plan_id":"cebpf4jnsgd1na2vs0mg"},{"bike_id":"888884f3-58ed-45ab-b4a6-c165485734ba","system_id":"levelo_inurba_marseille","lat":43.28664,"lon":5.36353,"is_reserved":false,"is_disabled":false,"rental_uris":{"android":"levelo://app?vid=888884f3-58ed-45ab-b4a6-c165485734ba","ios":"levelo://app?vid=888884f3-58ed-45ab-b4a6-c165485734ba"},"vehicle_type_id":"4","last_reported":1744373969,"current_range_meters":18000,"station_id":"ce4bhah2rcd13ifvqej0","pricing_plan_id":"cebpf4jnsgd1na2vs0mg"},{"bike_id":"0894e57e-5d33-4506-8c02-1d942750530c","system_id":"levelo_inurba_marseille","lat":43.31356,"lon":5.38491,"is_reserved":false,"is_disabled":false,"rental_uris":{"android":"levelo://app?vid=0894e57e-5d33-4506-8c02-1d942750530c","ios":"levelo://app?vid=0894e57e-5d33-4506-8c02-1d942750530c"},"vehicle_type_id":"4","last_reported":1744373969,"current_range_meters":18800,"station_id":"ce4bgt92rcd13ifvqcf0","pricing_plan_id":"cebpf4jnsgd1na2vs0mg"},{"bike_id":"90cddebc-2506-42ee-9df1-36a6154dff75","system_id":"levelo_inurba_marseille","lat":43.24172,"lon":5.36394,"is_reserved":false,"is_disabled":false,"rental_uris":{"android":"levelo://app?vid=90cddebc-2506-42ee-9df1-36a6154dff75","ios":"levelo://app?vid=90cddebc-2506-42ee-9df1-36a6154dff75"},"vehicle_type_id":"4","last_reported":1744373969,"current_range_meters":18800,"station_id":"cpo36qri1sfpv3e86is0","pricing_plan_id":"cebpf4jnsgd1na2vs0mg"},{"bike_id":"48d1a82d-dc78-4b22-94e4-360c80ac0898","system_id":"levelo_inurba_marseille","lat":43.2558,"lon":5.382415,"is_reserved":false,"is_disabled":false,"rental_uris":{"android":"levelo://app?vid=48d1a82d-dc78-4b22-94e4-360c80ac0898","ios":"levelo://app?vid=48d1a82d-dc78-4b22-94e4-360c80ac0898"},"vehicle_type_id":"4","last_reported":1744373969,"current_range_meters":17600,"station_id":"ce4bh512rcd13ifvqe3g","pricing_plan_id":"cebpf4jnsgd1na2vs0mg"},{"bike_id":"6da7ed18-5a5f-467e-8b00-c46a534110a8","system_id":"levelo_inurba_marseille","lat":43.299016,"lon":5.436666,"is_reserved":false,"is_disabled":false,"rental_uris":{"android":"levelo://app?vid=6da7ed18-5a5f-467e-8b00-c46a534110a8","ios":"levelo://app?vid=6da7ed18-5a5f-467e-8b00-c46a534110a8"},"vehicle_type_id":"4","last_reported":1744373969,"current_range_meters":19200,"station_id":"ce4bhpp2rcd13ifvqhfg","pricing_plan_id":"cebpf4jnsgd1na2vs0mg"},{"bike_id":"15caa18c-ff16-46cf-9983-05ecc1cb9672","system_id":"levelo_inurba_marseille","lat":43.2464,"lon":5.38901,"is_reserved":false,"is_disabled":false,"rental_uris":{"android":"levelo://app?vid=15caa18c-ff16-46cf-9983-05ecc1cb9672","ios":"levelo://app?vid=15caa18c-ff16-46cf-9983-05ecc1cb9672"},"vehicle_type_id":"4","last_reported":1744373969,"current_range_meters":19200,"station_id":"ce4bho12rcd13ifvqh1g","pricing_plan_id":"cebpf4jnsgd1na2vs0mg"},{"bike_id":"f02aeb64-6231-4974-9e6f-f484f78fc20e","system_id":"levelo_inurba_marseille","lat":43.231476,"lon":5.437176,"is_reserved":false,"is_disabled":false,"rental_uris":{"android":"levelo://app?vid=f02aeb64-6231-4974-9e6f-f484f78fc20e","ios":"levelo://app?vid=f02aeb64-6231-4974-9e6f-f484f78fc20e"},"vehicle_type_id":"4","last_reported":1744373969,"current_range_meters":19200,"station_id":"ce4bhmp2rcd13ifvqgog","pricing_plan_id":"cebpf4jnsgd1na2vs0mg"},{"bike_id":"343918fe-5464-403f-b2a2-6fa65a2fb3bf","system_id":"levelo_inurba_marseille","lat":43.28157,"lon":5.42638,"is_reserved":false,"is_disabled":false,"rental_uris":{"android":"levelo://app?vid=343918fe-5464-403f-b2a2-6fa65a2fb3bf","ios":"levelo://app?vid=343918fe-5464-403f-b2a2-6fa65a2fb3bf"},"vehicle_type_id":"4","last_reported":1744373969,"current_range_meters":19200,"station_id":"ce4bhnh2rcd13ifvqgug","pricing_plan_id":"cebpf4jnsgd1na2vs0mg"},{"bike_id":"11264377-8fd9-4084-bc33-69cc86342412","system_id":"levelo_inurba_marseille","lat":43.28872,"lon":5.35866,"is_reserved":false,"is_disabled":false,"rental_uris":{"android":"levelo://app?vid=11264377-8fd9-4084-bc33-69cc86342412","ios":"levelo://app?vid=11264377-8fd9-4084-bc33-69cc86342412"},"vehicle_type_id":"4","last_reported":1744373969,"current_range_meters":19200,"station_id":"ce4bhb12rcd13ifvqem0","pricing_plan_id":"cebpf4jnsgd1na2vs0mg"},{"bike_id":"663b2732-4e40-469c-b29d-1168df3c33a7","system_id":"levelo_inurba_marseille","lat":43.30917,"lon":5.36863,"is_reserved":false,"is_disabled":false,"rental_uris":{"android":"levelo://app?vid=663b2732-4e40-469c-b29d-1168df3c33a7","ios":"levelo://app?vid=663b2732-4e40-469c-b29d-1168df3c33a7"},"vehicle_type_id":"4","last_reported":1744373969,"current_range_meters":19200,"station_id":"ce4bgn92rcd13ifvqbvg","pricing_plan_id":"cebpf4jnsgd1na2vs0mg"},{"bike_id":"84b31b9a-3639-4a49-ba1b-b8657db4f117","system_id":"levelo_inurba_marseille","lat":43.30933,"lon":5.36839,"is_reserved":false,"is_disabled":false,"rental_uris":{"android":"levelo://app?vid=84b31b9a-3639-4a49-ba1b-b8657db4f117","ios":"levelo://app?vid=84b31b9a-3639-4a49-ba1b-b8657db4f117"},"vehicle_type_id":"4","last_reported":1744373969,"current_range_meters":19200,"station_id":"ce4bgn92rcd13ifvqbvg","pricing_plan_id":"cebpf4jnsgd1na2vs0mg"},{"bike_id":"bf1ff7f9-2f4f-4e8b-bc17-641ff1db3e85","system_id":"levelo_inurba_marseille","lat":43.27617,"lon":5.36112,"is_reserved":false,"is_disabled":false,"rental_uris":{"android":"levelo://app?vid=bf1ff7f9-2f4f-4e8b-bc17-641ff1db3e85","ios":"levelo://app?vid=bf1ff7f9-2f4f-4e8b-bc17-641ff1db3e85"},"vehicle_type_id":"4","last_reported":1744373969,"current_range_meters":19200,"station_id":"ce4bgj92rcd13ifvqbe0","pricing_plan_id":"cebpf4jnsgd1na2vs0mg"},{"bike_id":"35731db3-6912-402e-a623-b72e3ccb4de5","system_id":"levelo_inurba_marseille","lat":43.23144,"lon":5.43706,"is_reserved":false,"is_disabled":false,"rental_uris":{"android":"levelo://app?vid=35731db3-6912-402e-a623-b72e3ccb4de5","ios":"levelo://app?vid=35731db3-6912-402e-a623-b72e3ccb4de5"},"vehicle_type_id":"4","last_reported":1744373969,"current_range_meters":19200,"station_id":"ce4bhmp2rcd13ifvqgog","pricing_plan_id":"cebpf4jnsgd1na2vs0mg"},{"bike_id":"44ea3182-88eb-4a7d-bbc8-aa868967f1bc","system_id":"levelo_inurba_marseille","lat":43.3171,"lon":5.37172,"is_reserved":false,"is_disabled":true,"rental_uris":{"android":"levelo://app?vid=44ea3182-88eb-4a7d-bbc8-aa868967f1bc","ios":"levelo://app?vid=44ea3182-88eb-4a7d-bbc8-aa868967f1bc"},"vehicle_type_id":"4","last_reported":1744373969,"current_range_meters":19200,"station_id":"","pricing_plan_id":"cebpf4jnsgd1na2vs0mg"},{"bike_id":"ee8e6ffb-007b-4b7a-9cf4-589551c15038","system_id":"levelo_inurba_marseille","lat":43.28268,"lon":5.35057,"is_reserved":false,"is_disabled":false,"rental_uris":{"android":"levelo://app?vid=ee8e6ffb-007b-4b7a-9cf4-589551c15038","ios":"levelo://app?vid=ee8e6ffb-007b-4b7a-9cf4-589551c15038"},"vehicle_type_id":"4","last_reported":1744373969,"current_range_meters":19600,"station_id":"ce4bhbp2rcd13ifvqerg","pricing_plan_id":"cebpf4jnsgd1na2vs0mg"},{"bike_id":"e7d64116-368f-421d-902b-041b68f32a12","system_id":"levelo_inurba_marseille","lat":43.30536,"lon":5.36524,"is_reserved":false,"is_disabled":false,"rental_uris":{"android":"levelo://app?vid=e7d64116-368f-421d-902b-041b68f32a12","ios":"levelo://app?vid=e7d64116-368f-421d-902b-041b68f32a12"},"vehicle_type_id":"4","last_reported":1744373969,"current_range_meters":19600,"station_id":"ce4bgs12rcd13ifvqcag","pricing_plan_id":"cebpf4jnsgd1na2vs0mg"},{"bike_id":"50bf9c4a-f35d-4e3f-ad1b-796255af073e","system_id":"levelo_inurba_marseille","lat":43.25582,"lon":5.3824,"is_reserved":false,"is_disabled":false,"rental_uris":{"android":"levelo://app?vid=50bf9c4a-f35d-4e3f-ad1b-796255af073e","ios":"levelo://app?vid=50bf9c4a-f35d-4e3f-ad1b-796255af073e"},"vehicle_type_id":"4","last_reported":1744373969,"current_range_meters":19600,"station_id":"ce4bhih2rcd13ifvqfs0","pricing_plan_id":"cebpf4jnsgd1na2vs0mg"},{"bike_id":"f46a49ca-1b9d-47bc-aed6-4fa281bfffb1","system_id":"levelo_inurba_marseille","lat":43.30531,"lon":5.36534,"is_reserved":false,"is_disabled":false,"rental_uris":{"android":"levelo://app?vid=f46a49ca-1b9d-47bc-aed6-4fa281bfffb1","ios":"levelo://app?vid=f46a49ca-1b9d-47bc-aed6-4fa281bfffb1"},"vehicle_type_id":"4","last_reported":1744373969,"current_range_meters":19600,"station_id":"ce4bgs12rcd13ifvqcag","pricing_plan_id":"cebpf4jnsgd1na2vs0mg"},{"bike_id":"2827eb44-3099-4b35-b4db-5c5087d6941c","system_id":"levelo_inurba_marseille","lat":43.290377,"lon":5.375721,"is_reserved":false,"is_disabled":false,"rental_uris":{"android":"levelo://app?vid=2827eb44-3099-4b35-b4db-5c5087d6941c","ios":"levelo://app?vid=2827eb44-3099-4b35-b4db-5c5087d6941c"},"vehicle_type_id":"4","last_reported":1744373969,"current_range_meters":20000,"station_id":"ce4bh692rcd13ifvqe90","pricing_plan_id":"cebpf4jnsgd1na2vs0mg"},{"bike_id":"c3821a9c-7588-4931-a42d-ffb6971fd988","system_id":"levelo_inurba_marseille","lat":43.28618,"lon":5.37034,"is_reserved":false,"is_disabled":false,"rental_uris":{"android":"levelo://app?vid=c3821a9c-7588-4931-a42d-ffb6971fd988","ios":"levelo://app?vid=c3821a9c-7588-4931-a42d-ffb6971fd988"},"vehicle_type_id":"4","last_reported":1744373969,"current_range_meters":20000,"station_id":"ce4bht12rcd13ifvqi60","pricing_plan_id":"cebpf4jnsgd1na2vs0mg"},{"bike_id":"39e23465-4a03-4d52-b6f7-1a62ecd49761","system_id":"levelo_inurba_marseille","lat":43.29268,"lon":5.38447,"is_reserved":false,"is_disabled":false,"rental_uris":{"android":"levelo://app?vid=39e23465-4a03-4d52-b6f7-1a62ecd49761","ios":"levelo://app?vid=39e23465-4a03-4d52-b6f7-1a62ecd49761"},"vehicle_type_id":"4","last_reported":1744373969,"current_range_meters":20000,"station_id":"ce4bh692rcd13ifvqea0","pricing_plan_id":"cebpf4jnsgd1na2vs0mg"},{"bike_id":"80061395-68fd-49e0-9ec6-028985bbb475","system_id":"levelo_inurba_marseille","lat":43.26558,"lon":5.37283,"is_reserved":false,"is_disabled":false,"rental_uris":{"android":"levelo://app?vid=80061395-68fd-49e0-9ec6-028985bbb475","ios":"levelo://app?vid=80061395-68fd-49e0-9ec6-028985bbb475"},"vehicle_type_id":"4","last_reported":1744373969,"current_range_meters":20000,"station_id":"ce4bhg12rcd13ifvqf70","pricing_plan_id":"cebpf4jnsgd1na2vs0mg"},{"bike_id":"6ceb21bf-a1da-453c-af6a-acb8295cd882","system_id":"levelo_inurba_marseille","lat":43.301501,"lon":5.380739,"is_reserved":false,"is_disabled":false,"rental_uris":{"android":"levelo://app?vid=6ceb21bf-a1da-453c-af6a-acb8295cd882","ios":"levelo://app?vid=6ceb21bf-a1da-453c-af6a-acb8295cd882"},"vehicle_type_id":"4","last_reported":1744373969,"current_range_meters":19600,"station_id":"ce4bgv92rcd13ifvqcq0","pricing_plan_id":"cebpf4jnsgd1na2vs0mg"},{"bike_id":"77558bfa-fc87-48dd-8943-58eb723cb4c1","system_id":"levelo_inurba_marseille","lat":43.3054,"lon":5.36559,"is_reserved":false,"is_disabled":false,"rental_uris":{"android":"levelo://app?vid=77558bfa-fc87-48dd-8943-58eb723cb4c1","ios":"levelo://app?vid=77558bfa-fc87-48dd-8943-58eb723cb4c1"},"vehicle_type_id":"4","last_reported":1744373969,"current_range_meters":20400,"station_id":"ce4bgs12rcd13ifvqcag","pricing_plan_id":"cebpf4jnsgd1na2vs0mg"},{"bike_id":"21f08df7-6431-4ffd-a72a-ef62f781be15","system_id":"levelo_inurba_marseille","lat":43.27918,"lon":5.39575,"is_reserved":false,"is_disabled":false,"rental_uris":{"android":"levelo://app?vid=21f08df7-6431-4ffd-a72a-ef62f781be15","ios":"levelo://app?vid=21f08df7-6431-4ffd-a72a-ef62f781be15"},"vehicle_type_id":"4","last_reported":1744373969,"current_range_meters":20400,"station_id":"ce4bhf92rcd13ifvqf40","pricing_plan_id":"cebpf4jnsgd1na2vs0mg"},{"bike_id":"b4d5d9c3-831b-4cf4-9817-35e6d5e8d990","system_id":"levelo_inurba_marseille","lat":43.23147,"lon":5.43717,"is_reserved":false,"is_disabled":false,"rental_uris":{"android":"levelo://app?vid=b4d5d9c3-831b-4cf4-9817-35e6d5e8d990","ios":"levelo://app?vid=b4d5d9c3-831b-4cf4-9817-35e6d5e8d990"},"vehicle_type_id":"4","last_reported":1744373969,"current_range_meters":20400,"station_id":"ce4bhmp2rcd13ifvqgog","pricing_plan_id":"cebpf4jnsgd1na2vs0mg"},{"bike_id":"dd4f30ec-655f-42a0-9740-dc393c7cd628","system_id":"levelo_inurba_marseille","lat":43.31327,"lon":5.36746,"is_reserved":false,"is_disabled":false,"rental_uris":{"android":"levelo://app?vid=dd4f30ec-655f-42a0-9740-dc393c7cd628","ios":"levelo://app?vid=dd4f30ec-655f-42a0-9740-dc393c7cd628"},"vehicle_type_id":"4","last_reported":1744373969,"current_range_meters":20400,"station_id":"ce4bgr92rcd13ifvqc6g","pricing_plan_id":"cebpf4jnsgd1na2vs0mg"},{"bike_id":"a945cbf3-38e6-4aa3-9aa1-d414d6c834b5","system_id":"levelo_inurba_marseille","lat":43.319004,"lon":5.407344,"is_reserved":false,"is_disabled":true,"rental_uris":{"android":"levelo://app?vid=a945cbf3-38e6-4aa3-9aa1-d414d6c834b5","ios":"levelo://app?vid=a945cbf3-38e6-4aa3-9aa1-d414d6c834b5"},"vehicle_type_id":"4","last_reported":1744373969,"current_range_meters":20400,"station_id":"ce4bhq12rcd13ifvqhig","pricing_plan_id":"cebpf4jnsgd1na2vs0mg"},{"bike_id":"3f2f6c9d-5fe4-4b99-b0b8-efe514290254","system_id":"levelo_inurba_marseille","lat":43.23156,"lon":5.43712,"is_reserved":false,"is_disabled":false,"rental_uris":{"android":"levelo://app?vid=3f2f6c9d-5fe4-4b99-b0b8-efe514290254","ios":"levelo://app?vid=3f2f6c9d-5fe4-4b99-b0b8-efe514290254"},"vehicle_type_id":"4","last_reported":1744373969,"current_range_meters":20400,"station_id":"ce4bhmp2rcd13ifvqgog","pricing_plan_id":"cebpf4jnsgd1na2vs0mg"},{"bike_id":"a7c58a60-a5c5-4a4e-b362-dc7feaea63d7","system_id":"levelo_inurba_marseille","lat":43.319896,"lon":5.381438,"is_reserved":false,"is_disabled":true,"rental_uris":{"android":"levelo://app?vid=a7c58a60-a5c5-4a4e-b362-dc7feaea63d7","ios":"levelo://app?vid=a7c58a60-a5c5-4a4e-b362-dc7feaea63d7"},"vehicle_type_id":"4","last_reported":1744373969,"current_range_meters":20400,"station_id":"ce4bhr12rcd13ifvqhpg","pricing_plan_id":"cebpf4jnsgd1na2vs0mg"},{"bike_id":"2d6461c5-275f-4ddc-bdf2-6205e95bdffc","system_id":"levelo_inurba_marseille","lat":43.26203,"lon":5.37929,"is_reserved":false,"is_disabled":false,"rental_uris":{"android":"levelo://app?vid=2d6461c5-275f-4ddc-bdf2-6205e95bdffc","ios":"levelo://app?vid=2d6461c5-275f-4ddc-bdf2-6205e95bdffc"},"vehicle_type_id":"4","last_reported":1744373969,"current_range_meters":20400,"station_id":"ce4bhjp2rcd13ifvqg90","pricing_plan_id":"cebpf4jnsgd1na2vs0mg"},{"bike_id":"a6fb9ac6-0321-4123-b718-f7bd24b8337c","system_id":"levelo_inurba_marseille","lat":43.24186,"lon":5.39732,"is_reserved":false,"is_disabled":false,"rental_uris":{"android":"levelo://app?vid=a6fb9ac6-0321-4123-b718-f7bd24b8337c","ios":"levelo://app?vid=a6fb9ac6-0321-4123-b718-f7bd24b8337c"},"vehicle_type_id":"4","last_reported":1744373969,"current_range_meters":20800,"station_id":"ce4bhn12rcd13ifvqgpg","pricing_plan_id":"cebpf4jnsgd1na2vs0mg"},{"bike_id":"7d2ef91f-1c92-413b-a107-83193fd768d9","system_id":"levelo_inurba_marseille","lat":43.30535,"lon":5.36724,"is_reserved":false,"is_disabled":false,"rental_uris":{"android":"levelo://app?vid=7d2ef91f-1c92-413b-a107-83193fd768d9","ios":"levelo://app?vid=7d2ef91f-1c92-413b-a107-83193fd768d9"},"vehicle_type_id":"4","last_reported":1744373969,"current_range_meters":20800,"station_id":"ce4bgrp2rcd13ifvqc9g","pricing_plan_id":"cebpf4jnsgd1na2vs0mg"},{"bike_id":"020e9999-d552-48d0-ae5f-b725af0dbea2","system_id":"levelo_inurba_marseille","lat":43.29918,"lon":5.43759,"is_reserved":false,"is_disabled":false,"rental_uris":{"android":"levelo://app?vid=020e9999-d552-48d0-ae5f-b725af0dbea2","ios":"levelo://app?vid=020e9999-d552-48d0-ae5f-b725af0dbea2"},"vehicle_type_id":"4","last_reported":1744373969,"current_range_meters":20800,"station_id":"","pricing_plan_id":"cebpf4jnsgd1na2vs0mg"},{"bike_id":"3f7b9c27-9efb-4c54-8646-47f61d4a7072","system_id":"levelo_inurba_marseille","lat":43.29933,"lon":5.36552,"is_reserved":false,"is_disabled":false,"rental_uris":{"android":"levelo://app?vid=3f7b9c27-9efb-4c54-8646-47f61d4a7072","ios":"levelo://app?vid=3f7b9c27-9efb-4c54-8646-47f61d4a7072"},"vehicle_type_id":"4","last_reported":1744373969,"current_range_meters":20800,"station_id":"ce4bgm92rcd13ifvqbr0","pricing_plan_id":"cebpf4jnsgd1na2vs0mg"},{"bike_id":"1060e863-2a5b-43d1-b991-dab9ddcea086","system_id":"levelo_inurba_marseille","lat":43.29198,"lon":5.35812,"is_reserved":false,"is_disabled":false,"rental_uris":{"android":"levelo://app?vid=1060e863-2a5b-43d1-b991-dab9ddcea086","ios":"levelo://app?vid=1060e863-2a5b-43d1-b991-dab9ddcea086"},"vehicle_type_id":"4","last_reported":1744373969,"current_range_meters":21600,"station_id":"ce4bhb12rcd13ifvqel0","pricing_plan_id":"cebpf4jnsgd1na2vs0mg"},{"bike_id":"67f20cf6-f770-447d-9d70-5cc44ccc5e45","system_id":"levelo_inurba_marseille","lat":43.29887,"lon":5.38893,"is_reserved":false,"is_disabled":false,"rental_uris":{"android":"levelo://app?vid=67f20cf6-f770-447d-9d70-5cc44ccc5e45","ios":"levelo://app?vid=67f20cf6-f770-447d-9d70-5cc44ccc5e45"},"vehicle_type_id":"4","last_reported":1744373969,"current_range_meters":20800,"station_id":"ce4bh392rcd13ifvqdl0","pricing_plan_id":"cebpf4jnsgd1na2vs0mg"},{"bike_id":"12d231a9-e302-4eab-80b5-ee186df3fabe","system_id":"levelo_inurba_marseille","lat":43.296322,"lon":5.38141,"is_reserved":false,"is_disabled":false,"rental_uris":{"android":"levelo://app?vid=12d231a9-e302-4eab-80b5-ee186df3fabe","ios":"levelo://app?vid=12d231a9-e302-4eab-80b5-ee186df3fabe"},"vehicle_type_id":"4","last_reported":1744373969,"current_range_meters":21600,"station_id":"ce4bgl12rcd13ifvqbo0","pricing_plan_id":"cebpf4jnsgd1na2vs0mg"},{"bike_id":"5c5d5652-efa0-4bce-a023-e34b3d59b1ea","system_id":"levelo_inurba_marseille","lat":43.29558,"lon":5.42293,"is_reserved":false,"is_disabled":false,"rental_uris":{"android":"levelo://app?vid=5c5d5652-efa0-4bce-a023-e34b3d59b1ea","ios":"levelo://app?vid=5c5d5652-efa0-4bce-a023-e34b3d59b1ea"},"vehicle_type_id":"4","last_reported":1744373969,"current_range_meters":21600,"station_id":"ce4bhph2rcd13ifvqhdg","pricing_plan_id":"cebpf4jnsgd1na2vs0mg"},{"bike_id":"26eb6a35-a9e5-472b-8fb1-17c896082701","system_id":"levelo_inurba_marseille","lat":43.21758,"lon":5.34591,"is_reserved":false,"is_disabled":false,"rental_uris":{"android":"levelo://app?vid=26eb6a35-a9e5-472b-8fb1-17c896082701","ios":"levelo://app?vid=26eb6a35-a9e5-472b-8fb1-17c896082701"},"vehicle_type_id":"4","last_reported":1744373969,"current_range_meters":21600,"station_id":"st_cvj6r9ubvosntc0bgbag","pricing_plan_id":"cebpf4jnsgd1na2vs0mg"},{"bike_id":"f59b59e1-0b84-400d-adb7-0621d9177a6d","system_id":"levelo_inurba_marseille","lat":43.30319,"lon":5.36892,"is_reserved":false,"is_disabled":true,"rental_uris":{"android":"levelo://app?vid=f59b59e1-0b84-400d-adb7-0621d9177a6d","ios":"levelo://app?vid=f59b59e1-0b84-400d-adb7-0621d9177a6d"},"vehicle_type_id":"4","last_reported":1744373969,"current_range_meters":21600,"station_id":"ce4bgqh2rcd13ifvqc5g","pricing_plan_id":"cebpf4jnsgd1na2vs0mg"},{"bike_id":"3236a17b-87bc-4827-b557-be034a694ecb","system_id":"levelo_inurba_marseille","lat":43.305459,"lon":5.365414,"is_reserved":false,"is_disabled":false,"rental_uris":{"android":"levelo://app?vid=3236a17b-87bc-4827-b557-be034a694ecb","ios":"levelo://app?vid=3236a17b-87bc-4827-b557-be034a694ecb"},"vehicle_type_id":"4","last_reported":1744373969,"current_range_meters":21600,"station_id":"ce4bgs12rcd13ifvqcag","pricing_plan_id":"cebpf4jnsgd1na2vs0mg"},{"bike_id":"bae2b953-0d2a-411d-b35a-c37532869e83","system_id":"levelo_inurba_marseille","lat":43.27071,"lon":5.42281,"is_reserved":false,"is_disabled":false,"rental_uris":{"android":"levelo://app?vid=bae2b953-0d2a-411d-b35a-c37532869e83","ios":"levelo://app?vid=bae2b953-0d2a-411d-b35a-c37532869e83"},"vehicle_type_id":"4","last_reported":1744373969,"current_range_meters":21600,"station_id":"ce4bhk92rcd13ifvqgb0","pricing_plan_id":"cebpf4jnsgd1na2vs0mg"},{"bike_id":"6d25b8d2-a277-478d-ab56-c2f4b9b3139c","system_id":"levelo_inurba_marseille","lat":43.30308,"lon":5.36895,"is_reserved":false,"is_disabled":false,"rental_uris":{"android":"levelo://app?vid=6d25b8d2-a277-478d-ab56-c2f4b9b3139c","ios":"levelo://app?vid=6d25b8d2-a277-478d-ab56-c2f4b9b3139c"},"vehicle_type_id":"4","last_reported":1744373969,"current_range_meters":21600,"station_id":"ce4bgqh2rcd13ifvqc5g","pricing_plan_id":"cebpf4jnsgd1na2vs0mg"},{"bike_id":"d8b9884b-4022-4710-9f87-50e0dbfd421d","system_id":"levelo_inurba_marseille","lat":43.24158,"lon":5.364,"is_reserved":false,"is_disabled":false,"rental_uris":{"android":"levelo://app?vid=d8b9884b-4022-4710-9f87-50e0dbfd421d","ios":"levelo://app?vid=d8b9884b-4022-4710-9f87-50e0dbfd421d"},"vehicle_type_id":"4","last_reported":1744373969,"current_range_meters":22000,"station_id":"cpo36qri1sfpv3e86is0","pricing_plan_id":"cebpf4jnsgd1na2vs0mg"},{"bike_id":"5461d9c0-4a74-433c-aafa-5668a3acda08","system_id":"levelo_inurba_marseille","lat":43.28269,"lon":5.35061,"is_reserved":false,"is_disabled":false,"rental_uris":{"android":"levelo://app?vid=5461d9c0-4a74-433c-aafa-5668a3acda08","ios":"levelo://app?vid=5461d9c0-4a74-433c-aafa-5668a3acda08"},"vehicle_type_id":"4","last_reported":1744373969,"current_range_meters":22000,"station_id":"ce4bhbp2rcd13ifvqerg","pricing_plan_id":"cebpf4jnsgd1na2vs0mg"},{"bike_id":"1e50cf1f-6a5d-4074-9b5a-20b1750ea2de","system_id":"levelo_inurba_marseille","lat":43.24388,"lon":5.37059,"is_reserved":false,"is_disabled":false,"rental_uris":{"android":"levelo://app?vid=1e50cf1f-6a5d-4074-9b5a-20b1750ea2de","ios":"levelo://app?vid=1e50cf1f-6a5d-4074-9b5a-20b1750ea2de"},"vehicle_type_id":"4","last_reported":1744373969,"current_range_meters":22000,"station_id":"ce4bhhh2rcd13ifvqfk0","pricing_plan_id":"cebpf4jnsgd1na2vs0mg"},{"bike_id":"994c0484-4487-4a5f-a377-63e6293f325f","system_id":"levelo_inurba_marseille","lat":43.29561,"lon":5.42285,"is_reserved":false,"is_disabled":false,"rental_uris":{"android":"levelo://app?vid=994c0484-4487-4a5f-a377-63e6293f325f","ios":"levelo://app?vid=994c0484-4487-4a5f-a377-63e6293f325f"},"vehicle_type_id":"4","last_reported":1744373969,"current_range_meters":21600,"station_id":"ce4bhph2rcd13ifvqhdg","pricing_plan_id":"cebpf4jnsgd1na2vs0mg"},{"bike_id":"7fa6910e-9cca-4929-94b9-d226b84e8174","system_id":"levelo_inurba_marseille","lat":43.29081,"lon":5.37161,"is_reserved":false,"is_disabled":false,"rental_uris":{"android":"levelo://app?vid=7fa6910e-9cca-4929-94b9-d226b84e8174","ios":"levelo://app?vid=7fa6910e-9cca-4929-94b9-d226b84e8174"},"vehicle_type_id":"4","last_reported":1744373969,"current_range_meters":22000,"station_id":"ce4bh5p2rcd13ifvqe4g","pricing_plan_id":"cebpf4jnsgd1na2vs0mg"},{"bike_id":"bffed82f-cdd1-47cb-9e06-e189fcf89f81","system_id":"levelo_inurba_marseille","lat":43.26038,"lon":5.37532,"is_reserved":false,"is_disabled":false,"rental_uris":{"android":"levelo://app?vid=bffed82f-cdd1-47cb-9e06-e189fcf89f81","ios":"levelo://app?vid=bffed82f-cdd1-47cb-9e06-e189fcf89f81"},"vehicle_type_id":"4","last_reported":1744373969,"current_range_meters":22000,"station_id":"ce4bhgh2rcd13ifvqfa0","pricing_plan_id":"cebpf4jnsgd1na2vs0mg"},{"bike_id":"fc928680-ad0d-4f1d-bcb6-b6855949378d","system_id":"levelo_inurba_marseille","lat":43.29056,"lon":5.39925,"is_reserved":false,"is_disabled":true,"rental_uris":{"android":"levelo://app?vid=fc928680-ad0d-4f1d-bcb6-b6855949378d","ios":"levelo://app?vid=fc928680-ad0d-4f1d-bcb6-b6855949378d"},"vehicle_type_id":"4","last_reported":1744373969,"current_range_meters":22000,"station_id":"ce4bh392rcd13ifvqdm0","pricing_plan_id":"cebpf4jnsgd1na2vs0mg"},{"bike_id":"94d4c706-74c1-49cc-8443-83594edf7c0a","system_id":"levelo_inurba_marseille","lat":43.29962,"lon":5.38505,"is_reserved":false,"is_disabled":false,"rental_uris":{"android":"levelo://app?vid=94d4c706-74c1-49cc-8443-83594edf7c0a","ios":"levelo://app?vid=94d4c706-74c1-49cc-8443-83594edf7c0a"},"vehicle_type_id":"4","last_reported":1744373969,"current_range_meters":22400,"station_id":"ce4bgj92rcd13ifvqbd0","pricing_plan_id":"cebpf4jnsgd1na2vs0mg"},{"bike_id":"83d8bf7a-e75b-4991-9b96-a0ea3035df9e","system_id":"levelo_inurba_marseille","lat":43.288537,"lon":5.39303,"is_reserved":false,"is_disabled":false,"rental_uris":{"android":"levelo://app?vid=83d8bf7a-e75b-4991-9b96-a0ea3035df9e","ios":"levelo://app?vid=83d8bf7a-e75b-4991-9b96-a0ea3035df9e"},"vehicle_type_id":"4","last_reported":1744373969,"current_range_meters":23200,"station_id":"ce4bh2p2rcd13ifvqdi0","pricing_plan_id":"cebpf4jnsgd1na2vs0mg"},{"bike_id":"1603c64b-e182-4d3e-a5e9-92c544f6ba6e","system_id":"levelo_inurba_marseille","lat":43.25497,"lon":5.37648,"is_reserved":false,"is_disabled":false,"rental_uris":{"android":"levelo://app?vid=1603c64b-e182-4d3e-a5e9-92c544f6ba6e","ios":"levelo://app?vid=1603c64b-e182-4d3e-a5e9-92c544f6ba6e"},"vehicle_type_id":"4","last_reported":1744373969,"current_range_meters":22400,"station_id":"ce4bhh12rcd13ifvqff0","pricing_plan_id":"cebpf4jnsgd1na2vs0mg"},{"bike_id":"44c30075-7c51-4d21-ac0b-b5fd9b0cb7a8","system_id":"levelo_inurba_marseille","lat":43.2923,"lon":5.36074,"is_reserved":false,"is_disabled":false,"rental_uris":{"android":"levelo://app?vid=44c30075-7c51-4d21-ac0b-b5fd9b0cb7a8","ios":"levelo://app?vid=44c30075-7c51-4d21-ac0b-b5fd9b0cb7a8"},"vehicle_type_id":"4","last_reported":1744373969,"current_range_meters":22400,"station_id":"ce4bhbh2rcd13ifvqeqg","pricing_plan_id":"cebpf4jnsgd1na2vs0mg"},{"bike_id":"bf66c301-d926-43bd-9e88-39153a42b273","system_id":"levelo_inurba_marseille","lat":43.23962,"lon":5.36633,"is_reserved":false,"is_disabled":false,"rental_uris":{"android":"levelo://app?vid=bf66c301-d926-43bd-9e88-39153a42b273","ios":"levelo://app?vid=bf66c301-d926-43bd-9e88-39153a42b273"},"vehicle_type_id":"4","last_reported":1744373969,"current_range_meters":22400,"station_id":"ce4bhi12rcd13ifvqfp0","pricing_plan_id":"cebpf4jnsgd1na2vs0mg"},{"bike_id":"ac6afb0b-9b7a-4249-a9d3-a91f433e96c8","system_id":"levelo_inurba_marseille","lat":43.30869,"lon":5.37193,"is_reserved":false,"is_disabled":false,"rental_uris":{"android":"levelo://app?vid=ac6afb0b-9b7a-4249-a9d3-a91f433e96c8","ios":"levelo://app?vid=ac6afb0b-9b7a-4249-a9d3-a91f433e96c8"},"vehicle_type_id":"4","last_reported":1744373969,"current_range_meters":22400,"station_id":"ce4bguh2rcd13ifvqckg","pricing_plan_id":"cebpf4jnsgd1na2vs0mg"},{"bike_id":"6ee9f4f4-2b89-4c8a-bb41-24b111547b04","system_id":"levelo_inurba_marseille","lat":43.31218,"lon":5.36914,"is_reserved":false,"is_disabled":false,"rental_uris":{"android":"levelo://app?vid=6ee9f4f4-2b89-4c8a-bb41-24b111547b04","ios":"levelo://app?vid=6ee9f4f4-2b89-4c8a-bb41-24b111547b04"},"vehicle_type_id":"4","last_reported":1744373969,"current_range_meters":22400,"station_id":"ce4bgl92rcd13ifvqbq0","pricing_plan_id":"cebpf4jnsgd1na2vs0mg"},{"bike_id":"e4e68339-b7a6-4d08-873f-1d43f76c9e4b","system_id":"levelo_inurba_marseille","lat":43.30151,"lon":5.38087,"is_reserved":false,"is_disabled":false,"rental_uris":{"android":"levelo://app?vid=e4e68339-b7a6-4d08-873f-1d43f76c9e4b","ios":"levelo://app?vid=e4e68339-b7a6-4d08-873f-1d43f76c9e4b"},"vehicle_type_id":"4","last_reported":1744373969,"current_range_meters":22400,"station_id":"ce4bgjp2rcd13ifvqbh0","pricing_plan_id":"cebpf4jnsgd1na2vs0mg"},{"bike_id":"5a42825d-4405-43e6-9d71-e8b21c48e600","system_id":"levelo_inurba_marseille","lat":43.27379,"lon":5.36259,"is_reserved":false,"is_disabled":false,"rental_uris":{"android":"levelo://app?vid=5a42825d-4405-43e6-9d71-e8b21c48e600","ios":"levelo://app?vid=5a42825d-4405-43e6-9d71-e8b21c48e600"},"vehicle_type_id":"4","last_reported":1744373969,"current_range_meters":22400,"station_id":"ce4bhbh2rcd13ifvqeo0","pricing_plan_id":"cebpf4jnsgd1na2vs0mg"},{"bike_id":"7a5b865b-6f73-4ada-a5a2-01f0eab9667b","system_id":"levelo_inurba_marseille","lat":43.28623,"lon":5.35102,"is_reserved":false,"is_disabled":false,"rental_uris":{"android":"levelo://app?vid=7a5b865b-6f73-4ada-a5a2-01f0eab9667b","ios":"levelo://app?vid=7a5b865b-6f73-4ada-a5a2-01f0eab9667b"},"vehicle_type_id":"4","last_reported":1744373969,"current_range_meters":22400,"station_id":"ce4bhch2rcd13ifvqeug","pricing_plan_id":"cebpf4jnsgd1na2vs0mg"},{"bike_id":"f05b244e-3ceb-4fc0-ba33-98e536dd7bac","system_id":"levelo_inurba_marseille","lat":43.296177,"lon":5.371533,"is_reserved":false,"is_disabled":false,"rental_uris":{"android":"levelo://app?vid=f05b244e-3ceb-4fc0-ba33-98e536dd7bac","ios":"levelo://app?vid=f05b244e-3ceb-4fc0-ba33-98e536dd7bac"},"vehicle_type_id":"4","last_reported":1744373969,"current_range_meters":22400,"station_id":"ce4bhjp2rcd13ifvqga0","pricing_plan_id":"cebpf4jnsgd1na2vs0mg"},{"bike_id":"55d0b8f6-c073-4e19-a6e9-75136b807656","system_id":"levelo_inurba_marseille","lat":43.30144,"lon":5.3809,"is_reserved":false,"is_disabled":false,"rental_uris":{"android":"levelo://app?vid=55d0b8f6-c073-4e19-a6e9-75136b807656","ios":"levelo://app?vid=55d0b8f6-c073-4e19-a6e9-75136b807656"},"vehicle_type_id":"4","last_reported":1744373969,"current_range_meters":24000,"station_id":"ce4bgjp2rcd13ifvqbh0","pricing_plan_id":"cebpf4jnsgd1na2vs0mg"},{"bike_id":"8bd27a1a-8ee9-4681-8138-2b6523edbc52","system_id":"levelo_inurba_marseille","lat":43.25503,"lon":5.37655,"is_reserved":false,"is_disabled":false,"rental_uris":{"android":"levelo://app?vid=8bd27a1a-8ee9-4681-8138-2b6523edbc52","ios":"levelo://app?vid=8bd27a1a-8ee9-4681-8138-2b6523edbc52"},"vehicle_type_id":"4","last_reported":1744373969,"current_range_meters":22800,"station_id":"ce4bhh12rcd13ifvqff0","pricing_plan_id":"cebpf4jnsgd1na2vs0mg"},{"bike_id":"c1d67560-20d9-4b0c-9017-bbcbd1991024","system_id":"levelo_inurba_marseille","lat":43.31483,"lon":5.37315,"is_reserved":false,"is_disabled":false,"rental_uris":{"android":"levelo://app?vid=c1d67560-20d9-4b0c-9017-bbcbd1991024","ios":"levelo://app?vid=c1d67560-20d9-4b0c-9017-bbcbd1991024"},"vehicle_type_id":"4","last_reported":1744373969,"current_range_meters":24000,"station_id":"ce4bgt12rcd13ifvqcd0","pricing_plan_id":"cebpf4jnsgd1na2vs0mg"},{"bike_id":"fd425aea-8c6a-4c76-91dc-903065d376aa","system_id":"levelo_inurba_marseille","lat":43.28275,"lon":5.35057,"is_reserved":false,"is_disabled":false,"rental_uris":{"android":"levelo://app?vid=fd425aea-8c6a-4c76-91dc-903065d376aa","ios":"levelo://app?vid=fd425aea-8c6a-4c76-91dc-903065d376aa"},"vehicle_type_id":"4","last_reported":1744373969,"current_range_meters":22800,"station_id":"ce4bhbp2rcd13ifvqerg","pricing_plan_id":"cebpf4jnsgd1na2vs0mg"},{"bike_id":"b0740ec7-7cf0-49ac-8312-166a741c3913","system_id":"levelo_inurba_marseille","lat":43.24388,"lon":5.37044,"is_reserved":false,"is_disabled":false,"rental_uris":{"android":"levelo://app?vid=b0740ec7-7cf0-49ac-8312-166a741c3913","ios":"levelo://app?vid=b0740ec7-7cf0-49ac-8312-166a741c3913"},"vehicle_type_id":"4","last_reported":1744373969,"current_range_meters":22800,"station_id":"ce4bhhh2rcd13ifvqfk0","pricing_plan_id":"cebpf4jnsgd1na2vs0mg"},{"bike_id":"530ebc66-faa7-416a-a3a1-6a45cfa7b1af","system_id":"levelo_inurba_marseille","lat":43.27203,"lon":5.39185,"is_reserved":false,"is_disabled":false,"rental_uris":{"android":"levelo://app?vid=530ebc66-faa7-416a-a3a1-6a45cfa7b1af","ios":"levelo://app?vid=530ebc66-faa7-416a-a3a1-6a45cfa7b1af"},"vehicle_type_id":"4","last_reported":1744373969,"current_range_meters":22800,"station_id":"ce4bhhp2rcd13ifvqfm0","pricing_plan_id":"cebpf4jnsgd1na2vs0mg"},{"bike_id":"270cfdc4-81ac-4a08-8d27-077190800610","system_id":"levelo_inurba_marseille","lat":43.24809,"lon":5.37461,"is_reserved":false,"is_disabled":true,"rental_uris":{"android":"levelo://app?vid=270cfdc4-81ac-4a08-8d27-077190800610","ios":"levelo://app?vid=270cfdc4-81ac-4a08-8d27-077190800610"},"vehicle_type_id":"4","last_reported":1744373969,"current_range_meters":22800,"station_id":"ce4bhgh2rcd13ifvqfb0","pricing_plan_id":"cebpf4jnsgd1na2vs0mg"},{"bike_id":"1db8d3a2-856b-481f-a177-d6f278343be5","system_id":"levelo_inurba_marseille","lat":43.26563,"lon":5.37292,"is_reserved":false,"is_disabled":false,"rental_uris":{"android":"levelo://app?vid=1db8d3a2-856b-481f-a177-d6f278343be5","ios":"levelo://app?vid=1db8d3a2-856b-481f-a177-d6f278343be5"},"vehicle_type_id":"4","last_reported":1744373969,"current_range_meters":22800,"station_id":"ce4bhg12rcd13ifvqf70","pricing_plan_id":"cebpf4jnsgd1na2vs0mg"},{"bike_id":"ef051e5f-9650-4fa0-a551-8f887ebdbaa8","system_id":"levelo_inurba_marseille","lat":43.27375,"lon":5.36256,"is_reserved":false,"is_disabled":false,"rental_uris":{"android":"levelo://app?vid=ef051e5f-9650-4fa0-a551-8f887ebdbaa8","ios":"levelo://app?vid=ef051e5f-9650-4fa0-a551-8f887ebdbaa8"},"vehicle_type_id":"4","last_reported":1744373969,"current_range_meters":22800,"station_id":"ce4bhbh2rcd13ifvqeo0","pricing_plan_id":"cebpf4jnsgd1na2vs0mg"},{"bike_id":"8e3e83f7-135d-4186-aa6b-f6a7d6782315","system_id":"levelo_inurba_marseille","lat":43.27671,"lon":5.38886,"is_reserved":false,"is_disabled":false,"rental_uris":{"android":"levelo://app?vid=8e3e83f7-135d-4186-aa6b-f6a7d6782315","ios":"levelo://app?vid=8e3e83f7-135d-4186-aa6b-f6a7d6782315"},"vehicle_type_id":"4","last_reported":1744373969,"current_range_meters":22400,"station_id":"ce4bhi12rcd13ifvqfo0","pricing_plan_id":"cebpf4jnsgd1na2vs0mg"},{"bike_id":"736a706b-62c3-4c3c-b32b-1f701131b7f5","system_id":"levelo_inurba_marseille","lat":43.26652,"lon":5.40813,"is_reserved":false,"is_disabled":false,"rental_uris":{"android":"levelo://app?vid=736a706b-62c3-4c3c-b32b-1f701131b7f5","ios":"levelo://app?vid=736a706b-62c3-4c3c-b32b-1f701131b7f5"},"vehicle_type_id":"4","last_reported":1744373969,"current_range_meters":23200,"station_id":"","pricing_plan_id":"cebpf4jnsgd1na2vs0mg"},{"bike_id":"5139b5e7-69ef-4314-8872-90e3a82b28cc","system_id":"levelo_inurba_marseille","lat":43.31352,"lon":5.36723,"is_reserved":false,"is_disabled":false,"rental_uris":{"android":"levelo://app?vid=5139b5e7-69ef-4314-8872-90e3a82b28cc","ios":"levelo://app?vid=5139b5e7-69ef-4314-8872-90e3a82b28cc"},"vehicle_type_id":"4","last_reported":1744373969,"current_range_meters":23200,"station_id":"ce4bgr92rcd13ifvqc6g","pricing_plan_id":"cebpf4jnsgd1na2vs0mg"},{"bike_id":"d2765695-7393-4c2f-aea4-c23fa2720c85","system_id":"levelo_inurba_marseille","lat":43.26551,"lon":5.37288,"is_reserved":false,"is_disabled":false,"rental_uris":{"android":"levelo://app?vid=d2765695-7393-4c2f-aea4-c23fa2720c85","ios":"levelo://app?vid=d2765695-7393-4c2f-aea4-c23fa2720c85"},"vehicle_type_id":"4","last_reported":1744373969,"current_range_meters":23200,"station_id":"ce4bhg12rcd13ifvqf70","pricing_plan_id":"cebpf4jnsgd1na2vs0mg"},{"bike_id":"d178423b-dcba-4b36-a9fa-ad00a69f9b90","system_id":"levelo_inurba_marseille","lat":43.31485,"lon":5.37307,"is_reserved":false,"is_disabled":false,"rental_uris":{"android":"levelo://app?vid=d178423b-dcba-4b36-a9fa-ad00a69f9b90","ios":"levelo://app?vid=d178423b-dcba-4b36-a9fa-ad00a69f9b90"},"vehicle_type_id":"4","last_reported":1744373969,"current_range_meters":23200,"station_id":"ce4bgt12rcd13ifvqcd0","pricing_plan_id":"cebpf4jnsgd1na2vs0mg"},{"bike_id":"0cb9933a-d606-4316-9348-77da3d5f840b","system_id":"levelo_inurba_marseille","lat":43.21184,"lon":5.35081,"is_reserved":false,"is_disabled":false,"rental_uris":{"android":"levelo://app?vid=0cb9933a-d606-4316-9348-77da3d5f840b","ios":"levelo://app?vid=0cb9933a-d606-4316-9348-77da3d5f840b"},"vehicle_type_id":"4","last_reported":1744373969,"current_range_meters":23200,"station_id":"st_cvj6sg6p6f1abm77japg","pricing_plan_id":"cebpf4jnsgd1na2vs0mg"},{"bike_id":"5591936e-ca63-41c7-89f3-9c9493c86f89","system_id":"levelo_inurba_marseille","lat":43.24173,"lon":5.36389,"is_reserved":false,"is_disabled":false,"rental_uris":{"android":"levelo://app?vid=5591936e-ca63-41c7-89f3-9c9493c86f89","ios":"levelo://app?vid=5591936e-ca63-41c7-89f3-9c9493c86f89"},"vehicle_type_id":"4","last_reported":1744373969,"current_range_meters":23200,"station_id":"cpo36qri1sfpv3e86is0","pricing_plan_id":"cebpf4jnsgd1na2vs0mg"},{"bike_id":"e15fc53d-15a6-4d5a-bbf3-75ad4047d691","system_id":"levelo_inurba_marseille","lat":43.289339,"lon":5.366433,"is_reserved":false,"is_disabled":false,"rental_uris":{"android":"levelo://app?vid=e15fc53d-15a6-4d5a-bbf3-75ad4047d691","ios":"levelo://app?vid=e15fc53d-15a6-4d5a-bbf3-75ad4047d691"},"vehicle_type_id":"4","last_reported":1744373969,"current_range_meters":23200,"station_id":"ce4bhap2rcd13ifvqek0","pricing_plan_id":"cebpf4jnsgd1na2vs0mg"},{"bike_id":"9909d826-08f4-43cc-b123-1d4a1f6bab79","system_id":"levelo_inurba_marseille","lat":43.28462,"lon":5.35882,"is_reserved":false,"is_disabled":false,"rental_uris":{"android":"levelo://app?vid=9909d826-08f4-43cc-b123-1d4a1f6bab79","ios":"levelo://app?vid=9909d826-08f4-43cc-b123-1d4a1f6bab79"},"vehicle_type_id":"4","last_reported":1744373969,"current_range_meters":23200,"station_id":"ce4bhah2rcd13ifvqei0","pricing_plan_id":"cebpf4jnsgd1na2vs0mg"},{"bike_id":"14e7f6d7-d829-40c7-8382-a4ea6bc65ef5","system_id":"levelo_inurba_marseille","lat":43.28418,"lon":5.34982,"is_reserved":false,"is_disabled":false,"rental_uris":{"android":"levelo://app?vid=14e7f6d7-d829-40c7-8382-a4ea6bc65ef5","ios":"levelo://app?vid=14e7f6d7-d829-40c7-8382-a4ea6bc65ef5"},"vehicle_type_id":"4","last_reported":1744373969,"current_range_meters":23200,"station_id":"ce4bhbh2rcd13ifvqepg","pricing_plan_id":"cebpf4jnsgd1na2vs0mg"},{"bike_id":"1e41eab0-d6a1-4d05-a171-3615b7cf2bc7","system_id":"levelo_inurba_marseille","lat":43.30424,"lon":5.39751,"is_reserved":false,"is_disabled":false,"rental_uris":{"android":"levelo://app?vid=1e41eab0-d6a1-4d05-a171-3615b7cf2bc7","ios":"levelo://app?vid=1e41eab0-d6a1-4d05-a171-3615b7cf2bc7"},"vehicle_type_id":"4","last_reported":1744373969,"current_range_meters":24000,"station_id":"ce4bh092rcd13ifvqd20","pricing_plan_id":"cebpf4jnsgd1na2vs0mg"},{"bike_id":"e9db9fb1-6d03-44e3-84ae-b2192c3b1899","system_id":"levelo_inurba_marseille","lat":43.2419,"lon":5.39727,"is_reserved":false,"is_disabled":false,"rental_uris":{"android":"levelo://app?vid=e9db9fb1-6d03-44e3-84ae-b2192c3b1899","ios":"levelo://app?vid=e9db9fb1-6d03-44e3-84ae-b2192c3b1899"},"vehicle_type_id":"4","last_reported":1744373969,"current_range_meters":24000,"station_id":"ce4bhn12rcd13ifvqgpg","pricing_plan_id":"cebpf4jnsgd1na2vs0mg"},{"bike_id":"857f7ee1-a7e1-48e7-9497-9452d2da393e","system_id":"levelo_inurba_marseille","lat":43.25504,"lon":5.37675,"is_reserved":false,"is_disabled":false,"rental_uris":{"android":"levelo://app?vid=857f7ee1-a7e1-48e7-9497-9452d2da393e","ios":"levelo://app?vid=857f7ee1-a7e1-48e7-9497-9452d2da393e"},"vehicle_type_id":"4","last_reported":1744373969,"current_range_meters":24000,"station_id":"ce4bhh12rcd13ifvqff0","pricing_plan_id":"cebpf4jnsgd1na2vs0mg"},{"bike_id":"b04b3b5b-f324-4c13-bfbf-0da3d03e981d","system_id":"levelo_inurba_marseille","lat":43.254891,"lon":5.376466,"is_reserved":false,"is_disabled":false,"rental_uris":{"android":"levelo://app?vid=b04b3b5b-f324-4c13-bfbf-0da3d03e981d","ios":"levelo://app?vid=b04b3b5b-f324-4c13-bfbf-0da3d03e981d"},"vehicle_type_id":"4","last_reported":1744373969,"current_range_meters":24000,"station_id":"ce4bhh12rcd13ifvqff0","pricing_plan_id":"cebpf4jnsgd1na2vs0mg"},{"bike_id":"8626af54-61a6-4557-8900-027e29f937a9","system_id":"levelo_inurba_marseille","lat":43.27368,"lon":5.3625,"is_reserved":false,"is_disabled":false,"rental_uris":{"android":"levelo://app?vid=8626af54-61a6-4557-8900-027e29f937a9","ios":"levelo://app?vid=8626af54-61a6-4557-8900-027e29f937a9"},"vehicle_type_id":"4","last_reported":1744373969,"current_range_meters":24000,"station_id":"ce4bhbh2rcd13ifvqeo0","pricing_plan_id":"cebpf4jnsgd1na2vs0mg"},{"bike_id":"86b29833-9b3c-413a-9d38-3095f1e53397","system_id":"levelo_inurba_marseille","lat":43.28264,"lon":5.35058,"is_reserved":false,"is_disabled":false,"rental_uris":{"android":"levelo://app?vid=86b29833-9b3c-413a-9d38-3095f1e53397","ios":"levelo://app?vid=86b29833-9b3c-413a-9d38-3095f1e53397"},"vehicle_type_id":"4","last_reported":1744373969,"current_range_meters":24000,"station_id":"ce4bhbp2rcd13ifvqerg","pricing_plan_id":"cebpf4jnsgd1na2vs0mg"},{"bike_id":"998c02cc-4ff7-41ae-9eda-0bddda92b794","system_id":"levelo_inurba_marseille","lat":43.28418,"lon":5.34995,"is_reserved":false,"is_disabled":false,"rental_uris":{"android":"levelo://app?vid=998c02cc-4ff7-41ae-9eda-0bddda92b794","ios":"levelo://app?vid=998c02cc-4ff7-41ae-9eda-0bddda92b794"},"vehicle_type_id":"4","last_reported":1744373969,"current_range_meters":24000,"station_id":"ce4bhbh2rcd13ifvqepg","pricing_plan_id":"cebpf4jnsgd1na2vs0mg"},{"bike_id":"56785eb6-a21e-4bda-a2c8-cef94f33773f","system_id":"levelo_inurba_marseille","lat":43.2737,"lon":5.36255,"is_reserved":false,"is_disabled":false,"rental_uris":{"android":"levelo://app?vid=56785eb6-a21e-4bda-a2c8-cef94f33773f","ios":"levelo://app?vid=56785eb6-a21e-4bda-a2c8-cef94f33773f"},"vehicle_type_id":"4","last_reported":1744373969,"current_range_meters":24000,"station_id":"ce4bhbh2rcd13ifvqeo0","pricing_plan_id":"cebpf4jnsgd1na2vs0mg"},