{"last_updated":1748502668,"ttl":60,"version":"2.2","data":{"bikes":[{"bike_id":"55d42eeb-6b71-4987-a0f2-3d758b10d43e","system_id":"levelo_inurba_marseille","lat":43.33771,"lon":5.37424,"is_reserved":false,"is_disabled":true,"rental_uris":{"android":"levelo://app?vid=55d42eeb-6b71-4987-a0f2-3d758b10d43e","ios":"levelo://app?vid=55d42eeb-6b71-4987-a0f2-3d758b10d43e"},"vehicle_type_id":"4","last_reported":1748502668,"current_range_meters":0,"station_id":"","pricing_plan_id":"cebpf4jnsgd1na2vs0mg"},{"bike_id":"7f4b6069-304f-4d75-a8b9-d3db83a055ca","system_id":"levelo_inurba_marseille","lat":43.21747,"lon":5.34595,"is_reserved":false,"is_disabled":true,"rental_uris":{"android":"levelo://app?vid=7f4b6069-304f-4d75-a8b9-d3db83a055ca","ios":"levelo://app?vid=7f4b6069-304f-4d75-a8b9-d3db83a055ca"},"vehicle_type_id":"4","last_reported":1748502668,"current_range_meters":0,"station_id":"","pricing_plan_id":"cebpf4jnsgd1na2vs0mg"},{"bike_id":"b7fe4621-b706-42f0-9085-4811142f84e8","system_id":"levelo_inurba_marseille","lat":43.337499,"lon":5.374469,"is_reserved":false,"is_disabled":true,"rental_uris":{"android":"levelo://app?vid=b7fe4621-b706-42f0-9085-4811142f84e8","ios":"levelo://app?vid=b7fe4621-b706-42f0-9085-4811142f84e8"},"vehicle_type_id":"4","last_reported":1748502668,"current_range_meters":0,"station_id":"","pricing_plan_id":"cebpf4jnsgd1na2vs0mg"},{"bike_id":"fe000210-af5a-4367-8a9d-4202f00949cb","system_id":"levelo_inurba_marseille","lat":43.28286,"lon":5.40644,"is_reserved":false,"is_disabled":true,"rental_uris":{"android":"levelo://app?vid=fe000210-af5a-4367-8a9d-4202f00949cb","ios":"levelo://app?vid=fe000210-af5a-4367-8a9d-4202f00949cb"},"vehicle_type_id":"4","last_reported":1748502668,"current_range_meters":0,"station_id":"","pricing_plan_id":"cebpf4jnsgd1na2vs0mg"},{"bike_id":"ad402f0f-3192-410c-afac-8cf064a40c6d","system_id":"levelo_inurba_marseille","lat":43.337444,"lon":5.374475,"is_reserved":false,"is_disabled":true,"rental_uris":{"android":"levelo://app?vid=ad402f0f-3192-410c-afac-8cf064a40c6d","ios":"levelo://app?vid=ad402f0f-3192-410c-afac-8cf064a40c6d"},"vehicle_type_id":"4","last_reported":1748502668,"current_range_meters":0,"station_id":"","pricing_plan_id":"cebpf4jnsgd1na2vs0mg"},{"bike_id":"49a884c6-32c5-4489-8361-5676db2be1d3","system_id":"levelo_inurba_marseille","lat":43.30443,"lon":5.37074,"is_reserved":false,"is_disabled":true,"rental_uris":{"android":"levelo://app?vid=49a884c6-32c5-4489-8361-5676db2be1d3","ios":"levelo://app?vid=49a884c6-32c5-4489-8361-5676db2be1d3"},"vehicle_type_id":"4","last_reported":1748502668,"current_range_meters":0,"station_id":"","pricing_plan_id":"cebpf4jnsgd1na2vs0mg"},{"bike_id":"49c6e13b-47db-4742-afe3-0aadda4ba4fb","system_id":"levelo_inurba_marseille","lat":43.31757,"lon":5.38568,"is_reserved":false,"is_disabled":true,"rental_uris":{"android":"levelo://app?vid=49c6e13b-47db-4742-afe3-0aadda4ba4fb","ios":"levelo://app?vid=49c6e13b-47db-4742-afe3-0aadda4ba4fb"},"vehicle_type_id":"4","last_reported":1748502668,"current_range_meters":0,"station_id":"","pricing_plan_id":"cebpf4jnsgd1na2vs0mg"},{"bike_id":"80dc1064-d63f-4a22-ad21-d8abd70986c0","system_id":"levelo_inurba_marseille","lat":43.337483,"lon":5.37483,"is_reserved":false,"is_disabled":true,"rental_uris":{"android":"levelo://app?vid=80dc1064-d63f-4a22-ad21-d8abd70986c0","ios":"levelo://app?vid=80dc1064-d63f-4a22-ad21-d8abd70986c0"},"vehicle_type_id":"4","last_reported":1748502668,"current_range_meters":0,"station_id":"","pricing_plan_id":"cebpf4jnsgd1na2vs0mg"},{"bike_id":"d3bf3c55-5769-4b15-9eb1-28f17ada09fd","system_id":"levelo_inurba_marseille","lat":43.32131,"lon":5.38763,"is_reserved":false,"is_disabled":true,"rental_uris":{"android":"levelo://app?vid=d3bf3c55-5769-4b15-9eb1-28f17ada09fd","ios":"levelo://app?vid=d3bf3c55-5769-4b15-9eb1-28f17ada09fd"},"vehicle_type_id":"4","last_reported":1748502668,"current_range_meters":0,"station_id":"","pricing_plan_id":"cebpf4jnsgd1na2vs0mg"},{"bike_id":"7f9bdcaf-4217-4932-be91-52b5120d5ca8","system_id":"levelo_inurba_marseille","lat":43.26346,"lon":5.40134,"is_reserved":false,"is_disabled":true,"rental_uris":{"android":"levelo://app?vid=7f9bdcaf-4217-4932-be91-52b5120d5ca8","ios":"levelo://app?vid=7f9bdcaf-4217-4932-be91-52b5120d5ca8"},"vehicle_type_id":"4","last_reported":1748502668,"current_range_meters":0,"station_id":"","pricing_plan_id":"cebpf4jnsgd1na2vs0mg"},{"bike_id":"2fd7e160-685c-4858-b57b-dcaef27a8e94","system_id":"levelo_inurba_marseille","lat":43.230331,"lon":5.401847,"is_reserved":false,"is_disabled":true,"rental_uris":{"android":"levelo://app?vid=2fd7e160-685c-4858-b57b-dcaef27a8e94","ios":"levelo://app?vid=2fd7e160-685c-4858-b57b-dcaef27a8e94"},"vehicle_type_id":"4","last_reported":1748502668,"current_range_meters":0,"station_id":"","pricing_plan_id":"cebpf4jnsgd1na2vs0mg"},{"bike_id":"c14fe2c4-20aa-4590-b663-c1c699b79eed","system_id":"levelo_inurba_marseille","lat":43.30544,"lon":5.38415,"is_reserved":false,"is_disabled":true,"rental_uris":{"android":"levelo://app?vid=c14fe2c4-20aa-4590-b663-c1c699b79eed","ios":"levelo://app?vid=c14fe2c4-20aa-4590-b663-c1c699b79eed"},"vehicle_type_id":"4","last_reported":1748502668,"current_range_meters":0,"station_id":"ce4bgg92rcd13ifvqb30","pricing_plan_id":"cebpf4jnsgd1na2vs0mg"},{"bike_id":"43f400d5-782f-4d7f-9100-66c9def31353","system_id":"levelo_inurba_marseille","lat":43.29316,"lon":5.37143,"is_reserved":false,"is_disabled":true,"rental_uris":{"android":"levelo://app?vid=43f400d5-782f-4d7f-9100-66c9def31353","ios":"levelo://app?vid=43f400d5-782f-4d7f-9100-66c9def31353"},"vehicle_type_id":"4","last_reported":1748502668,"current_range_meters":0,"station_id":"ce4bgh92rcd13ifvqb40","pricing_plan_id":"cebpf4jnsgd1na2vs0mg"},{"bike_id":"eefc3327-6749-422f-b947-2fc9f17ebc6b","system_id":"levelo_inurba_marseille","lat":43.29963,"lon":5.38494,"is_reserved":false,"is_disabled":true,"rental_uris":{"android":"levelo://app?vid=eefc3327-6749-422f-b947-2fc9f17ebc6b","ios":"levelo://app?vid=eefc3327-6749-422f-b947-2fc9f17ebc6b"},"vehicle_type_id":"4","last_reported":1748502668,"current_range_meters":0,"station_id":"ce4bgj92rcd13ifvqbd0","pricing_plan_id":"cebpf4jnsgd1na2vs0mg"},{"bike_id":"fe6df611-c0e1-4a13-b3ed-1f3158a59d1f","system_id":"levelo_inurba_marseille","lat":43.31327,"lon":5.39699,"is_reserved":false,"is_disabled":true,"rental_uris":{"android":"levelo://app?vid=fe6df611-c0e1-4a13-b3ed-1f3158a59d1f","ios":"levelo://app?vid=fe6df611-c0e1-4a13-b3ed-1f3158a59d1f"},"vehicle_type_id":"4","last_reported":1748502668,"current_range_meters":0,"station_id":"ce4bgvp2rcd13ifvqcu0","pricing_plan_id":"cebpf4jnsgd1na2vs0mg"},{"bike_id":"2785eb47-7f1b-40c0-b953-9b6c7ccca62e","system_id":"levelo_inurba_marseille","lat":43.308915,"lon":5.396601,"is_reserved":false,"is_disabled":true,"rental_uris":{"android":"levelo://app?vid=2785eb47-7f1b-40c0-b953-9b6c7ccca62e","ios":"levelo://app?vid=2785eb47-7f1b-40c0-b953-9b6c7ccca62e"},"vehicle_type_id":"4","last_reported":1748502668,"current_range_meters":0,"station_id":"ce4bh012rcd13ifvqcv0","pricing_plan_id":"cebpf4jnsgd1na2vs0mg"},{"bike_id":"5843b566-1088-49bb-a006-dce3aa9c9dcb","system_id":"levelo_inurba_marseille","lat":43.24392,"lon":5.37067,"is_reserved":false,"is_disabled":true,"rental_uris":{"android":"levelo://app?vid=5843b566-1088-49bb-a006-dce3aa9c9dcb","ios":"levelo://app?vid=5843b566-1088-49bb-a006-dce3aa9c9dcb"},"vehicle_type_id":"4","last_reported":1748502668,"current_range_meters":0,"station_id":"ce4bhhh2rcd13ifvqfk0","pricing_plan_id":"cebpf4jnsgd1na2vs0mg"},{"bike_id":"6b06cb05-7bf9-404d-ae76-2400a89ace83","system_id":"levelo_inurba_marseille","lat":43.24391,"lon":5.37059,"is_reserved":false,"is_disabled":true,"rental_uris":{"android":"levelo://app?vid=6b06cb05-7bf9-404d-ae76-2400a89ace83","ios":"levelo://app?vid=6b06cb05-7bf9-404d-ae76-2400a89ace83"},"vehicle_type_id":"4","last_reported":1748502668,"current_range_meters":0,"station_id":"ce4bhhh2rcd13ifvqfk0","pricing_plan_id":"cebpf4jnsgd1na2vs0mg"},{"bike_id":"5a03810b-1d6d-421e-838c-d2d5c26515e8","system_id":"levelo_inurba_marseille","lat":43.24389,"lon":5.37064,"is_reserved":false,"is_disabled":true,"rental_uris":{"android":"levelo://app?vid=5a03810b-1d6d-421e-838c-d2d5c26515e8","ios":"levelo://app?vid=5a03810b-1d6d-421e-838c-d2d5c26515e8"},"vehicle_type_id":"4","last_reported":1748502668,"current_range_meters":0,"station_id":"ce4bhhh2rcd13ifvqfk0","pricing_plan_id":"cebpf4jnsgd1na2vs0mg"},{"bike_id":"fbac6406-70e4-4f8e-8979-b7a0c5a63267","system_id":"levelo_inurba_marseille","lat":43.24386,"lon":5.37061,"is_reserved":false,"is_disabled":true,"rental_uris":{"android":"levelo://app?vid=fbac6406-70e4-4f8e-8979-b7a0c5a63267","ios":"levelo://app?vid=fbac6406-70e4-4f8e-8979-b7a0c5a63267"},"vehicle_type_id":"4","last_reported":1748502668,"current_range_meters":0,"station_id":"ce4bhhh2rcd13ifvqfk0","pricing_plan_id":"cebpf4jnsgd1na2vs0mg"},{"bike_id":"e73357c5-67ed-4075-84be-4246c5fbde4a","system_id":"levelo_inurba_marseille","lat":43.23165,"lon":5.43718,"is_reserved":false,"is_disabled":true,"rental_uris":{"android":"levelo://app?vid=e73357c5-67ed-4075-84be-4246c5fbde4a","ios":"levelo://app?vid=e73357c5-67ed-4075-84be-4246c5fbde4a"},"vehicle_type_id":"4","last_reported":1748502668,"current_range_meters":0,"station_id":"ce4bhmp2rcd13ifvqgog","pricing_plan_id":"cebpf4jnsgd1na2vs0mg"},{"bike_id":"e3875bb3-8513-41ed-9423-f8399184e0fa","system_id":"levelo_inurba_marseille","lat":43.23178,"lon":5.39994,"is_reserved":false,"is_disabled":true,"rental_uris":{"android":"levelo://app?vid=e3875bb3-8513-41ed-9423-f8399184e0fa","ios":"levelo://app?vid=e3875bb3-8513-41ed-9423-f8399184e0fa"},"vehicle_type_id":"4","last_reported":1748502668,"current_range_meters":0,"station_id":"ce4bhn12rcd13ifvqgqg","pricing_plan_id":"cebpf4jnsgd1na2vs0mg"},{"bike_id":"de1d994f-f48c-4e5f-9385-73fe8ce8f481","system_id":"levelo_inurba_marseille","lat":43.23182,"lon":5.39993,"is_reserved":false,"is_disabled":true,"rental_uris":{"android":"levelo://app?vid=de1d994f-f48c-4e5f-9385-73fe8ce8f481","ios":"levelo://app?vid=de1d994f-f48c-4e5f-9385-73fe8ce8f481"},"vehicle_type_id":"4","last_reported":1748502668,"current_range_meters":0,"station_id":"ce4bhn12rcd13ifvqgqg","pricing_plan_id":"cebpf4jnsgd1na2vs0mg"},{"bike_id":"ce526b8a-caa2-4d66-9928-344df9acf135","system_id":"levelo_inurba_marseille","lat":43.3236,"lon":5.3889,"is_reserved":false,"is_disabled":true,"rental_uris":{"android":"levelo://app?vid=ce526b8a-caa2-4d66-9928-344df9acf135","ios":"levelo://app?vid=ce526b8a-caa2-4d66-9928-344df9acf135"},"vehicle_type_id":"4","last_reported":1748502668,"current_range_meters":0,"station_id":"ce4bhqp2rcd13ifvqhog","pricing_plan_id":"cebpf4jnsgd1na2vs0mg"},{"bike_id":"5aefb386-e416-4906-998c-ff23207edc6c","system_id":"levelo_inurba_marseille","lat":43.21771,"lon":5.34593,"is_reserved":false,"is_disabled":true,"rental_uris":{"android":"levelo://app?vid=5aefb386-e416-4906-998c-ff23207edc6c","ios":"levelo://app?vid=5aefb386-e416-4906-998c-ff23207edc6c"},"vehicle_type_id":"4","last_reported":1748502668,"current_range_meters":0,"station_id":"st_cvj6r9ubvosntc0bgbag","pricing_plan_id":"cebpf4jnsgd1na2vs0mg"},{"bike_id":"443004d0-5e76-4011-aa1d-e28b9d37d601","system_id":"levelo_inurba_marseille","lat":43.315609,"lon":5.36915,"is_reserved":false,"is_disabled":true,"rental_uris":{"android":"levelo://app?vid=443004d0-5e76-4011-aa1d-e28b9d37d601","ios":"levelo://app?vid=443004d0-5e76-4011-aa1d-e28b9d37d601"},"vehicle_type_id":"4","last_reported":1748502668,"current_range_meters":400,"station_id":"","pricing_plan_id":"cebpf4jnsgd1na2vs0mg"},{"bike_id":"2cff8f75-4ed3-4ab3-aa3a-fc0bb6c288c5","system_id":"levelo_inurba_marseille","lat":43.2315,"lon":5.43719,"is_reserved":false,"is_disabled":true,"rental_uris":{"android":"levelo://app?vid=2cff8f75-4ed3-4ab3-aa3a-fc0bb6c288c5","ios":"levelo://app?vid=2cff8f75-4ed3-4ab3-aa3a-fc0bb6c288c5"},"vehicle_type_id":"4","last_reported":1748502668,"current_range_meters":400,"station_id":"ce4bhmp2rcd13ifvqgog","pricing_plan_id":"cebpf4jnsgd1na2vs0mg"},{"bike_id":"c18008dc-5dc2-4639-b115-8bcfbd0fbb83","system_id":"levelo_inurba_marseille","lat":43.299774,"lon":5.371826,"is_reserved":false,"is_disabled":false,"rental_uris":{"android":"levelo://app?vid=c18008dc-5dc2-4639-b115-8bcfbd0fbb83","ios":"levelo://app?vid=c18008dc-5dc2-4639-b115-8bcfbd0fbb83"},"vehicle_type_id":"4","last_reported":1748502668,"current_range_meters":800,"station_id":"ce4bgr92rcd13ifvqc7g","pricing_plan_id":"cebpf4jnsgd1na2vs0mg"},{"bike_id":"ce78f808-b7c2-47bc-8d9f-de87423062f7","system_id":"levelo_inurba_marseille","lat":43.30467,"lon":5.37894,"is_reserved":false,"is_disabled":true,"rental_uris":{"android":"levelo://app?vid=ce78f808-b7c2-47bc-8d9f-de87423062f7","ios":"levelo://app?vid=ce78f808-b7c2-47bc-8d9f-de87423062f7"},"vehicle_type_id":"4","last_reported":1748502668,"current_range_meters":800,"station_id":"ce4bgup2rcd13ifvqcn0","pricing_plan_id":"cebpf4jnsgd1na2vs0mg"},{"bike_id":"d7b9067d-ab59-405f-bb1c-c76e1f39daf8","system_id":"levelo_inurba_marseille","lat":43.28702,"lon":5.37411,"is_reserved":false,"is_disabled":true,"rental_uris":{"android":"levelo://app?vid=d7b9067d-ab59-405f-bb1c-c76e1f39daf8","ios":"levelo://app?vid=d7b9067d-ab59-405f-bb1c-c76e1f39daf8"},"vehicle_type_id":"4","last_reported":1748502668,"current_range_meters":800,"station_id":"ce4bh3p2rcd13ifvqdq0","pricing_plan_id":"cebpf4jnsgd1na2vs0mg"},{"bike_id":"396675c1-6ca5-4799-bbdd-e4293caceb50","system_id":"levelo_inurba_marseille","lat":43.26572,"lon":5.39009,"is_reserved":false,"is_disabled":true,"rental_uris":{"android":"levelo://app?vid=396675c1-6ca5-4799-bbdd-e4293caceb50","ios":"levelo://app?vid=396675c1-6ca5-4799-bbdd-e4293caceb50"},"vehicle_type_id":"4","last_reported":1748502668,"current_range_meters":800,"station_id":"ce4bhe12rcd13ifvqf30","pricing_plan_id":"cebpf4jnsgd1na2vs0mg"},{"bike_id":"dba3dbf7-9f80-4f77-baad-bdc1b1227129","system_id":"levelo_inurba_marseille","lat":43.21764,"lon":5.34597,"is_reserved":false,"is_disabled":true,"rental_uris":{"android":"levelo://app?vid=dba3dbf7-9f80-4f77-baad-bdc1b1227129","ios":"levelo://app?vid=dba3dbf7-9f80-4f77-baad-bdc1b1227129"},"vehicle_type_id":"4","last_reported":1748502668,"current_range_meters":1200,"station_id":"","pricing_plan_id":"cebpf4jnsgd1na2vs0mg"},{"bike_id":"154240d9-ae7a-4e24-8ba5-275513e5fd56","system_id":"levelo_inurba_marseille","lat":43.31119,"lon":5.37766,"is_reserved":false,"is_disabled":true,"rental_uris":{"android":"levelo://app?vid=154240d9-ae7a-4e24-8ba5-275513e5fd56","ios":"levelo://app?vid=154240d9-ae7a-4e24-8ba5-275513e5fd56"},"vehicle_type_id":"4","last_reported":1748502668,"current_range_meters":1200,"station_id":"ce4bgt92rcd13ifvqcg0","pricing_plan_id":"cebpf4jnsgd1na2vs0mg"},{"bike_id":"38f21575-0e86-4c6a-aac5-732a93136600","system_id":"levelo_inurba_marseille","lat":43.33019,"lon":5.3904,"is_reserved":false,"is_disabled":true,"rental_uris":{"android":"levelo://app?vid=38f21575-0e86-4c6a-aac5-732a93136600","ios":"levelo://app?vid=38f21575-0e86-4c6a-aac5-732a93136600"},"vehicle_type_id":"4","last_reported":1748502668,"current_range_meters":1200,"station_id":"ce4bhr92rcd13ifvqhrg","pricing_plan_id":"cebpf4jnsgd1na2vs0mg"},{"bike_id":"5c438d4d-7c76-4ac2-8ad1-4f8249fc944a","system_id":"levelo_inurba_marseille","lat":43.30147,"lon":5.38076,"is_reserved":false,"is_disabled":true,"rental_uris":{"android":"levelo://app?vid=5c438d4d-7c76-4ac2-8ad1-4f8249fc944a","ios":"levelo://app?vid=5c438d4d-7c76-4ac2-8ad1-4f8249fc944a"},"vehicle_type_id":"4","last_reported":1748502668,"current_range_meters":2000,"station_id":"ce4bgjp2rcd13ifvqbh0","pricing_plan_id":"cebpf4jnsgd1na2vs0mg"},{"bike_id":"b014fb1d-84f8-452e-aa32-f003ba592a7f","system_id":"levelo_inurba_marseille","lat":43.296,"lon":5.38119,"is_reserved":false,"is_disabled":true,"rental_uris":{"android":"levelo://app?vid=b014fb1d-84f8-452e-aa32-f003ba592a7f","ios":"levelo://app?vid=b014fb1d-84f8-452e-aa32-f003ba592a7f"},"vehicle_type_id":"4","last_reported":1748502668,"current_range_meters":2000,"station_id":"ce4bgl12rcd13ifvqbo0","pricing_plan_id":"cebpf4jnsgd1na2vs0mg"},{"bike_id":"1e773810-29a8-431c-8c3b-ad8dff980aea","system_id":"levelo_inurba_marseille","lat":43.29974,"lon":5.371793,"is_reserved":false,"is_disabled":false,"rental_uris":{"android":"levelo://app?vid=1e773810-29a8-431c-8c3b-ad8dff980aea","ios":"levelo://app?vid=1e773810-29a8-431c-8c3b-ad8dff980aea"},"vehicle_type_id":"4","last_reported":1748502668,"current_range_meters":2000,"station_id":"ce4bgr92rcd13ifvqc7g","pricing_plan_id":"cebpf4jnsgd1na2vs0mg"},{"bike_id":"8833c126-1a43-4b6b-9c80-ed021a9b22fe","system_id":"levelo_inurba_marseille","lat":43.2885,"lon":5.39304,"is_reserved":false,"is_disabled":true,"rental_uris":{"android":"levelo://app?vid=8833c126-1a43-4b6b-9c80-ed021a9b22fe","ios":"levelo://app?vid=8833c126-1a43-4b6b-9c80-ed021a9b22fe"},"vehicle_type_id":"4","last_reported":1748502668,"current_range_meters":2000,"station_id":"ce4bh2p2rcd13ifvqdi0","pricing_plan_id":"cebpf4jnsgd1na2vs0mg"},{"bike_id":"4d66d567-36e9-4f64-863c-56dd68426a6b","system_id":"levelo_inurba_marseille","lat":43.29062,"lon":5.39947,"is_reserved":false,"is_disabled":true,"rental_uris":{"android":"levelo://app?vid=4d66d567-36e9-4f64-863c-56dd68426a6b","ios":"levelo://app?vid=4d66d567-36e9-4f64-863c-56dd68426a6b"},"vehicle_type_id":"4","last_reported":1748502668,"current_range_meters":2000,"station_id":"ce4bh392rcd13ifvqdm0","pricing_plan_id":"cebpf4jnsgd1na2vs0mg"},{"bike_id":"cdf09637-b1ad-47dc-8907-4b086fe738e9","system_id":"levelo_inurba_marseille","lat":43.29023,"lon":5.38125,"is_reserved":false,"is_disabled":true,"rental_uris":{"android":"levelo://app?vid=cdf09637-b1ad-47dc-8907-4b086fe738e9","ios":"levelo://app?vid=cdf09637-b1ad-47dc-8907-4b086fe738e9"},"vehicle_type_id":"4","last_reported":1748502668,"current_range_meters":2000,"station_id":"ce4bh4p2rcd13ifvqe1g","pricing_plan_id":"cebpf4jnsgd1na2vs0mg"},{"bike_id":"115fc79f-42bf-46c8-b58e-56bf2b72bd0a","system_id":"levelo_inurba_marseille","lat":43.26229,"lon":5.4044,"is_reserved":false,"is_disabled":true,"rental_uris":{"android":"levelo://app?vid=115fc79f-42bf-46c8-b58e-56bf2b72bd0a","ios":"levelo://app?vid=115fc79f-42bf-46c8-b58e-56bf2b72bd0a"},"vehicle_type_id":"4","last_reported":1748502668,"current_range_meters":2000,"station_id":"ce4bhmh2rcd13ifvqgmg","pricing_plan_id":"cebpf4jnsgd1na2vs0mg"},{"bike_id":"79fa2c16-3fb6-467d-b11f-01c41dbd318a","system_id":"levelo_inurba_marseille","lat":43.29895,"lon":5.4367,"is_reserved":false,"is_disabled":true,"rental_uris":{"android":"levelo://app?vid=79fa2c16-3fb6-467d-b11f-01c41dbd318a","ios":"levelo://app?vid=79fa2c16-3fb6-467d-b11f-01c41dbd318a"},"vehicle_type_id":"4","last_reported":1748502668,"current_range_meters":2000,"station_id":"ce4bhpp2rcd13ifvqhfg","pricing_plan_id":"cebpf4jnsgd1na2vs0mg"},{"bike_id":"6eb5d824-2aac-4267-8b6d-1ce29958ae35","system_id":"levelo_inurba_marseille","lat":43.30296,"lon":5.39226,"is_reserved":false,"is_disabled":false,"rental_uris":{"android":"levelo://app?vid=6eb5d824-2aac-4267-8b6d-1ce29958ae35","ios":"levelo://app?vid=6eb5d824-2aac-4267-8b6d-1ce29958ae35"},"vehicle_type_id":"4","last_reported":1748502668,"current_range_meters":2800,"station_id":"ce4bgkh2rcd13ifvqbk0","pricing_plan_id":"cebpf4jnsgd1na2vs0mg"},{"bike_id":"2a305f10-0b7e-4a5c-b1bc-2b8a24f0b0e9","system_id":"levelo_inurba_marseille","lat":43.297078,"lon":5.366118,"is_reserved":false,"is_disabled":false,"rental_uris":{"android":"levelo://app?vid=2a305f10-0b7e-4a5c-b1bc-2b8a24f0b0e9","ios":"levelo://app?vid=2a305f10-0b7e-4a5c-b1bc-2b8a24f0b0e9"},"vehicle_type_id":"4","last_reported":1748502668,"current_range_meters":2800,"station_id":"ce4bgn12rcd13ifvqbt0","pricing_plan_id":"cebpf4jnsgd1na2vs0mg"},{"bike_id":"85ab9e49-2de9-4c78-9df8-e03a0245b0f2","system_id":"levelo_inurba_marseille","lat":43.253533,"lon":5.395237,"is_reserved":false,"is_disabled":false,"rental_uris":{"android":"levelo://app?vid=85ab9e49-2de9-4c78-9df8-e03a0245b0f2","ios":"levelo://app?vid=85ab9e49-2de9-4c78-9df8-e03a0245b0f2"},"vehicle_type_id":"4","last_reported":1748502668,"current_range_meters":3200,"station_id":"","pricing_plan_id":"cebpf4jnsgd1na2vs0mg"},{"bike_id":"0fb9e420-f989-4f10-bf03-c43cdb76d392","system_id":"levelo_inurba_marseille","lat":43.2511,"lon":5.40335,"is_reserved":false,"is_disabled":false,"rental_uris":{"android":"levelo://app?vid=0fb9e420-f989-4f10-bf03-c43cdb76d392","ios":"levelo://app?vid=0fb9e420-f989-4f10-bf03-c43cdb76d392"},"vehicle_type_id":"4","last_reported":1748502668,"current_range_meters":3200,"station_id":"ce4bhlh2rcd13ifvqgig","pricing_plan_id":"cebpf4jnsgd1na2vs0mg"},{"bike_id":"97639e6e-4fb0-4576-866f-ade9d49ef449","system_id":"levelo_inurba_marseille","lat":43.304714,"lon":5.378954,"is_reserved":false,"is_disabled":false,"rental_uris":{"android":"levelo://app?vid=97639e6e-4fb0-4576-866f-ade9d49ef449","ios":"levelo://app?vid=97639e6e-4fb0-4576-866f-ade9d49ef449"},"vehicle_type_id":"4","last_reported":1748502668,"current_range_meters":3600,"station_id":"ce4bgup2rcd13ifvqcn0","pricing_plan_id":"cebpf4jnsgd1na2vs0mg"},{"bike_id":"641dd50a-b87c-4078-a75d-c4b36e076166","system_id":"levelo_inurba_marseille","lat":43.28414,"lon":5.34978,"is_reserved":false,"is_disabled":false,"rental_uris":{"android":"levelo://app?vid=641dd50a-b87c-4078-a75d-c4b36e076166","ios":"levelo://app?vid=641dd50a-b87c-4078-a75d-c4b36e076166"},"vehicle_type_id":"4","last_reported":1748502668,"current_range_meters":3600,"station_id":"ce4bhbh2rcd13ifvqepg","pricing_plan_id":"cebpf4jnsgd1na2vs0mg"},{"bike_id":"fc751a98-3313-41f0-9fb9-ac1a18360a9d","system_id":"levelo_inurba_marseille","lat":43.284197,"lon":5.34979,"is_reserved":false,"is_disabled":false,"rental_uris":{"android":"levelo://app?vid=fc751a98-3313-41f0-9fb9-ac1a18360a9d","ios":"levelo://app?vid=fc751a98-3313-41f0-9fb9-ac1a18360a9d"},"vehicle_type_id":"4","last_reported":1748502668,"current_range_meters":3600,"station_id":"ce4bhbh2rcd13ifvqepg","pricing_plan_id":"cebpf4jnsgd1na2vs0mg"},{"bike_id":"6d2f49d4-4079-41f0-a189-90db2e417369","system_id":"levelo_inurba_marseille","lat":43.333441,"lon":5.400469,"is_reserved":false,"is_disabled":false,"rental_uris":{"android":"levelo://app?vid=6d2f49d4-4079-41f0-a189-90db2e417369","ios":"levelo://app?vid=6d2f49d4-4079-41f0-a189-90db2e417369"},"vehicle_type_id":"4","last_reported":1748502668,"current_range_meters":4000,"station_id":"","pricing_plan_id":"cebpf4jnsgd1na2vs0mg"},{"bike_id":"db9704fb-5b96-4afd-a18d-9c5620985697","system_id":"levelo_inurba_marseille","lat":43.26806,"lon":5.40257,"is_reserved":false,"is_disabled":false,"rental_uris":{"android":"levelo://app?vid=db9704fb-5b96-4afd-a18d-9c5620985697","ios":"levelo://app?vid=db9704fb-5b96-4afd-a18d-9c5620985697"},"vehicle_type_id":"4","last_reported":1748502668,"current_range_meters":4000,"station_id":"ce501612rcd8frsf0b60","pricing_plan_id":"cebpf4jnsgd1na2vs0mg"},{"bike_id":"1a9deaa6-5b0b-41ea-a3a0-9c49f0de8473","system_id":"levelo_inurba_marseille","lat":43.293292,"lon":5.411687,"is_reserved":false,"is_disabled":false,"rental_uris":{"android":"levelo://app?vid=1a9deaa6-5b0b-41ea-a3a0-9c49f0de8473","ios":"levelo://app?vid=1a9deaa6-5b0b-41ea-a3a0-9c49f0de8473"},"vehicle_type_id":"4","last_reported":1748502668,"current_range_meters":4400,"station_id":"","pricing_plan_id":"cebpf4jnsgd1na2vs0mg"},{"bike_id":"55edb2b6-24f5-484b-a859-47a014e0bde2","system_id":"levelo_inurba_marseille","lat":43.32619,"lon":5.36656,"is_reserved":false,"is_disabled":false,"rental_uris":{"android":"levelo://app?vid=55edb2b6-24f5-484b-a859-47a014e0bde2","ios":"levelo://app?vid=55edb2b6-24f5-484b-a859-47a014e0bde2"},"vehicle_type_id":"4","last_reported":1748502668,"current_range_meters":4400,"station_id":"","pricing_plan_id":"cebpf4jnsgd1na2vs0mg"},{"bike_id":"87b395fb-0dfd-464d-b68d-3afc622e0d48","system_id":"levelo_inurba_marseille","lat":43.29537,"lon":5.39447,"is_reserved":false,"is_disabled":false,"rental_uris":{"android":"levelo://app?vid=87b395fb-0dfd-464d-b68d-3afc622e0d48","ios":"levelo://app?vid=87b395fb-0dfd-464d-b68d-3afc622e0d48"},"vehicle_type_id":"4","last_reported":1748502668,"current_range_meters":4400,"station_id":"ce4bh292rcd13ifvqdf0","pricing_plan_id":"cebpf4jnsgd1na2vs0mg"},{"bike_id":"6b78b3de-5eb4-4d12-8d76-4c11059979f9","system_id":"levelo_inurba_marseille","lat":43.23961,"lon":5.36628,"is_reserved":false,"is_disabled":false,"rental_uris":{"android":"levelo://app?vid=6b78b3de-5eb4-4d12-8d76-4c11059979f9","ios":"levelo://app?vid=6b78b3de-5eb4-4d12-8d76-4c11059979f9"},"vehicle_type_id":"4","last_reported":1748502668,"current_range_meters":4400,"station_id":"ce4bhi12rcd13ifvqfp0","pricing_plan_id":"cebpf4jnsgd1na2vs0mg"},{"bike_id":"e662cfdf-7308-445f-8e14-4d33034d33f2","system_id":"levelo_inurba_marseille","lat":43.2511,"lon":5.40334,"is_reserved":false,"is_disabled":false,"rental_uris":{"android":"levelo://app?vid=e662cfdf-7308-445f-8e14-4d33034d33f2","ios":"levelo://app?vid=e662cfdf-7308-445f-8e14-4d33034d33f2"},"vehicle_type_id":"4","last_reported":1748502668,"current_range_meters":4400,"station_id":"ce4bhlh2rcd13ifvqgig","pricing_plan_id":"cebpf4jnsgd1na2vs0mg"},{"bike_id":"23e677ab-3998-4472-ba49-d32e7df0425c","system_id":"levelo_inurba_marseille","lat":43.229356,"lon":5.353758,"is_reserved":false,"is_disabled":false,"rental_uris":{"android":"levelo://app?vid=23e677ab-3998-4472-ba49-d32e7df0425c","ios":"levelo://app?vid=23e677ab-3998-4472-ba49-d32e7df0425c"},"vehicle_type_id":"4","last_reported":1748502668,"current_range_meters":4400,"station_id":"cpo3532slgdg3j2ikp40","pricing_plan_id":"cebpf4jnsgd1na2vs0mg"},{"bike_id":"7f682f59-88b4-4390-9b68-af470486d65b","system_id":"levelo_inurba_marseille","lat":43.31328,"lon":5.39688,"is_reserved":false,"is_disabled":false,"rental_uris":{"android":"levelo://app?vid=7f682f59-88b4-4390-9b68-af470486d65b","ios":"levelo://app?vid=7f682f59-88b4-4390-9b68-af470486d65b"},"vehicle_type_id":"4","last_reported":1748502668,"current_range_meters":4800,"station_id":"ce4bgvp2rcd13ifvqcu0","pricing_plan_id":"cebpf4jnsgd1na2vs0mg"},{"bike_id":"8b686f9a-13e4-448a-8045-4620b1af486c","system_id":"levelo_inurba_marseille","lat":43.30635,"lon":5.40046,"is_reserved":false,"is_disabled":false,"rental_uris":{"android":"levelo://app?vid=8b686f9a-13e4-448a-8045-4620b1af486c","ios":"levelo://app?vid=8b686f9a-13e4-448a-8045-4620b1af486c"},"vehicle_type_id":"4","last_reported":1748502668,"current_range_meters":4800,"station_id":"ce4bh112rcd13ifvqda0","pricing_plan_id":"cebpf4jnsgd1na2vs0mg"},{"bike_id":"98234324-f3a3-438f-801c-39490a7c5660","system_id":"levelo_inurba_marseille","lat":43.337279,"lon":5.391905,"is_reserved":false,"is_disabled":false,"rental_uris":{"android":"levelo://app?vid=98234324-f3a3-438f-801c-39490a7c5660","ios":"levelo://app?vid=98234324-f3a3-438f-801c-39490a7c5660"},"vehicle_type_id":"4","last_reported":1748502668,"current_range_meters":4800,"station_id":"ce4bhr92rcd13ifvqhsg","pricing_plan_id":"cebpf4jnsgd1na2vs0mg"},{"bike_id":"5b776a10-b5ac-46fd-8805-089c8a821894","system_id":"levelo_inurba_marseille","lat":43.27679,"lon":5.38869,"is_reserved":false,"is_disabled":false,"rental_uris":{"android":"levelo://app?vid=5b776a10-b5ac-46fd-8805-089c8a821894","ios":"levelo://app?vid=5b776a10-b5ac-46fd-8805-089c8a821894"},"vehicle_type_id":"4","last_reported":1748502668,"current_range_meters":5600,"station_id":"ce4bhi12rcd13ifvqfo0","pricing_plan_id":"cebpf4jnsgd1na2vs0mg"},{"bike_id":"e79ef05e-bb28-4c4b-a45f-1945f54353c7","system_id":"levelo_inurba_marseille","lat":43.240622,"lon":5.37763,"is_reserved":false,"is_disabled":false,"rental_uris":{"android":"levelo://app?vid=e79ef05e-bb28-4c4b-a45f-1945f54353c7","ios":"levelo://app?vid=e79ef05e-bb28-4c4b-a45f-1945f54353c7"},"vehicle_type_id":"4","last_reported":1748502668,"current_range_meters":5600,"station_id":"ce4bhnp2rcd13ifvqgvg","pricing_plan_id":"cebpf4jnsgd1na2vs0mg"},{"bike_id":"7911cebf-5c32-4409-bd84-2cbae9e6ba97","system_id":"levelo_inurba_marseille","lat":43.32312,"lon":5.40617,"is_reserved":false,"is_disabled":false,"rental_uris":{"android":"levelo://app?vid=7911cebf-5c32-4409-bd84-2cbae9e6ba97","ios":"levelo://app?vid=7911cebf-5c32-4409-bd84-2cbae9e6ba97"},"vehicle_type_id":"4","last_reported":1748502668,"current_range_meters":5600,"station_id":"ce4bhq92rcd13ifvqhjg","pricing_plan_id":"cebpf4jnsgd1na2vs0mg"},{"bike_id":"c3a0bd73-5813-47f0-a5c8-27701041c8ba","system_id":"levelo_inurba_marseille","lat":43.272535,"lon":5.424138,"is_reserved":false,"is_disabled":false,"rental_uris":{"android":"levelo://app?vid=c3a0bd73-5813-47f0-a5c8-27701041c8ba","ios":"levelo://app?vid=c3a0bd73-5813-47f0-a5c8-27701041c8ba"},"vehicle_type_id":"4","last_reported":1748502668,"current_range_meters":6000,"station_id":"","pricing_plan_id":"cebpf4jnsgd1na2vs0mg"},{"bike_id":"3b4ada6a-f89b-4014-830a-f8c7f049d003","system_id":"levelo_inurba_marseille","lat":43.301276,"lon":5.398594,"is_reserved":false,"is_disabled":false,"rental_uris":{"android":"levelo://app?vid=3b4ada6a-f89b-4014-830a-f8c7f049d003","ios":"levelo://app?vid=3b4ada6a-f89b-4014-830a-f8c7f049d003"},"vehicle_type_id":"4","last_reported":1748502668,"current_range_meters":6000,"station_id":"ce4bh0h2rcd13ifvqd40","pricing_plan_id":"cebpf4jnsgd1na2vs0mg"},{"bike_id":"59625023-539a-4de1-954d-f661af841490","system_id":"levelo_inurba_marseille","lat":43.26565,"lon":5.39006,"is_reserved":false,"is_disabled":false,"rental_uris":{"android":"levelo://app?vid=59625023-539a-4de1-954d-f661af841490","ios":"levelo://app?vid=59625023-539a-4de1-954d-f661af841490"},"vehicle_type_id":"4","last_reported":1748502668,"current_range_meters":6000,"station_id":"ce4bhe12rcd13ifvqf30","pricing_plan_id":"cebpf4jnsgd1na2vs0mg"},{"bike_id":"b80ee325-09b2-4724-993d-4f8d3707c41c","system_id":"levelo_inurba_marseille","lat":43.25862,"lon":5.39902,"is_reserved":false,"is_disabled":false,"rental_uris":{"android":"levelo://app?vid=b80ee325-09b2-4724-993d-4f8d3707c41c","ios":"levelo://app?vid=b80ee325-09b2-4724-993d-4f8d3707c41c"},"vehicle_type_id":"4","last_reported":1748502668,"current_range_meters":6000,"station_id":"ce4bhl92rcd13ifvqghg","pricing_plan_id":"cebpf4jnsgd1na2vs0mg"},{"bike_id":"98d347c6-14e6-4d92-b31c-7483df770580","system_id":"levelo_inurba_marseille","lat":43.262286,"lon":5.404512,"is_reserved":false,"is_disabled":false,"rental_uris":{"android":"levelo://app?vid=98d347c6-14e6-4d92-b31c-7483df770580","ios":"levelo://app?vid=98d347c6-14e6-4d92-b31c-7483df770580"},"vehicle_type_id":"4","last_reported":1748502668,"current_range_meters":6000,"station_id":"ce4bhmh2rcd13ifvqgmg","pricing_plan_id":"cebpf4jnsgd1na2vs0mg"},{"bike_id":"763880fe-4da6-494d-946c-4c320b31fa71","system_id":"levelo_inurba_marseille","lat":43.26226,"lon":5.40404,"is_reserved":false,"is_disabled":false,"rental_uris":{"android":"levelo://app?vid=763880fe-4da6-494d-946c-4c320b31fa71","ios":"levelo://app?vid=763880fe-4da6-494d-946c-4c320b31fa71"},"vehicle_type_id":"4","last_reported":1748502668,"current_range_meters":6000,"station_id":"ce4bhmh2rcd13ifvqgmg","pricing_plan_id":"cebpf4jnsgd1na2vs0mg"},{"bike_id":"9167ea6a-ce66-49ff-859f-3ca7c151003d","system_id":"levelo_inurba_marseille","lat":43.241783,"lon":5.397302,"is_reserved":false,"is_disabled":false,"rental_uris":{"android":"levelo://app?vid=9167ea6a-ce66-49ff-859f-3ca7c151003d","ios":"levelo://app?vid=9167ea6a-ce66-49ff-859f-3ca7c151003d"},"vehicle_type_id":"4","last_reported":1748502668,"current_range_meters":6000,"station_id":"ce4bhn12rcd13ifvqgpg","pricing_plan_id":"cebpf4jnsgd1na2vs0mg"},{"bike_id":"e7c8a9b9-0f7e-4f93-8f26-86f0646a609e","system_id":"levelo_inurba_marseille","lat":43.33116,"lon":5.38502,"is_reserved":false,"is_disabled":false,"rental_uris":{"android":"levelo://app?vid=e7c8a9b9-0f7e-4f93-8f26-86f0646a609e","ios":"levelo://app?vid=e7c8a9b9-0f7e-4f93-8f26-86f0646a609e"},"vehicle_type_id":"4","last_reported":1748502668,"current_range_meters":6400,"station_id":"","pricing_plan_id":"cebpf4jnsgd1na2vs0mg"},{"bike_id":"37f4fec6-9d38-4dc0-afbc-9f93885d1b60","system_id":"levelo_inurba_marseille","lat":43.27206,"lon":5.392,"is_reserved":false,"is_disabled":false,"rental_uris":{"android":"levelo://app?vid=37f4fec6-9d38-4dc0-afbc-9f93885d1b60","ios":"levelo://app?vid=37f4fec6-9d38-4dc0-afbc-9f93885d1b60"},"vehicle_type_id":"4","last_reported":1748502668,"current_range_meters":6400,"station_id":"ce4bhhp2rcd13ifvqfm0","pricing_plan_id":"cebpf4jnsgd1na2vs0mg"},{"bike_id":"efa7bf91-45c5-4d90-b7b0-c62bc7c3e73b","system_id":"levelo_inurba_marseille","lat":43.27493,"lon":5.4245,"is_reserved":false,"is_disabled":false,"rental_uris":{"android":"levelo://app?vid=efa7bf91-45c5-4d90-b7b0-c62bc7c3e73b","ios":"levelo://app?vid=efa7bf91-45c5-4d90-b7b0-c62bc7c3e73b"},"vehicle_type_id":"4","last_reported":1748502668,"current_range_meters":6400,"station_id":"ce4bhn92rcd13ifvqgrg","pricing_plan_id":"cebpf4jnsgd1na2vs0mg"},{"bike_id":"dd396b57-2b2f-4d97-99cd-d9308bd9edd0","system_id":"levelo_inurba_marseille","lat":43.30373,"lon":5.42488,"is_reserved":false,"is_disabled":false,"rental_uris":{"android":"levelo://app?vid=dd396b57-2b2f-4d97-99cd-d9308bd9edd0","ios":"levelo://app?vid=dd396b57-2b2f-4d97-99cd-d9308bd9edd0"},"vehicle_type_id":"4","last_reported":1748502668,"current_range_meters":6400,"station_id":"ce4bhoh2rcd13ifvqh6g","pricing_plan_id":"cebpf4jnsgd1na2vs0mg"},{"bike_id":"a6e143ef-9489-43e3-9e9a-d99459db479a","system_id":"levelo_inurba_marseille","lat":43.32369,"lon":5.388866,"is_reserved":false,"is_disabled":false,"rental_uris":{"android":"levelo://app?vid=a6e143ef-9489-43e3-9e9a-d99459db479a","ios":"levelo://app?vid=a6e143ef-9489-43e3-9e9a-d99459db479a"},"vehicle_type_id":"4","last_reported":1748502668,"current_range_meters":6400,"station_id":"ce4bhqp2rcd13ifvqhog","pricing_plan_id":"cebpf4jnsgd1na2vs0mg"},{"bike_id":"aeb94751-36eb-4d35-b5b3-2fa799561193","system_id":"levelo_inurba_marseille","lat":43.30771,"lon":5.37646,"is_reserved":false,"is_disabled":false,"rental_uris":{"android":"levelo://app?vid=aeb94751-36eb-4d35-b5b3-2fa799561193","ios":"levelo://app?vid=aeb94751-36eb-4d35-b5b3-2fa799561193"},"vehicle_type_id":"4","last_reported":1748502668,"current_range_meters":6800,"station_id":"ce4bgv92rcd13ifvqcq0","pricing_plan_id":"cebpf4jnsgd1na2vs0mg"},{"bike_id":"40794707-6e59-4c1b-b75b-bcc6d0555614","system_id":"levelo_inurba_marseille","lat":43.30625,"lon":5.40098,"is_reserved":false,"is_disabled":false,"rental_uris":{"android":"levelo://app?vid=40794707-6e59-4c1b-b75b-bcc6d0555614","ios":"levelo://app?vid=40794707-6e59-4c1b-b75b-bcc6d0555614"},"vehicle_type_id":"4","last_reported":1748502668,"current_range_meters":6800,"station_id":"ce4bh112rcd13ifvqda0","pricing_plan_id":"cebpf4jnsgd1na2vs0mg"},{"bike_id":"f479ed29-902c-4119-8a78-6f078589c8b8","system_id":"levelo_inurba_marseille","lat":43.26033,"lon":5.37554,"is_reserved":false,"is_disabled":false,"rental_uris":{"android":"levelo://app?vid=f479ed29-902c-4119-8a78-6f078589c8b8","ios":"levelo://app?vid=f479ed29-902c-4119-8a78-6f078589c8b8"},"vehicle_type_id":"4","last_reported":1748502668,"current_range_meters":6800,"station_id":"ce4bhgh2rcd13ifvqfa0","pricing_plan_id":"cebpf4jnsgd1na2vs0mg"},{"bike_id":"6d7cfdcd-f061-4eee-b4e5-78d9b6729328","system_id":"levelo_inurba_marseille","lat":43.330063,"lon":5.438543,"is_reserved":false,"is_disabled":false,"rental_uris":{"android":"levelo://app?vid=6d7cfdcd-f061-4eee-b4e5-78d9b6729328","ios":"levelo://app?vid=6d7cfdcd-f061-4eee-b4e5-78d9b6729328"},"vehicle_type_id":"4","last_reported":1748502668,"current_range_meters":7200,"station_id":"","pricing_plan_id":"cebpf4jnsgd1na2vs0mg"},{"bike_id":"7a707bfe-00ad-4f17-909b-325e9c05b69d","system_id":"levelo_inurba_marseille","lat":43.30766,"lon":5.3826,"is_reserved":false,"is_disabled":false,"rental_uris":{"android":"levelo://app?vid=7a707bfe-00ad-4f17-909b-325e9c05b69d","ios":"levelo://app?vid=7a707bfe-00ad-4f17-909b-325e9c05b69d"},"vehicle_type_id":"4","last_reported":1748502668,"current_range_meters":7200,"station_id":"","pricing_plan_id":"cebpf4jnsgd1na2vs0mg"},{"bike_id":"985a5028-4b22-4637-856d-8c1e1dd035e0","system_id":"levelo_inurba_marseille","lat":43.29404,"lon":5.40134,"is_reserved":false,"is_disabled":false,"rental_uris":{"android":"levelo://app?vid=985a5028-4b22-4637-856d-8c1e1dd035e0","ios":"levelo://app?vid=985a5028-4b22-4637-856d-8c1e1dd035e0"},"vehicle_type_id":"4","last_reported":1748502668,"current_range_meters":7200,"station_id":"","pricing_plan_id":"cebpf4jnsgd1na2vs0mg"},{"bike_id":"63dcf5e7-add3-4475-ba20-98b0733097e2","system_id":"levelo_inurba_marseille","lat":43.30156,"lon":5.38083,"is_reserved":false,"is_disabled":false,"rental_uris":{"android":"levelo://app?vid=63dcf5e7-add3-4475-ba20-98b0733097e2","ios":"levelo://app?vid=63dcf5e7-add3-4475-ba20-98b0733097e2"},"vehicle_type_id":"4","last_reported":1748502668,"current_range_meters":7200,"station_id":"ce4bgjp2rcd13ifvqbh0","pricing_plan_id":"cebpf4jnsgd1na2vs0mg"},{"bike_id":"aece26bf-35dd-4abb-a667-c9df8ed9e08d","system_id":"levelo_inurba_marseille","lat":43.27377,"lon":5.36266,"is_reserved":false,"is_disabled":false,"rental_uris":{"android":"levelo://app?vid=aece26bf-35dd-4abb-a667-c9df8ed9e08d","ios":"levelo://app?vid=aece26bf-35dd-4abb-a667-c9df8ed9e08d"},"vehicle_type_id":"4","last_reported":1748502668,"current_range_meters":7200,"station_id":"ce4bhbh2rcd13ifvqeo0","pricing_plan_id":"cebpf4jnsgd1na2vs0mg"},{"bike_id":"0f5da0fd-61b6-438a-83d7-f4efdb0cf53d","system_id":"levelo_inurba_marseille","lat":43.29197,"lon":5.36066,"is_reserved":false,"is_disabled":false,"rental_uris":{"android":"levelo://app?vid=0f5da0fd-61b6-438a-83d7-f4efdb0cf53d","ios":"levelo://app?vid=0f5da0fd-61b6-438a-83d7-f4efdb0cf53d"},"vehicle_type_id":"4","last_reported":1748502668,"current_range_meters":7200,"station_id":"ce4bhbh2rcd13ifvqeqg","pricing_plan_id":"cebpf4jnsgd1na2vs0mg"},{"bike_id":"eefbf0be-aede-4ce4-8e0c-8d5278212334","system_id":"levelo_inurba_marseille","lat":43.25108,"lon":5.40274,"is_reserved":false,"is_disabled":false,"rental_uris":{"android":"levelo://app?vid=eefbf0be-aede-4ce4-8e0c-8d5278212334","ios":"levelo://app?vid=eefbf0be-aede-4ce4-8e0c-8d5278212334"},"vehicle_type_id":"4","last_reported":1748502668,"current_range_meters":7200,"station_id":"ce4bhlh2rcd13ifvqgig","pricing_plan_id":"cebpf4jnsgd1na2vs0mg"},{"bike_id":"3c68f385-ffba-4d15-b971-4641effeeac9","system_id":"levelo_inurba_marseille","lat":43.28217,"lon":5.39055,"is_reserved":false,"is_disabled":false,"rental_uris":{"android":"levelo://app?vid=3c68f385-ffba-4d15-b971-4641effeeac9","ios":"levelo://app?vid=3c68f385-ffba-4d15-b971-4641effeeac9"},"vehicle_type_id":"4","last_reported":1748502668,"current_range_meters":8000,"station_id":"","pricing_plan_id":"cebpf4jnsgd1na2vs0mg"},{"bike_id":"ce7b18e4-7948-40ae-b647-c69f45870dbb","system_id":"levelo_inurba_marseille","lat":43.30927,"lon":5.40176,"is_reserved":false,"is_disabled":false,"rental_uris":{"android":"levelo://app?vid=ce7b18e4-7948-40ae-b647-c69f45870dbb","ios":"levelo://app?vid=ce7b18e4-7948-40ae-b647-c69f45870dbb"},"vehicle_type_id":"4","last_reported":1748502668,"current_range_meters":8000,"station_id":"ce4bgvp2rcd13ifvqct0","pricing_plan_id":"cebpf4jnsgd1na2vs0mg"},{"bike_id":"1e984330-ab10-4007-af5f-426b77eb9559","system_id":"levelo_inurba_marseille","lat":43.292237,"lon":5.360532,"is_reserved":false,"is_disabled":false,"rental_uris":{"android":"levelo://app?vid=1e984330-ab10-4007-af5f-426b77eb9559","ios":"levelo://app?vid=1e984330-ab10-4007-af5f-426b77eb9559"},"vehicle_type_id":"4","last_reported":1748502668,"current_range_meters":8000,"station_id":"ce4bhbh2rcd13ifvqeqg","pricing_plan_id":"cebpf4jnsgd1na2vs0mg"},{"bike_id":"445dfef0-5d54-4fd7-9382-6f4976b717a8","system_id":"levelo_inurba_marseille","lat":43.29223,"lon":5.36071,"is_reserved":false,"is_disabled":false,"rental_uris":{"android":"levelo://app?vid=445dfef0-5d54-4fd7-9382-6f4976b717a8","ios":"levelo://app?vid=445dfef0-5d54-4fd7-9382-6f4976b717a8"},"vehicle_type_id":"4","last_reported":1748502668,"current_range_meters":8000,"station_id":"ce4bhbh2rcd13ifvqeqg","pricing_plan_id":"cebpf4jnsgd1na2vs0mg"},{"bike_id":"ca9696b9-81ea-4b50-af81-336e1c513646","system_id":"levelo_inurba_marseille","lat":43.28263,"lon":5.35059,"is_reserved":false,"is_disabled":false,"rental_uris":{"android":"levelo://app?vid=ca9696b9-81ea-4b50-af81-336e1c513646","ios":"levelo://app?vid=ca9696b9-81ea-4b50-af81-336e1c513646"},"vehicle_type_id":"4","last_reported":1748502668,"current_range_meters":8000,"station_id":"ce4bhbp2rcd13ifvqerg","pricing_plan_id":"cebpf4jnsgd1na2vs0mg"},{"bike_id":"39237a4d-1869-4c40-896a-ab5c39731355","system_id":"levelo_inurba_marseille","lat":43.28081,"lon":5.39651,"is_reserved":false,"is_disabled":false,"rental_uris":{"android":"levelo://app?vid=39237a4d-1869-4c40-896a-ab5c39731355","ios":"levelo://app?vid=39237a4d-1869-4c40-896a-ab5c39731355"},"vehicle_type_id":"4","last_reported":1748502668,"current_range_meters":8000,"station_id":"ce4bho12rcd13ifvqh2g","pricing_plan_id":"cebpf4jnsgd1na2vs0mg"},{"bike_id":"b6194222-a80b-43bc-b765-fba2143e9c5c","system_id":"levelo_inurba_marseille","lat":43.231883,"lon":5.355633,"is_reserved":false,"is_disabled":false,"rental_uris":{"android":"levelo://app?vid=b6194222-a80b-43bc-b765-fba2143e9c5c","ios":"levelo://app?vid=b6194222-a80b-43bc-b765-fba2143e9c5c"},"vehicle_type_id":"4","last_reported":1748502668,"current_range_meters":8000,"station_id":"ce4bhu92rcd13ifvqi70","pricing_plan_id":"cebpf4jnsgd1na2vs0mg"},{"bike_id":"be4b293e-8744-4637-8ca2-a3e9032e9cec","system_id":"levelo_inurba_marseille","lat":43.22927,"lon":5.35372,"is_reserved":false,"is_disabled":false,"rental_uris":{"android":"levelo://app?vid=be4b293e-8744-4637-8ca2-a3e9032e9cec","ios":"levelo://app?vid=be4b293e-8744-4637-8ca2-a3e9032e9cec"},"vehicle_type_id":"4","last_reported":1748502668,"current_range_meters":8000,"station_id":"cpo3532slgdg3j2ikp40","pricing_plan_id":"cebpf4jnsgd1na2vs0mg"},{"bike_id":"1eed49fb-ce64-4ebd-9903-7d87835a2ccf","system_id":"levelo_inurba_marseille","lat":43.29764,"lon":5.46024,"is_reserved":false,"is_disabled":false,"rental_uris":{"android":"levelo://app?vid=1eed49fb-ce64-4ebd-9903-7d87835a2ccf","ios":"levelo://app?vid=1eed49fb-ce64-4ebd-9903-7d87835a2ccf"},"vehicle_type_id":"4","last_reported":1748502668,"current_range_meters":8400,"station_id":"","pricing_plan_id":"cebpf4jnsgd1na2vs0mg"},{"bike_id":"16578a9c-c460-4d38-be25-a20250881a73","system_id":"levelo_inurba_marseille","lat":43.32224,"lon":5.384279,"is_reserved":false,"is_disabled":false,"rental_uris":{"android":"levelo://app?vid=16578a9c-c460-4d38-be25-a20250881a73","ios":"levelo://app?vid=16578a9c-c460-4d38-be25-a20250881a73"},"vehicle_type_id":"4","last_reported":1748502668,"current_range_meters":8400,"station_id":"","pricing_plan_id":"cebpf4jnsgd1na2vs0mg"},{"bike_id":"0d981ab5-76e4-4ce0-82f6-6f2e8741ce4e","system_id":"levelo_inurba_marseille","lat":43.29342,"lon":5.3626,"is_reserved":false,"is_disabled":false,"rental_uris":{"android":"levelo://app?vid=0d981ab5-76e4-4ce0-82f6-6f2e8741ce4e","ios":"levelo://app?vid=0d981ab5-76e4-4ce0-82f6-6f2e8741ce4e"},"vehicle_type_id":"4","last_reported":1748502668,"current_range_meters":8400,"station_id":"","pricing_plan_id":"cebpf4jnsgd1na2vs0mg"},{"bike_id":"9d8a073e-f5f9-4c10-b98c-72efc4846a30","system_id":"levelo_inurba_marseille","lat":43.30284,"lon":5.44715,"is_reserved":false,"is_disabled":false,"rental_uris":{"android":"levelo://app?vid=9d8a073e-f5f9-4c10-b98c-72efc4846a30","ios":"levelo://app?vid=9d8a073e-f5f9-4c10-b98c-72efc4846a30"},"vehicle_type_id":"4","last_reported":1748502668,"current_range_meters":8400,"station_id":"","pricing_plan_id":"cebpf4jnsgd1na2vs0mg"},{"bike_id":"ac543a72-051c-4590-8b3f-b593381f998e","system_id":"levelo_inurba_marseille","lat":43.301487,"lon":5.380963,"is_reserved":false,"is_disabled":false,"rental_uris":{"android":"levelo://app?vid=ac543a72-051c-4590-8b3f-b593381f998e","ios":"levelo://app?vid=ac543a72-051c-4590-8b3f-b593381f998e"},"vehicle_type_id":"4","last_reported":1748502668,"current_range_meters":8400,"station_id":"ce4bgjp2rcd13ifvqbh0","pricing_plan_id":"cebpf4jnsgd1na2vs0mg"},{"bike_id":"0c2931e3-efa6-4677-8fe3-5845950a3358","system_id":"levelo_inurba_marseille","lat":43.309272,"lon":5.401407,"is_reserved":false,"is_disabled":false,"rental_uris":{"android":"levelo://app?vid=0c2931e3-efa6-4677-8fe3-5845950a3358","ios":"levelo://app?vid=0c2931e3-efa6-4677-8fe3-5845950a3358"},"vehicle_type_id":"4","last_reported":1748502668,"current_range_meters":8400,"station_id":"ce4bgvp2rcd13ifvqct0","pricing_plan_id":"cebpf4jnsgd1na2vs0mg"},{"bike_id":"67f50ba8-a46d-49e5-8f4f-3db792e5b15a","system_id":"levelo_inurba_marseille","lat":43.284867,"lon":5.384341,"is_reserved":false,"is_disabled":false,"rental_uris":{"android":"levelo://app?vid=67f50ba8-a46d-49e5-8f4f-3db792e5b15a","ios":"levelo://app?vid=67f50ba8-a46d-49e5-8f4f-3db792e5b15a"},"vehicle_type_id":"4","last_reported":1748502668,"current_range_meters":8400,"station_id":"ce4bh512rcd13ifvqe3g","pricing_plan_id":"cebpf4jnsgd1na2vs0mg"},{"bike_id":"2fac5d15-c5a1-4d94-a91a-2de306a0346b","system_id":"levelo_inurba_marseille","lat":43.2396,"lon":5.36633,"is_reserved":false,"is_disabled":false,"rental_uris":{"android":"levelo://app?vid=2fac5d15-c5a1-4d94-a91a-2de306a0346b","ios":"levelo://app?vid=2fac5d15-c5a1-4d94-a91a-2de306a0346b"},"vehicle_type_id":"4","last_reported":1748502668,"current_range_meters":8400,"station_id":"ce4bhi12rcd13ifvqfp0","pricing_plan_id":"cebpf4jnsgd1na2vs0mg"},{"bike_id":"2f650bb1-6027-4191-83d2-16315820a0a7","system_id":"levelo_inurba_marseille","lat":43.29994,"lon":5.37358,"is_reserved":false,"is_disabled":false,"rental_uris":{"android":"levelo://app?vid=2f650bb1-6027-4191-83d2-16315820a0a7","ios":"levelo://app?vid=2f650bb1-6027-4191-83d2-16315820a0a7"},"vehicle_type_id":"4","last_reported":1748502668,"current_range_meters":8800,"station_id":"","pricing_plan_id":"cebpf4jnsgd1na2vs0mg"},{"bike_id":"5cc874f1-fcba-418a-95cb-eb3493ff9f0b","system_id":"levelo_inurba_marseille","lat":43.317215,"lon":5.405251,"is_reserved":false,"is_disabled":false,"rental_uris":{"android":"levelo://app?vid=5cc874f1-fcba-418a-95cb-eb3493ff9f0b","ios":"levelo://app?vid=5cc874f1-fcba-418a-95cb-eb3493ff9f0b"},"vehicle_type_id":"4","last_reported":1748502668,"current_range_meters":8800,"station_id":"","pricing_plan_id":"cebpf4jnsgd1na2vs0mg"},{"bike_id":"bb56860a-7122-4a88-9171-ed630c433268","system_id":"levelo_inurba_marseille","lat":43.295066,"lon":5.374448,"is_reserved":false,"is_disabled":false,"rental_uris":{"android":"levelo://app?vid=bb56860a-7122-4a88-9171-ed630c433268","ios":"levelo://app?vid=bb56860a-7122-4a88-9171-ed630c433268"},"vehicle_type_id":"4","last_reported":1748502668,"current_range_meters":8800,"station_id":"ce4bgh92rcd13ifvqb50","pricing_plan_id":"cebpf4jnsgd1na2vs0mg"},{"bike_id":"1b4b7379-8e8d-44cd-9185-9aa6a1a141ad","system_id":"levelo_inurba_marseille","lat":43.304293,"lon":5.388981,"is_reserved":false,"is_disabled":false,"rental_uris":{"android":"levelo://app?vid=1b4b7379-8e8d-44cd-9185-9aa6a1a141ad","ios":"levelo://app?vid=1b4b7379-8e8d-44cd-9185-9aa6a1a141ad"},"vehicle_type_id":"4","last_reported":1748502668,"current_range_meters":8800,"station_id":"ce4bgk12rcd13ifvqbi0","pricing_plan_id":"cebpf4jnsgd1na2vs0mg"},{"bike_id":"90e953a7-84d3-4e11-ad46-62a8893acf4f","system_id":"levelo_inurba_marseille","lat":43.30541,"lon":5.365573,"is_reserved":false,"is_disabled":false,"rental_uris":{"android":"levelo://app?vid=90e953a7-84d3-4e11-ad46-62a8893acf4f","ios":"levelo://app?vid=90e953a7-84d3-4e11-ad46-62a8893acf4f"},"vehicle_type_id":"4","last_reported":1748502668,"current_range_meters":8800,"station_id":"ce4bgs12rcd13ifvqcag","pricing_plan_id":"cebpf4jnsgd1na2vs0mg"},{"bike_id":"795e6f0d-7fe9-4eca-90f1-213cafd33439","system_id":"levelo_inurba_marseille","lat":43.31322,"lon":5.39685,"is_reserved":false,"is_disabled":false,"rental_uris":{"android":"levelo://app?vid=795e6f0d-7fe9-4eca-90f1-213cafd33439","ios":"levelo://app?vid=795e6f0d-7fe9-4eca-90f1-213cafd33439"},"vehicle_type_id":"4","last_reported":1748502668,"current_range_meters":8800,"station_id":"ce4bgvp2rcd13ifvqcu0","pricing_plan_id":"cebpf4jnsgd1na2vs0mg"},{"bike_id":"5050b52e-8ad3-400c-9ba1-7c7971cc22da","system_id":"levelo_inurba_marseille","lat":43.29869,"lon":5.39729,"is_reserved":false,"is_disabled":false,"rental_uris":{"android":"levelo://app?vid=5050b52e-8ad3-400c-9ba1-7c7971cc22da","ios":"levelo://app?vid=5050b52e-8ad3-400c-9ba1-7c7971cc22da"},"vehicle_type_id":"4","last_reported":1748502668,"current_range_meters":8800,"station_id":"ce4bh0h2rcd13ifvqd50","pricing_plan_id":"cebpf4jnsgd1na2vs0mg"},{"bike_id":"a55a4080-0fe7-4c55-b323-dc8524b291a8","system_id":"levelo_inurba_marseille","lat":43.25118,"lon":5.40327,"is_reserved":false,"is_disabled":false,"rental_uris":{"android":"levelo://app?vid=a55a4080-0fe7-4c55-b323-dc8524b291a8","ios":"levelo://app?vid=a55a4080-0fe7-4c55-b323-dc8524b291a8"},"vehicle_type_id":"4","last_reported":1748502668,"current_range_meters":8800,"station_id":"ce4bhlh2rcd13ifvqgig","pricing_plan_id":"cebpf4jnsgd1na2vs0mg"},{"bike_id":"c0d5ccd3-cc9b-42dc-bafd-57829be782b0","system_id":"levelo_inurba_marseille","lat":43.30791,"lon":5.43527,"is_reserved":false,"is_disabled":false,"rental_uris":{"android":"levelo://app?vid=c0d5ccd3-cc9b-42dc-bafd-57829be782b0","ios":"levelo://app?vid=c0d5ccd3-cc9b-42dc-bafd-57829be782b0"},"vehicle_type_id":"4","last_reported":1748502668,"current_range_meters":8800,"station_id":"ce4bhph2rcd13ifvqheg","pricing_plan_id":"cebpf4jnsgd1na2vs0mg"},{"bike_id":"84adab0f-96c1-4426-bc86-147d47e6151b","system_id":"levelo_inurba_marseille","lat":43.231893,"lon":5.35555,"is_reserved":false,"is_disabled":false,"rental_uris":{"android":"levelo://app?vid=84adab0f-96c1-4426-bc86-147d47e6151b","ios":"levelo://app?vid=84adab0f-96c1-4426-bc86-147d47e6151b"},"vehicle_type_id":"4","last_reported":1748502668,"current_range_meters":8800,"station_id":"ce4bhu92rcd13ifvqi70","pricing_plan_id":"cebpf4jnsgd1na2vs0mg"},{"bike_id":"0dde7803-e4b4-44c8-98fe-68ad6fa3cde1","system_id":"levelo_inurba_marseille","lat":43.31726,"lon":5.38892,"is_reserved":false,"is_disabled":false,"rental_uris":{"android":"levelo://app?vid=0dde7803-e4b4-44c8-98fe-68ad6fa3cde1","ios":"levelo://app?vid=0dde7803-e4b4-44c8-98fe-68ad6fa3cde1"},"vehicle_type_id":"4","last_reported":1748502668,"current_range_meters":9200,"station_id":"","pricing_plan_id":"cebpf4jnsgd1na2vs0mg"},{"bike_id":"e96e6ad8-66a5-4a74-9b8a-04311f0e6684","system_id":"levelo_inurba_marseille","lat":43.33102,"lon":5.38934,"is_reserved":false,"is_disabled":false,"rental_uris":{"android":"levelo://app?vid=e96e6ad8-66a5-4a74-9b8a-04311f0e6684","ios":"levelo://app?vid=e96e6ad8-66a5-4a74-9b8a-04311f0e6684"},"vehicle_type_id":"4","last_reported":1748502668,"current_range_meters":9200,"station_id":"","pricing_plan_id":"cebpf4jnsgd1na2vs0mg"},{"bike_id":"a084a232-54f1-4889-b6b3-e22de406c558","system_id":"levelo_inurba_marseille","lat":43.332067,"lon":5.398457,"is_reserved":false,"is_disabled":false,"rental_uris":{"android":"levelo://app?vid=a084a232-54f1-4889-b6b3-e22de406c558","ios":"levelo://app?vid=a084a232-54f1-4889-b6b3-e22de406c558"},"vehicle_type_id":"4","last_reported":1748502668,"current_range_meters":9200,"station_id":"","pricing_plan_id":"cebpf4jnsgd1na2vs0mg"},{"bike_id":"0b05e91b-1c3f-41b6-abc0-a9f49166a0d3","system_id":"levelo_inurba_marseille","lat":43.3048,"lon":5.3789,"is_reserved":false,"is_disabled":false,"rental_uris":{"android":"levelo://app?vid=0b05e91b-1c3f-41b6-abc0-a9f49166a0d3","ios":"levelo://app?vid=0b05e91b-1c3f-41b6-abc0-a9f49166a0d3"},"vehicle_type_id":"4","last_reported":1748502668,"current_range_meters":9200,"station_id":"ce4bgup2rcd13ifvqcn0","pricing_plan_id":"cebpf4jnsgd1na2vs0mg"},{"bike_id":"43a14d53-ebd4-4f31-9e5d-95462447a883","system_id":"levelo_inurba_marseille","lat":43.30459,"lon":5.37895,"is_reserved":false,"is_disabled":false,"rental_uris":{"android":"levelo://app?vid=43a14d53-ebd4-4f31-9e5d-95462447a883","ios":"levelo://app?vid=43a14d53-ebd4-4f31-9e5d-95462447a883"},"vehicle_type_id":"4","last_reported":1748502668,"current_range_meters":9200,"station_id":"ce4bgup2rcd13ifvqcn0","pricing_plan_id":"cebpf4jnsgd1na2vs0mg"},{"bike_id":"dc94e985-393b-4647-bc3d-8f2716df96df","system_id":"levelo_inurba_marseille","lat":43.301274,"lon":5.398554,"is_reserved":false,"is_disabled":false,"rental_uris":{"android":"levelo://app?vid=dc94e985-393b-4647-bc3d-8f2716df96df","ios":"levelo://app?vid=dc94e985-393b-4647-bc3d-8f2716df96df"},"vehicle_type_id":"4","last_reported":1748502668,"current_range_meters":9200,"station_id":"ce4bh0h2rcd13ifvqd40","pricing_plan_id":"cebpf4jnsgd1na2vs0mg"},{"bike_id":"159950c0-da46-4b56-ba64-77b960253d26","system_id":"levelo_inurba_marseille","lat":43.29295,"lon":5.40165,"is_reserved":false,"is_disabled":false,"rental_uris":{"android":"levelo://app?vid=159950c0-da46-4b56-ba64-77b960253d26","ios":"levelo://app?vid=159950c0-da46-4b56-ba64-77b960253d26"},"vehicle_type_id":"4","last_reported":1748502668,"current_range_meters":9200,"station_id":"ce4bh312rcd13ifvqdk0","pricing_plan_id":"cebpf4jnsgd1na2vs0mg"},{"bike_id":"1839a72b-1f19-439f-ba17-e7974ed596b4","system_id":"levelo_inurba_marseille","lat":43.32091,"lon":5.37483,"is_reserved":false,"is_disabled":false,"rental_uris":{"android":"levelo://app?vid=1839a72b-1f19-439f-ba17-e7974ed596b4","ios":"levelo://app?vid=1839a72b-1f19-439f-ba17-e7974ed596b4"},"vehicle_type_id":"4","last_reported":1748502668,"current_range_meters":9600,"station_id":"","pricing_plan_id":"cebpf4jnsgd1na2vs0mg"},{"bike_id":"3de69e24-c62a-42bc-ab23-d6fb07ff3a7f","system_id":"levelo_inurba_marseille","lat":43.30155,"lon":5.38083,"is_reserved":false,"is_disabled":false,"rental_uris":{"android":"levelo://app?vid=3de69e24-c62a-42bc-ab23-d6fb07ff3a7f","ios":"levelo://app?vid=3de69e24-c62a-42bc-ab23-d6fb07ff3a7f"},"vehicle_type_id":"4","last_reported":1748502668,"current_range_meters":9600,"station_id":"ce4bgjp2rcd13ifvqbh0","pricing_plan_id":"cebpf4jnsgd1na2vs0mg"},{"bike_id":"eddb0c9d-ea6c-4f3a-a76b-b41d7d4bdb0b","system_id":"levelo_inurba_marseille","lat":43.30296,"lon":5.3921,"is_reserved":false,"is_disabled":false,"rental_uris":{"android":"levelo://app?vid=eddb0c9d-ea6c-4f3a-a76b-b41d7d4bdb0b","ios":"levelo://app?vid=eddb0c9d-ea6c-4f3a-a76b-b41d7d4bdb0b"},"vehicle_type_id":"4","last_reported":1748502668,"current_range_meters":9600,"station_id":"ce4bgkh2rcd13ifvqbk0","pricing_plan_id":"cebpf4jnsgd1na2vs0mg"},{"bike_id":"87bbad0c-8c28-481d-9de5-144650e2492b","system_id":"levelo_inurba_marseille","lat":43.24819,"lon":5.37444,"is_reserved":false,"is_disabled":false,"rental_uris":{"android":"levelo://app?vid=87bbad0c-8c28-481d-9de5-144650e2492b","ios":"levelo://app?vid=87bbad0c-8c28-481d-9de5-144650e2492b"},"vehicle_type_id":"4","last_reported":1748502668,"current_range_meters":9600,"station_id":"ce4bhgh2rcd13ifvqfb0","pricing_plan_id":"cebpf4jnsgd1na2vs0mg"},{"bike_id":"60af92f5-378b-4ca7-965f-8544c59fbbda","system_id":"levelo_inurba_marseille","lat":43.282202,"lon":5.390534,"is_reserved":false,"is_disabled":false,"rental_uris":{"android":"levelo://app?vid=60af92f5-378b-4ca7-965f-8544c59fbbda","ios":"levelo://app?vid=60af92f5-378b-4ca7-965f-8544c59fbbda"},"vehicle_type_id":"4","last_reported":1748502668,"current_range_meters":10000,"station_id":"","pricing_plan_id":"cebpf4jnsgd1na2vs0mg"},{"bike_id":"22771043-09b1-43eb-91e0-5c845144e1e3","system_id":"levelo_inurba_marseille","lat":43.277103,"lon":5.408848,"is_reserved":false,"is_disabled":false,"rental_uris":{"android":"levelo://app?vid=22771043-09b1-43eb-91e0-5c845144e1e3","ios":"levelo://app?vid=22771043-09b1-43eb-91e0-5c845144e1e3"},"vehicle_type_id":"4","last_reported":1748502668,"current_range_meters":10000,"station_id":"","pricing_plan_id":"cebpf4jnsgd1na2vs0mg"},{"bike_id":"3013266d-03ec-4779-8d20-2e5da0a480f7","system_id":"levelo_inurba_marseille","lat":43.31633,"lon":5.38802,"is_reserved":false,"is_disabled":false,"rental_uris":{"android":"levelo://app?vid=3013266d-03ec-4779-8d20-2e5da0a480f7","ios":"levelo://app?vid=3013266d-03ec-4779-8d20-2e5da0a480f7"},"vehicle_type_id":"4","last_reported":1748502668,"current_range_meters":10000,"station_id":"","pricing_plan_id":"cebpf4jnsgd1na2vs0mg"},{"bike_id":"b30bb0e4-57e3-482e-b23d-e8852f73bdf6","system_id":"levelo_inurba_marseille","lat":43.301446,"lon":5.380704,"is_reserved":false,"is_disabled":false,"rental_uris":{"android":"levelo://app?vid=b30bb0e4-57e3-482e-b23d-e8852f73bdf6","ios":"levelo://app?vid=b30bb0e4-57e3-482e-b23d-e8852f73bdf6"},"vehicle_type_id":"4","last_reported":1748502668,"current_range_meters":10000,"station_id":"ce4bgjp2rcd13ifvqbh0","pricing_plan_id":"cebpf4jnsgd1na2vs0mg"},{"bike_id":"2c99a932-1c22-4295-950a-c96692bde45d","system_id":"levelo_inurba_marseille","lat":43.30933,"lon":5.40142,"is_reserved":false,"is_disabled":false,"rental_uris":{"android":"levelo://app?vid=2c99a932-1c22-4295-950a-c96692bde45d","ios":"levelo://app?vid=2c99a932-1c22-4295-950a-c96692bde45d"},"vehicle_type_id":"4","last_reported":1748502668,"current_range_meters":10000,"station_id":"ce4bgvp2rcd13ifvqct0","pricing_plan_id":"cebpf4jnsgd1na2vs0mg"},{"bike_id":"0c86123a-f449-45da-b9f5-701d3abcb46e","system_id":"levelo_inurba_marseille","lat":43.308745,"lon":5.396439,"is_reserved":false,"is_disabled":false,"rental_uris":{"android":"levelo://app?vid=0c86123a-f449-45da-b9f5-701d3abcb46e","ios":"levelo://app?vid=0c86123a-f449-45da-b9f5-701d3abcb46e"},"vehicle_type_id":"4","last_reported":1748502668,"current_range_meters":10000,"station_id":"ce4bh012rcd13ifvqcv0","pricing_plan_id":"cebpf4jnsgd1na2vs0mg"},{"bike_id":"a09d9f3d-435b-42a4-b533-6b0196c08dd6","system_id":"levelo_inurba_marseille","lat":43.308773,"lon":5.396391,"is_reserved":false,"is_disabled":false,"rental_uris":{"android":"levelo://app?vid=a09d9f3d-435b-42a4-b533-6b0196c08dd6","ios":"levelo://app?vid=a09d9f3d-435b-42a4-b533-6b0196c08dd6"},"vehicle_type_id":"4","last_reported":1748502668,"current_range_meters":10000,"station_id":"ce4bh012rcd13ifvqcv0","pricing_plan_id":"cebpf4jnsgd1na2vs0mg"},{"bike_id":"c7c51efa-1ecf-4f30-bdea-fc254873f793","system_id":"levelo_inurba_marseille","lat":43.28404,"lon":5.34986,"is_reserved":false,"is_disabled":false,"rental_uris":{"android":"levelo://app?vid=c7c51efa-1ecf-4f30-bdea-fc254873f793","ios":"levelo://app?vid=c7c51efa-1ecf-4f30-bdea-fc254873f793"},"vehicle_type_id":"4","last_reported":1748502668,"current_range_meters":10000,"station_id":"ce4bhbh2rcd13ifvqepg","pricing_plan_id":"cebpf4jnsgd1na2vs0mg"},{"bike_id":"ffa32fae-dc4d-4465-90de-e649e0760719","system_id":"levelo_inurba_marseille","lat":43.28613,"lon":5.35105,"is_reserved":false,"is_disabled":false,"rental_uris":{"android":"levelo://app?vid=ffa32fae-dc4d-4465-90de-e649e0760719","ios":"levelo://app?vid=ffa32fae-dc4d-4465-90de-e649e0760719"},"vehicle_type_id":"4","last_reported":1748502668,"current_range_meters":10000,"station_id":"ce4bhch2rcd13ifvqeug","pricing_plan_id":"cebpf4jnsgd1na2vs0mg"},{"bike_id":"61ff3d2c-9950-405e-8098-6ab5d21669e7","system_id":"levelo_inurba_marseille","lat":43.26771,"lon":5.39424,"is_reserved":false,"is_disabled":false,"rental_uris":{"android":"levelo://app?vid=61ff3d2c-9950-405e-8098-6ab5d21669e7","ios":"levelo://app?vid=61ff3d2c-9950-405e-8098-6ab5d21669e7"},"vehicle_type_id":"4","last_reported":1748502668,"current_range_meters":10000,"station_id":"ce4bhh12rcd13ifvqfg0","pricing_plan_id":"cebpf4jnsgd1na2vs0mg"},{"bike_id":"1f05a494-96b9-47a4-8160-db2c6c734351","system_id":"levelo_inurba_marseille","lat":43.25135,"lon":5.40284,"is_reserved":false,"is_disabled":false,"rental_uris":{"android":"levelo://app?vid=1f05a494-96b9-47a4-8160-db2c6c734351","ios":"levelo://app?vid=1f05a494-96b9-47a4-8160-db2c6c734351"},"vehicle_type_id":"4","last_reported":1748502668,"current_range_meters":10000,"station_id":"ce4bhlh2rcd13ifvqgig","pricing_plan_id":"cebpf4jnsgd1na2vs0mg"},{"bike_id":"2864c75b-5c31-4f51-804b-e90944a6d524","system_id":"levelo_inurba_marseille","lat":43.2512,"lon":5.40344,"is_reserved":false,"is_disabled":false,"rental_uris":{"android":"levelo://app?vid=2864c75b-5c31-4f51-804b-e90944a6d524","ios":"levelo://app?vid=2864c75b-5c31-4f51-804b-e90944a6d524"},"vehicle_type_id":"4","last_reported":1748502668,"current_range_meters":10000,"station_id":"ce4bhlh2rcd13ifvqgig","pricing_plan_id":"cebpf4jnsgd1na2vs0mg"},{"bike_id":"47f55a1f-8588-4781-bc30-f75474d90e6f","system_id":"levelo_inurba_marseille","lat":43.241728,"lon":5.397409,"is_reserved":false,"is_disabled":false,"rental_uris":{"android":"levelo://app?vid=47f55a1f-8588-4781-bc30-f75474d90e6f","ios":"levelo://app?vid=47f55a1f-8588-4781-bc30-f75474d90e6f"},"vehicle_type_id":"4","last_reported":1748502668,"current_range_meters":10000,"station_id":"ce4bhn12rcd13ifvqgpg","pricing_plan_id":"cebpf4jnsgd1na2vs0mg"},{"bike_id":"91355bf8-577c-482b-b451-9461084a40c7","system_id":"levelo_inurba_marseille","lat":43.286999,"lon":5.399832,"is_reserved":false,"is_disabled":false,"rental_uris":{"android":"levelo://app?vid=91355bf8-577c-482b-b451-9461084a40c7","ios":"levelo://app?vid=91355bf8-577c-482b-b451-9461084a40c7"},"vehicle_type_id":"4","last_reported":1748502668,"current_range_meters":10000,"station_id":"ce4bho92rcd13ifvqh3g","pricing_plan_id":"cebpf4jnsgd1na2vs0mg"},{"bike_id":"6de0c367-16d8-40fd-95d0-4105c0b2586d","system_id":"levelo_inurba_marseille","lat":43.326546,"lon":5.409843,"is_reserved":false,"is_disabled":false,"rental_uris":{"android":"levelo://app?vid=6de0c367-16d8-40fd-95d0-4105c0b2586d","ios":"levelo://app?vid=6de0c367-16d8-40fd-95d0-4105c0b2586d"},"vehicle_type_id":"4","last_reported":1748502668,"current_range_meters":10000,"station_id":"ce4bhpp2rcd13ifvqhgg","pricing_plan_id":"cebpf4jnsgd1na2vs0mg"},{"bike_id":"aadac860-d43c-4062-897b-20d300d16764","system_id":"levelo_inurba_marseille","lat":43.268034,"lon":5.402578,"is_reserved":false,"is_disabled":false,"rental_uris":{"android":"levelo://app?vid=aadac860-d43c-4062-897b-20d300d16764","ios":"levelo://app?vid=aadac860-d43c-4062-897b-20d300d16764"},"vehicle_type_id":"4","last_reported":1748502668,"current_range_meters":10000,"station_id":"ce501612rcd8frsf0b60","pricing_plan_id":"cebpf4jnsgd1na2vs0mg"},{"bike_id":"d7b5738e-0057-40f0-a48e-027dda6a964e","system_id":"levelo_inurba_marseille","lat":43.22936,"lon":5.353743,"is_reserved":false,"is_disabled":false,"rental_uris":{"android":"levelo://app?vid=d7b5738e-0057-40f0-a48e-027dda6a964e","ios":"levelo://app?vid=d7b5738e-0057-40f0-a48e-027dda6a964e"},"vehicle_type_id":"4","last_reported":1748502668,"current_range_meters":10000,"station_id":"cpo3532slgdg3j2ikp40","pricing_plan_id":"cebpf4jnsgd1na2vs0mg"},{"bike_id":"af1dc9b2-164b-4021-88df-830111ab755c","system_id":"levelo_inurba_marseille","lat":43.32371,"lon":5.36918,"is_reserved":false,"is_disabled":false,"rental_uris":{"android":"levelo://app?vid=af1dc9b2-164b-4021-88df-830111ab755c","ios":"levelo://app?vid=af1dc9b2-164b-4021-88df-830111ab755c"},"vehicle_type_id":"4","last_reported":1748502668,"current_range_meters":10800,"station_id":"","pricing_plan_id":"cebpf4jnsgd1na2vs0mg"},{"bike_id":"c7b8b51e-c853-4352-9193-32615af234ef","system_id":"levelo_inurba_marseille","lat":43.26168,"lon":5.42087,"is_reserved":false,"is_disabled":false,"rental_uris":{"android":"levelo://app?vid=c7b8b51e-c853-4352-9193-32615af234ef","ios":"levelo://app?vid=c7b8b51e-c853-4352-9193-32615af234ef"},"vehicle_type_id":"4","last_reported":1748502668,"current_range_meters":10800,"station_id":"","pricing_plan_id":"cebpf4jnsgd1na2vs0mg"},{"bike_id":"7270ff1a-574f-4ae9-8b4f-de038997e410","system_id":"levelo_inurba_marseille","lat":43.30875,"lon":5.39649,"is_reserved":false,"is_disabled":false,"rental_uris":{"android":"levelo://app?vid=7270ff1a-574f-4ae9-8b4f-de038997e410","ios":"levelo://app?vid=7270ff1a-574f-4ae9-8b4f-de038997e410"},"vehicle_type_id":"4","last_reported":1748502668,"current_range_meters":10800,"station_id":"ce4bh012rcd13ifvqcv0","pricing_plan_id":"cebpf4jnsgd1na2vs0mg"},{"bike_id":"66ec3060-8a03-4cbc-acae-354755d62724","system_id":"levelo_inurba_marseille","lat":43.28264,"lon":5.35066,"is_reserved":false,"is_disabled":false,"rental_uris":{"android":"levelo://app?vid=66ec3060-8a03-4cbc-acae-354755d62724","ios":"levelo://app?vid=66ec3060-8a03-4cbc-acae-354755d62724"},"vehicle_type_id":"4","last_reported":1748502668,"current_range_meters":10800,"station_id":"ce4bhbp2rcd13ifvqerg","pricing_plan_id":"cebpf4jnsgd1na2vs0mg"},{"bike_id":"0f1777bc-0a49-4a78-8cad-e3b9c6d58a2a","system_id":"levelo_inurba_marseille","lat":43.25725,"lon":5.411,"is_reserved":false,"is_disabled":false,"rental_uris":{"android":"levelo://app?vid=0f1777bc-0a49-4a78-8cad-e3b9c6d58a2a","ios":"levelo://app?vid=0f1777bc-0a49-4a78-8cad-e3b9c6d58a2a"},"vehicle_type_id":"4","last_reported":1748502668,"current_range_meters":10800,"station_id":"ce4bhkp2rcd13ifvqgd0","pricing_plan_id":"cebpf4jnsgd1na2vs0mg"},{"bike_id":"dfd8a92a-8547-40b8-9f1a-8cf8dc5a7a8c","system_id":"levelo_inurba_marseille","lat":43.31718,"lon":5.43724,"is_reserved":false,"is_disabled":false,"rental_uris":{"android":"levelo://app?vid=dfd8a92a-8547-40b8-9f1a-8cf8dc5a7a8c","ios":"levelo://app?vid=dfd8a92a-8547-40b8-9f1a-8cf8dc5a7a8c"},"vehicle_type_id":"4","last_reported":1748502668,"current_range_meters":10800,"station_id":"ce4bhp92rcd13ifvqhcg","pricing_plan_id":"cebpf4jnsgd1na2vs0mg"},{"bike_id":"f2f05900-e42a-4618-88d4-634f0dd99510","system_id":"levelo_inurba_marseille","lat":43.29972,"lon":5.37185,"is_reserved":false,"is_disabled":false,"rental_uris":{"android":"levelo://app?vid=f2f05900-e42a-4618-88d4-634f0dd99510","ios":"levelo://app?vid=f2f05900-e42a-4618-88d4-634f0dd99510"},"vehicle_type_id":"4","last_reported":1748502668,"current_range_meters":11200,"station_id":"ce4bgr92rcd13ifvqc7g","pricing_plan_id":"cebpf4jnsgd1na2vs0mg"},{"bike_id":"ab18719d-c5e7-4613-9c7e-1fe47406cb4b","system_id":"levelo_inurba_marseille","lat":43.30922,"lon":5.40128,"is_reserved":false,"is_disabled":false,"rental_uris":{"android":"levelo://app?vid=ab18719d-c5e7-4613-9c7e-1fe47406cb4b","ios":"levelo://app?vid=ab18719d-c5e7-4613-9c7e-1fe47406cb4b"},"vehicle_type_id":"4","last_reported":1748502668,"current_range_meters":11200,"station_id":"ce4bgvp2rcd13ifvqct0","pricing_plan_id":"cebpf4jnsgd1na2vs0mg"},{"bike_id":"6644e529-971b-47f2-ac12-b68b7313ff2d","system_id":"levelo_inurba_marseille","lat":43.28571,"lon":5.39493,"is_reserved":false,"is_disabled":false,"rental_uris":{"android":"levelo://app?vid=6644e529-971b-47f2-ac12-b68b7313ff2d","ios":"levelo://app?vid=6644e529-971b-47f2-ac12-b68b7313ff2d"},"vehicle_type_id":"4","last_reported":1748502668,"current_range_meters":11200,"station_id":"ce4bh292rcd13ifvqdg0","pricing_plan_id":"cebpf4jnsgd1na2vs0mg"},{"bike_id":"1982608a-a65c-4541-aa9f-6da07773e163","system_id":"levelo_inurba_marseille","lat":43.28435,"lon":5.34981,"is_reserved":false,"is_disabled":false,"rental_uris":{"android":"levelo://app?vid=1982608a-a65c-4541-aa9f-6da07773e163","ios":"levelo://app?vid=1982608a-a65c-4541-aa9f-6da07773e163"},"vehicle_type_id":"4","last_reported":1748502668,"current_range_meters":11200,"station_id":"ce4bhbh2rcd13ifvqepg","pricing_plan_id":"cebpf4jnsgd1na2vs0mg"},{"bike_id":"057e7b6e-115a-4b45-aac4-4b724c2ed13a","system_id":"levelo_inurba_marseille","lat":43.2927,"lon":5.36845,"is_reserved":false,"is_disabled":false,"rental_uris":{"android":"levelo://app?vid=057e7b6e-115a-4b45-aac4-4b724c2ed13a","ios":"levelo://app?vid=057e7b6e-115a-4b45-aac4-4b724c2ed13a"},"vehicle_type_id":"4","last_reported":1748502668,"current_range_meters":11200,"station_id":"ce4bhbp2rcd13ifvqesg","pricing_plan_id":"cebpf4jnsgd1na2vs0mg"},{"bike_id":"1a21a57a-e955-42be-927d-b20db9aae82f","system_id":"levelo_inurba_marseille","lat":43.26229,"lon":5.37436,"is_reserved":false,"is_disabled":false,"rental_uris":{"android":"levelo://app?vid=1a21a57a-e955-42be-927d-b20db9aae82f","ios":"levelo://app?vid=1a21a57a-e955-42be-927d-b20db9aae82f"},"vehicle_type_id":"4","last_reported":1748502668,"current_range_meters":11200,"station_id":"ce4bhgp2rcd13ifvqfc0","pricing_plan_id":"cebpf4jnsgd1na2vs0mg"},{"bike_id":"5c97ad39-4c83-4953-8e67-dbbfd2896987","system_id":"levelo_inurba_marseille","lat":43.2438,"lon":5.37058,"is_reserved":false,"is_disabled":false,"rental_uris":{"android":"levelo://app?vid=5c97ad39-4c83-4953-8e67-dbbfd2896987","ios":"levelo://app?vid=5c97ad39-4c83-4953-8e67-dbbfd2896987"},"vehicle_type_id":"4","last_reported":1748502668,"current_range_meters":11200,"station_id":"ce4bhhh2rcd13ifvqfk0","pricing_plan_id":"cebpf4jnsgd1na2vs0mg"},{"bike_id":"d019bacb-7cd0-4d57-8012-3d66d9eeb9fe","system_id":"levelo_inurba_marseille","lat":43.2318,"lon":5.39985,"is_reserved":false,"is_disabled":false,"rental_uris":{"android":"levelo://app?vid=d019bacb-7cd0-4d57-8012-3d66d9eeb9fe","ios":"levelo://app?vid=d019bacb-7cd0-4d57-8012-3d66d9eeb9fe"},"vehicle_type_id":"4","last_reported":1748502668,"current_range_meters":11200,"station_id":"ce4bhn12rcd13ifvqgqg","pricing_plan_id":"cebpf4jnsgd1na2vs0mg"},{"bike_id":"32ce1fee-e11e-4b6b-91ef-373111975b5a","system_id":"levelo_inurba_marseille","lat":43.280741,"lon":5.396422,"is_reserved":false,"is_disabled":false,"rental_uris":{"android":"levelo://app?vid=32ce1fee-e11e-4b6b-91ef-373111975b5a","ios":"levelo://app?vid=32ce1fee-e11e-4b6b-91ef-373111975b5a"},"vehicle_type_id":"4","last_reported":1748502668,"current_range_meters":11200,"station_id":"ce4bho12rcd13ifvqh2g","pricing_plan_id":"cebpf4jnsgd1na2vs0mg"},{"bike_id":"f090e212-d3c8-4736-afad-80cfe2b8e432","system_id":"levelo_inurba_marseille","lat":43.30803,"lon":5.43524,"is_reserved":false,"is_disabled":false,"rental_uris":{"android":"levelo://app?vid=f090e212-d3c8-4736-afad-80cfe2b8e432","ios":"levelo://app?vid=f090e212-d3c8-4736-afad-80cfe2b8e432"},"vehicle_type_id":"4","last_reported":1748502668,"current_range_meters":11200,"station_id":"ce4bhph2rcd13ifvqheg","pricing_plan_id":"cebpf4jnsgd1na2vs0mg"},{"bike_id":"4f4e0096-b87d-4d23-bc87-8157c7ad42ed","system_id":"levelo_inurba_marseille","lat":43.30525,"lon":5.36544,"is_reserved":false,"is_disabled":false,"rental_uris":{"android":"levelo://app?vid=4f4e0096-b87d-4d23-bc87-8157c7ad42ed","ios":"levelo://app?vid=4f4e0096-b87d-4d23-bc87-8157c7ad42ed"},"vehicle_type_id":"4","last_reported":1748502668,"current_range_meters":11600,"station_id":"ce4bgs12rcd13ifvqcag","pricing_plan_id":"cebpf4jnsgd1na2vs0mg"},{"bike_id":"8cae9003-b8a4-48e5-a072-65bbb7096fc6","system_id":"levelo_inurba_marseille","lat":43.30779,"lon":5.37622,"is_reserved":false,"is_disabled":false,"rental_uris":{"android":"levelo://app?vid=8cae9003-b8a4-48e5-a072-65bbb7096fc6","ios":"levelo://app?vid=8cae9003-b8a4-48e5-a072-65bbb7096fc6"},"vehicle_type_id":"4","last_reported":1748502668,"current_range_meters":11600,"station_id":"ce4bgv92rcd13ifvqcq0","pricing_plan_id":"cebpf4jnsgd1na2vs0mg"},{"bike_id":"ba0c24f2-b0ca-494a-9857-649f84664514","system_id":"levelo_inurba_marseille","lat":43.309346,"lon":5.401393,"is_reserved":false,"is_disabled":false,"rental_uris":{"android":"levelo://app?vid=ba0c24f2-b0ca-494a-9857-649f84664514","ios":"levelo://app?vid=ba0c24f2-b0ca-494a-9857-649f84664514"},"vehicle_type_id":"4","last_reported":1748502668,"current_range_meters":11600,"station_id":"ce4bgvp2rcd13ifvqct0","pricing_plan_id":"cebpf4jnsgd1na2vs0mg"},{"bike_id":"eb2d2be6-27a0-403b-adbd-bf36e3541a45","system_id":"levelo_inurba_marseille","lat":43.29044,"lon":5.39968,"is_reserved":false,"is_disabled":false,"rental_uris":{"android":"levelo://app?vid=eb2d2be6-27a0-403b-adbd-bf36e3541a45","ios":"levelo://app?vid=eb2d2be6-27a0-403b-adbd-bf36e3541a45"},"vehicle_type_id":"4","last_reported":1748502668,"current_range_meters":11600,"station_id":"ce4bh392rcd13ifvqdm0","pricing_plan_id":"cebpf4jnsgd1na2vs0mg"},{"bike_id":"08f5a426-ba1a-4a68-93e3-0f3a31bf9444","system_id":"levelo_inurba_marseille","lat":43.27204,"lon":5.39182,"is_reserved":false,"is_disabled":false,"rental_uris":{"android":"levelo://app?vid=08f5a426-ba1a-4a68-93e3-0f3a31bf9444","ios":"levelo://app?vid=08f5a426-ba1a-4a68-93e3-0f3a31bf9444"},"vehicle_type_id":"4","last_reported":1748502668,"current_range_meters":11600,"station_id":"ce4bhhp2rcd13ifvqfm0","pricing_plan_id":"cebpf4jnsgd1na2vs0mg"},{"bike_id":"f293ba09-4b7e-4261-9c45-5e8e5f6ff81c","system_id":"levelo_inurba_marseille","lat":43.30383,"lon":5.42468,"is_reserved":false,"is_disabled":false,"rental_uris":{"android":"levelo://app?vid=f293ba09-4b7e-4261-9c45-5e8e5f6ff81c","ios":"levelo://app?vid=f293ba09-4b7e-4261-9c45-5e8e5f6ff81c"},"vehicle_type_id":"4","last_reported":1748502668,"current_range_meters":11600,"station_id":"ce4bhoh2rcd13ifvqh6g","pricing_plan_id":"cebpf4jnsgd1na2vs0mg"},{"bike_id":"74596cad-01b8-4827-9b35-ca1f4056673c","system_id":"levelo_inurba_marseille","lat":43.323837,"lon":5.383754,"is_reserved":false,"is_disabled":false,"rental_uris":{"android":"levelo://app?vid=74596cad-01b8-4827-9b35-ca1f4056673c","ios":"levelo://app?vid=74596cad-01b8-4827-9b35-ca1f4056673c"},"vehicle_type_id":"4","last_reported":1748502668,"current_range_meters":12000,"station_id":"","pricing_plan_id":"cebpf4jnsgd1na2vs0mg"},{"bike_id":"ec0ebdf9-cb53-48e7-81b4-04ea0281e16f","system_id":"levelo_inurba_marseille","lat":43.29305,"lon":5.37167,"is_reserved":false,"is_disabled":false,"rental_uris":{"android":"levelo://app?vid=ec0ebdf9-cb53-48e7-81b4-04ea0281e16f","ios":"levelo://app?vid=ec0ebdf9-cb53-48e7-81b4-04ea0281e16f"},"vehicle_type_id":"4","last_reported":1748502668,"current_range_meters":12000,"station_id":"ce4bgh92rcd13ifvqb40","pricing_plan_id":"cebpf4jnsgd1na2vs0mg"},{"bike_id":"5425969b-1595-4148-b19f-88f5aacdc526","system_id":"levelo_inurba_marseille","lat":43.30646,"lon":5.40074,"is_reserved":false,"is_disabled":false,"rental_uris":{"android":"levelo://app?vid=5425969b-1595-4148-b19f-88f5aacdc526","ios":"levelo://app?vid=5425969b-1595-4148-b19f-88f5aacdc526"},"vehicle_type_id":"4","last_reported":1748502668,"current_range_meters":12000,"station_id":"ce4bh112rcd13ifvqda0","pricing_plan_id":"cebpf4jnsgd1na2vs0mg"},{"bike_id":"19c319b8-cb5c-4a9f-a123-c087da106c08","system_id":"levelo_inurba_marseille","lat":43.259,"lon":5.40874,"is_reserved":false,"is_disabled":false,"rental_uris":{"android":"levelo://app?vid=19c319b8-cb5c-4a9f-a123-c087da106c08","ios":"levelo://app?vid=19c319b8-cb5c-4a9f-a123-c087da106c08"},"vehicle_type_id":"4","last_reported":1748502668,"current_range_meters":12000,"station_id":"ce4bhm92rcd13ifvqglg","pricing_plan_id":"cebpf4jnsgd1na2vs0mg"},{"bike_id":"f4e8e0bb-ba43-4097-bfe7-dcd796aa03f2","system_id":"levelo_inurba_marseille","lat":43.280107,"lon":5.416773,"is_reserved":false,"is_disabled":false,"rental_uris":{"android":"levelo://app?vid=f4e8e0bb-ba43-4097-bfe7-dcd796aa03f2","ios":"levelo://app?vid=f4e8e0bb-ba43-4097-bfe7-dcd796aa03f2"},"vehicle_type_id":"4","last_reported":1748502668,"current_range_meters":12000,"station_id":"ce4bho12rcd13ifvqh1g","pricing_plan_id":"cebpf4jnsgd1na2vs0mg"},{"bike_id":"42dca157-bdb0-4361-8022-7979135f94aa","system_id":"levelo_inurba_marseille","lat":43.285496,"lon":5.36676,"is_reserved":false,"is_disabled":false,"rental_uris":{"android":"levelo://app?vid=42dca157-bdb0-4361-8022-7979135f94aa","ios":"levelo://app?vid=42dca157-bdb0-4361-8022-7979135f94aa"},"vehicle_type_id":"4","last_reported":1748502668,"current_range_meters":12400,"station_id":"","pricing_plan_id":"cebpf4jnsgd1na2vs0mg"},{"bike_id":"1c9b4761-e609-4e32-850e-f95c9f07553f","system_id":"levelo_inurba_marseille","lat":43.30884,"lon":5.39659,"is_reserved":false,"is_disabled":false,"rental_uris":{"android":"levelo://app?vid=1c9b4761-e609-4e32-850e-f95c9f07553f","ios":"levelo://app?vid=1c9b4761-e609-4e32-850e-f95c9f07553f"},"vehicle_type_id":"4","last_reported":1748502668,"current_range_meters":12400,"station_id":"ce4bh012rcd13ifvqcv0","pricing_plan_id":"cebpf4jnsgd1na2vs0mg"},{"bike_id":"8ea4d048-223c-4b9f-a79c-b8dc2c65d878","system_id":"levelo_inurba_marseille","lat":43.25124,"lon":5.40315,"is_reserved":false,"is_disabled":false,"rental_uris":{"android":"levelo://app?vid=8ea4d048-223c-4b9f-a79c-b8dc2c65d878","ios":"levelo://app?vid=8ea4d048-223c-4b9f-a79c-b8dc2c65d878"},"vehicle_type_id":"4","last_reported":1748502668,"current_range_meters":12400,"station_id":"ce4bhlh2rcd13ifvqgig","pricing_plan_id":"cebpf4jnsgd1na2vs0mg"},{"bike_id":"d1160911-5dba-4a70-bdeb-2e5a47931200","system_id":"levelo_inurba_marseille","lat":43.27998,"lon":5.41668,"is_reserved":false,"is_disabled":false,"rental_uris":{"android":"levelo://app?vid=d1160911-5dba-4a70-bdeb-2e5a47931200","ios":"levelo://app?vid=d1160911-5dba-4a70-bdeb-2e5a47931200"},"vehicle_type_id":"4","last_reported":1748502668,"current_range_meters":12400,"station_id":"ce4bho12rcd13ifvqh1g","pricing_plan_id":"cebpf4jnsgd1na2vs0mg"},{"bike_id":"20216ba5-61bf-44de-983d-1d2b80d544f3","system_id":"levelo_inurba_marseille","lat":43.21755,"lon":5.34587,"is_reserved":false,"is_disabled":false,"rental_uris":{"android":"levelo://app?vid=20216ba5-61bf-44de-983d-1d2b80d544f3","ios":"levelo://app?vid=20216ba5-61bf-44de-983d-1d2b80d544f3"},"vehicle_type_id":"4","last_reported":1748502668,"current_range_meters":12400,"station_id":"st_cvj6r9ubvosntc0bgbag","pricing_plan_id":"cebpf4jnsgd1na2vs0mg"},{"bike_id":"aa61cf49-e9ee-4c74-a7df-3837fabfe7ce","system_id":"levelo_inurba_marseille","lat":43.29974,"lon":5.38494,"is_reserved":false,"is_disabled":false,"rental_uris":{"android":"levelo://app?vid=aa61cf49-e9ee-4c74-a7df-3837fabfe7ce","ios":"levelo://app?vid=aa61cf49-e9ee-4c74-a7df-3837fabfe7ce"},"vehicle_type_id":"4","last_reported":1748502668,"current_range_meters":13600,"station_id":"ce4bgj92rcd13ifvqbd0","pricing_plan_id":"cebpf4jnsgd1na2vs0mg"},{"bike_id":"25839a6d-5925-497a-8adf-3eeea7451fd0","system_id":"levelo_inurba_marseille","lat":43.2621,"lon":5.37439,"is_reserved":false,"is_disabled":false,"rental_uris":{"android":"levelo://app?vid=25839a6d-5925-497a-8adf-3eeea7451fd0","ios":"levelo://app?vid=25839a6d-5925-497a-8adf-3eeea7451fd0"},"vehicle_type_id":"4","last_reported":1748502668,"current_range_meters":13600,"station_id":"ce4bhgp2rcd13ifvqfc0","pricing_plan_id":"cebpf4jnsgd1na2vs0mg"},{"bike_id":"5efe992b-0ec8-4c93-8b9d-910ce57ce213","system_id":"levelo_inurba_marseille","lat":43.24386,"lon":5.37057,"is_reserved":false,"is_disabled":false,"rental_uris":{"android":"levelo://app?vid=5efe992b-0ec8-4c93-8b9d-910ce57ce213","ios":"levelo://app?vid=5efe992b-0ec8-4c93-8b9d-910ce57ce213"},"vehicle_type_id":"4","last_reported":1748502668,"current_range_meters":13600,"station_id":"ce4bhhh2rcd13ifvqfk0","pricing_plan_id":"cebpf4jnsgd1na2vs0mg"},{"bike_id":"b2d5366f-dd76-4df6-8bad-e2b0bf8847a0","system_id":"levelo_inurba_marseille","lat":43.23175,"lon":5.39985,"is_reserved":false,"is_disabled":false,"rental_uris":{"android":"levelo://app?vid=b2d5366f-dd76-4df6-8bad-e2b0bf8847a0","ios":"levelo://app?vid=b2d5366f-dd76-4df6-8bad-e2b0bf8847a0"},"vehicle_type_id":"4","last_reported":1748502668,"current_range_meters":13600,"station_id":"ce4bhn12rcd13ifvqgqg","pricing_plan_id":"cebpf4jnsgd1na2vs0mg"},{"bike_id":"16f8c46e-dbc6-4ab1-941f-3d93ad546819","system_id":"levelo_inurba_marseille","lat":43.32295,"lon":5.38262,"is_reserved":false,"is_disabled":false,"rental_uris":{"android":"levelo://app?vid=16f8c46e-dbc6-4ab1-941f-3d93ad546819","ios":"levelo://app?vid=16f8c46e-dbc6-4ab1-941f-3d93ad546819"},"vehicle_type_id":"4","last_reported":1748502668,"current_range_meters":13600,"station_id":"ce4bhr12rcd13ifvqhqg","pricing_plan_id":"cebpf4jnsgd1na2vs0mg"},{"bike_id":"bc4ad5fb-3c67-4689-b640-11a7d8d628b9","system_id":"levelo_inurba_marseille","lat":43.30525,"lon":5.38442,"is_reserved":false,"is_disabled":false,"rental_uris":{"android":"levelo://app?vid=bc4ad5fb-3c67-4689-b640-11a7d8d628b9","ios":"levelo://app?vid=bc4ad5fb-3c67-4689-b640-11a7d8d628b9"},"vehicle_type_id":"4","last_reported":1748502668,"current_range_meters":14000,"station_id":"ce4bgg92rcd13ifvqb30","pricing_plan_id":"cebpf4jnsgd1na2vs0mg"},{"bike_id":"868f9ba7-b4d7-4e88-95b9-d162352b210f","system_id":"levelo_inurba_marseille","lat":43.30145,"lon":5.38072,"is_reserved":false,"is_disabled":false,"rental_uris":{"android":"levelo://app?vid=868f9ba7-b4d7-4e88-95b9-d162352b210f","ios":"levelo://app?vid=868f9ba7-b4d7-4e88-95b9-d162352b210f"},"vehicle_type_id":"4","last_reported":1748502668,"current_range_meters":14000,"station_id":"ce4bgjp2rcd13ifvqbh0","pricing_plan_id":"cebpf4jnsgd1na2vs0mg"},{"bike_id":"d7ec6124-2bb0-4cb7-9841-558dab0d1f09","system_id":"levelo_inurba_marseille","lat":43.29692,"lon":5.37298,"is_reserved":false,"is_disabled":false,"rental_uris":{"android":"levelo://app?vid=d7ec6124-2bb0-4cb7-9841-558dab0d1f09","ios":"levelo://app?vid=d7ec6124-2bb0-4cb7-9841-558dab0d1f09"},"vehicle_type_id":"4","last_reported":1748502668,"current_range_meters":14000,"station_id":"ce4bgk12rcd13ifvqbj0","pricing_plan_id":"cebpf4jnsgd1na2vs0mg"},{"bike_id":"4607379c-9a5a-4d9c-8cea-20530a7eb964","system_id":"levelo_inurba_marseille","lat":43.30926,"lon":5.40138,"is_reserved":false,"is_disabled":false,"rental_uris":{"android":"levelo://app?vid=4607379c-9a5a-4d9c-8cea-20530a7eb964","ios":"levelo://app?vid=4607379c-9a5a-4d9c-8cea-20530a7eb964"},"vehicle_type_id":"4","last_reported":1748502668,"current_range_meters":14000,"station_id":"ce4bgvp2rcd13ifvqct0","pricing_plan_id":"cebpf4jnsgd1na2vs0mg"},{"bike_id":"5b2291d0-2594-4fff-9a70-c15f1147322b","system_id":"levelo_inurba_marseille","lat":43.29276,"lon":5.36855,"is_reserved":false,"is_disabled":false,"rental_uris":{"android":"levelo://app?vid=5b2291d0-2594-4fff-9a70-c15f1147322b","ios":"levelo://app?vid=5b2291d0-2594-4fff-9a70-c15f1147322b"},"vehicle_type_id":"4","last_reported":1748502668,"current_range_meters":14000,"station_id":"ce4bhbp2rcd13ifvqesg","pricing_plan_id":"cebpf4jnsgd1na2vs0mg"},{"bike_id":"2da4933c-bbd2-4a11-8721-a8699edd02f7","system_id":"levelo_inurba_marseille","lat":43.25089,"lon":5.40339,"is_reserved":false,"is_disabled":false,"rental_uris":{"android":"levelo://app?vid=2da4933c-bbd2-4a11-8721-a8699edd02f7","ios":"levelo://app?vid=2da4933c-bbd2-4a11-8721-a8699edd02f7"},"vehicle_type_id":"4","last_reported":1748502668,"current_range_meters":14000,"station_id":"ce4bhlh2rcd13ifvqgig","pricing_plan_id":"cebpf4jnsgd1na2vs0mg"},{"bike_id":"4c053a53-5a50-4e31-8104-9b41d82b2307","system_id":"levelo_inurba_marseille","lat":43.330679,"lon":5.393381,"is_reserved":false,"is_disabled":false,"rental_uris":{"android":"levelo://app?vid=4c053a53-5a50-4e31-8104-9b41d82b2307","ios":"levelo://app?vid=4c053a53-5a50-4e31-8104-9b41d82b2307"},"vehicle_type_id":"4","last_reported":1748502668,"current_range_meters":14400,"station_id":"","pricing_plan_id":"cebpf4jnsgd1na2vs0mg"},{"bike_id":"446740e3-6543-4ad8-8d09-08b6a7fbd149","system_id":"levelo_inurba_marseille","lat":43.30601,"lon":5.37227,"is_reserved":false,"is_disabled":false,"rental_uris":{"android":"levelo://app?vid=446740e3-6543-4ad8-8d09-08b6a7fbd149","ios":"levelo://app?vid=446740e3-6543-4ad8-8d09-08b6a7fbd149"},"vehicle_type_id":"4","last_reported":1748502668,"current_range_meters":14400,"station_id":"ce4bgqh2rcd13ifvqc4g","pricing_plan_id":"cebpf4jnsgd1na2vs0mg"},{"bike_id":"7d29543e-868d-4620-87fb-a76e1554f674","system_id":"levelo_inurba_marseille","lat":43.30462,"lon":5.37903,"is_reserved":false,"is_disabled":false,"rental_uris":{"android":"levelo://app?vid=7d29543e-868d-4620-87fb-a76e1554f674","ios":"levelo://app?vid=7d29543e-868d-4620-87fb-a76e1554f674"},"vehicle_type_id":"4","last_reported":1748502668,"current_range_meters":14400,"station_id":"ce4bgup2rcd13ifvqcn0","pricing_plan_id":"cebpf4jnsgd1na2vs0mg"},{"bike_id":"8f7f9dba-c1a2-4705-9cfb-78b381b601cf","system_id":"levelo_inurba_marseille","lat":43.309297,"lon":5.40165,"is_reserved":false,"is_disabled":false,"rental_uris":{"android":"levelo://app?vid=8f7f9dba-c1a2-4705-9cfb-78b381b601cf","ios":"levelo://app?vid=8f7f9dba-c1a2-4705-9cfb-78b381b601cf"},"vehicle_type_id":"4","last_reported":1748502668,"current_range_meters":14400,"station_id":"ce4bgvp2rcd13ifvqct0","pricing_plan_id":"cebpf4jnsgd1na2vs0mg"},{"bike_id":"a829ba8e-bf90-4a53-baee-0213b780debc","system_id":"levelo_inurba_marseille","lat":43.29268,"lon":5.40117,"is_reserved":false,"is_disabled":false,"rental_uris":{"android":"levelo://app?vid=a829ba8e-bf90-4a53-baee-0213b780debc","ios":"levelo://app?vid=a829ba8e-bf90-4a53-baee-0213b780debc"},"vehicle_type_id":"4","last_reported":1748502668,"current_range_meters":14400,"station_id":"ce4bh312rcd13ifvqdk0","pricing_plan_id":"cebpf4jnsgd1na2vs0mg"},{"bike_id":"a426f99b-d34a-41bf-bbda-59f7dfd6939b","system_id":"levelo_inurba_marseille","lat":43.255796,"lon":5.382262,"is_reserved":false,"is_disabled":false,"rental_uris":{"android":"levelo://app?vid=a426f99b-d34a-41bf-bbda-59f7dfd6939b","ios":"levelo://app?vid=a426f99b-d34a-41bf-bbda-59f7dfd6939b"},"vehicle_type_id":"4","last_reported":1748502668,"current_range_meters":14400,"station_id":"ce501612rcd8frsf0b60","pricing_plan_id":"cebpf4jnsgd1na2vs0mg"},{"bike_id":"e9cda520-c6f4-465d-ad7f-8c059b3dc45a","system_id":"levelo_inurba_marseille","lat":43.31373,"lon":5.384077,"is_reserved":false,"is_disabled":false,"rental_uris":{"android":"levelo://app?vid=e9cda520-c6f4-465d-ad7f-8c059b3dc45a","ios":"levelo://app?vid=e9cda520-c6f4-465d-ad7f-8c059b3dc45a"},"vehicle_type_id":"4","last_reported":1748502668,"current_range_meters":14800,"station_id":"","pricing_plan_id":"cebpf4jnsgd1na2vs0mg"},{"bike_id":"f5733814-9732-4748-bcc9-3b2fac8e1564","system_id":"levelo_inurba_marseille","lat":43.31256,"lon":5.37829,"is_reserved":false,"is_disabled":false,"rental_uris":{"android":"levelo://app?vid=f5733814-9732-4748-bcc9-3b2fac8e1564","ios":"levelo://app?vid=f5733814-9732-4748-bcc9-3b2fac8e1564"},"vehicle_type_id":"4","last_reported":1748502668,"current_range_meters":14800,"station_id":"","pricing_plan_id":"cebpf4jnsgd1na2vs0mg"},{"bike_id":"c3eb730d-1b50-45e0-a9de-d81a7e3a111c","system_id":"levelo_inurba_marseille","lat":43.29365,"lon":5.37843,"is_reserved":false,"is_disabled":false,"rental_uris":{"android":"levelo://app?vid=c3eb730d-1b50-45e0-a9de-d81a7e3a111c","ios":"levelo://app?vid=c3eb730d-1b50-45e0-a9de-d81a7e3a111c"},"vehicle_type_id":"4","last_reported":1748502668,"current_range_meters":14800,"station_id":"ce4bgjh2rcd13ifvqbf0","pricing_plan_id":"cebpf4jnsgd1na2vs0mg"},{"bike_id":"caba691e-3e1a-4a91-8958-c8fc2e373e15","system_id":"levelo_inurba_marseille","lat":43.33744,"lon":5.391841,"is_reserved":false,"is_disabled":false,"rental_uris":{"android":"levelo://app?vid=caba691e-3e1a-4a91-8958-c8fc2e373e15","ios":"levelo://app?vid=caba691e-3e1a-4a91-8958-c8fc2e373e15"},"vehicle_type_id":"4","last_reported":1748502668,"current_range_meters":14800,"station_id":"ce4bhr92rcd13ifvqhsg","pricing_plan_id":"cebpf4jnsgd1na2vs0mg"},{"bike_id":"3bf049eb-b027-4553-8de8-82bb3c0c0c8d","system_id":"levelo_inurba_marseille","lat":43.32831,"lon":5.37527,"is_reserved":false,"is_disabled":false,"rental_uris":{"android":"levelo://app?vid=3bf049eb-b027-4553-8de8-82bb3c0c0c8d","ios":"levelo://app?vid=3bf049eb-b027-4553-8de8-82bb3c0c0c8d"},"vehicle_type_id":"4","last_reported":1748502668,"current_range_meters":15200,"station_id":"","pricing_plan_id":"cebpf4jnsgd1na2vs0mg"},{"bike_id":"9a8ecd66-2bff-4799-88d1-e3d65db33a9f","system_id":"levelo_inurba_marseille","lat":43.30928,"lon":5.40153,"is_reserved":false,"is_disabled":false,"rental_uris":{"android":"levelo://app?vid=9a8ecd66-2bff-4799-88d1-e3d65db33a9f","ios":"levelo://app?vid=9a8ecd66-2bff-4799-88d1-e3d65db33a9f"},"vehicle_type_id":"4","last_reported":1748502668,"current_range_meters":15200,"station_id":"ce4bgvp2rcd13ifvqct0","pricing_plan_id":"cebpf4jnsgd1na2vs0mg"},{"bike_id":"7b64b9e6-3c9a-49de-ae0e-b49897caef8d","system_id":"levelo_inurba_marseille","lat":43.30884,"lon":5.39635,"is_reserved":false,"is_disabled":false,"rental_uris":{"android":"levelo://app?vid=7b64b9e6-3c9a-49de-ae0e-b49897caef8d","ios":"levelo://app?vid=7b64b9e6-3c9a-49de-ae0e-b49897caef8d"},"vehicle_type_id":"4","last_reported":1748502668,"current_range_meters":15200,"station_id":"ce4bh012rcd13ifvqcv0","pricing_plan_id":"cebpf4jnsgd1na2vs0mg"},{"bike_id":"f12dfea2-4a20-4463-aa3e-7c0b4a86991a","system_id":"levelo_inurba_marseille","lat":43.28413,"lon":5.37505,"is_reserved":false,"is_disabled":false,"rental_uris":{"android":"levelo://app?vid=f12dfea2-4a20-4463-aa3e-7c0b4a86991a","ios":"levelo://app?vid=f12dfea2-4a20-4463-aa3e-7c0b4a86991a"},"vehicle_type_id":"4","last_reported":1748502668,"current_range_meters":15200,"station_id":"ce4bh412rcd13ifvqds0","pricing_plan_id":"cebpf4jnsgd1na2vs0mg"},{"bike_id":"685b3984-6ff2-4846-a44b-da0bc9a61c62","system_id":"levelo_inurba_marseille","lat":43.23962,"lon":5.36638,"is_reserved":false,"is_disabled":false,"rental_uris":{"android":"levelo://app?vid=685b3984-6ff2-4846-a44b-da0bc9a61c62","ios":"levelo://app?vid=685b3984-6ff2-4846-a44b-da0bc9a61c62"},"vehicle_type_id":"4","last_reported":1748502668,"current_range_meters":15200,"station_id":"ce4bhi12rcd13ifvqfp0","pricing_plan_id":"cebpf4jnsgd1na2vs0mg"},{"bike_id":"1ca8d186-8ec3-4de5-84ef-62b703377a4e","system_id":"levelo_inurba_marseille","lat":43.23149,"lon":5.43712,"is_reserved":false,"is_disabled":false,"rental_uris":{"android":"levelo://app?vid=1ca8d186-8ec3-4de5-84ef-62b703377a4e","ios":"levelo://app?vid=1ca8d186-8ec3-4de5-84ef-62b703377a4e"},"vehicle_type_id":"4","last_reported":1748502668,"current_range_meters":15200,"station_id":"ce4bhmp2rcd13ifvqgog","pricing_plan_id":"cebpf4jnsgd1na2vs0mg"},{"bike_id":"0aeb2502-24df-4bc6-9001-b9ffef9b7ace","system_id":"levelo_inurba_marseille","lat":43.28412,"lon":5.37538,"is_reserved":false,"is_disabled":false,"rental_uris":{"android":"levelo://app?vid=0aeb2502-24df-4bc6-9001-b9ffef9b7ace","ios":"levelo://app?vid=0aeb2502-24df-4bc6-9001-b9ffef9b7ace"},"vehicle_type_id":"4","last_reported":1748502668,"current_range_meters":16000,"station_id":"ce4bh412rcd13ifvqds0","pricing_plan_id":"cebpf4jnsgd1na2vs0mg"},{"bike_id":"204ccfe1-9199-4970-adb6-0a4f6a62a5df","system_id":"levelo_inurba_marseille","lat":43.27913,"lon":5.39585,"is_reserved":false,"is_disabled":false,"rental_uris":{"android":"levelo://app?vid=204ccfe1-9199-4970-adb6-0a4f6a62a5df","ios":"levelo://app?vid=204ccfe1-9199-4970-adb6-0a4f6a62a5df"},"vehicle_type_id":"4","last_reported":1748502668,"current_range_meters":16000,"station_id":"ce4bhf92rcd13ifvqf40","pricing_plan_id":"cebpf4jnsgd1na2vs0mg"},{"bike_id":"d440bf96-43ec-45b0-b01f-1c5328ca29b2","system_id":"levelo_inurba_marseille","lat":43.27958,"lon":5.38689,"is_reserved":false,"is_disabled":false,"rental_uris":{"android":"levelo://app?vid=d440bf96-43ec-45b0-b01f-1c5328ca29b2","ios":"levelo://app?vid=d440bf96-43ec-45b0-b01f-1c5328ca29b2"},"vehicle_type_id":"4","last_reported":1748502668,"current_range_meters":16000,"station_id":"ce4bhg12rcd13ifvqf80","pricing_plan_id":"cebpf4jnsgd1na2vs0mg"},{"bike_id":"c29ce092-0794-4ee5-b982-bf3dc415ac4e","system_id":"levelo_inurba_marseille","lat":43.248,"lon":5.37458,"is_reserved":false,"is_disabled":false,"rental_uris":{"android":"levelo://app?vid=c29ce092-0794-4ee5-b982-bf3dc415ac4e","ios":"levelo://app?vid=c29ce092-0794-4ee5-b982-bf3dc415ac4e"},"vehicle_type_id":"4","last_reported":1748502668,"current_range_meters":16000,"station_id":"ce4bhgh2rcd13ifvqfb0","pricing_plan_id":"cebpf4jnsgd1na2vs0mg"},{"bike_id":"b7d0182b-44ef-4781-8968-d21fb3c02045","system_id":"levelo_inurba_marseille","lat":43.250853,"lon":5.39516,"is_reserved":false,"is_disabled":false,"rental_uris":{"android":"levelo://app?vid=b7d0182b-44ef-4781-8968-d21fb3c02045","ios":"levelo://app?vid=b7d0182b-44ef-4781-8968-d21fb3c02045"},"vehicle_type_id":"4","last_reported":1748502668,"current_range_meters":16000,"station_id":"ce4bhm12rcd13ifvqgkg","pricing_plan_id":"cebpf4jnsgd1na2vs0mg"},{"bike_id":"268d8a39-8ebd-464e-bfc7-cb2851008607","system_id":"levelo_inurba_marseille","lat":43.24179,"lon":5.3972,"is_reserved":false,"is_disabled":false,"rental_uris":{"android":"levelo://app?vid=268d8a39-8ebd-464e-bfc7-cb2851008607","ios":"levelo://app?vid=268d8a39-8ebd-464e-bfc7-cb2851008607"},"vehicle_type_id":"4","last_reported":1748502668,"current_range_meters":16000,"station_id":"ce4bhn12rcd13ifvqgpg","pricing_plan_id":"cebpf4jnsgd1na2vs0mg"},{"bike_id":"8023504d-3ac6-4178-b0fc-b7283e21344c","system_id":"levelo_inurba_marseille","lat":43.27945,"lon":5.41022,"is_reserved":false,"is_disabled":false,"rental_uris":{"android":"levelo://app?vid=8023504d-3ac6-4178-b0fc-b7283e21344c","ios":"levelo://app?vid=8023504d-3ac6-4178-b0fc-b7283e21344c"},"vehicle_type_id":"4","last_reported":1748502668,"current_range_meters":16000,"station_id":"ce4bhnp2rcd13ifvqh0g","pricing_plan_id":"cebpf4jnsgd1na2vs0mg"},{"bike_id":"ad6aca86-7934-43a8-93e5-11f3e998538f","system_id":"levelo_inurba_marseille","lat":43.27941,"lon":5.41035,"is_reserved":false,"is_disabled":false,"rental_uris":{"android":"levelo://app?vid=ad6aca86-7934-43a8-93e5-11f3e998538f","ios":"levelo://app?vid=ad6aca86-7934-43a8-93e5-11f3e998538f"},"vehicle_type_id":"4","last_reported":1748502668,"current_range_meters":16000,"station_id":"ce4bhnp2rcd13ifvqh0g","pricing_plan_id":"cebpf4jnsgd1na2vs0mg"},{"bike_id":"0e009545-9acc-491d-b143-22cbd0096db4","system_id":"levelo_inurba_marseille","lat":43.33036,"lon":5.39046,"is_reserved":false,"is_disabled":false,"rental_uris":{"android":"levelo://app?vid=0e009545-9acc-491d-b143-22cbd0096db4","ios":"levelo://app?vid=0e009545-9acc-491d-b143-22cbd0096db4"},"vehicle_type_id":"4","last_reported":1748502668,"current_range_meters":16400,"station_id":"","pricing_plan_id":"cebpf4jnsgd1na2vs0mg"},{"bike_id":"9a86381f-51bc-4d54-858d-d27c0e51d901","system_id":"levelo_inurba_marseille","lat":43.30763,"lon":5.42413,"is_reserved":false,"is_disabled":false,"rental_uris":{"android":"levelo://app?vid=9a86381f-51bc-4d54-858d-d27c0e51d901","ios":"levelo://app?vid=9a86381f-51bc-4d54-858d-d27c0e51d901"},"vehicle_type_id":"4","last_reported":1748502668,"current_range_meters":16400,"station_id":"","pricing_plan_id":"cebpf4jnsgd1na2vs0mg"},{"bike_id":"7cebb823-96d0-49f3-8455-0b619a5fe90e","system_id":"levelo_inurba_marseille","lat":43.30154,"lon":5.380725,"is_reserved":false,"is_disabled":false,"rental_uris":{"android":"levelo://app?vid=7cebb823-96d0-49f3-8455-0b619a5fe90e","ios":"levelo://app?vid=7cebb823-96d0-49f3-8455-0b619a5fe90e"},"vehicle_type_id":"4","last_reported":1748502668,"current_range_meters":16400,"station_id":"ce4bgjp2rcd13ifvqbh0","pricing_plan_id":"cebpf4jnsgd1na2vs0mg"},{"bike_id":"c70d6cfd-3382-4fab-92ff-8a67a0780efa","system_id":"levelo_inurba_marseille","lat":43.3015,"lon":5.38083,"is_reserved":false,"is_disabled":false,"rental_uris":{"android":"levelo://app?vid=c70d6cfd-3382-4fab-92ff-8a67a0780efa","ios":"levelo://app?vid=c70d6cfd-3382-4fab-92ff-8a67a0780efa"},"vehicle_type_id":"4","last_reported":1748502668,"current_range_meters":16400,"station_id":"ce4bgjp2rcd13ifvqbh0","pricing_plan_id":"cebpf4jnsgd1na2vs0mg"},{"bike_id":"1d6d9702-438d-454d-974c-3073193f149e","system_id":"levelo_inurba_marseille","lat":43.30778,"lon":5.37663,"is_reserved":false,"is_disabled":false,"rental_uris":{"android":"levelo://app?vid=1d6d9702-438d-454d-974c-3073193f149e","ios":"levelo://app?vid=1d6d9702-438d-454d-974c-3073193f149e"},"vehicle_type_id":"4","last_reported":1748502668,"current_range_meters":16400,"station_id":"ce4bgv92rcd13ifvqcq0","pricing_plan_id":"cebpf4jnsgd1na2vs0mg"},{"bike_id":"3a980c08-346a-4f7f-9170-58456c34fda5","system_id":"levelo_inurba_marseille","lat":43.31692,"lon":5.40435,"is_reserved":false,"is_disabled":false,"rental_uris":{"android":"levelo://app?vid=3a980c08-346a-4f7f-9170-58456c34fda5","ios":"levelo://app?vid=3a980c08-346a-4f7f-9170-58456c34fda5"},"vehicle_type_id":"4","last_reported":1748502668,"current_range_meters":16400,"station_id":"ce4bh012rcd13ifvqd00","pricing_plan_id":"cebpf4jnsgd1na2vs0mg"},{"bike_id":"6829e209-471a-4f5d-bdfa-f6471e8f3b4e","system_id":"levelo_inurba_marseille","lat":43.29873,"lon":5.39722,"is_reserved":false,"is_disabled":false,"rental_uris":{"android":"levelo://app?vid=6829e209-471a-4f5d-bdfa-f6471e8f3b4e","ios":"levelo://app?vid=6829e209-471a-4f5d-bdfa-f6471e8f3b4e"},"vehicle_type_id":"4","last_reported":1748502668,"current_range_meters":16400,"station_id":"ce4bh0h2rcd13ifvqd50","pricing_plan_id":"cebpf4jnsgd1na2vs0mg"},{"bike_id":"4e276be0-27cc-42b4-9cd6-8e82ac8df500","system_id":"levelo_inurba_marseille","lat":43.29027,"lon":5.39966,"is_reserved":false,"is_disabled":false,"rental_uris":{"android":"levelo://app?vid=4e276be0-27cc-42b4-9cd6-8e82ac8df500","ios":"levelo://app?vid=4e276be0-27cc-42b4-9cd6-8e82ac8df500"},"vehicle_type_id":"4","last_reported":1748502668,"current_range_meters":16400,"station_id":"ce4bh392rcd13ifvqdm0","pricing_plan_id":"cebpf4jnsgd1na2vs0mg"},{"bike_id":"b6c18f71-8caa-4e45-bd11-a73bab422911","system_id":"levelo_inurba_marseille","lat":43.280334,"lon":5.369527,"is_reserved":false,"is_disabled":false,"rental_uris":{"android":"levelo://app?vid=b6c18f71-8caa-4e45-bd11-a73bab422911","ios":"levelo://app?vid=b6c18f71-8caa-4e45-bd11-a73bab422911"},"vehicle_type_id":"4","last_reported":1748502668,"current_range_meters":16400,"station_id":"ce4bha12rcd13ifvqef0","pricing_plan_id":"cebpf4jnsgd1na2vs0mg"},{"bike_id":"adcee82c-9db2-40d0-9e4e-8dd831ea6879","system_id":"levelo_inurba_marseille","lat":43.27917,"lon":5.39583,"is_reserved":false,"is_disabled":false,"rental_uris":{"android":"levelo://app?vid=adcee82c-9db2-40d0-9e4e-8dd831ea6879","ios":"levelo://app?vid=adcee82c-9db2-40d0-9e4e-8dd831ea6879"},"vehicle_type_id":"4","last_reported":1748502668,"current_range_meters":16400,"station_id":"ce4bhf92rcd13ifvqf40","pricing_plan_id":"cebpf4jnsgd1na2vs0mg"},{"bike_id":"747224c9-7e52-4c58-9390-d943c4f5446c","system_id":"levelo_inurba_marseille","lat":43.27179,"lon":5.41014,"is_reserved":false,"is_disabled":false,"rental_uris":{"android":"levelo://app?vid=747224c9-7e52-4c58-9390-d943c4f5446c","ios":"levelo://app?vid=747224c9-7e52-4c58-9390-d943c4f5446c"},"vehicle_type_id":"4","last_reported":1748502668,"current_range_meters":16400,"station_id":"ce4bhl12rcd13ifvqgf0","pricing_plan_id":"cebpf4jnsgd1na2vs0mg"},{"bike_id":"5acaccd8-78cb-4a55-9bc7-0d6139a2d3b4","system_id":"levelo_inurba_marseille","lat":43.28703,"lon":5.39989,"is_reserved":false,"is_disabled":false,"rental_uris":{"android":"levelo://app?vid=5acaccd8-78cb-4a55-9bc7-0d6139a2d3b4","ios":"levelo://app?vid=5acaccd8-78cb-4a55-9bc7-0d6139a2d3b4"},"vehicle_type_id":"4","last_reported":1748502668,"current_range_meters":16400,"station_id":"ce4bho92rcd13ifvqh3g","pricing_plan_id":"cebpf4jnsgd1na2vs0mg"},{"bike_id":"bf5e4674-03e5-4715-b871-aa2d6b3c6866","system_id":"levelo_inurba_marseille","lat":43.29513,"lon":5.38893,"is_reserved":false,"is_disabled":false,"rental_uris":{"android":"levelo://app?vid=bf5e4674-03e5-4715-b871-aa2d6b3c6866","ios":"levelo://app?vid=bf5e4674-03e5-4715-b871-aa2d6b3c6866"},"vehicle_type_id":"4","last_reported":1748502668,"current_range_meters":16800,"station_id":"","pricing_plan_id":"cebpf4jnsgd1na2vs0mg"},{"bike_id":"b7020ec2-d08d-489a-8b7c-6a077dc1acf5","system_id":"levelo_inurba_marseille","lat":43.23282,"lon":5.36087,"is_reserved":false,"is_disabled":false,"rental_uris":{"android":"levelo://app?vid=b7020ec2-d08d-489a-8b7c-6a077dc1acf5","ios":"levelo://app?vid=b7020ec2-d08d-489a-8b7c-6a077dc1acf5"},"vehicle_type_id":"4","last_reported":1748502668,"current_range_meters":16800,"station_id":"","pricing_plan_id":"cebpf4jnsgd1na2vs0mg"},{"bike_id":"c16c243e-9b69-4fa0-9bfc-10f3532846b9","system_id":"levelo_inurba_marseille","lat":43.295729,"lon":5.3751,"is_reserved":false,"is_disabled":false,"rental_uris":{"android":"levelo://app?vid=c16c243e-9b69-4fa0-9bfc-10f3532846b9","ios":"levelo://app?vid=c16c243e-9b69-4fa0-9bfc-10f3532846b9"},"vehicle_type_id":"4","last_reported":1748502668,"current_range_meters":16800,"station_id":"ce4bgh92rcd13ifvqb50","pricing_plan_id":"cebpf4jnsgd1na2vs0mg"},