{"last_updated":1693652713,"ttl":30,"version":"2.2","data":{"bikes":[{"bike_id":"b33c4e84-4c63-48b0-a490-5a538ec35e49","system_id":"levelo_inurba_marseille","lat":43.31341,"lon":5.367098,"is_reserved":false,"is_disabled":false,"rental_uris":{"android":"levelo://app?vid=b33c4e84-4c63-48b0-a490-5a538ec35e49","ios":"levelo://app?vid=b33c4e84-4c63-48b0-a490-5a538ec35e49"},"vehicle_type_id":"4","last_reported":1693652714,"current_range_meters":31600,"station_id":"ce4bgr92rcd13ifvqc6g","pricing_plan_id":"free"},{"bike_id":"f9f6cb9b-2441-4290-ba6b-c8385d7f9cd3","system_id":"levelo_inurba_marseille","lat":43.31341,"lon":5.367098,"is_reserved":false,"is_disabled":false,"rental_uris":{"android":"levelo://app?vid=f9f6cb9b-2441-4290-ba6b-c8385d7f9cd3","ios":"levelo://app?vid=f9f6cb9b-2441-4290-ba6b-c8385d7f9cd3"},"vehicle_type_id":"4","last_reported":1693652714,"current_range_meters":27200,"station_id":"ce4bgr92rcd13ifvqc6g","pricing_plan_id":"free"},{"bike_id":"703a92a8-6bec-4b66-8576-9ee93182e6cc","system_id":"levelo_inurba_marseille","lat":43.312239,"lon":5.368562,"is_reserved":false,"is_disabled":false,"rental_uris":{"android":"levelo://app?vid=703a92a8-6bec-4b66-8576-9ee93182e6cc","ios":"levelo://app?vid=703a92a8-6bec-4b66-8576-9ee93182e6cc"},"vehicle_type_id":"4","last_reported":1693652714,"current_range_meters":29600,"station_id":"ce4bgl92rcd13ifvqbq0","pricing_plan_id":"free"},{"bike_id":"1e3cbbf9-ee56-47c1-b97b-791a9ae09a74","system_id":"levelo_inurba_marseille","lat":43.31482,"lon":5.37298,"is_reserved":false,"is_disabled":false,"rental_uris":{"android":"levelo://app?vid=1e3cbbf9-ee56-47c1-b97b-791a9ae09a74","ios":"levelo://app?vid=1e3cbbf9-ee56-47c1-b97b-791a9ae09a74"},"vehicle_type_id":"4","last_reported":1693652714,"current_range_meters":3600,"station_id":"ce4bgt12rcd13ifvqcd0","pricing_plan_id":"free"},{"bike_id":"d2be997d-44d2-40a5-bb20-02aeaaf65fa5","system_id":"levelo_inurba_marseille","lat":43.314811,"lon":5.373104,"is_reserved":false,"is_disabled":false,"rental_uris":{"android":"levelo://app?vid=d2be997d-44d2-40a5-bb20-02aeaaf65fa5","ios":"levelo://app?vid=d2be997d-44d2-40a5-bb20-02aeaaf65fa5"},"vehicle_type_id":"4","last_reported":1693652714,"current_range_meters":30800,"station_id":"ce4bgt12rcd13ifvqcd0","pricing_plan_id":"free"},{"bike_id":"dbdfb9f1-27ea-41a9-8aaa-8528b50c591b","system_id":"levelo_inurba_marseille","lat":43.30885,"lon":5.37197,"is_reserved":false,"is_disabled":false,"rental_uris":{"android":"levelo://app?vid=dbdfb9f1-27ea-41a9-8aaa-8528b50c591b","ios":"levelo://app?vid=dbdfb9f1-27ea-41a9-8aaa-8528b50c591b"},"vehicle_type_id":"4","last_reported":1693652714,"current_range_meters":21200,"station_id":"ce4bguh2rcd13ifvqckg","pricing_plan_id":"free"},{"bike_id":"f1d56a06-884c-4f20-a522-78f70b2011ca","system_id":"levelo_inurba_marseille","lat":43.305714,"lon":5.365633,"is_reserved":false,"is_disabled":false,"rental_uris":{"android":"levelo://app?vid=f1d56a06-884c-4f20-a522-78f70b2011ca","ios":"levelo://app?vid=f1d56a06-884c-4f20-a522-78f70b2011ca"},"vehicle_type_id":"4","last_reported":1693652714,"current_range_meters":13600,"station_id":"ce4bgs12rcd13ifvqcag","pricing_plan_id":"free"},{"bike_id":"6e09b764-5dd7-42de-a805-9154256d6ae7","system_id":"levelo_inurba_marseille","lat":43.305714,"lon":5.365633,"is_reserved":false,"is_disabled":false,"rental_uris":{"android":"levelo://app?vid=6e09b764-5dd7-42de-a805-9154256d6ae7","ios":"levelo://app?vid=6e09b764-5dd7-42de-a805-9154256d6ae7"},"vehicle_type_id":"4","last_reported":1693652714,"current_range_meters":4000,"station_id":"ce4bgs12rcd13ifvqcag","pricing_plan_id":"free"},{"bike_id":"3ff577b5-b082-4425-a01e-155ade78a7a0","system_id":"levelo_inurba_marseille","lat":43.305714,"lon":5.365633,"is_reserved":false,"is_disabled":false,"rental_uris":{"android":"levelo://app?vid=3ff577b5-b082-4425-a01e-155ade78a7a0","ios":"levelo://app?vid=3ff577b5-b082-4425-a01e-155ade78a7a0"},"vehicle_type_id":"4","last_reported":1693652714,"current_range_meters":14000,"station_id":"ce4bgs12rcd13ifvqcag","pricing_plan_id":"free"},{"bike_id":"fb85d315-9c89-4bdb-9322-3f4e3a7654ee","system_id":"levelo_inurba_marseille","lat":43.305706,"lon":5.365654,"is_reserved":false,"is_disabled":false,"rental_uris":{"android":"levelo://app?vid=fb85d315-9c89-4bdb-9322-3f4e3a7654ee","ios":"levelo://app?vid=fb85d315-9c89-4bdb-9322-3f4e3a7654ee"},"vehicle_type_id":"4","last_reported":1693652714,"current_range_meters":26800,"station_id":"ce4bgs12rcd13ifvqcag","pricing_plan_id":"free"},{"bike_id":"221e5035-4c24-4b36-aaab-433fcdfa271c","system_id":"levelo_inurba_marseille","lat":43.305706,"lon":5.365654,"is_reserved":false,"is_disabled":false,"rental_uris":{"android":"levelo://app?vid=221e5035-4c24-4b36-aaab-433fcdfa271c","ios":"levelo://app?vid=221e5035-4c24-4b36-aaab-433fcdfa271c"},"vehicle_type_id":"4","last_reported":1693652714,"current_range_meters":30400,"station_id":"ce4bgs12rcd13ifvqcag","pricing_plan_id":"free"},{"bike_id":"0e6e620d-b750-4073-ad75-9892b5255296","system_id":"levelo_inurba_marseille","lat":43.305706,"lon":5.365654,"is_reserved":false,"is_disabled":false,"rental_uris":{"android":"levelo://app?vid=0e6e620d-b750-4073-ad75-9892b5255296","ios":"levelo://app?vid=0e6e620d-b750-4073-ad75-9892b5255296"},"vehicle_type_id":"4","last_reported":1693652714,"current_range_meters":3600,"station_id":"ce4bgs12rcd13ifvqcag","pricing_plan_id":"free"},{"bike_id":"244e410c-4974-4de3-98b5-c89ddd057eeb","system_id":"levelo_inurba_marseille","lat":43.30544,"lon":5.36921,"is_reserved":false,"is_disabled":false,"rental_uris":{"android":"levelo://app?vid=244e410c-4974-4de3-98b5-c89ddd057eeb","ios":"levelo://app?vid=244e410c-4974-4de3-98b5-c89ddd057eeb"},"vehicle_type_id":"4","last_reported":1693652714,"current_range_meters":0,"station_id":"","pricing_plan_id":"free"},{"bike_id":"55d73a7b-ee64-48ba-a072-d0de272a3852","system_id":"levelo_inurba_marseille","lat":43.305706,"lon":5.365654,"is_reserved":false,"is_disabled":false,"rental_uris":{"android":"levelo://app?vid=55d73a7b-ee64-48ba-a072-d0de272a3852","ios":"levelo://app?vid=55d73a7b-ee64-48ba-a072-d0de272a3852"},"vehicle_type_id":"4","last_reported":1693652714,"current_range_meters":17600,"station_id":"ce4bgs12rcd13ifvqcag","pricing_plan_id":"free"},{"bike_id":"daea9dda-8113-4e57-81f3-f449622d8091","system_id":"levelo_inurba_marseille","lat":43.305706,"lon":5.365654,"is_reserved":false,"is_disabled":false,"rental_uris":{"android":"levelo://app?vid=daea9dda-8113-4e57-81f3-f449622d8091","ios":"levelo://app?vid=daea9dda-8113-4e57-81f3-f449622d8091"},"vehicle_type_id":"4","last_reported":1693652714,"current_range_meters":26000,"station_id":"ce4bgs12rcd13ifvqcag","pricing_plan_id":"free"},{"bike_id":"0edfac7b-40c5-4e24-8edb-294e7108466a","system_id":"levelo_inurba_marseille","lat":43.305706,"lon":5.365654,"is_reserved":false,"is_disabled":false,"rental_uris":{"android":"levelo://app?vid=0edfac7b-40c5-4e24-8edb-294e7108466a","ios":"levelo://app?vid=0edfac7b-40c5-4e24-8edb-294e7108466a"},"vehicle_type_id":"4","last_reported":1693652714,"current_range_meters":22400,"station_id":"ce4bgs12rcd13ifvqcag","pricing_plan_id":"free"},{"bike_id":"9298b705-018f-44c3-bc3f-c0a92bbd9d27","system_id":"levelo_inurba_marseille","lat":43.305706,"lon":5.365654,"is_reserved":false,"is_disabled":false,"rental_uris":{"android":"levelo://app?vid=9298b705-018f-44c3-bc3f-c0a92bbd9d27","ios":"levelo://app?vid=9298b705-018f-44c3-bc3f-c0a92bbd9d27"},"vehicle_type_id":"4","last_reported":1693652714,"current_range_meters":24000,"station_id":"ce4bgs12rcd13ifvqcag","pricing_plan_id":"free"},{"bike_id":"4cb6c6ba-3509-40a1-a851-ac2d2e32fcca","system_id":"levelo_inurba_marseille","lat":43.305706,"lon":5.365654,"is_reserved":false,"is_disabled":false,"rental_uris":{"android":"levelo://app?vid=4cb6c6ba-3509-40a1-a851-ac2d2e32fcca","ios":"levelo://app?vid=4cb6c6ba-3509-40a1-a851-ac2d2e32fcca"},"vehicle_type_id":"4","last_reported":1693652714,"current_range_meters":24000,"station_id":"ce4bgs12rcd13ifvqcag","pricing_plan_id":"free"},{"bike_id":"0fe14439-f5fb-4611-be00-cccecea170c2","system_id":"levelo_inurba_marseille","lat":43.305989,"lon":5.37225,"is_reserved":false,"is_disabled":false,"rental_uris":{"android":"levelo://app?vid=0fe14439-f5fb-4611-be00-cccecea170c2","ios":"levelo://app?vid=0fe14439-f5fb-4611-be00-cccecea170c2"},"vehicle_type_id":"4","last_reported":1693652714,"current_range_meters":28400,"station_id":"ce4bgqh2rcd13ifvqc4g","pricing_plan_id":"free"},{"bike_id":"95029aea-b326-4566-8485-78e6a94e0534","system_id":"levelo_inurba_marseille","lat":43.311125,"lon":5.377624,"is_reserved":false,"is_disabled":false,"rental_uris":{"android":"levelo://app?vid=95029aea-b326-4566-8485-78e6a94e0534","ios":"levelo://app?vid=95029aea-b326-4566-8485-78e6a94e0534"},"vehicle_type_id":"4","last_reported":1693652714,"current_range_meters":3600,"station_id":"ce4bgt92rcd13ifvqcg0","pricing_plan_id":"free"},{"bike_id":"a1329c23-d9ba-475b-9db8-13ed329e45bc","system_id":"levelo_inurba_marseille","lat":43.311125,"lon":5.377624,"is_reserved":false,"is_disabled":false,"rental_uris":{"android":"levelo://app?vid=a1329c23-d9ba-475b-9db8-13ed329e45bc","ios":"levelo://app?vid=a1329c23-d9ba-475b-9db8-13ed329e45bc"},"vehicle_type_id":"4","last_reported":1693652714,"current_range_meters":10800,"station_id":"ce4bgt92rcd13ifvqcg0","pricing_plan_id":"free"},{"bike_id":"b2c82aac-d7cf-4310-907c-1d6219c23cc6","system_id":"levelo_inurba_marseille","lat":43.31704,"lon":5.3775,"is_reserved":false,"is_disabled":false,"rental_uris":{"android":"levelo://app?vid=b2c82aac-d7cf-4310-907c-1d6219c23cc6","ios":"levelo://app?vid=b2c82aac-d7cf-4310-907c-1d6219c23cc6"},"vehicle_type_id":"4","last_reported":1693652714,"current_range_meters":24800,"station_id":"ce4bgth2rcd13ifvqch0","pricing_plan_id":"free"},{"bike_id":"cbd332e6-8ea0-428d-9035-f235e67f62de","system_id":"levelo_inurba_marseille","lat":43.317075,"lon":5.377367,"is_reserved":false,"is_disabled":false,"rental_uris":{"android":"levelo://app?vid=cbd332e6-8ea0-428d-9035-f235e67f62de","ios":"levelo://app?vid=cbd332e6-8ea0-428d-9035-f235e67f62de"},"vehicle_type_id":"4","last_reported":1693652714,"current_range_meters":27600,"station_id":"ce4bgth2rcd13ifvqch0","pricing_plan_id":"free"},{"bike_id":"cd2430b5-d827-457f-a12a-f29afa394529","system_id":"levelo_inurba_marseille","lat":43.31706,"lon":5.37751,"is_reserved":false,"is_disabled":false,"rental_uris":{"android":"levelo://app?vid=cd2430b5-d827-457f-a12a-f29afa394529","ios":"levelo://app?vid=cd2430b5-d827-457f-a12a-f29afa394529"},"vehicle_type_id":"4","last_reported":1693652714,"current_range_meters":21600,"station_id":"ce4bgth2rcd13ifvqch0","pricing_plan_id":"free"},{"bike_id":"8162ffaa-7be5-4297-aaba-3459fbd8c8fa","system_id":"levelo_inurba_marseille","lat":43.317075,"lon":5.377367,"is_reserved":false,"is_disabled":false,"rental_uris":{"android":"levelo://app?vid=8162ffaa-7be5-4297-aaba-3459fbd8c8fa","ios":"levelo://app?vid=8162ffaa-7be5-4297-aaba-3459fbd8c8fa"},"vehicle_type_id":"4","last_reported":1693652714,"current_range_meters":26800,"station_id":"ce4bgth2rcd13ifvqch0","pricing_plan_id":"free"},{"bike_id":"c8bb3a8b-8386-442a-b3a4-ab5a34351b09","system_id":"levelo_inurba_marseille","lat":43.317075,"lon":5.377367,"is_reserved":false,"is_disabled":false,"rental_uris":{"android":"levelo://app?vid=c8bb3a8b-8386-442a-b3a4-ab5a34351b09","ios":"levelo://app?vid=c8bb3a8b-8386-442a-b3a4-ab5a34351b09"},"vehicle_type_id":"4","last_reported":1693652714,"current_range_meters":30000,"station_id":"ce4bgth2rcd13ifvqch0","pricing_plan_id":"free"},{"bike_id":"6be39998-e5a7-413c-bc48-680c46555620","system_id":"levelo_inurba_marseille","lat":43.317075,"lon":5.377367,"is_reserved":false,"is_disabled":false,"rental_uris":{"android":"levelo://app?vid=6be39998-e5a7-413c-bc48-680c46555620","ios":"levelo://app?vid=6be39998-e5a7-413c-bc48-680c46555620"},"vehicle_type_id":"4","last_reported":1693652714,"current_range_meters":29200,"station_id":"ce4bgth2rcd13ifvqch0","pricing_plan_id":"free"},{"bike_id":"aadaadba-7860-4792-a31c-abbc7ee1b5a8","system_id":"levelo_inurba_marseille","lat":43.303,"lon":5.369,"is_reserved":false,"is_disabled":false,"rental_uris":{"android":"levelo://app?vid=aadaadba-7860-4792-a31c-abbc7ee1b5a8","ios":"levelo://app?vid=aadaadba-7860-4792-a31c-abbc7ee1b5a8"},"vehicle_type_id":"4","last_reported":1693652714,"current_range_meters":4000,"station_id":"ce4bgqh2rcd13ifvqc5g","pricing_plan_id":"free"},{"bike_id":"acab7b8c-3be7-46de-90b3-69be9bcf8a64","system_id":"levelo_inurba_marseille","lat":43.308012,"lon":5.381511,"is_reserved":false,"is_disabled":false,"rental_uris":{"android":"levelo://app?vid=acab7b8c-3be7-46de-90b3-69be9bcf8a64","ios":"levelo://app?vid=acab7b8c-3be7-46de-90b3-69be9bcf8a64"},"vehicle_type_id":"4","last_reported":1693652714,"current_range_meters":19200,"station_id":"ce4bgt12rcd13ifvqce0","pricing_plan_id":"free"},{"bike_id":"7cb6c239-674c-4753-a2c5-475f18512b60","system_id":"levelo_inurba_marseille","lat":43.304606,"lon":5.379026,"is_reserved":false,"is_disabled":false,"rental_uris":{"android":"levelo://app?vid=7cb6c239-674c-4753-a2c5-475f18512b60","ios":"levelo://app?vid=7cb6c239-674c-4753-a2c5-475f18512b60"},"vehicle_type_id":"4","last_reported":1693652714,"current_range_meters":31200,"station_id":"ce4bgup2rcd13ifvqcn0","pricing_plan_id":"free"},{"bike_id":"af92da6f-81fc-4cff-81fd-a5a39bc7bfbd","system_id":"levelo_inurba_marseille","lat":43.30153,"lon":5.37416,"is_reserved":false,"is_disabled":false,"rental_uris":{"android":"levelo://app?vid=af92da6f-81fc-4cff-81fd-a5a39bc7bfbd","ios":"levelo://app?vid=af92da6f-81fc-4cff-81fd-a5a39bc7bfbd"},"vehicle_type_id":"4","last_reported":1693652714,"current_range_meters":18400,"station_id":"ce4bgs92rcd13ifvqcc0","pricing_plan_id":"free"},{"bike_id":"c4f700e7-16fe-448e-9022-a8f1e34dc330","system_id":"levelo_inurba_marseille","lat":43.302784,"lon":5.377158,"is_reserved":false,"is_disabled":false,"rental_uris":{"android":"levelo://app?vid=c4f700e7-16fe-448e-9022-a8f1e34dc330","ios":"levelo://app?vid=c4f700e7-16fe-448e-9022-a8f1e34dc330"},"vehicle_type_id":"4","last_reported":1693652714,"current_range_meters":26400,"station_id":"ce4bguh2rcd13ifvqcj0","pricing_plan_id":"free"},{"bike_id":"913f446e-81d5-48f6-b47f-d1d9fcb91ef5","system_id":"levelo_inurba_marseille","lat":43.30144,"lon":5.37418,"is_reserved":false,"is_disabled":false,"rental_uris":{"android":"levelo://app?vid=913f446e-81d5-48f6-b47f-d1d9fcb91ef5","ios":"levelo://app?vid=913f446e-81d5-48f6-b47f-d1d9fcb91ef5"},"vehicle_type_id":"4","last_reported":1693652714,"current_range_meters":10400,"station_id":"ce4bgs92rcd13ifvqcc0","pricing_plan_id":"free"},{"bike_id":"aa521cce-3e18-49b0-8e9a-4bdcff0218b4","system_id":"levelo_inurba_marseille","lat":43.302784,"lon":5.377158,"is_reserved":false,"is_disabled":false,"rental_uris":{"android":"levelo://app?vid=aa521cce-3e18-49b0-8e9a-4bdcff0218b4","ios":"levelo://app?vid=aa521cce-3e18-49b0-8e9a-4bdcff0218b4"},"vehicle_type_id":"4","last_reported":1693652714,"current_range_meters":31600,"station_id":"ce4bguh2rcd13ifvqcj0","pricing_plan_id":"free"},{"bike_id":"54162816-c7cf-4d15-80d8-1401c8b9dee6","system_id":"levelo_inurba_marseille","lat":43.30137,"lon":5.37413,"is_reserved":false,"is_disabled":false,"rental_uris":{"android":"levelo://app?vid=54162816-c7cf-4d15-80d8-1401c8b9dee6","ios":"levelo://app?vid=54162816-c7cf-4d15-80d8-1401c8b9dee6"},"vehicle_type_id":"4","last_reported":1693652714,"current_range_meters":28400,"station_id":"ce4bgs92rcd13ifvqcc0","pricing_plan_id":"free"},{"bike_id":"77cc4a87-903a-4ac8-836f-05d771ccc1e4","system_id":"levelo_inurba_marseille","lat":43.31989,"lon":5.38139,"is_reserved":false,"is_disabled":false,"rental_uris":{"android":"levelo://app?vid=77cc4a87-903a-4ac8-836f-05d771ccc1e4","ios":"levelo://app?vid=77cc4a87-903a-4ac8-836f-05d771ccc1e4"},"vehicle_type_id":"4","last_reported":1693652714,"current_range_meters":24000,"station_id":"ce4bhr12rcd13ifvqhpg","pricing_plan_id":"free"},{"bike_id":"cc28612f-b913-4e07-81a1-e8a4df49747b","system_id":"levelo_inurba_marseille","lat":43.319935,"lon":5.381699,"is_reserved":false,"is_disabled":false,"rental_uris":{"android":"levelo://app?vid=cc28612f-b913-4e07-81a1-e8a4df49747b","ios":"levelo://app?vid=cc28612f-b913-4e07-81a1-e8a4df49747b"},"vehicle_type_id":"4","last_reported":1693652714,"current_range_meters":13600,"station_id":"ce4bhr12rcd13ifvqhpg","pricing_plan_id":"free"},{"bike_id":"c0aa06d4-ea1c-42f1-82e3-b4b98c641344","system_id":"levelo_inurba_marseille","lat":43.319935,"lon":5.381699,"is_reserved":false,"is_disabled":false,"rental_uris":{"android":"levelo://app?vid=c0aa06d4-ea1c-42f1-82e3-b4b98c641344","ios":"levelo://app?vid=c0aa06d4-ea1c-42f1-82e3-b4b98c641344"},"vehicle_type_id":"4","last_reported":1693652714,"current_range_meters":20800,"station_id":"ce4bhr12rcd13ifvqhpg","pricing_plan_id":"free"},{"bike_id":"b6abff1c-f097-4297-b7f5-e905b62cd8ab","system_id":"levelo_inurba_marseille","lat":43.319935,"lon":5.381699,"is_reserved":false,"is_disabled":false,"rental_uris":{"android":"levelo://app?vid=b6abff1c-f097-4297-b7f5-e905b62cd8ab","ios":"levelo://app?vid=b6abff1c-f097-4297-b7f5-e905b62cd8ab"},"vehicle_type_id":"4","last_reported":1693652714,"current_range_meters":16400,"station_id":"ce4bhr12rcd13ifvqhpg","pricing_plan_id":"free"},{"bike_id":"3ce12e8d-2187-433e-90ea-725012bee47a","system_id":"levelo_inurba_marseille","lat":43.31994,"lon":5.38138,"is_reserved":false,"is_disabled":false,"rental_uris":{"android":"levelo://app?vid=3ce12e8d-2187-433e-90ea-725012bee47a","ios":"levelo://app?vid=3ce12e8d-2187-433e-90ea-725012bee47a"},"vehicle_type_id":"4","last_reported":1693652714,"current_range_meters":23200,"station_id":"ce4bhr12rcd13ifvqhpg","pricing_plan_id":"free"},{"bike_id":"1e0f211e-028a-46cb-9a0d-9899ac904750","system_id":"levelo_inurba_marseille","lat":43.31994,"lon":5.3814,"is_reserved":false,"is_disabled":false,"rental_uris":{"android":"levelo://app?vid=1e0f211e-028a-46cb-9a0d-9899ac904750","ios":"levelo://app?vid=1e0f211e-028a-46cb-9a0d-9899ac904750"},"vehicle_type_id":"4","last_reported":1693652714,"current_range_meters":26400,"station_id":"ce4bhr12rcd13ifvqhpg","pricing_plan_id":"free"},{"bike_id":"d13e2fc0-5196-41d3-8d49-bf9314309b08","system_id":"levelo_inurba_marseille","lat":43.319935,"lon":5.381699,"is_reserved":false,"is_disabled":false,"rental_uris":{"android":"levelo://app?vid=d13e2fc0-5196-41d3-8d49-bf9314309b08","ios":"levelo://app?vid=d13e2fc0-5196-41d3-8d49-bf9314309b08"},"vehicle_type_id":"4","last_reported":1693652714,"current_range_meters":30000,"station_id":"ce4bhr12rcd13ifvqhpg","pricing_plan_id":"free"},{"bike_id":"6bd3fd7c-b334-49ec-afce-4db4692f91ef","system_id":"levelo_inurba_marseille","lat":43.31371,"lon":5.38498,"is_reserved":false,"is_disabled":false,"rental_uris":{"android":"levelo://app?vid=6bd3fd7c-b334-49ec-afce-4db4692f91ef","ios":"levelo://app?vid=6bd3fd7c-b334-49ec-afce-4db4692f91ef"},"vehicle_type_id":"4","last_reported":1693652714,"current_range_meters":21200,"station_id":"ce4bgt92rcd13ifvqcf0","pricing_plan_id":"free"},{"bike_id":"73d9ce63-ea74-4930-a4f2-3e3ac5a785f9","system_id":"levelo_inurba_marseille","lat":43.29969,"lon":5.37175,"is_reserved":false,"is_disabled":false,"rental_uris":{"android":"levelo://app?vid=73d9ce63-ea74-4930-a4f2-3e3ac5a785f9","ios":"levelo://app?vid=73d9ce63-ea74-4930-a4f2-3e3ac5a785f9"},"vehicle_type_id":"4","last_reported":1693652714,"current_range_meters":22000,"station_id":"ce4bgr92rcd13ifvqc7g","pricing_plan_id":"free"},{"bike_id":"acacba22-6d37-4feb-8dd9-458b527277ba","system_id":"levelo_inurba_marseille","lat":43.298433,"lon":5.362774,"is_reserved":false,"is_disabled":false,"rental_uris":{"android":"levelo://app?vid=acacba22-6d37-4feb-8dd9-458b527277ba","ios":"levelo://app?vid=acacba22-6d37-4feb-8dd9-458b527277ba"},"vehicle_type_id":"4","last_reported":1693652714,"current_range_meters":11600,"station_id":"ce4bgpp2rcd13ifvqc3g","pricing_plan_id":"free"},{"bike_id":"a22cfb21-4ee2-41fd-9d37-354c90de91c4","system_id":"levelo_inurba_marseille","lat":43.298433,"lon":5.362774,"is_reserved":false,"is_disabled":false,"rental_uris":{"android":"levelo://app?vid=a22cfb21-4ee2-41fd-9d37-354c90de91c4","ios":"levelo://app?vid=a22cfb21-4ee2-41fd-9d37-354c90de91c4"},"vehicle_type_id":"4","last_reported":1693652714,"current_range_meters":26000,"station_id":"ce4bgpp2rcd13ifvqc3g","pricing_plan_id":"free"},{"bike_id":"0d0260ca-d207-4cf4-9bd9-35b6eafd389e","system_id":"levelo_inurba_marseille","lat":43.305364,"lon":5.384119,"is_reserved":false,"is_disabled":false,"rental_uris":{"android":"levelo://app?vid=0d0260ca-d207-4cf4-9bd9-35b6eafd389e","ios":"levelo://app?vid=0d0260ca-d207-4cf4-9bd9-35b6eafd389e"},"vehicle_type_id":"4","last_reported":1693652714,"current_range_meters":24800,"station_id":"ce4bgg92rcd13ifvqb30","pricing_plan_id":"free"},{"bike_id":"90f70227-a58a-49b8-8409-d0351d3efa8e","system_id":"levelo_inurba_marseille","lat":43.298433,"lon":5.362774,"is_reserved":false,"is_disabled":false,"rental_uris":{"android":"levelo://app?vid=90f70227-a58a-49b8-8409-d0351d3efa8e","ios":"levelo://app?vid=90f70227-a58a-49b8-8409-d0351d3efa8e"},"vehicle_type_id":"4","last_reported":1693652714,"current_range_meters":26400,"station_id":"ce4bgpp2rcd13ifvqc3g","pricing_plan_id":"free"},{"bike_id":"de85bb3a-766a-4f26-8d11-878231fb5086","system_id":"levelo_inurba_marseille","lat":43.298437,"lon":5.36272,"is_reserved":false,"is_disabled":false,"rental_uris":{"android":"levelo://app?vid=de85bb3a-766a-4f26-8d11-878231fb5086","ios":"levelo://app?vid=de85bb3a-766a-4f26-8d11-878231fb5086"},"vehicle_type_id":"4","last_reported":1693652714,"current_range_meters":25600,"station_id":"ce4bgpp2rcd13ifvqc3g","pricing_plan_id":"free"},{"bike_id":"630131c4-7804-4400-b60c-238bad2986c5","system_id":"levelo_inurba_marseille","lat":43.305364,"lon":5.384119,"is_reserved":false,"is_disabled":false,"rental_uris":{"android":"levelo://app?vid=630131c4-7804-4400-b60c-238bad2986c5","ios":"levelo://app?vid=630131c4-7804-4400-b60c-238bad2986c5"},"vehicle_type_id":"4","last_reported":1693652714,"current_range_meters":26000,"station_id":"ce4bgg92rcd13ifvqb30","pricing_plan_id":"free"},{"bike_id":"7a4ce181-207a-413e-bbe9-2eb56ad8b2f7","system_id":"levelo_inurba_marseille","lat":43.298433,"lon":5.362774,"is_reserved":false,"is_disabled":false,"rental_uris":{"android":"levelo://app?vid=7a4ce181-207a-413e-bbe9-2eb56ad8b2f7","ios":"levelo://app?vid=7a4ce181-207a-413e-bbe9-2eb56ad8b2f7"},"vehicle_type_id":"4","last_reported":1693652714,"current_range_meters":3600,"station_id":"ce4bgpp2rcd13ifvqc3g","pricing_plan_id":"free"},{"bike_id":"882c92c4-2aa3-4872-9ff6-59d5d55e2e05","system_id":"levelo_inurba_marseille","lat":43.298433,"lon":5.362774,"is_reserved":false,"is_disabled":false,"rental_uris":{"android":"levelo://app?vid=882c92c4-2aa3-4872-9ff6-59d5d55e2e05","ios":"levelo://app?vid=882c92c4-2aa3-4872-9ff6-59d5d55e2e05"},"vehicle_type_id":"4","last_reported":1693652714,"current_range_meters":23600,"station_id":"ce4bgpp2rcd13ifvqc3g","pricing_plan_id":"free"},{"bike_id":"ef7d27a6-4e2b-45f4-a858-b27e7825c241","system_id":"levelo_inurba_marseille","lat":43.298433,"lon":5.362774,"is_reserved":false,"is_disabled":false,"rental_uris":{"android":"levelo://app?vid=ef7d27a6-4e2b-45f4-a858-b27e7825c241","ios":"levelo://app?vid=ef7d27a6-4e2b-45f4-a858-b27e7825c241"},"vehicle_type_id":"4","last_reported":1693652714,"current_range_meters":28400,"station_id":"ce4bgpp2rcd13ifvqc3g","pricing_plan_id":"free"},{"bike_id":"09465476-926c-4e55-9715-25a75c420137","system_id":"levelo_inurba_marseille","lat":43.311722,"lon":5.387247,"is_reserved":false,"is_disabled":false,"rental_uris":{"android":"levelo://app?vid=09465476-926c-4e55-9715-25a75c420137","ios":"levelo://app?vid=09465476-926c-4e55-9715-25a75c420137"},"vehicle_type_id":"4","last_reported":1693652714,"current_range_meters":28000,"station_id":"ce4bgv12rcd13ifvqcp0","pricing_plan_id":"free"},{"bike_id":"a3f90600-04ed-4ef3-88ce-e7d1b69684f6","system_id":"levelo_inurba_marseille","lat":43.311722,"lon":5.387247,"is_reserved":false,"is_disabled":false,"rental_uris":{"android":"levelo://app?vid=a3f90600-04ed-4ef3-88ce-e7d1b69684f6","ios":"levelo://app?vid=a3f90600-04ed-4ef3-88ce-e7d1b69684f6"},"vehicle_type_id":"4","last_reported":1693652714,"current_range_meters":24000,"station_id":"ce4bgv12rcd13ifvqcp0","pricing_plan_id":"free"},{"bike_id":"924d6452-f7f7-4baa-af9a-49926af70474","system_id":"levelo_inurba_marseille","lat":43.297794,"lon":5.370888,"is_reserved":false,"is_disabled":false,"rental_uris":{"android":"levelo://app?vid=924d6452-f7f7-4baa-af9a-49926af70474","ios":"levelo://app?vid=924d6452-f7f7-4baa-af9a-49926af70474"},"vehicle_type_id":"4","last_reported":1693652714,"current_range_meters":28400,"station_id":"ce4bgop2rcd13ifvqc1g","pricing_plan_id":"free"},{"bike_id":"f521be4e-e709-4248-ad37-4b884f868a80","system_id":"levelo_inurba_marseille","lat":43.297774,"lon":5.370875,"is_reserved":false,"is_disabled":false,"rental_uris":{"android":"levelo://app?vid=f521be4e-e709-4248-ad37-4b884f868a80","ios":"levelo://app?vid=f521be4e-e709-4248-ad37-4b884f868a80"},"vehicle_type_id":"4","last_reported":1693652714,"current_range_meters":19600,"station_id":"ce4bgop2rcd13ifvqc1g","pricing_plan_id":"free"},{"bike_id":"001b997c-8c8b-44af-b68c-3f4eaae111b4","system_id":"levelo_inurba_marseille","lat":43.29782,"lon":5.37118,"is_reserved":false,"is_disabled":false,"rental_uris":{"android":"levelo://app?vid=001b997c-8c8b-44af-b68c-3f4eaae111b4","ios":"levelo://app?vid=001b997c-8c8b-44af-b68c-3f4eaae111b4"},"vehicle_type_id":"4","last_reported":1693652714,"current_range_meters":24000,"station_id":"ce4bgop2rcd13ifvqc1g","pricing_plan_id":"free"},{"bike_id":"2376742f-0ee8-450d-beb5-275e5a1a8c65","system_id":"levelo_inurba_marseille","lat":43.297774,"lon":5.370875,"is_reserved":false,"is_disabled":false,"rental_uris":{"android":"levelo://app?vid=2376742f-0ee8-450d-beb5-275e5a1a8c65","ios":"levelo://app?vid=2376742f-0ee8-450d-beb5-275e5a1a8c65"},"vehicle_type_id":"4","last_reported":1693652714,"current_range_meters":31600,"station_id":"ce4bgop2rcd13ifvqc1g","pricing_plan_id":"free"},{"bike_id":"8143ebd5-c5c5-467f-a353-1c0066f90341","system_id":"levelo_inurba_marseille","lat":43.29772,"lon":5.37088,"is_reserved":false,"is_disabled":false,"rental_uris":{"android":"levelo://app?vid=8143ebd5-c5c5-467f-a353-1c0066f90341","ios":"levelo://app?vid=8143ebd5-c5c5-467f-a353-1c0066f90341"},"vehicle_type_id":"4","last_reported":1693652714,"current_range_meters":31200,"station_id":"ce4bgop2rcd13ifvqc1g","pricing_plan_id":"free"},{"bike_id":"61aecc97-3e80-4a49-8c3e-0135b524d154","system_id":"levelo_inurba_marseille","lat":43.32288,"lon":5.38268,"is_reserved":false,"is_disabled":false,"rental_uris":{"android":"levelo://app?vid=61aecc97-3e80-4a49-8c3e-0135b524d154","ios":"levelo://app?vid=61aecc97-3e80-4a49-8c3e-0135b524d154"},"vehicle_type_id":"4","last_reported":1693652714,"current_range_meters":20000,"station_id":"ce4bhr12rcd13ifvqhqg","pricing_plan_id":"free"},{"bike_id":"c29114e8-dc25-4be3-832f-1611beb9061c","system_id":"levelo_inurba_marseille","lat":43.32286,"lon":5.38274,"is_reserved":false,"is_disabled":false,"rental_uris":{"android":"levelo://app?vid=c29114e8-dc25-4be3-832f-1611beb9061c","ios":"levelo://app?vid=c29114e8-dc25-4be3-832f-1611beb9061c"},"vehicle_type_id":"4","last_reported":1693652714,"current_range_meters":23200,"station_id":"ce4bhr12rcd13ifvqhqg","pricing_plan_id":"free"},{"bike_id":"b4fa7e50-397e-411a-b982-4e24e0e9276a","system_id":"levelo_inurba_marseille","lat":43.297774,"lon":5.370875,"is_reserved":false,"is_disabled":false,"rental_uris":{"android":"levelo://app?vid=b4fa7e50-397e-411a-b982-4e24e0e9276a","ios":"levelo://app?vid=b4fa7e50-397e-411a-b982-4e24e0e9276a"},"vehicle_type_id":"4","last_reported":1693652714,"current_range_meters":14800,"station_id":"ce4bgop2rcd13ifvqc1g","pricing_plan_id":"free"},{"bike_id":"c5eee610-be09-4243-9cee-abef8479a037","system_id":"levelo_inurba_marseille","lat":43.32283,"lon":5.3828,"is_reserved":false,"is_disabled":false,"rental_uris":{"android":"levelo://app?vid=c5eee610-be09-4243-9cee-abef8479a037","ios":"levelo://app?vid=c5eee610-be09-4243-9cee-abef8479a037"},"vehicle_type_id":"4","last_reported":1693652714,"current_range_meters":12000,"station_id":"ce4bhr12rcd13ifvqhqg","pricing_plan_id":"free"},{"bike_id":"3d2a691c-74eb-4958-aebd-9ebc95f3d8a8","system_id":"levelo_inurba_marseille","lat":43.322872,"lon":5.382756,"is_reserved":false,"is_disabled":false,"rental_uris":{"android":"levelo://app?vid=3d2a691c-74eb-4958-aebd-9ebc95f3d8a8","ios":"levelo://app?vid=3d2a691c-74eb-4958-aebd-9ebc95f3d8a8"},"vehicle_type_id":"4","last_reported":1693652714,"current_range_meters":14400,"station_id":"ce4bhr12rcd13ifvqhqg","pricing_plan_id":"free"},{"bike_id":"bc8f34a2-0447-439b-8108-9a4250aef71a","system_id":"levelo_inurba_marseille","lat":43.322872,"lon":5.382756,"is_reserved":false,"is_disabled":false,"rental_uris":{"android":"levelo://app?vid=bc8f34a2-0447-439b-8108-9a4250aef71a","ios":"levelo://app?vid=bc8f34a2-0447-439b-8108-9a4250aef71a"},"vehicle_type_id":"4","last_reported":1693652714,"current_range_meters":27200,"station_id":"ce4bhr12rcd13ifvqhqg","pricing_plan_id":"free"},{"bike_id":"bd0bd295-6ecc-40c4-a4d0-89f645593756","system_id":"levelo_inurba_marseille","lat":43.297163,"lon":5.365866,"is_reserved":false,"is_disabled":false,"rental_uris":{"android":"levelo://app?vid=bd0bd295-6ecc-40c4-a4d0-89f645593756","ios":"levelo://app?vid=bd0bd295-6ecc-40c4-a4d0-89f645593756"},"vehicle_type_id":"4","last_reported":1693652714,"current_range_meters":21600,"station_id":"ce4bgn12rcd13ifvqbt0","pricing_plan_id":"free"},{"bike_id":"dd789220-e7b5-42c1-b9dc-dc4243148021","system_id":"levelo_inurba_marseille","lat":43.297163,"lon":5.365866,"is_reserved":false,"is_disabled":false,"rental_uris":{"android":"levelo://app?vid=dd789220-e7b5-42c1-b9dc-dc4243148021","ios":"levelo://app?vid=dd789220-e7b5-42c1-b9dc-dc4243148021"},"vehicle_type_id":"4","last_reported":1693652714,"current_range_meters":31600,"station_id":"ce4bgn12rcd13ifvqbt0","pricing_plan_id":"free"},{"bike_id":"af0441fc-751a-48ec-8b5e-ecd57c6e2330","system_id":"levelo_inurba_marseille","lat":43.2968,"lon":5.37291,"is_reserved":false,"is_disabled":false,"rental_uris":{"android":"levelo://app?vid=af0441fc-751a-48ec-8b5e-ecd57c6e2330","ios":"levelo://app?vid=af0441fc-751a-48ec-8b5e-ecd57c6e2330"},"vehicle_type_id":"4","last_reported":1693652714,"current_range_meters":22400,"station_id":"ce4bgk12rcd13ifvqbj0","pricing_plan_id":"free"},{"bike_id":"0e4df512-bbb1-4763-87c4-5023b7b9548d","system_id":"levelo_inurba_marseille","lat":43.2968,"lon":5.37291,"is_reserved":false,"is_disabled":false,"rental_uris":{"android":"levelo://app?vid=0e4df512-bbb1-4763-87c4-5023b7b9548d","ios":"levelo://app?vid=0e4df512-bbb1-4763-87c4-5023b7b9548d"},"vehicle_type_id":"4","last_reported":1693652714,"current_range_meters":27600,"station_id":"ce4bgk12rcd13ifvqbj0","pricing_plan_id":"free"},{"bike_id":"6ab14aa3-360a-473b-b834-7ee2fd4b11ca","system_id":"levelo_inurba_marseille","lat":43.2968,"lon":5.37291,"is_reserved":false,"is_disabled":false,"rental_uris":{"android":"levelo://app?vid=6ab14aa3-360a-473b-b834-7ee2fd4b11ca","ios":"levelo://app?vid=6ab14aa3-360a-473b-b834-7ee2fd4b11ca"},"vehicle_type_id":"4","last_reported":1693652714,"current_range_meters":13200,"station_id":"ce4bgk12rcd13ifvqbj0","pricing_plan_id":"free"},{"bike_id":"1f7d8c84-e2db-4a99-8419-bac7b6b867b2","system_id":"levelo_inurba_marseille","lat":43.29573,"lon":5.367355,"is_reserved":false,"is_disabled":false,"rental_uris":{"android":"levelo://app?vid=1f7d8c84-e2db-4a99-8419-bac7b6b867b2","ios":"levelo://app?vid=1f7d8c84-e2db-4a99-8419-bac7b6b867b2"},"vehicle_type_id":"4","last_reported":1693652714,"current_range_meters":26800,"station_id":"ce4bgph2rcd13ifvqc2g","pricing_plan_id":"free"},{"bike_id":"d3139180-8ba9-4c91-b6e4-8baae3c22113","system_id":"levelo_inurba_marseille","lat":43.296131,"lon":5.370773,"is_reserved":false,"is_disabled":false,"rental_uris":{"android":"levelo://app?vid=d3139180-8ba9-4c91-b6e4-8baae3c22113","ios":"levelo://app?vid=d3139180-8ba9-4c91-b6e4-8baae3c22113"},"vehicle_type_id":"4","last_reported":1693652714,"current_range_meters":31200,"station_id":"ce4bgnh2rcd13ifvqc0g","pricing_plan_id":"free"},{"bike_id":"055e17d3-1295-4085-8958-4900e237fcd3","system_id":"levelo_inurba_marseille","lat":43.296131,"lon":5.370791,"is_reserved":false,"is_disabled":false,"rental_uris":{"android":"levelo://app?vid=055e17d3-1295-4085-8958-4900e237fcd3","ios":"levelo://app?vid=055e17d3-1295-4085-8958-4900e237fcd3"},"vehicle_type_id":"4","last_reported":1693652714,"current_range_meters":26000,"station_id":"ce4bgnh2rcd13ifvqc0g","pricing_plan_id":"free"},{"bike_id":"c04e7d37-ff15-4cda-8483-e98cf7ff8faa","system_id":"levelo_inurba_marseille","lat":43.296129,"lon":5.370777,"is_reserved":false,"is_disabled":false,"rental_uris":{"android":"levelo://app?vid=c04e7d37-ff15-4cda-8483-e98cf7ff8faa","ios":"levelo://app?vid=c04e7d37-ff15-4cda-8483-e98cf7ff8faa"},"vehicle_type_id":"4","last_reported":1693652714,"current_range_meters":10800,"station_id":"ce4bgnh2rcd13ifvqc0g","pricing_plan_id":"free"},{"bike_id":"df9d81aa-922e-4ac6-b831-6750ca8c19d4","system_id":"levelo_inurba_marseille","lat":43.296131,"lon":5.370791,"is_reserved":false,"is_disabled":false,"rental_uris":{"android":"levelo://app?vid=df9d81aa-922e-4ac6-b831-6750ca8c19d4","ios":"levelo://app?vid=df9d81aa-922e-4ac6-b831-6750ca8c19d4"},"vehicle_type_id":"4","last_reported":1693652714,"current_range_meters":25600,"station_id":"ce4bgnh2rcd13ifvqc0g","pricing_plan_id":"free"},{"bike_id":"1f50ca83-f47e-49a8-bc34-919a542a67c0","system_id":"levelo_inurba_marseille","lat":43.296129,"lon":5.370777,"is_reserved":false,"is_disabled":false,"rental_uris":{"android":"levelo://app?vid=1f50ca83-f47e-49a8-bc34-919a542a67c0","ios":"levelo://app?vid=1f50ca83-f47e-49a8-bc34-919a542a67c0"},"vehicle_type_id":"4","last_reported":1693652714,"current_range_meters":19600,"station_id":"ce4bgnh2rcd13ifvqc0g","pricing_plan_id":"free"},{"bike_id":"65d934c8-ea94-404c-b991-a012f59c0b64","system_id":"levelo_inurba_marseille","lat":43.296129,"lon":5.370777,"is_reserved":false,"is_disabled":false,"rental_uris":{"android":"levelo://app?vid=65d934c8-ea94-404c-b991-a012f59c0b64","ios":"levelo://app?vid=65d934c8-ea94-404c-b991-a012f59c0b64"},"vehicle_type_id":"4","last_reported":1693652714,"current_range_meters":27600,"station_id":"ce4bgnh2rcd13ifvqc0g","pricing_plan_id":"free"},{"bike_id":"62470b30-343f-48c9-9ba1-857694ee5ce6","system_id":"levelo_inurba_marseille","lat":43.296131,"lon":5.370791,"is_reserved":false,"is_disabled":false,"rental_uris":{"android":"levelo://app?vid=62470b30-343f-48c9-9ba1-857694ee5ce6","ios":"levelo://app?vid=62470b30-343f-48c9-9ba1-857694ee5ce6"},"vehicle_type_id":"4","last_reported":1693652714,"current_range_meters":24000,"station_id":"ce4bgnh2rcd13ifvqc0g","pricing_plan_id":"free"},{"bike_id":"1af0db93-916a-4176-ac4a-4b26dcb09827","system_id":"levelo_inurba_marseille","lat":43.29583,"lon":5.36739,"is_reserved":false,"is_disabled":false,"rental_uris":{"android":"levelo://app?vid=1af0db93-916a-4176-ac4a-4b26dcb09827","ios":"levelo://app?vid=1af0db93-916a-4176-ac4a-4b26dcb09827"},"vehicle_type_id":"4","last_reported":1693652714,"current_range_meters":20000,"station_id":"ce4bgph2rcd13ifvqc2g","pricing_plan_id":"free"},{"bike_id":"cf1d5f1f-fc65-4635-b72a-4f27ee5eee7a","system_id":"levelo_inurba_marseille","lat":43.29573,"lon":5.367355,"is_reserved":false,"is_disabled":false,"rental_uris":{"android":"levelo://app?vid=cf1d5f1f-fc65-4635-b72a-4f27ee5eee7a","ios":"levelo://app?vid=cf1d5f1f-fc65-4635-b72a-4f27ee5eee7a"},"vehicle_type_id":"4","last_reported":1693652714,"current_range_meters":26000,"station_id":"ce4bgph2rcd13ifvqc2g","pricing_plan_id":"free"},{"bike_id":"56a019eb-606e-4a1c-b47d-3846ddc40e33","system_id":"levelo_inurba_marseille","lat":43.29573,"lon":5.367355,"is_reserved":false,"is_disabled":false,"rental_uris":{"android":"levelo://app?vid=56a019eb-606e-4a1c-b47d-3846ddc40e33","ios":"levelo://app?vid=56a019eb-606e-4a1c-b47d-3846ddc40e33"},"vehicle_type_id":"4","last_reported":1693652714,"current_range_meters":30800,"station_id":"ce4bgph2rcd13ifvqc2g","pricing_plan_id":"free"},{"bike_id":"7652d723-d2a7-4295-a70f-50992c0a2cfc","system_id":"levelo_inurba_marseille","lat":43.29573,"lon":5.367355,"is_reserved":false,"is_disabled":false,"rental_uris":{"android":"levelo://app?vid=7652d723-d2a7-4295-a70f-50992c0a2cfc","ios":"levelo://app?vid=7652d723-d2a7-4295-a70f-50992c0a2cfc"},"vehicle_type_id":"4","last_reported":1693652714,"current_range_meters":27200,"station_id":"ce4bgph2rcd13ifvqc2g","pricing_plan_id":"free"},{"bike_id":"986d8cce-c894-4cd8-8c10-751feb196f85","system_id":"levelo_inurba_marseille","lat":43.29577,"lon":5.36738,"is_reserved":false,"is_disabled":false,"rental_uris":{"android":"levelo://app?vid=986d8cce-c894-4cd8-8c10-751feb196f85","ios":"levelo://app?vid=986d8cce-c894-4cd8-8c10-751feb196f85"},"vehicle_type_id":"4","last_reported":1693652714,"current_range_meters":30000,"station_id":"ce4bgph2rcd13ifvqc2g","pricing_plan_id":"free"},{"bike_id":"01ae45b6-73a2-41ad-bb65-ffb3b75aac38","system_id":"levelo_inurba_marseille","lat":43.29573,"lon":5.367355,"is_reserved":false,"is_disabled":false,"rental_uris":{"android":"levelo://app?vid=01ae45b6-73a2-41ad-bb65-ffb3b75aac38","ios":"levelo://app?vid=01ae45b6-73a2-41ad-bb65-ffb3b75aac38"},"vehicle_type_id":"4","last_reported":1693652714,"current_range_meters":21600,"station_id":"ce4bgph2rcd13ifvqc2g","pricing_plan_id":"free"},{"bike_id":"9777157f-d8fd-4c38-bc2f-0fc7cf8a2f08","system_id":"levelo_inurba_marseille","lat":43.296935,"lon":5.376544,"is_reserved":false,"is_disabled":false,"rental_uris":{"android":"levelo://app?vid=9777157f-d8fd-4c38-bc2f-0fc7cf8a2f08","ios":"levelo://app?vid=9777157f-d8fd-4c38-bc2f-0fc7cf8a2f08"},"vehicle_type_id":"4","last_reported":1693652714,"current_range_meters":14000,"station_id":"ce4bgkh2rcd13ifvqbl0","pricing_plan_id":"free"},{"bike_id":"74603b1d-5a06-445b-bae1-cbfb427aa90e","system_id":"levelo_inurba_marseille","lat":43.30945,"lon":5.39047,"is_reserved":false,"is_disabled":false,"rental_uris":{"android":"levelo://app?vid=74603b1d-5a06-445b-bae1-cbfb427aa90e","ios":"levelo://app?vid=74603b1d-5a06-445b-bae1-cbfb427aa90e"},"vehicle_type_id":"4","last_reported":1693652714,"current_range_meters":31200,"station_id":"ce4bgup2rcd13ifvqco0","pricing_plan_id":"free"},{"bike_id":"2c93ce6f-c5e1-4ec9-9941-ebb7469bb8f2","system_id":"levelo_inurba_marseille","lat":43.31763,"lon":5.39005,"is_reserved":false,"is_disabled":false,"rental_uris":{"android":"levelo://app?vid=2c93ce6f-c5e1-4ec9-9941-ebb7469bb8f2","ios":"levelo://app?vid=2c93ce6f-c5e1-4ec9-9941-ebb7469bb8f2"},"vehicle_type_id":"4","last_reported":1693652714,"current_range_meters":16400,"station_id":"ce4bhqp2rcd13ifvqhng","pricing_plan_id":"free"},{"bike_id":"1b5b4211-83a3-483e-9cdf-2b196fba5adb","system_id":"levelo_inurba_marseille","lat":43.31745,"lon":5.39014,"is_reserved":false,"is_disabled":false,"rental_uris":{"android":"levelo://app?vid=1b5b4211-83a3-483e-9cdf-2b196fba5adb","ios":"levelo://app?vid=1b5b4211-83a3-483e-9cdf-2b196fba5adb"},"vehicle_type_id":"4","last_reported":1693652714,"current_range_meters":31200,"station_id":"ce4bhqp2rcd13ifvqhng","pricing_plan_id":"free"},{"bike_id":"5ed040b5-07fc-421c-a106-d68afc9d9f9f","system_id":"levelo_inurba_marseille","lat":43.31752,"lon":5.39017,"is_reserved":false,"is_disabled":false,"rental_uris":{"android":"levelo://app?vid=5ed040b5-07fc-421c-a106-d68afc9d9f9f","ios":"levelo://app?vid=5ed040b5-07fc-421c-a106-d68afc9d9f9f"},"vehicle_type_id":"4","last_reported":1693652714,"current_range_meters":28000,"station_id":"ce4bhqp2rcd13ifvqhng","pricing_plan_id":"free"},{"bike_id":"9b40ba95-867a-4a95-98f3-a3dbf1eaca73","system_id":"levelo_inurba_marseille","lat":43.3175,"lon":5.3902,"is_reserved":false,"is_disabled":false,"rental_uris":{"android":"levelo://app?vid=9b40ba95-867a-4a95-98f3-a3dbf1eaca73","ios":"levelo://app?vid=9b40ba95-867a-4a95-98f3-a3dbf1eaca73"},"vehicle_type_id":"4","last_reported":1693652714,"current_range_meters":21600,"station_id":"ce4bhqp2rcd13ifvqhng","pricing_plan_id":"free"},{"bike_id":"86d37462-6f2c-4ee1-b5e1-16f3e9285866","system_id":"levelo_inurba_marseille","lat":43.31755,"lon":5.39023,"is_reserved":false,"is_disabled":false,"rental_uris":{"android":"levelo://app?vid=86d37462-6f2c-4ee1-b5e1-16f3e9285866","ios":"levelo://app?vid=86d37462-6f2c-4ee1-b5e1-16f3e9285866"},"vehicle_type_id":"4","last_reported":1693652714,"current_range_meters":16800,"station_id":"ce4bhqp2rcd13ifvqhng","pricing_plan_id":"free"},{"bike_id":"2d38d843-9501-4a8b-8d1e-e53e054245cc","system_id":"levelo_inurba_marseille","lat":43.29702,"lon":5.37811,"is_reserved":false,"is_disabled":false,"rental_uris":{"android":"levelo://app?vid=2d38d843-9501-4a8b-8d1e-e53e054245cc","ios":"levelo://app?vid=2d38d843-9501-4a8b-8d1e-e53e054245cc"},"vehicle_type_id":"4","last_reported":1693652714,"current_range_meters":28400,"station_id":"","pricing_plan_id":"free"},{"bike_id":"6ba8da7e-09a6-488f-93ed-b3576d1b560f","system_id":"levelo_inurba_marseille","lat":43.29808,"lon":5.38093,"is_reserved":false,"is_disabled":false,"rental_uris":{"android":"levelo://app?vid=6ba8da7e-09a6-488f-93ed-b3576d1b560f","ios":"levelo://app?vid=6ba8da7e-09a6-488f-93ed-b3576d1b560f"},"vehicle_type_id":"4","last_reported":1693652714,"current_range_meters":28400,"station_id":"ce4bgip2rcd13ifvqbb0","pricing_plan_id":"free"},{"bike_id":"315abf67-316d-4428-b38a-d5dc54cfb5c6","system_id":"levelo_inurba_marseille","lat":43.298037,"lon":5.381066,"is_reserved":false,"is_disabled":false,"rental_uris":{"android":"levelo://app?vid=315abf67-316d-4428-b38a-d5dc54cfb5c6","ios":"levelo://app?vid=315abf67-316d-4428-b38a-d5dc54cfb5c6"},"vehicle_type_id":"4","last_reported":1693652714,"current_range_meters":0,"station_id":"ce4bgip2rcd13ifvqbb0","pricing_plan_id":"free"},{"bike_id":"4eb2b8bc-0299-4b71-860a-a6f8651049fd","system_id":"levelo_inurba_marseille","lat":43.298037,"lon":5.381066,"is_reserved":false,"is_disabled":false,"rental_uris":{"android":"levelo://app?vid=4eb2b8bc-0299-4b71-860a-a6f8651049fd","ios":"levelo://app?vid=4eb2b8bc-0299-4b71-860a-a6f8651049fd"},"vehicle_type_id":"4","last_reported":1693652714,"current_range_meters":21200,"station_id":"ce4bgip2rcd13ifvqbb0","pricing_plan_id":"free"},{"bike_id":"07c70b8b-25e6-4b92-8162-6a397a158397","system_id":"levelo_inurba_marseille","lat":43.295748,"lon":5.37522,"is_reserved":false,"is_disabled":false,"rental_uris":{"android":"levelo://app?vid=07c70b8b-25e6-4b92-8162-6a397a158397","ios":"levelo://app?vid=07c70b8b-25e6-4b92-8162-6a397a158397"},"vehicle_type_id":"4","last_reported":1693652714,"current_range_meters":12000,"station_id":"ce4bgh92rcd13ifvqb50","pricing_plan_id":"free"},{"bike_id":"ccd97725-04ac-4fd9-9661-ffc54b882dc9","system_id":"levelo_inurba_marseille","lat":43.295748,"lon":5.37522,"is_reserved":false,"is_disabled":false,"rental_uris":{"android":"levelo://app?vid=ccd97725-04ac-4fd9-9661-ffc54b882dc9","ios":"levelo://app?vid=ccd97725-04ac-4fd9-9661-ffc54b882dc9"},"vehicle_type_id":"4","last_reported":1693652714,"current_range_meters":18000,"station_id":"ce4bgh92rcd13ifvqb50","pricing_plan_id":"free"},{"bike_id":"6d048559-415f-4361-a440-52dea9bc3af3","system_id":"levelo_inurba_marseille","lat":43.295748,"lon":5.37522,"is_reserved":false,"is_disabled":false,"rental_uris":{"android":"levelo://app?vid=6d048559-415f-4361-a440-52dea9bc3af3","ios":"levelo://app?vid=6d048559-415f-4361-a440-52dea9bc3af3"},"vehicle_type_id":"4","last_reported":1693652714,"current_range_meters":26800,"station_id":"ce4bgh92rcd13ifvqb50","pricing_plan_id":"free"},{"bike_id":"e39fe441-bf0c-4b17-8ef2-92913bd81f9f","system_id":"levelo_inurba_marseille","lat":43.29572,"lon":5.37509,"is_reserved":false,"is_disabled":false,"rental_uris":{"android":"levelo://app?vid=e39fe441-bf0c-4b17-8ef2-92913bd81f9f","ios":"levelo://app?vid=e39fe441-bf0c-4b17-8ef2-92913bd81f9f"},"vehicle_type_id":"4","last_reported":1693652714,"current_range_meters":5200,"station_id":"ce4bgh92rcd13ifvqb50","pricing_plan_id":"free"},{"bike_id":"5c32a767-3d45-4150-8287-9c8d7195adb4","system_id":"levelo_inurba_marseille","lat":43.30428,"lon":5.38884,"is_reserved":false,"is_disabled":false,"rental_uris":{"android":"levelo://app?vid=5c32a767-3d45-4150-8287-9c8d7195adb4","ios":"levelo://app?vid=5c32a767-3d45-4150-8287-9c8d7195adb4"},"vehicle_type_id":"4","last_reported":1693652714,"current_range_meters":1600,"station_id":"ce4bgk12rcd13ifvqbi0","pricing_plan_id":"free"},{"bike_id":"1b403106-0211-4ba5-8951-a6e6bf64d1cf","system_id":"levelo_inurba_marseille","lat":43.30431,"lon":5.38889,"is_reserved":false,"is_disabled":false,"rental_uris":{"android":"levelo://app?vid=1b403106-0211-4ba5-8951-a6e6bf64d1cf","ios":"levelo://app?vid=1b403106-0211-4ba5-8951-a6e6bf64d1cf"},"vehicle_type_id":"4","last_reported":1693652714,"current_range_meters":16800,"station_id":"ce4bgk12rcd13ifvqbi0","pricing_plan_id":"free"},{"bike_id":"4a8ac820-eb89-4de1-84da-1a36d768086d","system_id":"levelo_inurba_marseille","lat":43.3043,"lon":5.3889,"is_reserved":false,"is_disabled":false,"rental_uris":{"android":"levelo://app?vid=4a8ac820-eb89-4de1-84da-1a36d768086d","ios":"levelo://app?vid=4a8ac820-eb89-4de1-84da-1a36d768086d"},"vehicle_type_id":"4","last_reported":1693652714,"current_range_meters":31200,"station_id":"ce4bgk12rcd13ifvqbi0","pricing_plan_id":"free"},{"bike_id":"d9600d82-1f8a-4395-bee2-f2314aa5c123","system_id":"levelo_inurba_marseille","lat":43.3043,"lon":5.38898,"is_reserved":false,"is_disabled":false,"rental_uris":{"android":"levelo://app?vid=d9600d82-1f8a-4395-bee2-f2314aa5c123","ios":"levelo://app?vid=d9600d82-1f8a-4395-bee2-f2314aa5c123"},"vehicle_type_id":"4","last_reported":1693652714,"current_range_meters":4800,"station_id":"ce4bgk12rcd13ifvqbi0","pricing_plan_id":"free"},{"bike_id":"269ff2db-9291-4256-905c-0ee22ecaa334","system_id":"levelo_inurba_marseille","lat":43.295748,"lon":5.37522,"is_reserved":false,"is_disabled":false,"rental_uris":{"android":"levelo://app?vid=269ff2db-9291-4256-905c-0ee22ecaa334","ios":"levelo://app?vid=269ff2db-9291-4256-905c-0ee22ecaa334"},"vehicle_type_id":"4","last_reported":1693652714,"current_range_meters":6000,"station_id":"ce4bgh92rcd13ifvqb50","pricing_plan_id":"free"},{"bike_id":"e142034a-56ac-4104-9f10-f2bed597c874","system_id":"levelo_inurba_marseille","lat":43.295748,"lon":5.37522,"is_reserved":false,"is_disabled":false,"rental_uris":{"android":"levelo://app?vid=e142034a-56ac-4104-9f10-f2bed597c874","ios":"levelo://app?vid=e142034a-56ac-4104-9f10-f2bed597c874"},"vehicle_type_id":"4","last_reported":1693652714,"current_range_meters":24800,"station_id":"ce4bgh92rcd13ifvqb50","pricing_plan_id":"free"},{"bike_id":"2d5fb393-2997-40b4-86c2-5ccfe8bb308d","system_id":"levelo_inurba_marseille","lat":43.29604,"lon":5.37726,"is_reserved":false,"is_disabled":false,"rental_uris":{"android":"levelo://app?vid=2d5fb393-2997-40b4-86c2-5ccfe8bb308d","ios":"levelo://app?vid=2d5fb393-2997-40b4-86c2-5ccfe8bb308d"},"vehicle_type_id":"4","last_reported":1693652714,"current_range_meters":13600,"station_id":"ce4bgi92rcd13ifvqb90","pricing_plan_id":"free"},{"bike_id":"2f731d75-ca36-47dc-90a1-ee32ee35af00","system_id":"levelo_inurba_marseille","lat":43.295279,"lon":5.375048,"is_reserved":false,"is_disabled":false,"rental_uris":{"android":"levelo://app?vid=2f731d75-ca36-47dc-90a1-ee32ee35af00","ios":"levelo://app?vid=2f731d75-ca36-47dc-90a1-ee32ee35af00"},"vehicle_type_id":"4","last_reported":1693652714,"current_range_meters":12400,"station_id":"ce4bgkp2rcd13ifvqbmg","pricing_plan_id":"free"},{"bike_id":"e3e3286b-dedd-483f-b588-d76c318a404a","system_id":"levelo_inurba_marseille","lat":43.29524,"lon":5.3749,"is_reserved":false,"is_disabled":false,"rental_uris":{"android":"levelo://app?vid=e3e3286b-dedd-483f-b588-d76c318a404a","ios":"levelo://app?vid=e3e3286b-dedd-483f-b588-d76c318a404a"},"vehicle_type_id":"4","last_reported":1693652714,"current_range_meters":24800,"station_id":"ce4bgkp2rcd13ifvqbmg","pricing_plan_id":"free"},{"bike_id":"97211f23-3dc6-41c9-9b6e-8ba1d75c0c7d","system_id":"levelo_inurba_marseille","lat":43.295279,"lon":5.375048,"is_reserved":false,"is_disabled":false,"rental_uris":{"android":"levelo://app?vid=97211f23-3dc6-41c9-9b6e-8ba1d75c0c7d","ios":"levelo://app?vid=97211f23-3dc6-41c9-9b6e-8ba1d75c0c7d"},"vehicle_type_id":"4","last_reported":1693652714,"current_range_meters":29600,"station_id":"ce4bgkp2rcd13ifvqbmg","pricing_plan_id":"free"},{"bike_id":"5ea294b0-1b00-46a9-bb2a-1205a78ada0b","system_id":"levelo_inurba_marseille","lat":43.299717,"lon":5.384845,"is_reserved":false,"is_disabled":false,"rental_uris":{"android":"levelo://app?vid=5ea294b0-1b00-46a9-bb2a-1205a78ada0b","ios":"levelo://app?vid=5ea294b0-1b00-46a9-bb2a-1205a78ada0b"},"vehicle_type_id":"4","last_reported":1693652714,"current_range_meters":5200,"station_id":"ce4bgj92rcd13ifvqbd0","pricing_plan_id":"free"},{"bike_id":"02c393f1-fc71-428e-9d2e-bd1d3bee5bd9","system_id":"levelo_inurba_marseille","lat":43.295279,"lon":5.375048,"is_reserved":false,"is_disabled":false,"rental_uris":{"android":"levelo://app?vid=02c393f1-fc71-428e-9d2e-bd1d3bee5bd9","ios":"levelo://app?vid=02c393f1-fc71-428e-9d2e-bd1d3bee5bd9"},"vehicle_type_id":"4","last_reported":1693652714,"current_range_meters":26000,"station_id":"ce4bgkp2rcd13ifvqbmg","pricing_plan_id":"free"},{"bike_id":"a642e142-f08a-4cb9-ab1b-ad74f917fa97","system_id":"levelo_inurba_marseille","lat":43.295279,"lon":5.375048,"is_reserved":false,"is_disabled":false,"rental_uris":{"android":"levelo://app?vid=a642e142-f08a-4cb9-ab1b-ad74f917fa97","ios":"levelo://app?vid=a642e142-f08a-4cb9-ab1b-ad74f917fa97"},"vehicle_type_id":"4","last_reported":1693652714,"current_range_meters":28800,"station_id":"ce4bgkp2rcd13ifvqbmg","pricing_plan_id":"free"},{"bike_id":"3d584c0b-2321-468d-9be7-f6941a293863","system_id":"levelo_inurba_marseille","lat":43.299717,"lon":5.384845,"is_reserved":false,"is_disabled":false,"rental_uris":{"android":"levelo://app?vid=3d584c0b-2321-468d-9be7-f6941a293863","ios":"levelo://app?vid=3d584c0b-2321-468d-9be7-f6941a293863"},"vehicle_type_id":"4","last_reported":1693652714,"current_range_meters":20800,"station_id":"ce4bgj92rcd13ifvqbd0","pricing_plan_id":"free"},{"bike_id":"a3c4d14f-2b21-4746-bfb3-4a72c53e5335","system_id":"levelo_inurba_marseille","lat":43.295279,"lon":5.375048,"is_reserved":false,"is_disabled":false,"rental_uris":{"android":"levelo://app?vid=a3c4d14f-2b21-4746-bfb3-4a72c53e5335","ios":"levelo://app?vid=a3c4d14f-2b21-4746-bfb3-4a72c53e5335"},"vehicle_type_id":"4","last_reported":1693652714,"current_range_meters":28800,"station_id":"ce4bgkp2rcd13ifvqbmg","pricing_plan_id":"free"},{"bike_id":"0250c5ea-edfb-491f-a74f-6ccf6e2ffdd2","system_id":"levelo_inurba_marseille","lat":43.295279,"lon":5.375048,"is_reserved":false,"is_disabled":false,"rental_uris":{"android":"levelo://app?vid=0250c5ea-edfb-491f-a74f-6ccf6e2ffdd2","ios":"levelo://app?vid=0250c5ea-edfb-491f-a74f-6ccf6e2ffdd2"},"vehicle_type_id":"4","last_reported":1693652714,"current_range_meters":27600,"station_id":"ce4bgkp2rcd13ifvqbmg","pricing_plan_id":"free"},{"bike_id":"9180c84f-0f25-4355-8dec-d34711128242","system_id":"levelo_inurba_marseille","lat":43.32363,"lon":5.38875,"is_reserved":false,"is_disabled":false,"rental_uris":{"android":"levelo://app?vid=9180c84f-0f25-4355-8dec-d34711128242","ios":"levelo://app?vid=9180c84f-0f25-4355-8dec-d34711128242"},"vehicle_type_id":"4","last_reported":1693652714,"current_range_meters":21200,"station_id":"ce4bhqp2rcd13ifvqhog","pricing_plan_id":"free"},{"bike_id":"75dd2d9b-e11c-4209-90bf-8c81a9698c47","system_id":"levelo_inurba_marseille","lat":43.32363,"lon":5.38875,"is_reserved":false,"is_disabled":false,"rental_uris":{"android":"levelo://app?vid=75dd2d9b-e11c-4209-90bf-8c81a9698c47","ios":"levelo://app?vid=75dd2d9b-e11c-4209-90bf-8c81a9698c47"},"vehicle_type_id":"4","last_reported":1693652714,"current_range_meters":27200,"station_id":"ce4bhqp2rcd13ifvqhog","pricing_plan_id":"free"},{"bike_id":"8181e861-4f28-43e6-b352-b668aa565979","system_id":"levelo_inurba_marseille","lat":43.32361,"lon":5.38881,"is_reserved":false,"is_disabled":false,"rental_uris":{"android":"levelo://app?vid=8181e861-4f28-43e6-b352-b668aa565979","ios":"levelo://app?vid=8181e861-4f28-43e6-b352-b668aa565979"},"vehicle_type_id":"4","last_reported":1693652714,"current_range_meters":27600,"station_id":"ce4bhqp2rcd13ifvqhog","pricing_plan_id":"free"},{"bike_id":"ff25b2c0-9288-4710-aefe-153e38ec535b","system_id":"levelo_inurba_marseille","lat":43.32364,"lon":5.38882,"is_reserved":false,"is_disabled":false,"rental_uris":{"android":"levelo://app?vid=ff25b2c0-9288-4710-aefe-153e38ec535b","ios":"levelo://app?vid=ff25b2c0-9288-4710-aefe-153e38ec535b"},"vehicle_type_id":"4","last_reported":1693652714,"current_range_meters":18800,"station_id":"ce4bhqp2rcd13ifvqhog","pricing_plan_id":"free"},{"bike_id":"66f9b899-9afc-428f-834e-64755a969a1b","system_id":"levelo_inurba_marseille","lat":43.32357,"lon":5.38889,"is_reserved":false,"is_disabled":false,"rental_uris":{"android":"levelo://app?vid=66f9b899-9afc-428f-834e-64755a969a1b","ios":"levelo://app?vid=66f9b899-9afc-428f-834e-64755a969a1b"},"vehicle_type_id":"4","last_reported":1693652714,"current_range_meters":22000,"station_id":"ce4bhqp2rcd13ifvqhog","pricing_plan_id":"free"},{"bike_id":"04bd86b5-0561-4cf7-b54e-88dfd8a933b3","system_id":"levelo_inurba_marseille","lat":43.32364,"lon":5.38883,"is_reserved":false,"is_disabled":false,"rental_uris":{"android":"levelo://app?vid=04bd86b5-0561-4cf7-b54e-88dfd8a933b3","ios":"levelo://app?vid=04bd86b5-0561-4cf7-b54e-88dfd8a933b3"},"vehicle_type_id":"4","last_reported":1693652714,"current_range_meters":27200,"station_id":"ce4bhqp2rcd13ifvqhog","pricing_plan_id":"free"},{"bike_id":"d1b6c76b-72f9-4ed2-9124-7ec62e1f65b7","system_id":"levelo_inurba_marseille","lat":43.32361,"lon":5.38886,"is_reserved":false,"is_disabled":false,"rental_uris":{"android":"levelo://app?vid=d1b6c76b-72f9-4ed2-9124-7ec62e1f65b7","ios":"levelo://app?vid=d1b6c76b-72f9-4ed2-9124-7ec62e1f65b7"},"vehicle_type_id":"4","last_reported":1693652714,"current_range_meters":4400,"station_id":"ce4bhqp2rcd13ifvqhog","pricing_plan_id":"free"},{"bike_id":"982e8d03-ab6f-4922-8981-759d28ba6ba2","system_id":"levelo_inurba_marseille","lat":43.32361,"lon":5.38887,"is_reserved":false,"is_disabled":false,"rental_uris":{"android":"levelo://app?vid=982e8d03-ab6f-4922-8981-759d28ba6ba2","ios":"levelo://app?vid=982e8d03-ab6f-4922-8981-759d28ba6ba2"},"vehicle_type_id":"4","last_reported":1693652714,"current_range_meters":0,"station_id":"ce4bhqp2rcd13ifvqhog","pricing_plan_id":"free"},{"bike_id":"d0fa741a-9313-4b00-8f53-4e67ad201f8a","system_id":"levelo_inurba_marseille","lat":43.32367,"lon":5.38882,"is_reserved":false,"is_disabled":false,"rental_uris":{"android":"levelo://app?vid=d0fa741a-9313-4b00-8f53-4e67ad201f8a","ios":"levelo://app?vid=d0fa741a-9313-4b00-8f53-4e67ad201f8a"},"vehicle_type_id":"4","last_reported":1693652714,"current_range_meters":22400,"station_id":"ce4bhqp2rcd13ifvqhog","pricing_plan_id":"free"},{"bike_id":"899db4cf-53c9-490f-9588-c2dabe0e6d13","system_id":"levelo_inurba_marseille","lat":43.32369,"lon":5.38881,"is_reserved":false,"is_disabled":false,"rental_uris":{"android":"levelo://app?vid=899db4cf-53c9-490f-9588-c2dabe0e6d13","ios":"levelo://app?vid=899db4cf-53c9-490f-9588-c2dabe0e6d13"},"vehicle_type_id":"4","last_reported":1693652714,"current_range_meters":2400,"station_id":"ce4bhqp2rcd13ifvqhog","pricing_plan_id":"free"},{"bike_id":"df89e0ad-9ac5-4d8c-9181-83c1d4b49783","system_id":"levelo_inurba_marseille","lat":43.32367,"lon":5.388836,"is_reserved":false,"is_disabled":false,"rental_uris":{"android":"levelo://app?vid=df89e0ad-9ac5-4d8c-9181-83c1d4b49783","ios":"levelo://app?vid=df89e0ad-9ac5-4d8c-9181-83c1d4b49783"},"vehicle_type_id":"4","last_reported":1693652714,"current_range_meters":15200,"station_id":"ce4bhqp2rcd13ifvqhog","pricing_plan_id":"free"},{"bike_id":"bde3f9c5-6b16-4476-a791-0642444d2e84","system_id":"levelo_inurba_marseille","lat":43.29602,"lon":5.381084,"is_reserved":false,"is_disabled":false,"rental_uris":{"android":"levelo://app?vid=bde3f9c5-6b16-4476-a791-0642444d2e84","ios":"levelo://app?vid=bde3f9c5-6b16-4476-a791-0642444d2e84"},"vehicle_type_id":"4","last_reported":1693652714,"current_range_meters":31600,"station_id":"ce4bgl12rcd13ifvqbo0","pricing_plan_id":"free"},{"bike_id":"914582d8-3637-482a-acba-fa0c03d87b28","system_id":"levelo_inurba_marseille","lat":43.29307,"lon":5.37167,"is_reserved":false,"is_disabled":false,"rental_uris":{"android":"levelo://app?vid=914582d8-3637-482a-acba-fa0c03d87b28","ios":"levelo://app?vid=914582d8-3637-482a-acba-fa0c03d87b28"},"vehicle_type_id":"4","last_reported":1693652714,"current_range_meters":28800,"station_id":"ce4bgh92rcd13ifvqb40","pricing_plan_id":"free"},{"bike_id":"9f616d29-16c8-4b37-ab38-d20afc65a261","system_id":"levelo_inurba_marseille","lat":43.29278,"lon":5.36839,"is_reserved":false,"is_disabled":false,"rental_uris":{"android":"levelo://app?vid=9f616d29-16c8-4b37-ab38-d20afc65a261","ios":"levelo://app?vid=9f616d29-16c8-4b37-ab38-d20afc65a261"},"vehicle_type_id":"4","last_reported":1693652714,"current_range_meters":25600,"station_id":"ce4bhbp2rcd13ifvqesg","pricing_plan_id":"free"},{"bike_id":"07bec1ce-a58f-411d-ade6-7e115a34f816","system_id":"levelo_inurba_marseille","lat":43.29277,"lon":5.36844,"is_reserved":false,"is_disabled":false,"rental_uris":{"android":"levelo://app?vid=07bec1ce-a58f-411d-ade6-7e115a34f816","ios":"levelo://app?vid=07bec1ce-a58f-411d-ade6-7e115a34f816"},"vehicle_type_id":"4","last_reported":1693652714,"current_range_meters":23200,"station_id":"ce4bhbp2rcd13ifvqesg","pricing_plan_id":"free"},{"bike_id":"a3126b17-5cf1-490a-bc9b-e0b7ea4ecbb8","system_id":"levelo_inurba_marseille","lat":43.29304,"lon":5.37177,"is_reserved":false,"is_disabled":false,"rental_uris":{"android":"levelo://app?vid=a3126b17-5cf1-490a-bc9b-e0b7ea4ecbb8","ios":"levelo://app?vid=a3126b17-5cf1-490a-bc9b-e0b7ea4ecbb8"},"vehicle_type_id":"4","last_reported":1693652714,"current_range_meters":22000,"station_id":"ce4bgh92rcd13ifvqb40","pricing_plan_id":"free"},{"bike_id":"4eb0d718-8581-4f82-8139-bd2307d9945e","system_id":"levelo_inurba_marseille","lat":43.29303,"lon":5.37172,"is_reserved":false,"is_disabled":false,"rental_uris":{"android":"levelo://app?vid=4eb0d718-8581-4f82-8139-bd2307d9945e","ios":"levelo://app?vid=4eb0d718-8581-4f82-8139-bd2307d9945e"},"vehicle_type_id":"4","last_reported":1693652714,"current_range_meters":28800,"station_id":"ce4bgh92rcd13ifvqb40","pricing_plan_id":"free"},{"bike_id":"e585bbf7-1399-42b2-9e2c-ed673167b551","system_id":"levelo_inurba_marseille","lat":43.29275,"lon":5.36843,"is_reserved":false,"is_disabled":false,"rental_uris":{"android":"levelo://app?vid=e585bbf7-1399-42b2-9e2c-ed673167b551","ios":"levelo://app?vid=e585bbf7-1399-42b2-9e2c-ed673167b551"},"vehicle_type_id":"4","last_reported":1693652714,"current_range_meters":22800,"station_id":"ce4bhbp2rcd13ifvqesg","pricing_plan_id":"free"},{"bike_id":"1b7b0043-4b37-4764-b4ee-9d07518d0346","system_id":"levelo_inurba_marseille","lat":43.29301,"lon":5.37168,"is_reserved":false,"is_disabled":false,"rental_uris":{"android":"levelo://app?vid=1b7b0043-4b37-4764-b4ee-9d07518d0346","ios":"levelo://app?vid=1b7b0043-4b37-4764-b4ee-9d07518d0346"},"vehicle_type_id":"4","last_reported":1693652714,"current_range_meters":21600,"station_id":"ce4bgh92rcd13ifvqb40","pricing_plan_id":"free"},{"bike_id":"799001db-fab8-4a76-956e-1d6996222a53","system_id":"levelo_inurba_marseille","lat":43.293,"lon":5.37164,"is_reserved":false,"is_disabled":false,"rental_uris":{"android":"levelo://app?vid=799001db-fab8-4a76-956e-1d6996222a53","ios":"levelo://app?vid=799001db-fab8-4a76-956e-1d6996222a53"},"vehicle_type_id":"4","last_reported":1693652714,"current_range_meters":24000,"station_id":"ce4bgh92rcd13ifvqb40","pricing_plan_id":"free"},{"bike_id":"51dac959-8b72-4803-9681-766763cc1532","system_id":"levelo_inurba_marseille","lat":43.29299,"lon":5.37165,"is_reserved":false,"is_disabled":false,"rental_uris":{"android":"levelo://app?vid=51dac959-8b72-4803-9681-766763cc1532","ios":"levelo://app?vid=51dac959-8b72-4803-9681-766763cc1532"},"vehicle_type_id":"4","last_reported":1693652714,"current_range_meters":8800,"station_id":"ce4bgh92rcd13ifvqb40","pricing_plan_id":"free"},{"bike_id":"d747e5bf-10b9-4421-9cdc-70e707299c7b","system_id":"levelo_inurba_marseille","lat":43.292749,"lon":5.368402,"is_reserved":false,"is_disabled":false,"rental_uris":{"android":"levelo://app?vid=d747e5bf-10b9-4421-9cdc-70e707299c7b","ios":"levelo://app?vid=d747e5bf-10b9-4421-9cdc-70e707299c7b"},"vehicle_type_id":"4","last_reported":1693652714,"current_range_meters":24000,"station_id":"ce4bhbp2rcd13ifvqesg","pricing_plan_id":"free"},{"bike_id":"6b8a27ef-54c3-4971-8635-0aa03954b669","system_id":"levelo_inurba_marseille","lat":43.29297,"lon":5.37166,"is_reserved":false,"is_disabled":false,"rental_uris":{"android":"levelo://app?vid=6b8a27ef-54c3-4971-8635-0aa03954b669","ios":"levelo://app?vid=6b8a27ef-54c3-4971-8635-0aa03954b669"},"vehicle_type_id":"4","last_reported":1693652714,"current_range_meters":28800,"station_id":"ce4bgh92rcd13ifvqb40","pricing_plan_id":"free"},{"bike_id":"69552ebd-52fd-412c-85c6-b602dd4b000d","system_id":"levelo_inurba_marseille","lat":43.29296,"lon":5.37164,"is_reserved":false,"is_disabled":false,"rental_uris":{"android":"levelo://app?vid=69552ebd-52fd-412c-85c6-b602dd4b000d","ios":"levelo://app?vid=69552ebd-52fd-412c-85c6-b602dd4b000d"},"vehicle_type_id":"4","last_reported":1693652714,"current_range_meters":6400,"station_id":"ce4bgh92rcd13ifvqb40","pricing_plan_id":"free"},{"bike_id":"d202f2d5-0134-48c7-b4e9-c45211d807bd","system_id":"levelo_inurba_marseille","lat":43.29295,"lon":5.37164,"is_reserved":false,"is_disabled":false,"rental_uris":{"android":"levelo://app?vid=d202f2d5-0134-48c7-b4e9-c45211d807bd","ios":"levelo://app?vid=d202f2d5-0134-48c7-b4e9-c45211d807bd"},"vehicle_type_id":"4","last_reported":1693652714,"current_range_meters":10400,"station_id":"ce4bgh92rcd13ifvqb40","pricing_plan_id":"free"},{"bike_id":"d8e1d3fc-9b44-488d-9288-190ac5c9f806","system_id":"levelo_inurba_marseille","lat":43.29293,"lon":5.37167,"is_reserved":false,"is_disabled":false,"rental_uris":{"android":"levelo://app?vid=d8e1d3fc-9b44-488d-9288-190ac5c9f806","ios":"levelo://app?vid=d8e1d3fc-9b44-488d-9288-190ac5c9f806"},"vehicle_type_id":"4","last_reported":1693652714,"current_range_meters":23200,"station_id":"ce4bgh92rcd13ifvqb40","pricing_plan_id":"free"},{"bike_id":"530c4e5f-c44d-4f20-8ae0-be54d3602dd3","system_id":"levelo_inurba_marseille","lat":43.292749,"lon":5.368402,"is_reserved":false,"is_disabled":false,"rental_uris":{"android":"levelo://app?vid=530c4e5f-c44d-4f20-8ae0-be54d3602dd3","ios":"levelo://app?vid=530c4e5f-c44d-4f20-8ae0-be54d3602dd3"},"vehicle_type_id":"4","last_reported":1693652714,"current_range_meters":20000,"station_id":"ce4bhbp2rcd13ifvqesg","pricing_plan_id":"free"},{"bike_id":"af378848-4ab5-4a0c-a75c-c290cd6c3483","system_id":"levelo_inurba_marseille","lat":43.32459,"lon":5.38946,"is_reserved":false,"is_disabled":false,"rental_uris":{"android":"levelo://app?vid=af378848-4ab5-4a0c-a75c-c290cd6c3483","ios":"levelo://app?vid=af378848-4ab5-4a0c-a75c-c290cd6c3483"},"vehicle_type_id":"4","last_reported":1693652714,"current_range_meters":0,"station_id":"","pricing_plan_id":"free"},{"bike_id":"f9e05abc-858d-41bc-adbf-4d0648669083","system_id":"levelo_inurba_marseille","lat":43.293009,"lon":5.374584,"is_reserved":false,"is_disabled":false,"rental_uris":{"android":"levelo://app?vid=f9e05abc-858d-41bc-adbf-4d0648669083","ios":"levelo://app?vid=f9e05abc-858d-41bc-adbf-4d0648669083"},"vehicle_type_id":"4","last_reported":1693652714,"current_range_meters":25600,"station_id":"ce4bgi12rcd13ifvqb70","pricing_plan_id":"free"},{"bike_id":"6e14db5a-6684-41d5-b23f-9dfeafc805f6","system_id":"levelo_inurba_marseille","lat":43.293009,"lon":5.374584,"is_reserved":false,"is_disabled":false,"rental_uris":{"android":"levelo://app?vid=6e14db5a-6684-41d5-b23f-9dfeafc805f6","ios":"levelo://app?vid=6e14db5a-6684-41d5-b23f-9dfeafc805f6"},"vehicle_type_id":"4","last_reported":1693652714,"current_range_meters":19200,"station_id":"ce4bgi12rcd13ifvqb70","pricing_plan_id":"free"},{"bike_id":"eb76a8ef-ea44-4605-a3c4-6c624ffb90cf","system_id":"levelo_inurba_marseille","lat":43.293009,"lon":5.374584,"is_reserved":false,"is_disabled":false,"rental_uris":{"android":"levelo://app?vid=eb76a8ef-ea44-4605-a3c4-6c624ffb90cf","ios":"levelo://app?vid=eb76a8ef-ea44-4605-a3c4-6c624ffb90cf"},"vehicle_type_id":"4","last_reported":1693652714,"current_range_meters":19600,"station_id":"ce4bgi12rcd13ifvqb70","pricing_plan_id":"free"},{"bike_id":"c1d63aec-c298-4744-b756-581bcf21efed","system_id":"levelo_inurba_marseille","lat":43.293009,"lon":5.374584,"is_reserved":false,"is_disabled":false,"rental_uris":{"android":"levelo://app?vid=c1d63aec-c298-4744-b756-581bcf21efed","ios":"levelo://app?vid=c1d63aec-c298-4744-b756-581bcf21efed"},"vehicle_type_id":"4","last_reported":1693652714,"current_range_meters":13600,"station_id":"ce4bgi12rcd13ifvqb70","pricing_plan_id":"free"},{"bike_id":"815dbd24-9e7a-4670-af71-866572f15105","system_id":"levelo_inurba_marseille","lat":43.293009,"lon":5.374584,"is_reserved":false,"is_disabled":false,"rental_uris":{"android":"levelo://app?vid=815dbd24-9e7a-4670-af71-866572f15105","ios":"levelo://app?vid=815dbd24-9e7a-4670-af71-866572f15105"},"vehicle_type_id":"4","last_reported":1693652714,"current_range_meters":27600,"station_id":"ce4bgi12rcd13ifvqb70","pricing_plan_id":"free"},{"bike_id":"004e6546-11a2-474a-8dcb-e5af29791ed5","system_id":"levelo_inurba_marseille","lat":43.293009,"lon":5.374584,"is_reserved":false,"is_disabled":false,"rental_uris":{"android":"levelo://app?vid=004e6546-11a2-474a-8dcb-e5af29791ed5","ios":"levelo://app?vid=004e6546-11a2-474a-8dcb-e5af29791ed5"},"vehicle_type_id":"4","last_reported":1693652714,"current_range_meters":18000,"station_id":"ce4bgi12rcd13ifvqb70","pricing_plan_id":"free"},{"bike_id":"cef24466-509c-4ff7-a392-00636a2dc7d9","system_id":"levelo_inurba_marseille","lat":43.293009,"lon":5.374584,"is_reserved":false,"is_disabled":false,"rental_uris":{"android":"levelo://app?vid=cef24466-509c-4ff7-a392-00636a2dc7d9","ios":"levelo://app?vid=cef24466-509c-4ff7-a392-00636a2dc7d9"},"vehicle_type_id":"4","last_reported":1693652714,"current_range_meters":25600,"station_id":"ce4bgi12rcd13ifvqb70","pricing_plan_id":"free"},{"bike_id":"7ef30387-dee8-4fc5-add3-10e167f4b540","system_id":"levelo_inurba_marseille","lat":43.29289,"lon":5.37443,"is_reserved":false,"is_disabled":false,"rental_uris":{"android":"levelo://app?vid=7ef30387-dee8-4fc5-add3-10e167f4b540","ios":"levelo://app?vid=7ef30387-dee8-4fc5-add3-10e167f4b540"},"vehicle_type_id":"4","last_reported":1693652714,"current_range_meters":31600,"station_id":"","pricing_plan_id":"free"},{"bike_id":"215690c8-d349-426b-81d3-8cc635ea961d","system_id":"levelo_inurba_marseille","lat":43.293009,"lon":5.374584,"is_reserved":false,"is_disabled":false,"rental_uris":{"android":"levelo://app?vid=215690c8-d349-426b-81d3-8cc635ea961d","ios":"levelo://app?vid=215690c8-d349-426b-81d3-8cc635ea961d"},"vehicle_type_id":"4","last_reported":1693652714,"current_range_meters":4800,"station_id":"ce4bgi12rcd13ifvqb70","pricing_plan_id":"free"},{"bike_id":"91f8da76-05e1-41d0-b9e9-08b543b01244","system_id":"levelo_inurba_marseille","lat":43.293009,"lon":5.374584,"is_reserved":false,"is_disabled":false,"rental_uris":{"android":"levelo://app?vid=91f8da76-05e1-41d0-b9e9-08b543b01244","ios":"levelo://app?vid=91f8da76-05e1-41d0-b9e9-08b543b01244"},"vehicle_type_id":"4","last_reported":1693652714,"current_range_meters":31600,"station_id":"ce4bgi12rcd13ifvqb70","pricing_plan_id":"free"},{"bike_id":"7155b85d-c582-4a75-bd2d-9d9ccae1a2a0","system_id":"levelo_inurba_marseille","lat":43.293009,"lon":5.374584,"is_reserved":false,"is_disabled":false,"rental_uris":{"android":"levelo://app?vid=7155b85d-c582-4a75-bd2d-9d9ccae1a2a0","ios":"levelo://app?vid=7155b85d-c582-4a75-bd2d-9d9ccae1a2a0"},"vehicle_type_id":"4","last_reported":1693652714,"current_range_meters":31600,"station_id":"ce4bgi12rcd13ifvqb70","pricing_plan_id":"free"},{"bike_id":"0724f352-a262-45b7-9b71-9a09ff17d945","system_id":"levelo_inurba_marseille","lat":43.302992,"lon":5.392136,"is_reserved":false,"is_disabled":false,"rental_uris":{"android":"levelo://app?vid=0724f352-a262-45b7-9b71-9a09ff17d945","ios":"levelo://app?vid=0724f352-a262-45b7-9b71-9a09ff17d945"},"vehicle_type_id":"4","last_reported":1693652714,"current_range_meters":22800,"station_id":"ce4bgkh2rcd13ifvqbk0","pricing_plan_id":"free"},{"bike_id":"38fef587-7cc5-4800-b069-87b8f296a10a","system_id":"levelo_inurba_marseille","lat":43.302992,"lon":5.392136,"is_reserved":false,"is_disabled":false,"rental_uris":{"android":"levelo://app?vid=38fef587-7cc5-4800-b069-87b8f296a10a","ios":"levelo://app?vid=38fef587-7cc5-4800-b069-87b8f296a10a"},"vehicle_type_id":"4","last_reported":1693652714,"current_range_meters":20800,"station_id":"ce4bgkh2rcd13ifvqbk0","pricing_plan_id":"free"},{"bike_id":"20746bb4-b827-4b43-a1b7-02f4cea8a45d","system_id":"levelo_inurba_marseille","lat":43.29376,"lon":5.37835,"is_reserved":false,"is_disabled":false,"rental_uris":{"android":"levelo://app?vid=20746bb4-b827-4b43-a1b7-02f4cea8a45d","ios":"levelo://app?vid=20746bb4-b827-4b43-a1b7-02f4cea8a45d"},"vehicle_type_id":"4","last_reported":1693652714,"current_range_meters":3600,"station_id":"ce4bgjh2rcd13ifvqbf0","pricing_plan_id":"free"},{"bike_id":"59d4a7cc-c4d8-47e1-a63f-2e26b5d209c3","system_id":"levelo_inurba_marseille","lat":43.2936,"lon":5.37835,"is_reserved":false,"is_disabled":false,"rental_uris":{"android":"levelo://app?vid=59d4a7cc-c4d8-47e1-a63f-2e26b5d209c3","ios":"levelo://app?vid=59d4a7cc-c4d8-47e1-a63f-2e26b5d209c3"},"vehicle_type_id":"4","last_reported":1693652714,"current_range_meters":30000,"station_id":"ce4bgjh2rcd13ifvqbf0","pricing_plan_id":"free"},{"bike_id":"af71d684-5889-463e-ad39-6a2a3a59f45e","system_id":"levelo_inurba_marseille","lat":43.30305,"lon":5.39215,"is_reserved":false,"is_disabled":false,"rental_uris":{"android":"levelo://app?vid=af71d684-5889-463e-ad39-6a2a3a59f45e","ios":"levelo://app?vid=af71d684-5889-463e-ad39-6a2a3a59f45e"},"vehicle_type_id":"4","last_reported":1693652714,"current_range_meters":26800,"station_id":"ce4bgkh2rcd13ifvqbk0","pricing_plan_id":"free"},{"bike_id":"aa7918ae-8347-48b4-8ee7-440a70855a1d","system_id":"levelo_inurba_marseille","lat":43.2936,"lon":5.37835,"is_reserved":false,"is_disabled":false,"rental_uris":{"android":"levelo://app?vid=aa7918ae-8347-48b4-8ee7-440a70855a1d","ios":"levelo://app?vid=aa7918ae-8347-48b4-8ee7-440a70855a1d"},"vehicle_type_id":"4","last_reported":1693652714,"current_range_meters":24400,"station_id":"ce4bgjh2rcd13ifvqbf0","pricing_plan_id":"free"},{"bike_id":"ca4bb6d6-acf0-4445-9df6-59c364457f59","system_id":"levelo_inurba_marseille","lat":43.298764,"lon":5.388973,"is_reserved":false,"is_disabled":false,"rental_uris":{"android":"levelo://app?vid=ca4bb6d6-acf0-4445-9df6-59c364457f59","ios":"levelo://app?vid=ca4bb6d6-acf0-4445-9df6-59c364457f59"},"vehicle_type_id":"4","last_reported":1693652714,"current_range_meters":2800,"station_id":"ce4bh392rcd13ifvqdl0","pricing_plan_id":"free"},{"bike_id":"f10d0f88-779a-4910-b15f-acaa0bf83047","system_id":"levelo_inurba_marseille","lat":43.292663,"lon":5.376389,"is_reserved":false,"is_disabled":false,"rental_uris":{"android":"levelo://app?vid=f10d0f88-779a-4910-b15f-acaa0bf83047","ios":"levelo://app?vid=f10d0f88-779a-4910-b15f-acaa0bf83047"},"vehicle_type_id":"4","last_reported":1693652714,"current_range_meters":12000,"station_id":"ce4bgi12rcd13ifvqb80","pricing_plan_id":"free"},{"bike_id":"8de43161-a6d1-4dfa-8a28-d6cacd699ac0","system_id":"levelo_inurba_marseille","lat":43.291675,"lon":5.371583,"is_reserved":false,"is_disabled":false,"rental_uris":{"android":"levelo://app?vid=8de43161-a6d1-4dfa-8a28-d6cacd699ac0","ios":"levelo://app?vid=8de43161-a6d1-4dfa-8a28-d6cacd699ac0"},"vehicle_type_id":"4","last_reported":1693652714,"current_range_meters":1200,"station_id":"ce4bha92rcd13ifvqeh0","pricing_plan_id":"free"},{"bike_id":"b87cc24d-eac5-4ce9-bd01-6237b140a678","system_id":"levelo_inurba_marseille","lat":43.2988,"lon":5.38906,"is_reserved":false,"is_disabled":false,"rental_uris":{"android":"levelo://app?vid=b87cc24d-eac5-4ce9-bd01-6237b140a678","ios":"levelo://app?vid=b87cc24d-eac5-4ce9-bd01-6237b140a678"},"vehicle_type_id":"4","last_reported":1693652714,"current_range_meters":14800,"station_id":"ce4bh392rcd13ifvqdl0","pricing_plan_id":"free"},{"bike_id":"c3311645-dba4-45fb-90ae-9ba76e8a7eff","system_id":"levelo_inurba_marseille","lat":43.291675,"lon":5.371583,"is_reserved":false,"is_disabled":false,"rental_uris":{"android":"levelo://app?vid=c3311645-dba4-45fb-90ae-9ba76e8a7eff","ios":"levelo://app?vid=c3311645-dba4-45fb-90ae-9ba76e8a7eff"},"vehicle_type_id":"4","last_reported":1693652714,"current_range_meters":30000,"station_id":"ce4bha92rcd13ifvqeh0","pricing_plan_id":"free"},{"bike_id":"b127cb02-a67f-4944-955b-2653cb69db42","system_id":"levelo_inurba_marseille","lat":43.29142,"lon":5.36689,"is_reserved":false,"is_disabled":false,"rental_uris":{"android":"levelo://app?vid=b127cb02-a67f-4944-955b-2653cb69db42","ios":"levelo://app?vid=b127cb02-a67f-4944-955b-2653cb69db42"},"vehicle_type_id":"4","last_reported":1693652714,"current_range_meters":22400,"station_id":"ce4bhc92rcd13ifvqetg","pricing_plan_id":"free"},{"bike_id":"3e9c93a2-4915-4d83-9d61-a7b1b9a3289f","system_id":"levelo_inurba_marseille","lat":43.291671,"lon":5.371575,"is_reserved":false,"is_disabled":false,"rental_uris":{"android":"levelo://app?vid=3e9c93a2-4915-4d83-9d61-a7b1b9a3289f","ios":"levelo://app?vid=3e9c93a2-4915-4d83-9d61-a7b1b9a3289f"},"vehicle_type_id":"4","last_reported":1693652714,"current_range_meters":20000,"station_id":"ce4bha92rcd13ifvqeh0","pricing_plan_id":"free"},{"bike_id":"73c2e0c0-a939-4bc3-943a-e52094180bff","system_id":"levelo_inurba_marseille","lat":43.29188,"lon":5.358,"is_reserved":false,"is_disabled":false,"rental_uris":{"android":"levelo://app?vid=73c2e0c0-a939-4bc3-943a-e52094180bff","ios":"levelo://app?vid=73c2e0c0-a939-4bc3-943a-e52094180bff"},"vehicle_type_id":"4","last_reported":1693652714,"current_range_meters":19200,"station_id":"ce4bhb12rcd13ifvqel0","pricing_plan_id":"free"},{"bike_id":"6b1f3afd-0cf2-47d7-88ae-85e0ba2c2c35","system_id":"levelo_inurba_marseille","lat":43.29529,"lon":5.385581,"is_reserved":false,"is_disabled":false,"rental_uris":{"android":"levelo://app?vid=6b1f3afd-0cf2-47d7-88ae-85e0ba2c2c35","ios":"levelo://app?vid=6b1f3afd-0cf2-47d7-88ae-85e0ba2c2c35"},"vehicle_type_id":"4","last_reported":1693652714,"current_range_meters":22000,"station_id":"ce4bgih2rcd13ifvqba0","pricing_plan_id":"free"},{"bike_id":"0d962e12-b732-4464-bc89-f40845207671","system_id":"levelo_inurba_marseille","lat":43.33221,"lon":5.38114,"is_reserved":false,"is_disabled":false,"rental_uris":{"android":"levelo://app?vid=0d962e12-b732-4464-bc89-f40845207671","ios":"levelo://app?vid=0d962e12-b732-4464-bc89-f40845207671"},"vehicle_type_id":"4","last_reported":1693652714,"current_range_meters":7200,"station_id":"","pricing_plan_id":"free"},{"bike_id":"a3b700d7-823d-4b6a-846f-16df167379f9","system_id":"levelo_inurba_marseille","lat":43.290779,"lon":5.371482,"is_reserved":false,"is_disabled":false,"rental_uris":{"android":"levelo://app?vid=a3b700d7-823d-4b6a-846f-16df167379f9","ios":"levelo://app?vid=a3b700d7-823d-4b6a-846f-16df167379f9"},"vehicle_type_id":"4","last_reported":1693652714,"current_range_meters":22000,"station_id":"ce4bh5p2rcd13ifvqe4g","pricing_plan_id":"free"},{"bike_id":"7bb842ef-dc1d-4ec8-9f54-2465fcd0d3eb","system_id":"levelo_inurba_marseille","lat":43.30205,"lon":5.39452,"is_reserved":false,"is_disabled":false,"rental_uris":{"android":"levelo://app?vid=7bb842ef-dc1d-4ec8-9f54-2465fcd0d3eb","ios":"levelo://app?vid=7bb842ef-dc1d-4ec8-9f54-2465fcd0d3eb"},"vehicle_type_id":"4","last_reported":1693652714,"current_range_meters":11600,"station_id":"ce4bh0p2rcd13ifvqd70","pricing_plan_id":"free"},{"bike_id":"af466fca-6558-42bf-9bc8-5a57bfb7deeb","system_id":"levelo_inurba_marseille","lat":43.302008,"lon":5.394694,"is_reserved":false,"is_disabled":false,"rental_uris":{"android":"levelo://app?vid=af466fca-6558-42bf-9bc8-5a57bfb7deeb","ios":"levelo://app?vid=af466fca-6558-42bf-9bc8-5a57bfb7deeb"},"vehicle_type_id":"4","last_reported":1693652714,"current_range_meters":30400,"station_id":"ce4bh0p2rcd13ifvqd70","pricing_plan_id":"free"},{"bike_id":"4397c4b4-0017-4d5e-8f68-3e0d5de8655c","system_id":"levelo_inurba_marseille","lat":43.290327,"lon":5.375711,"is_reserved":false,"is_disabled":false,"rental_uris":{"android":"levelo://app?vid=4397c4b4-0017-4d5e-8f68-3e0d5de8655c","ios":"levelo://app?vid=4397c4b4-0017-4d5e-8f68-3e0d5de8655c"},"vehicle_type_id":"4","last_reported":1693652714,"current_range_meters":28800,"station_id":"ce4bh692rcd13ifvqe90","pricing_plan_id":"free"},{"bike_id":"2f93318d-a393-4e93-88c9-60d3ec241b0e","system_id":"levelo_inurba_marseille","lat":43.2894,"lon":5.36633,"is_reserved":false,"is_disabled":false,"rental_uris":{"android":"levelo://app?vid=2f93318d-a393-4e93-88c9-60d3ec241b0e","ios":"levelo://app?vid=2f93318d-a393-4e93-88c9-60d3ec241b0e"},"vehicle_type_id":"4","last_reported":1693652714,"current_range_meters":30800,"station_id":"ce4bhap2rcd13ifvqek0","pricing_plan_id":"free"},{"bike_id":"3d0a552d-ca2f-4890-9c63-74b91eddaba1","system_id":"levelo_inurba_marseille","lat":43.289184,"lon":5.366408,"is_reserved":false,"is_disabled":false,"rental_uris":{"android":"levelo://app?vid=3d0a552d-ca2f-4890-9c63-74b91eddaba1","ios":"levelo://app?vid=3d0a552d-ca2f-4890-9c63-74b91eddaba1"},"vehicle_type_id":"4","last_reported":1693652714,"current_range_meters":20000,"station_id":"ce4bhap2rcd13ifvqek0","pricing_plan_id":"free"},{"bike_id":"9e703e12-1dd6-4970-b1da-7b5322c21c1b","system_id":"levelo_inurba_marseille","lat":43.290104,"lon":5.356111,"is_reserved":false,"is_disabled":false,"rental_uris":{"android":"levelo://app?vid=9e703e12-1dd6-4970-b1da-7b5322c21c1b","ios":"levelo://app?vid=9e703e12-1dd6-4970-b1da-7b5322c21c1b"},"vehicle_type_id":"4","last_reported":1693652714,"current_range_meters":27600,"station_id":"ce4bhb92rcd13ifvqen0","pricing_plan_id":"free"},{"bike_id":"276df892-9a2a-40a9-929d-29c6fe2dac65","system_id":"levelo_inurba_marseille","lat":43.33041,"lon":5.38917,"is_reserved":false,"is_disabled":false,"rental_uris":{"android":"levelo://app?vid=276df892-9a2a-40a9-929d-29c6fe2dac65","ios":"levelo://app?vid=276df892-9a2a-40a9-929d-29c6fe2dac65"},"vehicle_type_id":"4","last_reported":1693652714,"current_range_meters":23200,"station_id":"ce4bhr92rcd13ifvqhrg","pricing_plan_id":"free"},{"bike_id":"d346ead7-ea15-4af0-898b-f25c067a214a","system_id":"levelo_inurba_marseille","lat":43.3304,"lon":5.38919,"is_reserved":false,"is_disabled":false,"rental_uris":{"android":"levelo://app?vid=d346ead7-ea15-4af0-898b-f25c067a214a","ios":"levelo://app?vid=d346ead7-ea15-4af0-898b-f25c067a214a"},"vehicle_type_id":"4","last_reported":1693652714,"current_range_meters":16400,"station_id":"ce4bhr92rcd13ifvqhrg","pricing_plan_id":"free"},{"bike_id":"8077604d-b9d4-4aae-b42f-6a79c8cc4721","system_id":"levelo_inurba_marseille","lat":43.33041,"lon":5.38918,"is_reserved":false,"is_disabled":false,"rental_uris":{"android":"levelo://app?vid=8077604d-b9d4-4aae-b42f-6a79c8cc4721","ios":"levelo://app?vid=8077604d-b9d4-4aae-b42f-6a79c8cc4721"},"vehicle_type_id":"4","last_reported":1693652714,"current_range_meters":24400,"station_id":"ce4bhr92rcd13ifvqhrg","pricing_plan_id":"free"},{"bike_id":"978b0ff4-c9df-43ed-a4e7-ec9b1854c595","system_id":"levelo_inurba_marseille","lat":43.33041,"lon":5.38918,"is_reserved":false,"is_disabled":false,"rental_uris":{"android":"levelo://app?vid=978b0ff4-c9df-43ed-a4e7-ec9b1854c595","ios":"levelo://app?vid=978b0ff4-c9df-43ed-a4e7-ec9b1854c595"},"vehicle_type_id":"4","last_reported":1693652714,"current_range_meters":17200,"station_id":"ce4bhr92rcd13ifvqhrg","pricing_plan_id":"free"},{"bike_id":"e7c8cfe2-9bdf-4363-a136-3e02a3639875","system_id":"levelo_inurba_marseille","lat":43.33044,"lon":5.38914,"is_reserved":false,"is_disabled":false,"rental_uris":{"android":"levelo://app?vid=e7c8cfe2-9bdf-4363-a136-3e02a3639875","ios":"levelo://app?vid=e7c8cfe2-9bdf-4363-a136-3e02a3639875"},"vehicle_type_id":"4","last_reported":1693652714,"current_range_meters":10000,"station_id":"ce4bhr92rcd13ifvqhrg","pricing_plan_id":"free"},{"bike_id":"3e0449ec-e32f-417c-946f-951095c26cc1","system_id":"levelo_inurba_marseille","lat":43.33044,"lon":5.38915,"is_reserved":false,"is_disabled":false,"rental_uris":{"android":"levelo://app?vid=3e0449ec-e32f-417c-946f-951095c26cc1","ios":"levelo://app?vid=3e0449ec-e32f-417c-946f-951095c26cc1"},"vehicle_type_id":"4","last_reported":1693652714,"current_range_meters":27600,"station_id":"ce4bhr92rcd13ifvqhrg","pricing_plan_id":"free"},{"bike_id":"07486013-dbc0-4b6a-af5d-f4b02ed71615","system_id":"levelo_inurba_marseille","lat":43.290103,"lon":5.356114,"is_reserved":false,"is_disabled":false,"rental_uris":{"android":"levelo://app?vid=07486013-dbc0-4b6a-af5d-f4b02ed71615","ios":"levelo://app?vid=07486013-dbc0-4b6a-af5d-f4b02ed71615"},"vehicle_type_id":"4","last_reported":1693652714,"current_range_meters":22000,"station_id":"ce4bhb92rcd13ifvqen0","pricing_plan_id":"free"},{"bike_id":"fb1ac503-d411-45ea-8192-311f725eeb98","system_id":"levelo_inurba_marseille","lat":43.33042,"lon":5.38919,"is_reserved":false,"is_disabled":false,"rental_uris":{"android":"levelo://app?vid=fb1ac503-d411-45ea-8192-311f725eeb98","ios":"levelo://app?vid=fb1ac503-d411-45ea-8192-311f725eeb98"},"vehicle_type_id":"4","last_reported":1693652714,"current_range_meters":22800,"station_id":"ce4bhr92rcd13ifvqhrg","pricing_plan_id":"free"},{"bike_id":"d4f30f57-5bc5-4c01-90fe-289b71f44aa2","system_id":"levelo_inurba_marseille","lat":43.33041,"lon":5.38923,"is_reserved":false,"is_disabled":false,"rental_uris":{"android":"levelo://app?vid=d4f30f57-5bc5-4c01-90fe-289b71f44aa2","ios":"levelo://app?vid=d4f30f57-5bc5-4c01-90fe-289b71f44aa2"},"vehicle_type_id":"4","last_reported":1693652714,"current_range_meters":2000,"station_id":"ce4bhr92rcd13ifvqhrg","pricing_plan_id":"free"},{"bike_id":"2cdba739-ebc5-413a-8a24-35edd08d69ea","system_id":"levelo_inurba_marseille","lat":43.33046,"lon":5.38916,"is_reserved":false,"is_disabled":false,"rental_uris":{"android":"levelo://app?vid=2cdba739-ebc5-413a-8a24-35edd08d69ea","ios":"levelo://app?vid=2cdba739-ebc5-413a-8a24-35edd08d69ea"},"vehicle_type_id":"4","last_reported":1693652714,"current_range_meters":17600,"station_id":"ce4bhr92rcd13ifvqhrg","pricing_plan_id":"free"},{"bike_id":"c1b0850d-0a53-4da0-9f6b-a9a94f67666e","system_id":"levelo_inurba_marseille","lat":43.3305,"lon":5.3891,"is_reserved":false,"is_disabled":false,"rental_uris":{"android":"levelo://app?vid=c1b0850d-0a53-4da0-9f6b-a9a94f67666e","ios":"levelo://app?vid=c1b0850d-0a53-4da0-9f6b-a9a94f67666e"},"vehicle_type_id":"4","last_reported":1693652714,"current_range_meters":22000,"station_id":"ce4bhr92rcd13ifvqhrg","pricing_plan_id":"free"},{"bike_id":"90f1fc97-49d0-4df8-9f32-3dfcd4a32851","system_id":"levelo_inurba_marseille","lat":43.33041,"lon":5.38924,"is_reserved":false,"is_disabled":false,"rental_uris":{"android":"levelo://app?vid=90f1fc97-49d0-4df8-9f32-3dfcd4a32851","ios":"levelo://app?vid=90f1fc97-49d0-4df8-9f32-3dfcd4a32851"},"vehicle_type_id":"4","last_reported":1693652714,"current_range_meters":15200,"station_id":"ce4bhr92rcd13ifvqhrg","pricing_plan_id":"free"},{"bike_id":"1895038e-acdb-4d35-aa35-e1291f23a30a","system_id":"levelo_inurba_marseille","lat":43.290104,"lon":5.356111,"is_reserved":false,"is_disabled":false,"rental_uris":{"android":"levelo://app?vid=1895038e-acdb-4d35-aa35-e1291f23a30a","ios":"levelo://app?vid=1895038e-acdb-4d35-aa35-e1291f23a30a"},"vehicle_type_id":"4","last_reported":1693652714,"current_range_meters":31600,"station_id":"ce4bhb92rcd13ifvqen0","pricing_plan_id":"free"},{"bike_id":"d7932d52-0b99-415c-88dc-561d5faa16a4","system_id":"levelo_inurba_marseille","lat":43.290103,"lon":5.356114,"is_reserved":false,"is_disabled":false,"rental_uris":{"android":"levelo://app?vid=d7932d52-0b99-415c-88dc-561d5faa16a4","ios":"levelo://app?vid=d7932d52-0b99-415c-88dc-561d5faa16a4"},"vehicle_type_id":"4","last_reported":1693652714,"current_range_meters":28800,"station_id":"ce4bhb92rcd13ifvqen0","pricing_plan_id":"free"},{"bike_id":"028b16b4-c861-455c-93e2-214442c48086","system_id":"levelo_inurba_marseille","lat":43.290103,"lon":5.356114,"is_reserved":false,"is_disabled":false,"rental_uris":{"android":"levelo://app?vid=028b16b4-c861-455c-93e2-214442c48086","ios":"levelo://app?vid=028b16b4-c861-455c-93e2-214442c48086"},"vehicle_type_id":"4","last_reported":1693652714,"current_range_meters":31200,"station_id":"ce4bhb92rcd13ifvqen0","pricing_plan_id":"free"},{"bike_id":"63c86ee4-627e-485c-aefa-b4d4c2c07134","system_id":"levelo_inurba_marseille","lat":43.29003,"lon":5.35608,"is_reserved":false,"is_disabled":false,"rental_uris":{"android":"levelo://app?vid=63c86ee4-627e-485c-aefa-b4d4c2c07134","ios":"levelo://app?vid=63c86ee4-627e-485c-aefa-b4d4c2c07134"},"vehicle_type_id":"4","last_reported":1693652714,"current_range_meters":1600,"station_id":"ce4bhb92rcd13ifvqen0","pricing_plan_id":"free"},{"bike_id":"b8fb85b5-1bf5-4da3-91f3-4291689f7ef2","system_id":"levelo_inurba_marseille","lat":43.29002,"lon":5.3561,"is_reserved":false,"is_disabled":false,"rental_uris":{"android":"levelo://app?vid=b8fb85b5-1bf5-4da3-91f3-4291689f7ef2","ios":"levelo://app?vid=b8fb85b5-1bf5-4da3-91f3-4291689f7ef2"},"vehicle_type_id":"4","last_reported":1693652714,"current_range_meters":7600,"station_id":"ce4bhb92rcd13ifvqen0","pricing_plan_id":"free"},{"bike_id":"6eeb2065-3f08-4528-bb8b-f758ffb4f8d7","system_id":"levelo_inurba_marseille","lat":43.290103,"lon":5.356114,"is_reserved":false,"is_disabled":false,"rental_uris":{"android":"levelo://app?vid=6eeb2065-3f08-4528-bb8b-f758ffb4f8d7","ios":"levelo://app?vid=6eeb2065-3f08-4528-bb8b-f758ffb4f8d7"},"vehicle_type_id":"4","last_reported":1693652714,"current_range_meters":12400,"station_id":"ce4bhb92rcd13ifvqen0","pricing_plan_id":"free"},{"bike_id":"3d43bff6-7283-401b-8f34-7fa29452500c","system_id":"levelo_inurba_marseille","lat":43.28981,"lon":5.37835,"is_reserved":false,"is_disabled":false,"rental_uris":{"android":"levelo://app?vid=3d43bff6-7283-401b-8f34-7fa29452500c","ios":"levelo://app?vid=3d43bff6-7283-401b-8f34-7fa29452500c"},"vehicle_type_id":"4","last_reported":1693652714,"current_range_meters":9600,"station_id":"ce4bh9p2rcd13ifvqed0","pricing_plan_id":"free"},{"bike_id":"65969383-9ef8-4840-bfe8-58f35f4cf115","system_id":"levelo_inurba_marseille","lat":43.2898,"lon":5.37834,"is_reserved":false,"is_disabled":false,"rental_uris":{"android":"levelo://app?vid=65969383-9ef8-4840-bfe8-58f35f4cf115","ios":"levelo://app?vid=65969383-9ef8-4840-bfe8-58f35f4cf115"},"vehicle_type_id":"4","last_reported":1693652714,"current_range_meters":20800,"station_id":"ce4bh9p2rcd13ifvqed0","pricing_plan_id":"free"},{"bike_id":"03542a17-7ad3-4c33-b08e-d9d59160c988","system_id":"levelo_inurba_marseille","lat":43.2898,"lon":5.37848,"is_reserved":false,"is_disabled":false,"rental_uris":{"android":"levelo://app?vid=03542a17-7ad3-4c33-b08e-d9d59160c988","ios":"levelo://app?vid=03542a17-7ad3-4c33-b08e-d9d59160c988"},"vehicle_type_id":"4","last_reported":1693652714,"current_range_meters":10000,"station_id":"ce4bh9p2rcd13ifvqed0","pricing_plan_id":"free"},{"bike_id":"2245831f-b47a-4d29-b35e-4c7dffb99362","system_id":"levelo_inurba_marseille","lat":43.295169,"lon":5.390426,"is_reserved":false,"is_disabled":false,"rental_uris":{"android":"levelo://app?vid=2245831f-b47a-4d29-b35e-4c7dffb99362","ios":"levelo://app?vid=2245831f-b47a-4d29-b35e-4c7dffb99362"},"vehicle_type_id":"4","last_reported":1693652714,"current_range_meters":25200,"station_id":"ce4bh3p2rcd13ifvqdp0","pricing_plan_id":"free"},{"bike_id":"8f9e0cfa-ead1-4c2f-b732-8f127d47433f","system_id":"levelo_inurba_marseille","lat":43.2901,"lon":5.381269,"is_reserved":false,"is_disabled":false,"rental_uris":{"android":"levelo://app?vid=8f9e0cfa-ead1-4c2f-b732-8f127d47433f","ios":"levelo://app?vid=8f9e0cfa-ead1-4c2f-b732-8f127d47433f"},"vehicle_type_id":"4","last_reported":1693652714,"current_range_meters":1600,"station_id":"ce4bh4p2rcd13ifvqe1g","pricing_plan_id":"free"},{"bike_id":"6471e25d-d6dd-4155-b9a7-c7b2e84b7ace","system_id":"levelo_inurba_marseille","lat":43.28856,"lon":5.358371,"is_reserved":false,"is_disabled":false,"rental_uris":{"android":"levelo://app?vid=6471e25d-d6dd-4155-b9a7-c7b2e84b7ace","ios":"levelo://app?vid=6471e25d-d6dd-4155-b9a7-c7b2e84b7ace"},"vehicle_type_id":"4","last_reported":1693652714,"current_range_meters":29600,"station_id":"ce4bhb12rcd13ifvqem0","pricing_plan_id":"free"},{"bike_id":"63a4770e-8281-4bd5-9524-e2f32dda68ba","system_id":"levelo_inurba_marseille","lat":43.31271,"lon":5.40161,"is_reserved":false,"is_disabled":false,"rental_uris":{"android":"levelo://app?vid=63a4770e-8281-4bd5-9524-e2f32dda68ba","ios":"levelo://app?vid=63a4770e-8281-4bd5-9524-e2f32dda68ba"},"vehicle_type_id":"4","last_reported":1693652714,"current_range_meters":30400,"station_id":"ce4bh092rcd13ifvqd30","pricing_plan_id":"free"},{"bike_id":"5e0b65a3-4830-4efe-8df2-f90e6871cc74","system_id":"levelo_inurba_marseille","lat":43.30642,"lon":5.401031,"is_reserved":false,"is_disabled":false,"rental_uris":{"android":"levelo://app?vid=5e0b65a3-4830-4efe-8df2-f90e6871cc74","ios":"levelo://app?vid=5e0b65a3-4830-4efe-8df2-f90e6871cc74"},"vehicle_type_id":"4","last_reported":1693652714,"current_range_meters":26000,"station_id":"ce4bh112rcd13ifvqda0","pricing_plan_id":"free"},{"bike_id":"31b0ba4e-bb4a-4b5e-bc3a-131b0921442e","system_id":"levelo_inurba_marseille","lat":43.301117,"lon":5.398795,"is_reserved":false,"is_disabled":false,"rental_uris":{"android":"levelo://app?vid=31b0ba4e-bb4a-4b5e-bc3a-131b0921442e","ios":"levelo://app?vid=31b0ba4e-bb4a-4b5e-bc3a-131b0921442e"},"vehicle_type_id":"4","last_reported":1693652714,"current_range_meters":9600,"station_id":"ce4bh0h2rcd13ifvqd40","pricing_plan_id":"free"},{"bike_id":"3b4c7491-1bc8-4e4a-91b8-df5b21c67433","system_id":"levelo_inurba_marseille","lat":43.286961,"lon":5.373785,"is_reserved":false,"is_disabled":false,"rental_uris":{"android":"levelo://app?vid=3b4c7491-1bc8-4e4a-91b8-df5b21c67433","ios":"levelo://app?vid=3b4c7491-1bc8-4e4a-91b8-df5b21c67433"},"vehicle_type_id":"4","last_reported":1693652714,"current_range_meters":19200,"station_id":"ce4bh3p2rcd13ifvqdq0","pricing_plan_id":"free"},{"bike_id":"195db138-56bd-4a3c-8209-9bea567505ef","system_id":"levelo_inurba_marseille","lat":43.286961,"lon":5.373785,"is_reserved":false,"is_disabled":false,"rental_uris":{"android":"levelo://app?vid=195db138-56bd-4a3c-8209-9bea567505ef","ios":"levelo://app?vid=195db138-56bd-4a3c-8209-9bea567505ef"},"vehicle_type_id":"4","last_reported":1693652714,"current_range_meters":25200,"station_id":"ce4bh3p2rcd13ifvqdq0","pricing_plan_id":"free"},{"bike_id":"5cc704ae-bbfd-48a1-8ec4-59b4fafef502","system_id":"levelo_inurba_marseille","lat":43.286961,"lon":5.373785,"is_reserved":false,"is_disabled":false,"rental_uris":{"android":"levelo://app?vid=5cc704ae-bbfd-48a1-8ec4-59b4fafef502","ios":"levelo://app?vid=5cc704ae-bbfd-48a1-8ec4-59b4fafef502"},"vehicle_type_id":"4","last_reported":1693652714,"current_range_meters":5200,"station_id":"ce4bh3p2rcd13ifvqdq0","pricing_plan_id":"free"},{"bike_id":"db18dd1a-9800-456c-b440-a24fa7e1aff3","system_id":"levelo_inurba_marseille","lat":43.286961,"lon":5.373785,"is_reserved":false,"is_disabled":false,"rental_uris":{"android":"levelo://app?vid=db18dd1a-9800-456c-b440-a24fa7e1aff3","ios":"levelo://app?vid=db18dd1a-9800-456c-b440-a24fa7e1aff3"},"vehicle_type_id":"4","last_reported":1693652714,"current_range_meters":31200,"station_id":"ce4bh3p2rcd13ifvqdq0","pricing_plan_id":"free"},{"bike_id":"1d02627c-e26c-444f-8db1-a265dbe7801f","system_id":"levelo_inurba_marseille","lat":43.286961,"lon":5.373785,"is_reserved":false,"is_disabled":false,"rental_uris":{"android":"levelo://app?vid=1d02627c-e26c-444f-8db1-a265dbe7801f","ios":"levelo://app?vid=1d02627c-e26c-444f-8db1-a265dbe7801f"},"vehicle_type_id":"4","last_reported":1693652714,"current_range_meters":28800,"station_id":"ce4bh3p2rcd13ifvqdq0","pricing_plan_id":"free"},{"bike_id":"87815280-c744-4e3b-befb-b0f4f7739247","system_id":"levelo_inurba_marseille","lat":43.286961,"lon":5.373785,"is_reserved":false,"is_disabled":false,"rental_uris":{"android":"levelo://app?vid=87815280-c744-4e3b-befb-b0f4f7739247","ios":"levelo://app?vid=87815280-c744-4e3b-befb-b0f4f7739247"},"vehicle_type_id":"4","last_reported":1693652714,"current_range_meters":17600,"station_id":"ce4bh3p2rcd13ifvqdq0","pricing_plan_id":"free"},{"bike_id":"75199276-b705-4ad7-b6a9-49aeaa84628a","system_id":"levelo_inurba_marseille","lat":43.286591,"lon":5.363346,"is_reserved":false,"is_disabled":false,"rental_uris":{"android":"levelo://app?vid=75199276-b705-4ad7-b6a9-49aeaa84628a","ios":"levelo://app?vid=75199276-b705-4ad7-b6a9-49aeaa84628a"},"vehicle_type_id":"4","last_reported":1693652714,"current_range_meters":28400,"station_id":"ce4bhah2rcd13ifvqej0","pricing_plan_id":"free"},{"bike_id":"40274788-9d88-4e50-b6d4-089aef9ca58c","system_id":"levelo_inurba_marseille","lat":43.295196,"lon":5.39397,"is_reserved":false,"is_disabled":false,"rental_uris":{"android":"levelo://app?vid=40274788-9d88-4e50-b6d4-089aef9ca58c","ios":"levelo://app?vid=40274788-9d88-4e50-b6d4-089aef9ca58c"},"vehicle_type_id":"4","last_reported":1693652714,"current_range_meters":25600,"station_id":"ce4bh292rcd13ifvqdf0","pricing_plan_id":"free"},{"bike_id":"2365150f-73ab-4507-aea4-76016e6109c8","system_id":"levelo_inurba_marseille","lat":43.286591,"lon":5.363346,"is_reserved":false,"is_disabled":false,"rental_uris":{"android":"levelo://app?vid=2365150f-73ab-4507-aea4-76016e6109c8","ios":"levelo://app?vid=2365150f-73ab-4507-aea4-76016e6109c8"},"vehicle_type_id":"4","last_reported":1693652714,"current_range_meters":26400,"station_id":"ce4bhah2rcd13ifvqej0","pricing_plan_id":"free"},{"bike_id":"2fc620f6-1ef0-4a76-8bcb-ae62c6165642","system_id":"levelo_inurba_marseille","lat":43.286961,"lon":5.373785,"is_reserved":false,"is_disabled":false,"rental_uris":{"android":"levelo://app?vid=2fc620f6-1ef0-4a76-8bcb-ae62c6165642","ios":"levelo://app?vid=2fc620f6-1ef0-4a76-8bcb-ae62c6165642"},"vehicle_type_id":"4","last_reported":1693652714,"current_range_meters":2800,"station_id":"ce4bh3p2rcd13ifvqdq0","pricing_plan_id":"free"},{"bike_id":"0737f34d-6622-4f67-a946-34dc4d5e2ad1","system_id":"levelo_inurba_marseille","lat":43.290345,"lon":5.38646,"is_reserved":false,"is_disabled":false,"rental_uris":{"android":"levelo://app?vid=0737f34d-6622-4f67-a946-34dc4d5e2ad1","ios":"levelo://app?vid=0737f34d-6622-4f67-a946-34dc4d5e2ad1"},"vehicle_type_id":"4","last_reported":1693652714,"current_range_meters":16000,"station_id":"ce4bh4p2rcd13ifvqe0g","pricing_plan_id":"free"},{"bike_id":"e8e6ddc7-9268-4381-b7ff-9efd75828f80","system_id":"levelo_inurba_marseille","lat":43.290345,"lon":5.38646,"is_reserved":false,"is_disabled":false,"rental_uris":{"android":"levelo://app?vid=e8e6ddc7-9268-4381-b7ff-9efd75828f80","ios":"levelo://app?vid=e8e6ddc7-9268-4381-b7ff-9efd75828f80"},"vehicle_type_id":"4","last_reported":1693652714,"current_range_meters":800,"station_id":"ce4bh4p2rcd13ifvqe0g","pricing_plan_id":"free"},{"bike_id":"39f2cf20-0a25-421a-b3b3-dd4e851a1579","system_id":"levelo_inurba_marseille","lat":43.29042,"lon":5.38673,"is_reserved":false,"is_disabled":false,"rental_uris":{"android":"levelo://app?vid=39f2cf20-0a25-421a-b3b3-dd4e851a1579","ios":"levelo://app?vid=39f2cf20-0a25-421a-b3b3-dd4e851a1579"},"vehicle_type_id":"4","last_reported":1693652714,"current_range_meters":24000,"station_id":"ce4bh4p2rcd13ifvqe0g","pricing_plan_id":"free"},{"bike_id":"1f2d85af-d032-4c05-80ca-906118d79b4b","system_id":"levelo_inurba_marseille","lat":43.286039,"lon":5.370679,"is_reserved":false,"is_disabled":false,"rental_uris":{"android":"levelo://app?vid=1f2d85af-d032-4c05-80ca-906118d79b4b","ios":"levelo://app?vid=1f2d85af-d032-4c05-80ca-906118d79b4b"},"vehicle_type_id":"4","last_reported":1693652714,"current_range_meters":26000,"station_id":"ce4bht12rcd13ifvqi60","pricing_plan_id":"free"},{"bike_id":"fbf1f0fc-fe21-416b-be60-ba56260af6ea","system_id":"levelo_inurba_marseille","lat":43.28418,"lon":5.3726,"is_reserved":false,"is_disabled":false,"rental_uris":{"android":"levelo://app?vid=fbf1f0fc-fe21-416b-be60-ba56260af6ea","ios":"levelo://app?vid=fbf1f0fc-fe21-416b-be60-ba56260af6ea"},"vehicle_type_id":"4","last_reported":1693652714,"current_range_meters":23600,"station_id":"","pricing_plan_id":"free"},{"bike_id":"78f8f767-5e8a-4073-85dd-0371506bf2c8","system_id":"levelo_inurba_marseille","lat":43.28619,"lon":5.35111,"is_reserved":false,"is_disabled":false,"rental_uris":{"android":"levelo://app?vid=78f8f767-5e8a-4073-85dd-0371506bf2c8","ios":"levelo://app?vid=78f8f767-5e8a-4073-85dd-0371506bf2c8"},"vehicle_type_id":"4","last_reported":1693652714,"current_range_meters":10800,"station_id":"ce4bhch2rcd13ifvqeug","pricing_plan_id":"free"},{"bike_id":"c160ba85-e24a-4383-9054-3b909048e6f5","system_id":"levelo_inurba_marseille","lat":43.28615,"lon":5.35112,"is_reserved":false,"is_disabled":false,"rental_uris":{"android":"levelo://app?vid=c160ba85-e24a-4383-9054-3b909048e6f5","ios":"levelo://app?vid=c160ba85-e24a-4383-9054-3b909048e6f5"},"vehicle_type_id":"4","last_reported":1693652714,"current_range_meters":27200,"station_id":"ce4bhch2rcd13ifvqeug","pricing_plan_id":"free"},{"bike_id":"aeae9195-baaa-4ca0-b200-32b7ed02ba1d","system_id":"levelo_inurba_marseille","lat":43.28416,"lon":5.37512,"is_reserved":false,"is_disabled":false,"rental_uris":{"android":"levelo://app?vid=aeae9195-baaa-4ca0-b200-32b7ed02ba1d","ios":"levelo://app?vid=aeae9195-baaa-4ca0-b200-32b7ed02ba1d"},"vehicle_type_id":"4","last_reported":1693652714,"current_range_meters":0,"station_id":"ce4bh412rcd13ifvqds0","pricing_plan_id":"free"},{"bike_id":"9ad9b7cc-82e4-479e-8f8a-49b5ad73dabc","system_id":"levelo_inurba_marseille","lat":43.284125,"lon":5.375117,"is_reserved":false,"is_disabled":false,"rental_uris":{"android":"levelo://app?vid=9ad9b7cc-82e4-479e-8f8a-49b5ad73dabc","ios":"levelo://app?vid=9ad9b7cc-82e4-479e-8f8a-49b5ad73dabc"},"vehicle_type_id":"4","last_reported":1693652714,"current_range_meters":400,"station_id":"ce4bh412rcd13ifvqds0","pricing_plan_id":"free"},{"bike_id":"ea224768-606c-4479-af9c-aef3b01e77b6","system_id":"levelo_inurba_marseille","lat":43.284087,"lon":5.375038,"is_reserved":false,"is_disabled":false,"rental_uris":{"android":"levelo://app?vid=ea224768-606c-4479-af9c-aef3b01e77b6","ios":"levelo://app?vid=ea224768-606c-4479-af9c-aef3b01e77b6"},"vehicle_type_id":"4","last_reported":1693652714,"current_range_meters":20800,"station_id":"","pricing_plan_id":"free"},{"bike_id":"4591dcec-1dbf-4a95-89e7-08ce43909ec2","system_id":"levelo_inurba_marseille","lat":43.2841,"lon":5.37519,"is_reserved":false,"is_disabled":false,"rental_uris":{"android":"levelo://app?vid=4591dcec-1dbf-4a95-89e7-08ce43909ec2","ios":"levelo://app?vid=4591dcec-1dbf-4a95-89e7-08ce43909ec2"},"vehicle_type_id":"4","last_reported":1693652714,"current_range_meters":10800,"station_id":"ce4bh412rcd13ifvqds0","pricing_plan_id":"free"},