{"last_updated":1766074591,"ttl":60,"version":"2.2","data":{"bikes":[{"bike_id":"8c806aae-e17e-424c-bd21-e96f2d347d0d","system_id":"levelo_inurba_marseille","lat":43.30788,"lon":5.37657,"is_reserved":false,"is_disabled":false,"rental_uris":{"android":"levelo://app?vid=8c806aae-e17e-424c-bd21-e96f2d347d0d","ios":"levelo://app?vid=8c806aae-e17e-424c-bd21-e96f2d347d0d"},"vehicle_type_id":"4","last_reported":1766074591,"current_range_meters":2800,"station_id":"ce4bgv92rcd13ifvqcq0","pricing_plan_id":"cebpf4jnsgd1na2vs0mg"},{"bike_id":"b009ae6b-2675-4c38-be25-6f56aaebf84e","system_id":"levelo_inurba_marseille","lat":43.2792,"lon":5.39579,"is_reserved":false,"is_disabled":false,"rental_uris":{"android":"levelo://app?vid=b009ae6b-2675-4c38-be25-6f56aaebf84e","ios":"levelo://app?vid=b009ae6b-2675-4c38-be25-6f56aaebf84e"},"vehicle_type_id":"4","last_reported":1766074591,"current_range_meters":2800,"station_id":"ce4bhf92rcd13ifvqf40","pricing_plan_id":"cebpf4jnsgd1na2vs0mg"},{"bike_id":"52a54e30-98ea-4cde-b62d-e76ff0fd87ba","system_id":"levelo_inurba_marseille","lat":43.2749,"lon":5.42439,"is_reserved":false,"is_disabled":true,"rental_uris":{"android":"levelo://app?vid=52a54e30-98ea-4cde-b62d-e76ff0fd87ba","ios":"levelo://app?vid=52a54e30-98ea-4cde-b62d-e76ff0fd87ba"},"vehicle_type_id":"4","last_reported":1766074591,"current_range_meters":2800,"station_id":"ce4bhn92rcd13ifvqgrg","pricing_plan_id":"cebpf4jnsgd1na2vs0mg"},{"bike_id":"b837e29c-a49d-4037-8ffb-c58ec3701d59","system_id":"levelo_inurba_marseille","lat":43.3116,"lon":5.45414,"is_reserved":false,"is_disabled":false,"rental_uris":{"android":"levelo://app?vid=b837e29c-a49d-4037-8ffb-c58ec3701d59","ios":"levelo://app?vid=b837e29c-a49d-4037-8ffb-c58ec3701d59"},"vehicle_type_id":"4","last_reported":1766074591,"current_range_meters":2800,"station_id":"","pricing_plan_id":"cebpf4jnsgd1na2vs0mg"},{"bike_id":"c4604d6b-d1b0-49a9-9e36-6aee2c0ad7f5","system_id":"levelo_inurba_marseille","lat":43.2694,"lon":5.40259,"is_reserved":false,"is_disabled":false,"rental_uris":{"android":"levelo://app?vid=c4604d6b-d1b0-49a9-9e36-6aee2c0ad7f5","ios":"levelo://app?vid=c4604d6b-d1b0-49a9-9e36-6aee2c0ad7f5"},"vehicle_type_id":"4","last_reported":1766074591,"current_range_meters":2800,"station_id":"cjm6bp8fraef2m0cb0m0","pricing_plan_id":"cebpf4jnsgd1na2vs0mg"},{"bike_id":"339d251b-5332-4901-aae2-eda8f9aa1d79","system_id":"levelo_inurba_marseille","lat":43.27076,"lon":5.42286,"is_reserved":false,"is_disabled":true,"rental_uris":{"android":"levelo://app?vid=339d251b-5332-4901-aae2-eda8f9aa1d79","ios":"levelo://app?vid=339d251b-5332-4901-aae2-eda8f9aa1d79"},"vehicle_type_id":"4","last_reported":1766074591,"current_range_meters":3200,"station_id":"ce4bhk92rcd13ifvqgb0","pricing_plan_id":"cebpf4jnsgd1na2vs0mg"},{"bike_id":"bd448f3f-de5e-49bd-b8a0-14472dcc752a","system_id":"levelo_inurba_marseille","lat":43.302976,"lon":5.377219,"is_reserved":false,"is_disabled":false,"rental_uris":{"android":"levelo://app?vid=bd448f3f-de5e-49bd-b8a0-14472dcc752a","ios":"levelo://app?vid=bd448f3f-de5e-49bd-b8a0-14472dcc752a"},"vehicle_type_id":"4","last_reported":1766074591,"current_range_meters":3200,"station_id":"ce4bguh2rcd13ifvqcj0","pricing_plan_id":"cebpf4jnsgd1na2vs0mg"},{"bike_id":"02625ee3-be9e-4d61-a339-cf789444d996","system_id":"levelo_inurba_marseille","lat":43.26568,"lon":5.39008,"is_reserved":false,"is_disabled":false,"rental_uris":{"android":"levelo://app?vid=02625ee3-be9e-4d61-a339-cf789444d996","ios":"levelo://app?vid=02625ee3-be9e-4d61-a339-cf789444d996"},"vehicle_type_id":"4","last_reported":1766074591,"current_range_meters":3200,"station_id":"ce4bhe12rcd13ifvqf30","pricing_plan_id":"cebpf4jnsgd1na2vs0mg"},{"bike_id":"59da6d86-e403-4671-9d02-c09d5b95b577","system_id":"levelo_inurba_marseille","lat":43.306105,"lon":5.393471,"is_reserved":false,"is_disabled":false,"rental_uris":{"android":"levelo://app?vid=59da6d86-e403-4671-9d02-c09d5b95b577","ios":"levelo://app?vid=59da6d86-e403-4671-9d02-c09d5b95b577"},"vehicle_type_id":"4","last_reported":1766074591,"current_range_meters":3200,"station_id":"ce4bh0p2rcd13ifvqd80","pricing_plan_id":"cebpf4jnsgd1na2vs0mg"},{"bike_id":"da1b0410-bb02-4ac2-822d-7767af060fb5","system_id":"levelo_inurba_marseille","lat":43.28628,"lon":5.35102,"is_reserved":false,"is_disabled":false,"rental_uris":{"android":"levelo://app?vid=da1b0410-bb02-4ac2-822d-7767af060fb5","ios":"levelo://app?vid=da1b0410-bb02-4ac2-822d-7767af060fb5"},"vehicle_type_id":"4","last_reported":1766074591,"current_range_meters":3600,"station_id":"ce4bhch2rcd13ifvqeug","pricing_plan_id":"cebpf4jnsgd1na2vs0mg"},{"bike_id":"075753f2-03fc-482d-992a-1a659c9f27f8","system_id":"levelo_inurba_marseille","lat":43.28218,"lon":5.34909,"is_reserved":false,"is_disabled":false,"rental_uris":{"android":"levelo://app?vid=075753f2-03fc-482d-992a-1a659c9f27f8","ios":"levelo://app?vid=075753f2-03fc-482d-992a-1a659c9f27f8"},"vehicle_type_id":"4","last_reported":1766074591,"current_range_meters":3600,"station_id":"","pricing_plan_id":"cebpf4jnsgd1na2vs0mg"},{"bike_id":"5851d52e-fbb2-483b-8fb4-82314e02e660","system_id":"levelo_inurba_marseille","lat":43.29915,"lon":5.37483,"is_reserved":false,"is_disabled":false,"rental_uris":{"android":"levelo://app?vid=5851d52e-fbb2-483b-8fb4-82314e02e660","ios":"levelo://app?vid=5851d52e-fbb2-483b-8fb4-82314e02e660"},"vehicle_type_id":"4","last_reported":1766074591,"current_range_meters":3600,"station_id":"ce4bgjh2rcd13ifvqbg0","pricing_plan_id":"cebpf4jnsgd1na2vs0mg"},{"bike_id":"841d168f-3890-4dd8-a60a-0852ae3fc4a1","system_id":"levelo_inurba_marseille","lat":43.30275,"lon":5.37254,"is_reserved":false,"is_disabled":false,"rental_uris":{"android":"levelo://app?vid=841d168f-3890-4dd8-a60a-0852ae3fc4a1","ios":"levelo://app?vid=841d168f-3890-4dd8-a60a-0852ae3fc4a1"},"vehicle_type_id":"4","last_reported":1766074591,"current_range_meters":3600,"station_id":"","pricing_plan_id":"cebpf4jnsgd1na2vs0mg"},{"bike_id":"d5c6fa74-6555-4e9a-b747-1273f1992163","system_id":"levelo_inurba_marseille","lat":43.3018,"lon":5.36313,"is_reserved":false,"is_disabled":false,"rental_uris":{"android":"levelo://app?vid=d5c6fa74-6555-4e9a-b747-1273f1992163","ios":"levelo://app?vid=d5c6fa74-6555-4e9a-b747-1273f1992163"},"vehicle_type_id":"4","last_reported":1766074591,"current_range_meters":3600,"station_id":"","pricing_plan_id":"cebpf4jnsgd1na2vs0mg"},{"bike_id":"823ef8e5-616e-447b-847f-be62021dc445","system_id":"levelo_inurba_marseille","lat":43.30534,"lon":5.36533,"is_reserved":false,"is_disabled":false,"rental_uris":{"android":"levelo://app?vid=823ef8e5-616e-447b-847f-be62021dc445","ios":"levelo://app?vid=823ef8e5-616e-447b-847f-be62021dc445"},"vehicle_type_id":"4","last_reported":1766074591,"current_range_meters":3600,"station_id":"ce4bgs12rcd13ifvqcag","pricing_plan_id":"cebpf4jnsgd1na2vs0mg"},{"bike_id":"d8a7fef2-72f4-4296-a870-17ff5ebeb160","system_id":"levelo_inurba_marseille","lat":43.292801,"lon":5.401155,"is_reserved":false,"is_disabled":false,"rental_uris":{"android":"levelo://app?vid=d8a7fef2-72f4-4296-a870-17ff5ebeb160","ios":"levelo://app?vid=d8a7fef2-72f4-4296-a870-17ff5ebeb160"},"vehicle_type_id":"4","last_reported":1766074591,"current_range_meters":4000,"station_id":"","pricing_plan_id":"cebpf4jnsgd1na2vs0mg"},{"bike_id":"08846695-4080-42ce-9b21-ab23109e6261","system_id":"levelo_inurba_marseille","lat":43.29621,"lon":5.40589,"is_reserved":false,"is_disabled":false,"rental_uris":{"android":"levelo://app?vid=08846695-4080-42ce-9b21-ab23109e6261","ios":"levelo://app?vid=08846695-4080-42ce-9b21-ab23109e6261"},"vehicle_type_id":"4","last_reported":1766074591,"current_range_meters":4000,"station_id":"ce4bh0h2rcd13ifvqd60","pricing_plan_id":"cebpf4jnsgd1na2vs0mg"},{"bike_id":"46f953ce-a930-4ec9-b6c1-e54d3ddf5b41","system_id":"levelo_inurba_marseille","lat":43.26492,"lon":5.39544,"is_reserved":false,"is_disabled":false,"rental_uris":{"android":"levelo://app?vid=46f953ce-a930-4ec9-b6c1-e54d3ddf5b41","ios":"levelo://app?vid=46f953ce-a930-4ec9-b6c1-e54d3ddf5b41"},"vehicle_type_id":"4","last_reported":1766074591,"current_range_meters":4000,"station_id":"ce4bhi12rcd13ifvqfq0","pricing_plan_id":"cebpf4jnsgd1na2vs0mg"},{"bike_id":"846ba82f-b80b-4118-ba94-f1f7e836af7f","system_id":"levelo_inurba_marseille","lat":43.33757,"lon":5.374367,"is_reserved":false,"is_disabled":false,"rental_uris":{"android":"levelo://app?vid=846ba82f-b80b-4118-ba94-f1f7e836af7f","ios":"levelo://app?vid=846ba82f-b80b-4118-ba94-f1f7e836af7f"},"vehicle_type_id":"4","last_reported":1766074591,"current_range_meters":4400,"station_id":"","pricing_plan_id":"cebpf4jnsgd1na2vs0mg"},{"bike_id":"d2e0fc66-258e-4bc8-9197-617ec4fffaae","system_id":"levelo_inurba_marseille","lat":43.23063,"lon":5.3549,"is_reserved":false,"is_disabled":false,"rental_uris":{"android":"levelo://app?vid=d2e0fc66-258e-4bc8-9197-617ec4fffaae","ios":"levelo://app?vid=d2e0fc66-258e-4bc8-9197-617ec4fffaae"},"vehicle_type_id":"4","last_reported":1766074591,"current_range_meters":4400,"station_id":"cpo3342slgdg3j2ifvpg","pricing_plan_id":"cebpf4jnsgd1na2vs0mg"},{"bike_id":"7be18156-b8d4-4ae5-a3c5-252878b040c1","system_id":"levelo_inurba_marseille","lat":43.278056,"lon":5.407181,"is_reserved":false,"is_disabled":false,"rental_uris":{"android":"levelo://app?vid=7be18156-b8d4-4ae5-a3c5-252878b040c1","ios":"levelo://app?vid=7be18156-b8d4-4ae5-a3c5-252878b040c1"},"vehicle_type_id":"4","last_reported":1766074591,"current_range_meters":4400,"station_id":"ce4bhnh2rcd13ifvqgtg","pricing_plan_id":"cebpf4jnsgd1na2vs0mg"},{"bike_id":"f5e134f7-8b1b-4513-8f19-91c3b45c2d03","system_id":"levelo_inurba_marseille","lat":43.249488,"lon":5.404869,"is_reserved":false,"is_disabled":false,"rental_uris":{"android":"levelo://app?vid=f5e134f7-8b1b-4513-8f19-91c3b45c2d03","ios":"levelo://app?vid=f5e134f7-8b1b-4513-8f19-91c3b45c2d03"},"vehicle_type_id":"4","last_reported":1766074591,"current_range_meters":4400,"station_id":"st_d2ngiaodas8pm72gd1h0","pricing_plan_id":"cebpf4jnsgd1na2vs0mg"},{"bike_id":"39155204-1342-4c68-978b-cd5c51e7cf47","system_id":"levelo_inurba_marseille","lat":43.24465,"lon":5.4254,"is_reserved":false,"is_disabled":false,"rental_uris":{"android":"levelo://app?vid=39155204-1342-4c68-978b-cd5c51e7cf47","ios":"levelo://app?vid=39155204-1342-4c68-978b-cd5c51e7cf47"},"vehicle_type_id":"4","last_reported":1766074591,"current_range_meters":4400,"station_id":"st_d4a3vfp97mjs738cd8kg","pricing_plan_id":"cebpf4jnsgd1na2vs0mg"},{"bike_id":"2d1bc501-359d-4604-ae95-6b977211179d","system_id":"levelo_inurba_marseille","lat":43.301258,"lon":5.398602,"is_reserved":false,"is_disabled":false,"rental_uris":{"android":"levelo://app?vid=2d1bc501-359d-4604-ae95-6b977211179d","ios":"levelo://app?vid=2d1bc501-359d-4604-ae95-6b977211179d"},"vehicle_type_id":"4","last_reported":1766074591,"current_range_meters":4800,"station_id":"ce4bh0h2rcd13ifvqd40","pricing_plan_id":"cebpf4jnsgd1na2vs0mg"},{"bike_id":"28d18dd4-d798-4670-933d-f68276abfbc1","system_id":"levelo_inurba_marseille","lat":43.27184,"lon":5.39134,"is_reserved":false,"is_disabled":false,"rental_uris":{"android":"levelo://app?vid=28d18dd4-d798-4670-933d-f68276abfbc1","ios":"levelo://app?vid=28d18dd4-d798-4670-933d-f68276abfbc1"},"vehicle_type_id":"4","last_reported":1766074591,"current_range_meters":4800,"station_id":"ce4bhhp2rcd13ifvqfm0","pricing_plan_id":"cebpf4jnsgd1na2vs0mg"},{"bike_id":"0af75a64-f678-4c57-a5d3-3e99a7ddd47a","system_id":"levelo_inurba_marseille","lat":43.29194,"lon":5.35796,"is_reserved":false,"is_disabled":false,"rental_uris":{"android":"levelo://app?vid=0af75a64-f678-4c57-a5d3-3e99a7ddd47a","ios":"levelo://app?vid=0af75a64-f678-4c57-a5d3-3e99a7ddd47a"},"vehicle_type_id":"4","last_reported":1766074591,"current_range_meters":4800,"station_id":"ce4bhb12rcd13ifvqel0","pricing_plan_id":"cebpf4jnsgd1na2vs0mg"},{"bike_id":"f5b83fc4-f6e6-4fdf-908b-ba258cd66026","system_id":"levelo_inurba_marseille","lat":43.2495,"lon":5.40483,"is_reserved":false,"is_disabled":false,"rental_uris":{"android":"levelo://app?vid=f5b83fc4-f6e6-4fdf-908b-ba258cd66026","ios":"levelo://app?vid=f5b83fc4-f6e6-4fdf-908b-ba258cd66026"},"vehicle_type_id":"4","last_reported":1766074591,"current_range_meters":4800,"station_id":"st_d2ngiaodas8pm72gd1h0","pricing_plan_id":"cebpf4jnsgd1na2vs0mg"},{"bike_id":"1b034ca1-3266-497c-8a1e-bba0a20aece2","system_id":"levelo_inurba_marseille","lat":43.28101,"lon":5.37836,"is_reserved":false,"is_disabled":false,"rental_uris":{"android":"levelo://app?vid=1b034ca1-3266-497c-8a1e-bba0a20aece2","ios":"levelo://app?vid=1b034ca1-3266-497c-8a1e-bba0a20aece2"},"vehicle_type_id":"4","last_reported":1766074591,"current_range_meters":4800,"station_id":"ce4bha12rcd13ifvqee0","pricing_plan_id":"cebpf4jnsgd1na2vs0mg"},{"bike_id":"88390ea6-43bd-4ce0-9d18-781ea6610ea4","system_id":"levelo_inurba_marseille","lat":43.300057,"lon":5.38499,"is_reserved":false,"is_disabled":false,"rental_uris":{"android":"levelo://app?vid=88390ea6-43bd-4ce0-9d18-781ea6610ea4","ios":"levelo://app?vid=88390ea6-43bd-4ce0-9d18-781ea6610ea4"},"vehicle_type_id":"4","last_reported":1766074591,"current_range_meters":5600,"station_id":"ce4bgkh2rcd13ifvqbk0","pricing_plan_id":"cebpf4jnsgd1na2vs0mg"},{"bike_id":"a64f958d-4227-4529-8af6-32d203e89682","system_id":"levelo_inurba_marseille","lat":43.2923,"lon":5.36072,"is_reserved":false,"is_disabled":false,"rental_uris":{"android":"levelo://app?vid=a64f958d-4227-4529-8af6-32d203e89682","ios":"levelo://app?vid=a64f958d-4227-4529-8af6-32d203e89682"},"vehicle_type_id":"4","last_reported":1766074591,"current_range_meters":5600,"station_id":"ce4bhbh2rcd13ifvqeqg","pricing_plan_id":"cebpf4jnsgd1na2vs0mg"},{"bike_id":"99d8ea02-e747-4c23-aa82-fb9ccdafa88a","system_id":"levelo_inurba_marseille","lat":43.25083,"lon":5.39515,"is_reserved":false,"is_disabled":false,"rental_uris":{"android":"levelo://app?vid=99d8ea02-e747-4c23-aa82-fb9ccdafa88a","ios":"levelo://app?vid=99d8ea02-e747-4c23-aa82-fb9ccdafa88a"},"vehicle_type_id":"4","last_reported":1766074591,"current_range_meters":5600,"station_id":"ce4bhm12rcd13ifvqgkg","pricing_plan_id":"cebpf4jnsgd1na2vs0mg"},{"bike_id":"861b1df6-bf48-4c6a-9f91-e22e776fa80b","system_id":"levelo_inurba_marseille","lat":43.27669,"lon":5.3889,"is_reserved":false,"is_disabled":false,"rental_uris":{"android":"levelo://app?vid=861b1df6-bf48-4c6a-9f91-e22e776fa80b","ios":"levelo://app?vid=861b1df6-bf48-4c6a-9f91-e22e776fa80b"},"vehicle_type_id":"4","last_reported":1766074591,"current_range_meters":5600,"station_id":"ce4bhi12rcd13ifvqfo0","pricing_plan_id":"cebpf4jnsgd1na2vs0mg"},{"bike_id":"421429dd-cc7d-47ec-9c23-d069c5b26c89","system_id":"levelo_inurba_marseille","lat":43.29723,"lon":5.37108,"is_reserved":false,"is_disabled":false,"rental_uris":{"android":"levelo://app?vid=421429dd-cc7d-47ec-9c23-d069c5b26c89","ios":"levelo://app?vid=421429dd-cc7d-47ec-9c23-d069c5b26c89"},"vehicle_type_id":"4","last_reported":1766074591,"current_range_meters":5600,"station_id":"","pricing_plan_id":"cebpf4jnsgd1na2vs0mg"},{"bike_id":"28c2c48f-4912-4202-b16f-85558f9e27cf","system_id":"levelo_inurba_marseille","lat":43.28935,"lon":5.36634,"is_reserved":false,"is_disabled":false,"rental_uris":{"android":"levelo://app?vid=28c2c48f-4912-4202-b16f-85558f9e27cf","ios":"levelo://app?vid=28c2c48f-4912-4202-b16f-85558f9e27cf"},"vehicle_type_id":"4","last_reported":1766074591,"current_range_meters":5600,"station_id":"ce4bhap2rcd13ifvqek0","pricing_plan_id":"cebpf4jnsgd1na2vs0mg"},{"bike_id":"2e08df65-c35b-4794-afe4-fbc75c417b79","system_id":"levelo_inurba_marseille","lat":43.23209,"lon":5.35549,"is_reserved":false,"is_disabled":false,"rental_uris":{"android":"levelo://app?vid=2e08df65-c35b-4794-afe4-fbc75c417b79","ios":"levelo://app?vid=2e08df65-c35b-4794-afe4-fbc75c417b79"},"vehicle_type_id":"4","last_reported":1766074591,"current_range_meters":5600,"station_id":"ce4bhu92rcd13ifvqi70","pricing_plan_id":"cebpf4jnsgd1na2vs0mg"},{"bike_id":"a6365b95-0c1f-4c94-a012-c0e22f4b2a20","system_id":"levelo_inurba_marseille","lat":43.317091,"lon":5.437087,"is_reserved":false,"is_disabled":false,"rental_uris":{"android":"levelo://app?vid=a6365b95-0c1f-4c94-a012-c0e22f4b2a20","ios":"levelo://app?vid=a6365b95-0c1f-4c94-a012-c0e22f4b2a20"},"vehicle_type_id":"4","last_reported":1766074591,"current_range_meters":6000,"station_id":"ce4bhp92rcd13ifvqhcg","pricing_plan_id":"cebpf4jnsgd1na2vs0mg"},{"bike_id":"0bb4aea0-cd2d-4260-9073-2602e9e1b1df","system_id":"levelo_inurba_marseille","lat":43.22532,"lon":5.34859,"is_reserved":false,"is_disabled":false,"rental_uris":{"android":"levelo://app?vid=0bb4aea0-cd2d-4260-9073-2602e9e1b1df","ios":"levelo://app?vid=0bb4aea0-cd2d-4260-9073-2602e9e1b1df"},"vehicle_type_id":"4","last_reported":1766074591,"current_range_meters":6400,"station_id":"","pricing_plan_id":"cebpf4jnsgd1na2vs0mg"},{"bike_id":"88031236-6a40-4d32-a503-adc00e8f1b31","system_id":"levelo_inurba_marseille","lat":43.33767,"lon":5.374479,"is_reserved":false,"is_disabled":false,"rental_uris":{"android":"levelo://app?vid=88031236-6a40-4d32-a503-adc00e8f1b31","ios":"levelo://app?vid=88031236-6a40-4d32-a503-adc00e8f1b31"},"vehicle_type_id":"4","last_reported":1766074591,"current_range_meters":6400,"station_id":"","pricing_plan_id":"cebpf4jnsgd1na2vs0mg"},{"bike_id":"cc178787-4e27-477e-85ac-bb874f1df1de","system_id":"levelo_inurba_marseille","lat":43.2733,"lon":5.41054,"is_reserved":false,"is_disabled":false,"rental_uris":{"android":"levelo://app?vid=cc178787-4e27-477e-85ac-bb874f1df1de","ios":"levelo://app?vid=cc178787-4e27-477e-85ac-bb874f1df1de"},"vehicle_type_id":"4","last_reported":1766074591,"current_range_meters":6400,"station_id":"","pricing_plan_id":"cebpf4jnsgd1na2vs0mg"},{"bike_id":"df706c25-b5cc-44a1-a733-4ee8d13fe7fc","system_id":"levelo_inurba_marseille","lat":43.30728,"lon":5.42446,"is_reserved":false,"is_disabled":false,"rental_uris":{"android":"levelo://app?vid=df706c25-b5cc-44a1-a733-4ee8d13fe7fc","ios":"levelo://app?vid=df706c25-b5cc-44a1-a733-4ee8d13fe7fc"},"vehicle_type_id":"4","last_reported":1766074591,"current_range_meters":6400,"station_id":"st_cvj6ca6bvosntc0bfgr0","pricing_plan_id":"cebpf4jnsgd1na2vs0mg"},{"bike_id":"4d4a609f-fc61-4268-af29-20a1a3688ae7","system_id":"levelo_inurba_marseille","lat":43.26231,"lon":5.40462,"is_reserved":false,"is_disabled":false,"rental_uris":{"android":"levelo://app?vid=4d4a609f-fc61-4268-af29-20a1a3688ae7","ios":"levelo://app?vid=4d4a609f-fc61-4268-af29-20a1a3688ae7"},"vehicle_type_id":"4","last_reported":1766074591,"current_range_meters":6400,"station_id":"ce4bhmh2rcd13ifvqgmg","pricing_plan_id":"cebpf4jnsgd1na2vs0mg"},{"bike_id":"b9e289e9-e1d8-4db9-8eeb-d4ae6610e1bb","system_id":"levelo_inurba_marseille","lat":43.288647,"lon":5.425255,"is_reserved":false,"is_disabled":false,"rental_uris":{"android":"levelo://app?vid=b9e289e9-e1d8-4db9-8eeb-d4ae6610e1bb","ios":"levelo://app?vid=b9e289e9-e1d8-4db9-8eeb-d4ae6610e1bb"},"vehicle_type_id":"4","last_reported":1766074591,"current_range_meters":6800,"station_id":"st_d3b462108ojc7389ooeg","pricing_plan_id":"cebpf4jnsgd1na2vs0mg"},{"bike_id":"ce8b4523-7a5c-4302-9877-ca7e1ec019ce","system_id":"levelo_inurba_marseille","lat":43.2465,"lon":5.38888,"is_reserved":false,"is_disabled":false,"rental_uris":{"android":"levelo://app?vid=ce8b4523-7a5c-4302-9877-ca7e1ec019ce","ios":"levelo://app?vid=ce8b4523-7a5c-4302-9877-ca7e1ec019ce"},"vehicle_type_id":"4","last_reported":1766074591,"current_range_meters":6800,"station_id":"ce4bhg12rcd13ifvqf60","pricing_plan_id":"cebpf4jnsgd1na2vs0mg"},{"bike_id":"f3607529-0dad-476a-8883-3217d4a2fca7","system_id":"levelo_inurba_marseille","lat":43.25583,"lon":5.38228,"is_reserved":false,"is_disabled":false,"rental_uris":{"android":"levelo://app?vid=f3607529-0dad-476a-8883-3217d4a2fca7","ios":"levelo://app?vid=f3607529-0dad-476a-8883-3217d4a2fca7"},"vehicle_type_id":"4","last_reported":1766074591,"current_range_meters":6800,"station_id":"ce4bhih2rcd13ifvqfs0","pricing_plan_id":"cebpf4jnsgd1na2vs0mg"},{"bike_id":"a1ac0ba7-1483-464e-9caa-755fc64f46a4","system_id":"levelo_inurba_marseille","lat":43.24088,"lon":5.3788,"is_reserved":false,"is_disabled":false,"rental_uris":{"android":"levelo://app?vid=a1ac0ba7-1483-464e-9caa-755fc64f46a4","ios":"levelo://app?vid=a1ac0ba7-1483-464e-9caa-755fc64f46a4"},"vehicle_type_id":"4","last_reported":1766074591,"current_range_meters":6800,"station_id":"","pricing_plan_id":"cebpf4jnsgd1na2vs0mg"},{"bike_id":"07102bbf-8e43-4cc8-abfb-b7bffaf00185","system_id":"levelo_inurba_marseille","lat":43.29383,"lon":5.3626,"is_reserved":false,"is_disabled":false,"rental_uris":{"android":"levelo://app?vid=07102bbf-8e43-4cc8-abfb-b7bffaf00185","ios":"levelo://app?vid=07102bbf-8e43-4cc8-abfb-b7bffaf00185"},"vehicle_type_id":"4","last_reported":1766074591,"current_range_meters":7200,"station_id":"","pricing_plan_id":"cebpf4jnsgd1na2vs0mg"},{"bike_id":"518ae65b-36a2-4932-916e-e758d6bb11c9","system_id":"levelo_inurba_marseille","lat":43.23782,"lon":5.36628,"is_reserved":false,"is_disabled":false,"rental_uris":{"android":"levelo://app?vid=518ae65b-36a2-4932-916e-e758d6bb11c9","ios":"levelo://app?vid=518ae65b-36a2-4932-916e-e758d6bb11c9"},"vehicle_type_id":"4","last_reported":1766074591,"current_range_meters":7200,"station_id":"st_d3nk18o9ro0c73en2l3g","pricing_plan_id":"cebpf4jnsgd1na2vs0mg"},{"bike_id":"50e6eefe-8aea-4054-ab8f-87d6e301ff34","system_id":"levelo_inurba_marseille","lat":43.24301,"lon":5.43823,"is_reserved":false,"is_disabled":false,"rental_uris":{"android":"levelo://app?vid=50e6eefe-8aea-4054-ab8f-87d6e301ff34","ios":"levelo://app?vid=50e6eefe-8aea-4054-ab8f-87d6e301ff34"},"vehicle_type_id":"4","last_reported":1766074591,"current_range_meters":7200,"station_id":"","pricing_plan_id":"cebpf4jnsgd1na2vs0mg"},{"bike_id":"f1f74614-33ac-441f-af80-d784b5e55bd2","system_id":"levelo_inurba_marseille","lat":43.32936,"lon":5.3973,"is_reserved":false,"is_disabled":false,"rental_uris":{"android":"levelo://app?vid=f1f74614-33ac-441f-af80-d784b5e55bd2","ios":"levelo://app?vid=f1f74614-33ac-441f-af80-d784b5e55bd2"},"vehicle_type_id":"4","last_reported":1766074591,"current_range_meters":7200,"station_id":"","pricing_plan_id":"cebpf4jnsgd1na2vs0mg"},{"bike_id":"52f1af7e-5601-4e4e-9ae7-2043cdcbc26e","system_id":"levelo_inurba_marseille","lat":43.27208,"lon":5.39178,"is_reserved":false,"is_disabled":false,"rental_uris":{"android":"levelo://app?vid=52f1af7e-5601-4e4e-9ae7-2043cdcbc26e","ios":"levelo://app?vid=52f1af7e-5601-4e4e-9ae7-2043cdcbc26e"},"vehicle_type_id":"4","last_reported":1766074591,"current_range_meters":8000,"station_id":"ce4bhhp2rcd13ifvqfm0","pricing_plan_id":"cebpf4jnsgd1na2vs0mg"},{"bike_id":"05c11225-843a-47cc-ae7a-625ff555981b","system_id":"levelo_inurba_marseille","lat":43.23782,"lon":5.36624,"is_reserved":false,"is_disabled":false,"rental_uris":{"android":"levelo://app?vid=05c11225-843a-47cc-ae7a-625ff555981b","ios":"levelo://app?vid=05c11225-843a-47cc-ae7a-625ff555981b"},"vehicle_type_id":"4","last_reported":1766074591,"current_range_meters":8000,"station_id":"st_d3nk18o9ro0c73en2l3g","pricing_plan_id":"cebpf4jnsgd1na2vs0mg"},{"bike_id":"c7e5daf3-a6b0-4ffc-8e95-134c47362fa1","system_id":"levelo_inurba_marseille","lat":43.30105,"lon":5.36871,"is_reserved":false,"is_disabled":false,"rental_uris":{"android":"levelo://app?vid=c7e5daf3-a6b0-4ffc-8e95-134c47362fa1","ios":"levelo://app?vid=c7e5daf3-a6b0-4ffc-8e95-134c47362fa1"},"vehicle_type_id":"4","last_reported":1766074591,"current_range_meters":8000,"station_id":"","pricing_plan_id":"cebpf4jnsgd1na2vs0mg"},{"bike_id":"41d34208-afa0-4b81-9224-6524a2a91a9d","system_id":"levelo_inurba_marseille","lat":43.25575,"lon":5.38227,"is_reserved":false,"is_disabled":false,"rental_uris":{"android":"levelo://app?vid=41d34208-afa0-4b81-9224-6524a2a91a9d","ios":"levelo://app?vid=41d34208-afa0-4b81-9224-6524a2a91a9d"},"vehicle_type_id":"4","last_reported":1766074591,"current_range_meters":8000,"station_id":"ce4bhih2rcd13ifvqfs0","pricing_plan_id":"cebpf4jnsgd1na2vs0mg"},{"bike_id":"c0609688-7883-4c8d-9a09-383d710a32b3","system_id":"levelo_inurba_marseille","lat":43.26802,"lon":5.40266,"is_reserved":false,"is_disabled":false,"rental_uris":{"android":"levelo://app?vid=c0609688-7883-4c8d-9a09-383d710a32b3","ios":"levelo://app?vid=c0609688-7883-4c8d-9a09-383d710a32b3"},"vehicle_type_id":"4","last_reported":1766074591,"current_range_meters":8000,"station_id":"ce501612rcd8frsf0b60","pricing_plan_id":"cebpf4jnsgd1na2vs0mg"},{"bike_id":"9cb52630-f8b4-4ff3-9ddb-fd021bf763e2","system_id":"levelo_inurba_marseille","lat":43.2988,"lon":5.37118,"is_reserved":false,"is_disabled":false,"rental_uris":{"android":"levelo://app?vid=9cb52630-f8b4-4ff3-9ddb-fd021bf763e2","ios":"levelo://app?vid=9cb52630-f8b4-4ff3-9ddb-fd021bf763e2"},"vehicle_type_id":"4","last_reported":1766074591,"current_range_meters":8000,"station_id":"","pricing_plan_id":"cebpf4jnsgd1na2vs0mg"},{"bike_id":"25a1a681-06f9-4e68-9a2a-bf6be781c7d4","system_id":"levelo_inurba_marseille","lat":43.28863,"lon":5.42511,"is_reserved":false,"is_disabled":false,"rental_uris":{"android":"levelo://app?vid=25a1a681-06f9-4e68-9a2a-bf6be781c7d4","ios":"levelo://app?vid=25a1a681-06f9-4e68-9a2a-bf6be781c7d4"},"vehicle_type_id":"4","last_reported":1766074591,"current_range_meters":8400,"station_id":"st_d3b462108ojc7389ooeg","pricing_plan_id":"cebpf4jnsgd1na2vs0mg"},{"bike_id":"e68edb33-f119-4668-a648-2630e687f520","system_id":"levelo_inurba_marseille","lat":43.29904,"lon":5.37471,"is_reserved":false,"is_disabled":false,"rental_uris":{"android":"levelo://app?vid=e68edb33-f119-4668-a648-2630e687f520","ios":"levelo://app?vid=e68edb33-f119-4668-a648-2630e687f520"},"vehicle_type_id":"4","last_reported":1766074591,"current_range_meters":8400,"station_id":"ce4bgjh2rcd13ifvqbg0","pricing_plan_id":"cebpf4jnsgd1na2vs0mg"},{"bike_id":"a9adc8bf-52f1-4c31-a2de-42743dd086bf","system_id":"levelo_inurba_marseille","lat":43.33723,"lon":5.3748,"is_reserved":false,"is_disabled":false,"rental_uris":{"android":"levelo://app?vid=a9adc8bf-52f1-4c31-a2de-42743dd086bf","ios":"levelo://app?vid=a9adc8bf-52f1-4c31-a2de-42743dd086bf"},"vehicle_type_id":"4","last_reported":1766074591,"current_range_meters":8400,"station_id":"","pricing_plan_id":"cebpf4jnsgd1na2vs0mg"},{"bike_id":"a21bd44f-1f1c-4e60-9117-92fe9cca3b33","system_id":"levelo_inurba_marseille","lat":43.28159,"lon":5.42643,"is_reserved":false,"is_disabled":false,"rental_uris":{"android":"levelo://app?vid=a21bd44f-1f1c-4e60-9117-92fe9cca3b33","ios":"levelo://app?vid=a21bd44f-1f1c-4e60-9117-92fe9cca3b33"},"vehicle_type_id":"4","last_reported":1766074591,"current_range_meters":8400,"station_id":"ce4bhnh2rcd13ifvqgug","pricing_plan_id":"cebpf4jnsgd1na2vs0mg"},{"bike_id":"00fd2dcb-6faf-4c7a-8c99-525909084655","system_id":"levelo_inurba_marseille","lat":43.2817,"lon":5.42657,"is_reserved":false,"is_disabled":true,"rental_uris":{"android":"levelo://app?vid=00fd2dcb-6faf-4c7a-8c99-525909084655","ios":"levelo://app?vid=00fd2dcb-6faf-4c7a-8c99-525909084655"},"vehicle_type_id":"4","last_reported":1766074591,"current_range_meters":8800,"station_id":"ce4bhnh2rcd13ifvqgug","pricing_plan_id":"cebpf4jnsgd1na2vs0mg"},{"bike_id":"9cd0b5cd-982d-46c9-b94d-972458c0583a","system_id":"levelo_inurba_marseille","lat":43.306255,"lon":5.373719,"is_reserved":false,"is_disabled":false,"rental_uris":{"android":"levelo://app?vid=9cd0b5cd-982d-46c9-b94d-972458c0583a","ios":"levelo://app?vid=9cd0b5cd-982d-46c9-b94d-972458c0583a"},"vehicle_type_id":"4","last_reported":1766074591,"current_range_meters":8800,"station_id":"","pricing_plan_id":"cebpf4jnsgd1na2vs0mg"},{"bike_id":"a474f569-93b6-408e-90c8-4c5a2064fccb","system_id":"levelo_inurba_marseille","lat":43.2499,"lon":5.3892,"is_reserved":false,"is_disabled":false,"rental_uris":{"android":"levelo://app?vid=a474f569-93b6-408e-90c8-4c5a2064fccb","ios":"levelo://app?vid=a474f569-93b6-408e-90c8-4c5a2064fccb"},"vehicle_type_id":"4","last_reported":1766074591,"current_range_meters":8800,"station_id":"ce4bhgp2rcd13ifvqfd0","pricing_plan_id":"cebpf4jnsgd1na2vs0mg"},{"bike_id":"7535ee5d-cd37-459a-8dbb-160977489e7b","system_id":"levelo_inurba_marseille","lat":43.297975,"lon":5.404037,"is_reserved":false,"is_disabled":false,"rental_uris":{"android":"levelo://app?vid=7535ee5d-cd37-459a-8dbb-160977489e7b","ios":"levelo://app?vid=7535ee5d-cd37-459a-8dbb-160977489e7b"},"vehicle_type_id":"4","last_reported":1766074591,"current_range_meters":8800,"station_id":"ce4bh112rcd13ifvqd90","pricing_plan_id":"cebpf4jnsgd1na2vs0mg"},{"bike_id":"106d0710-4958-4996-ad5c-e9a7eb6da252","system_id":"levelo_inurba_marseille","lat":43.30802,"lon":5.38156,"is_reserved":false,"is_disabled":false,"rental_uris":{"android":"levelo://app?vid=106d0710-4958-4996-ad5c-e9a7eb6da252","ios":"levelo://app?vid=106d0710-4958-4996-ad5c-e9a7eb6da252"},"vehicle_type_id":"4","last_reported":1766074591,"current_range_meters":8800,"station_id":"ce4bgt12rcd13ifvqce0","pricing_plan_id":"cebpf4jnsgd1na2vs0mg"},{"bike_id":"83351397-c162-4471-8df9-15fee16735ac","system_id":"levelo_inurba_marseille","lat":43.29574,"lon":5.37507,"is_reserved":false,"is_disabled":false,"rental_uris":{"android":"levelo://app?vid=83351397-c162-4471-8df9-15fee16735ac","ios":"levelo://app?vid=83351397-c162-4471-8df9-15fee16735ac"},"vehicle_type_id":"4","last_reported":1766074591,"current_range_meters":8800,"station_id":"ce4bgh92rcd13ifvqb50","pricing_plan_id":"cebpf4jnsgd1na2vs0mg"},{"bike_id":"c5c3df88-2fe3-4755-a2ea-4cd36eaea4d0","system_id":"levelo_inurba_marseille","lat":43.28474,"lon":5.38421,"is_reserved":false,"is_disabled":true,"rental_uris":{"android":"levelo://app?vid=c5c3df88-2fe3-4755-a2ea-4cd36eaea4d0","ios":"levelo://app?vid=c5c3df88-2fe3-4755-a2ea-4cd36eaea4d0"},"vehicle_type_id":"4","last_reported":1766074591,"current_range_meters":9200,"station_id":"ce4bh512rcd13ifvqe3g","pricing_plan_id":"cebpf4jnsgd1na2vs0mg"},{"bike_id":"116731a1-d4db-4e9d-a7f9-9c3354a15114","system_id":"levelo_inurba_marseille","lat":43.27215,"lon":5.39179,"is_reserved":false,"is_disabled":false,"rental_uris":{"android":"levelo://app?vid=116731a1-d4db-4e9d-a7f9-9c3354a15114","ios":"levelo://app?vid=116731a1-d4db-4e9d-a7f9-9c3354a15114"},"vehicle_type_id":"4","last_reported":1766074591,"current_range_meters":9200,"station_id":"ce4bhhp2rcd13ifvqfm0","pricing_plan_id":"cebpf4jnsgd1na2vs0mg"},{"bike_id":"10d8d732-2ef8-47b3-b0fe-a83ce4aafc47","system_id":"levelo_inurba_marseille","lat":43.2319,"lon":5.35556,"is_reserved":false,"is_disabled":false,"rental_uris":{"android":"levelo://app?vid=10d8d732-2ef8-47b3-b0fe-a83ce4aafc47","ios":"levelo://app?vid=10d8d732-2ef8-47b3-b0fe-a83ce4aafc47"},"vehicle_type_id":"4","last_reported":1766074591,"current_range_meters":9200,"station_id":"ce4bhu92rcd13ifvqi70","pricing_plan_id":"cebpf4jnsgd1na2vs0mg"},{"bike_id":"0f033089-1424-4fb4-b3dd-976abb0af258","system_id":"levelo_inurba_marseille","lat":43.24081,"lon":5.37749,"is_reserved":false,"is_disabled":false,"rental_uris":{"android":"levelo://app?vid=0f033089-1424-4fb4-b3dd-976abb0af258","ios":"levelo://app?vid=0f033089-1424-4fb4-b3dd-976abb0af258"},"vehicle_type_id":"4","last_reported":1766074591,"current_range_meters":9200,"station_id":"ce4bhnp2rcd13ifvqgvg","pricing_plan_id":"cebpf4jnsgd1na2vs0mg"},{"bike_id":"ddbf266d-854e-4906-9a30-5056e0c7cd07","system_id":"levelo_inurba_marseille","lat":43.25578,"lon":5.38226,"is_reserved":false,"is_disabled":false,"rental_uris":{"android":"levelo://app?vid=ddbf266d-854e-4906-9a30-5056e0c7cd07","ios":"levelo://app?vid=ddbf266d-854e-4906-9a30-5056e0c7cd07"},"vehicle_type_id":"4","last_reported":1766074591,"current_range_meters":9200,"station_id":"ce4bhih2rcd13ifvqfs0","pricing_plan_id":"cebpf4jnsgd1na2vs0mg"},{"bike_id":"edb8b71e-6e61-49b6-86d5-2b199c96b304","system_id":"levelo_inurba_marseille","lat":43.27609,"lon":5.38919,"is_reserved":false,"is_disabled":false,"rental_uris":{"android":"levelo://app?vid=edb8b71e-6e61-49b6-86d5-2b199c96b304","ios":"levelo://app?vid=edb8b71e-6e61-49b6-86d5-2b199c96b304"},"vehicle_type_id":"4","last_reported":1766074591,"current_range_meters":9200,"station_id":"","pricing_plan_id":"cebpf4jnsgd1na2vs0mg"},{"bike_id":"5614cec6-e3b0-4365-88b4-7cc34436ed87","system_id":"levelo_inurba_marseille","lat":43.3028,"lon":5.37687,"is_reserved":false,"is_disabled":false,"rental_uris":{"android":"levelo://app?vid=5614cec6-e3b0-4365-88b4-7cc34436ed87","ios":"levelo://app?vid=5614cec6-e3b0-4365-88b4-7cc34436ed87"},"vehicle_type_id":"4","last_reported":1766074591,"current_range_meters":9200,"station_id":"ce4bguh2rcd13ifvqcj0","pricing_plan_id":"cebpf4jnsgd1na2vs0mg"},{"bike_id":"38d5bbe5-85ce-4ef0-a09a-30d465a65053","system_id":"levelo_inurba_marseille","lat":43.29602,"lon":5.37664,"is_reserved":false,"is_disabled":false,"rental_uris":{"android":"levelo://app?vid=38d5bbe5-85ce-4ef0-a09a-30d465a65053","ios":"levelo://app?vid=38d5bbe5-85ce-4ef0-a09a-30d465a65053"},"vehicle_type_id":"4","last_reported":1766074591,"current_range_meters":9600,"station_id":"ce4bgi92rcd13ifvqb90","pricing_plan_id":"cebpf4jnsgd1na2vs0mg"},{"bike_id":"b0cf5f98-b983-491e-b504-70b40c914216","system_id":"levelo_inurba_marseille","lat":43.27913,"lon":5.39595,"is_reserved":false,"is_disabled":false,"rental_uris":{"android":"levelo://app?vid=b0cf5f98-b983-491e-b504-70b40c914216","ios":"levelo://app?vid=b0cf5f98-b983-491e-b504-70b40c914216"},"vehicle_type_id":"4","last_reported":1766074591,"current_range_meters":9600,"station_id":"ce4bhf92rcd13ifvqf40","pricing_plan_id":"cebpf4jnsgd1na2vs0mg"},{"bike_id":"f4dfe2b6-0ab9-4c0c-bd89-e57acb52f4d4","system_id":"levelo_inurba_marseille","lat":43.29571,"lon":5.37507,"is_reserved":false,"is_disabled":false,"rental_uris":{"android":"levelo://app?vid=f4dfe2b6-0ab9-4c0c-bd89-e57acb52f4d4","ios":"levelo://app?vid=f4dfe2b6-0ab9-4c0c-bd89-e57acb52f4d4"},"vehicle_type_id":"4","last_reported":1766074591,"current_range_meters":9600,"station_id":"ce4bgh92rcd13ifvqb50","pricing_plan_id":"cebpf4jnsgd1na2vs0mg"},{"bike_id":"3cde007c-a409-4597-91e7-ca2461274ad1","system_id":"levelo_inurba_marseille","lat":43.26578,"lon":5.40193,"is_reserved":false,"is_disabled":false,"rental_uris":{"android":"levelo://app?vid=3cde007c-a409-4597-91e7-ca2461274ad1","ios":"levelo://app?vid=3cde007c-a409-4597-91e7-ca2461274ad1"},"vehicle_type_id":"4","last_reported":1766074591,"current_range_meters":9600,"station_id":"","pricing_plan_id":"cebpf4jnsgd1na2vs0mg"},{"bike_id":"7a217e04-e527-4f4b-ace2-648f28f70b0e","system_id":"levelo_inurba_marseille","lat":43.255749,"lon":5.38235,"is_reserved":false,"is_disabled":false,"rental_uris":{"android":"levelo://app?vid=7a217e04-e527-4f4b-ace2-648f28f70b0e","ios":"levelo://app?vid=7a217e04-e527-4f4b-ace2-648f28f70b0e"},"vehicle_type_id":"4","last_reported":1766074591,"current_range_meters":9600,"station_id":"ce4bhih2rcd13ifvqfs0","pricing_plan_id":"cebpf4jnsgd1na2vs0mg"},{"bike_id":"c7574ddb-27b4-4d26-9cb5-b4cd2c37586e","system_id":"levelo_inurba_marseille","lat":43.304278,"lon":5.397375,"is_reserved":false,"is_disabled":false,"rental_uris":{"android":"levelo://app?vid=c7574ddb-27b4-4d26-9cb5-b4cd2c37586e","ios":"levelo://app?vid=c7574ddb-27b4-4d26-9cb5-b4cd2c37586e"},"vehicle_type_id":"4","last_reported":1766074591,"current_range_meters":9600,"station_id":"ce4bh092rcd13ifvqd20","pricing_plan_id":"cebpf4jnsgd1na2vs0mg"},{"bike_id":"9c10a177-9935-4a1a-982e-4841575bfa35","system_id":"levelo_inurba_marseille","lat":43.2864,"lon":5.351,"is_reserved":false,"is_disabled":false,"rental_uris":{"android":"levelo://app?vid=9c10a177-9935-4a1a-982e-4841575bfa35","ios":"levelo://app?vid=9c10a177-9935-4a1a-982e-4841575bfa35"},"vehicle_type_id":"4","last_reported":1766074591,"current_range_meters":9600,"station_id":"ce4bhch2rcd13ifvqeug","pricing_plan_id":"cebpf4jnsgd1na2vs0mg"},{"bike_id":"cb16e739-535e-4b7a-a883-22a1f86f84e9","system_id":"levelo_inurba_marseille","lat":43.26069,"lon":5.39392,"is_reserved":false,"is_disabled":false,"rental_uris":{"android":"levelo://app?vid=cb16e739-535e-4b7a-a883-22a1f86f84e9","ios":"levelo://app?vid=cb16e739-535e-4b7a-a883-22a1f86f84e9"},"vehicle_type_id":"4","last_reported":1766074591,"current_range_meters":9600,"station_id":"ce4bhh92rcd13ifvqfj0","pricing_plan_id":"cebpf4jnsgd1na2vs0mg"},{"bike_id":"3ff94115-0007-4108-afda-4576fdcf1892","system_id":"levelo_inurba_marseille","lat":43.30319,"lon":5.40432,"is_reserved":false,"is_disabled":false,"rental_uris":{"android":"levelo://app?vid=3ff94115-0007-4108-afda-4576fdcf1892","ios":"levelo://app?vid=3ff94115-0007-4108-afda-4576fdcf1892"},"vehicle_type_id":"4","last_reported":1766074591,"current_range_meters":10000,"station_id":"ce4bh012rcd13ifvqd10","pricing_plan_id":"cebpf4jnsgd1na2vs0mg"},{"bike_id":"9e9d5c33-ded8-4f96-a16d-d106b02862e5","system_id":"levelo_inurba_marseille","lat":43.23781,"lon":5.3663,"is_reserved":false,"is_disabled":false,"rental_uris":{"android":"levelo://app?vid=9e9d5c33-ded8-4f96-a16d-d106b02862e5","ios":"levelo://app?vid=9e9d5c33-ded8-4f96-a16d-d106b02862e5"},"vehicle_type_id":"4","last_reported":1766074591,"current_range_meters":10000,"station_id":"st_d3nk18o9ro0c73en2l3g","pricing_plan_id":"cebpf4jnsgd1na2vs0mg"},{"bike_id":"453f1184-f82d-4436-816a-2c45caf5ef82","system_id":"levelo_inurba_marseille","lat":43.300936,"lon":5.390687,"is_reserved":false,"is_disabled":false,"rental_uris":{"android":"levelo://app?vid=453f1184-f82d-4436-816a-2c45caf5ef82","ios":"levelo://app?vid=453f1184-f82d-4436-816a-2c45caf5ef82"},"vehicle_type_id":"4","last_reported":1766074591,"current_range_meters":10000,"station_id":"ce4bh192rcd13ifvqdb0","pricing_plan_id":"cebpf4jnsgd1na2vs0mg"},{"bike_id":"a24ee5b6-572d-4941-9ef3-a9d89c28bd82","system_id":"levelo_inurba_marseille","lat":43.30511,"lon":5.36688,"is_reserved":false,"is_disabled":false,"rental_uris":{"android":"levelo://app?vid=a24ee5b6-572d-4941-9ef3-a9d89c28bd82","ios":"levelo://app?vid=a24ee5b6-572d-4941-9ef3-a9d89c28bd82"},"vehicle_type_id":"4","last_reported":1766074591,"current_range_meters":10000,"station_id":"ce4bgrp2rcd13ifvqc9g","pricing_plan_id":"cebpf4jnsgd1na2vs0mg"},{"bike_id":"81508f0a-e327-4705-ae72-228165570b37","system_id":"levelo_inurba_marseille","lat":43.25092,"lon":5.38946,"is_reserved":false,"is_disabled":false,"rental_uris":{"android":"levelo://app?vid=81508f0a-e327-4705-ae72-228165570b37","ios":"levelo://app?vid=81508f0a-e327-4705-ae72-228165570b37"},"vehicle_type_id":"4","last_reported":1766074591,"current_range_meters":10000,"station_id":"","pricing_plan_id":"cebpf4jnsgd1na2vs0mg"},{"bike_id":"ebcd0d10-df3c-4e1d-91fb-3b7f9f34f179","system_id":"levelo_inurba_marseille","lat":43.29883,"lon":5.39731,"is_reserved":false,"is_disabled":false,"rental_uris":{"android":"levelo://app?vid=ebcd0d10-df3c-4e1d-91fb-3b7f9f34f179","ios":"levelo://app?vid=ebcd0d10-df3c-4e1d-91fb-3b7f9f34f179"},"vehicle_type_id":"4","last_reported":1766074591,"current_range_meters":10000,"station_id":"ce4bh0h2rcd13ifvqd50","pricing_plan_id":"cebpf4jnsgd1na2vs0mg"},{"bike_id":"22596eb7-04e0-400a-8545-ffe5eb40bea6","system_id":"levelo_inurba_marseille","lat":43.29915,"lon":5.37487,"is_reserved":false,"is_disabled":false,"rental_uris":{"android":"levelo://app?vid=22596eb7-04e0-400a-8545-ffe5eb40bea6","ios":"levelo://app?vid=22596eb7-04e0-400a-8545-ffe5eb40bea6"},"vehicle_type_id":"4","last_reported":1766074591,"current_range_meters":10000,"station_id":"ce4bgjh2rcd13ifvqbg0","pricing_plan_id":"cebpf4jnsgd1na2vs0mg"},{"bike_id":"97866be8-8524-4553-bff0-3a7c86f62c48","system_id":"levelo_inurba_marseille","lat":43.287459,"lon":5.385029,"is_reserved":false,"is_disabled":false,"rental_uris":{"android":"levelo://app?vid=97866be8-8524-4553-bff0-3a7c86f62c48","ios":"levelo://app?vid=97866be8-8524-4553-bff0-3a7c86f62c48"},"vehicle_type_id":"4","last_reported":1766074591,"current_range_meters":10000,"station_id":"ce4bh692rcd13ifvqea0","pricing_plan_id":"cebpf4jnsgd1na2vs0mg"},{"bike_id":"f87a7598-e6b9-4feb-a6e3-d98d4acd6941","system_id":"levelo_inurba_marseille","lat":43.24174,"lon":5.36407,"is_reserved":false,"is_disabled":false,"rental_uris":{"android":"levelo://app?vid=f87a7598-e6b9-4feb-a6e3-d98d4acd6941","ios":"levelo://app?vid=f87a7598-e6b9-4feb-a6e3-d98d4acd6941"},"vehicle_type_id":"4","last_reported":1766074591,"current_range_meters":10000,"station_id":"cpo36qri1sfpv3e86is0","pricing_plan_id":"cebpf4jnsgd1na2vs0mg"},{"bike_id":"346b8d57-1b64-4aac-b200-9053293cc5ef","system_id":"levelo_inurba_marseille","lat":43.30131,"lon":5.39862,"is_reserved":false,"is_disabled":false,"rental_uris":{"android":"levelo://app?vid=346b8d57-1b64-4aac-b200-9053293cc5ef","ios":"levelo://app?vid=346b8d57-1b64-4aac-b200-9053293cc5ef"},"vehicle_type_id":"4","last_reported":1766074591,"current_range_meters":10000,"station_id":"ce4bh0h2rcd13ifvqd40","pricing_plan_id":"cebpf4jnsgd1na2vs0mg"},{"bike_id":"1d959034-8c3b-4194-8f03-ba31b683013e","system_id":"levelo_inurba_marseille","lat":43.33545,"lon":5.37465,"is_reserved":false,"is_disabled":false,"rental_uris":{"android":"levelo://app?vid=1d959034-8c3b-4194-8f03-ba31b683013e","ios":"levelo://app?vid=1d959034-8c3b-4194-8f03-ba31b683013e"},"vehicle_type_id":"4","last_reported":1766074591,"current_range_meters":10000,"station_id":"st_d46tts09ee8s73dlu43g","pricing_plan_id":"cebpf4jnsgd1na2vs0mg"},{"bike_id":"09575982-d1ce-48f3-97ed-c290bec651a2","system_id":"levelo_inurba_marseille","lat":43.28536,"lon":5.44128,"is_reserved":false,"is_disabled":false,"rental_uris":{"android":"levelo://app?vid=09575982-d1ce-48f3-97ed-c290bec651a2","ios":"levelo://app?vid=09575982-d1ce-48f3-97ed-c290bec651a2"},"vehicle_type_id":"4","last_reported":1766074591,"current_range_meters":10000,"station_id":"st_d3j3df2ikq2c7380ej80","pricing_plan_id":"cebpf4jnsgd1na2vs0mg"},{"bike_id":"1c783e39-3092-489d-97e8-0a4c367392b3","system_id":"levelo_inurba_marseille","lat":43.30605,"lon":5.37222,"is_reserved":false,"is_disabled":false,"rental_uris":{"android":"levelo://app?vid=1c783e39-3092-489d-97e8-0a4c367392b3","ios":"levelo://app?vid=1c783e39-3092-489d-97e8-0a4c367392b3"},"vehicle_type_id":"4","last_reported":1766074591,"current_range_meters":10800,"station_id":"ce4bgqh2rcd13ifvqc4g","pricing_plan_id":"cebpf4jnsgd1na2vs0mg"},{"bike_id":"ec22bc3a-c477-498c-9c3e-d6d305915964","system_id":"levelo_inurba_marseille","lat":43.28421,"lon":5.37506,"is_reserved":false,"is_disabled":false,"rental_uris":{"android":"levelo://app?vid=ec22bc3a-c477-498c-9c3e-d6d305915964","ios":"levelo://app?vid=ec22bc3a-c477-498c-9c3e-d6d305915964"},"vehicle_type_id":"4","last_reported":1766074591,"current_range_meters":10800,"station_id":"ce4bh412rcd13ifvqds0","pricing_plan_id":"cebpf4jnsgd1na2vs0mg"},{"bike_id":"cd4b798f-ef73-462b-a871-c0e46f70c7b6","system_id":"levelo_inurba_marseille","lat":43.29737,"lon":5.37691,"is_reserved":false,"is_disabled":false,"rental_uris":{"android":"levelo://app?vid=cd4b798f-ef73-462b-a871-c0e46f70c7b6","ios":"levelo://app?vid=cd4b798f-ef73-462b-a871-c0e46f70c7b6"},"vehicle_type_id":"4","last_reported":1766074591,"current_range_meters":10800,"station_id":"ce4bgkh2rcd13ifvqbl0","pricing_plan_id":"cebpf4jnsgd1na2vs0mg"},{"bike_id":"50bb104f-bdbe-4eab-bd19-f33b1d1b4be5","system_id":"levelo_inurba_marseille","lat":43.25338,"lon":5.42167,"is_reserved":false,"is_disabled":false,"rental_uris":{"android":"levelo://app?vid=50bb104f-bdbe-4eab-bd19-f33b1d1b4be5","ios":"levelo://app?vid=50bb104f-bdbe-4eab-bd19-f33b1d1b4be5"},"vehicle_type_id":"4","last_reported":1766074591,"current_range_meters":10800,"station_id":"st_d2m65c5bi1j21697t3ng","pricing_plan_id":"cebpf4jnsgd1na2vs0mg"},{"bike_id":"345527b9-e5b3-41dc-86fa-0725a99c666a","system_id":"levelo_inurba_marseille","lat":43.33532,"lon":5.36755,"is_reserved":false,"is_disabled":false,"rental_uris":{"android":"levelo://app?vid=345527b9-e5b3-41dc-86fa-0725a99c666a","ios":"levelo://app?vid=345527b9-e5b3-41dc-86fa-0725a99c666a"},"vehicle_type_id":"4","last_reported":1766074591,"current_range_meters":10800,"station_id":"","pricing_plan_id":"cebpf4jnsgd1na2vs0mg"},{"bike_id":"3bae6d34-dae3-4aa5-a263-d4fc3561c61d","system_id":"levelo_inurba_marseille","lat":43.25587,"lon":5.38228,"is_reserved":false,"is_disabled":false,"rental_uris":{"android":"levelo://app?vid=3bae6d34-dae3-4aa5-a263-d4fc3561c61d","ios":"levelo://app?vid=3bae6d34-dae3-4aa5-a263-d4fc3561c61d"},"vehicle_type_id":"4","last_reported":1766074591,"current_range_meters":10800,"station_id":"ce4bhih2rcd13ifvqfs0","pricing_plan_id":"cebpf4jnsgd1na2vs0mg"},{"bike_id":"c8ae05dc-be68-4290-a207-222d34083f3e","system_id":"levelo_inurba_marseille","lat":43.28306,"lon":5.38919,"is_reserved":false,"is_disabled":false,"rental_uris":{"android":"levelo://app?vid=c8ae05dc-be68-4290-a207-222d34083f3e","ios":"levelo://app?vid=c8ae05dc-be68-4290-a207-222d34083f3e"},"vehicle_type_id":"4","last_reported":1766074591,"current_range_meters":10800,"station_id":"","pricing_plan_id":"cebpf4jnsgd1na2vs0mg"},{"bike_id":"51f43a5f-2a5a-4c8a-847c-1c5481be0271","system_id":"levelo_inurba_marseille","lat":43.30591,"lon":5.3683,"is_reserved":false,"is_disabled":true,"rental_uris":{"android":"levelo://app?vid=51f43a5f-2a5a-4c8a-847c-1c5481be0271","ios":"levelo://app?vid=51f43a5f-2a5a-4c8a-847c-1c5481be0271"},"vehicle_type_id":"4","last_reported":1766074591,"current_range_meters":10800,"station_id":"","pricing_plan_id":"cebpf4jnsgd1na2vs0mg"},{"bike_id":"bd47acfe-2f1c-4624-b949-7c14c9226394","system_id":"levelo_inurba_marseille","lat":43.30428,"lon":5.41326,"is_reserved":false,"is_disabled":false,"rental_uris":{"android":"levelo://app?vid=bd47acfe-2f1c-4624-b949-7c14c9226394","ios":"levelo://app?vid=bd47acfe-2f1c-4624-b949-7c14c9226394"},"vehicle_type_id":"4","last_reported":1766074591,"current_range_meters":10800,"station_id":"ce4bhop2rcd13ifvqh8g","pricing_plan_id":"cebpf4jnsgd1na2vs0mg"},{"bike_id":"1ce0f5c0-25df-445b-ba92-26de3010da50","system_id":"levelo_inurba_marseille","lat":43.331607,"lon":5.376948,"is_reserved":false,"is_disabled":false,"rental_uris":{"android":"levelo://app?vid=1ce0f5c0-25df-445b-ba92-26de3010da50","ios":"levelo://app?vid=1ce0f5c0-25df-445b-ba92-26de3010da50"},"vehicle_type_id":"4","last_reported":1766074591,"current_range_meters":10800,"station_id":"st_d46cu089ee8s73dldbu0","pricing_plan_id":"cebpf4jnsgd1na2vs0mg"},{"bike_id":"cf0e2dfe-8751-4251-bbd3-3ad00be9f3ad","system_id":"levelo_inurba_marseille","lat":43.284805,"lon":5.48398,"is_reserved":false,"is_disabled":false,"rental_uris":{"android":"levelo://app?vid=cf0e2dfe-8751-4251-bbd3-3ad00be9f3ad","ios":"levelo://app?vid=cf0e2dfe-8751-4251-bbd3-3ad00be9f3ad"},"vehicle_type_id":"4","last_reported":1766074591,"current_range_meters":10800,"station_id":"st_d3svhcjqgbts73a3dn0g","pricing_plan_id":"cebpf4jnsgd1na2vs0mg"},{"bike_id":"39ca6217-71c2-4cee-834d-d178880be878","system_id":"levelo_inurba_marseille","lat":43.30874,"lon":5.37184,"is_reserved":false,"is_disabled":true,"rental_uris":{"android":"levelo://app?vid=39ca6217-71c2-4cee-834d-d178880be878","ios":"levelo://app?vid=39ca6217-71c2-4cee-834d-d178880be878"},"vehicle_type_id":"4","last_reported":1766074591,"current_range_meters":10800,"station_id":"ce4bguh2rcd13ifvqckg","pricing_plan_id":"cebpf4jnsgd1na2vs0mg"},{"bike_id":"38cf53a6-ff03-4245-b99b-a3c30164292b","system_id":"levelo_inurba_marseille","lat":43.29598,"lon":5.380981,"is_reserved":false,"is_disabled":true,"rental_uris":{"android":"levelo://app?vid=38cf53a6-ff03-4245-b99b-a3c30164292b","ios":"levelo://app?vid=38cf53a6-ff03-4245-b99b-a3c30164292b"},"vehicle_type_id":"4","last_reported":1766074591,"current_range_meters":11200,"station_id":"ce4bgl12rcd13ifvqbo0","pricing_plan_id":"cebpf4jnsgd1na2vs0mg"},{"bike_id":"4a614ce4-d61c-499d-8955-0569e02f377b","system_id":"levelo_inurba_marseille","lat":43.27514,"lon":5.37249,"is_reserved":false,"is_disabled":false,"rental_uris":{"android":"levelo://app?vid=4a614ce4-d61c-499d-8955-0569e02f377b","ios":"levelo://app?vid=4a614ce4-d61c-499d-8955-0569e02f377b"},"vehicle_type_id":"4","last_reported":1766074591,"current_range_meters":11200,"station_id":"","pricing_plan_id":"cebpf4jnsgd1na2vs0mg"},{"bike_id":"2154a936-f819-49ae-b7ae-2734365f2c42","system_id":"levelo_inurba_marseille","lat":43.335392,"lon":5.374652,"is_reserved":false,"is_disabled":false,"rental_uris":{"android":"levelo://app?vid=2154a936-f819-49ae-b7ae-2734365f2c42","ios":"levelo://app?vid=2154a936-f819-49ae-b7ae-2734365f2c42"},"vehicle_type_id":"4","last_reported":1766074591,"current_range_meters":11200,"station_id":"st_d46tts09ee8s73dlu43g","pricing_plan_id":"cebpf4jnsgd1na2vs0mg"},{"bike_id":"b548702f-00a8-4fc2-b616-7622ab384e29","system_id":"levelo_inurba_marseille","lat":43.29914,"lon":5.3748,"is_reserved":false,"is_disabled":false,"rental_uris":{"android":"levelo://app?vid=b548702f-00a8-4fc2-b616-7622ab384e29","ios":"levelo://app?vid=b548702f-00a8-4fc2-b616-7622ab384e29"},"vehicle_type_id":"4","last_reported":1766074591,"current_range_meters":11200,"station_id":"ce4bgjh2rcd13ifvqbg0","pricing_plan_id":"cebpf4jnsgd1na2vs0mg"},{"bike_id":"73c84bae-15df-4073-92de-1bf756dd2847","system_id":"levelo_inurba_marseille","lat":43.31169,"lon":5.38721,"is_reserved":false,"is_disabled":false,"rental_uris":{"android":"levelo://app?vid=73c84bae-15df-4073-92de-1bf756dd2847","ios":"levelo://app?vid=73c84bae-15df-4073-92de-1bf756dd2847"},"vehicle_type_id":"4","last_reported":1766074591,"current_range_meters":11200,"station_id":"ce4bgv12rcd13ifvqcp0","pricing_plan_id":"cebpf4jnsgd1na2vs0mg"},{"bike_id":"6a1e1967-fdaf-4e65-ae26-1571d7f0290c","system_id":"levelo_inurba_marseille","lat":43.337605,"lon":5.374353,"is_reserved":false,"is_disabled":false,"rental_uris":{"android":"levelo://app?vid=6a1e1967-fdaf-4e65-ae26-1571d7f0290c","ios":"levelo://app?vid=6a1e1967-fdaf-4e65-ae26-1571d7f0290c"},"vehicle_type_id":"4","last_reported":1766074591,"current_range_meters":11200,"station_id":"","pricing_plan_id":"cebpf4jnsgd1na2vs0mg"},{"bike_id":"bca3ef8f-a76c-47e8-92d5-6c1a5ece9b4d","system_id":"levelo_inurba_marseille","lat":43.237874,"lon":5.366346,"is_reserved":false,"is_disabled":false,"rental_uris":{"android":"levelo://app?vid=bca3ef8f-a76c-47e8-92d5-6c1a5ece9b4d","ios":"levelo://app?vid=bca3ef8f-a76c-47e8-92d5-6c1a5ece9b4d"},"vehicle_type_id":"4","last_reported":1766074591,"current_range_meters":11200,"station_id":"","pricing_plan_id":"cebpf4jnsgd1na2vs0mg"},{"bike_id":"9dfc3e0d-844e-46d6-941d-37bcd8766aba","system_id":"levelo_inurba_marseille","lat":43.2466,"lon":5.38888,"is_reserved":false,"is_disabled":false,"rental_uris":{"android":"levelo://app?vid=9dfc3e0d-844e-46d6-941d-37bcd8766aba","ios":"levelo://app?vid=9dfc3e0d-844e-46d6-941d-37bcd8766aba"},"vehicle_type_id":"4","last_reported":1766074591,"current_range_meters":11200,"station_id":"ce4bhg12rcd13ifvqf60","pricing_plan_id":"cebpf4jnsgd1na2vs0mg"},{"bike_id":"1b3c2c60-6ff2-4726-98a5-0e15725bfce9","system_id":"levelo_inurba_marseille","lat":43.29588,"lon":5.36745,"is_reserved":false,"is_disabled":false,"rental_uris":{"android":"levelo://app?vid=1b3c2c60-6ff2-4726-98a5-0e15725bfce9","ios":"levelo://app?vid=1b3c2c60-6ff2-4726-98a5-0e15725bfce9"},"vehicle_type_id":"4","last_reported":1766074591,"current_range_meters":11200,"station_id":"ce4bgph2rcd13ifvqc2g","pricing_plan_id":"cebpf4jnsgd1na2vs0mg"},{"bike_id":"0e5605a0-8a9b-4110-930b-7d8a6198266d","system_id":"levelo_inurba_marseille","lat":43.3234,"lon":5.38498,"is_reserved":false,"is_disabled":false,"rental_uris":{"android":"levelo://app?vid=0e5605a0-8a9b-4110-930b-7d8a6198266d","ios":"levelo://app?vid=0e5605a0-8a9b-4110-930b-7d8a6198266d"},"vehicle_type_id":"4","last_reported":1766074591,"current_range_meters":11200,"station_id":"st_d45171o9ee8s73djdqug","pricing_plan_id":"cebpf4jnsgd1na2vs0mg"},{"bike_id":"18fd4eb5-1aa3-4f75-b3c3-f018867bbe08","system_id":"levelo_inurba_marseille","lat":43.292614,"lon":5.409024,"is_reserved":false,"is_disabled":false,"rental_uris":{"android":"levelo://app?vid=18fd4eb5-1aa3-4f75-b3c3-f018867bbe08","ios":"levelo://app?vid=18fd4eb5-1aa3-4f75-b3c3-f018867bbe08"},"vehicle_type_id":"4","last_reported":1766074591,"current_range_meters":11200,"station_id":"ce4bh192rcd13ifvqdc0","pricing_plan_id":"cebpf4jnsgd1na2vs0mg"},{"bike_id":"bfb940f7-d363-4332-b8c8-344a5619de44","system_id":"levelo_inurba_marseille","lat":43.28702,"lon":5.37387,"is_reserved":false,"is_disabled":false,"rental_uris":{"android":"levelo://app?vid=bfb940f7-d363-4332-b8c8-344a5619de44","ios":"levelo://app?vid=bfb940f7-d363-4332-b8c8-344a5619de44"},"vehicle_type_id":"4","last_reported":1766074591,"current_range_meters":11600,"station_id":"ce4bh3p2rcd13ifvqdq0","pricing_plan_id":"cebpf4jnsgd1na2vs0mg"},{"bike_id":"488c7aca-0baf-4e69-9cc9-168306c4247d","system_id":"levelo_inurba_marseille","lat":43.232,"lon":5.39984,"is_reserved":false,"is_disabled":false,"rental_uris":{"android":"levelo://app?vid=488c7aca-0baf-4e69-9cc9-168306c4247d","ios":"levelo://app?vid=488c7aca-0baf-4e69-9cc9-168306c4247d"},"vehicle_type_id":"4","last_reported":1766074591,"current_range_meters":11600,"station_id":"ce4bhn12rcd13ifvqgqg","pricing_plan_id":"cebpf4jnsgd1na2vs0mg"},{"bike_id":"ee6f7e5c-24b4-4046-a3ec-072080785116","system_id":"levelo_inurba_marseille","lat":43.21736,"lon":5.34567,"is_reserved":false,"is_disabled":true,"rental_uris":{"android":"levelo://app?vid=ee6f7e5c-24b4-4046-a3ec-072080785116","ios":"levelo://app?vid=ee6f7e5c-24b4-4046-a3ec-072080785116"},"vehicle_type_id":"4","last_reported":1766074591,"current_range_meters":11600,"station_id":"st_cvj6r9ubvosntc0bgbag","pricing_plan_id":"cebpf4jnsgd1na2vs0mg"},{"bike_id":"92623e5b-52ee-402d-a529-e6dda8f91418","system_id":"levelo_inurba_marseille","lat":43.30742,"lon":5.36794,"is_reserved":false,"is_disabled":false,"rental_uris":{"android":"levelo://app?vid=92623e5b-52ee-402d-a529-e6dda8f91418","ios":"levelo://app?vid=92623e5b-52ee-402d-a529-e6dda8f91418"},"vehicle_type_id":"4","last_reported":1766074591,"current_range_meters":11600,"station_id":"","pricing_plan_id":"cebpf4jnsgd1na2vs0mg"},{"bike_id":"0c6518d8-4f95-471f-ba2e-a82ce53cafe6","system_id":"levelo_inurba_marseille","lat":43.29558,"lon":5.37523,"is_reserved":false,"is_disabled":false,"rental_uris":{"android":"levelo://app?vid=0c6518d8-4f95-471f-ba2e-a82ce53cafe6","ios":"levelo://app?vid=0c6518d8-4f95-471f-ba2e-a82ce53cafe6"},"vehicle_type_id":"4","last_reported":1766074591,"current_range_meters":11600,"station_id":"ce4bgh92rcd13ifvqb50","pricing_plan_id":"cebpf4jnsgd1na2vs0mg"},{"bike_id":"f0552324-7f16-45f2-af53-7d50398c0e4b","system_id":"levelo_inurba_marseille","lat":43.29197,"lon":5.39338,"is_reserved":false,"is_disabled":true,"rental_uris":{"android":"levelo://app?vid=f0552324-7f16-45f2-af53-7d50398c0e4b","ios":"levelo://app?vid=f0552324-7f16-45f2-af53-7d50398c0e4b"},"vehicle_type_id":"4","last_reported":1766074591,"current_range_meters":11600,"station_id":"ce4bh192rcd13ifvqdd0","pricing_plan_id":"cebpf4jnsgd1na2vs0mg"},{"bike_id":"313a044d-6bba-48e4-acaf-41d1a51462dc","system_id":"levelo_inurba_marseille","lat":43.29001,"lon":5.39044,"is_reserved":false,"is_disabled":false,"rental_uris":{"android":"levelo://app?vid=313a044d-6bba-48e4-acaf-41d1a51462dc","ios":"levelo://app?vid=313a044d-6bba-48e4-acaf-41d1a51462dc"},"vehicle_type_id":"4","last_reported":1766074591,"current_range_meters":11600,"station_id":"","pricing_plan_id":"cebpf4jnsgd1na2vs0mg"},{"bike_id":"9a4090b1-3af1-4620-96cb-2dd026585aca","system_id":"levelo_inurba_marseille","lat":43.32404,"lon":5.36604,"is_reserved":false,"is_disabled":false,"rental_uris":{"android":"levelo://app?vid=9a4090b1-3af1-4620-96cb-2dd026585aca","ios":"levelo://app?vid=9a4090b1-3af1-4620-96cb-2dd026585aca"},"vehicle_type_id":"4","last_reported":1766074591,"current_range_meters":11600,"station_id":"","pricing_plan_id":"cebpf4jnsgd1na2vs0mg"},{"bike_id":"66119983-adfd-4893-8400-b70b3dec29d1","system_id":"levelo_inurba_marseille","lat":43.30531,"lon":5.3669,"is_reserved":false,"is_disabled":false,"rental_uris":{"android":"levelo://app?vid=66119983-adfd-4893-8400-b70b3dec29d1","ios":"levelo://app?vid=66119983-adfd-4893-8400-b70b3dec29d1"},"vehicle_type_id":"4","last_reported":1766074591,"current_range_meters":11600,"station_id":"ce4bgrp2rcd13ifvqc9g","pricing_plan_id":"cebpf4jnsgd1na2vs0mg"},{"bike_id":"2704a896-1b81-4eb2-9ff3-afb57e76d700","system_id":"levelo_inurba_marseille","lat":43.29844,"lon":5.36251,"is_reserved":false,"is_disabled":false,"rental_uris":{"android":"levelo://app?vid=2704a896-1b81-4eb2-9ff3-afb57e76d700","ios":"levelo://app?vid=2704a896-1b81-4eb2-9ff3-afb57e76d700"},"vehicle_type_id":"4","last_reported":1766074591,"current_range_meters":12000,"station_id":"ce4bgpp2rcd13ifvqc3g","pricing_plan_id":"cebpf4jnsgd1na2vs0mg"},{"bike_id":"436e467e-3ef8-4484-b12e-82fd46509f97","system_id":"levelo_inurba_marseille","lat":43.23306,"lon":5.44402,"is_reserved":false,"is_disabled":false,"rental_uris":{"android":"levelo://app?vid=436e467e-3ef8-4484-b12e-82fd46509f97","ios":"levelo://app?vid=436e467e-3ef8-4484-b12e-82fd46509f97"},"vehicle_type_id":"4","last_reported":1766074591,"current_range_meters":12000,"station_id":"","pricing_plan_id":"cebpf4jnsgd1na2vs0mg"},{"bike_id":"9d054196-cd6f-4325-bb1d-fbfbbc9318d2","system_id":"levelo_inurba_marseille","lat":43.30122,"lon":5.43126,"is_reserved":false,"is_disabled":false,"rental_uris":{"android":"levelo://app?vid=9d054196-cd6f-4325-bb1d-fbfbbc9318d2","ios":"levelo://app?vid=9d054196-cd6f-4325-bb1d-fbfbbc9318d2"},"vehicle_type_id":"4","last_reported":1766074591,"current_range_meters":12000,"station_id":"st_d3js3co5814s73ftftug","pricing_plan_id":"cebpf4jnsgd1na2vs0mg"},{"bike_id":"228ed5e4-a793-4f90-a46f-1e70b2793524","system_id":"levelo_inurba_marseille","lat":43.286148,"lon":5.399008,"is_reserved":false,"is_disabled":true,"rental_uris":{"android":"levelo://app?vid=228ed5e4-a793-4f90-a46f-1e70b2793524","ios":"levelo://app?vid=228ed5e4-a793-4f90-a46f-1e70b2793524"},"vehicle_type_id":"4","last_reported":1766074591,"current_range_meters":12000,"station_id":"st_d4a7ka997mjs738ck50g","pricing_plan_id":"cebpf4jnsgd1na2vs0mg"},{"bike_id":"c5365846-c619-4f12-8c92-97c9f9725a15","system_id":"levelo_inurba_marseille","lat":43.2951,"lon":5.3793,"is_reserved":false,"is_disabled":false,"rental_uris":{"android":"levelo://app?vid=c5365846-c619-4f12-8c92-97c9f9725a15","ios":"levelo://app?vid=c5365846-c619-4f12-8c92-97c9f9725a15"},"vehicle_type_id":"4","last_reported":1766074591,"current_range_meters":12000,"station_id":"","pricing_plan_id":"cebpf4jnsgd1na2vs0mg"},{"bike_id":"35b339c1-5718-44cf-802d-c70e6a5d984d","system_id":"levelo_inurba_marseille","lat":43.2925,"lon":5.38442,"is_reserved":false,"is_disabled":false,"rental_uris":{"android":"levelo://app?vid=35b339c1-5718-44cf-802d-c70e6a5d984d","ios":"levelo://app?vid=35b339c1-5718-44cf-802d-c70e6a5d984d"},"vehicle_type_id":"4","last_reported":1766074591,"current_range_meters":12000,"station_id":"ce4bh692rcd13ifvqea0","pricing_plan_id":"cebpf4jnsgd1na2vs0mg"},{"bike_id":"a6bb7fde-2db0-447e-8cac-38a0c3844ce6","system_id":"levelo_inurba_marseille","lat":43.277506,"lon":5.388191,"is_reserved":false,"is_disabled":false,"rental_uris":{"android":"levelo://app?vid=a6bb7fde-2db0-447e-8cac-38a0c3844ce6","ios":"levelo://app?vid=a6bb7fde-2db0-447e-8cac-38a0c3844ce6"},"vehicle_type_id":"4","last_reported":1766074591,"current_range_meters":12400,"station_id":"","pricing_plan_id":"cebpf4jnsgd1na2vs0mg"},{"bike_id":"b6521d11-99b8-43ca-a853-a51747d5db82","system_id":"levelo_inurba_marseille","lat":43.301253,"lon":5.431195,"is_reserved":false,"is_disabled":false,"rental_uris":{"android":"levelo://app?vid=b6521d11-99b8-43ca-a853-a51747d5db82","ios":"levelo://app?vid=b6521d11-99b8-43ca-a853-a51747d5db82"},"vehicle_type_id":"4","last_reported":1766074591,"current_range_meters":12400,"station_id":"st_d3js3co5814s73ftftug","pricing_plan_id":"cebpf4jnsgd1na2vs0mg"},{"bike_id":"85f12ccf-5b46-4628-894a-c4095346a940","system_id":"levelo_inurba_marseille","lat":43.27964,"lon":5.41029,"is_reserved":false,"is_disabled":true,"rental_uris":{"android":"levelo://app?vid=85f12ccf-5b46-4628-894a-c4095346a940","ios":"levelo://app?vid=85f12ccf-5b46-4628-894a-c4095346a940"},"vehicle_type_id":"4","last_reported":1766074591,"current_range_meters":12400,"station_id":"ce4bhnp2rcd13ifvqh0g","pricing_plan_id":"cebpf4jnsgd1na2vs0mg"},{"bike_id":"52b61354-da80-471d-a0ef-682891b3f0eb","system_id":"levelo_inurba_marseille","lat":43.24403,"lon":5.37083,"is_reserved":false,"is_disabled":true,"rental_uris":{"android":"levelo://app?vid=52b61354-da80-471d-a0ef-682891b3f0eb","ios":"levelo://app?vid=52b61354-da80-471d-a0ef-682891b3f0eb"},"vehicle_type_id":"4","last_reported":1766074591,"current_range_meters":12400,"station_id":"ce4bhhh2rcd13ifvqfk0","pricing_plan_id":"cebpf4jnsgd1na2vs0mg"},{"bike_id":"0d76f9ec-36de-4311-a1ef-897de10e0d0d","system_id":"levelo_inurba_marseille","lat":43.29826,"lon":5.44052,"is_reserved":false,"is_disabled":false,"rental_uris":{"android":"levelo://app?vid=0d76f9ec-36de-4311-a1ef-897de10e0d0d","ios":"levelo://app?vid=0d76f9ec-36de-4311-a1ef-897de10e0d0d"},"vehicle_type_id":"4","last_reported":1766074591,"current_range_meters":12400,"station_id":"st_d3jp68qikq2c7381ktn0","pricing_plan_id":"cebpf4jnsgd1na2vs0mg"},{"bike_id":"ab92e49a-9f5e-4ab4-bbc2-d078f15ba447","system_id":"levelo_inurba_marseille","lat":43.29032,"lon":5.37565,"is_reserved":false,"is_disabled":false,"rental_uris":{"android":"levelo://app?vid=ab92e49a-9f5e-4ab4-bbc2-d078f15ba447","ios":"levelo://app?vid=ab92e49a-9f5e-4ab4-bbc2-d078f15ba447"},"vehicle_type_id":"4","last_reported":1766074591,"current_range_meters":12400,"station_id":"ce4bh692rcd13ifvqe90","pricing_plan_id":"cebpf4jnsgd1na2vs0mg"},{"bike_id":"97fe2efd-befb-4eee-9c4f-8c9f47dbbdf6","system_id":"levelo_inurba_marseille","lat":43.25123,"lon":5.40343,"is_reserved":false,"is_disabled":false,"rental_uris":{"android":"levelo://app?vid=97fe2efd-befb-4eee-9c4f-8c9f47dbbdf6","ios":"levelo://app?vid=97fe2efd-befb-4eee-9c4f-8c9f47dbbdf6"},"vehicle_type_id":"4","last_reported":1766074591,"current_range_meters":12400,"station_id":"ce4bhlh2rcd13ifvqgig","pricing_plan_id":"cebpf4jnsgd1na2vs0mg"},{"bike_id":"9afc99fc-189c-4ce8-85a4-66469820cb0c","system_id":"levelo_inurba_marseille","lat":43.30635,"lon":5.4009,"is_reserved":false,"is_disabled":false,"rental_uris":{"android":"levelo://app?vid=9afc99fc-189c-4ce8-85a4-66469820cb0c","ios":"levelo://app?vid=9afc99fc-189c-4ce8-85a4-66469820cb0c"},"vehicle_type_id":"4","last_reported":1766074591,"current_range_meters":12400,"station_id":"ce4bh112rcd13ifvqda0","pricing_plan_id":"cebpf4jnsgd1na2vs0mg"},{"bike_id":"7d66c6df-8513-4be7-ae50-4718cfeb6a90","system_id":"levelo_inurba_marseille","lat":43.32356,"lon":5.3674,"is_reserved":false,"is_disabled":false,"rental_uris":{"android":"levelo://app?vid=7d66c6df-8513-4be7-ae50-4718cfeb6a90","ios":"levelo://app?vid=7d66c6df-8513-4be7-ae50-4718cfeb6a90"},"vehicle_type_id":"4","last_reported":1766074591,"current_range_meters":12400,"station_id":"ce4bhsh2rcd13ifvqi2g","pricing_plan_id":"cebpf4jnsgd1na2vs0mg"},{"bike_id":"e79f34f4-a454-46bc-b7bd-c453550482db","system_id":"levelo_inurba_marseille","lat":43.30543,"lon":5.36727,"is_reserved":false,"is_disabled":false,"rental_uris":{"android":"levelo://app?vid=e79f34f4-a454-46bc-b7bd-c453550482db","ios":"levelo://app?vid=e79f34f4-a454-46bc-b7bd-c453550482db"},"vehicle_type_id":"4","last_reported":1766074591,"current_range_meters":12400,"station_id":"ce4bgrp2rcd13ifvqc9g","pricing_plan_id":"cebpf4jnsgd1na2vs0mg"},{"bike_id":"a12aec62-cb0e-4bf9-9011-6b7a9ceb2f31","system_id":"levelo_inurba_marseille","lat":43.25005,"lon":5.3895,"is_reserved":false,"is_disabled":false,"rental_uris":{"android":"levelo://app?vid=a12aec62-cb0e-4bf9-9011-6b7a9ceb2f31","ios":"levelo://app?vid=a12aec62-cb0e-4bf9-9011-6b7a9ceb2f31"},"vehicle_type_id":"4","last_reported":1766074591,"current_range_meters":12800,"station_id":"ce4bhgp2rcd13ifvqfd0","pricing_plan_id":"cebpf4jnsgd1na2vs0mg"},{"bike_id":"d50867a0-a974-4546-a28c-eba4c2e0b399","system_id":"levelo_inurba_marseille","lat":43.23199,"lon":5.35548,"is_reserved":false,"is_disabled":false,"rental_uris":{"android":"levelo://app?vid=d50867a0-a974-4546-a28c-eba4c2e0b399","ios":"levelo://app?vid=d50867a0-a974-4546-a28c-eba4c2e0b399"},"vehicle_type_id":"4","last_reported":1766074591,"current_range_meters":12800,"station_id":"ce4bhu92rcd13ifvqi70","pricing_plan_id":"cebpf4jnsgd1na2vs0mg"},{"bike_id":"63c41449-76cb-4593-a116-d53f025be3ec","system_id":"levelo_inurba_marseille","lat":43.26665,"lon":5.40829,"is_reserved":false,"is_disabled":false,"rental_uris":{"android":"levelo://app?vid=63c41449-76cb-4593-a116-d53f025be3ec","ios":"levelo://app?vid=63c41449-76cb-4593-a116-d53f025be3ec"},"vehicle_type_id":"4","last_reported":1766074591,"current_range_meters":12800,"station_id":"","pricing_plan_id":"cebpf4jnsgd1na2vs0mg"},{"bike_id":"1f8bf9e3-c9bd-4c05-9201-34f9580d25af","system_id":"levelo_inurba_marseille","lat":43.21204,"lon":5.35074,"is_reserved":false,"is_disabled":false,"rental_uris":{"android":"levelo://app?vid=1f8bf9e3-c9bd-4c05-9201-34f9580d25af","ios":"levelo://app?vid=1f8bf9e3-c9bd-4c05-9201-34f9580d25af"},"vehicle_type_id":"4","last_reported":1766074591,"current_range_meters":12800,"station_id":"st_cvj6sg6p6f1abm77japg","pricing_plan_id":"cebpf4jnsgd1na2vs0mg"},{"bike_id":"fcff82f5-0d3e-4db1-9bcf-23bb8313fe3c","system_id":"levelo_inurba_marseille","lat":43.288576,"lon":5.425412,"is_reserved":false,"is_disabled":false,"rental_uris":{"android":"levelo://app?vid=fcff82f5-0d3e-4db1-9bcf-23bb8313fe3c","ios":"levelo://app?vid=fcff82f5-0d3e-4db1-9bcf-23bb8313fe3c"},"vehicle_type_id":"4","last_reported":1766074591,"current_range_meters":12800,"station_id":"","pricing_plan_id":"cebpf4jnsgd1na2vs0mg"},{"bike_id":"fade1f76-6248-43fe-aeb9-7f93aeff737b","system_id":"levelo_inurba_marseille","lat":43.27916,"lon":5.39567,"is_reserved":false,"is_disabled":true,"rental_uris":{"android":"levelo://app?vid=fade1f76-6248-43fe-aeb9-7f93aeff737b","ios":"levelo://app?vid=fade1f76-6248-43fe-aeb9-7f93aeff737b"},"vehicle_type_id":"4","last_reported":1766074591,"current_range_meters":12800,"station_id":"ce4bhf92rcd13ifvqf40","pricing_plan_id":"cebpf4jnsgd1na2vs0mg"},{"bike_id":"9d69d969-80ac-4208-a742-5bc89bcc7fbb","system_id":"levelo_inurba_marseille","lat":43.25583,"lon":5.38231,"is_reserved":false,"is_disabled":false,"rental_uris":{"android":"levelo://app?vid=9d69d969-80ac-4208-a742-5bc89bcc7fbb","ios":"levelo://app?vid=9d69d969-80ac-4208-a742-5bc89bcc7fbb"},"vehicle_type_id":"4","last_reported":1766074591,"current_range_meters":12800,"station_id":"ce4bhih2rcd13ifvqfs0","pricing_plan_id":"cebpf4jnsgd1na2vs0mg"},{"bike_id":"98df3c79-a09d-4fcd-8e72-1d835e48117a","system_id":"levelo_inurba_marseille","lat":43.31422,"lon":5.40379,"is_reserved":false,"is_disabled":false,"rental_uris":{"android":"levelo://app?vid=98df3c79-a09d-4fcd-8e72-1d835e48117a","ios":"levelo://app?vid=98df3c79-a09d-4fcd-8e72-1d835e48117a"},"vehicle_type_id":"4","last_reported":1766074591,"current_range_meters":12800,"station_id":"","pricing_plan_id":"cebpf4jnsgd1na2vs0mg"},{"bike_id":"0de50e14-dc05-48db-b2b3-c6b99664dcd7","system_id":"levelo_inurba_marseille","lat":43.23191,"lon":5.35527,"is_reserved":false,"is_disabled":false,"rental_uris":{"android":"levelo://app?vid=0de50e14-dc05-48db-b2b3-c6b99664dcd7","ios":"levelo://app?vid=0de50e14-dc05-48db-b2b3-c6b99664dcd7"},"vehicle_type_id":"4","last_reported":1766074591,"current_range_meters":13600,"station_id":"ce4bhu92rcd13ifvqi70","pricing_plan_id":"cebpf4jnsgd1na2vs0mg"},{"bike_id":"f621baf8-0b1d-4915-82f5-f14757f2e678","system_id":"levelo_inurba_marseille","lat":43.26681,"lon":5.38257,"is_reserved":false,"is_disabled":false,"rental_uris":{"android":"levelo://app?vid=f621baf8-0b1d-4915-82f5-f14757f2e678","ios":"levelo://app?vid=f621baf8-0b1d-4915-82f5-f14757f2e678"},"vehicle_type_id":"4","last_reported":1766074591,"current_range_meters":13600,"station_id":"ce4bhg92rcd13ifvqf90","pricing_plan_id":"cebpf4jnsgd1na2vs0mg"},{"bike_id":"21faa4df-3e9c-465a-828a-5460bd333292","system_id":"levelo_inurba_marseille","lat":43.29581,"lon":5.37508,"is_reserved":false,"is_disabled":false,"rental_uris":{"android":"levelo://app?vid=21faa4df-3e9c-465a-828a-5460bd333292","ios":"levelo://app?vid=21faa4df-3e9c-465a-828a-5460bd333292"},"vehicle_type_id":"4","last_reported":1766074591,"current_range_meters":13600,"station_id":"ce4bgh92rcd13ifvqb50","pricing_plan_id":"cebpf4jnsgd1na2vs0mg"},{"bike_id":"e00742fa-83a2-4c32-8e7a-6934c31f82a1","system_id":"levelo_inurba_marseille","lat":43.29795,"lon":5.38089,"is_reserved":false,"is_disabled":false,"rental_uris":{"android":"levelo://app?vid=e00742fa-83a2-4c32-8e7a-6934c31f82a1","ios":"levelo://app?vid=e00742fa-83a2-4c32-8e7a-6934c31f82a1"},"vehicle_type_id":"4","last_reported":1766074591,"current_range_meters":13600,"station_id":"ce4bgip2rcd13ifvqbb0","pricing_plan_id":"cebpf4jnsgd1na2vs0mg"},{"bike_id":"6c7cdeb8-b2c3-4427-b73a-735e42079b93","system_id":"levelo_inurba_marseille","lat":43.26504,"lon":5.39537,"is_reserved":false,"is_disabled":false,"rental_uris":{"android":"levelo://app?vid=6c7cdeb8-b2c3-4427-b73a-735e42079b93","ios":"levelo://app?vid=6c7cdeb8-b2c3-4427-b73a-735e42079b93"},"vehicle_type_id":"4","last_reported":1766074591,"current_range_meters":13600,"station_id":"ce4bhi12rcd13ifvqfq0","pricing_plan_id":"cebpf4jnsgd1na2vs0mg"},{"bike_id":"9f6c9975-15d6-48de-a383-d85662191ef8","system_id":"levelo_inurba_marseille","lat":43.21194,"lon":5.35076,"is_reserved":false,"is_disabled":false,"rental_uris":{"android":"levelo://app?vid=9f6c9975-15d6-48de-a383-d85662191ef8","ios":"levelo://app?vid=9f6c9975-15d6-48de-a383-d85662191ef8"},"vehicle_type_id":"4","last_reported":1766074591,"current_range_meters":14000,"station_id":"st_cvj6sg6p6f1abm77japg","pricing_plan_id":"cebpf4jnsgd1na2vs0mg"},{"bike_id":"eac78c98-095f-4d78-8e98-87b6e0773649","system_id":"levelo_inurba_marseille","lat":43.23196,"lon":5.35553,"is_reserved":false,"is_disabled":false,"rental_uris":{"android":"levelo://app?vid=eac78c98-095f-4d78-8e98-87b6e0773649","ios":"levelo://app?vid=eac78c98-095f-4d78-8e98-87b6e0773649"},"vehicle_type_id":"4","last_reported":1766074591,"current_range_meters":14000,"station_id":"ce4bhu92rcd13ifvqi70","pricing_plan_id":"cebpf4jnsgd1na2vs0mg"},{"bike_id":"d235767a-3e44-44c9-893e-7ebda15e5a64","system_id":"levelo_inurba_marseille","lat":43.25432,"lon":5.38519,"is_reserved":false,"is_disabled":false,"rental_uris":{"android":"levelo://app?vid=d235767a-3e44-44c9-893e-7ebda15e5a64","ios":"levelo://app?vid=d235767a-3e44-44c9-893e-7ebda15e5a64"},"vehicle_type_id":"4","last_reported":1766074591,"current_range_meters":14000,"station_id":"","pricing_plan_id":"cebpf4jnsgd1na2vs0mg"},{"bike_id":"eb2d07ad-48b6-46d8-9647-29736ee2f2b1","system_id":"levelo_inurba_marseille","lat":43.30253,"lon":5.40065,"is_reserved":false,"is_disabled":false,"rental_uris":{"android":"levelo://app?vid=eb2d07ad-48b6-46d8-9647-29736ee2f2b1","ios":"levelo://app?vid=eb2d07ad-48b6-46d8-9647-29736ee2f2b1"},"vehicle_type_id":"4","last_reported":1766074591,"current_range_meters":14000,"station_id":"ce4bgvh2rcd13ifvqcs0","pricing_plan_id":"cebpf4jnsgd1na2vs0mg"},{"bike_id":"81b4879d-5423-4aad-a0bc-1edbef8c668c","system_id":"levelo_inurba_marseille","lat":43.24164,"lon":5.36411,"is_reserved":false,"is_disabled":false,"rental_uris":{"android":"levelo://app?vid=81b4879d-5423-4aad-a0bc-1edbef8c668c","ios":"levelo://app?vid=81b4879d-5423-4aad-a0bc-1edbef8c668c"},"vehicle_type_id":"4","last_reported":1766074591,"current_range_meters":14000,"station_id":"cpo36qri1sfpv3e86is0","pricing_plan_id":"cebpf4jnsgd1na2vs0mg"},{"bike_id":"2029c855-dcdb-4970-bac2-bc6c1ffd0882","system_id":"levelo_inurba_marseille","lat":43.266812,"lon":5.38273,"is_reserved":false,"is_disabled":false,"rental_uris":{"android":"levelo://app?vid=2029c855-dcdb-4970-bac2-bc6c1ffd0882","ios":"levelo://app?vid=2029c855-dcdb-4970-bac2-bc6c1ffd0882"},"vehicle_type_id":"4","last_reported":1766074591,"current_range_meters":14000,"station_id":"","pricing_plan_id":"cebpf4jnsgd1na2vs0mg"},{"bike_id":"54b699d7-65f2-4a7a-9f83-f79492606b86","system_id":"levelo_inurba_marseille","lat":43.30581,"lon":5.36551,"is_reserved":false,"is_disabled":false,"rental_uris":{"android":"levelo://app?vid=54b699d7-65f2-4a7a-9f83-f79492606b86","ios":"levelo://app?vid=54b699d7-65f2-4a7a-9f83-f79492606b86"},"vehicle_type_id":"4","last_reported":1766074591,"current_range_meters":14000,"station_id":"ce4bgs12rcd13ifvqcag","pricing_plan_id":"cebpf4jnsgd1na2vs0mg"},{"bike_id":"b83f304e-661c-4849-a50a-ce238978c694","system_id":"levelo_inurba_marseille","lat":43.26503,"lon":5.39553,"is_reserved":false,"is_disabled":false,"rental_uris":{"android":"levelo://app?vid=b83f304e-661c-4849-a50a-ce238978c694","ios":"levelo://app?vid=b83f304e-661c-4849-a50a-ce238978c694"},"vehicle_type_id":"4","last_reported":1766074591,"current_range_meters":14000,"station_id":"ce4bhi12rcd13ifvqfq0","pricing_plan_id":"cebpf4jnsgd1na2vs0mg"},{"bike_id":"d0591e5b-3d70-427e-8f9c-2b7eb3479936","system_id":"levelo_inurba_marseille","lat":43.305441,"lon":5.365337,"is_reserved":false,"is_disabled":false,"rental_uris":{"android":"levelo://app?vid=d0591e5b-3d70-427e-8f9c-2b7eb3479936","ios":"levelo://app?vid=d0591e5b-3d70-427e-8f9c-2b7eb3479936"},"vehicle_type_id":"4","last_reported":1766074591,"current_range_meters":14000,"station_id":"ce4bgs12rcd13ifvqcag","pricing_plan_id":"cebpf4jnsgd1na2vs0mg"},{"bike_id":"2c75ad9d-3cc0-42db-9aed-ad7814b77759","system_id":"levelo_inurba_marseille","lat":43.29879,"lon":5.39711,"is_reserved":false,"is_disabled":false,"rental_uris":{"android":"levelo://app?vid=2c75ad9d-3cc0-42db-9aed-ad7814b77759","ios":"levelo://app?vid=2c75ad9d-3cc0-42db-9aed-ad7814b77759"},"vehicle_type_id":"4","last_reported":1766074591,"current_range_meters":14000,"station_id":"ce4bh0h2rcd13ifvqd50","pricing_plan_id":"cebpf4jnsgd1na2vs0mg"},{"bike_id":"ddedb140-ab44-49b4-88fc-f6e9cbc01202","system_id":"levelo_inurba_marseille","lat":43.27832,"lon":5.392,"is_reserved":false,"is_disabled":false,"rental_uris":{"android":"levelo://app?vid=ddedb140-ab44-49b4-88fc-f6e9cbc01202","ios":"levelo://app?vid=ddedb140-ab44-49b4-88fc-f6e9cbc01202"},"vehicle_type_id":"4","last_reported":1766074591,"current_range_meters":14000,"station_id":"ce4bhjp2rcd13ifvqga0","pricing_plan_id":"cebpf4jnsgd1na2vs0mg"},{"bike_id":"1f056b37-e3f2-4d39-81cb-848d585f8a47","system_id":"levelo_inurba_marseille","lat":43.2418,"lon":5.3638,"is_reserved":false,"is_disabled":false,"rental_uris":{"android":"levelo://app?vid=1f056b37-e3f2-4d39-81cb-848d585f8a47","ios":"levelo://app?vid=1f056b37-e3f2-4d39-81cb-848d585f8a47"},"vehicle_type_id":"4","last_reported":1766074591,"current_range_meters":14000,"station_id":"cpo36qri1sfpv3e86is0","pricing_plan_id":"cebpf4jnsgd1na2vs0mg"},{"bike_id":"4218c3f6-4764-47cf-93fc-c76838aefb78","system_id":"levelo_inurba_marseille","lat":43.24171,"lon":5.36429,"is_reserved":false,"is_disabled":false,"rental_uris":{"android":"levelo://app?vid=4218c3f6-4764-47cf-93fc-c76838aefb78","ios":"levelo://app?vid=4218c3f6-4764-47cf-93fc-c76838aefb78"},"vehicle_type_id":"4","last_reported":1766074591,"current_range_meters":14400,"station_id":"cpo36qri1sfpv3e86is0","pricing_plan_id":"cebpf4jnsgd1na2vs0mg"},{"bike_id":"810e1fac-3433-4833-8834-39cfdf4fd050","system_id":"levelo_inurba_marseille","lat":43.3225,"lon":5.40706,"is_reserved":false,"is_disabled":false,"rental_uris":{"android":"levelo://app?vid=810e1fac-3433-4833-8834-39cfdf4fd050","ios":"levelo://app?vid=810e1fac-3433-4833-8834-39cfdf4fd050"},"vehicle_type_id":"4","last_reported":1766074591,"current_range_meters":14400,"station_id":"ce4bhpp2rcd13ifvqhgg","pricing_plan_id":"cebpf4jnsgd1na2vs0mg"},{"bike_id":"3b8ef4b6-4d6c-4e35-a93b-c3de609f6c0e","system_id":"levelo_inurba_marseille","lat":43.25114,"lon":5.40316,"is_reserved":false,"is_disabled":false,"rental_uris":{"android":"levelo://app?vid=3b8ef4b6-4d6c-4e35-a93b-c3de609f6c0e","ios":"levelo://app?vid=3b8ef4b6-4d6c-4e35-a93b-c3de609f6c0e"},"vehicle_type_id":"4","last_reported":1766074591,"current_range_meters":14400,"station_id":"ce4bhlh2rcd13ifvqgig","pricing_plan_id":"cebpf4jnsgd1na2vs0mg"},{"bike_id":"d0dd282f-2c05-49dd-834d-6d93cee6c88a","system_id":"levelo_inurba_marseille","lat":43.30203,"lon":5.36624,"is_reserved":false,"is_disabled":true,"rental_uris":{"android":"levelo://app?vid=d0dd282f-2c05-49dd-834d-6d93cee6c88a","ios":"levelo://app?vid=d0dd282f-2c05-49dd-834d-6d93cee6c88a"},"vehicle_type_id":"4","last_reported":1766074591,"current_range_meters":14400,"station_id":"ce4bgrh2rcd13ifvqc8g","pricing_plan_id":"cebpf4jnsgd1na2vs0mg"},{"bike_id":"31a8a530-d875-470f-bb82-c3f6f0a5a4e2","system_id":"levelo_inurba_marseille","lat":43.295,"lon":5.43295,"is_reserved":false,"is_disabled":false,"rental_uris":{"android":"levelo://app?vid=31a8a530-d875-470f-bb82-c3f6f0a5a4e2","ios":"levelo://app?vid=31a8a530-d875-470f-bb82-c3f6f0a5a4e2"},"vehicle_type_id":"4","last_reported":1766074591,"current_range_meters":14400,"station_id":"st_d3j5ugp08ojc73fj9d10","pricing_plan_id":"cebpf4jnsgd1na2vs0mg"},{"bike_id":"f3a4c2fd-c27a-4ca6-bbe5-3949d2a88808","system_id":"levelo_inurba_marseille","lat":43.28568,"lon":5.42972,"is_reserved":false,"is_disabled":false,"rental_uris":{"android":"levelo://app?vid=f3a4c2fd-c27a-4ca6-bbe5-3949d2a88808","ios":"levelo://app?vid=f3a4c2fd-c27a-4ca6-bbe5-3949d2a88808"},"vehicle_type_id":"4","last_reported":1766074591,"current_range_meters":14400,"station_id":"","pricing_plan_id":"cebpf4jnsgd1na2vs0mg"},{"bike_id":"17a49efb-d179-4b85-b20c-4afe87c0613f","system_id":"levelo_inurba_marseille","lat":43.310563,"lon":5.371761,"is_reserved":false,"is_disabled":true,"rental_uris":{"android":"levelo://app?vid=17a49efb-d179-4b85-b20c-4afe87c0613f","ios":"levelo://app?vid=17a49efb-d179-4b85-b20c-4afe87c0613f"},"vehicle_type_id":"4","last_reported":1766074591,"current_range_meters":14400,"station_id":"st_d4kl2rp97mjs73e7tdfg","pricing_plan_id":"cebpf4jnsgd1na2vs0mg"},{"bike_id":"1fe61e53-783b-4be3-86da-1e2214f6789d","system_id":"levelo_inurba_marseille","lat":43.29752,"lon":5.38074,"is_reserved":false,"is_disabled":false,"rental_uris":{"android":"levelo://app?vid=1fe61e53-783b-4be3-86da-1e2214f6789d","ios":"levelo://app?vid=1fe61e53-783b-4be3-86da-1e2214f6789d"},"vehicle_type_id":"4","last_reported":1766074591,"current_range_meters":14400,"station_id":"","pricing_plan_id":"cebpf4jnsgd1na2vs0mg"},{"bike_id":"f22af970-5a3c-443c-9cde-0f809da93c01","system_id":"levelo_inurba_marseille","lat":43.301357,"lon":5.387646,"is_reserved":false,"is_disabled":false,"rental_uris":{"android":"levelo://app?vid=f22af970-5a3c-443c-9cde-0f809da93c01","ios":"levelo://app?vid=f22af970-5a3c-443c-9cde-0f809da93c01"},"vehicle_type_id":"4","last_reported":1766074591,"current_range_meters":14800,"station_id":"ce4bghh2rcd13ifvqb60","pricing_plan_id":"cebpf4jnsgd1na2vs0mg"},{"bike_id":"6929261e-e005-4425-bfab-f5fbbcb76080","system_id":"levelo_inurba_marseille","lat":43.304275,"lon":5.397505,"is_reserved":false,"is_disabled":false,"rental_uris":{"android":"levelo://app?vid=6929261e-e005-4425-bfab-f5fbbcb76080","ios":"levelo://app?vid=6929261e-e005-4425-bfab-f5fbbcb76080"},"vehicle_type_id":"4","last_reported":1766074591,"current_range_meters":14800,"station_id":"ce4bh092rcd13ifvqd20","pricing_plan_id":"cebpf4jnsgd1na2vs0mg"},{"bike_id":"29ff8d65-fbca-42c1-b12e-cd4dc579808a","system_id":"levelo_inurba_marseille","lat":43.301407,"lon":5.374218,"is_reserved":false,"is_disabled":false,"rental_uris":{"android":"levelo://app?vid=29ff8d65-fbca-42c1-b12e-cd4dc579808a","ios":"levelo://app?vid=29ff8d65-fbca-42c1-b12e-cd4dc579808a"},"vehicle_type_id":"4","last_reported":1766074591,"current_range_meters":14800,"station_id":"ce4bh392rcd13ifvqdl0","pricing_plan_id":"cebpf4jnsgd1na2vs0mg"},{"bike_id":"e7dfab09-bfd4-4367-ac6a-0fd9a0169d94","system_id":"levelo_inurba_marseille","lat":43.301442,"lon":5.374106,"is_reserved":false,"is_disabled":false,"rental_uris":{"android":"levelo://app?vid=e7dfab09-bfd4-4367-ac6a-0fd9a0169d94","ios":"levelo://app?vid=e7dfab09-bfd4-4367-ac6a-0fd9a0169d94"},"vehicle_type_id":"4","last_reported":1766074591,"current_range_meters":14800,"station_id":"ce4bgs92rcd13ifvqcc0","pricing_plan_id":"cebpf4jnsgd1na2vs0mg"},{"bike_id":"4609324d-d5aa-4230-9886-9949226bceee","system_id":"levelo_inurba_marseille","lat":43.25829,"lon":5.39439,"is_reserved":false,"is_disabled":false,"rental_uris":{"android":"levelo://app?vid=4609324d-d5aa-4230-9886-9949226bceee","ios":"levelo://app?vid=4609324d-d5aa-4230-9886-9949226bceee"},"vehicle_type_id":"4","last_reported":1766074591,"current_range_meters":14800,"station_id":"ce4bhip2rcd13ifvqft0","pricing_plan_id":"cebpf4jnsgd1na2vs0mg"},{"bike_id":"907c6bab-d04b-4a2f-a93b-74499e90fd68","system_id":"levelo_inurba_marseille","lat":43.31243,"lon":5.36923,"is_reserved":false,"is_disabled":false,"rental_uris":{"android":"levelo://app?vid=907c6bab-d04b-4a2f-a93b-74499e90fd68","ios":"levelo://app?vid=907c6bab-d04b-4a2f-a93b-74499e90fd68"},"vehicle_type_id":"4","last_reported":1766074591,"current_range_meters":15200,"station_id":"ce4bgl92rcd13ifvqbq0","pricing_plan_id":"cebpf4jnsgd1na2vs0mg"},{"bike_id":"acdb6905-2e88-4ba3-8611-6513ba3fc45e","system_id":"levelo_inurba_marseille","lat":43.30452,"lon":5.37908,"is_reserved":false,"is_disabled":false,"rental_uris":{"android":"levelo://app?vid=acdb6905-2e88-4ba3-8611-6513ba3fc45e","ios":"levelo://app?vid=acdb6905-2e88-4ba3-8611-6513ba3fc45e"},"vehicle_type_id":"4","last_reported":1766074591,"current_range_meters":15200,"station_id":"ce4bgup2rcd13ifvqcn0","pricing_plan_id":"cebpf4jnsgd1na2vs0mg"},{"bike_id":"254d37b4-a453-4bef-8698-ef2e940aac87","system_id":"levelo_inurba_marseille","lat":43.28458,"lon":5.39204,"is_reserved":false,"is_disabled":false,"rental_uris":{"android":"levelo://app?vid=254d37b4-a453-4bef-8698-ef2e940aac87","ios":"levelo://app?vid=254d37b4-a453-4bef-8698-ef2e940aac87"},"vehicle_type_id":"4","last_reported":1766074591,"current_range_meters":15200,"station_id":"ce4bhoh2rcd13ifvqh5g","pricing_plan_id":"cebpf4jnsgd1na2vs0mg"},{"bike_id":"b494c767-effb-47c2-9a4d-0fc429c1d80d","system_id":"levelo_inurba_marseille","lat":43.29582,"lon":5.37498,"is_reserved":false,"is_disabled":true,"rental_uris":{"android":"levelo://app?vid=b494c767-effb-47c2-9a4d-0fc429c1d80d","ios":"levelo://app?vid=b494c767-effb-47c2-9a4d-0fc429c1d80d"},"vehicle_type_id":"4","last_reported":1766074591,"current_range_meters":15200,"station_id":"","pricing_plan_id":"cebpf4jnsgd1na2vs0mg"},{"bike_id":"b3a6fcda-f86f-4fd8-93ce-3e07cb8dc6cd","system_id":"levelo_inurba_marseille","lat":43.259291,"lon":5.409044,"is_reserved":false,"is_disabled":false,"rental_uris":{"android":"levelo://app?vid=b3a6fcda-f86f-4fd8-93ce-3e07cb8dc6cd","ios":"levelo://app?vid=b3a6fcda-f86f-4fd8-93ce-3e07cb8dc6cd"},"vehicle_type_id":"4","last_reported":1766074591,"current_range_meters":15200,"station_id":"ce4bhm92rcd13ifvqglg","pricing_plan_id":"cebpf4jnsgd1na2vs0mg"},{"bike_id":"cf5eb2c1-c87d-4ae3-9256-41d8d82f1276","system_id":"levelo_inurba_marseille","lat":43.2923,"lon":5.36066,"is_reserved":false,"is_disabled":false,"rental_uris":{"android":"levelo://app?vid=cf5eb2c1-c87d-4ae3-9256-41d8d82f1276","ios":"levelo://app?vid=cf5eb2c1-c87d-4ae3-9256-41d8d82f1276"},"vehicle_type_id":"4","last_reported":1766074591,"current_range_meters":15200,"station_id":"ce4bhbh2rcd13ifvqeqg","pricing_plan_id":"cebpf4jnsgd1na2vs0mg"},{"bike_id":"413557ff-13d9-40fb-81ee-6ad5e7d92bea","system_id":"levelo_inurba_marseille","lat":43.211871,"lon":5.35073,"is_reserved":false,"is_disabled":false,"rental_uris":{"android":"levelo://app?vid=413557ff-13d9-40fb-81ee-6ad5e7d92bea","ios":"levelo://app?vid=413557ff-13d9-40fb-81ee-6ad5e7d92bea"},"vehicle_type_id":"4","last_reported":1766074591,"current_range_meters":15200,"station_id":"st_cvj6sg6p6f1abm77japg","pricing_plan_id":"cebpf4jnsgd1na2vs0mg"},{"bike_id":"5d43b2f7-f9b0-44ad-8bc8-a155118255db","system_id":"levelo_inurba_marseille","lat":43.31368,"lon":5.38484,"is_reserved":false,"is_disabled":false,"rental_uris":{"android":"levelo://app?vid=5d43b2f7-f9b0-44ad-8bc8-a155118255db","ios":"levelo://app?vid=5d43b2f7-f9b0-44ad-8bc8-a155118255db"},"vehicle_type_id":"4","last_reported":1766074591,"current_range_meters":15200,"station_id":"ce4bgt92rcd13ifvqcf0","pricing_plan_id":"cebpf4jnsgd1na2vs0mg"},{"bike_id":"9b3ad9e9-6c8e-47dd-9f00-d7499ff2fa77","system_id":"levelo_inurba_marseille","lat":43.21195,"lon":5.35077,"is_reserved":false,"is_disabled":false,"rental_uris":{"android":"levelo://app?vid=9b3ad9e9-6c8e-47dd-9f00-d7499ff2fa77","ios":"levelo://app?vid=9b3ad9e9-6c8e-47dd-9f00-d7499ff2fa77"},"vehicle_type_id":"4","last_reported":1766074591,"current_range_meters":15200,"station_id":"st_cvj6sg6p6f1abm77japg","pricing_plan_id":"cebpf4jnsgd1na2vs0mg"},{"bike_id":"7ef54de0-f48f-4735-8818-8b74cc2d12d0","system_id":"levelo_inurba_marseille","lat":43.27914,"lon":5.39583,"is_reserved":false,"is_disabled":false,"rental_uris":{"android":"levelo://app?vid=7ef54de0-f48f-4735-8818-8b74cc2d12d0","ios":"levelo://app?vid=7ef54de0-f48f-4735-8818-8b74cc2d12d0"},"vehicle_type_id":"4","last_reported":1766074591,"current_range_meters":15200,"station_id":"ce4bhf92rcd13ifvqf40","pricing_plan_id":"cebpf4jnsgd1na2vs0mg"},{"bike_id":"0a598fce-978f-4f90-b03f-b8be1902feff","system_id":"levelo_inurba_marseille","lat":43.31284,"lon":5.37829,"is_reserved":false,"is_disabled":false,"rental_uris":{"android":"levelo://app?vid=0a598fce-978f-4f90-b03f-b8be1902feff","ios":"levelo://app?vid=0a598fce-978f-4f90-b03f-b8be1902feff"},"vehicle_type_id":"4","last_reported":1766074591,"current_range_meters":16000,"station_id":"","pricing_plan_id":"cebpf4jnsgd1na2vs0mg"},{"bike_id":"8e2c4365-a182-4516-ba77-8f0a9c93c551","system_id":"levelo_inurba_marseille","lat":43.28458,"lon":5.35885,"is_reserved":false,"is_disabled":false,"rental_uris":{"android":"levelo://app?vid=8e2c4365-a182-4516-ba77-8f0a9c93c551","ios":"levelo://app?vid=8e2c4365-a182-4516-ba77-8f0a9c93c551"},"vehicle_type_id":"4","last_reported":1766074591,"current_range_meters":16000,"station_id":"ce4bhah2rcd13ifvqei0","pricing_plan_id":"cebpf4jnsgd1na2vs0mg"},{"bike_id":"3100d5c0-fc69-40df-a684-c1b613145db4","system_id":"levelo_inurba_marseille","lat":43.23184,"lon":5.39979,"is_reserved":false,"is_disabled":false,"rental_uris":{"android":"levelo://app?vid=3100d5c0-fc69-40df-a684-c1b613145db4","ios":"levelo://app?vid=3100d5c0-fc69-40df-a684-c1b613145db4"},"vehicle_type_id":"4","last_reported":1766074591,"current_range_meters":16000,"station_id":"ce4bhn12rcd13ifvqgqg","pricing_plan_id":"cebpf4jnsgd1na2vs0mg"},{"bike_id":"37484701-bd64-42e7-b5e9-b0b0a6e39726","system_id":"levelo_inurba_marseille","lat":43.30552,"lon":5.36513,"is_reserved":false,"is_disabled":false,"rental_uris":{"android":"levelo://app?vid=37484701-bd64-42e7-b5e9-b0b0a6e39726","ios":"levelo://app?vid=37484701-bd64-42e7-b5e9-b0b0a6e39726"},"vehicle_type_id":"4","last_reported":1766074591,"current_range_meters":16000,"station_id":"ce4bgs12rcd13ifvqcag","pricing_plan_id":"cebpf4jnsgd1na2vs0mg"},{"bike_id":"faca6227-153f-46d1-b175-909d468d991e","system_id":"levelo_inurba_marseille","lat":43.29032,"lon":5.37562,"is_reserved":false,"is_disabled":false,"rental_uris":{"android":"levelo://app?vid=faca6227-153f-46d1-b175-909d468d991e","ios":"levelo://app?vid=faca6227-153f-46d1-b175-909d468d991e"},"vehicle_type_id":"4","last_reported":1766074591,"current_range_meters":16000,"station_id":"ce4bh692rcd13ifvqe90","pricing_plan_id":"cebpf4jnsgd1na2vs0mg"},{"bike_id":"f584ba9d-0369-4446-b132-f95af38691c9","system_id":"levelo_inurba_marseille","lat":43.3013,"lon":5.38771,"is_reserved":false,"is_disabled":false,"rental_uris":{"android":"levelo://app?vid=f584ba9d-0369-4446-b132-f95af38691c9","ios":"levelo://app?vid=f584ba9d-0369-4446-b132-f95af38691c9"},"vehicle_type_id":"4","last_reported":1766074591,"current_range_meters":16000,"station_id":"ce4bghh2rcd13ifvqb60","pricing_plan_id":"cebpf4jnsgd1na2vs0mg"},{"bike_id":"3171c4f4-d5a9-4282-9d2c-df19a6022bc8","system_id":"levelo_inurba_marseille","lat":43.2906,"lon":5.3564,"is_reserved":false,"is_disabled":false,"rental_uris":{"android":"levelo://app?vid=3171c4f4-d5a9-4282-9d2c-df19a6022bc8","ios":"levelo://app?vid=3171c4f4-d5a9-4282-9d2c-df19a6022bc8"},"vehicle_type_id":"4","last_reported":1766074591,"current_range_meters":16000,"station_id":"","pricing_plan_id":"cebpf4jnsgd1na2vs0mg"},{"bike_id":"28e7ea25-d676-49ca-8be6-ac1c19bc94ea","system_id":"levelo_inurba_marseille","lat":43.334106,"lon":5.400619,"is_reserved":false,"is_disabled":false,"rental_uris":{"android":"levelo://app?vid=28e7ea25-d676-49ca-8be6-ac1c19bc94ea","ios":"levelo://app?vid=28e7ea25-d676-49ca-8be6-ac1c19bc94ea"},"vehicle_type_id":"4","last_reported":1766074591,"current_range_meters":16000,"station_id":"","pricing_plan_id":"cebpf4jnsgd1na2vs0mg"},{"bike_id":"55fb2780-cfab-42dc-9a84-bf15fefe4c44","system_id":"levelo_inurba_marseille","lat":43.31077,"lon":5.38348,"is_reserved":false,"is_disabled":false,"rental_uris":{"android":"levelo://app?vid=55fb2780-cfab-42dc-9a84-bf15fefe4c44","ios":"levelo://app?vid=55fb2780-cfab-42dc-9a84-bf15fefe4c44"},"vehicle_type_id":"4","last_reported":1766074591,"current_range_meters":16000,"station_id":"ce4bgv92rcd13ifvqcr0","pricing_plan_id":"cebpf4jnsgd1na2vs0mg"},{"bike_id":"3a0a6898-8fb0-478e-805e-eba6ba316b24","system_id":"levelo_inurba_marseille","lat":43.30276,"lon":5.400419,"is_reserved":false,"is_disabled":false,"rental_uris":{"android":"levelo://app?vid=3a0a6898-8fb0-478e-805e-eba6ba316b24","ios":"levelo://app?vid=3a0a6898-8fb0-478e-805e-eba6ba316b24"},"vehicle_type_id":"4","last_reported":1766074591,"current_range_meters":16000,"station_id":"ce4bh112rcd13ifvqda0","pricing_plan_id":"cebpf4jnsgd1na2vs0mg"},{"bike_id":"700442f5-a082-454e-8bc7-ab3bbb77bfce","system_id":"levelo_inurba_marseille","lat":43.266321,"lon":5.374499,"is_reserved":false,"is_disabled":false,"rental_uris":{"android":"levelo://app?vid=700442f5-a082-454e-8bc7-ab3bbb77bfce","ios":"levelo://app?vid=700442f5-a082-454e-8bc7-ab3bbb77bfce"},"vehicle_type_id":"4","last_reported":1766074591,"current_range_meters":16000,"station_id":"","pricing_plan_id":"cebpf4jnsgd1na2vs0mg"},{"bike_id":"40a2d79c-66c5-48fb-b28b-accae02a63a1","system_id":"levelo_inurba_marseille","lat":43.27379,"lon":5.36255,"is_reserved":false,"is_disabled":false,"rental_uris":{"android":"levelo://app?vid=40a2d79c-66c5-48fb-b28b-accae02a63a1","ios":"levelo://app?vid=40a2d79c-66c5-48fb-b28b-accae02a63a1"},"vehicle_type_id":"4","last_reported":1766074591,"current_range_meters":16000,"station_id":"ce4bhbh2rcd13ifvqeo0","pricing_plan_id":"cebpf4jnsgd1na2vs0mg"},{"bike_id":"1b3e78af-6e11-4a00-8160-7be2836c0e75","system_id":"levelo_inurba_marseille","lat":43.26189,"lon":5.3745,"is_reserved":false,"is_disabled":true,"rental_uris":{"android":"levelo://app?vid=1b3e78af-6e11-4a00-8160-7be2836c0e75","ios":"levelo://app?vid=1b3e78af-6e11-4a00-8160-7be2836c0e75"},"vehicle_type_id":"4","last_reported":1766074591,"current_range_meters":16400,"station_id":"","pricing_plan_id":"cebpf4jnsgd1na2vs0mg"},{"bike_id":"00a29bb1-88ca-440d-9219-07d673c689ed","system_id":"levelo_inurba_marseille","lat":43.2985,"lon":5.36266,"is_reserved":false,"is_disabled":false,"rental_uris":{"android":"levelo://app?vid=00a29bb1-88ca-440d-9219-07d673c689ed","ios":"levelo://app?vid=00a29bb1-88ca-440d-9219-07d673c689ed"},"vehicle_type_id":"4","last_reported":1766074591,"current_range_meters":16400,"station_id":"ce4bgpp2rcd13ifvqc3g","pricing_plan_id":"cebpf4jnsgd1na2vs0mg"},{"bike_id":"9aa8af62-5279-4e1e-9590-a787d63d1533","system_id":"levelo_inurba_marseille","lat":43.2622,"lon":5.40432,"is_reserved":false,"is_disabled":false,"rental_uris":{"android":"levelo://app?vid=9aa8af62-5279-4e1e-9590-a787d63d1533","ios":"levelo://app?vid=9aa8af62-5279-4e1e-9590-a787d63d1533"},"vehicle_type_id":"4","last_reported":1766074591,"current_range_meters":16400,"station_id":"ce4bhmh2rcd13ifvqgmg","pricing_plan_id":"cebpf4jnsgd1na2vs0mg"},{"bike_id":"30df60d9-afa1-4ec6-ae98-845c99089db1","system_id":"levelo_inurba_marseille","lat":43.295835,"lon":5.375082,"is_reserved":false,"is_disabled":false,"rental_uris":{"android":"levelo://app?vid=30df60d9-afa1-4ec6-ae98-845c99089db1","ios":"levelo://app?vid=30df60d9-afa1-4ec6-ae98-845c99089db1"},"vehicle_type_id":"4","last_reported":1766074591,"current_range_meters":16400,"station_id":"","pricing_plan_id":"cebpf4jnsgd1na2vs0mg"},{"bike_id":"c852469c-7b7d-434c-85b2-05356fc82470","system_id":"levelo_inurba_marseille","lat":43.28982,"lon":5.37835,"is_reserved":false,"is_disabled":true,"rental_uris":{"android":"levelo://app?vid=c852469c-7b7d-434c-85b2-05356fc82470","ios":"levelo://app?vid=c852469c-7b7d-434c-85b2-05356fc82470"},"vehicle_type_id":"4","last_reported":1766074591,"current_range_meters":16400,"station_id":"ce4bh9p2rcd13ifvqed0","pricing_plan_id":"cebpf4jnsgd1na2vs0mg"},{"bike_id":"d6888ab2-db65-443c-8d72-10589f53745a","system_id":"levelo_inurba_marseille","lat":43.29516,"lon":5.37491,"is_reserved":false,"is_disabled":true,"rental_uris":{"android":"levelo://app?vid=d6888ab2-db65-443c-8d72-10589f53745a","ios":"levelo://app?vid=d6888ab2-db65-443c-8d72-10589f53745a"},"vehicle_type_id":"4","last_reported":1766074591,"current_range_meters":16400,"station_id":"ce4bgkp2rcd13ifvqbmg","pricing_plan_id":"cebpf4jnsgd1na2vs0mg"},{"bike_id":"d3d74225-cb18-431f-85b8-0596ebf3e77f","system_id":"levelo_inurba_marseille","lat":43.306405,"lon":5.400836,"is_reserved":false,"is_disabled":false,"rental_uris":{"android":"levelo://app?vid=d3d74225-cb18-431f-85b8-0596ebf3e77f","ios":"levelo://app?vid=d3d74225-cb18-431f-85b8-0596ebf3e77f"},"vehicle_type_id":"4","last_reported":1766074591,"current_range_meters":16400,"station_id":"ce4bh112rcd13ifvqda0","pricing_plan_id":"cebpf4jnsgd1na2vs0mg"},{"bike_id":"366fb75a-3e0d-4ae7-bcec-28ee490b5bba","system_id":"levelo_inurba_marseille","lat":43.30126,"lon":5.37393,"is_reserved":false,"is_disabled":false,"rental_uris":{"android":"levelo://app?vid=366fb75a-3e0d-4ae7-bcec-28ee490b5bba","ios":"levelo://app?vid=366fb75a-3e0d-4ae7-bcec-28ee490b5bba"},"vehicle_type_id":"4","last_reported":1766074591,"current_range_meters":16400,"station_id":"ce4bgs92rcd13ifvqcc0","pricing_plan_id":"cebpf4jnsgd1na2vs0mg"},{"bike_id":"8965bd2e-8152-488c-82f6-eca1ad732749","system_id":"levelo_inurba_marseille","lat":43.31273,"lon":5.40172,"is_reserved":false,"is_disabled":false,"rental_uris":{"android":"levelo://app?vid=8965bd2e-8152-488c-82f6-eca1ad732749","ios":"levelo://app?vid=8965bd2e-8152-488c-82f6-eca1ad732749"},"vehicle_type_id":"4","last_reported":1766074591,"current_range_meters":16400,"station_id":"ce4bh092rcd13ifvqd30","pricing_plan_id":"cebpf4jnsgd1na2vs0mg"},{"bike_id":"537d23bc-6e1d-43d2-8220-39480580a332","system_id":"levelo_inurba_marseille","lat":43.2378,"lon":5.36605,"is_reserved":false,"is_disabled":false,"rental_uris":{"android":"levelo://app?vid=537d23bc-6e1d-43d2-8220-39480580a332","ios":"levelo://app?vid=537d23bc-6e1d-43d2-8220-39480580a332"},"vehicle_type_id":"4","last_reported":1766074591,"current_range_meters":16400,"station_id":"st_d3nk18o9ro0c73en2l3g","pricing_plan_id":"cebpf4jnsgd1na2vs0mg"},{"bike_id":"34432b8d-ee07-4e27-948a-d025d4af86ca","system_id":"levelo_inurba_marseille","lat":43.295151,"lon":5.393983,"is_reserved":false,"is_disabled":false,"rental_uris":{"android":"levelo://app?vid=34432b8d-ee07-4e27-948a-d025d4af86ca","ios":"levelo://app?vid=34432b8d-ee07-4e27-948a-d025d4af86ca"},"vehicle_type_id":"4","last_reported":1766074591,"current_range_meters":16800,"station_id":"ce4bh292rcd13ifvqdf0","pricing_plan_id":"cebpf4jnsgd1na2vs0mg"},{"bike_id":"cbe41c64-2a7e-4d16-8d39-ce8c9a88f16b","system_id":"levelo_inurba_marseille","lat":43.259288,"lon":5.409224,"is_reserved":false,"is_disabled":false,"rental_uris":{"android":"levelo://app?vid=cbe41c64-2a7e-4d16-8d39-ce8c9a88f16b","ios":"levelo://app?vid=cbe41c64-2a7e-4d16-8d39-ce8c9a88f16b"},"vehicle_type_id":"4","last_reported":1766074591,"current_range_meters":16800,"station_id":"ce4bhm92rcd13ifvqglg","pricing_plan_id":"cebpf4jnsgd1na2vs0mg"},{"bike_id":"af783cbc-685b-4b56-93fa-6a6d328c307a","system_id":"levelo_inurba_marseille","lat":43.24998,"lon":5.38937,"is_reserved":false,"is_disabled":false,"rental_uris":{"android":"levelo://app?vid=af783cbc-685b-4b56-93fa-6a6d328c307a","ios":"levelo://app?vid=af783cbc-685b-4b56-93fa-6a6d328c307a"},"vehicle_type_id":"4","last_reported":1766074591,"current_range_meters":16800,"station_id":"ce4bhgp2rcd13ifvqfd0","pricing_plan_id":"cebpf4jnsgd1na2vs0mg"},{"bike_id":"128f68df-e6c8-471d-bf6e-3a9c347712de","system_id":"levelo_inurba_marseille","lat":43.29234,"lon":5.40898,"is_reserved":false,"is_disabled":false,"rental_uris":{"android":"levelo://app?vid=128f68df-e6c8-471d-bf6e-3a9c347712de","ios":"levelo://app?vid=128f68df-e6c8-471d-bf6e-3a9c347712de"},"vehicle_type_id":"4","last_reported":1766074591,"current_range_meters":16800,"station_id":"ce4bh192rcd13ifvqdc0","pricing_plan_id":"cebpf4jnsgd1na2vs0mg"},{"bike_id":"76fb7a73-a5f9-4340-855e-fcbbe13e759a","system_id":"levelo_inurba_marseille","lat":43.31862,"lon":5.39996,"is_reserved":false,"is_disabled":false,"rental_uris":{"android":"levelo://app?vid=76fb7a73-a5f9-4340-855e-fcbbe13e759a","ios":"levelo://app?vid=76fb7a73-a5f9-4340-855e-fcbbe13e759a"},"vehicle_type_id":"4","last_reported":1766074591,"current_range_meters":16800,"station_id":"","pricing_plan_id":"cebpf4jnsgd1na2vs0mg"},{"bike_id":"86f91bbe-7527-4a2b-84bf-0df069e35ec7","system_id":"levelo_inurba_marseille","lat":43.274062,"lon":5.390232,"is_reserved":false,"is_disabled":false,"rental_uris":{"android":"levelo://app?vid=86f91bbe-7527-4a2b-84bf-0df069e35ec7","ios":"levelo://app?vid=86f91bbe-7527-4a2b-84bf-0df069e35ec7"},"vehicle_type_id":"4","last_reported":1766074591,"current_range_meters":16800,"station_id":"","pricing_plan_id":"cebpf4jnsgd1na2vs0mg"},{"bike_id":"1c79eb29-135e-40c1-8651-901759d4aaa6","system_id":"levelo_inurba_marseille","lat":43.28579,"lon":5.35305,"is_reserved":false,"is_disabled":false,"rental_uris":{"android":"levelo://app?vid=1c79eb29-135e-40c1-8651-901759d4aaa6","ios":"levelo://app?vid=1c79eb29-135e-40c1-8651-901759d4aaa6"},"vehicle_type_id":"4","last_reported":1766074591,"current_range_meters":16800,"station_id":"","pricing_plan_id":"cebpf4jnsgd1na2vs0mg"},{"bike_id":"3ff50b8b-db30-4d22-9ce0-54825b03ea85","system_id":"levelo_inurba_marseille","lat":43.32099,"lon":5.3677,"is_reserved":false,"is_disabled":false,"rental_uris":{"android":"levelo://app?vid=3ff50b8b-db30-4d22-9ce0-54825b03ea85","ios":"levelo://app?vid=3ff50b8b-db30-4d22-9ce0-54825b03ea85"},"vehicle_type_id":"4","last_reported":1766074591,"current_range_meters":16800,"station_id":"ce4bhrh2rcd13ifvqhug","pricing_plan_id":"cebpf4jnsgd1na2vs0mg"},{"bike_id":"dcebbb45-765e-44b9-9596-1f8fdae0f25e","system_id":"levelo_inurba_marseille","lat":43.24654,"lon":5.38887,"is_reserved":false,"is_disabled":false,"rental_uris":{"android":"levelo://app?vid=dcebbb45-765e-44b9-9596-1f8fdae0f25e","ios":"levelo://app?vid=dcebbb45-765e-44b9-9596-1f8fdae0f25e"},"vehicle_type_id":"4","last_reported":1766074591,"current_range_meters":16800,"station_id":"ce4bhg12rcd13ifvqf60","pricing_plan_id":"cebpf4jnsgd1na2vs0mg"},{"bike_id":"d6bc7465-ed58-4731-8353-a1bf1c3037e6","system_id":"levelo_inurba_marseille","lat":43.26569,"lon":5.40319,"is_reserved":false,"is_disabled":false,"rental_uris":{"android":"levelo://app?vid=d6bc7465-ed58-4731-8353-a1bf1c3037e6","ios":"levelo://app?vid=d6bc7465-ed58-4731-8353-a1bf1c3037e6"},"vehicle_type_id":"4","last_reported":1766074591,"current_range_meters":16800,"station_id":"ce4bhmp2rcd13ifvqgng","pricing_plan_id":"cebpf4jnsgd1na2vs0mg"},{"bike_id":"ec6401bf-06e9-4881-946b-649f2b1df2d1","system_id":"levelo_inurba_marseille","lat":43.25335,"lon":5.42171,"is_reserved":false,"is_disabled":false,"rental_uris":{"android":"levelo://app?vid=ec6401bf-06e9-4881-946b-649f2b1df2d1","ios":"levelo://app?vid=ec6401bf-06e9-4881-946b-649f2b1df2d1"},