{"last_updated":1729422452,"ttl":60,"version":"2.2","data":{"bikes":[{"bike_id":"699f43bc-fa06-4f4f-b302-24a9789a5d98","system_id":"levelo_inurba_marseille","lat":43.26206,"lon":5.37924,"is_reserved":false,"is_disabled":false,"rental_uris":{"android":"levelo://app?vid=699f43bc-fa06-4f4f-b302-24a9789a5d98","ios":"levelo://app?vid=699f43bc-fa06-4f4f-b302-24a9789a5d98"},"vehicle_type_id":"4","last_reported":1729422452,"current_range_meters":29600,"station_id":"ce4bhjp2rcd13ifvqg90","pricing_plan_id":"cebpf4jnsgd1na2vs0mg"},{"bike_id":"f90eac33-55d6-46ff-8594-1fc654078095","system_id":"levelo_inurba_marseille","lat":43.22927,"lon":5.35375,"is_reserved":false,"is_disabled":false,"rental_uris":{"android":"levelo://app?vid=f90eac33-55d6-46ff-8594-1fc654078095","ios":"levelo://app?vid=f90eac33-55d6-46ff-8594-1fc654078095"},"vehicle_type_id":"4","last_reported":1729422452,"current_range_meters":2000,"station_id":"cpo3532slgdg3j2ikp40","pricing_plan_id":"cebpf4jnsgd1na2vs0mg"},{"bike_id":"0622402e-9cd4-4a93-b94f-2534c959aa52","system_id":"levelo_inurba_marseille","lat":43.30816,"lon":5.38144,"is_reserved":false,"is_disabled":false,"rental_uris":{"android":"levelo://app?vid=0622402e-9cd4-4a93-b94f-2534c959aa52","ios":"levelo://app?vid=0622402e-9cd4-4a93-b94f-2534c959aa52"},"vehicle_type_id":"4","last_reported":1729422452,"current_range_meters":37600,"station_id":"ce4bgt12rcd13ifvqce0","pricing_plan_id":"cebpf4jnsgd1na2vs0mg"},{"bike_id":"fe93bfb2-7aeb-4c17-8248-6549ba71e9ff","system_id":"levelo_inurba_marseille","lat":43.2828,"lon":5.35071,"is_reserved":false,"is_disabled":false,"rental_uris":{"android":"levelo://app?vid=fe93bfb2-7aeb-4c17-8248-6549ba71e9ff","ios":"levelo://app?vid=fe93bfb2-7aeb-4c17-8248-6549ba71e9ff"},"vehicle_type_id":"4","last_reported":1729422452,"current_range_meters":38400,"station_id":"ce4bhbp2rcd13ifvqerg","pricing_plan_id":"cebpf4jnsgd1na2vs0mg"},{"bike_id":"079f0eb0-2f43-406f-bfbc-68285c577f87","system_id":"levelo_inurba_marseille","lat":43.2815,"lon":5.42639,"is_reserved":false,"is_disabled":false,"rental_uris":{"android":"levelo://app?vid=079f0eb0-2f43-406f-bfbc-68285c577f87","ios":"levelo://app?vid=079f0eb0-2f43-406f-bfbc-68285c577f87"},"vehicle_type_id":"4","last_reported":1729422452,"current_range_meters":7200,"station_id":"ce4bhnh2rcd13ifvqgug","pricing_plan_id":"cebpf4jnsgd1na2vs0mg"},{"bike_id":"814a8b4c-43f0-4f31-87f7-0f70c081bccd","system_id":"levelo_inurba_marseille","lat":43.24811,"lon":5.37459,"is_reserved":false,"is_disabled":false,"rental_uris":{"android":"levelo://app?vid=814a8b4c-43f0-4f31-87f7-0f70c081bccd","ios":"levelo://app?vid=814a8b4c-43f0-4f31-87f7-0f70c081bccd"},"vehicle_type_id":"4","last_reported":1729422452,"current_range_meters":37600,"station_id":"ce4bhgh2rcd13ifvqfb0","pricing_plan_id":"cebpf4jnsgd1na2vs0mg"},{"bike_id":"bdb57986-33ec-401d-a2b8-aa5828a24570","system_id":"levelo_inurba_marseille","lat":43.23152,"lon":5.43712,"is_reserved":false,"is_disabled":false,"rental_uris":{"android":"levelo://app?vid=bdb57986-33ec-401d-a2b8-aa5828a24570","ios":"levelo://app?vid=bdb57986-33ec-401d-a2b8-aa5828a24570"},"vehicle_type_id":"4","last_reported":1729422452,"current_range_meters":37600,"station_id":"ce4bhmp2rcd13ifvqgog","pricing_plan_id":"cebpf4jnsgd1na2vs0mg"},{"bike_id":"d38cc3f6-a7bf-4256-8001-f9f7f3e311fe","system_id":"levelo_inurba_marseille","lat":43.3211,"lon":5.36766,"is_reserved":false,"is_disabled":false,"rental_uris":{"android":"levelo://app?vid=d38cc3f6-a7bf-4256-8001-f9f7f3e311fe","ios":"levelo://app?vid=d38cc3f6-a7bf-4256-8001-f9f7f3e311fe"},"vehicle_type_id":"4","last_reported":1729422452,"current_range_meters":9600,"station_id":"ce4bhrh2rcd13ifvqhug","pricing_plan_id":"cebpf4jnsgd1na2vs0mg"},{"bike_id":"e0879c3f-10eb-4d3b-8053-605cb1c6310c","system_id":"levelo_inurba_marseille","lat":43.26064,"lon":5.39392,"is_reserved":false,"is_disabled":false,"rental_uris":{"android":"levelo://app?vid=e0879c3f-10eb-4d3b-8053-605cb1c6310c","ios":"levelo://app?vid=e0879c3f-10eb-4d3b-8053-605cb1c6310c"},"vehicle_type_id":"4","last_reported":1729422452,"current_range_meters":20800,"station_id":"ce4bhh92rcd13ifvqfj0","pricing_plan_id":"cebpf4jnsgd1na2vs0mg"},{"bike_id":"3c0396ed-cb8c-4884-b917-29dda17c7e73","system_id":"levelo_inurba_marseille","lat":43.29853,"lon":5.36285,"is_reserved":false,"is_disabled":false,"rental_uris":{"android":"levelo://app?vid=3c0396ed-cb8c-4884-b917-29dda17c7e73","ios":"levelo://app?vid=3c0396ed-cb8c-4884-b917-29dda17c7e73"},"vehicle_type_id":"4","last_reported":1729422452,"current_range_meters":24400,"station_id":"ce4bgpp2rcd13ifvqc3g","pricing_plan_id":"cebpf4jnsgd1na2vs0mg"},{"bike_id":"d00d0e51-4af5-4adb-a6a4-f48659d438a2","system_id":"levelo_inurba_marseille","lat":43.26944,"lon":5.40246,"is_reserved":false,"is_disabled":false,"rental_uris":{"android":"levelo://app?vid=d00d0e51-4af5-4adb-a6a4-f48659d438a2","ios":"levelo://app?vid=d00d0e51-4af5-4adb-a6a4-f48659d438a2"},"vehicle_type_id":"4","last_reported":1729422452,"current_range_meters":19200,"station_id":"cjm6bp8fraef2m0cb0m0","pricing_plan_id":"cebpf4jnsgd1na2vs0mg"},{"bike_id":"481d201b-0f9b-4ded-8406-5042d6b7a84b","system_id":"levelo_inurba_marseille","lat":43.23966,"lon":5.36612,"is_reserved":false,"is_disabled":false,"rental_uris":{"android":"levelo://app?vid=481d201b-0f9b-4ded-8406-5042d6b7a84b","ios":"levelo://app?vid=481d201b-0f9b-4ded-8406-5042d6b7a84b"},"vehicle_type_id":"4","last_reported":1729422452,"current_range_meters":29600,"station_id":"ce4bhi12rcd13ifvqfp0","pricing_plan_id":"cebpf4jnsgd1na2vs0mg"},{"bike_id":"3c542d24-c53e-4899-8c72-748e72210bc5","system_id":"levelo_inurba_marseille","lat":43.22926,"lon":5.35375,"is_reserved":false,"is_disabled":false,"rental_uris":{"android":"levelo://app?vid=3c542d24-c53e-4899-8c72-748e72210bc5","ios":"levelo://app?vid=3c542d24-c53e-4899-8c72-748e72210bc5"},"vehicle_type_id":"4","last_reported":1729422452,"current_range_meters":38000,"station_id":"cpo3532slgdg3j2ikp40","pricing_plan_id":"cebpf4jnsgd1na2vs0mg"},{"bike_id":"6967c4c2-f057-49d9-80b0-41170e417f9c","system_id":"levelo_inurba_marseille","lat":43.24072,"lon":5.37756,"is_reserved":false,"is_disabled":false,"rental_uris":{"android":"levelo://app?vid=6967c4c2-f057-49d9-80b0-41170e417f9c","ios":"levelo://app?vid=6967c4c2-f057-49d9-80b0-41170e417f9c"},"vehicle_type_id":"4","last_reported":1729422452,"current_range_meters":36800,"station_id":"ce4bhnp2rcd13ifvqgvg","pricing_plan_id":"cebpf4jnsgd1na2vs0mg"},{"bike_id":"8a73e7ba-a0f3-44c6-966e-e18fb2e0d01f","system_id":"levelo_inurba_marseille","lat":43.24169,"lon":5.36398,"is_reserved":false,"is_disabled":false,"rental_uris":{"android":"levelo://app?vid=8a73e7ba-a0f3-44c6-966e-e18fb2e0d01f","ios":"levelo://app?vid=8a73e7ba-a0f3-44c6-966e-e18fb2e0d01f"},"vehicle_type_id":"4","last_reported":1729422452,"current_range_meters":24400,"station_id":"cpo36qri1sfpv3e86is0","pricing_plan_id":"cebpf4jnsgd1na2vs0mg"},{"bike_id":"dfa34bab-96b7-4f7c-89c2-301229ba8900","system_id":"levelo_inurba_marseille","lat":43.28281,"lon":5.35075,"is_reserved":false,"is_disabled":false,"rental_uris":{"android":"levelo://app?vid=dfa34bab-96b7-4f7c-89c2-301229ba8900","ios":"levelo://app?vid=dfa34bab-96b7-4f7c-89c2-301229ba8900"},"vehicle_type_id":"4","last_reported":1729422452,"current_range_meters":20800,"station_id":"ce4bhbp2rcd13ifvqerg","pricing_plan_id":"cebpf4jnsgd1na2vs0mg"},{"bike_id":"09a714ea-95ba-4025-b82d-7b9e8de8754b","system_id":"levelo_inurba_marseille","lat":43.27618,"lon":5.36107,"is_reserved":false,"is_disabled":false,"rental_uris":{"android":"levelo://app?vid=09a714ea-95ba-4025-b82d-7b9e8de8754b","ios":"levelo://app?vid=09a714ea-95ba-4025-b82d-7b9e8de8754b"},"vehicle_type_id":"4","last_reported":1729422452,"current_range_meters":18000,"station_id":"ce4bgj92rcd13ifvqbe0","pricing_plan_id":"cebpf4jnsgd1na2vs0mg"},{"bike_id":"ed52999a-36ad-4796-8710-b6347f266731","system_id":"levelo_inurba_marseille","lat":43.285004,"lon":5.359947,"is_reserved":false,"is_disabled":false,"rental_uris":{"android":"levelo://app?vid=ed52999a-36ad-4796-8710-b6347f266731","ios":"levelo://app?vid=ed52999a-36ad-4796-8710-b6347f266731"},"vehicle_type_id":"4","last_reported":1729422452,"current_range_meters":20000,"station_id":"ce4bha12rcd13ifvqef0","pricing_plan_id":"cebpf4jnsgd1na2vs0mg"},{"bike_id":"30d9e376-bc9b-4b77-b9d3-22d2e2c9712d","system_id":"levelo_inurba_marseille","lat":43.34144,"lon":5.409,"is_reserved":false,"is_disabled":false,"rental_uris":{"android":"levelo://app?vid=30d9e376-bc9b-4b77-b9d3-22d2e2c9712d","ios":"levelo://app?vid=30d9e376-bc9b-4b77-b9d3-22d2e2c9712d"},"vehicle_type_id":"4","last_reported":1729422452,"current_range_meters":27200,"station_id":"ce4bhqh2rcd13ifvqhlg","pricing_plan_id":"cebpf4jnsgd1na2vs0mg"},{"bike_id":"f8160609-ce6f-47e2-ac51-c820fcbc050e","system_id":"levelo_inurba_marseille","lat":43.28422,"lon":5.40041,"is_reserved":false,"is_disabled":false,"rental_uris":{"android":"levelo://app?vid=f8160609-ce6f-47e2-ac51-c820fcbc050e","ios":"levelo://app?vid=f8160609-ce6f-47e2-ac51-c820fcbc050e"},"vehicle_type_id":"4","last_reported":1729422452,"current_range_meters":17600,"station_id":"ce4bhl12rcd13ifvqgf0","pricing_plan_id":"cebpf4jnsgd1na2vs0mg"},{"bike_id":"474ccd54-d884-4c48-ac27-1f7190ae4438","system_id":"levelo_inurba_marseille","lat":43.33721,"lon":5.39191,"is_reserved":false,"is_disabled":false,"rental_uris":{"android":"levelo://app?vid=474ccd54-d884-4c48-ac27-1f7190ae4438","ios":"levelo://app?vid=474ccd54-d884-4c48-ac27-1f7190ae4438"},"vehicle_type_id":"4","last_reported":1729422452,"current_range_meters":8000,"station_id":"ce4bhr92rcd13ifvqhsg","pricing_plan_id":"cebpf4jnsgd1na2vs0mg"},{"bike_id":"ca3a98fb-1eae-48f5-aca4-b718a35664a0","system_id":"levelo_inurba_marseille","lat":43.32352,"lon":5.40609,"is_reserved":false,"is_disabled":false,"rental_uris":{"android":"levelo://app?vid=ca3a98fb-1eae-48f5-aca4-b718a35664a0","ios":"levelo://app?vid=ca3a98fb-1eae-48f5-aca4-b718a35664a0"},"vehicle_type_id":"4","last_reported":1729422452,"current_range_meters":38800,"station_id":"ce4bhq92rcd13ifvqhjg","pricing_plan_id":"cebpf4jnsgd1na2vs0mg"},{"bike_id":"f75bac43-de1c-46ee-b029-720a38aa18a4","system_id":"levelo_inurba_marseille","lat":43.28617,"lon":5.35101,"is_reserved":false,"is_disabled":false,"rental_uris":{"android":"levelo://app?vid=f75bac43-de1c-46ee-b029-720a38aa18a4","ios":"levelo://app?vid=f75bac43-de1c-46ee-b029-720a38aa18a4"},"vehicle_type_id":"4","last_reported":1729422452,"current_range_meters":37600,"station_id":"ce4bhch2rcd13ifvqeug","pricing_plan_id":"cebpf4jnsgd1na2vs0mg"},{"bike_id":"ebbce702-41f2-4a1d-a297-84c293dccfeb","system_id":"levelo_inurba_marseille","lat":43.29026,"lon":5.36623,"is_reserved":false,"is_disabled":false,"rental_uris":{"android":"levelo://app?vid=ebbce702-41f2-4a1d-a297-84c293dccfeb","ios":"levelo://app?vid=ebbce702-41f2-4a1d-a297-84c293dccfeb"},"vehicle_type_id":"4","last_reported":1729422452,"current_range_meters":20800,"station_id":"","pricing_plan_id":"cebpf4jnsgd1na2vs0mg"},{"bike_id":"235a0071-2e2d-45bb-b5ad-bbf1038824d0","system_id":"levelo_inurba_marseille","lat":43.28417,"lon":5.37512,"is_reserved":false,"is_disabled":false,"rental_uris":{"android":"levelo://app?vid=235a0071-2e2d-45bb-b5ad-bbf1038824d0","ios":"levelo://app?vid=235a0071-2e2d-45bb-b5ad-bbf1038824d0"},"vehicle_type_id":"4","last_reported":1729422452,"current_range_meters":38000,"station_id":"ce4bh412rcd13ifvqds0","pricing_plan_id":"cebpf4jnsgd1na2vs0mg"},{"bike_id":"35c2578b-bac3-4bb1-862e-498bf890c453","system_id":"levelo_inurba_marseille","lat":43.24666,"lon":5.3817,"is_reserved":false,"is_disabled":false,"rental_uris":{"android":"levelo://app?vid=35c2578b-bac3-4bb1-862e-498bf890c453","ios":"levelo://app?vid=35c2578b-bac3-4bb1-862e-498bf890c453"},"vehicle_type_id":"4","last_reported":1729422452,"current_range_meters":36000,"station_id":"ce4bhih2rcd13ifvqfr0","pricing_plan_id":"cebpf4jnsgd1na2vs0mg"},{"bike_id":"d11dc0a4-4668-473d-8fee-d668598e5969","system_id":"levelo_inurba_marseille","lat":43.29606,"lon":5.37713,"is_reserved":false,"is_disabled":false,"rental_uris":{"android":"levelo://app?vid=d11dc0a4-4668-473d-8fee-d668598e5969","ios":"levelo://app?vid=d11dc0a4-4668-473d-8fee-d668598e5969"},"vehicle_type_id":"4","last_reported":1729422452,"current_range_meters":30400,"station_id":"ce4bgi92rcd13ifvqb90","pricing_plan_id":"cebpf4jnsgd1na2vs0mg"},{"bike_id":"9d912eba-02a5-41c2-8d48-c02ba9a29689","system_id":"levelo_inurba_marseille","lat":43.27494,"lon":5.42459,"is_reserved":false,"is_disabled":false,"rental_uris":{"android":"levelo://app?vid=9d912eba-02a5-41c2-8d48-c02ba9a29689","ios":"levelo://app?vid=9d912eba-02a5-41c2-8d48-c02ba9a29689"},"vehicle_type_id":"4","last_reported":1729422452,"current_range_meters":36400,"station_id":"ce4bhn92rcd13ifvqgrg","pricing_plan_id":"cebpf4jnsgd1na2vs0mg"},{"bike_id":"98f7b4ed-0d9f-453b-9176-41ebd99c3142","system_id":"levelo_inurba_marseille","lat":43.33609,"lon":5.41021,"is_reserved":false,"is_disabled":false,"rental_uris":{"android":"levelo://app?vid=98f7b4ed-0d9f-453b-9176-41ebd99c3142","ios":"levelo://app?vid=98f7b4ed-0d9f-453b-9176-41ebd99c3142"},"vehicle_type_id":"4","last_reported":1729422452,"current_range_meters":37600,"station_id":"ce4bhqh2rcd13ifvqhmg","pricing_plan_id":"cebpf4jnsgd1na2vs0mg"},{"bike_id":"d85aed35-4005-4c2e-863d-273016e09085","system_id":"levelo_inurba_marseille","lat":43.24394,"lon":5.37059,"is_reserved":false,"is_disabled":false,"rental_uris":{"android":"levelo://app?vid=d85aed35-4005-4c2e-863d-273016e09085","ios":"levelo://app?vid=d85aed35-4005-4c2e-863d-273016e09085"},"vehicle_type_id":"4","last_reported":1729422452,"current_range_meters":30000,"station_id":"ce4bhhh2rcd13ifvqfk0","pricing_plan_id":"cebpf4jnsgd1na2vs0mg"},{"bike_id":"20baedcd-1992-43bc-8ade-f074bdf96c6d","system_id":"levelo_inurba_marseille","lat":43.29624,"lon":5.37167,"is_reserved":false,"is_disabled":false,"rental_uris":{"android":"levelo://app?vid=20baedcd-1992-43bc-8ade-f074bdf96c6d","ios":"levelo://app?vid=20baedcd-1992-43bc-8ade-f074bdf96c6d"},"vehicle_type_id":"4","last_reported":1729422452,"current_range_meters":24400,"station_id":"ce4bgnh2rcd13ifvqc0g","pricing_plan_id":"cebpf4jnsgd1na2vs0mg"},{"bike_id":"e61f0c58-103d-468c-987a-98a289f8383c","system_id":"levelo_inurba_marseille","lat":43.22931,"lon":5.35371,"is_reserved":false,"is_disabled":false,"rental_uris":{"android":"levelo://app?vid=e61f0c58-103d-468c-987a-98a289f8383c","ios":"levelo://app?vid=e61f0c58-103d-468c-987a-98a289f8383c"},"vehicle_type_id":"4","last_reported":1729422452,"current_range_meters":13600,"station_id":"cpo3532slgdg3j2ikp40","pricing_plan_id":"cebpf4jnsgd1na2vs0mg"},{"bike_id":"9fa7c963-2f9d-4588-8236-ff860a4358c6","system_id":"levelo_inurba_marseille","lat":43.27382,"lon":5.36256,"is_reserved":false,"is_disabled":false,"rental_uris":{"android":"levelo://app?vid=9fa7c963-2f9d-4588-8236-ff860a4358c6","ios":"levelo://app?vid=9fa7c963-2f9d-4588-8236-ff860a4358c6"},"vehicle_type_id":"4","last_reported":1729422452,"current_range_meters":37600,"station_id":"ce4bhbh2rcd13ifvqeo0","pricing_plan_id":"cebpf4jnsgd1na2vs0mg"},{"bike_id":"68ecf5b1-3e27-4073-bcfd-9b4d888b6f5c","system_id":"levelo_inurba_marseille","lat":43.32112,"lon":5.36777,"is_reserved":false,"is_disabled":false,"rental_uris":{"android":"levelo://app?vid=68ecf5b1-3e27-4073-bcfd-9b4d888b6f5c","ios":"levelo://app?vid=68ecf5b1-3e27-4073-bcfd-9b4d888b6f5c"},"vehicle_type_id":"4","last_reported":1729422452,"current_range_meters":36800,"station_id":"ce4bhrh2rcd13ifvqhug","pricing_plan_id":"cebpf4jnsgd1na2vs0mg"},{"bike_id":"e464668a-2132-4174-8c12-a84b9b2e8283","system_id":"levelo_inurba_marseille","lat":43.28417,"lon":5.34991,"is_reserved":false,"is_disabled":false,"rental_uris":{"android":"levelo://app?vid=e464668a-2132-4174-8c12-a84b9b2e8283","ios":"levelo://app?vid=e464668a-2132-4174-8c12-a84b9b2e8283"},"vehicle_type_id":"4","last_reported":1729422452,"current_range_meters":38800,"station_id":"ce4bhbh2rcd13ifvqepg","pricing_plan_id":"cebpf4jnsgd1na2vs0mg"},{"bike_id":"6c4fed87-6be3-4d97-9301-4412accaca73","system_id":"levelo_inurba_marseille","lat":43.23965,"lon":5.36636,"is_reserved":false,"is_disabled":false,"rental_uris":{"android":"levelo://app?vid=6c4fed87-6be3-4d97-9301-4412accaca73","ios":"levelo://app?vid=6c4fed87-6be3-4d97-9301-4412accaca73"},"vehicle_type_id":"4","last_reported":1729422452,"current_range_meters":33600,"station_id":"ce4bhi12rcd13ifvqfp0","pricing_plan_id":"cebpf4jnsgd1na2vs0mg"},{"bike_id":"32c65db3-a0c8-4aca-bd02-3287e5e668b1","system_id":"levelo_inurba_marseille","lat":43.26209,"lon":5.37929,"is_reserved":false,"is_disabled":false,"rental_uris":{"android":"levelo://app?vid=32c65db3-a0c8-4aca-bd02-3287e5e668b1","ios":"levelo://app?vid=32c65db3-a0c8-4aca-bd02-3287e5e668b1"},"vehicle_type_id":"4","last_reported":1729422452,"current_range_meters":39200,"station_id":"ce4bhjp2rcd13ifvqg90","pricing_plan_id":"cebpf4jnsgd1na2vs0mg"},{"bike_id":"ab25e50e-031e-49b2-92c3-bc31c1e4e638","system_id":"levelo_inurba_marseille","lat":43.27982,"lon":5.41671,"is_reserved":false,"is_disabled":false,"rental_uris":{"android":"levelo://app?vid=ab25e50e-031e-49b2-92c3-bc31c1e4e638","ios":"levelo://app?vid=ab25e50e-031e-49b2-92c3-bc31c1e4e638"},"vehicle_type_id":"4","last_reported":1729422452,"current_range_meters":8800,"station_id":"ce4bho12rcd13ifvqh1g","pricing_plan_id":"cebpf4jnsgd1na2vs0mg"},{"bike_id":"57dd0012-e7c2-43e3-90a1-087125ac63fa","system_id":"levelo_inurba_marseille","lat":43.33753,"lon":5.37454,"is_reserved":false,"is_disabled":false,"rental_uris":{"android":"levelo://app?vid=57dd0012-e7c2-43e3-90a1-087125ac63fa","ios":"levelo://app?vid=57dd0012-e7c2-43e3-90a1-087125ac63fa"},"vehicle_type_id":"4","last_reported":1729422452,"current_range_meters":35600,"station_id":"","pricing_plan_id":"cebpf4jnsgd1na2vs0mg"},{"bike_id":"9e56cbaa-2bc5-486d-94bc-9a5a2cf1e347","system_id":"levelo_inurba_marseille","lat":43.2901,"lon":5.35614,"is_reserved":false,"is_disabled":false,"rental_uris":{"android":"levelo://app?vid=9e56cbaa-2bc5-486d-94bc-9a5a2cf1e347","ios":"levelo://app?vid=9e56cbaa-2bc5-486d-94bc-9a5a2cf1e347"},"vehicle_type_id":"4","last_reported":1729422452,"current_range_meters":23200,"station_id":"ce4bhb92rcd13ifvqen0","pricing_plan_id":"cebpf4jnsgd1na2vs0mg"},{"bike_id":"dbf5ea83-8818-4c92-b0db-0c9245fa4d6c","system_id":"levelo_inurba_marseille","lat":43.23152,"lon":5.43699,"is_reserved":false,"is_disabled":false,"rental_uris":{"android":"levelo://app?vid=dbf5ea83-8818-4c92-b0db-0c9245fa4d6c","ios":"levelo://app?vid=dbf5ea83-8818-4c92-b0db-0c9245fa4d6c"},"vehicle_type_id":"4","last_reported":1729422452,"current_range_meters":24800,"station_id":"ce4bhmp2rcd13ifvqgog","pricing_plan_id":"cebpf4jnsgd1na2vs0mg"},{"bike_id":"c338d18c-15a5-4b37-ac29-3edabf4c3b12","system_id":"levelo_inurba_marseille","lat":43.24813,"lon":5.37454,"is_reserved":false,"is_disabled":false,"rental_uris":{"android":"levelo://app?vid=c338d18c-15a5-4b37-ac29-3edabf4c3b12","ios":"levelo://app?vid=c338d18c-15a5-4b37-ac29-3edabf4c3b12"},"vehicle_type_id":"4","last_reported":1729422452,"current_range_meters":17600,"station_id":"ce4bhgh2rcd13ifvqfb0","pricing_plan_id":"cebpf4jnsgd1na2vs0mg"},{"bike_id":"308cc78b-7ede-41af-8473-9264aefaaa72","system_id":"levelo_inurba_marseille","lat":43.24806,"lon":5.37455,"is_reserved":false,"is_disabled":false,"rental_uris":{"android":"levelo://app?vid=308cc78b-7ede-41af-8473-9264aefaaa72","ios":"levelo://app?vid=308cc78b-7ede-41af-8473-9264aefaaa72"},"vehicle_type_id":"4","last_reported":1729422452,"current_range_meters":38800,"station_id":"ce4bhgh2rcd13ifvqfb0","pricing_plan_id":"cebpf4jnsgd1na2vs0mg"},{"bike_id":"dfa4fd45-7442-4e05-a44b-1a4daa42f429","system_id":"levelo_inurba_marseille","lat":43.30549,"lon":5.3653,"is_reserved":false,"is_disabled":false,"rental_uris":{"android":"levelo://app?vid=dfa4fd45-7442-4e05-a44b-1a4daa42f429","ios":"levelo://app?vid=dfa4fd45-7442-4e05-a44b-1a4daa42f429"},"vehicle_type_id":"4","last_reported":1729422452,"current_range_meters":19200,"station_id":"ce4bgs12rcd13ifvqcag","pricing_plan_id":"cebpf4jnsgd1na2vs0mg"},{"bike_id":"56089be0-332d-429c-85dd-3b8dbab7080a","system_id":"levelo_inurba_marseille","lat":43.31689,"lon":5.4047,"is_reserved":false,"is_disabled":false,"rental_uris":{"android":"levelo://app?vid=56089be0-332d-429c-85dd-3b8dbab7080a","ios":"levelo://app?vid=56089be0-332d-429c-85dd-3b8dbab7080a"},"vehicle_type_id":"4","last_reported":1729422452,"current_range_meters":5600,"station_id":"ce4bh012rcd13ifvqd00","pricing_plan_id":"cebpf4jnsgd1na2vs0mg"},{"bike_id":"5694eb7f-ac74-444e-8124-7b93c24b932f","system_id":"levelo_inurba_marseille","lat":43.28615,"lon":5.35101,"is_reserved":false,"is_disabled":false,"rental_uris":{"android":"levelo://app?vid=5694eb7f-ac74-444e-8124-7b93c24b932f","ios":"levelo://app?vid=5694eb7f-ac74-444e-8124-7b93c24b932f"},"vehicle_type_id":"4","last_reported":1729422452,"current_range_meters":16000,"station_id":"ce4bhch2rcd13ifvqeug","pricing_plan_id":"cebpf4jnsgd1na2vs0mg"},{"bike_id":"970ce056-93b7-4b51-889b-8fcf2f52c05f","system_id":"levelo_inurba_marseille","lat":43.24546,"lon":5.39519,"is_reserved":false,"is_disabled":false,"rental_uris":{"android":"levelo://app?vid=970ce056-93b7-4b51-889b-8fcf2f52c05f","ios":"levelo://app?vid=970ce056-93b7-4b51-889b-8fcf2f52c05f"},"vehicle_type_id":"4","last_reported":1729422452,"current_range_meters":8400,"station_id":"ce4bhlp2rcd13ifvqgjg","pricing_plan_id":"cebpf4jnsgd1na2vs0mg"},{"bike_id":"c2359229-823b-410c-ba1a-ced72b589bbf","system_id":"levelo_inurba_marseille","lat":43.27421,"lon":5.39411,"is_reserved":false,"is_disabled":false,"rental_uris":{"android":"levelo://app?vid=c2359229-823b-410c-ba1a-ced72b589bbf","ios":"levelo://app?vid=c2359229-823b-410c-ba1a-ced72b589bbf"},"vehicle_type_id":"4","last_reported":1729422452,"current_range_meters":38800,"station_id":"ce4bhdp2rcd13ifvqf20","pricing_plan_id":"cebpf4jnsgd1na2vs0mg"},{"bike_id":"ccfe3b3c-6495-4eaa-9764-c4646df21006","system_id":"levelo_inurba_marseille","lat":43.23152,"lon":5.43705,"is_reserved":false,"is_disabled":false,"rental_uris":{"android":"levelo://app?vid=ccfe3b3c-6495-4eaa-9764-c4646df21006","ios":"levelo://app?vid=ccfe3b3c-6495-4eaa-9764-c4646df21006"},"vehicle_type_id":"4","last_reported":1729422452,"current_range_meters":27600,"station_id":"ce4bhmp2rcd13ifvqgog","pricing_plan_id":"cebpf4jnsgd1na2vs0mg"},{"bike_id":"3f330c29-c7e3-4c1d-ac90-30d1aaec240b","system_id":"levelo_inurba_marseille","lat":43.24073,"lon":5.37749,"is_reserved":false,"is_disabled":false,"rental_uris":{"android":"levelo://app?vid=3f330c29-c7e3-4c1d-ac90-30d1aaec240b","ios":"levelo://app?vid=3f330c29-c7e3-4c1d-ac90-30d1aaec240b"},"vehicle_type_id":"4","last_reported":1729422452,"current_range_meters":38800,"station_id":"ce4bhnp2rcd13ifvqgvg","pricing_plan_id":"cebpf4jnsgd1na2vs0mg"},{"bike_id":"ca8e3d07-a1df-4d36-b0cf-77994fd38bda","system_id":"levelo_inurba_marseille","lat":43.28424,"lon":5.37507,"is_reserved":false,"is_disabled":false,"rental_uris":{"android":"levelo://app?vid=ca8e3d07-a1df-4d36-b0cf-77994fd38bda","ios":"levelo://app?vid=ca8e3d07-a1df-4d36-b0cf-77994fd38bda"},"vehicle_type_id":"4","last_reported":1729422452,"current_range_meters":34800,"station_id":"ce4bh412rcd13ifvqds0","pricing_plan_id":"cebpf4jnsgd1na2vs0mg"},{"bike_id":"196626cd-238d-4d33-b02f-5b68db337528","system_id":"levelo_inurba_marseille","lat":43.22929,"lon":5.35373,"is_reserved":false,"is_disabled":false,"rental_uris":{"android":"levelo://app?vid=196626cd-238d-4d33-b02f-5b68db337528","ios":"levelo://app?vid=196626cd-238d-4d33-b02f-5b68db337528"},"vehicle_type_id":"4","last_reported":1729422452,"current_range_meters":28800,"station_id":"cpo3532slgdg3j2ikp40","pricing_plan_id":"cebpf4jnsgd1na2vs0mg"},{"bike_id":"343aa4d1-f953-489c-ab86-dc9d91d2a18b","system_id":"levelo_inurba_marseille","lat":43.303856,"lon":5.370019,"is_reserved":false,"is_disabled":false,"rental_uris":{"android":"levelo://app?vid=343aa4d1-f953-489c-ab86-dc9d91d2a18b","ios":"levelo://app?vid=343aa4d1-f953-489c-ab86-dc9d91d2a18b"},"vehicle_type_id":"4","last_reported":1729422452,"current_range_meters":24400,"station_id":"ce4bgnh2rcd13ifvqc0g","pricing_plan_id":"cebpf4jnsgd1na2vs0mg"},{"bike_id":"3fc3344c-8b02-4a3d-b256-2e7a5003b4bf","system_id":"levelo_inurba_marseille","lat":43.23976,"lon":5.36618,"is_reserved":false,"is_disabled":false,"rental_uris":{"android":"levelo://app?vid=3fc3344c-8b02-4a3d-b256-2e7a5003b4bf","ios":"levelo://app?vid=3fc3344c-8b02-4a3d-b256-2e7a5003b4bf"},"vehicle_type_id":"4","last_reported":1729422452,"current_range_meters":12000,"station_id":"ce4bhi12rcd13ifvqfp0","pricing_plan_id":"cebpf4jnsgd1na2vs0mg"},{"bike_id":"292d6b97-abc7-412a-a4f0-bb8a74b2efa3","system_id":"levelo_inurba_marseille","lat":43.30279,"lon":5.3773,"is_reserved":false,"is_disabled":false,"rental_uris":{"android":"levelo://app?vid=292d6b97-abc7-412a-a4f0-bb8a74b2efa3","ios":"levelo://app?vid=292d6b97-abc7-412a-a4f0-bb8a74b2efa3"},"vehicle_type_id":"4","last_reported":1729422452,"current_range_meters":22400,"station_id":"ce4bguh2rcd13ifvqcj0","pricing_plan_id":"cebpf4jnsgd1na2vs0mg"},{"bike_id":"13e3c0d3-e4e7-4070-9e71-9451579307d0","system_id":"levelo_inurba_marseille","lat":43.28465,"lon":5.35888,"is_reserved":false,"is_disabled":false,"rental_uris":{"android":"levelo://app?vid=13e3c0d3-e4e7-4070-9e71-9451579307d0","ios":"levelo://app?vid=13e3c0d3-e4e7-4070-9e71-9451579307d0"},"vehicle_type_id":"4","last_reported":1729422452,"current_range_meters":33600,"station_id":"ce4bhah2rcd13ifvqei0","pricing_plan_id":"cebpf4jnsgd1na2vs0mg"},{"bike_id":"422bcb6e-4d41-459d-81fd-bf9fba3e7f87","system_id":"levelo_inurba_marseille","lat":43.2293,"lon":5.35372,"is_reserved":false,"is_disabled":false,"rental_uris":{"android":"levelo://app?vid=422bcb6e-4d41-459d-81fd-bf9fba3e7f87","ios":"levelo://app?vid=422bcb6e-4d41-459d-81fd-bf9fba3e7f87"},"vehicle_type_id":"4","last_reported":1729422452,"current_range_meters":2000,"station_id":"cpo3532slgdg3j2ikp40","pricing_plan_id":"cebpf4jnsgd1na2vs0mg"},{"bike_id":"d80f7bf0-5791-4f19-9371-6f9d09508528","system_id":"levelo_inurba_marseille","lat":43.28041,"lon":5.3694,"is_reserved":false,"is_disabled":false,"rental_uris":{"android":"levelo://app?vid=d80f7bf0-5791-4f19-9371-6f9d09508528","ios":"levelo://app?vid=d80f7bf0-5791-4f19-9371-6f9d09508528"},"vehicle_type_id":"4","last_reported":1729422452,"current_range_meters":38800,"station_id":"ce4bha12rcd13ifvqef0","pricing_plan_id":"cebpf4jnsgd1na2vs0mg"},{"bike_id":"9032d96b-507c-452d-97c0-38b7559bf1f5","system_id":"levelo_inurba_marseille","lat":43.27373,"lon":5.36257,"is_reserved":false,"is_disabled":false,"rental_uris":{"android":"levelo://app?vid=9032d96b-507c-452d-97c0-38b7559bf1f5","ios":"levelo://app?vid=9032d96b-507c-452d-97c0-38b7559bf1f5"},"vehicle_type_id":"4","last_reported":1729422452,"current_range_meters":32800,"station_id":"ce4bhbh2rcd13ifvqeo0","pricing_plan_id":"cebpf4jnsgd1na2vs0mg"},{"bike_id":"e3b6f8d6-715d-433b-8ab0-718ff6b21ad1","system_id":"levelo_inurba_marseille","lat":43.27067,"lon":5.42272,"is_reserved":false,"is_disabled":false,"rental_uris":{"android":"levelo://app?vid=e3b6f8d6-715d-433b-8ab0-718ff6b21ad1","ios":"levelo://app?vid=e3b6f8d6-715d-433b-8ab0-718ff6b21ad1"},"vehicle_type_id":"4","last_reported":1729422452,"current_range_meters":8000,"station_id":"ce4bhk92rcd13ifvqgb0","pricing_plan_id":"cebpf4jnsgd1na2vs0mg"},{"bike_id":"fca55886-769e-4104-8bc2-0030b8dbff79","system_id":"levelo_inurba_marseille","lat":43.240834,"lon":5.37735,"is_reserved":false,"is_disabled":false,"rental_uris":{"android":"levelo://app?vid=fca55886-769e-4104-8bc2-0030b8dbff79","ios":"levelo://app?vid=fca55886-769e-4104-8bc2-0030b8dbff79"},"vehicle_type_id":"4","last_reported":1729422452,"current_range_meters":38000,"station_id":"ce4bhnp2rcd13ifvqgvg","pricing_plan_id":"cebpf4jnsgd1na2vs0mg"},{"bike_id":"c1a10003-2496-456b-9c14-55fceeb3724a","system_id":"levelo_inurba_marseille","lat":43.32485,"lon":5.36564,"is_reserved":false,"is_disabled":false,"rental_uris":{"android":"levelo://app?vid=c1a10003-2496-456b-9c14-55fceeb3724a","ios":"levelo://app?vid=c1a10003-2496-456b-9c14-55fceeb3724a"},"vehicle_type_id":"4","last_reported":1729422452,"current_range_meters":39200,"station_id":"ce4bhs12rcd13ifvqhvg","pricing_plan_id":"cebpf4jnsgd1na2vs0mg"},{"bike_id":"35e7f867-368c-476c-a860-684a9be05389","system_id":"levelo_inurba_marseille","lat":43.26564,"lon":5.39004,"is_reserved":false,"is_disabled":false,"rental_uris":{"android":"levelo://app?vid=35e7f867-368c-476c-a860-684a9be05389","ios":"levelo://app?vid=35e7f867-368c-476c-a860-684a9be05389"},"vehicle_type_id":"4","last_reported":1729422452,"current_range_meters":35600,"station_id":"ce4bhe12rcd13ifvqf30","pricing_plan_id":"cebpf4jnsgd1na2vs0mg"},{"bike_id":"53bb4ef9-3a43-4d01-8315-9572281ed704","system_id":"levelo_inurba_marseille","lat":43.28428,"lon":5.37504,"is_reserved":false,"is_disabled":false,"rental_uris":{"android":"levelo://app?vid=53bb4ef9-3a43-4d01-8315-9572281ed704","ios":"levelo://app?vid=53bb4ef9-3a43-4d01-8315-9572281ed704"},"vehicle_type_id":"4","last_reported":1729422452,"current_range_meters":12000,"station_id":"ce4bh412rcd13ifvqds0","pricing_plan_id":"cebpf4jnsgd1na2vs0mg"},{"bike_id":"a74f41c1-86ae-4ed0-96bb-994ede0385b0","system_id":"levelo_inurba_marseille","lat":43.32493,"lon":5.36568,"is_reserved":false,"is_disabled":false,"rental_uris":{"android":"levelo://app?vid=a74f41c1-86ae-4ed0-96bb-994ede0385b0","ios":"levelo://app?vid=a74f41c1-86ae-4ed0-96bb-994ede0385b0"},"vehicle_type_id":"4","last_reported":1729422452,"current_range_meters":30000,"station_id":"ce4bhs12rcd13ifvqhvg","pricing_plan_id":"cebpf4jnsgd1na2vs0mg"},{"bike_id":"b9eb15e8-173e-4d16-a40d-2a76ad8f729d","system_id":"levelo_inurba_marseille","lat":43.31223,"lon":5.36853,"is_reserved":false,"is_disabled":false,"rental_uris":{"android":"levelo://app?vid=b9eb15e8-173e-4d16-a40d-2a76ad8f729d","ios":"levelo://app?vid=b9eb15e8-173e-4d16-a40d-2a76ad8f729d"},"vehicle_type_id":"4","last_reported":1729422452,"current_range_meters":36400,"station_id":"ce4bgl92rcd13ifvqbq0","pricing_plan_id":"cebpf4jnsgd1na2vs0mg"},{"bike_id":"e59c40c9-9c5e-4287-8a6a-756650d06a25","system_id":"levelo_inurba_marseille","lat":43.2842,"lon":5.34994,"is_reserved":false,"is_disabled":false,"rental_uris":{"android":"levelo://app?vid=e59c40c9-9c5e-4287-8a6a-756650d06a25","ios":"levelo://app?vid=e59c40c9-9c5e-4287-8a6a-756650d06a25"},"vehicle_type_id":"4","last_reported":1729422452,"current_range_meters":17200,"station_id":"ce4bhbh2rcd13ifvqepg","pricing_plan_id":"cebpf4jnsgd1na2vs0mg"},{"bike_id":"fb68c8fb-aeab-47f9-bdca-e2ebe222c99a","system_id":"levelo_inurba_marseille","lat":43.24816,"lon":5.37458,"is_reserved":false,"is_disabled":false,"rental_uris":{"android":"levelo://app?vid=fb68c8fb-aeab-47f9-bdca-e2ebe222c99a","ios":"levelo://app?vid=fb68c8fb-aeab-47f9-bdca-e2ebe222c99a"},"vehicle_type_id":"4","last_reported":1729422452,"current_range_meters":30800,"station_id":"ce4bhgh2rcd13ifvqfb0","pricing_plan_id":"cebpf4jnsgd1na2vs0mg"},{"bike_id":"c00ef00a-684c-4f4c-b2c0-4927a02e0571","system_id":"levelo_inurba_marseille","lat":43.27215,"lon":5.39181,"is_reserved":false,"is_disabled":false,"rental_uris":{"android":"levelo://app?vid=c00ef00a-684c-4f4c-b2c0-4927a02e0571","ios":"levelo://app?vid=c00ef00a-684c-4f4c-b2c0-4927a02e0571"},"vehicle_type_id":"4","last_reported":1729422452,"current_range_meters":24400,"station_id":"ce4bhhp2rcd13ifvqfm0","pricing_plan_id":"cebpf4jnsgd1na2vs0mg"},{"bike_id":"55b3a8f5-19d1-4d08-bf99-ccf2c312bc04","system_id":"levelo_inurba_marseille","lat":43.23195,"lon":5.35553,"is_reserved":false,"is_disabled":false,"rental_uris":{"android":"levelo://app?vid=55b3a8f5-19d1-4d08-bf99-ccf2c312bc04","ios":"levelo://app?vid=55b3a8f5-19d1-4d08-bf99-ccf2c312bc04"},"vehicle_type_id":"4","last_reported":1729422452,"current_range_meters":38400,"station_id":"ce4bhu92rcd13ifvqi70","pricing_plan_id":"cebpf4jnsgd1na2vs0mg"},{"bike_id":"da58c229-f218-4a25-bd5c-1b04ed0d7c0f","system_id":"levelo_inurba_marseille","lat":43.27905,"lon":5.38015,"is_reserved":false,"is_disabled":false,"rental_uris":{"android":"levelo://app?vid=da58c229-f218-4a25-bd5c-1b04ed0d7c0f","ios":"levelo://app?vid=da58c229-f218-4a25-bd5c-1b04ed0d7c0f"},"vehicle_type_id":"4","last_reported":1729422452,"current_range_meters":37600,"station_id":"ce4bhf92rcd13ifvqf50","pricing_plan_id":"cebpf4jnsgd1na2vs0mg"},{"bike_id":"bab89061-c289-4af1-b926-7294305734ac","system_id":"levelo_inurba_marseille","lat":43.32343,"lon":5.40624,"is_reserved":false,"is_disabled":false,"rental_uris":{"android":"levelo://app?vid=bab89061-c289-4af1-b926-7294305734ac","ios":"levelo://app?vid=bab89061-c289-4af1-b926-7294305734ac"},"vehicle_type_id":"4","last_reported":1729422452,"current_range_meters":24000,"station_id":"ce4bhq92rcd13ifvqhjg","pricing_plan_id":"cebpf4jnsgd1na2vs0mg"},{"bike_id":"43d24770-4ece-4a77-a029-fe46e9bde13b","system_id":"levelo_inurba_marseille","lat":43.31578,"lon":5.37425,"is_reserved":false,"is_disabled":false,"rental_uris":{"android":"levelo://app?vid=43d24770-4ece-4a77-a029-fe46e9bde13b","ios":"levelo://app?vid=43d24770-4ece-4a77-a029-fe46e9bde13b"},"vehicle_type_id":"4","last_reported":1729422452,"current_range_meters":37600,"station_id":"","pricing_plan_id":"cebpf4jnsgd1na2vs0mg"},{"bike_id":"9b990222-37e8-45c3-92ab-2373ec1d3a60","system_id":"levelo_inurba_marseille","lat":43.30948,"lon":5.39028,"is_reserved":false,"is_disabled":false,"rental_uris":{"android":"levelo://app?vid=9b990222-37e8-45c3-92ab-2373ec1d3a60","ios":"levelo://app?vid=9b990222-37e8-45c3-92ab-2373ec1d3a60"},"vehicle_type_id":"4","last_reported":1729422452,"current_range_meters":19600,"station_id":"ce4bgup2rcd13ifvqco0","pricing_plan_id":"cebpf4jnsgd1na2vs0mg"},{"bike_id":"00adc4d2-ce7b-4193-8dea-fe45a8b47685","system_id":"levelo_inurba_marseille","lat":43.298035,"lon":5.380988,"is_reserved":false,"is_disabled":false,"rental_uris":{"android":"levelo://app?vid=00adc4d2-ce7b-4193-8dea-fe45a8b47685","ios":"levelo://app?vid=00adc4d2-ce7b-4193-8dea-fe45a8b47685"},"vehicle_type_id":"4","last_reported":1729422452,"current_range_meters":24000,"station_id":"ce4bgip2rcd13ifvqbb0","pricing_plan_id":"cebpf4jnsgd1na2vs0mg"},{"bike_id":"766da900-471d-42f5-8cfa-8db494f945d7","system_id":"levelo_inurba_marseille","lat":43.28922,"lon":5.46054,"is_reserved":false,"is_disabled":false,"rental_uris":{"android":"levelo://app?vid=766da900-471d-42f5-8cfa-8db494f945d7","ios":"levelo://app?vid=766da900-471d-42f5-8cfa-8db494f945d7"},"vehicle_type_id":"4","last_reported":1729422452,"current_range_meters":25200,"station_id":"","pricing_plan_id":"cebpf4jnsgd1na2vs0mg"},{"bike_id":"8e27a1bb-94f1-4044-8b2a-a44b88f9fae1","system_id":"levelo_inurba_marseille","lat":43.28428,"lon":5.34997,"is_reserved":false,"is_disabled":false,"rental_uris":{"android":"levelo://app?vid=8e27a1bb-94f1-4044-8b2a-a44b88f9fae1","ios":"levelo://app?vid=8e27a1bb-94f1-4044-8b2a-a44b88f9fae1"},"vehicle_type_id":"4","last_reported":1729422452,"current_range_meters":38800,"station_id":"ce4bhbh2rcd13ifvqepg","pricing_plan_id":"cebpf4jnsgd1na2vs0mg"},{"bike_id":"3943db23-8ad6-420d-9591-b6abb7eac220","system_id":"levelo_inurba_marseille","lat":43.24548,"lon":5.39525,"is_reserved":false,"is_disabled":false,"rental_uris":{"android":"levelo://app?vid=3943db23-8ad6-420d-9591-b6abb7eac220","ios":"levelo://app?vid=3943db23-8ad6-420d-9591-b6abb7eac220"},"vehicle_type_id":"4","last_reported":1729422452,"current_range_meters":7200,"station_id":"ce4bhlp2rcd13ifvqgjg","pricing_plan_id":"cebpf4jnsgd1na2vs0mg"},{"bike_id":"cc10d048-9360-4f1c-b075-bd6d08c1c67a","system_id":"levelo_inurba_marseille","lat":43.24173,"lon":5.36382,"is_reserved":false,"is_disabled":false,"rental_uris":{"android":"levelo://app?vid=cc10d048-9360-4f1c-b075-bd6d08c1c67a","ios":"levelo://app?vid=cc10d048-9360-4f1c-b075-bd6d08c1c67a"},"vehicle_type_id":"4","last_reported":1729422452,"current_range_meters":14800,"station_id":"cpo36qri1sfpv3e86is0","pricing_plan_id":"cebpf4jnsgd1na2vs0mg"},{"bike_id":"b1987f79-3507-468b-81ed-924312b61f29","system_id":"levelo_inurba_marseille","lat":43.27369,"lon":5.3626,"is_reserved":false,"is_disabled":false,"rental_uris":{"android":"levelo://app?vid=b1987f79-3507-468b-81ed-924312b61f29","ios":"levelo://app?vid=b1987f79-3507-468b-81ed-924312b61f29"},"vehicle_type_id":"4","last_reported":1729422452,"current_range_meters":39200,"station_id":"ce4bhbh2rcd13ifvqeo0","pricing_plan_id":"cebpf4jnsgd1na2vs0mg"},{"bike_id":"9d23575c-c284-4ac8-a844-cb46e46ff340","system_id":"levelo_inurba_marseille","lat":43.30537,"lon":5.36533,"is_reserved":false,"is_disabled":false,"rental_uris":{"android":"levelo://app?vid=9d23575c-c284-4ac8-a844-cb46e46ff340","ios":"levelo://app?vid=9d23575c-c284-4ac8-a844-cb46e46ff340"},"vehicle_type_id":"4","last_reported":1729422452,"current_range_meters":17600,"station_id":"ce4bh5p2rcd13ifvqe4g","pricing_plan_id":"cebpf4jnsgd1na2vs0mg"},{"bike_id":"6827e683-dc26-4492-aea8-b26fdf2a9add","system_id":"levelo_inurba_marseille","lat":43.32347,"lon":5.40624,"is_reserved":false,"is_disabled":false,"rental_uris":{"android":"levelo://app?vid=6827e683-dc26-4492-aea8-b26fdf2a9add","ios":"levelo://app?vid=6827e683-dc26-4492-aea8-b26fdf2a9add"},"vehicle_type_id":"4","last_reported":1729422452,"current_range_meters":6800,"station_id":"ce4bhq92rcd13ifvqhjg","pricing_plan_id":"cebpf4jnsgd1na2vs0mg"},{"bike_id":"86a11198-6982-43fc-90bd-f6b9523ebc43","system_id":"levelo_inurba_marseille","lat":43.24393,"lon":5.37062,"is_reserved":false,"is_disabled":false,"rental_uris":{"android":"levelo://app?vid=86a11198-6982-43fc-90bd-f6b9523ebc43","ios":"levelo://app?vid=86a11198-6982-43fc-90bd-f6b9523ebc43"},"vehicle_type_id":"4","last_reported":1729422452,"current_range_meters":38800,"station_id":"ce4bhhh2rcd13ifvqfk0","pricing_plan_id":"cebpf4jnsgd1na2vs0mg"},{"bike_id":"6cecd4f0-02f3-432d-afa4-5a916be3f4c4","system_id":"levelo_inurba_marseille","lat":43.25577,"lon":5.38242,"is_reserved":false,"is_disabled":false,"rental_uris":{"android":"levelo://app?vid=6cecd4f0-02f3-432d-afa4-5a916be3f4c4","ios":"levelo://app?vid=6cecd4f0-02f3-432d-afa4-5a916be3f4c4"},"vehicle_type_id":"4","last_reported":1729422452,"current_range_meters":35200,"station_id":"ce4bhih2rcd13ifvqfs0","pricing_plan_id":"cebpf4jnsgd1na2vs0mg"},{"bike_id":"6e706dcb-6e41-41b6-a172-73765c66fdaa","system_id":"levelo_inurba_marseille","lat":43.2624,"lon":5.37586,"is_reserved":false,"is_disabled":false,"rental_uris":{"android":"levelo://app?vid=6e706dcb-6e41-41b6-a172-73765c66fdaa","ios":"levelo://app?vid=6e706dcb-6e41-41b6-a172-73765c66fdaa"},"vehicle_type_id":"4","last_reported":1729422452,"current_range_meters":34800,"station_id":"ce4bhhp2rcd13ifvqfm0","pricing_plan_id":"cebpf4jnsgd1na2vs0mg"},{"bike_id":"a199304a-967e-4f49-8aa7-e6452b74dc64","system_id":"levelo_inurba_marseille","lat":43.29534,"lon":5.3854,"is_reserved":false,"is_disabled":false,"rental_uris":{"android":"levelo://app?vid=a199304a-967e-4f49-8aa7-e6452b74dc64","ios":"levelo://app?vid=a199304a-967e-4f49-8aa7-e6452b74dc64"},"vehicle_type_id":"4","last_reported":1729422452,"current_range_meters":20400,"station_id":"ce4bgih2rcd13ifvqba0","pricing_plan_id":"cebpf4jnsgd1na2vs0mg"},{"bike_id":"522bb5dc-efc4-45ac-a026-aafe838b2839","system_id":"levelo_inurba_marseille","lat":43.29763,"lon":5.371,"is_reserved":false,"is_disabled":false,"rental_uris":{"android":"levelo://app?vid=522bb5dc-efc4-45ac-a026-aafe838b2839","ios":"levelo://app?vid=522bb5dc-efc4-45ac-a026-aafe838b2839"},"vehicle_type_id":"4","last_reported":1729422452,"current_range_meters":37600,"station_id":"ce4bgop2rcd13ifvqc1g","pricing_plan_id":"cebpf4jnsgd1na2vs0mg"},{"bike_id":"079e165e-6e3a-4654-8a7c-c5ab1078fa34","system_id":"levelo_inurba_marseille","lat":43.2454,"lon":5.39522,"is_reserved":false,"is_disabled":false,"rental_uris":{"android":"levelo://app?vid=079e165e-6e3a-4654-8a7c-c5ab1078fa34","ios":"levelo://app?vid=079e165e-6e3a-4654-8a7c-c5ab1078fa34"},"vehicle_type_id":"4","last_reported":1729422452,"current_range_meters":20000,"station_id":"ce4bhlp2rcd13ifvqgjg","pricing_plan_id":"cebpf4jnsgd1na2vs0mg"},{"bike_id":"dacfc94d-6140-480f-845a-f5ed00233451","system_id":"levelo_inurba_marseille","lat":43.2397,"lon":5.3662,"is_reserved":false,"is_disabled":false,"rental_uris":{"android":"levelo://app?vid=dacfc94d-6140-480f-845a-f5ed00233451","ios":"levelo://app?vid=dacfc94d-6140-480f-845a-f5ed00233451"},"vehicle_type_id":"4","last_reported":1729422452,"current_range_meters":12800,"station_id":"ce4bhi12rcd13ifvqfp0","pricing_plan_id":"cebpf4jnsgd1na2vs0mg"},{"bike_id":"ec9d3b43-aaa9-4aa1-9332-56a28ff981eb","system_id":"levelo_inurba_marseille","lat":43.33025,"lon":5.39038,"is_reserved":false,"is_disabled":false,"rental_uris":{"android":"levelo://app?vid=ec9d3b43-aaa9-4aa1-9332-56a28ff981eb","ios":"levelo://app?vid=ec9d3b43-aaa9-4aa1-9332-56a28ff981eb"},"vehicle_type_id":"4","last_reported":1729422452,"current_range_meters":38800,"station_id":"ce4bhr92rcd13ifvqhrg","pricing_plan_id":"cebpf4jnsgd1na2vs0mg"},{"bike_id":"7772d39f-5e28-445c-af91-069b0cf63793","system_id":"levelo_inurba_marseille","lat":43.33765,"lon":5.37438,"is_reserved":false,"is_disabled":false,"rental_uris":{"android":"levelo://app?vid=7772d39f-5e28-445c-af91-069b0cf63793","ios":"levelo://app?vid=7772d39f-5e28-445c-af91-069b0cf63793"},"vehicle_type_id":"4","last_reported":1729422452,"current_range_meters":4400,"station_id":"","pricing_plan_id":"cebpf4jnsgd1na2vs0mg"},{"bike_id":"733eb2c5-00ab-4d49-8038-dfb888b12557","system_id":"levelo_inurba_marseille","lat":43.3199,"lon":5.38156,"is_reserved":false,"is_disabled":false,"rental_uris":{"android":"levelo://app?vid=733eb2c5-00ab-4d49-8038-dfb888b12557","ios":"levelo://app?vid=733eb2c5-00ab-4d49-8038-dfb888b12557"},"vehicle_type_id":"4","last_reported":1729422452,"current_range_meters":32800,"station_id":"ce4bhr12rcd13ifvqhpg","pricing_plan_id":"cebpf4jnsgd1na2vs0mg"},{"bike_id":"3213665e-989c-4d22-9f5a-31c8522597dd","system_id":"levelo_inurba_marseille","lat":43.296,"lon":5.36142,"is_reserved":false,"is_disabled":false,"rental_uris":{"android":"levelo://app?vid=3213665e-989c-4d22-9f5a-31c8522597dd","ios":"levelo://app?vid=3213665e-989c-4d22-9f5a-31c8522597dd"},"vehicle_type_id":"4","last_reported":1729422452,"current_range_meters":15200,"station_id":"","pricing_plan_id":"cebpf4jnsgd1na2vs0mg"},{"bike_id":"23bad941-e7bc-4f53-853a-62bdf995de8f","system_id":"levelo_inurba_marseille","lat":43.33025,"lon":5.39042,"is_reserved":false,"is_disabled":false,"rental_uris":{"android":"levelo://app?vid=23bad941-e7bc-4f53-853a-62bdf995de8f","ios":"levelo://app?vid=23bad941-e7bc-4f53-853a-62bdf995de8f"},"vehicle_type_id":"4","last_reported":1729422452,"current_range_meters":33200,"station_id":"ce4bhr92rcd13ifvqhrg","pricing_plan_id":"cebpf4jnsgd1na2vs0mg"},{"bike_id":"fd15510c-cb22-4d4b-b285-6de1e0fb4b50","system_id":"levelo_inurba_marseille","lat":43.23153,"lon":5.43711,"is_reserved":false,"is_disabled":false,"rental_uris":{"android":"levelo://app?vid=fd15510c-cb22-4d4b-b285-6de1e0fb4b50","ios":"levelo://app?vid=fd15510c-cb22-4d4b-b285-6de1e0fb4b50"},"vehicle_type_id":"4","last_reported":1729422452,"current_range_meters":20800,"station_id":"ce4bhmp2rcd13ifvqgog","pricing_plan_id":"cebpf4jnsgd1na2vs0mg"},{"bike_id":"3f3c663d-a6fd-4091-8533-6c09ca965902","system_id":"levelo_inurba_marseille","lat":43.31203,"lon":5.3771,"is_reserved":false,"is_disabled":false,"rental_uris":{"android":"levelo://app?vid=3f3c663d-a6fd-4091-8533-6c09ca965902","ios":"levelo://app?vid=3f3c663d-a6fd-4091-8533-6c09ca965902"},"vehicle_type_id":"4","last_reported":1729422452,"current_range_meters":14400,"station_id":"","pricing_plan_id":"cebpf4jnsgd1na2vs0mg"},{"bike_id":"275e8b97-c257-4f5b-9606-c19c9133569b","system_id":"levelo_inurba_marseille","lat":43.29477,"lon":5.36311,"is_reserved":false,"is_disabled":false,"rental_uris":{"android":"levelo://app?vid=275e8b97-c257-4f5b-9606-c19c9133569b","ios":"levelo://app?vid=275e8b97-c257-4f5b-9606-c19c9133569b"},"vehicle_type_id":"4","last_reported":1729422452,"current_range_meters":11200,"station_id":"","pricing_plan_id":"cebpf4jnsgd1na2vs0mg"},{"bike_id":"9a2117f0-c5b0-4dc2-891b-026a24af23f1","system_id":"levelo_inurba_marseille","lat":43.3105,"lon":5.40092,"is_reserved":false,"is_disabled":false,"rental_uris":{"android":"levelo://app?vid=9a2117f0-c5b0-4dc2-891b-026a24af23f1","ios":"levelo://app?vid=9a2117f0-c5b0-4dc2-891b-026a24af23f1"},"vehicle_type_id":"4","last_reported":1729422452,"current_range_meters":36000,"station_id":"","pricing_plan_id":"cebpf4jnsgd1na2vs0mg"},{"bike_id":"e4082955-fc4a-48bd-938c-24b4539a85fc","system_id":"levelo_inurba_marseille","lat":43.2455,"lon":5.39523,"is_reserved":false,"is_disabled":false,"rental_uris":{"android":"levelo://app?vid=e4082955-fc4a-48bd-938c-24b4539a85fc","ios":"levelo://app?vid=e4082955-fc4a-48bd-938c-24b4539a85fc"},"vehicle_type_id":"4","last_reported":1729422452,"current_range_meters":36000,"station_id":"ce4bhlp2rcd13ifvqgjg","pricing_plan_id":"cebpf4jnsgd1na2vs0mg"},{"bike_id":"7d0bbfce-633d-47d1-974f-f3a665459ca7","system_id":"levelo_inurba_marseille","lat":43.24074,"lon":5.37756,"is_reserved":false,"is_disabled":false,"rental_uris":{"android":"levelo://app?vid=7d0bbfce-633d-47d1-974f-f3a665459ca7","ios":"levelo://app?vid=7d0bbfce-633d-47d1-974f-f3a665459ca7"},"vehicle_type_id":"4","last_reported":1729422452,"current_range_meters":4000,"station_id":"ce4bhnp2rcd13ifvqgvg","pricing_plan_id":"cebpf4jnsgd1na2vs0mg"},{"bike_id":"5dd719ab-a213-4094-b2e1-609f6924f39b","system_id":"levelo_inurba_marseille","lat":43.31992,"lon":5.38153,"is_reserved":false,"is_disabled":false,"rental_uris":{"android":"levelo://app?vid=5dd719ab-a213-4094-b2e1-609f6924f39b","ios":"levelo://app?vid=5dd719ab-a213-4094-b2e1-609f6924f39b"},"vehicle_type_id":"4","last_reported":1729422452,"current_range_meters":38800,"station_id":"ce4bhr12rcd13ifvqhpg","pricing_plan_id":"cebpf4jnsgd1na2vs0mg"},{"bike_id":"d1eaed94-2ffc-4609-a3b8-b0df4a991b21","system_id":"levelo_inurba_marseille","lat":43.31244,"lon":5.38476,"is_reserved":false,"is_disabled":false,"rental_uris":{"android":"levelo://app?vid=d1eaed94-2ffc-4609-a3b8-b0df4a991b21","ios":"levelo://app?vid=d1eaed94-2ffc-4609-a3b8-b0df4a991b21"},"vehicle_type_id":"4","last_reported":1729422452,"current_range_meters":14400,"station_id":"","pricing_plan_id":"cebpf4jnsgd1na2vs0mg"},{"bike_id":"96da4e8c-4c7f-4679-8ce4-7d3bf0ca6f6f","system_id":"levelo_inurba_marseille","lat":43.2649,"lon":5.39542,"is_reserved":false,"is_disabled":false,"rental_uris":{"android":"levelo://app?vid=96da4e8c-4c7f-4679-8ce4-7d3bf0ca6f6f","ios":"levelo://app?vid=96da4e8c-4c7f-4679-8ce4-7d3bf0ca6f6f"},"vehicle_type_id":"4","last_reported":1729422452,"current_range_meters":17600,"station_id":"ce4bhi12rcd13ifvqfq0","pricing_plan_id":"cebpf4jnsgd1na2vs0mg"},{"bike_id":"77eda452-1677-4e1e-a2d7-0a5d96dbe3ce","system_id":"levelo_inurba_marseille","lat":43.34145,"lon":5.4091,"is_reserved":false,"is_disabled":false,"rental_uris":{"android":"levelo://app?vid=77eda452-1677-4e1e-a2d7-0a5d96dbe3ce","ios":"levelo://app?vid=77eda452-1677-4e1e-a2d7-0a5d96dbe3ce"},"vehicle_type_id":"4","last_reported":1729422452,"current_range_meters":38800,"station_id":"ce4bhqh2rcd13ifvqhlg","pricing_plan_id":"cebpf4jnsgd1na2vs0mg"},{"bike_id":"b8b721e3-c0e7-4491-844f-191085275f86","system_id":"levelo_inurba_marseille","lat":43.24548,"lon":5.39521,"is_reserved":false,"is_disabled":false,"rental_uris":{"android":"levelo://app?vid=b8b721e3-c0e7-4491-844f-191085275f86","ios":"levelo://app?vid=b8b721e3-c0e7-4491-844f-191085275f86"},"vehicle_type_id":"4","last_reported":1729422452,"current_range_meters":38000,"station_id":"ce4bhlp2rcd13ifvqgjg","pricing_plan_id":"cebpf4jnsgd1na2vs0mg"},{"bike_id":"2a429aa6-0197-4f73-9dbd-b2b190eba55b","system_id":"levelo_inurba_marseille","lat":43.24072,"lon":5.37763,"is_reserved":false,"is_disabled":false,"rental_uris":{"android":"levelo://app?vid=2a429aa6-0197-4f73-9dbd-b2b190eba55b","ios":"levelo://app?vid=2a429aa6-0197-4f73-9dbd-b2b190eba55b"},"vehicle_type_id":"4","last_reported":1729422452,"current_range_meters":30800,"station_id":"ce4bhnp2rcd13ifvqgvg","pricing_plan_id":"cebpf4jnsgd1na2vs0mg"},{"bike_id":"c9d4daa2-f73d-4393-9a40-de9c40088144","system_id":"levelo_inurba_marseille","lat":43.2408,"lon":5.37758,"is_reserved":false,"is_disabled":false,"rental_uris":{"android":"levelo://app?vid=c9d4daa2-f73d-4393-9a40-de9c40088144","ios":"levelo://app?vid=c9d4daa2-f73d-4393-9a40-de9c40088144"},"vehicle_type_id":"4","last_reported":1729422452,"current_range_meters":30400,"station_id":"ce4bhnp2rcd13ifvqgvg","pricing_plan_id":"cebpf4jnsgd1na2vs0mg"},{"bike_id":"88a6c16e-2cb9-4142-9434-e66382622780","system_id":"levelo_inurba_marseille","lat":43.32338,"lon":5.40621,"is_reserved":false,"is_disabled":false,"rental_uris":{"android":"levelo://app?vid=88a6c16e-2cb9-4142-9434-e66382622780","ios":"levelo://app?vid=88a6c16e-2cb9-4142-9434-e66382622780"},"vehicle_type_id":"4","last_reported":1729422452,"current_range_meters":32000,"station_id":"ce4bhq92rcd13ifvqhjg","pricing_plan_id":"cebpf4jnsgd1na2vs0mg"},{"bike_id":"9aa0f5ce-7207-4726-95c5-7abdffd45e16","system_id":"levelo_inurba_marseille","lat":43.299,"lon":5.43668,"is_reserved":false,"is_disabled":false,"rental_uris":{"android":"levelo://app?vid=9aa0f5ce-7207-4726-95c5-7abdffd45e16","ios":"levelo://app?vid=9aa0f5ce-7207-4726-95c5-7abdffd45e16"},"vehicle_type_id":"4","last_reported":1729422452,"current_range_meters":30800,"station_id":"ce4bhpp2rcd13ifvqhfg","pricing_plan_id":"cebpf4jnsgd1na2vs0mg"},{"bike_id":"b3a0c784-252e-42d2-b4fd-52433c6dc083","system_id":"levelo_inurba_marseille","lat":43.28364,"lon":5.38105,"is_reserved":false,"is_disabled":false,"rental_uris":{"android":"levelo://app?vid=b3a0c784-252e-42d2-b4fd-52433c6dc083","ios":"levelo://app?vid=b3a0c784-252e-42d2-b4fd-52433c6dc083"},"vehicle_type_id":"4","last_reported":1729422452,"current_range_meters":27600,"station_id":"ce4bh412rcd13ifvqdr0","pricing_plan_id":"cebpf4jnsgd1na2vs0mg"},{"bike_id":"f7b5f56c-96a1-445f-b511-773f0f01cf87","system_id":"levelo_inurba_marseille","lat":43.28156,"lon":5.42645,"is_reserved":false,"is_disabled":false,"rental_uris":{"android":"levelo://app?vid=f7b5f56c-96a1-445f-b511-773f0f01cf87","ios":"levelo://app?vid=f7b5f56c-96a1-445f-b511-773f0f01cf87"},"vehicle_type_id":"4","last_reported":1729422452,"current_range_meters":38800,"station_id":"ce4bhnh2rcd13ifvqgug","pricing_plan_id":"cebpf4jnsgd1na2vs0mg"},{"bike_id":"fac9a3a2-2dd0-4efd-afd6-73cc4f4edd9a","system_id":"levelo_inurba_marseille","lat":43.24813,"lon":5.37456,"is_reserved":false,"is_disabled":false,"rental_uris":{"android":"levelo://app?vid=fac9a3a2-2dd0-4efd-afd6-73cc4f4edd9a","ios":"levelo://app?vid=fac9a3a2-2dd0-4efd-afd6-73cc4f4edd9a"},"vehicle_type_id":"4","last_reported":1729422452,"current_range_meters":37600,"station_id":"ce4bhgh2rcd13ifvqfb0","pricing_plan_id":"cebpf4jnsgd1na2vs0mg"},{"bike_id":"4d32ebd6-a834-4769-ab35-0242d7fd514d","system_id":"levelo_inurba_marseille","lat":43.30095,"lon":5.39078,"is_reserved":false,"is_disabled":false,"rental_uris":{"android":"levelo://app?vid=4d32ebd6-a834-4769-ab35-0242d7fd514d","ios":"levelo://app?vid=4d32ebd6-a834-4769-ab35-0242d7fd514d"},"vehicle_type_id":"4","last_reported":1729422452,"current_range_meters":10000,"station_id":"ce4bh192rcd13ifvqdb0","pricing_plan_id":"cebpf4jnsgd1na2vs0mg"},{"bike_id":"331c1650-cd9b-40fb-a1c2-29f6fdfbe05e","system_id":"levelo_inurba_marseille","lat":43.3137,"lon":5.38497,"is_reserved":false,"is_disabled":false,"rental_uris":{"android":"levelo://app?vid=331c1650-cd9b-40fb-a1c2-29f6fdfbe05e","ios":"levelo://app?vid=331c1650-cd9b-40fb-a1c2-29f6fdfbe05e"},"vehicle_type_id":"4","last_reported":1729422452,"current_range_meters":28000,"station_id":"ce4bgt92rcd13ifvqcf0","pricing_plan_id":"cebpf4jnsgd1na2vs0mg"},{"bike_id":"ca4436b6-ef84-437a-acb8-3bff7e58e93c","system_id":"levelo_inurba_marseille","lat":43.23719,"lon":5.43569,"is_reserved":false,"is_disabled":false,"rental_uris":{"android":"levelo://app?vid=ca4436b6-ef84-437a-acb8-3bff7e58e93c","ios":"levelo://app?vid=ca4436b6-ef84-437a-acb8-3bff7e58e93c"},"vehicle_type_id":"4","last_reported":1729422452,"current_range_meters":24800,"station_id":"","pricing_plan_id":"cebpf4jnsgd1na2vs0mg"},{"bike_id":"65bdf8a7-581b-4618-bccb-c8132147d71a","system_id":"levelo_inurba_marseille","lat":43.27562,"lon":5.36017,"is_reserved":false,"is_disabled":false,"rental_uris":{"android":"levelo://app?vid=65bdf8a7-581b-4618-bccb-c8132147d71a","ios":"levelo://app?vid=65bdf8a7-581b-4618-bccb-c8132147d71a"},"vehicle_type_id":"4","last_reported":1729422452,"current_range_meters":12400,"station_id":"","pricing_plan_id":"cebpf4jnsgd1na2vs0mg"},{"bike_id":"44c0f2e9-147e-498e-99c1-b3cf2c11a51a","system_id":"levelo_inurba_marseille","lat":43.26199,"lon":5.37447,"is_reserved":false,"is_disabled":false,"rental_uris":{"android":"levelo://app?vid=44c0f2e9-147e-498e-99c1-b3cf2c11a51a","ios":"levelo://app?vid=44c0f2e9-147e-498e-99c1-b3cf2c11a51a"},"vehicle_type_id":"4","last_reported":1729422452,"current_range_meters":38400,"station_id":"ce4bhgp2rcd13ifvqfc0","pricing_plan_id":"cebpf4jnsgd1na2vs0mg"},{"bike_id":"528fef3b-bb8b-42d1-985d-ca1adbc390f0","system_id":"levelo_inurba_marseille","lat":43.24394,"lon":5.37058,"is_reserved":false,"is_disabled":false,"rental_uris":{"android":"levelo://app?vid=528fef3b-bb8b-42d1-985d-ca1adbc390f0","ios":"levelo://app?vid=528fef3b-bb8b-42d1-985d-ca1adbc390f0"},"vehicle_type_id":"4","last_reported":1729422452,"current_range_meters":10800,"station_id":"ce4bhhh2rcd13ifvqfk0","pricing_plan_id":"cebpf4jnsgd1na2vs0mg"},{"bike_id":"e120d26e-05e1-4715-ac19-c809b2dd28da","system_id":"levelo_inurba_marseille","lat":43.334389,"lon":5.390025,"is_reserved":false,"is_disabled":false,"rental_uris":{"android":"levelo://app?vid=e120d26e-05e1-4715-ac19-c809b2dd28da","ios":"levelo://app?vid=e120d26e-05e1-4715-ac19-c809b2dd28da"},"vehicle_type_id":"4","last_reported":1729422452,"current_range_meters":32800,"station_id":"","pricing_plan_id":"cebpf4jnsgd1na2vs0mg"},{"bike_id":"48bb3aa8-0fb6-4268-adde-a539294fcc41","system_id":"levelo_inurba_marseille","lat":43.295202,"lon":5.375042,"is_reserved":false,"is_disabled":false,"rental_uris":{"android":"levelo://app?vid=48bb3aa8-0fb6-4268-adde-a539294fcc41","ios":"levelo://app?vid=48bb3aa8-0fb6-4268-adde-a539294fcc41"},"vehicle_type_id":"4","last_reported":1729422452,"current_range_meters":27200,"station_id":"ce4bgkp2rcd13ifvqbmg","pricing_plan_id":"cebpf4jnsgd1na2vs0mg"},{"bike_id":"0d23ce13-96ff-4bdf-8190-c9be19f399ba","system_id":"levelo_inurba_marseille","lat":43.32551,"lon":5.41441,"is_reserved":false,"is_disabled":false,"rental_uris":{"android":"levelo://app?vid=0d23ce13-96ff-4bdf-8190-c9be19f399ba","ios":"levelo://app?vid=0d23ce13-96ff-4bdf-8190-c9be19f399ba"},"vehicle_type_id":"4","last_reported":1729422452,"current_range_meters":30000,"station_id":"ce4bhq12rcd13ifvqhhg","pricing_plan_id":"cebpf4jnsgd1na2vs0mg"},{"bike_id":"4cf3e5d8-4f9a-4007-b965-622ecd99339e","system_id":"levelo_inurba_marseille","lat":43.31074,"lon":5.40085,"is_reserved":false,"is_disabled":false,"rental_uris":{"android":"levelo://app?vid=4cf3e5d8-4f9a-4007-b965-622ecd99339e","ios":"levelo://app?vid=4cf3e5d8-4f9a-4007-b965-622ecd99339e"},"vehicle_type_id":"4","last_reported":1729422452,"current_range_meters":9200,"station_id":"","pricing_plan_id":"cebpf4jnsgd1na2vs0mg"},{"bike_id":"c34e2acb-3afe-4aa1-8cdb-c481d100b683","system_id":"levelo_inurba_marseille","lat":43.32482,"lon":5.36569,"is_reserved":false,"is_disabled":false,"rental_uris":{"android":"levelo://app?vid=c34e2acb-3afe-4aa1-8cdb-c481d100b683","ios":"levelo://app?vid=c34e2acb-3afe-4aa1-8cdb-c481d100b683"},"vehicle_type_id":"4","last_reported":1729422452,"current_range_meters":22000,"station_id":"ce4bhs12rcd13ifvqhvg","pricing_plan_id":"cebpf4jnsgd1na2vs0mg"},{"bike_id":"19e0c7ba-a3f7-43e2-aca8-366f22e4e87d","system_id":"levelo_inurba_marseille","lat":43.33731,"lon":5.39183,"is_reserved":false,"is_disabled":false,"rental_uris":{"android":"levelo://app?vid=19e0c7ba-a3f7-43e2-aca8-366f22e4e87d","ios":"levelo://app?vid=19e0c7ba-a3f7-43e2-aca8-366f22e4e87d"},"vehicle_type_id":"4","last_reported":1729422452,"current_range_meters":38800,"station_id":"ce4bhr92rcd13ifvqhsg","pricing_plan_id":"cebpf4jnsgd1na2vs0mg"},{"bike_id":"60594555-f52a-4672-95a7-703dc1591d92","system_id":"levelo_inurba_marseille","lat":43.28351,"lon":5.38113,"is_reserved":false,"is_disabled":false,"rental_uris":{"android":"levelo://app?vid=60594555-f52a-4672-95a7-703dc1591d92","ios":"levelo://app?vid=60594555-f52a-4672-95a7-703dc1591d92"},"vehicle_type_id":"4","last_reported":1729422452,"current_range_meters":36800,"station_id":"ce4bh412rcd13ifvqdr0","pricing_plan_id":"cebpf4jnsgd1na2vs0mg"},{"bike_id":"f9928a1b-5e01-4359-8549-3825d8c7f41a","system_id":"levelo_inurba_marseille","lat":43.22928,"lon":5.35377,"is_reserved":false,"is_disabled":false,"rental_uris":{"android":"levelo://app?vid=f9928a1b-5e01-4359-8549-3825d8c7f41a","ios":"levelo://app?vid=f9928a1b-5e01-4359-8549-3825d8c7f41a"},"vehicle_type_id":"4","last_reported":1729422452,"current_range_meters":38000,"station_id":"cpo3532slgdg3j2ikp40","pricing_plan_id":"cebpf4jnsgd1na2vs0mg"},{"bike_id":"a11c6c14-189e-41b9-aa78-d0aaa14b1f8d","system_id":"levelo_inurba_marseille","lat":43.29414,"lon":5.38625,"is_reserved":false,"is_disabled":false,"rental_uris":{"android":"levelo://app?vid=a11c6c14-189e-41b9-aa78-d0aaa14b1f8d","ios":"levelo://app?vid=a11c6c14-189e-41b9-aa78-d0aaa14b1f8d"},"vehicle_type_id":"4","last_reported":1729422452,"current_range_meters":27200,"station_id":"ce4bgj92rcd13ifvqbe0","pricing_plan_id":"cebpf4jnsgd1na2vs0mg"},{"bike_id":"d8ec393f-4484-4f65-969b-8ae2145a9b2b","system_id":"levelo_inurba_marseille","lat":43.3189,"lon":5.40734,"is_reserved":false,"is_disabled":false,"rental_uris":{"android":"levelo://app?vid=d8ec393f-4484-4f65-969b-8ae2145a9b2b","ios":"levelo://app?vid=d8ec393f-4484-4f65-969b-8ae2145a9b2b"},"vehicle_type_id":"4","last_reported":1729422452,"current_range_meters":38800,"station_id":"ce4bhq12rcd13ifvqhig","pricing_plan_id":"cebpf4jnsgd1na2vs0mg"},{"bike_id":"b3da6c3a-2a10-4172-a1ac-14d12204275b","system_id":"levelo_inurba_marseille","lat":43.27504,"lon":5.42456,"is_reserved":false,"is_disabled":false,"rental_uris":{"android":"levelo://app?vid=b3da6c3a-2a10-4172-a1ac-14d12204275b","ios":"levelo://app?vid=b3da6c3a-2a10-4172-a1ac-14d12204275b"},"vehicle_type_id":"4","last_reported":1729422452,"current_range_meters":39200,"station_id":"ce4bhn92rcd13ifvqgrg","pricing_plan_id":"cebpf4jnsgd1na2vs0mg"},{"bike_id":"30bea7cc-0594-45ae-8079-334f233d785a","system_id":"levelo_inurba_marseille","lat":43.30544,"lon":5.36709,"is_reserved":false,"is_disabled":false,"rental_uris":{"android":"levelo://app?vid=30bea7cc-0594-45ae-8079-334f233d785a","ios":"levelo://app?vid=30bea7cc-0594-45ae-8079-334f233d785a"},"vehicle_type_id":"4","last_reported":1729422452,"current_range_meters":38000,"station_id":"ce4bgrp2rcd13ifvqc9g","pricing_plan_id":"cebpf4jnsgd1na2vs0mg"},{"bike_id":"a7b7a404-4daf-4700-b81b-e63a35f02840","system_id":"levelo_inurba_marseille","lat":43.24395,"lon":5.37064,"is_reserved":false,"is_disabled":false,"rental_uris":{"android":"levelo://app?vid=a7b7a404-4daf-4700-b81b-e63a35f02840","ios":"levelo://app?vid=a7b7a404-4daf-4700-b81b-e63a35f02840"},"vehicle_type_id":"4","last_reported":1729422452,"current_range_meters":36000,"station_id":"ce4bhhh2rcd13ifvqfk0","pricing_plan_id":"cebpf4jnsgd1na2vs0mg"},{"bike_id":"f080a266-8e3f-4da2-b052-28c914695c35","system_id":"levelo_inurba_marseille","lat":43.2294,"lon":5.35378,"is_reserved":false,"is_disabled":false,"rental_uris":{"android":"levelo://app?vid=f080a266-8e3f-4da2-b052-28c914695c35","ios":"levelo://app?vid=f080a266-8e3f-4da2-b052-28c914695c35"},"vehicle_type_id":"4","last_reported":1729422452,"current_range_meters":20800,"station_id":"cpo3532slgdg3j2ikp40","pricing_plan_id":"cebpf4jnsgd1na2vs0mg"},{"bike_id":"df79050e-4b09-405e-be7e-48cf6c248ce9","system_id":"levelo_inurba_marseille","lat":43.24809,"lon":5.3746,"is_reserved":false,"is_disabled":false,"rental_uris":{"android":"levelo://app?vid=df79050e-4b09-405e-be7e-48cf6c248ce9","ios":"levelo://app?vid=df79050e-4b09-405e-be7e-48cf6c248ce9"},"vehicle_type_id":"4","last_reported":1729422452,"current_range_meters":35600,"station_id":"ce4bhgh2rcd13ifvqfb0","pricing_plan_id":"cebpf4jnsgd1na2vs0mg"},{"bike_id":"a0b4c194-1974-4888-85e2-7cfc7aeed116","system_id":"levelo_inurba_marseille","lat":43.3171,"lon":5.43705,"is_reserved":false,"is_disabled":false,"rental_uris":{"android":"levelo://app?vid=a0b4c194-1974-4888-85e2-7cfc7aeed116","ios":"levelo://app?vid=a0b4c194-1974-4888-85e2-7cfc7aeed116"},"vehicle_type_id":"4","last_reported":1729422452,"current_range_meters":38000,"station_id":"ce4bhp92rcd13ifvqhcg","pricing_plan_id":"cebpf4jnsgd1na2vs0mg"},{"bike_id":"430fce54-59d4-4ed8-95b8-01b850209c3f","system_id":"levelo_inurba_marseille","lat":43.33027,"lon":5.39032,"is_reserved":false,"is_disabled":false,"rental_uris":{"android":"levelo://app?vid=430fce54-59d4-4ed8-95b8-01b850209c3f","ios":"levelo://app?vid=430fce54-59d4-4ed8-95b8-01b850209c3f"},"vehicle_type_id":"4","last_reported":1729422452,"current_range_meters":17200,"station_id":"ce4bhr92rcd13ifvqhrg","pricing_plan_id":"cebpf4jnsgd1na2vs0mg"},{"bike_id":"c73b1daf-27f9-4501-937a-fb865abec6ac","system_id":"levelo_inurba_marseille","lat":43.24167,"lon":5.36391,"is_reserved":false,"is_disabled":false,"rental_uris":{"android":"levelo://app?vid=c73b1daf-27f9-4501-937a-fb865abec6ac","ios":"levelo://app?vid=c73b1daf-27f9-4501-937a-fb865abec6ac"},"vehicle_type_id":"4","last_reported":1729422452,"current_range_meters":20800,"station_id":"cpo36qri1sfpv3e86is0","pricing_plan_id":"cebpf4jnsgd1na2vs0mg"},{"bike_id":"50439201-f5ec-411a-98c6-ca2d61b13744","system_id":"levelo_inurba_marseille","lat":43.29259,"lon":5.40911,"is_reserved":false,"is_disabled":false,"rental_uris":{"android":"levelo://app?vid=50439201-f5ec-411a-98c6-ca2d61b13744","ios":"levelo://app?vid=50439201-f5ec-411a-98c6-ca2d61b13744"},"vehicle_type_id":"4","last_reported":1729422452,"current_range_meters":35200,"station_id":"ce4bh192rcd13ifvqdc0","pricing_plan_id":"cebpf4jnsgd1na2vs0mg"},{"bike_id":"d85acfe7-8a3c-43f4-83b9-747a558fc2b4","system_id":"levelo_inurba_marseille","lat":43.28614,"lon":5.35106,"is_reserved":false,"is_disabled":false,"rental_uris":{"android":"levelo://app?vid=d85acfe7-8a3c-43f4-83b9-747a558fc2b4","ios":"levelo://app?vid=d85acfe7-8a3c-43f4-83b9-747a558fc2b4"},"vehicle_type_id":"4","last_reported":1729422452,"current_range_meters":37600,"station_id":"ce4bhch2rcd13ifvqeug","pricing_plan_id":"cebpf4jnsgd1na2vs0mg"},{"bike_id":"772078c8-c709-4f60-bd2d-f4d6e3aa1011","system_id":"levelo_inurba_marseille","lat":43.30537,"lon":5.36547,"is_reserved":false,"is_disabled":false,"rental_uris":{"android":"levelo://app?vid=772078c8-c709-4f60-bd2d-f4d6e3aa1011","ios":"levelo://app?vid=772078c8-c709-4f60-bd2d-f4d6e3aa1011"},"vehicle_type_id":"4","last_reported":1729422452,"current_range_meters":39200,"station_id":"ce4bgs12rcd13ifvqcag","pricing_plan_id":"cebpf4jnsgd1na2vs0mg"},{"bike_id":"289d734b-fd3d-433c-9cec-60039eadc376","system_id":"levelo_inurba_marseille","lat":43.24809,"lon":5.37455,"is_reserved":false,"is_disabled":false,"rental_uris":{"android":"levelo://app?vid=289d734b-fd3d-433c-9cec-60039eadc376","ios":"levelo://app?vid=289d734b-fd3d-433c-9cec-60039eadc376"},"vehicle_type_id":"4","last_reported":1729422452,"current_range_meters":27600,"station_id":"ce4bhgh2rcd13ifvqfb0","pricing_plan_id":"cebpf4jnsgd1na2vs0mg"},{"bike_id":"e2bf0e67-cba0-4c18-b8ce-ff42a82dc5fd","system_id":"levelo_inurba_marseille","lat":43.26682,"lon":5.38266,"is_reserved":false,"is_disabled":false,"rental_uris":{"android":"levelo://app?vid=e2bf0e67-cba0-4c18-b8ce-ff42a82dc5fd","ios":"levelo://app?vid=e2bf0e67-cba0-4c18-b8ce-ff42a82dc5fd"},"vehicle_type_id":"4","last_reported":1729422452,"current_range_meters":2800,"station_id":"ce4bhg92rcd13ifvqf90","pricing_plan_id":"cebpf4jnsgd1na2vs0mg"},{"bike_id":"251c2ece-8912-4dfb-9847-d8f9ff013dd6","system_id":"levelo_inurba_marseille","lat":43.24672,"lon":5.38162,"is_reserved":false,"is_disabled":false,"rental_uris":{"android":"levelo://app?vid=251c2ece-8912-4dfb-9847-d8f9ff013dd6","ios":"levelo://app?vid=251c2ece-8912-4dfb-9847-d8f9ff013dd6"},"vehicle_type_id":"4","last_reported":1729422452,"current_range_meters":20800,"station_id":"ce4bhih2rcd13ifvqfr0","pricing_plan_id":"cebpf4jnsgd1na2vs0mg"},{"bike_id":"9a3a0a5d-83bb-4455-828c-fcd023da6592","system_id":"levelo_inurba_marseille","lat":43.28274,"lon":5.35071,"is_reserved":false,"is_disabled":false,"rental_uris":{"android":"levelo://app?vid=9a3a0a5d-83bb-4455-828c-fcd023da6592","ios":"levelo://app?vid=9a3a0a5d-83bb-4455-828c-fcd023da6592"},"vehicle_type_id":"4","last_reported":1729422452,"current_range_meters":28800,"station_id":"ce4bhbp2rcd13ifvqerg","pricing_plan_id":"cebpf4jnsgd1na2vs0mg"},{"bike_id":"8722b784-c8a6-46b5-a92d-356ee8f12cc4","system_id":"levelo_inurba_marseille","lat":43.292,"lon":5.35802,"is_reserved":false,"is_disabled":false,"rental_uris":{"android":"levelo://app?vid=8722b784-c8a6-46b5-a92d-356ee8f12cc4","ios":"levelo://app?vid=8722b784-c8a6-46b5-a92d-356ee8f12cc4"},"vehicle_type_id":"4","last_reported":1729422452,"current_range_meters":28800,"station_id":"ce4bhb12rcd13ifvqel0","pricing_plan_id":"cebpf4jnsgd1na2vs0mg"},{"bike_id":"595711b7-de3f-41c9-b47f-ff6c3f6c4612","system_id":"levelo_inurba_marseille","lat":43.2307,"lon":5.35491,"is_reserved":false,"is_disabled":false,"rental_uris":{"android":"levelo://app?vid=595711b7-de3f-41c9-b47f-ff6c3f6c4612","ios":"levelo://app?vid=595711b7-de3f-41c9-b47f-ff6c3f6c4612"},"vehicle_type_id":"4","last_reported":1729422452,"current_range_meters":30000,"station_id":"cpo3342slgdg3j2ifvpg","pricing_plan_id":"cebpf4jnsgd1na2vs0mg"},{"bike_id":"2449d10d-d413-4d08-b927-7727aa996a98","system_id":"levelo_inurba_marseille","lat":43.25819,"lon":5.39435,"is_reserved":false,"is_disabled":false,"rental_uris":{"android":"levelo://app?vid=2449d10d-d413-4d08-b927-7727aa996a98","ios":"levelo://app?vid=2449d10d-d413-4d08-b927-7727aa996a98"},"vehicle_type_id":"4","last_reported":1729422452,"current_range_meters":36000,"station_id":"ce4bhip2rcd13ifvqft0","pricing_plan_id":"cebpf4jnsgd1na2vs0mg"},{"bike_id":"55db8f42-23bd-4392-8ec9-a610bf3f941d","system_id":"levelo_inurba_marseille","lat":43.29201,"lon":5.35799,"is_reserved":false,"is_disabled":false,"rental_uris":{"android":"levelo://app?vid=55db8f42-23bd-4392-8ec9-a610bf3f941d","ios":"levelo://app?vid=55db8f42-23bd-4392-8ec9-a610bf3f941d"},"vehicle_type_id":"4","last_reported":1729422452,"current_range_meters":17200,"station_id":"ce4bhb12rcd13ifvqel0","pricing_plan_id":"cebpf4jnsgd1na2vs0mg"},{"bike_id":"f3b18d4c-688e-4e02-9104-7f1d559134af","system_id":"levelo_inurba_marseille","lat":43.32099,"lon":5.36774,"is_reserved":false,"is_disabled":false,"rental_uris":{"android":"levelo://app?vid=f3b18d4c-688e-4e02-9104-7f1d559134af","ios":"levelo://app?vid=f3b18d4c-688e-4e02-9104-7f1d559134af"},"vehicle_type_id":"4","last_reported":1729422452,"current_range_meters":36800,"station_id":"ce4bhrh2rcd13ifvqhug","pricing_plan_id":"cebpf4jnsgd1na2vs0mg"},{"bike_id":"99a36e8e-83dc-4174-97c1-e95b5764b998","system_id":"levelo_inurba_marseille","lat":43.23971,"lon":5.36619,"is_reserved":false,"is_disabled":false,"rental_uris":{"android":"levelo://app?vid=99a36e8e-83dc-4174-97c1-e95b5764b998","ios":"levelo://app?vid=99a36e8e-83dc-4174-97c1-e95b5764b998"},"vehicle_type_id":"4","last_reported":1729422452,"current_range_meters":9200,"station_id":"ce4bhi12rcd13ifvqfp0","pricing_plan_id":"cebpf4jnsgd1na2vs0mg"},{"bike_id":"044e7643-e166-4e08-bae3-a8ed673622ad","system_id":"levelo_inurba_marseille","lat":43.27065,"lon":5.42275,"is_reserved":false,"is_disabled":false,"rental_uris":{"android":"levelo://app?vid=044e7643-e166-4e08-bae3-a8ed673622ad","ios":"levelo://app?vid=044e7643-e166-4e08-bae3-a8ed673622ad"},"vehicle_type_id":"4","last_reported":1729422452,"current_range_meters":39200,"station_id":"ce4bhk92rcd13ifvqgb0","pricing_plan_id":"cebpf4jnsgd1na2vs0mg"},{"bike_id":"8a61b0d3-96ba-49fc-af75-dd8176297036","system_id":"levelo_inurba_marseille","lat":43.23966,"lon":5.36617,"is_reserved":false,"is_disabled":false,"rental_uris":{"android":"levelo://app?vid=8a61b0d3-96ba-49fc-af75-dd8176297036","ios":"levelo://app?vid=8a61b0d3-96ba-49fc-af75-dd8176297036"},"vehicle_type_id":"4","last_reported":1729422452,"current_range_meters":9200,"station_id":"ce4bhi12rcd13ifvqfp0","pricing_plan_id":"cebpf4jnsgd1na2vs0mg"},{"bike_id":"56d4d1e8-42f5-4ec8-8568-50f6101cf00a","system_id":"levelo_inurba_marseille","lat":43.24662,"lon":5.38162,"is_reserved":false,"is_disabled":false,"rental_uris":{"android":"levelo://app?vid=56d4d1e8-42f5-4ec8-8568-50f6101cf00a","ios":"levelo://app?vid=56d4d1e8-42f5-4ec8-8568-50f6101cf00a"},"vehicle_type_id":"4","last_reported":1729422452,"current_range_meters":28400,"station_id":"ce4bhih2rcd13ifvqfr0","pricing_plan_id":"cebpf4jnsgd1na2vs0mg"},{"bike_id":"66467db3-1fe2-42ae-8fff-e5568a4cb81f","system_id":"levelo_inurba_marseille","lat":43.33011,"lon":5.39034,"is_reserved":false,"is_disabled":false,"rental_uris":{"android":"levelo://app?vid=66467db3-1fe2-42ae-8fff-e5568a4cb81f","ios":"levelo://app?vid=66467db3-1fe2-42ae-8fff-e5568a4cb81f"},"vehicle_type_id":"4","last_reported":1729422452,"current_range_meters":38800,"station_id":"ce4bhr92rcd13ifvqhrg","pricing_plan_id":"cebpf4jnsgd1na2vs0mg"},{"bike_id":"85d3ade6-3665-431a-a885-89ce0aed83ce","system_id":"levelo_inurba_marseille","lat":43.33605,"lon":5.41026,"is_reserved":false,"is_disabled":false,"rental_uris":{"android":"levelo://app?vid=85d3ade6-3665-431a-a885-89ce0aed83ce","ios":"levelo://app?vid=85d3ade6-3665-431a-a885-89ce0aed83ce"},"vehicle_type_id":"4","last_reported":1729422452,"current_range_meters":17200,"station_id":"ce4bhqh2rcd13ifvqhmg","pricing_plan_id":"cebpf4jnsgd1na2vs0mg"},{"bike_id":"3bedd342-1e07-47c0-8594-3707dd15da65","system_id":"levelo_inurba_marseille","lat":43.29422,"lon":5.38625,"is_reserved":false,"is_disabled":false,"rental_uris":{"android":"levelo://app?vid=3bedd342-1e07-47c0-8594-3707dd15da65","ios":"levelo://app?vid=3bedd342-1e07-47c0-8594-3707dd15da65"},"vehicle_type_id":"4","last_reported":1729422452,"current_range_meters":9600,"station_id":"ce4bh2h2rcd13ifvqdh0","pricing_plan_id":"cebpf4jnsgd1na2vs0mg"},{"bike_id":"554c25bf-6348-4ef4-9525-96b062ddf7c6","system_id":"levelo_inurba_marseille","lat":43.26205,"lon":5.37935,"is_reserved":false,"is_disabled":false,"rental_uris":{"android":"levelo://app?vid=554c25bf-6348-4ef4-9525-96b062ddf7c6","ios":"levelo://app?vid=554c25bf-6348-4ef4-9525-96b062ddf7c6"},"vehicle_type_id":"4","last_reported":1729422452,"current_range_meters":32000,"station_id":"ce4bhjp2rcd13ifvqg90","pricing_plan_id":"cebpf4jnsgd1na2vs0mg"},{"bike_id":"aad71523-dd0e-43d2-bc68-c70147db6945","system_id":"levelo_inurba_marseille","lat":43.29005,"lon":5.35613,"is_reserved":false,"is_disabled":false,"rental_uris":{"android":"levelo://app?vid=aad71523-dd0e-43d2-bc68-c70147db6945","ios":"levelo://app?vid=aad71523-dd0e-43d2-bc68-c70147db6945"},"vehicle_type_id":"4","last_reported":1729422452,"current_range_meters":38800,"station_id":"ce4bhb92rcd13ifvqen0","pricing_plan_id":"cebpf4jnsgd1na2vs0mg"},{"bike_id":"a47097b6-9e9e-494d-a56f-5da46fa92d1e","system_id":"levelo_inurba_marseille","lat":43.25002,"lon":5.38935,"is_reserved":false,"is_disabled":false,"rental_uris":{"android":"levelo://app?vid=a47097b6-9e9e-494d-a56f-5da46fa92d1e","ios":"levelo://app?vid=a47097b6-9e9e-494d-a56f-5da46fa92d1e"},"vehicle_type_id":"4","last_reported":1729422452,"current_range_meters":4000,"station_id":"ce4bhgp2rcd13ifvqfd0","pricing_plan_id":"cebpf4jnsgd1na2vs0mg"},{"bike_id":"a67d5e3f-b657-4502-a21f-e7323f5bb95e","system_id":"levelo_inurba_marseille","lat":43.24386,"lon":5.37063,"is_reserved":false,"is_disabled":false,"rental_uris":{"android":"levelo://app?vid=a67d5e3f-b657-4502-a21f-e7323f5bb95e","ios":"levelo://app?vid=a67d5e3f-b657-4502-a21f-e7323f5bb95e"},"vehicle_type_id":"4","last_reported":1729422452,"current_range_meters":18000,"station_id":"ce4bhhh2rcd13ifvqfk0","pricing_plan_id":"cebpf4jnsgd1na2vs0mg"},{"bike_id":"23dc918d-4e03-4bb2-9131-d2693e31b0f9","system_id":"levelo_inurba_marseille","lat":43.28618,"lon":5.35105,"is_reserved":false,"is_disabled":false,"rental_uris":{"android":"levelo://app?vid=23dc918d-4e03-4bb2-9131-d2693e31b0f9","ios":"levelo://app?vid=23dc918d-4e03-4bb2-9131-d2693e31b0f9"},"vehicle_type_id":"4","last_reported":1729422452,"current_range_meters":37600,"station_id":"ce4bhch2rcd13ifvqeug","pricing_plan_id":"cebpf4jnsgd1na2vs0mg"},{"bike_id":"f9b3de78-0a7a-448f-900c-725df95752d1","system_id":"levelo_inurba_marseille","lat":43.27371,"lon":5.36257,"is_reserved":false,"is_disabled":false,"rental_uris":{"android":"levelo://app?vid=f9b3de78-0a7a-448f-900c-725df95752d1","ios":"levelo://app?vid=f9b3de78-0a7a-448f-900c-725df95752d1"},"vehicle_type_id":"4","last_reported":1729422452,"current_range_meters":38800,"station_id":"ce4bhbh2rcd13ifvqeo0","pricing_plan_id":"cebpf4jnsgd1na2vs0mg"},{"bike_id":"4c53f1f3-9e2d-404a-9b81-8f8eccabaff7","system_id":"levelo_inurba_marseille","lat":43.29256,"lon":5.36853,"is_reserved":false,"is_disabled":false,"rental_uris":{"android":"levelo://app?vid=4c53f1f3-9e2d-404a-9b81-8f8eccabaff7","ios":"levelo://app?vid=4c53f1f3-9e2d-404a-9b81-8f8eccabaff7"},"vehicle_type_id":"4","last_reported":1729422452,"current_range_meters":24800,"station_id":"ce4bhbp2rcd13ifvqesg","pricing_plan_id":"cebpf4jnsgd1na2vs0mg"},{"bike_id":"4f357a8f-803f-4ef1-b82a-19fa9f305e74","system_id":"levelo_inurba_marseille","lat":43.23195,"lon":5.35555,"is_reserved":false,"is_disabled":false,"rental_uris":{"android":"levelo://app?vid=4f357a8f-803f-4ef1-b82a-19fa9f305e74","ios":"levelo://app?vid=4f357a8f-803f-4ef1-b82a-19fa9f305e74"},"vehicle_type_id":"4","last_reported":1729422452,"current_range_meters":37600,"station_id":"ce4bhu92rcd13ifvqi70","pricing_plan_id":"cebpf4jnsgd1na2vs0mg"},{"bike_id":"870a0567-683b-4d05-928b-954fe947f3ad","system_id":"levelo_inurba_marseille","lat":43.30797,"lon":5.38167,"is_reserved":false,"is_disabled":false,"rental_uris":{"android":"levelo://app?vid=870a0567-683b-4d05-928b-954fe947f3ad","ios":"levelo://app?vid=870a0567-683b-4d05-928b-954fe947f3ad"},"vehicle_type_id":"4","last_reported":1729422452,"current_range_meters":36800,"station_id":"","pricing_plan_id":"cebpf4jnsgd1na2vs0mg"},{"bike_id":"57d6c459-9f04-4869-8203-b0341cdb2874","system_id":"levelo_inurba_marseille","lat":43.290009,"lon":5.356181,"is_reserved":false,"is_disabled":false,"rental_uris":{"android":"levelo://app?vid=57d6c459-9f04-4869-8203-b0341cdb2874","ios":"levelo://app?vid=57d6c459-9f04-4869-8203-b0341cdb2874"},"vehicle_type_id":"4","last_reported":1729422452,"current_range_meters":20000,"station_id":"","pricing_plan_id":"cebpf4jnsgd1na2vs0mg"},{"bike_id":"00628067-a533-4c3d-ba92-5303b07ceaf2","system_id":"levelo_inurba_marseille","lat":43.24404,"lon":5.37077,"is_reserved":false,"is_disabled":false,"rental_uris":{"android":"levelo://app?vid=00628067-a533-4c3d-ba92-5303b07ceaf2","ios":"levelo://app?vid=00628067-a533-4c3d-ba92-5303b07ceaf2"},"vehicle_type_id":"4","last_reported":1729422452,"current_range_meters":32000,"station_id":"ce4bhhh2rcd13ifvqfk0","pricing_plan_id":"cebpf4jnsgd1na2vs0mg"},{"bike_id":"efa6f327-e206-4e40-b260-65af578f4fb7","system_id":"levelo_inurba_marseille","lat":43.26805,"lon":5.40265,"is_reserved":false,"is_disabled":false,"rental_uris":{"android":"levelo://app?vid=efa6f327-e206-4e40-b260-65af578f4fb7","ios":"levelo://app?vid=efa6f327-e206-4e40-b260-65af578f4fb7"},"vehicle_type_id":"4","last_reported":1729422452,"current_range_meters":36000,"station_id":"ce501612rcd8frsf0b60","pricing_plan_id":"cebpf4jnsgd1na2vs0mg"},{"bike_id":"26a20b9f-0aba-436e-8ab5-e084bd9000ad","system_id":"levelo_inurba_marseille","lat":43.30297,"lon":5.37709,"is_reserved":false,"is_disabled":false,"rental_uris":{"android":"levelo://app?vid=26a20b9f-0aba-436e-8ab5-e084bd9000ad","ios":"levelo://app?vid=26a20b9f-0aba-436e-8ab5-e084bd9000ad"},"vehicle_type_id":"4","last_reported":1729422452,"current_range_meters":24800,"station_id":"ce4bguh2rcd13ifvqcj0","pricing_plan_id":"cebpf4jnsgd1na2vs0mg"},{"bike_id":"e78e5b07-8aad-4233-8caa-3a2852780ccb","system_id":"levelo_inurba_marseille","lat":43.23972,"lon":5.36615,"is_reserved":false,"is_disabled":false,"rental_uris":{"android":"levelo://app?vid=e78e5b07-8aad-4233-8caa-3a2852780ccb","ios":"levelo://app?vid=e78e5b07-8aad-4233-8caa-3a2852780ccb"},"vehicle_type_id":"4","last_reported":1729422452,"current_range_meters":17200,"station_id":"ce4bhi12rcd13ifvqfp0","pricing_plan_id":"cebpf4jnsgd1na2vs0mg"},{"bike_id":"285f410e-d303-48c4-9396-821ec24fb52e","system_id":"levelo_inurba_marseille","lat":43.31361,"lon":5.38489,"is_reserved":false,"is_disabled":false,"rental_uris":{"android":"levelo://app?vid=285f410e-d303-48c4-9396-821ec24fb52e","ios":"levelo://app?vid=285f410e-d303-48c4-9396-821ec24fb52e"},"vehicle_type_id":"4","last_reported":1729422452,"current_range_meters":15200,"station_id":"ce4bgt92rcd13ifvqcf0","pricing_plan_id":"cebpf4jnsgd1na2vs0mg"},{"bike_id":"f84dc825-091c-4127-94bf-0680567bd94d","system_id":"levelo_inurba_marseille","lat":43.28267,"lon":5.35067,"is_reserved":false,"is_disabled":false,"rental_uris":{"android":"levelo://app?vid=f84dc825-091c-4127-94bf-0680567bd94d","ios":"levelo://app?vid=f84dc825-091c-4127-94bf-0680567bd94d"},"vehicle_type_id":"4","last_reported":1729422452,"current_range_meters":40000,"station_id":"ce4bhbp2rcd13ifvqerg","pricing_plan_id":"cebpf4jnsgd1na2vs0mg"},{"bike_id":"9362a3c1-a524-424a-8405-9c9a41216ff5","system_id":"levelo_inurba_marseille","lat":43.28278,"lon":5.35076,"is_reserved":false,"is_disabled":false,"rental_uris":{"android":"levelo://app?vid=9362a3c1-a524-424a-8405-9c9a41216ff5","ios":"levelo://app?vid=9362a3c1-a524-424a-8405-9c9a41216ff5"},"vehicle_type_id":"4","last_reported":1729422452,"current_range_meters":36800,"station_id":"ce4bhbp2rcd13ifvqerg","pricing_plan_id":"cebpf4jnsgd1na2vs0mg"},{"bike_id":"3c807220-758f-40c8-b4f1-96669d1b8d8b","system_id":"levelo_inurba_marseille","lat":43.2319,"lon":5.35557,"is_reserved":false,"is_disabled":false,"rental_uris":{"android":"levelo://app?vid=3c807220-758f-40c8-b4f1-96669d1b8d8b","ios":"levelo://app?vid=3c807220-758f-40c8-b4f1-96669d1b8d8b"},"vehicle_type_id":"4","last_reported":1729422452,"current_range_meters":34000,"station_id":"ce4bhu92rcd13ifvqi70","pricing_plan_id":"cebpf4jnsgd1na2vs0mg"},{"bike_id":"c11b0555-b997-4036-8536-79587f1a9f2e","system_id":"levelo_inurba_marseille","lat":43.27673,"lon":5.38904,"is_reserved":false,"is_disabled":false,"rental_uris":{"android":"levelo://app?vid=c11b0555-b997-4036-8536-79587f1a9f2e","ios":"levelo://app?vid=c11b0555-b997-4036-8536-79587f1a9f2e"},"vehicle_type_id":"4","last_reported":1729422452,"current_range_meters":32800,"station_id":"ce4bhi12rcd13ifvqfo0","pricing_plan_id":"cebpf4jnsgd1na2vs0mg"},{"bike_id":"b5c40a57-fde0-4b3a-8522-4717ef7108e9","system_id":"levelo_inurba_marseille","lat":43.310718,"lon":5.400911,"is_reserved":false,"is_disabled":false,"rental_uris":{"android":"levelo://app?vid=b5c40a57-fde0-4b3a-8522-4717ef7108e9","ios":"levelo://app?vid=b5c40a57-fde0-4b3a-8522-4717ef7108e9"},"vehicle_type_id":"4","last_reported":1729422452,"current_range_meters":2000,"station_id":"","pricing_plan_id":"cebpf4jnsgd1na2vs0mg"},{"bike_id":"03eb1a7a-6b4f-4ede-b7b4-76daf8714793","system_id":"levelo_inurba_marseille","lat":43.28613,"lon":5.35101,"is_reserved":false,"is_disabled":false,"rental_uris":{"android":"levelo://app?vid=03eb1a7a-6b4f-4ede-b7b4-76daf8714793","ios":"levelo://app?vid=03eb1a7a-6b4f-4ede-b7b4-76daf8714793"},"vehicle_type_id":"4","last_reported":1729422452,"current_range_meters":35200,"station_id":"ce4bhch2rcd13ifvqeug","pricing_plan_id":"cebpf4jnsgd1na2vs0mg"},{"bike_id":"6955ec0f-6191-4323-8dda-74bb7a9f5b4a","system_id":"levelo_inurba_marseille","lat":43.25718,"lon":5.41113,"is_reserved":false,"is_disabled":false,"rental_uris":{"android":"levelo://app?vid=6955ec0f-6191-4323-8dda-74bb7a9f5b4a","ios":"levelo://app?vid=6955ec0f-6191-4323-8dda-74bb7a9f5b4a"},"vehicle_type_id":"4","last_reported":1729422452,"current_range_meters":37600,"station_id":"ce4bhkp2rcd13ifvqgd0","pricing_plan_id":"cebpf4jnsgd1na2vs0mg"},{"bike_id":"b95a8c11-b656-421e-9353-ddf03b2a496f","system_id":"levelo_inurba_marseille","lat":43.23153,"lon":5.43718,"is_reserved":false,"is_disabled":false,"rental_uris":{"android":"levelo://app?vid=b95a8c11-b656-421e-9353-ddf03b2a496f","ios":"levelo://app?vid=b95a8c11-b656-421e-9353-ddf03b2a496f"},"vehicle_type_id":"4","last_reported":1729422452,"current_range_meters":10800,"station_id":"ce4bhmp2rcd13ifvqgog","pricing_plan_id":"cebpf4jnsgd1na2vs0mg"},{"bike_id":"961ca728-23dc-46ad-9caa-a1da61086e42","system_id":"levelo_inurba_marseille","lat":43.30547,"lon":5.36533,"is_reserved":false,"is_disabled":false,"rental_uris":{"android":"levelo://app?vid=961ca728-23dc-46ad-9caa-a1da61086e42","ios":"levelo://app?vid=961ca728-23dc-46ad-9caa-a1da61086e42"},"vehicle_type_id":"4","last_reported":1729422452,"current_range_meters":27600,"station_id":"ce4bgs12rcd13ifvqcag","pricing_plan_id":"cebpf4jnsgd1na2vs0mg"},{"bike_id":"227f5fde-28cd-413c-93a4-ce49dfdd4204","system_id":"levelo_inurba_marseille","lat":43.24072,"lon":5.37764,"is_reserved":false,"is_disabled":false,"rental_uris":{"android":"levelo://app?vid=227f5fde-28cd-413c-93a4-ce49dfdd4204","ios":"levelo://app?vid=227f5fde-28cd-413c-93a4-ce49dfdd4204"},"vehicle_type_id":"4","last_reported":1729422452,"current_range_meters":24800,"station_id":"ce4bhnp2rcd13ifvqgvg","pricing_plan_id":"cebpf4jnsgd1na2vs0mg"},{"bike_id":"424bfe46-3c8d-4367-8c73-d1acb0dbe4f4","system_id":"levelo_inurba_marseille","lat":43.28279,"lon":5.35071,"is_reserved":false,"is_disabled":false,"rental_uris":{"android":"levelo://app?vid=424bfe46-3c8d-4367-8c73-d1acb0dbe4f4","ios":"levelo://app?vid=424bfe46-3c8d-4367-8c73-d1acb0dbe4f4"},"vehicle_type_id":"4","last_reported":1729422452,"current_range_meters":16000,"station_id":"ce4bhbp2rcd13ifvqerg","pricing_plan_id":"cebpf4jnsgd1na2vs0mg"},{"bike_id":"112c654a-42f6-4604-837a-9ab43ce0e535","system_id":"levelo_inurba_marseille","lat":43.29005,"lon":5.356136,"is_reserved":false,"is_disabled":false,"rental_uris":{"android":"levelo://app?vid=112c654a-42f6-4604-837a-9ab43ce0e535","ios":"levelo://app?vid=112c654a-42f6-4604-837a-9ab43ce0e535"},"vehicle_type_id":"4","last_reported":1729422452,"current_range_meters":20400,"station_id":"ce4bhb92rcd13ifvqen0","pricing_plan_id":"cebpf4jnsgd1na2vs0mg"},{"bike_id":"77291753-8c8c-4497-aa81-5ef2d0e5d1d8","system_id":"levelo_inurba_marseille","lat":43.28425,"lon":5.34989,"is_reserved":false,"is_disabled":false,"rental_uris":{"android":"levelo://app?vid=77291753-8c8c-4497-aa81-5ef2d0e5d1d8","ios":"levelo://app?vid=77291753-8c8c-4497-aa81-5ef2d0e5d1d8"},"vehicle_type_id":"4","last_reported":1729422452,"current_range_meters":35600,"station_id":"ce4bhbh2rcd13ifvqepg","pricing_plan_id":"cebpf4jnsgd1na2vs0mg"},{"bike_id":"2a08c57d-cd27-4165-b6f5-876d763cf3a1","system_id":"levelo_inurba_marseille","lat":43.28421,"lon":5.34987,"is_reserved":false,"is_disabled":false,"rental_uris":{"android":"levelo://app?vid=2a08c57d-cd27-4165-b6f5-876d763cf3a1","ios":"levelo://app?vid=2a08c57d-cd27-4165-b6f5-876d763cf3a1"},"vehicle_type_id":"4","last_reported":1729422452,"current_range_meters":36800,"station_id":"ce4bhbh2rcd13ifvqepg","pricing_plan_id":"cebpf4jnsgd1na2vs0mg"},{"bike_id":"92a22c52-ca63-4430-8a25-90e2f5f96d23","system_id":"levelo_inurba_marseille","lat":43.24657,"lon":5.38169,"is_reserved":false,"is_disabled":false,"rental_uris":{"android":"levelo://app?vid=92a22c52-ca63-4430-8a25-90e2f5f96d23","ios":"levelo://app?vid=92a22c52-ca63-4430-8a25-90e2f5f96d23"},"vehicle_type_id":"4","last_reported":1729422452,"current_range_meters":4800,"station_id":"ce4bhih2rcd13ifvqfr0","pricing_plan_id":"cebpf4jnsgd1na2vs0mg"},{"bike_id":"b952f70c-3710-40db-86a6-eb24dc11b3ca","system_id":"levelo_inurba_marseille","lat":43.32491,"lon":5.36557,"is_reserved":false,"is_disabled":false,"rental_uris":{"android":"levelo://app?vid=b952f70c-3710-40db-86a6-eb24dc11b3ca","ios":"levelo://app?vid=b952f70c-3710-40db-86a6-eb24dc11b3ca"},"vehicle_type_id":"4","last_reported":1729422452,"current_range_meters":38800,"station_id":"ce4bhs12rcd13ifvqhvg","pricing_plan_id":"cebpf4jnsgd1na2vs0mg"},{"bike_id":"2d4d859a-6a51-4e5c-a842-75354e6e4217","system_id":"levelo_inurba_marseille","lat":43.33017,"lon":5.39036,"is_reserved":false,"is_disabled":false,"rental_uris":{"android":"levelo://app?vid=2d4d859a-6a51-4e5c-a842-75354e6e4217","ios":"levelo://app?vid=2d4d859a-6a51-4e5c-a842-75354e6e4217"},"vehicle_type_id":"4","last_reported":1729422452,"current_range_meters":8000,"station_id":"ce4bhr92rcd13ifvqhrg","pricing_plan_id":"cebpf4jnsgd1na2vs0mg"},{"bike_id":"81949998-e424-4b52-9de2-8d2346e8926c","system_id":"levelo_inurba_marseille","lat":43.28622,"lon":5.35108,"is_reserved":false,"is_disabled":false,"rental_uris":{"android":"levelo://app?vid=81949998-e424-4b52-9de2-8d2346e8926c","ios":"levelo://app?vid=81949998-e424-4b52-9de2-8d2346e8926c"},"vehicle_type_id":"4","last_reported":1729422452,"current_range_meters":35200,"station_id":"ce4bhch2rcd13ifvqeug","pricing_plan_id":"cebpf4jnsgd1na2vs0mg"},{"bike_id":"b5d2d5bd-e19c-4bde-b5ea-93a31869f3e9","system_id":"levelo_inurba_marseille","lat":43.28424,"lon":5.34992,"is_reserved":false,"is_disabled":false,"rental_uris":{"android":"levelo://app?vid=b5d2d5bd-e19c-4bde-b5ea-93a31869f3e9","ios":"levelo://app?vid=b5d2d5bd-e19c-4bde-b5ea-93a31869f3e9"},"vehicle_type_id":"4","last_reported":1729422452,"current_range_meters":36000,"station_id":"ce4bhbh2rcd13ifvqepg","pricing_plan_id":"cebpf4jnsgd1na2vs0mg"},{"bike_id":"2d9e3df1-0dca-43ea-b82c-f5159aab9faa","system_id":"levelo_inurba_marseille","lat":43.23975,"lon":5.36619,"is_reserved":false,"is_disabled":false,"rental_uris":{"android":"levelo://app?vid=2d9e3df1-0dca-43ea-b82c-f5159aab9faa","ios":"levelo://app?vid=2d9e3df1-0dca-43ea-b82c-f5159aab9faa"},"vehicle_type_id":"4","last_reported":1729422452,"current_range_meters":19200,"station_id":"ce4bhi12rcd13ifvqfp0","pricing_plan_id":"cebpf4jnsgd1na2vs0mg"},{"bike_id":"48a16bc1-29b7-46af-9e05-9a9658f9a83a","system_id":"levelo_inurba_marseille","lat":43.25582,"lon":5.38225,"is_reserved":false,"is_disabled":false,"rental_uris":{"android":"levelo://app?vid=48a16bc1-29b7-46af-9e05-9a9658f9a83a","ios":"levelo://app?vid=48a16bc1-29b7-46af-9e05-9a9658f9a83a"},"vehicle_type_id":"4","last_reported":1729422452,"current_range_meters":20400,"station_id":"ce4bhih2rcd13ifvqfs0","pricing_plan_id":"cebpf4jnsgd1na2vs0mg"},{"bike_id":"d6a385a2-77b0-433b-9501-5c61817b36da","system_id":"levelo_inurba_marseille","lat":43.30549,"lon":5.36529,"is_reserved":false,"is_disabled":false,"rental_uris":{"android":"levelo://app?vid=d6a385a2-77b0-433b-9501-5c61817b36da","ios":"levelo://app?vid=d6a385a2-77b0-433b-9501-5c61817b36da"},"vehicle_type_id":"4","last_reported":1729422452,"current_range_meters":17200,"station_id":"ce4bgs12rcd13ifvqcag","pricing_plan_id":"cebpf4jnsgd1na2vs0mg"},{"bike_id":"05b8193f-bc22-4576-baed-469134fa9e54","system_id":"levelo_inurba_marseille","lat":43.274933,"lon":5.389345,"is_reserved":false,"is_disabled":false,"rental_uris":{"android":"levelo://app?vid=05b8193f-bc22-4576-baed-469134fa9e54","ios":"levelo://app?vid=05b8193f-bc22-4576-baed-469134fa9e54"},"vehicle_type_id":"4","last_reported":1729422452,"current_range_meters":26000,"station_id":"ce4bh292rcd13ifvqdf0","pricing_plan_id":"cebpf4jnsgd1na2vs0mg"},{"bike_id":"765477b4-7648-4c7a-8240-1916f126a509","system_id":"levelo_inurba_marseille","lat":43.28151,"lon":5.42641,"is_reserved":false,"is_disabled":false,"rental_uris":{"android":"levelo://app?vid=765477b4-7648-4c7a-8240-1916f126a509","ios":"levelo://app?vid=765477b4-7648-4c7a-8240-1916f126a509"},"vehicle_type_id":"4","last_reported":1729422452,"current_range_meters":38000,"station_id":"ce4bhnh2rcd13ifvqgug","pricing_plan_id":"cebpf4jnsgd1na2vs0mg"},{"bike_id":"5c28a995-646a-4a1d-888e-296e57e3c789","system_id":"levelo_inurba_marseille","lat":43.23971,"lon":5.36618,"is_reserved":false,"is_disabled":false,"rental_uris":{"android":"levelo://app?vid=5c28a995-646a-4a1d-888e-296e57e3c789","ios":"levelo://app?vid=5c28a995-646a-4a1d-888e-296e57e3c789"},"vehicle_type_id":"4","last_reported":1729422452,"current_range_meters":32000,"station_id":"ce4bhi12rcd13ifvqfp0","pricing_plan_id":"cebpf4jnsgd1na2vs0mg"},{"bike_id":"7e24ee81-bd98-44b0-8370-378005dd6816","system_id":"levelo_inurba_marseille","lat":43.27836,"lon":5.39212,"is_reserved":false,"is_disabled":false,"rental_uris":{"android":"levelo://app?vid=7e24ee81-bd98-44b0-8370-378005dd6816","ios":"levelo://app?vid=7e24ee81-bd98-44b0-8370-378005dd6816"},"vehicle_type_id":"4","last_reported":1729422452,"current_range_meters":8400,"station_id":"ce4bhjp2rcd13ifvqga0","pricing_plan_id":"cebpf4jnsgd1na2vs0mg"},{"bike_id":"ce22d5e5-f59f-4b87-ac60-c00da0fe5a1e","system_id":"levelo_inurba_marseille","lat":43.30273,"lon":5.37727,"is_reserved":false,"is_disabled":false,"rental_uris":{"android":"levelo://app?vid=ce22d5e5-f59f-4b87-ac60-c00da0fe5a1e","ios":"levelo://app?vid=ce22d5e5-f59f-4b87-ac60-c00da0fe5a1e"},"vehicle_type_id":"4","last_reported":1729422452,"current_range_meters":24400,"station_id":"ce4bguh2rcd13ifvqcj0","pricing_plan_id":"cebpf4jnsgd1na2vs0mg"},{"bike_id":"557bcd68-b511-41ab-b8c2-9bb0d1d4a898","system_id":"levelo_inurba_marseille","lat":43.30536,"lon":5.36557,"is_reserved":false,"is_disabled":false,"rental_uris":{"android":"levelo://app?vid=557bcd68-b511-41ab-b8c2-9bb0d1d4a898","ios":"levelo://app?vid=557bcd68-b511-41ab-b8c2-9bb0d1d4a898"},"vehicle_type_id":"4","last_reported":1729422452,"current_range_meters":8000,"station_id":"ce4bgs12rcd13ifvqcag","pricing_plan_id":"cebpf4jnsgd1na2vs0mg"},{"bike_id":"e9d6bd79-d122-4ee4-91a9-ecfca56c86b9","system_id":"levelo_inurba_marseille","lat":43.24811,"lon":5.37455,"is_reserved":false,"is_disabled":false,"rental_uris":{"android":"levelo://app?vid=e9d6bd79-d122-4ee4-91a9-ecfca56c86b9","ios":"levelo://app?vid=e9d6bd79-d122-4ee4-91a9-ecfca56c86b9"},"vehicle_type_id":"4","last_reported":1729422452,"current_range_meters":35200,"station_id":"ce4bhgh2rcd13ifvqfb0","pricing_plan_id":"cebpf4jnsgd1na2vs0mg"},{"bike_id":"85614e6d-cf15-4015-9df0-f43352d86a8b","system_id":"levelo_inurba_marseille","lat":43.30531,"lon":5.36544,"is_reserved":false,"is_disabled":false,"rental_uris":{"android":"levelo://app?vid=85614e6d-cf15-4015-9df0-f43352d86a8b","ios":"levelo://app?vid=85614e6d-cf15-4015-9df0-f43352d86a8b"},"vehicle_type_id":"4","last_reported":1729422452,"current_range_meters":22800,"station_id":"ce4bguh2rcd13ifvqcj0","pricing_plan_id":"cebpf4jnsgd1na2vs0mg"},{"bike_id":"07cd18cb-aa79-45eb-a562-19050df12eb6","system_id":"levelo_inurba_marseille","lat":43.28271,"lon":5.35075,"is_reserved":false,"is_disabled":false,"rental_uris":{"android":"levelo://app?vid=07cd18cb-aa79-45eb-a562-19050df12eb6","ios":"levelo://app?vid=07cd18cb-aa79-45eb-a562-19050df12eb6"},"vehicle_type_id":"4","last_reported":1729422452,"current_range_meters":21600,"station_id":"ce4bhbp2rcd13ifvqerg","pricing_plan_id":"cebpf4jnsgd1na2vs0mg"},{"bike_id":"713da15a-0207-43a1-ba42-2011ec506f3a","system_id":"levelo_inurba_marseille","lat":43.30146,"lon":5.38074,"is_reserved":false,"is_disabled":false,"rental_uris":{"android":"levelo://app?vid=713da15a-0207-43a1-ba42-2011ec506f3a","ios":"levelo://app?vid=713da15a-0207-43a1-ba42-2011ec506f3a"},"vehicle_type_id":"4","last_reported":1729422452,"current_range_meters":6000,"station_id":"ce4bgjp2rcd13ifvqbh0","pricing_plan_id":"cebpf4jnsgd1na2vs0mg"},{"bike_id":"231da582-d5ab-478c-a0b3-9cbde38c83f0","system_id":"levelo_inurba_marseille","lat":43.30546,"lon":5.36556,"is_reserved":false,"is_disabled":false,"rental_uris":{"android":"levelo://app?vid=231da582-d5ab-478c-a0b3-9cbde38c83f0","ios":"levelo://app?vid=231da582-d5ab-478c-a0b3-9cbde38c83f0"},"vehicle_type_id":"4","last_reported":1729422452,"current_range_meters":28800,"station_id":"ce4bgs12rcd13ifvqcag","pricing_plan_id":"cebpf4jnsgd1na2vs0mg"},{"bike_id":"c11dc572-c773-4031-b113-bf274cf2973f","system_id":"levelo_inurba_marseille","lat":43.30211,"lon":5.3946,"is_reserved":false,"is_disabled":false,"rental_uris":{"android":"levelo://app?vid=c11dc572-c773-4031-b113-bf274cf2973f","ios":"levelo://app?vid=c11dc572-c773-4031-b113-bf274cf2973f"},"vehicle_type_id":"4","last_reported":1729422452,"current_range_meters":22000,"station_id":"ce4bh0p2rcd13ifvqd70","pricing_plan_id":"cebpf4jnsgd1na2vs0mg"},{"bike_id":"8607dfae-0230-4a05-8be2-80542b6f7da9","system_id":"levelo_inurba_marseille","lat":43.24079,"lon":5.37758,"is_reserved":false,"is_disabled":false,"rental_uris":{"android":"levelo://app?vid=8607dfae-0230-4a05-8be2-80542b6f7da9","ios":"levelo://app?vid=8607dfae-0230-4a05-8be2-80542b6f7da9"},"vehicle_type_id":"4","last_reported":1729422452,"current_range_meters":25600,"station_id":"ce4bhnp2rcd13ifvqgvg","pricing_plan_id":"cebpf4jnsgd1na2vs0mg"},{"bike_id":"4ad1d9ad-463a-475b-9b0b-f50724b0fcb3","system_id":"levelo_inurba_marseille","lat":43.26557,"lon":5.37287,"is_reserved":false,"is_disabled":false,"rental_uris":{"android":"levelo://app?vid=4ad1d9ad-463a-475b-9b0b-f50724b0fcb3","ios":"levelo://app?vid=4ad1d9ad-463a-475b-9b0b-f50724b0fcb3"},"vehicle_type_id":"4","last_reported":1729422452,"current_range_meters":19200,"station_id":"ce4bhg12rcd13ifvqf70","pricing_plan_id":"cebpf4jnsgd1na2vs0mg"},{"bike_id":"401d27b2-8f28-45bb-8c0a-e379ec341dd1","system_id":"levelo_inurba_marseille","lat":43.23965,"lon":5.36638,"is_reserved":false,"is_disabled":false,"rental_uris":{"android":"levelo://app?vid=401d27b2-8f28-45bb-8c0a-e379ec341dd1","ios":"levelo://app?vid=401d27b2-8f28-45bb-8c0a-e379ec341dd1"},"vehicle_type_id":"4","last_reported":1729422452,"current_range_meters":33200,"station_id":"ce4bhi12rcd13ifvqfp0","pricing_plan_id":"cebpf4jnsgd1na2vs0mg"},{"bike_id":"93ba445b-66a4-4294-9430-8570a09d9108","system_id":"levelo_inurba_marseille","lat":43.30357,"lon":5.41877,"is_reserved":false,"is_disabled":false,"rental_uris":{"android":"levelo://app?vid=93ba445b-66a4-4294-9430-8570a09d9108","ios":"levelo://app?vid=93ba445b-66a4-4294-9430-8570a09d9108"},"vehicle_type_id":"4","last_reported":1729422452,"current_range_meters":38000,"station_id":"ce4bhop2rcd13ifvqh7g","pricing_plan_id":"cebpf4jnsgd1na2vs0mg"},{"bike_id":"0979bd36-f9b3-46f2-b2d6-7628c689be64","system_id":"levelo_inurba_marseille","lat":43.250896,"lon":5.395257,"is_reserved":false,"is_disabled":false,"rental_uris":{"android":"levelo://app?vid=0979bd36-f9b3-46f2-b2d6-7628c689be64","ios":"levelo://app?vid=0979bd36-f9b3-46f2-b2d6-7628c689be64"},"vehicle_type_id":"4","last_reported":1729422452,"current_range_meters":38800,"station_id":"ce4bhm12rcd13ifvqgkg","pricing_plan_id":"cebpf4jnsgd1na2vs0mg"},{"bike_id":"0712d3b2-cce9-4029-b21b-87dbde168e11","system_id":"levelo_inurba_marseille","lat":43.30797,"lon":5.43526,"is_reserved":false,"is_disabled":false,"rental_uris":{"android":"levelo://app?vid=0712d3b2-cce9-4029-b21b-87dbde168e11","ios":"levelo://app?vid=0712d3b2-cce9-4029-b21b-87dbde168e11"},"vehicle_type_id":"4","last_reported":1729422452,"current_range_meters":26000,"station_id":"ce4bhph2rcd13ifvqheg","pricing_plan_id":"cebpf4jnsgd1na2vs0mg"},{"bike_id":"344f09e4-d606-43c4-bac6-d276ac82753f","system_id":"levelo_inurba_marseille","lat":43.29938,"lon":5.36546,"is_reserved":false,"is_disabled":false,"rental_uris":{"android":"levelo://app?vid=344f09e4-d606-43c4-bac6-d276ac82753f","ios":"levelo://app?vid=344f09e4-d606-43c4-bac6-d276ac82753f"},"vehicle_type_id":"4","last_reported":1729422452,"current_range_meters":16000,"station_id":"ce4bgm92rcd13ifvqbr0","pricing_plan_id":"cebpf4jnsgd1na2vs0mg"},{"bike_id":"f739c5a5-6cc1-4a10-9151-8d8447774477","system_id":"levelo_inurba_marseille","lat":43.28424,"lon":5.34992,"is_reserved":false,"is_disabled":false,"rental_uris":{"android":"levelo://app?vid=f739c5a5-6cc1-4a10-9151-8d8447774477","ios":"levelo://app?vid=f739c5a5-6cc1-4a10-9151-8d8447774477"},"vehicle_type_id":"4","last_reported":1729422452,"current_range_meters":38400,"station_id":"ce4bhbh2rcd13ifvqepg","pricing_plan_id":"cebpf4jnsgd1na2vs0mg"},{"bike_id":"c61834e5-ab0c-4e12-b32f-eb9d3c1af5fe","system_id":"levelo_inurba_marseille","lat":43.23973,"lon":5.36618,"is_reserved":false,"is_disabled":false,"rental_uris":{"android":"levelo://app?vid=c61834e5-ab0c-4e12-b32f-eb9d3c1af5fe","ios":"levelo://app?vid=c61834e5-ab0c-4e12-b32f-eb9d3c1af5fe"},"vehicle_type_id":"4","last_reported":1729422452,"current_range_meters":16000,"station_id":"ce4bhi12rcd13ifvqfp0","pricing_plan_id":"cebpf4jnsgd1na2vs0mg"},{"bike_id":"4c063767-90e2-4be8-b0e9-d3fbe0a8b556","system_id":"levelo_inurba_marseille","lat":43.29361,"lon":5.37836,"is_reserved":false,"is_disabled":false,"rental_uris":{"android":"levelo://app?vid=4c063767-90e2-4be8-b0e9-d3fbe0a8b556","ios":"levelo://app?vid=4c063767-90e2-4be8-b0e9-d3fbe0a8b556"},"vehicle_type_id":"4","last_reported":1729422452,"current_range_meters":38800,"station_id":"ce4bgjh2rcd13ifvqbf0","pricing_plan_id":"cebpf4jnsgd1na2vs0mg"},{"bike_id":"e8904a72-68d5-4dcf-83cb-c55796663ef3","system_id":"levelo_inurba_marseille","lat":43.28417,"lon":5.34978,"is_reserved":false,"is_disabled":false,"rental_uris":{"android":"levelo://app?vid=e8904a72-68d5-4dcf-83cb-c55796663ef3","ios":"levelo://app?vid=e8904a72-68d5-4dcf-83cb-c55796663ef3"},"vehicle_type_id":"4","last_reported":1729422452,"current_range_meters":20400,"station_id":"ce4bhbh2rcd13ifvqepg","pricing_plan_id":"cebpf4jnsgd1na2vs0mg"},{"bike_id":"887ce428-4faf-4c31-b23f-94cd95e031f4","system_id":"levelo_inurba_marseille","lat":43.28702,"lon":5.37394,"is_reserved":false,"is_disabled":false,"rental_uris":{"android":"levelo://app?vid=887ce428-4faf-4c31-b23f-94cd95e031f4","ios":"levelo://app?vid=887ce428-4faf-4c31-b23f-94cd95e031f4"},"vehicle_type_id":"4","last_reported":1729422452,"current_range_meters":27600,"station_id":"ce4bh3p2rcd13ifvqdq0","pricing_plan_id":"cebpf4jnsgd1na2vs0mg"},{"bike_id":"9b9628b3-8432-4f59-8342-5fdd034b483d","system_id":"levelo_inurba_marseille","lat":43.28003,"lon":5.40003,"is_reserved":false,"is_disabled":false,"rental_uris":{"android":"levelo://app?vid=9b9628b3-8432-4f59-8342-5fdd034b483d","ios":"levelo://app?vid=9b9628b3-8432-4f59-8342-5fdd034b483d"},"vehicle_type_id":"4","last_reported":1729422452,"current_range_meters":28000,"station_id":"ce4bho92rcd13ifvqh4g","pricing_plan_id":"cebpf4jnsgd1na2vs0mg"},{"bike_id":"4237405c-9e6b-4a04-b9b9-8793afd0eedb","system_id":"levelo_inurba_marseille","lat":43.32115,"lon":5.36765,"is_reserved":false,"is_disabled":false,"rental_uris":{"android":"levelo://app?vid=4237405c-9e6b-4a04-b9b9-8793afd0eedb","ios":"levelo://app?vid=4237405c-9e6b-4a04-b9b9-8793afd0eedb"},"vehicle_type_id":"4","last_reported":1729422452,"current_range_meters":26800,"station_id":"ce4bhrh2rcd13ifvqhug","pricing_plan_id":"cebpf4jnsgd1na2vs0mg"},{"bike_id":"b7eeecae-a38e-4cb6-aba0-e7f7780d99f3","system_id":"levelo_inurba_marseille","lat":43.31885,"lon":5.40737,"is_reserved":false,"is_disabled":false,"rental_uris":{"android":"levelo://app?vid=b7eeecae-a38e-4cb6-aba0-e7f7780d99f3","ios":"levelo://app?vid=b7eeecae-a38e-4cb6-aba0-e7f7780d99f3"},"vehicle_type_id":"4","last_reported":1729422452,"current_range_meters":16000,"station_id":"ce4bhq12rcd13ifvqhig","pricing_plan_id":"cebpf4jnsgd1na2vs0mg"},