{"last_updated":1704193557,"ttl":30,"version":"2.2","data":{"bikes":[{"bike_id":"50ffb39d-c405-4192-ba10-8fe04060eef3","system_id":"levelo_inurba_marseille","lat":43.31341,"lon":5.367098,"is_reserved":false,"is_disabled":false,"rental_uris":{"android":"levelo://app?vid=50ffb39d-c405-4192-ba10-8fe04060eef3","ios":"levelo://app?vid=50ffb39d-c405-4192-ba10-8fe04060eef3"},"vehicle_type_id":"4","last_reported":1704193557,"current_range_meters":31600,"station_id":"ce4bgr92rcd13ifvqc6g","pricing_plan_id":"free"},{"bike_id":"4ca3c03b-77c4-4cab-a5ac-9bdadef7281d","system_id":"levelo_inurba_marseille","lat":43.31341,"lon":5.367098,"is_reserved":false,"is_disabled":false,"rental_uris":{"android":"levelo://app?vid=4ca3c03b-77c4-4cab-a5ac-9bdadef7281d","ios":"levelo://app?vid=4ca3c03b-77c4-4cab-a5ac-9bdadef7281d"},"vehicle_type_id":"4","last_reported":1704193557,"current_range_meters":13600,"station_id":"ce4bgr92rcd13ifvqc6g","pricing_plan_id":"free"},{"bike_id":"70da60cf-d83d-4298-9e4b-ebb5942f7183","system_id":"levelo_inurba_marseille","lat":43.313391,"lon":5.36706,"is_reserved":false,"is_disabled":false,"rental_uris":{"android":"levelo://app?vid=70da60cf-d83d-4298-9e4b-ebb5942f7183","ios":"levelo://app?vid=70da60cf-d83d-4298-9e4b-ebb5942f7183"},"vehicle_type_id":"4","last_reported":1704193557,"current_range_meters":28400,"station_id":"ce4bgr92rcd13ifvqc6g","pricing_plan_id":"free"},{"bike_id":"0f9aea24-df7b-452e-9ec9-508a486be078","system_id":"levelo_inurba_marseille","lat":43.313391,"lon":5.36706,"is_reserved":false,"is_disabled":false,"rental_uris":{"android":"levelo://app?vid=0f9aea24-df7b-452e-9ec9-508a486be078","ios":"levelo://app?vid=0f9aea24-df7b-452e-9ec9-508a486be078"},"vehicle_type_id":"4","last_reported":1704193557,"current_range_meters":31200,"station_id":"ce4bgr92rcd13ifvqc6g","pricing_plan_id":"free"},{"bike_id":"94815bb6-a315-4397-9caa-22f1e5bd1b4d","system_id":"levelo_inurba_marseille","lat":43.31341,"lon":5.367098,"is_reserved":false,"is_disabled":false,"rental_uris":{"android":"levelo://app?vid=94815bb6-a315-4397-9caa-22f1e5bd1b4d","ios":"levelo://app?vid=94815bb6-a315-4397-9caa-22f1e5bd1b4d"},"vehicle_type_id":"4","last_reported":1704193557,"current_range_meters":26000,"station_id":"ce4bgr92rcd13ifvqc6g","pricing_plan_id":"free"},{"bike_id":"3544ae93-e3f3-4447-9813-9dd1706656b8","system_id":"levelo_inurba_marseille","lat":43.31341,"lon":5.367098,"is_reserved":false,"is_disabled":false,"rental_uris":{"android":"levelo://app?vid=3544ae93-e3f3-4447-9813-9dd1706656b8","ios":"levelo://app?vid=3544ae93-e3f3-4447-9813-9dd1706656b8"},"vehicle_type_id":"4","last_reported":1704193557,"current_range_meters":29200,"station_id":"ce4bgr92rcd13ifvqc6g","pricing_plan_id":"free"},{"bike_id":"3f6fcf22-34f3-498b-bfaa-b340667e201d","system_id":"levelo_inurba_marseille","lat":43.31341,"lon":5.367098,"is_reserved":false,"is_disabled":false,"rental_uris":{"android":"levelo://app?vid=3f6fcf22-34f3-498b-bfaa-b340667e201d","ios":"levelo://app?vid=3f6fcf22-34f3-498b-bfaa-b340667e201d"},"vehicle_type_id":"4","last_reported":1704193557,"current_range_meters":24800,"station_id":"ce4bgr92rcd13ifvqc6g","pricing_plan_id":"free"},{"bike_id":"a4b18785-2497-4cb8-80f8-53c5fd8b5a3a","system_id":"levelo_inurba_marseille","lat":43.313391,"lon":5.36706,"is_reserved":false,"is_disabled":false,"rental_uris":{"android":"levelo://app?vid=a4b18785-2497-4cb8-80f8-53c5fd8b5a3a","ios":"levelo://app?vid=a4b18785-2497-4cb8-80f8-53c5fd8b5a3a"},"vehicle_type_id":"4","last_reported":1704193557,"current_range_meters":26400,"station_id":"ce4bgr92rcd13ifvqc6g","pricing_plan_id":"free"},{"bike_id":"21d9df69-8fd6-4789-b43a-e843b2feff9a","system_id":"levelo_inurba_marseille","lat":43.313391,"lon":5.36706,"is_reserved":false,"is_disabled":false,"rental_uris":{"android":"levelo://app?vid=21d9df69-8fd6-4789-b43a-e843b2feff9a","ios":"levelo://app?vid=21d9df69-8fd6-4789-b43a-e843b2feff9a"},"vehicle_type_id":"4","last_reported":1704193557,"current_range_meters":26400,"station_id":"ce4bgr92rcd13ifvqc6g","pricing_plan_id":"free"},{"bike_id":"c1bb20c0-6380-4f3c-aed9-cff20efe3a85","system_id":"levelo_inurba_marseille","lat":43.313391,"lon":5.36706,"is_reserved":false,"is_disabled":false,"rental_uris":{"android":"levelo://app?vid=c1bb20c0-6380-4f3c-aed9-cff20efe3a85","ios":"levelo://app?vid=c1bb20c0-6380-4f3c-aed9-cff20efe3a85"},"vehicle_type_id":"4","last_reported":1704193557,"current_range_meters":27200,"station_id":"ce4bgr92rcd13ifvqc6g","pricing_plan_id":"free"},{"bike_id":"8e72b23e-828b-4675-953a-7a07bf4f8706","system_id":"levelo_inurba_marseille","lat":43.31341,"lon":5.367098,"is_reserved":false,"is_disabled":false,"rental_uris":{"android":"levelo://app?vid=8e72b23e-828b-4675-953a-7a07bf4f8706","ios":"levelo://app?vid=8e72b23e-828b-4675-953a-7a07bf4f8706"},"vehicle_type_id":"4","last_reported":1704193557,"current_range_meters":24400,"station_id":"ce4bgr92rcd13ifvqc6g","pricing_plan_id":"free"},{"bike_id":"be50926c-df12-444e-bd83-5f0901f6d78e","system_id":"levelo_inurba_marseille","lat":43.312239,"lon":5.368562,"is_reserved":false,"is_disabled":false,"rental_uris":{"android":"levelo://app?vid=be50926c-df12-444e-bd83-5f0901f6d78e","ios":"levelo://app?vid=be50926c-df12-444e-bd83-5f0901f6d78e"},"vehicle_type_id":"4","last_reported":1704193557,"current_range_meters":17600,"station_id":"ce4bgl92rcd13ifvqbq0","pricing_plan_id":"free"},{"bike_id":"ab65979a-b67f-4fcc-9ce8-e9b5f3c8c97e","system_id":"levelo_inurba_marseille","lat":43.312239,"lon":5.368562,"is_reserved":false,"is_disabled":false,"rental_uris":{"android":"levelo://app?vid=ab65979a-b67f-4fcc-9ce8-e9b5f3c8c97e","ios":"levelo://app?vid=ab65979a-b67f-4fcc-9ce8-e9b5f3c8c97e"},"vehicle_type_id":"4","last_reported":1704193557,"current_range_meters":31600,"station_id":"ce4bgl92rcd13ifvqbq0","pricing_plan_id":"free"},{"bike_id":"3d5239cc-ce6c-4835-8427-ce7a89116cef","system_id":"levelo_inurba_marseille","lat":43.312239,"lon":5.368562,"is_reserved":false,"is_disabled":false,"rental_uris":{"android":"levelo://app?vid=3d5239cc-ce6c-4835-8427-ce7a89116cef","ios":"levelo://app?vid=3d5239cc-ce6c-4835-8427-ce7a89116cef"},"vehicle_type_id":"4","last_reported":1704193557,"current_range_meters":20800,"station_id":"ce4bgl92rcd13ifvqbq0","pricing_plan_id":"free"},{"bike_id":"f8515c16-45ec-43ac-86e4-c20f8afafe4d","system_id":"levelo_inurba_marseille","lat":43.312239,"lon":5.368562,"is_reserved":false,"is_disabled":false,"rental_uris":{"android":"levelo://app?vid=f8515c16-45ec-43ac-86e4-c20f8afafe4d","ios":"levelo://app?vid=f8515c16-45ec-43ac-86e4-c20f8afafe4d"},"vehicle_type_id":"4","last_reported":1704193557,"current_range_meters":31600,"station_id":"ce4bgl92rcd13ifvqbq0","pricing_plan_id":"free"},{"bike_id":"16e2b7ca-bbc9-4f1f-8d8e-64f8e49944d9","system_id":"levelo_inurba_marseille","lat":43.312239,"lon":5.368562,"is_reserved":false,"is_disabled":false,"rental_uris":{"android":"levelo://app?vid=16e2b7ca-bbc9-4f1f-8d8e-64f8e49944d9","ios":"levelo://app?vid=16e2b7ca-bbc9-4f1f-8d8e-64f8e49944d9"},"vehicle_type_id":"4","last_reported":1704193557,"current_range_meters":30800,"station_id":"ce4bgl92rcd13ifvqbq0","pricing_plan_id":"free"},{"bike_id":"add2c172-a38d-4833-9b68-a4b3e1814900","system_id":"levelo_inurba_marseille","lat":43.312239,"lon":5.368562,"is_reserved":false,"is_disabled":false,"rental_uris":{"android":"levelo://app?vid=add2c172-a38d-4833-9b68-a4b3e1814900","ios":"levelo://app?vid=add2c172-a38d-4833-9b68-a4b3e1814900"},"vehicle_type_id":"4","last_reported":1704193557,"current_range_meters":23600,"station_id":"ce4bgl92rcd13ifvqbq0","pricing_plan_id":"free"},{"bike_id":"d84b4337-d35d-4290-a812-d91d2101cf7e","system_id":"levelo_inurba_marseille","lat":43.312239,"lon":5.368562,"is_reserved":false,"is_disabled":false,"rental_uris":{"android":"levelo://app?vid=d84b4337-d35d-4290-a812-d91d2101cf7e","ios":"levelo://app?vid=d84b4337-d35d-4290-a812-d91d2101cf7e"},"vehicle_type_id":"4","last_reported":1704193557,"current_range_meters":24000,"station_id":"ce4bgl92rcd13ifvqbq0","pricing_plan_id":"free"},{"bike_id":"35565607-172d-4dea-a0a2-86b98321545b","system_id":"levelo_inurba_marseille","lat":43.312239,"lon":5.368562,"is_reserved":false,"is_disabled":false,"rental_uris":{"android":"levelo://app?vid=35565607-172d-4dea-a0a2-86b98321545b","ios":"levelo://app?vid=35565607-172d-4dea-a0a2-86b98321545b"},"vehicle_type_id":"4","last_reported":1704193557,"current_range_meters":19200,"station_id":"ce4bgl92rcd13ifvqbq0","pricing_plan_id":"free"},{"bike_id":"b1f544ee-d202-402d-9b9d-fbbdc29578a9","system_id":"levelo_inurba_marseille","lat":43.309076,"lon":5.368465,"is_reserved":false,"is_disabled":false,"rental_uris":{"android":"levelo://app?vid=b1f544ee-d202-402d-9b9d-fbbdc29578a9","ios":"levelo://app?vid=b1f544ee-d202-402d-9b9d-fbbdc29578a9"},"vehicle_type_id":"4","last_reported":1704193557,"current_range_meters":28000,"station_id":"ce4bgn92rcd13ifvqbvg","pricing_plan_id":"free"},{"bike_id":"6b6025a8-f47d-4b09-9d3b-24cf57033958","system_id":"levelo_inurba_marseille","lat":43.309076,"lon":5.368465,"is_reserved":false,"is_disabled":false,"rental_uris":{"android":"levelo://app?vid=6b6025a8-f47d-4b09-9d3b-24cf57033958","ios":"levelo://app?vid=6b6025a8-f47d-4b09-9d3b-24cf57033958"},"vehicle_type_id":"4","last_reported":1704193557,"current_range_meters":27600,"station_id":"ce4bgn92rcd13ifvqbvg","pricing_plan_id":"free"},{"bike_id":"e4ded75e-0c76-422e-a6d9-7bf57e0b6643","system_id":"levelo_inurba_marseille","lat":43.309076,"lon":5.368465,"is_reserved":false,"is_disabled":false,"rental_uris":{"android":"levelo://app?vid=e4ded75e-0c76-422e-a6d9-7bf57e0b6643","ios":"levelo://app?vid=e4ded75e-0c76-422e-a6d9-7bf57e0b6643"},"vehicle_type_id":"4","last_reported":1704193557,"current_range_meters":31600,"station_id":"ce4bgn92rcd13ifvqbvg","pricing_plan_id":"free"},{"bike_id":"961768d2-940f-4632-a8ac-3ad05e70bd80","system_id":"levelo_inurba_marseille","lat":43.309076,"lon":5.368465,"is_reserved":false,"is_disabled":false,"rental_uris":{"android":"levelo://app?vid=961768d2-940f-4632-a8ac-3ad05e70bd80","ios":"levelo://app?vid=961768d2-940f-4632-a8ac-3ad05e70bd80"},"vehicle_type_id":"4","last_reported":1704193557,"current_range_meters":12400,"station_id":"ce4bgn92rcd13ifvqbvg","pricing_plan_id":"free"},{"bike_id":"1e91ba6c-8283-47ea-b797-a2e7408bd0aa","system_id":"levelo_inurba_marseille","lat":43.309076,"lon":5.368465,"is_reserved":false,"is_disabled":false,"rental_uris":{"android":"levelo://app?vid=1e91ba6c-8283-47ea-b797-a2e7408bd0aa","ios":"levelo://app?vid=1e91ba6c-8283-47ea-b797-a2e7408bd0aa"},"vehicle_type_id":"4","last_reported":1704193557,"current_range_meters":30800,"station_id":"ce4bgn92rcd13ifvqbvg","pricing_plan_id":"free"},{"bike_id":"03753275-7fdb-46fb-8df4-86eff7b6fe9f","system_id":"levelo_inurba_marseille","lat":43.309076,"lon":5.368465,"is_reserved":false,"is_disabled":false,"rental_uris":{"android":"levelo://app?vid=03753275-7fdb-46fb-8df4-86eff7b6fe9f","ios":"levelo://app?vid=03753275-7fdb-46fb-8df4-86eff7b6fe9f"},"vehicle_type_id":"4","last_reported":1704193557,"current_range_meters":29600,"station_id":"ce4bgn92rcd13ifvqbvg","pricing_plan_id":"free"},{"bike_id":"8267dbea-2a54-4384-b91d-21cbc74b0c21","system_id":"levelo_inurba_marseille","lat":43.309076,"lon":5.368465,"is_reserved":false,"is_disabled":false,"rental_uris":{"android":"levelo://app?vid=8267dbea-2a54-4384-b91d-21cbc74b0c21","ios":"levelo://app?vid=8267dbea-2a54-4384-b91d-21cbc74b0c21"},"vehicle_type_id":"4","last_reported":1704193557,"current_range_meters":24800,"station_id":"ce4bgn92rcd13ifvqbvg","pricing_plan_id":"free"},{"bike_id":"fd769efc-f3a5-4eee-8418-aac679a8236c","system_id":"levelo_inurba_marseille","lat":43.309039,"lon":5.371797,"is_reserved":false,"is_disabled":false,"rental_uris":{"android":"levelo://app?vid=fd769efc-f3a5-4eee-8418-aac679a8236c","ios":"levelo://app?vid=fd769efc-f3a5-4eee-8418-aac679a8236c"},"vehicle_type_id":"4","last_reported":1704193557,"current_range_meters":27200,"station_id":"ce4bguh2rcd13ifvqckg","pricing_plan_id":"free"},{"bike_id":"3fd249f3-1f9b-4c80-8048-bc5f536e1f55","system_id":"levelo_inurba_marseille","lat":43.30537,"lon":5.367345,"is_reserved":false,"is_disabled":false,"rental_uris":{"android":"levelo://app?vid=3fd249f3-1f9b-4c80-8048-bc5f536e1f55","ios":"levelo://app?vid=3fd249f3-1f9b-4c80-8048-bc5f536e1f55"},"vehicle_type_id":"4","last_reported":1704193557,"current_range_meters":15200,"station_id":"ce4bgrp2rcd13ifvqc9g","pricing_plan_id":"free"},{"bike_id":"bc378bba-9345-44ad-8340-cc5ab12e623f","system_id":"levelo_inurba_marseille","lat":43.305712,"lon":5.365641,"is_reserved":false,"is_disabled":false,"rental_uris":{"android":"levelo://app?vid=bc378bba-9345-44ad-8340-cc5ab12e623f","ios":"levelo://app?vid=bc378bba-9345-44ad-8340-cc5ab12e623f"},"vehicle_type_id":"4","last_reported":1704193557,"current_range_meters":13200,"station_id":"ce4bgs12rcd13ifvqcag","pricing_plan_id":"free"},{"bike_id":"fa0192d3-48de-44ef-b590-781fb65d0410","system_id":"levelo_inurba_marseille","lat":43.305712,"lon":5.365641,"is_reserved":false,"is_disabled":false,"rental_uris":{"android":"levelo://app?vid=fa0192d3-48de-44ef-b590-781fb65d0410","ios":"levelo://app?vid=fa0192d3-48de-44ef-b590-781fb65d0410"},"vehicle_type_id":"4","last_reported":1704193557,"current_range_meters":27600,"station_id":"ce4bgs12rcd13ifvqcag","pricing_plan_id":"free"},{"bike_id":"7fc322a2-aa0e-4551-addd-f49d495c32ca","system_id":"levelo_inurba_marseille","lat":43.305368,"lon":5.367343,"is_reserved":false,"is_disabled":false,"rental_uris":{"android":"levelo://app?vid=7fc322a2-aa0e-4551-addd-f49d495c32ca","ios":"levelo://app?vid=7fc322a2-aa0e-4551-addd-f49d495c32ca"},"vehicle_type_id":"4","last_reported":1704193557,"current_range_meters":18000,"station_id":"ce4bgrp2rcd13ifvqc9g","pricing_plan_id":"free"},{"bike_id":"28ee527e-d01e-4bbe-b536-3beb9e972490","system_id":"levelo_inurba_marseille","lat":43.305706,"lon":5.365654,"is_reserved":false,"is_disabled":false,"rental_uris":{"android":"levelo://app?vid=28ee527e-d01e-4bbe-b536-3beb9e972490","ios":"levelo://app?vid=28ee527e-d01e-4bbe-b536-3beb9e972490"},"vehicle_type_id":"4","last_reported":1704193557,"current_range_meters":29200,"station_id":"ce4bgs12rcd13ifvqcag","pricing_plan_id":"free"},{"bike_id":"edd189bd-e63f-4880-b785-c1463635efa6","system_id":"levelo_inurba_marseille","lat":43.305706,"lon":5.365654,"is_reserved":false,"is_disabled":false,"rental_uris":{"android":"levelo://app?vid=edd189bd-e63f-4880-b785-c1463635efa6","ios":"levelo://app?vid=edd189bd-e63f-4880-b785-c1463635efa6"},"vehicle_type_id":"4","last_reported":1704193557,"current_range_meters":25600,"station_id":"ce4bgs12rcd13ifvqcag","pricing_plan_id":"free"},{"bike_id":"39f7da97-72a6-4a68-9a9a-87d5660fa423","system_id":"levelo_inurba_marseille","lat":43.305714,"lon":5.365633,"is_reserved":false,"is_disabled":false,"rental_uris":{"android":"levelo://app?vid=39f7da97-72a6-4a68-9a9a-87d5660fa423","ios":"levelo://app?vid=39f7da97-72a6-4a68-9a9a-87d5660fa423"},"vehicle_type_id":"4","last_reported":1704193557,"current_range_meters":31200,"station_id":"ce4bgs12rcd13ifvqcag","pricing_plan_id":"free"},{"bike_id":"a98722fa-2f15-4f62-a4be-f9a44ae18447","system_id":"levelo_inurba_marseille","lat":43.305706,"lon":5.365654,"is_reserved":false,"is_disabled":false,"rental_uris":{"android":"levelo://app?vid=a98722fa-2f15-4f62-a4be-f9a44ae18447","ios":"levelo://app?vid=a98722fa-2f15-4f62-a4be-f9a44ae18447"},"vehicle_type_id":"4","last_reported":1704193557,"current_range_meters":21200,"station_id":"ce4bgs12rcd13ifvqcag","pricing_plan_id":"free"},{"bike_id":"b30c0912-cae2-483b-a693-19578ecaab16","system_id":"levelo_inurba_marseille","lat":43.305706,"lon":5.365654,"is_reserved":false,"is_disabled":false,"rental_uris":{"android":"levelo://app?vid=b30c0912-cae2-483b-a693-19578ecaab16","ios":"levelo://app?vid=b30c0912-cae2-483b-a693-19578ecaab16"},"vehicle_type_id":"4","last_reported":1704193557,"current_range_meters":2000,"station_id":"ce4bgs12rcd13ifvqcag","pricing_plan_id":"free"},{"bike_id":"66606ac8-e12d-4a05-b5a5-b1f3b85138d5","system_id":"levelo_inurba_marseille","lat":43.305706,"lon":5.365654,"is_reserved":false,"is_disabled":false,"rental_uris":{"android":"levelo://app?vid=66606ac8-e12d-4a05-b5a5-b1f3b85138d5","ios":"levelo://app?vid=66606ac8-e12d-4a05-b5a5-b1f3b85138d5"},"vehicle_type_id":"4","last_reported":1704193557,"current_range_meters":29600,"station_id":"ce4bgs12rcd13ifvqcag","pricing_plan_id":"free"},{"bike_id":"ac25c690-f8be-438c-a426-5ca9bd06b85e","system_id":"levelo_inurba_marseille","lat":43.305706,"lon":5.365654,"is_reserved":false,"is_disabled":false,"rental_uris":{"android":"levelo://app?vid=ac25c690-f8be-438c-a426-5ca9bd06b85e","ios":"levelo://app?vid=ac25c690-f8be-438c-a426-5ca9bd06b85e"},"vehicle_type_id":"4","last_reported":1704193557,"current_range_meters":29600,"station_id":"ce4bgs12rcd13ifvqcag","pricing_plan_id":"free"},{"bike_id":"de8d4f07-f88a-4365-97c3-5c2dc652ca27","system_id":"levelo_inurba_marseille","lat":43.305989,"lon":5.37225,"is_reserved":false,"is_disabled":false,"rental_uris":{"android":"levelo://app?vid=de8d4f07-f88a-4365-97c3-5c2dc652ca27","ios":"levelo://app?vid=de8d4f07-f88a-4365-97c3-5c2dc652ca27"},"vehicle_type_id":"4","last_reported":1704193557,"current_range_meters":29600,"station_id":"ce4bgqh2rcd13ifvqc4g","pricing_plan_id":"free"},{"bike_id":"25af9e1c-886c-4f64-92f2-5ca68e46ae4a","system_id":"levelo_inurba_marseille","lat":43.31722,"lon":5.37668,"is_reserved":false,"is_disabled":false,"rental_uris":{"android":"levelo://app?vid=25af9e1c-886c-4f64-92f2-5ca68e46ae4a","ios":"levelo://app?vid=25af9e1c-886c-4f64-92f2-5ca68e46ae4a"},"vehicle_type_id":"4","last_reported":1704193557,"current_range_meters":14800,"station_id":"","pricing_plan_id":"free"},{"bike_id":"bb56871f-6193-406e-89b9-52fae5dfb2d0","system_id":"levelo_inurba_marseille","lat":43.307945,"lon":5.376487,"is_reserved":false,"is_disabled":false,"rental_uris":{"android":"levelo://app?vid=bb56871f-6193-406e-89b9-52fae5dfb2d0","ios":"levelo://app?vid=bb56871f-6193-406e-89b9-52fae5dfb2d0"},"vehicle_type_id":"4","last_reported":1704193557,"current_range_meters":28800,"station_id":"ce4bgv92rcd13ifvqcq0","pricing_plan_id":"free"},{"bike_id":"5c6e0ba1-5c73-4ffb-8006-4da4cd858e87","system_id":"levelo_inurba_marseille","lat":43.307945,"lon":5.376487,"is_reserved":false,"is_disabled":false,"rental_uris":{"android":"levelo://app?vid=5c6e0ba1-5c73-4ffb-8006-4da4cd858e87","ios":"levelo://app?vid=5c6e0ba1-5c73-4ffb-8006-4da4cd858e87"},"vehicle_type_id":"4","last_reported":1704193557,"current_range_meters":29600,"station_id":"ce4bgv92rcd13ifvqcq0","pricing_plan_id":"free"},{"bike_id":"707a0d32-2a49-42eb-9b4b-5836545c8442","system_id":"levelo_inurba_marseille","lat":43.317075,"lon":5.377367,"is_reserved":false,"is_disabled":false,"rental_uris":{"android":"levelo://app?vid=707a0d32-2a49-42eb-9b4b-5836545c8442","ios":"levelo://app?vid=707a0d32-2a49-42eb-9b4b-5836545c8442"},"vehicle_type_id":"4","last_reported":1704193557,"current_range_meters":28400,"station_id":"ce4bgth2rcd13ifvqch0","pricing_plan_id":"free"},{"bike_id":"22f18b11-4258-400b-8bf4-84c1aff5d32b","system_id":"levelo_inurba_marseille","lat":43.30304,"lon":5.368987,"is_reserved":false,"is_disabled":false,"rental_uris":{"android":"levelo://app?vid=22f18b11-4258-400b-8bf4-84c1aff5d32b","ios":"levelo://app?vid=22f18b11-4258-400b-8bf4-84c1aff5d32b"},"vehicle_type_id":"4","last_reported":1704193557,"current_range_meters":30800,"station_id":"ce4bgqh2rcd13ifvqc5g","pricing_plan_id":"free"},{"bike_id":"0a11bd98-c530-4b22-a96b-5087cd3aba89","system_id":"levelo_inurba_marseille","lat":43.308012,"lon":5.381511,"is_reserved":false,"is_disabled":false,"rental_uris":{"android":"levelo://app?vid=0a11bd98-c530-4b22-a96b-5087cd3aba89","ios":"levelo://app?vid=0a11bd98-c530-4b22-a96b-5087cd3aba89"},"vehicle_type_id":"4","last_reported":1704193557,"current_range_meters":6000,"station_id":"ce4bgt12rcd13ifvqce0","pricing_plan_id":"free"},{"bike_id":"f5ddc24f-0fde-4c12-ac99-b6fbac7b2ed8","system_id":"levelo_inurba_marseille","lat":43.308012,"lon":5.381511,"is_reserved":false,"is_disabled":false,"rental_uris":{"android":"levelo://app?vid=f5ddc24f-0fde-4c12-ac99-b6fbac7b2ed8","ios":"levelo://app?vid=f5ddc24f-0fde-4c12-ac99-b6fbac7b2ed8"},"vehicle_type_id":"4","last_reported":1704193557,"current_range_meters":22800,"station_id":"ce4bgt12rcd13ifvqce0","pricing_plan_id":"free"},{"bike_id":"5377074b-30e2-4d67-825b-9deb3b1dbed3","system_id":"levelo_inurba_marseille","lat":43.304708,"lon":5.379039,"is_reserved":false,"is_disabled":false,"rental_uris":{"android":"levelo://app?vid=5377074b-30e2-4d67-825b-9deb3b1dbed3","ios":"levelo://app?vid=5377074b-30e2-4d67-825b-9deb3b1dbed3"},"vehicle_type_id":"4","last_reported":1704193557,"current_range_meters":11200,"station_id":"","pricing_plan_id":"free"},{"bike_id":"14be6322-8325-40a9-b959-c3efb3137888","system_id":"levelo_inurba_marseille","lat":43.304606,"lon":5.379026,"is_reserved":false,"is_disabled":false,"rental_uris":{"android":"levelo://app?vid=14be6322-8325-40a9-b959-c3efb3137888","ios":"levelo://app?vid=14be6322-8325-40a9-b959-c3efb3137888"},"vehicle_type_id":"4","last_reported":1704193557,"current_range_meters":24400,"station_id":"ce4bgup2rcd13ifvqcn0","pricing_plan_id":"free"},{"bike_id":"e8ed4a3b-4438-4018-b3d3-c3d64a945ab6","system_id":"levelo_inurba_marseille","lat":43.304606,"lon":5.379026,"is_reserved":false,"is_disabled":false,"rental_uris":{"android":"levelo://app?vid=e8ed4a3b-4438-4018-b3d3-c3d64a945ab6","ios":"levelo://app?vid=e8ed4a3b-4438-4018-b3d3-c3d64a945ab6"},"vehicle_type_id":"4","last_reported":1704193557,"current_range_meters":28400,"station_id":"ce4bgup2rcd13ifvqcn0","pricing_plan_id":"free"},{"bike_id":"f22a694e-d45a-4d55-ad6a-59338246fa09","system_id":"levelo_inurba_marseille","lat":43.304606,"lon":5.379026,"is_reserved":false,"is_disabled":false,"rental_uris":{"android":"levelo://app?vid=f22a694e-d45a-4d55-ad6a-59338246fa09","ios":"levelo://app?vid=f22a694e-d45a-4d55-ad6a-59338246fa09"},"vehicle_type_id":"4","last_reported":1704193557,"current_range_meters":20000,"station_id":"ce4bgup2rcd13ifvqcn0","pricing_plan_id":"free"},{"bike_id":"4c4910a8-b87e-4c13-b856-37ef8615c163","system_id":"levelo_inurba_marseille","lat":43.324771,"lon":5.36557,"is_reserved":false,"is_disabled":false,"rental_uris":{"android":"levelo://app?vid=4c4910a8-b87e-4c13-b856-37ef8615c163","ios":"levelo://app?vid=4c4910a8-b87e-4c13-b856-37ef8615c163"},"vehicle_type_id":"4","last_reported":1704193557,"current_range_meters":19200,"station_id":"ce4bhs12rcd13ifvqhvg","pricing_plan_id":"free"},{"bike_id":"2cc9b7e4-06d1-4c51-a576-c2f751e2f1c3","system_id":"levelo_inurba_marseille","lat":43.30143,"lon":5.37413,"is_reserved":false,"is_disabled":false,"rental_uris":{"android":"levelo://app?vid=2cc9b7e4-06d1-4c51-a576-c2f751e2f1c3","ios":"levelo://app?vid=2cc9b7e4-06d1-4c51-a576-c2f751e2f1c3"},"vehicle_type_id":"4","last_reported":1704193557,"current_range_meters":20800,"station_id":"ce4bgs92rcd13ifvqcc0","pricing_plan_id":"free"},{"bike_id":"17504bde-947a-4cd6-98b3-9a4c66aca99b","system_id":"levelo_inurba_marseille","lat":43.313827,"lon":5.385007,"is_reserved":false,"is_disabled":false,"rental_uris":{"android":"levelo://app?vid=17504bde-947a-4cd6-98b3-9a4c66aca99b","ios":"levelo://app?vid=17504bde-947a-4cd6-98b3-9a4c66aca99b"},"vehicle_type_id":"4","last_reported":1704193557,"current_range_meters":21200,"station_id":"ce4bgt92rcd13ifvqcf0","pricing_plan_id":"free"},{"bike_id":"6b3129bb-75b2-41d8-b25e-2a6a7bbc9081","system_id":"levelo_inurba_marseille","lat":43.299705,"lon":5.371839,"is_reserved":false,"is_disabled":false,"rental_uris":{"android":"levelo://app?vid=6b3129bb-75b2-41d8-b25e-2a6a7bbc9081","ios":"levelo://app?vid=6b3129bb-75b2-41d8-b25e-2a6a7bbc9081"},"vehicle_type_id":"4","last_reported":1704193557,"current_range_meters":27200,"station_id":"ce4bgr92rcd13ifvqc7g","pricing_plan_id":"free"},{"bike_id":"96cf5335-02ef-4734-857e-d9c734de44c0","system_id":"levelo_inurba_marseille","lat":43.299724,"lon":5.371829,"is_reserved":false,"is_disabled":false,"rental_uris":{"android":"levelo://app?vid=96cf5335-02ef-4734-857e-d9c734de44c0","ios":"levelo://app?vid=96cf5335-02ef-4734-857e-d9c734de44c0"},"vehicle_type_id":"4","last_reported":1704193557,"current_range_meters":22800,"station_id":"ce4bgr92rcd13ifvqc7g","pricing_plan_id":"free"},{"bike_id":"9d2ec756-4dfa-412f-85bd-535cd69e831e","system_id":"levelo_inurba_marseille","lat":43.298433,"lon":5.362774,"is_reserved":false,"is_disabled":false,"rental_uris":{"android":"levelo://app?vid=9d2ec756-4dfa-412f-85bd-535cd69e831e","ios":"levelo://app?vid=9d2ec756-4dfa-412f-85bd-535cd69e831e"},"vehicle_type_id":"4","last_reported":1704193557,"current_range_meters":20800,"station_id":"ce4bgpp2rcd13ifvqc3g","pricing_plan_id":"free"},{"bike_id":"86b7d4bc-91b1-4d2b-b8d2-16019266f457","system_id":"levelo_inurba_marseille","lat":43.298433,"lon":5.362774,"is_reserved":false,"is_disabled":false,"rental_uris":{"android":"levelo://app?vid=86b7d4bc-91b1-4d2b-b8d2-16019266f457","ios":"levelo://app?vid=86b7d4bc-91b1-4d2b-b8d2-16019266f457"},"vehicle_type_id":"4","last_reported":1704193557,"current_range_meters":29600,"station_id":"ce4bgpp2rcd13ifvqc3g","pricing_plan_id":"free"},{"bike_id":"cc6264d7-a583-4b19-80de-52814ea9a65b","system_id":"levelo_inurba_marseille","lat":43.298433,"lon":5.362774,"is_reserved":false,"is_disabled":false,"rental_uris":{"android":"levelo://app?vid=cc6264d7-a583-4b19-80de-52814ea9a65b","ios":"levelo://app?vid=cc6264d7-a583-4b19-80de-52814ea9a65b"},"vehicle_type_id":"4","last_reported":1704193557,"current_range_meters":30000,"station_id":"ce4bgpp2rcd13ifvqc3g","pricing_plan_id":"free"},{"bike_id":"201232fc-ead8-4101-baee-a959e4ab629b","system_id":"levelo_inurba_marseille","lat":43.298433,"lon":5.362774,"is_reserved":false,"is_disabled":false,"rental_uris":{"android":"levelo://app?vid=201232fc-ead8-4101-baee-a959e4ab629b","ios":"levelo://app?vid=201232fc-ead8-4101-baee-a959e4ab629b"},"vehicle_type_id":"4","last_reported":1704193557,"current_range_meters":12800,"station_id":"ce4bgpp2rcd13ifvqc3g","pricing_plan_id":"free"},{"bike_id":"bd92fdd6-ff2e-4c06-9155-501ca228ea20","system_id":"levelo_inurba_marseille","lat":43.298433,"lon":5.362774,"is_reserved":false,"is_disabled":false,"rental_uris":{"android":"levelo://app?vid=bd92fdd6-ff2e-4c06-9155-501ca228ea20","ios":"levelo://app?vid=bd92fdd6-ff2e-4c06-9155-501ca228ea20"},"vehicle_type_id":"4","last_reported":1704193557,"current_range_meters":16800,"station_id":"ce4bgpp2rcd13ifvqc3g","pricing_plan_id":"free"},{"bike_id":"9ba290a9-0206-467d-ba38-02ea98d50735","system_id":"levelo_inurba_marseille","lat":43.299243,"lon":5.374807,"is_reserved":false,"is_disabled":false,"rental_uris":{"android":"levelo://app?vid=9ba290a9-0206-467d-ba38-02ea98d50735","ios":"levelo://app?vid=9ba290a9-0206-467d-ba38-02ea98d50735"},"vehicle_type_id":"4","last_reported":1704193557,"current_range_meters":24800,"station_id":"ce4bgjh2rcd13ifvqbg0","pricing_plan_id":"free"},{"bike_id":"665b4d37-ba1b-471f-a9e3-bb28104299db","system_id":"levelo_inurba_marseille","lat":43.299243,"lon":5.374807,"is_reserved":false,"is_disabled":false,"rental_uris":{"android":"levelo://app?vid=665b4d37-ba1b-471f-a9e3-bb28104299db","ios":"levelo://app?vid=665b4d37-ba1b-471f-a9e3-bb28104299db"},"vehicle_type_id":"4","last_reported":1704193557,"current_range_meters":31200,"station_id":"ce4bgjh2rcd13ifvqbg0","pricing_plan_id":"free"},{"bike_id":"651095fb-a66b-405e-a4b0-4653a05e0966","system_id":"levelo_inurba_marseille","lat":43.297794,"lon":5.370888,"is_reserved":false,"is_disabled":false,"rental_uris":{"android":"levelo://app?vid=651095fb-a66b-405e-a4b0-4653a05e0966","ios":"levelo://app?vid=651095fb-a66b-405e-a4b0-4653a05e0966"},"vehicle_type_id":"4","last_reported":1704193557,"current_range_meters":30400,"station_id":"ce4bgop2rcd13ifvqc1g","pricing_plan_id":"free"},{"bike_id":"881fe0ac-4a87-4653-9c80-a83989c2ce03","system_id":"levelo_inurba_marseille","lat":43.298433,"lon":5.362774,"is_reserved":false,"is_disabled":false,"rental_uris":{"android":"levelo://app?vid=881fe0ac-4a87-4653-9c80-a83989c2ce03","ios":"levelo://app?vid=881fe0ac-4a87-4653-9c80-a83989c2ce03"},"vehicle_type_id":"4","last_reported":1704193557,"current_range_meters":28800,"station_id":"ce4bgpp2rcd13ifvqc3g","pricing_plan_id":"free"},{"bike_id":"0a99af18-dfe6-49d4-bc90-0038ead01ebf","system_id":"levelo_inurba_marseille","lat":43.328371,"lon":5.366909,"is_reserved":false,"is_disabled":false,"rental_uris":{"android":"levelo://app?vid=0a99af18-dfe6-49d4-bc90-0038ead01ebf","ios":"levelo://app?vid=0a99af18-dfe6-49d4-bc90-0038ead01ebf"},"vehicle_type_id":"4","last_reported":1704193557,"current_range_meters":24000,"station_id":"ce4bhs92rcd13ifvqi0g","pricing_plan_id":"free"},{"bike_id":"370cccf7-c9ba-46c2-819b-c8e8cacc4c21","system_id":"levelo_inurba_marseille","lat":43.3277,"lon":5.37458,"is_reserved":false,"is_disabled":false,"rental_uris":{"android":"levelo://app?vid=370cccf7-c9ba-46c2-819b-c8e8cacc4c21","ios":"levelo://app?vid=370cccf7-c9ba-46c2-819b-c8e8cacc4c21"},"vehicle_type_id":"4","last_reported":1704193557,"current_range_meters":9200,"station_id":"","pricing_plan_id":"free"},{"bike_id":"8562c70f-5fb8-4caa-bb62-c506e55d61cf","system_id":"levelo_inurba_marseille","lat":43.29573,"lon":5.367355,"is_reserved":false,"is_disabled":false,"rental_uris":{"android":"levelo://app?vid=8562c70f-5fb8-4caa-bb62-c506e55d61cf","ios":"levelo://app?vid=8562c70f-5fb8-4caa-bb62-c506e55d61cf"},"vehicle_type_id":"4","last_reported":1704193557,"current_range_meters":26000,"station_id":"ce4bgph2rcd13ifvqc2g","pricing_plan_id":"free"},{"bike_id":"eabdf27e-3797-474a-a298-546619e2877c","system_id":"levelo_inurba_marseille","lat":43.29573,"lon":5.367355,"is_reserved":false,"is_disabled":false,"rental_uris":{"android":"levelo://app?vid=eabdf27e-3797-474a-a298-546619e2877c","ios":"levelo://app?vid=eabdf27e-3797-474a-a298-546619e2877c"},"vehicle_type_id":"4","last_reported":1704193557,"current_range_meters":12800,"station_id":"ce4bgph2rcd13ifvqc2g","pricing_plan_id":"free"},{"bike_id":"9157f969-ac6a-4a10-8081-21d2fb4fe957","system_id":"levelo_inurba_marseille","lat":43.29573,"lon":5.367355,"is_reserved":false,"is_disabled":false,"rental_uris":{"android":"levelo://app?vid=9157f969-ac6a-4a10-8081-21d2fb4fe957","ios":"levelo://app?vid=9157f969-ac6a-4a10-8081-21d2fb4fe957"},"vehicle_type_id":"4","last_reported":1704193557,"current_range_meters":28400,"station_id":"ce4bgph2rcd13ifvqc2g","pricing_plan_id":"free"},{"bike_id":"b75cc8a0-4081-4f59-96ea-0dd84b28b08d","system_id":"levelo_inurba_marseille","lat":43.29573,"lon":5.367355,"is_reserved":false,"is_disabled":false,"rental_uris":{"android":"levelo://app?vid=b75cc8a0-4081-4f59-96ea-0dd84b28b08d","ios":"levelo://app?vid=b75cc8a0-4081-4f59-96ea-0dd84b28b08d"},"vehicle_type_id":"4","last_reported":1704193557,"current_range_meters":11600,"station_id":"ce4bgph2rcd13ifvqc2g","pricing_plan_id":"free"},{"bike_id":"3bed4075-d799-420b-9424-d4bde796fb15","system_id":"levelo_inurba_marseille","lat":43.29573,"lon":5.367355,"is_reserved":false,"is_disabled":false,"rental_uris":{"android":"levelo://app?vid=3bed4075-d799-420b-9424-d4bde796fb15","ios":"levelo://app?vid=3bed4075-d799-420b-9424-d4bde796fb15"},"vehicle_type_id":"4","last_reported":1704193557,"current_range_meters":18400,"station_id":"ce4bgph2rcd13ifvqc2g","pricing_plan_id":"free"},{"bike_id":"6fae1fa6-f2a7-492f-9dea-e7c7c22ac1ca","system_id":"levelo_inurba_marseille","lat":43.29726,"lon":5.37693,"is_reserved":false,"is_disabled":false,"rental_uris":{"android":"levelo://app?vid=6fae1fa6-f2a7-492f-9dea-e7c7c22ac1ca","ios":"levelo://app?vid=6fae1fa6-f2a7-492f-9dea-e7c7c22ac1ca"},"vehicle_type_id":"4","last_reported":1704193557,"current_range_meters":27600,"station_id":"ce4bgkh2rcd13ifvqbl0","pricing_plan_id":"free"},{"bike_id":"7b4f5263-c4df-4e40-afe3-fc2bfde43620","system_id":"levelo_inurba_marseille","lat":43.296935,"lon":5.376544,"is_reserved":false,"is_disabled":false,"rental_uris":{"android":"levelo://app?vid=7b4f5263-c4df-4e40-afe3-fc2bfde43620","ios":"levelo://app?vid=7b4f5263-c4df-4e40-afe3-fc2bfde43620"},"vehicle_type_id":"4","last_reported":1704193557,"current_range_meters":30800,"station_id":"ce4bgkh2rcd13ifvqbl0","pricing_plan_id":"free"},{"bike_id":"cb83678b-4a2b-43bb-8201-752942145445","system_id":"levelo_inurba_marseille","lat":43.299724,"lon":5.384848,"is_reserved":false,"is_disabled":false,"rental_uris":{"android":"levelo://app?vid=cb83678b-4a2b-43bb-8201-752942145445","ios":"levelo://app?vid=cb83678b-4a2b-43bb-8201-752942145445"},"vehicle_type_id":"4","last_reported":1704193557,"current_range_meters":27200,"station_id":"ce4bgj92rcd13ifvqbd0","pricing_plan_id":"free"},{"bike_id":"8aa9507d-935f-41d4-bbc9-57305660be04","system_id":"levelo_inurba_marseille","lat":43.29717,"lon":5.37704,"is_reserved":false,"is_disabled":false,"rental_uris":{"android":"levelo://app?vid=8aa9507d-935f-41d4-bbc9-57305660be04","ios":"levelo://app?vid=8aa9507d-935f-41d4-bbc9-57305660be04"},"vehicle_type_id":"4","last_reported":1704193557,"current_range_meters":16800,"station_id":"ce4bgkh2rcd13ifvqbl0","pricing_plan_id":"free"},{"bike_id":"f2f96cc4-d07e-4508-931f-1214e5579128","system_id":"levelo_inurba_marseille","lat":43.296921,"lon":5.376579,"is_reserved":false,"is_disabled":false,"rental_uris":{"android":"levelo://app?vid=f2f96cc4-d07e-4508-931f-1214e5579128","ios":"levelo://app?vid=f2f96cc4-d07e-4508-931f-1214e5579128"},"vehicle_type_id":"4","last_reported":1704193557,"current_range_meters":11200,"station_id":"ce4bgkh2rcd13ifvqbl0","pricing_plan_id":"free"},{"bike_id":"d089d559-3f2e-48bc-98a7-154866aa7f0a","system_id":"levelo_inurba_marseille","lat":43.299028,"lon":5.381509,"is_reserved":false,"is_disabled":false,"rental_uris":{"android":"levelo://app?vid=d089d559-3f2e-48bc-98a7-154866aa7f0a","ios":"levelo://app?vid=d089d559-3f2e-48bc-98a7-154866aa7f0a"},"vehicle_type_id":"4","last_reported":1704193557,"current_range_meters":0,"station_id":"ce4bgj12rcd13ifvqbc0","pricing_plan_id":"free"},{"bike_id":"8678fd13-05b5-4a59-a095-eea5133e8538","system_id":"levelo_inurba_marseille","lat":43.299028,"lon":5.381509,"is_reserved":false,"is_disabled":false,"rental_uris":{"android":"levelo://app?vid=8678fd13-05b5-4a59-a095-eea5133e8538","ios":"levelo://app?vid=8678fd13-05b5-4a59-a095-eea5133e8538"},"vehicle_type_id":"4","last_reported":1704193557,"current_range_meters":26400,"station_id":"ce4bgj12rcd13ifvqbc0","pricing_plan_id":"free"},{"bike_id":"956e83d8-43ff-4db4-8d69-7d2ad306f27f","system_id":"levelo_inurba_marseille","lat":43.309589,"lon":5.390258,"is_reserved":false,"is_disabled":false,"rental_uris":{"android":"levelo://app?vid=956e83d8-43ff-4db4-8d69-7d2ad306f27f","ios":"levelo://app?vid=956e83d8-43ff-4db4-8d69-7d2ad306f27f"},"vehicle_type_id":"4","last_reported":1704193557,"current_range_meters":25600,"station_id":"ce4bgup2rcd13ifvqco0","pricing_plan_id":"free"},{"bike_id":"934df303-6780-4e74-997f-0f9cc28c8803","system_id":"levelo_inurba_marseille","lat":43.299028,"lon":5.381509,"is_reserved":false,"is_disabled":false,"rental_uris":{"android":"levelo://app?vid=934df303-6780-4e74-997f-0f9cc28c8803","ios":"levelo://app?vid=934df303-6780-4e74-997f-0f9cc28c8803"},"vehicle_type_id":"4","last_reported":1704193557,"current_range_meters":24400,"station_id":"ce4bgj12rcd13ifvqbc0","pricing_plan_id":"free"},{"bike_id":"7f760f26-485c-41d9-99dc-510bae91ec4f","system_id":"levelo_inurba_marseille","lat":43.295748,"lon":5.37522,"is_reserved":false,"is_disabled":false,"rental_uris":{"android":"levelo://app?vid=7f760f26-485c-41d9-99dc-510bae91ec4f","ios":"levelo://app?vid=7f760f26-485c-41d9-99dc-510bae91ec4f"},"vehicle_type_id":"4","last_reported":1704193557,"current_range_meters":19200,"station_id":"ce4bgh92rcd13ifvqb50","pricing_plan_id":"free"},{"bike_id":"3b2dd60e-9e72-4c75-885a-eede1525b37c","system_id":"levelo_inurba_marseille","lat":43.295798,"lon":5.375025,"is_reserved":false,"is_disabled":false,"rental_uris":{"android":"levelo://app?vid=3b2dd60e-9e72-4c75-885a-eede1525b37c","ios":"levelo://app?vid=3b2dd60e-9e72-4c75-885a-eede1525b37c"},"vehicle_type_id":"4","last_reported":1704193557,"current_range_meters":30000,"station_id":"ce4bgh92rcd13ifvqb50","pricing_plan_id":"free"},{"bike_id":"3fd21f62-df52-40ea-9792-8aef1d0791e7","system_id":"levelo_inurba_marseille","lat":43.295748,"lon":5.37522,"is_reserved":false,"is_disabled":false,"rental_uris":{"android":"levelo://app?vid=3fd21f62-df52-40ea-9792-8aef1d0791e7","ios":"levelo://app?vid=3fd21f62-df52-40ea-9792-8aef1d0791e7"},"vehicle_type_id":"4","last_reported":1704193557,"current_range_meters":25600,"station_id":"ce4bgh92rcd13ifvqb50","pricing_plan_id":"free"},{"bike_id":"0fda2224-418b-4113-96c2-d5ef440858d3","system_id":"levelo_inurba_marseille","lat":43.295748,"lon":5.37522,"is_reserved":false,"is_disabled":false,"rental_uris":{"android":"levelo://app?vid=0fda2224-418b-4113-96c2-d5ef440858d3","ios":"levelo://app?vid=0fda2224-418b-4113-96c2-d5ef440858d3"},"vehicle_type_id":"4","last_reported":1704193557,"current_range_meters":22800,"station_id":"ce4bgh92rcd13ifvqb50","pricing_plan_id":"free"},{"bike_id":"b26fdc7e-d072-43e0-8d81-69d9813b08a6","system_id":"levelo_inurba_marseille","lat":43.295748,"lon":5.37522,"is_reserved":false,"is_disabled":false,"rental_uris":{"android":"levelo://app?vid=b26fdc7e-d072-43e0-8d81-69d9813b08a6","ios":"levelo://app?vid=b26fdc7e-d072-43e0-8d81-69d9813b08a6"},"vehicle_type_id":"4","last_reported":1704193557,"current_range_meters":26000,"station_id":"ce4bgh92rcd13ifvqb50","pricing_plan_id":"free"},{"bike_id":"22add8b5-d9e6-41f0-a10b-aa72bca8152e","system_id":"levelo_inurba_marseille","lat":43.295748,"lon":5.37522,"is_reserved":false,"is_disabled":false,"rental_uris":{"android":"levelo://app?vid=22add8b5-d9e6-41f0-a10b-aa72bca8152e","ios":"levelo://app?vid=22add8b5-d9e6-41f0-a10b-aa72bca8152e"},"vehicle_type_id":"4","last_reported":1704193557,"current_range_meters":24400,"station_id":"ce4bgh92rcd13ifvqb50","pricing_plan_id":"free"},{"bike_id":"f96b2ac2-5174-4688-a555-8cc956f97da8","system_id":"levelo_inurba_marseille","lat":43.295748,"lon":5.37522,"is_reserved":false,"is_disabled":false,"rental_uris":{"android":"levelo://app?vid=f96b2ac2-5174-4688-a555-8cc956f97da8","ios":"levelo://app?vid=f96b2ac2-5174-4688-a555-8cc956f97da8"},"vehicle_type_id":"4","last_reported":1704193557,"current_range_meters":31600,"station_id":"ce4bgh92rcd13ifvqb50","pricing_plan_id":"free"},{"bike_id":"e066c7d1-46ae-4af3-89cf-d8d777e3f437","system_id":"levelo_inurba_marseille","lat":43.29567,"lon":5.37521,"is_reserved":false,"is_disabled":false,"rental_uris":{"android":"levelo://app?vid=e066c7d1-46ae-4af3-89cf-d8d777e3f437","ios":"levelo://app?vid=e066c7d1-46ae-4af3-89cf-d8d777e3f437"},"vehicle_type_id":"4","last_reported":1704193557,"current_range_meters":20000,"station_id":"ce4bgh92rcd13ifvqb50","pricing_plan_id":"free"},{"bike_id":"312f04c1-e7c4-43a8-81fa-dc6587f53f5b","system_id":"levelo_inurba_marseille","lat":43.295748,"lon":5.37522,"is_reserved":false,"is_disabled":false,"rental_uris":{"android":"levelo://app?vid=312f04c1-e7c4-43a8-81fa-dc6587f53f5b","ios":"levelo://app?vid=312f04c1-e7c4-43a8-81fa-dc6587f53f5b"},"vehicle_type_id":"4","last_reported":1704193557,"current_range_meters":26400,"station_id":"ce4bgh92rcd13ifvqb50","pricing_plan_id":"free"},{"bike_id":"dbc436fa-6a08-4430-ac8f-ad33673b7a74","system_id":"levelo_inurba_marseille","lat":43.295748,"lon":5.37522,"is_reserved":false,"is_disabled":false,"rental_uris":{"android":"levelo://app?vid=dbc436fa-6a08-4430-ac8f-ad33673b7a74","ios":"levelo://app?vid=dbc436fa-6a08-4430-ac8f-ad33673b7a74"},"vehicle_type_id":"4","last_reported":1704193557,"current_range_meters":21600,"station_id":"ce4bgh92rcd13ifvqb50","pricing_plan_id":"free"},{"bike_id":"d60802d6-4f47-444a-b234-883690eec05b","system_id":"levelo_inurba_marseille","lat":43.33062,"lon":5.3627,"is_reserved":false,"is_disabled":false,"rental_uris":{"android":"levelo://app?vid=d60802d6-4f47-444a-b234-883690eec05b","ios":"levelo://app?vid=d60802d6-4f47-444a-b234-883690eec05b"},"vehicle_type_id":"4","last_reported":1704193557,"current_range_meters":16000,"station_id":"","pricing_plan_id":"free"},{"bike_id":"62f77ee7-1c17-459b-b700-5da768e38fad","system_id":"levelo_inurba_marseille","lat":43.296277,"lon":5.377108,"is_reserved":false,"is_disabled":false,"rental_uris":{"android":"levelo://app?vid=62f77ee7-1c17-459b-b700-5da768e38fad","ios":"levelo://app?vid=62f77ee7-1c17-459b-b700-5da768e38fad"},"vehicle_type_id":"4","last_reported":1704193557,"current_range_meters":28000,"station_id":"ce4bgi92rcd13ifvqb90","pricing_plan_id":"free"},{"bike_id":"f67b4ce4-0c9c-4cd2-b119-b472dfee5204","system_id":"levelo_inurba_marseille","lat":43.29538,"lon":5.375,"is_reserved":false,"is_disabled":false,"rental_uris":{"android":"levelo://app?vid=f67b4ce4-0c9c-4cd2-b119-b472dfee5204","ios":"levelo://app?vid=f67b4ce4-0c9c-4cd2-b119-b472dfee5204"},"vehicle_type_id":"4","last_reported":1704193557,"current_range_meters":22400,"station_id":"ce4bgi92rcd13ifvqb90","pricing_plan_id":"free"},{"bike_id":"7119845d-00aa-4d9f-be8c-fc97d41f1380","system_id":"levelo_inurba_marseille","lat":43.297594,"lon":5.381134,"is_reserved":false,"is_disabled":false,"rental_uris":{"android":"levelo://app?vid=7119845d-00aa-4d9f-be8c-fc97d41f1380","ios":"levelo://app?vid=7119845d-00aa-4d9f-be8c-fc97d41f1380"},"vehicle_type_id":"4","last_reported":1704193557,"current_range_meters":4400,"station_id":"ce4bgip2rcd13ifvqbb0","pricing_plan_id":"free"},{"bike_id":"0565e4e3-30af-481c-937c-9f288e305cb7","system_id":"levelo_inurba_marseille","lat":43.295279,"lon":5.375048,"is_reserved":false,"is_disabled":false,"rental_uris":{"android":"levelo://app?vid=0565e4e3-30af-481c-937c-9f288e305cb7","ios":"levelo://app?vid=0565e4e3-30af-481c-937c-9f288e305cb7"},"vehicle_type_id":"4","last_reported":1704193557,"current_range_meters":27600,"station_id":"ce4bgkp2rcd13ifvqbmg","pricing_plan_id":"free"},{"bike_id":"388d72b0-eb8b-4f45-a5d0-830bff2acde4","system_id":"levelo_inurba_marseille","lat":43.295279,"lon":5.375048,"is_reserved":false,"is_disabled":false,"rental_uris":{"android":"levelo://app?vid=388d72b0-eb8b-4f45-a5d0-830bff2acde4","ios":"levelo://app?vid=388d72b0-eb8b-4f45-a5d0-830bff2acde4"},"vehicle_type_id":"4","last_reported":1704193557,"current_range_meters":13200,"station_id":"ce4bgkp2rcd13ifvqbmg","pricing_plan_id":"free"},{"bike_id":"f8cd736d-c034-4ab9-933b-d76726659ee5","system_id":"levelo_inurba_marseille","lat":43.299717,"lon":5.384845,"is_reserved":false,"is_disabled":false,"rental_uris":{"android":"levelo://app?vid=f8cd736d-c034-4ab9-933b-d76726659ee5","ios":"levelo://app?vid=f8cd736d-c034-4ab9-933b-d76726659ee5"},"vehicle_type_id":"4","last_reported":1704193557,"current_range_meters":30400,"station_id":"ce4bgj92rcd13ifvqbd0","pricing_plan_id":"free"},{"bike_id":"609da639-d71a-45dd-a9ca-e79e7f13ba19","system_id":"levelo_inurba_marseille","lat":43.299707,"lon":5.384859,"is_reserved":false,"is_disabled":false,"rental_uris":{"android":"levelo://app?vid=609da639-d71a-45dd-a9ca-e79e7f13ba19","ios":"levelo://app?vid=609da639-d71a-45dd-a9ca-e79e7f13ba19"},"vehicle_type_id":"4","last_reported":1704193557,"current_range_meters":25600,"station_id":"ce4bgj92rcd13ifvqbd0","pricing_plan_id":"free"},{"bike_id":"ae93565c-2d4a-4c85-bfa9-aa1c79b2caf0","system_id":"levelo_inurba_marseille","lat":43.2968,"lon":5.37291,"is_reserved":false,"is_disabled":false,"rental_uris":{"android":"levelo://app?vid=ae93565c-2d4a-4c85-bfa9-aa1c79b2caf0","ios":"levelo://app?vid=ae93565c-2d4a-4c85-bfa9-aa1c79b2caf0"},"vehicle_type_id":"4","last_reported":1704193557,"current_range_meters":0,"station_id":"ce4bgk12rcd13ifvqbj0","pricing_plan_id":"free"},{"bike_id":"06880a87-1d2f-452a-aea3-1c4b96cf9b3f","system_id":"levelo_inurba_marseille","lat":43.32367,"lon":5.388836,"is_reserved":false,"is_disabled":false,"rental_uris":{"android":"levelo://app?vid=06880a87-1d2f-452a-aea3-1c4b96cf9b3f","ios":"levelo://app?vid=06880a87-1d2f-452a-aea3-1c4b96cf9b3f"},"vehicle_type_id":"4","last_reported":1704193557,"current_range_meters":22000,"station_id":"ce4bhqp2rcd13ifvqhog","pricing_plan_id":"free"},{"bike_id":"adc6cb98-8dcc-4ab3-855d-569c025a5ced","system_id":"levelo_inurba_marseille","lat":43.32367,"lon":5.388836,"is_reserved":false,"is_disabled":false,"rental_uris":{"android":"levelo://app?vid=adc6cb98-8dcc-4ab3-855d-569c025a5ced","ios":"levelo://app?vid=adc6cb98-8dcc-4ab3-855d-569c025a5ced"},"vehicle_type_id":"4","last_reported":1704193557,"current_range_meters":26800,"station_id":"ce4bhqp2rcd13ifvqhog","pricing_plan_id":"free"},{"bike_id":"d1ae36cc-3d77-4823-bbea-3ec1cd29b40d","system_id":"levelo_inurba_marseille","lat":43.32367,"lon":5.388836,"is_reserved":false,"is_disabled":false,"rental_uris":{"android":"levelo://app?vid=d1ae36cc-3d77-4823-bbea-3ec1cd29b40d","ios":"levelo://app?vid=d1ae36cc-3d77-4823-bbea-3ec1cd29b40d"},"vehicle_type_id":"4","last_reported":1704193557,"current_range_meters":20400,"station_id":"ce4bhqp2rcd13ifvqhog","pricing_plan_id":"free"},{"bike_id":"a6a6e88c-b9a7-48a0-b083-e1e4ac30245d","system_id":"levelo_inurba_marseille","lat":43.293259,"lon":5.371586,"is_reserved":false,"is_disabled":false,"rental_uris":{"android":"levelo://app?vid=a6a6e88c-b9a7-48a0-b083-e1e4ac30245d","ios":"levelo://app?vid=a6a6e88c-b9a7-48a0-b083-e1e4ac30245d"},"vehicle_type_id":"4","last_reported":1704193557,"current_range_meters":22400,"station_id":"ce4bgh92rcd13ifvqb40","pricing_plan_id":"free"},{"bike_id":"ba35a09f-2233-46a6-8121-64579987a8de","system_id":"levelo_inurba_marseille","lat":43.292749,"lon":5.368402,"is_reserved":false,"is_disabled":false,"rental_uris":{"android":"levelo://app?vid=ba35a09f-2233-46a6-8121-64579987a8de","ios":"levelo://app?vid=ba35a09f-2233-46a6-8121-64579987a8de"},"vehicle_type_id":"4","last_reported":1704193557,"current_range_meters":29600,"station_id":"ce4bhbp2rcd13ifvqesg","pricing_plan_id":"free"},{"bike_id":"ee2e8624-eb0d-4755-928b-f0eb15caecf8","system_id":"levelo_inurba_marseille","lat":43.293259,"lon":5.371586,"is_reserved":false,"is_disabled":false,"rental_uris":{"android":"levelo://app?vid=ee2e8624-eb0d-4755-928b-f0eb15caecf8","ios":"levelo://app?vid=ee2e8624-eb0d-4755-928b-f0eb15caecf8"},"vehicle_type_id":"4","last_reported":1704193557,"current_range_meters":30000,"station_id":"ce4bgh92rcd13ifvqb40","pricing_plan_id":"free"},{"bike_id":"050cca44-6b83-461b-ba70-4fa978d140cc","system_id":"levelo_inurba_marseille","lat":43.292749,"lon":5.368402,"is_reserved":false,"is_disabled":false,"rental_uris":{"android":"levelo://app?vid=050cca44-6b83-461b-ba70-4fa978d140cc","ios":"levelo://app?vid=050cca44-6b83-461b-ba70-4fa978d140cc"},"vehicle_type_id":"4","last_reported":1704193557,"current_range_meters":19600,"station_id":"ce4bhbp2rcd13ifvqesg","pricing_plan_id":"free"},{"bike_id":"7ad6d059-0a84-4f77-a951-a04c8d0f34b5","system_id":"levelo_inurba_marseille","lat":43.293009,"lon":5.374584,"is_reserved":false,"is_disabled":false,"rental_uris":{"android":"levelo://app?vid=7ad6d059-0a84-4f77-a951-a04c8d0f34b5","ios":"levelo://app?vid=7ad6d059-0a84-4f77-a951-a04c8d0f34b5"},"vehicle_type_id":"4","last_reported":1704193557,"current_range_meters":17200,"station_id":"ce4bgi12rcd13ifvqb70","pricing_plan_id":"free"},{"bike_id":"d2f3b409-7817-491d-89f9-21f4a6001a20","system_id":"levelo_inurba_marseille","lat":43.293009,"lon":5.374584,"is_reserved":false,"is_disabled":false,"rental_uris":{"android":"levelo://app?vid=d2f3b409-7817-491d-89f9-21f4a6001a20","ios":"levelo://app?vid=d2f3b409-7817-491d-89f9-21f4a6001a20"},"vehicle_type_id":"4","last_reported":1704193557,"current_range_meters":29600,"station_id":"ce4bgi12rcd13ifvqb70","pricing_plan_id":"free"},{"bike_id":"e0e7153f-cefb-4ee4-911a-f967d272635a","system_id":"levelo_inurba_marseille","lat":43.305994,"lon":5.393687,"is_reserved":false,"is_disabled":false,"rental_uris":{"android":"levelo://app?vid=e0e7153f-cefb-4ee4-911a-f967d272635a","ios":"levelo://app?vid=e0e7153f-cefb-4ee4-911a-f967d272635a"},"vehicle_type_id":"4","last_reported":1704193557,"current_range_meters":9600,"station_id":"ce4bh0p2rcd13ifvqd80","pricing_plan_id":"free"},{"bike_id":"637ec441-1fc7-4275-b9eb-2c3d04bd61c5","system_id":"levelo_inurba_marseille","lat":43.305994,"lon":5.393687,"is_reserved":false,"is_disabled":false,"rental_uris":{"android":"levelo://app?vid=637ec441-1fc7-4275-b9eb-2c3d04bd61c5","ios":"levelo://app?vid=637ec441-1fc7-4275-b9eb-2c3d04bd61c5"},"vehicle_type_id":"4","last_reported":1704193557,"current_range_meters":24400,"station_id":"ce4bh0p2rcd13ifvqd80","pricing_plan_id":"free"},{"bike_id":"1fac14fe-fe23-469a-be3d-730bb0d590f7","system_id":"levelo_inurba_marseille","lat":43.302992,"lon":5.392136,"is_reserved":false,"is_disabled":false,"rental_uris":{"android":"levelo://app?vid=1fac14fe-fe23-469a-be3d-730bb0d590f7","ios":"levelo://app?vid=1fac14fe-fe23-469a-be3d-730bb0d590f7"},"vehicle_type_id":"4","last_reported":1704193557,"current_range_meters":25600,"station_id":"ce4bgkh2rcd13ifvqbk0","pricing_plan_id":"free"},{"bike_id":"1a1481de-040b-486d-8984-45afdbe85ebb","system_id":"levelo_inurba_marseille","lat":43.29253,"lon":5.3739,"is_reserved":false,"is_disabled":false,"rental_uris":{"android":"levelo://app?vid=1a1481de-040b-486d-8984-45afdbe85ebb","ios":"levelo://app?vid=1a1481de-040b-486d-8984-45afdbe85ebb"},"vehicle_type_id":"4","last_reported":1704193557,"current_range_meters":16800,"station_id":"","pricing_plan_id":"free"},{"bike_id":"24331837-79c1-41ec-b8d8-2a5a8ef1e256","system_id":"levelo_inurba_marseille","lat":43.292311,"lon":5.360731,"is_reserved":false,"is_disabled":false,"rental_uris":{"android":"levelo://app?vid=24331837-79c1-41ec-b8d8-2a5a8ef1e256","ios":"levelo://app?vid=24331837-79c1-41ec-b8d8-2a5a8ef1e256"},"vehicle_type_id":"4","last_reported":1704193557,"current_range_meters":30000,"station_id":"ce4bhbh2rcd13ifvqeqg","pricing_plan_id":"free"},{"bike_id":"2e1f43d2-102d-4c39-b2d3-9e3a326bf778","system_id":"levelo_inurba_marseille","lat":43.301,"lon":5.390815,"is_reserved":false,"is_disabled":false,"rental_uris":{"android":"levelo://app?vid=2e1f43d2-102d-4c39-b2d3-9e3a326bf778","ios":"levelo://app?vid=2e1f43d2-102d-4c39-b2d3-9e3a326bf778"},"vehicle_type_id":"4","last_reported":1704193557,"current_range_meters":20000,"station_id":"ce4bh192rcd13ifvqdb0","pricing_plan_id":"free"},{"bike_id":"f4cec07f-16dd-4612-82b0-9b0b850dded3","system_id":"levelo_inurba_marseille","lat":43.29263,"lon":5.37623,"is_reserved":false,"is_disabled":false,"rental_uris":{"android":"levelo://app?vid=f4cec07f-16dd-4612-82b0-9b0b850dded3","ios":"levelo://app?vid=f4cec07f-16dd-4612-82b0-9b0b850dded3"},"vehicle_type_id":"4","last_reported":1704193557,"current_range_meters":22400,"station_id":"ce4bgi12rcd13ifvqb70","pricing_plan_id":"free"},{"bike_id":"1441c9d2-49c5-43f6-accd-b1b702c6507c","system_id":"levelo_inurba_marseille","lat":43.291675,"lon":5.371583,"is_reserved":false,"is_disabled":false,"rental_uris":{"android":"levelo://app?vid=1441c9d2-49c5-43f6-accd-b1b702c6507c","ios":"levelo://app?vid=1441c9d2-49c5-43f6-accd-b1b702c6507c"},"vehicle_type_id":"4","last_reported":1704193557,"current_range_meters":30400,"station_id":"ce4bha92rcd13ifvqeh0","pricing_plan_id":"free"},{"bike_id":"e7cf078d-555f-4ae6-95a8-4a1913b01364","system_id":"levelo_inurba_marseille","lat":43.291675,"lon":5.371583,"is_reserved":false,"is_disabled":false,"rental_uris":{"android":"levelo://app?vid=e7cf078d-555f-4ae6-95a8-4a1913b01364","ios":"levelo://app?vid=e7cf078d-555f-4ae6-95a8-4a1913b01364"},"vehicle_type_id":"4","last_reported":1704193557,"current_range_meters":20800,"station_id":"ce4bha92rcd13ifvqeh0","pricing_plan_id":"free"},{"bike_id":"e6e6bfbc-89f3-4e1a-8970-5703d13f1229","system_id":"levelo_inurba_marseille","lat":43.291671,"lon":5.371575,"is_reserved":false,"is_disabled":false,"rental_uris":{"android":"levelo://app?vid=e6e6bfbc-89f3-4e1a-8970-5703d13f1229","ios":"levelo://app?vid=e6e6bfbc-89f3-4e1a-8970-5703d13f1229"},"vehicle_type_id":"4","last_reported":1704193557,"current_range_meters":26800,"station_id":"ce4bha92rcd13ifvqeh0","pricing_plan_id":"free"},{"bike_id":"60425d65-6b97-4d0b-8c29-2ef27d655c6d","system_id":"levelo_inurba_marseille","lat":43.291994,"lon":5.357886,"is_reserved":false,"is_disabled":false,"rental_uris":{"android":"levelo://app?vid=60425d65-6b97-4d0b-8c29-2ef27d655c6d","ios":"levelo://app?vid=60425d65-6b97-4d0b-8c29-2ef27d655c6d"},"vehicle_type_id":"4","last_reported":1704193557,"current_range_meters":24800,"station_id":"ce4bhb12rcd13ifvqel0","pricing_plan_id":"free"},{"bike_id":"43b12bb4-7fa9-4830-90a7-59bc2fb71b29","system_id":"levelo_inurba_marseille","lat":43.291994,"lon":5.357886,"is_reserved":false,"is_disabled":false,"rental_uris":{"android":"levelo://app?vid=43b12bb4-7fa9-4830-90a7-59bc2fb71b29","ios":"levelo://app?vid=43b12bb4-7fa9-4830-90a7-59bc2fb71b29"},"vehicle_type_id":"4","last_reported":1704193557,"current_range_meters":14400,"station_id":"ce4bhb12rcd13ifvqel0","pricing_plan_id":"free"},{"bike_id":"1142f7a3-aa84-4a1a-9be4-f9657f2b15ad","system_id":"levelo_inurba_marseille","lat":43.305364,"lon":5.384119,"is_reserved":false,"is_disabled":false,"rental_uris":{"android":"levelo://app?vid=1142f7a3-aa84-4a1a-9be4-f9657f2b15ad","ios":"levelo://app?vid=1142f7a3-aa84-4a1a-9be4-f9657f2b15ad"},"vehicle_type_id":"4","last_reported":1704193557,"current_range_meters":27200,"station_id":"ce4bgg92rcd13ifvqb30","pricing_plan_id":"free"},{"bike_id":"477daa15-a0c0-4c18-a0cc-9701079817aa","system_id":"levelo_inurba_marseille","lat":43.313291,"lon":5.396838,"is_reserved":false,"is_disabled":false,"rental_uris":{"android":"levelo://app?vid=477daa15-a0c0-4c18-a0cc-9701079817aa","ios":"levelo://app?vid=477daa15-a0c0-4c18-a0cc-9701079817aa"},"vehicle_type_id":"4","last_reported":1704193557,"current_range_meters":24800,"station_id":"ce4bgvp2rcd13ifvqcu0","pricing_plan_id":"free"},{"bike_id":"c6adb3cc-0bc3-4155-8d31-c632958b9dea","system_id":"levelo_inurba_marseille","lat":43.309038,"lon":5.396546,"is_reserved":false,"is_disabled":false,"rental_uris":{"android":"levelo://app?vid=c6adb3cc-0bc3-4155-8d31-c632958b9dea","ios":"levelo://app?vid=c6adb3cc-0bc3-4155-8d31-c632958b9dea"},"vehicle_type_id":"4","last_reported":1704193557,"current_range_meters":5200,"station_id":"ce4bh012rcd13ifvqcv0","pricing_plan_id":"free"},{"bike_id":"a0125a3a-3567-4503-bc6d-8e957ff25e6d","system_id":"levelo_inurba_marseille","lat":43.290779,"lon":5.371482,"is_reserved":false,"is_disabled":false,"rental_uris":{"android":"levelo://app?vid=a0125a3a-3567-4503-bc6d-8e957ff25e6d","ios":"levelo://app?vid=a0125a3a-3567-4503-bc6d-8e957ff25e6d"},"vehicle_type_id":"4","last_reported":1704193557,"current_range_meters":30400,"station_id":"ce4bh5p2rcd13ifvqe4g","pricing_plan_id":"free"},{"bike_id":"db89fd33-b907-4782-ade2-537f61a68311","system_id":"levelo_inurba_marseille","lat":43.290779,"lon":5.371482,"is_reserved":false,"is_disabled":false,"rental_uris":{"android":"levelo://app?vid=db89fd33-b907-4782-ade2-537f61a68311","ios":"levelo://app?vid=db89fd33-b907-4782-ade2-537f61a68311"},"vehicle_type_id":"4","last_reported":1704193557,"current_range_meters":30400,"station_id":"ce4bh5p2rcd13ifvqe4g","pricing_plan_id":"free"},{"bike_id":"426ca8ba-c3ef-427f-b806-ed33bccfe88c","system_id":"levelo_inurba_marseille","lat":43.302008,"lon":5.394694,"is_reserved":false,"is_disabled":false,"rental_uris":{"android":"levelo://app?vid=426ca8ba-c3ef-427f-b806-ed33bccfe88c","ios":"levelo://app?vid=426ca8ba-c3ef-427f-b806-ed33bccfe88c"},"vehicle_type_id":"4","last_reported":1704193557,"current_range_meters":25600,"station_id":"ce4bh0p2rcd13ifvqd70","pricing_plan_id":"free"},{"bike_id":"eb925b4a-854e-4a29-92b9-c27abaef80fc","system_id":"levelo_inurba_marseille","lat":43.29043,"lon":5.37569,"is_reserved":false,"is_disabled":false,"rental_uris":{"android":"levelo://app?vid=eb925b4a-854e-4a29-92b9-c27abaef80fc","ios":"levelo://app?vid=eb925b4a-854e-4a29-92b9-c27abaef80fc"},"vehicle_type_id":"4","last_reported":1704193557,"current_range_meters":23200,"station_id":"ce4bh692rcd13ifvqe90","pricing_plan_id":"free"},{"bike_id":"f166544b-8131-4ed2-bd44-c5e8af63b705","system_id":"levelo_inurba_marseille","lat":43.29037,"lon":5.37567,"is_reserved":false,"is_disabled":false,"rental_uris":{"android":"levelo://app?vid=f166544b-8131-4ed2-bd44-c5e8af63b705","ios":"levelo://app?vid=f166544b-8131-4ed2-bd44-c5e8af63b705"},"vehicle_type_id":"4","last_reported":1704193557,"current_range_meters":15600,"station_id":"ce4bh692rcd13ifvqe90","pricing_plan_id":"free"},{"bike_id":"921b1644-476e-49ab-8c53-e9daf9a74e2d","system_id":"levelo_inurba_marseille","lat":43.290327,"lon":5.375711,"is_reserved":false,"is_disabled":false,"rental_uris":{"android":"levelo://app?vid=921b1644-476e-49ab-8c53-e9daf9a74e2d","ios":"levelo://app?vid=921b1644-476e-49ab-8c53-e9daf9a74e2d"},"vehicle_type_id":"4","last_reported":1704193557,"current_range_meters":28400,"station_id":"ce4bh692rcd13ifvqe90","pricing_plan_id":"free"},{"bike_id":"47a61677-591d-494f-a737-633c96368157","system_id":"levelo_inurba_marseille","lat":43.292642,"lon":5.384254,"is_reserved":false,"is_disabled":false,"rental_uris":{"android":"levelo://app?vid=47a61677-591d-494f-a737-633c96368157","ios":"levelo://app?vid=47a61677-591d-494f-a737-633c96368157"},"vehicle_type_id":"4","last_reported":1704193557,"current_range_meters":26400,"station_id":"ce4bh692rcd13ifvqea0","pricing_plan_id":"free"},{"bike_id":"d23db34d-612c-4e62-95ee-f33f7ef5204f","system_id":"levelo_inurba_marseille","lat":43.304274,"lon":5.397513,"is_reserved":false,"is_disabled":false,"rental_uris":{"android":"levelo://app?vid=d23db34d-612c-4e62-95ee-f33f7ef5204f","ios":"levelo://app?vid=d23db34d-612c-4e62-95ee-f33f7ef5204f"},"vehicle_type_id":"4","last_reported":1704193557,"current_range_meters":23600,"station_id":"ce4bh092rcd13ifvqd20","pricing_plan_id":"free"},{"bike_id":"f2c2cbde-6a18-4535-8493-b5da39ab13ab","system_id":"levelo_inurba_marseille","lat":43.29601,"lon":5.381084,"is_reserved":false,"is_disabled":false,"rental_uris":{"android":"levelo://app?vid=f2c2cbde-6a18-4535-8493-b5da39ab13ab","ios":"levelo://app?vid=f2c2cbde-6a18-4535-8493-b5da39ab13ab"},"vehicle_type_id":"4","last_reported":1704193557,"current_range_meters":23200,"station_id":"ce4bgl12rcd13ifvqbo0","pricing_plan_id":"free"},{"bike_id":"d982fa1e-213f-4ae1-9ff9-8c3f459d07c3","system_id":"levelo_inurba_marseille","lat":43.280382,"lon":5.369291,"is_reserved":false,"is_disabled":false,"rental_uris":{"android":"levelo://app?vid=d982fa1e-213f-4ae1-9ff9-8c3f459d07c3","ios":"levelo://app?vid=d982fa1e-213f-4ae1-9ff9-8c3f459d07c3"},"vehicle_type_id":"4","last_reported":1704193557,"current_range_meters":9600,"station_id":"ce4bha12rcd13ifvqef0","pricing_plan_id":"free"},{"bike_id":"57dfc2f6-6675-4b29-998e-3450b8f3640c","system_id":"levelo_inurba_marseille","lat":43.289743,"lon":5.378304,"is_reserved":false,"is_disabled":false,"rental_uris":{"android":"levelo://app?vid=57dfc2f6-6675-4b29-998e-3450b8f3640c","ios":"levelo://app?vid=57dfc2f6-6675-4b29-998e-3450b8f3640c"},"vehicle_type_id":"4","last_reported":1704193557,"current_range_meters":30400,"station_id":"ce4bh9p2rcd13ifvqed0","pricing_plan_id":"free"},{"bike_id":"13d41c86-d361-4b17-ae49-6b5491dd4e85","system_id":"levelo_inurba_marseille","lat":43.330442,"lon":5.389148,"is_reserved":false,"is_disabled":false,"rental_uris":{"android":"levelo://app?vid=13d41c86-d361-4b17-ae49-6b5491dd4e85","ios":"levelo://app?vid=13d41c86-d361-4b17-ae49-6b5491dd4e85"},"vehicle_type_id":"4","last_reported":1704193557,"current_range_meters":24800,"station_id":"ce4bhr92rcd13ifvqhrg","pricing_plan_id":"free"},{"bike_id":"00561489-caaa-4eef-a9e6-bec3b5dc39cf","system_id":"levelo_inurba_marseille","lat":43.29527,"lon":5.39049,"is_reserved":false,"is_disabled":false,"rental_uris":{"android":"levelo://app?vid=00561489-caaa-4eef-a9e6-bec3b5dc39cf","ios":"levelo://app?vid=00561489-caaa-4eef-a9e6-bec3b5dc39cf"},"vehicle_type_id":"4","last_reported":1704193557,"current_range_meters":11600,"station_id":"ce4bh3p2rcd13ifvqdp0","pricing_plan_id":"free"},{"bike_id":"b6760735-96db-493f-a7f3-551494815c1a","system_id":"levelo_inurba_marseille","lat":43.28856,"lon":5.358371,"is_reserved":false,"is_disabled":false,"rental_uris":{"android":"levelo://app?vid=b6760735-96db-493f-a7f3-551494815c1a","ios":"levelo://app?vid=b6760735-96db-493f-a7f3-551494815c1a"},"vehicle_type_id":"4","last_reported":1704193557,"current_range_meters":16400,"station_id":"ce4bhb12rcd13ifvqem0","pricing_plan_id":"free"},{"bike_id":"f182ad30-578d-439a-b895-037c49f93cbb","system_id":"levelo_inurba_marseille","lat":43.28039,"lon":5.369297,"is_reserved":false,"is_disabled":false,"rental_uris":{"android":"levelo://app?vid=f182ad30-578d-439a-b895-037c49f93cbb","ios":"levelo://app?vid=f182ad30-578d-439a-b895-037c49f93cbb"},"vehicle_type_id":"4","last_reported":1704193557,"current_range_meters":31200,"station_id":"ce4bha12rcd13ifvqef0","pricing_plan_id":"free"},{"bike_id":"f9cd0216-8441-43a2-bacc-953e16290406","system_id":"levelo_inurba_marseille","lat":43.286039,"lon":5.370681,"is_reserved":false,"is_disabled":false,"rental_uris":{"android":"levelo://app?vid=f9cd0216-8441-43a2-bacc-953e16290406","ios":"levelo://app?vid=f9cd0216-8441-43a2-bacc-953e16290406"},"vehicle_type_id":"4","last_reported":1704193557,"current_range_meters":19600,"station_id":"ce4bht12rcd13ifvqi60","pricing_plan_id":"free"},{"bike_id":"f04c0197-8bb7-4d15-ac5b-e74e1042e935","system_id":"levelo_inurba_marseille","lat":43.286039,"lon":5.370679,"is_reserved":false,"is_disabled":false,"rental_uris":{"android":"levelo://app?vid=f04c0197-8bb7-4d15-ac5b-e74e1042e935","ios":"levelo://app?vid=f04c0197-8bb7-4d15-ac5b-e74e1042e935"},"vehicle_type_id":"4","last_reported":1704193557,"current_range_meters":28000,"station_id":"ce4bht12rcd13ifvqi60","pricing_plan_id":"free"},{"bike_id":"d9795646-69c0-4b3e-bcef-3d2a77703458","system_id":"levelo_inurba_marseille","lat":43.286039,"lon":5.370679,"is_reserved":false,"is_disabled":false,"rental_uris":{"android":"levelo://app?vid=d9795646-69c0-4b3e-bcef-3d2a77703458","ios":"levelo://app?vid=d9795646-69c0-4b3e-bcef-3d2a77703458"},"vehicle_type_id":"4","last_reported":1704193557,"current_range_meters":22400,"station_id":"ce4bht12rcd13ifvqi60","pricing_plan_id":"free"},{"bike_id":"40579999-f28a-4f53-8fc1-32606a609e63","system_id":"levelo_inurba_marseille","lat":43.286039,"lon":5.370679,"is_reserved":false,"is_disabled":false,"rental_uris":{"android":"levelo://app?vid=40579999-f28a-4f53-8fc1-32606a609e63","ios":"levelo://app?vid=40579999-f28a-4f53-8fc1-32606a609e63"},"vehicle_type_id":"4","last_reported":1704193557,"current_range_meters":31200,"station_id":"ce4bht12rcd13ifvqi60","pricing_plan_id":"free"},{"bike_id":"102b8121-ee53-408e-8829-c9b9fc6aef90","system_id":"levelo_inurba_marseille","lat":43.286039,"lon":5.370679,"is_reserved":false,"is_disabled":false,"rental_uris":{"android":"levelo://app?vid=102b8121-ee53-408e-8829-c9b9fc6aef90","ios":"levelo://app?vid=102b8121-ee53-408e-8829-c9b9fc6aef90"},"vehicle_type_id":"4","last_reported":1704193557,"current_range_meters":14400,"station_id":"ce4bht12rcd13ifvqi60","pricing_plan_id":"free"},{"bike_id":"8a4760d7-57b1-4b20-8b85-4aac98c7608f","system_id":"levelo_inurba_marseille","lat":43.316963,"lon":5.404573,"is_reserved":false,"is_disabled":false,"rental_uris":{"android":"levelo://app?vid=8a4760d7-57b1-4b20-8b85-4aac98c7608f","ios":"levelo://app?vid=8a4760d7-57b1-4b20-8b85-4aac98c7608f"},"vehicle_type_id":"4","last_reported":1704193557,"current_range_meters":22400,"station_id":"ce4bh012rcd13ifvqd00","pricing_plan_id":"free"},{"bike_id":"fe9d9231-9266-42cd-b245-ed8ea3c0bdbb","system_id":"levelo_inurba_marseille","lat":43.316889,"lon":5.40463,"is_reserved":false,"is_disabled":false,"rental_uris":{"android":"levelo://app?vid=fe9d9231-9266-42cd-b245-ed8ea3c0bdbb","ios":"levelo://app?vid=fe9d9231-9266-42cd-b245-ed8ea3c0bdbb"},"vehicle_type_id":"4","last_reported":1704193557,"current_range_meters":20400,"station_id":"ce4bh012rcd13ifvqd00","pricing_plan_id":"free"},{"bike_id":"9b0c9e9e-977c-43ca-8676-217c423ef706","system_id":"levelo_inurba_marseille","lat":43.316861,"lon":5.404659,"is_reserved":false,"is_disabled":false,"rental_uris":{"android":"levelo://app?vid=9b0c9e9e-977c-43ca-8676-217c423ef706","ios":"levelo://app?vid=9b0c9e9e-977c-43ca-8676-217c423ef706"},"vehicle_type_id":"4","last_reported":1704193557,"current_range_meters":28400,"station_id":"ce4bh012rcd13ifvqd00","pricing_plan_id":"free"},{"bike_id":"1bbff4a6-6273-40cf-8b09-c2b1368fe6b7","system_id":"levelo_inurba_marseille","lat":43.284538,"lon":5.358657,"is_reserved":false,"is_disabled":false,"rental_uris":{"android":"levelo://app?vid=1bbff4a6-6273-40cf-8b09-c2b1368fe6b7","ios":"levelo://app?vid=1bbff4a6-6273-40cf-8b09-c2b1368fe6b7"},"vehicle_type_id":"4","last_reported":1704193557,"current_range_meters":29600,"station_id":"ce4bhah2rcd13ifvqei0","pricing_plan_id":"free"},{"bike_id":"500f8797-9ac9-44b6-942d-e8abe0e96191","system_id":"levelo_inurba_marseille","lat":43.284538,"lon":5.358657,"is_reserved":false,"is_disabled":false,"rental_uris":{"android":"levelo://app?vid=500f8797-9ac9-44b6-942d-e8abe0e96191","ios":"levelo://app?vid=500f8797-9ac9-44b6-942d-e8abe0e96191"},"vehicle_type_id":"4","last_reported":1704193557,"current_range_meters":30000,"station_id":"ce4bhah2rcd13ifvqei0","pricing_plan_id":"free"},{"bike_id":"99beda4b-18fa-45cc-be6f-dd31a552ffe5","system_id":"levelo_inurba_marseille","lat":43.294314,"lon":5.397498,"is_reserved":false,"is_disabled":false,"rental_uris":{"android":"levelo://app?vid=99beda4b-18fa-45cc-be6f-dd31a552ffe5","ios":"levelo://app?vid=99beda4b-18fa-45cc-be6f-dd31a552ffe5"},"vehicle_type_id":"4","last_reported":1704193557,"current_range_meters":30000,"station_id":"ce4bh3h2rcd13ifvqdo0","pricing_plan_id":"free"},{"bike_id":"b08aec6f-115b-485f-9076-6b6a15e351e9","system_id":"levelo_inurba_marseille","lat":43.285856,"lon":5.350771,"is_reserved":false,"is_disabled":false,"rental_uris":{"android":"levelo://app?vid=b08aec6f-115b-485f-9076-6b6a15e351e9","ios":"levelo://app?vid=b08aec6f-115b-485f-9076-6b6a15e351e9"},"vehicle_type_id":"4","last_reported":1704193557,"current_range_meters":24800,"station_id":"ce4bhch2rcd13ifvqeug","pricing_plan_id":"free"},{"bike_id":"3fad77c0-18a5-486c-b341-c1db98514d33","system_id":"levelo_inurba_marseille","lat":43.28617,"lon":5.35106,"is_reserved":false,"is_disabled":false,"rental_uris":{"android":"levelo://app?vid=3fad77c0-18a5-486c-b341-c1db98514d33","ios":"levelo://app?vid=3fad77c0-18a5-486c-b341-c1db98514d33"},"vehicle_type_id":"4","last_reported":1704193557,"current_range_meters":2000,"station_id":"ce4bhch2rcd13ifvqeug","pricing_plan_id":"free"},{"bike_id":"27c56aac-08bf-428e-833d-39da8c612870","system_id":"levelo_inurba_marseille","lat":43.285856,"lon":5.350771,"is_reserved":false,"is_disabled":false,"rental_uris":{"android":"levelo://app?vid=27c56aac-08bf-428e-833d-39da8c612870","ios":"levelo://app?vid=27c56aac-08bf-428e-833d-39da8c612870"},"vehicle_type_id":"4","last_reported":1704193557,"current_range_meters":30000,"station_id":"ce4bhch2rcd13ifvqeug","pricing_plan_id":"free"},{"bike_id":"d9fd8dfe-c806-4fa6-a1aa-01731bb94f15","system_id":"levelo_inurba_marseille","lat":43.28617,"lon":5.35102,"is_reserved":false,"is_disabled":false,"rental_uris":{"android":"levelo://app?vid=d9fd8dfe-c806-4fa6-a1aa-01731bb94f15","ios":"levelo://app?vid=d9fd8dfe-c806-4fa6-a1aa-01731bb94f15"},"vehicle_type_id":"4","last_reported":1704193557,"current_range_meters":26800,"station_id":"ce4bhch2rcd13ifvqeug","pricing_plan_id":"free"},{"bike_id":"08ec7859-00c1-4ca0-8ceb-f2f50be8e031","system_id":"levelo_inurba_marseille","lat":43.28617,"lon":5.35102,"is_reserved":false,"is_disabled":false,"rental_uris":{"android":"levelo://app?vid=08ec7859-00c1-4ca0-8ceb-f2f50be8e031","ios":"levelo://app?vid=08ec7859-00c1-4ca0-8ceb-f2f50be8e031"},"vehicle_type_id":"4","last_reported":1704193557,"current_range_meters":31200,"station_id":"ce4bhch2rcd13ifvqeug","pricing_plan_id":"free"},{"bike_id":"63f5306b-d050-487d-ad5f-94c2116840d4","system_id":"levelo_inurba_marseille","lat":43.28615,"lon":5.35104,"is_reserved":false,"is_disabled":false,"rental_uris":{"android":"levelo://app?vid=63f5306b-d050-487d-ad5f-94c2116840d4","ios":"levelo://app?vid=63f5306b-d050-487d-ad5f-94c2116840d4"},"vehicle_type_id":"4","last_reported":1704193557,"current_range_meters":31200,"station_id":"ce4bhch2rcd13ifvqeug","pricing_plan_id":"free"},{"bike_id":"dc7a5cbf-5979-46ef-822f-2cfc84db524d","system_id":"levelo_inurba_marseille","lat":43.286136,"lon":5.351045,"is_reserved":false,"is_disabled":false,"rental_uris":{"android":"levelo://app?vid=dc7a5cbf-5979-46ef-822f-2cfc84db524d","ios":"levelo://app?vid=dc7a5cbf-5979-46ef-822f-2cfc84db524d"},"vehicle_type_id":"4","last_reported":1704193557,"current_range_meters":26800,"station_id":"","pricing_plan_id":"free"},{"bike_id":"2bdadb88-56d9-4436-b951-8398615ed172","system_id":"levelo_inurba_marseille","lat":43.28613,"lon":5.35106,"is_reserved":false,"is_disabled":false,"rental_uris":{"android":"levelo://app?vid=2bdadb88-56d9-4436-b951-8398615ed172","ios":"levelo://app?vid=2bdadb88-56d9-4436-b951-8398615ed172"},"vehicle_type_id":"4","last_reported":1704193557,"current_range_meters":27200,"station_id":"ce4bhch2rcd13ifvqeug","pricing_plan_id":"free"},{"bike_id":"b6e71bc2-7b3e-45bd-861f-83730fb0cd8c","system_id":"levelo_inurba_marseille","lat":43.28614,"lon":5.35101,"is_reserved":false,"is_disabled":false,"rental_uris":{"android":"levelo://app?vid=b6e71bc2-7b3e-45bd-861f-83730fb0cd8c","ios":"levelo://app?vid=b6e71bc2-7b3e-45bd-861f-83730fb0cd8c"},"vehicle_type_id":"4","last_reported":1704193557,"current_range_meters":22800,"station_id":"ce4bhch2rcd13ifvqeug","pricing_plan_id":"free"},{"bike_id":"ac9ffd8a-fdd1-4e19-a68b-2f09517347c9","system_id":"levelo_inurba_marseille","lat":43.286103,"lon":5.351079,"is_reserved":false,"is_disabled":false,"rental_uris":{"android":"levelo://app?vid=ac9ffd8a-fdd1-4e19-a68b-2f09517347c9","ios":"levelo://app?vid=ac9ffd8a-fdd1-4e19-a68b-2f09517347c9"},"vehicle_type_id":"4","last_reported":1704193557,"current_range_meters":20400,"station_id":"ce4bhch2rcd13ifvqeug","pricing_plan_id":"free"},{"bike_id":"95bebced-653e-4dde-ae1f-201b003341aa","system_id":"levelo_inurba_marseille","lat":43.283998,"lon":5.375062,"is_reserved":false,"is_disabled":false,"rental_uris":{"android":"levelo://app?vid=95bebced-653e-4dde-ae1f-201b003341aa","ios":"levelo://app?vid=95bebced-653e-4dde-ae1f-201b003341aa"},"vehicle_type_id":"4","last_reported":1704193557,"current_range_meters":22400,"station_id":"ce4bh412rcd13ifvqds0","pricing_plan_id":"free"},{"bike_id":"45bef9b0-7802-4742-ad89-d96c927c2cbd","system_id":"levelo_inurba_marseille","lat":43.28413,"lon":5.37521,"is_reserved":false,"is_disabled":false,"rental_uris":{"android":"levelo://app?vid=45bef9b0-7802-4742-ad89-d96c927c2cbd","ios":"levelo://app?vid=45bef9b0-7802-4742-ad89-d96c927c2cbd"},"vehicle_type_id":"4","last_reported":1704193557,"current_range_meters":13200,"station_id":"ce4bh412rcd13ifvqds0","pricing_plan_id":"free"},{"bike_id":"6c8985e5-7108-41c4-a7bc-31b60db951ae","system_id":"levelo_inurba_marseille","lat":43.28407,"lon":5.37521,"is_reserved":false,"is_disabled":false,"rental_uris":{"android":"levelo://app?vid=6c8985e5-7108-41c4-a7bc-31b60db951ae","ios":"levelo://app?vid=6c8985e5-7108-41c4-a7bc-31b60db951ae"},"vehicle_type_id":"4","last_reported":1704193557,"current_range_meters":24000,"station_id":"ce4bh412rcd13ifvqds0","pricing_plan_id":"free"},{"bike_id":"29901805-35f5-4ffa-b2f4-d1833721e4ce","system_id":"levelo_inurba_marseille","lat":43.28406,"lon":5.37515,"is_reserved":false,"is_disabled":false,"rental_uris":{"android":"levelo://app?vid=29901805-35f5-4ffa-b2f4-d1833721e4ce","ios":"levelo://app?vid=29901805-35f5-4ffa-b2f4-d1833721e4ce"},"vehicle_type_id":"4","last_reported":1704193557,"current_range_meters":26000,"station_id":"ce4bh412rcd13ifvqds0","pricing_plan_id":"free"},{"bike_id":"0a81f5d3-c8c7-497c-9ade-939288df2f52","system_id":"levelo_inurba_marseille","lat":43.286595,"lon":5.386795,"is_reserved":false,"is_disabled":false,"rental_uris":{"android":"levelo://app?vid=0a81f5d3-c8c7-497c-9ade-939288df2f52","ios":"levelo://app?vid=0a81f5d3-c8c7-497c-9ade-939288df2f52"},"vehicle_type_id":"4","last_reported":1704193557,"current_range_meters":20400,"station_id":"ce4bh492rcd13ifvqdug","pricing_plan_id":"free"},{"bike_id":"754390c3-6024-46a0-867c-05628b4ba38d","system_id":"levelo_inurba_marseille","lat":43.319179,"lon":5.407725,"is_reserved":false,"is_disabled":false,"rental_uris":{"android":"levelo://app?vid=754390c3-6024-46a0-867c-05628b4ba38d","ios":"levelo://app?vid=754390c3-6024-46a0-867c-05628b4ba38d"},"vehicle_type_id":"4","last_reported":1704193557,"current_range_meters":28800,"station_id":"ce4bhq12rcd13ifvqhig","pricing_plan_id":"free"},{"bike_id":"57aa4e80-760d-4e3c-a199-3d58309f5f3c","system_id":"levelo_inurba_marseille","lat":43.261782,"lon":5.374515,"is_reserved":false,"is_disabled":false,"rental_uris":{"android":"levelo://app?vid=57aa4e80-760d-4e3c-a199-3d58309f5f3c","ios":"levelo://app?vid=57aa4e80-760d-4e3c-a199-3d58309f5f3c"},"vehicle_type_id":"4","last_reported":1704193557,"current_range_meters":31200,"station_id":"ce4bhgp2rcd13ifvqfc0","pricing_plan_id":"free"},{"bike_id":"3a34192a-8b34-47a6-8d79-245a33690514","system_id":"levelo_inurba_marseille","lat":43.33717,"lon":5.391857,"is_reserved":false,"is_disabled":false,"rental_uris":{"android":"levelo://app?vid=3a34192a-8b34-47a6-8d79-245a33690514","ios":"levelo://app?vid=3a34192a-8b34-47a6-8d79-245a33690514"},"vehicle_type_id":"4","last_reported":1704193557,"current_range_meters":28400,"station_id":"ce4bhr92rcd13ifvqhsg","pricing_plan_id":"free"},{"bike_id":"90a3742a-b6b1-431b-bfa6-9984c3222dd1","system_id":"levelo_inurba_marseille","lat":43.33717,"lon":5.391857,"is_reserved":false,"is_disabled":false,"rental_uris":{"android":"levelo://app?vid=90a3742a-b6b1-431b-bfa6-9984c3222dd1","ios":"levelo://app?vid=90a3742a-b6b1-431b-bfa6-9984c3222dd1"},"vehicle_type_id":"4","last_reported":1704193557,"current_range_meters":26000,"station_id":"ce4bhr92rcd13ifvqhsg","pricing_plan_id":"free"},{"bike_id":"78bb1215-3373-4d3f-b7bd-f79703d6e8c0","system_id":"levelo_inurba_marseille","lat":43.323464,"lon":5.406297,"is_reserved":false,"is_disabled":false,"rental_uris":{"android":"levelo://app?vid=78bb1215-3373-4d3f-b7bd-f79703d6e8c0","ios":"levelo://app?vid=78bb1215-3373-4d3f-b7bd-f79703d6e8c0"},"vehicle_type_id":"4","last_reported":1704193557,"current_range_meters":27200,"station_id":"ce4bhq92rcd13ifvqhjg","pricing_plan_id":"free"},{"bike_id":"8af6642b-e526-4770-8a06-6b115e68c32b","system_id":"levelo_inurba_marseille","lat":43.337258,"lon":5.391844,"is_reserved":false,"is_disabled":false,"rental_uris":{"android":"levelo://app?vid=8af6642b-e526-4770-8a06-6b115e68c32b","ios":"levelo://app?vid=8af6642b-e526-4770-8a06-6b115e68c32b"},"vehicle_type_id":"4","last_reported":1704193557,"current_range_meters":21200,"station_id":"ce4bhr92rcd13ifvqhsg","pricing_plan_id":"free"},{"bike_id":"d3837f57-b992-4c84-a0a7-b545d2582111","system_id":"levelo_inurba_marseille","lat":43.323464,"lon":5.406297,"is_reserved":false,"is_disabled":false,"rental_uris":{"android":"levelo://app?vid=d3837f57-b992-4c84-a0a7-b545d2582111","ios":"levelo://app?vid=d3837f57-b992-4c84-a0a7-b545d2582111"},"vehicle_type_id":"4","last_reported":1704193557,"current_range_meters":29600,"station_id":"ce4bhq92rcd13ifvqhjg","pricing_plan_id":"free"},{"bike_id":"279c24e1-5891-4e70-a317-d0f5cce47927","system_id":"levelo_inurba_marseille","lat":43.323464,"lon":5.406297,"is_reserved":false,"is_disabled":false,"rental_uris":{"android":"levelo://app?vid=279c24e1-5891-4e70-a317-d0f5cce47927","ios":"levelo://app?vid=279c24e1-5891-4e70-a317-d0f5cce47927"},"vehicle_type_id":"4","last_reported":1704193557,"current_range_meters":28800,"station_id":"ce4bhq92rcd13ifvqhjg","pricing_plan_id":"free"},{"bike_id":"1860c054-e673-4084-804e-8832a59aeb53","system_id":"levelo_inurba_marseille","lat":43.337317,"lon":5.39186,"is_reserved":false,"is_disabled":false,"rental_uris":{"android":"levelo://app?vid=1860c054-e673-4084-804e-8832a59aeb53","ios":"levelo://app?vid=1860c054-e673-4084-804e-8832a59aeb53"},"vehicle_type_id":"4","last_reported":1704193557,"current_range_meters":24000,"station_id":"ce4bhr92rcd13ifvqhsg","pricing_plan_id":"free"},{"bike_id":"649cb45e-402a-43c7-82d2-7aa0cbec5328","system_id":"levelo_inurba_marseille","lat":43.284787,"lon":5.384116,"is_reserved":false,"is_disabled":false,"rental_uris":{"android":"levelo://app?vid=649cb45e-402a-43c7-82d2-7aa0cbec5328","ios":"levelo://app?vid=649cb45e-402a-43c7-82d2-7aa0cbec5328"},"vehicle_type_id":"4","last_reported":1704193557,"current_range_meters":26000,"station_id":"ce4bh512rcd13ifvqe3g","pricing_plan_id":"free"},{"bike_id":"a695e86e-9722-4d14-84e8-80e39951e0fd","system_id":"levelo_inurba_marseille","lat":43.283498,"lon":5.380948,"is_reserved":false,"is_disabled":false,"rental_uris":{"android":"levelo://app?vid=a695e86e-9722-4d14-84e8-80e39951e0fd","ios":"levelo://app?vid=a695e86e-9722-4d14-84e8-80e39951e0fd"},"vehicle_type_id":"4","last_reported":1704193557,"current_range_meters":19200,"station_id":"ce4bh412rcd13ifvqdr0","pricing_plan_id":"free"},{"bike_id":"65fc3fef-48f9-41ae-a1f0-c7a03190bfef","system_id":"levelo_inurba_marseille","lat":43.304278,"lon":5.388868,"is_reserved":false,"is_disabled":false,"rental_uris":{"android":"levelo://app?vid=65fc3fef-48f9-41ae-a1f0-c7a03190bfef","ios":"levelo://app?vid=65fc3fef-48f9-41ae-a1f0-c7a03190bfef"},"vehicle_type_id":"4","last_reported":1704193557,"current_range_meters":20000,"station_id":"ce4bgk12rcd13ifvqbi0","pricing_plan_id":"free"},{"bike_id":"b7cb68cc-956b-4d94-95e3-9edde036a4db","system_id":"levelo_inurba_marseille","lat":43.28039,"lon":5.369297,"is_reserved":false,"is_disabled":false,"rental_uris":{"android":"levelo://app?vid=b7cb68cc-956b-4d94-95e3-9edde036a4db","ios":"levelo://app?vid=b7cb68cc-956b-4d94-95e3-9edde036a4db"},"vehicle_type_id":"4","last_reported":1704193557,"current_range_meters":24400,"station_id":"ce4bha12rcd13ifvqef0","pricing_plan_id":"free"},{"bike_id":"725da3f3-432d-49c8-b050-29f0979b20ad","system_id":"levelo_inurba_marseille","lat":43.285742,"lon":5.395004,"is_reserved":false,"is_disabled":false,"rental_uris":{"android":"levelo://app?vid=725da3f3-432d-49c8-b050-29f0979b20ad","ios":"levelo://app?vid=725da3f3-432d-49c8-b050-29f0979b20ad"},"vehicle_type_id":"4","last_reported":1704193557,"current_range_meters":22800,"station_id":"ce4bh292rcd13ifvqdg0","pricing_plan_id":"free"},{"bike_id":"63ef493a-db4b-4496-ad1b-ba396f3c1336","system_id":"levelo_inurba_marseille","lat":43.336134,"lon":5.410341,"is_reserved":false,"is_disabled":false,"rental_uris":{"android":"levelo://app?vid=63ef493a-db4b-4496-ad1b-ba396f3c1336","ios":"levelo://app?vid=63ef493a-db4b-4496-ad1b-ba396f3c1336"},"vehicle_type_id":"4","last_reported":1704193557,"current_range_meters":27600,"station_id":"ce4bhqh2rcd13ifvqhmg","pricing_plan_id":"free"},{"bike_id":"52096488-c01e-4f37-91ed-6d79b7d0f178","system_id":"levelo_inurba_marseille","lat":43.304188,"lon":5.412904,"is_reserved":false,"is_disabled":false,"rental_uris":{"android":"levelo://app?vid=52096488-c01e-4f37-91ed-6d79b7d0f178","ios":"levelo://app?vid=52096488-c01e-4f37-91ed-6d79b7d0f178"},"vehicle_type_id":"4","last_reported":1704193557,"current_range_meters":29200,"station_id":"ce4bhop2rcd13ifvqh8g","pricing_plan_id":"free"},{"bike_id":"8571ddf1-8157-46ba-b747-ea46713afd05","system_id":"levelo_inurba_marseille","lat":43.292826,"lon":5.406539,"is_reserved":false,"is_disabled":false,"rental_uris":{"android":"levelo://app?vid=8571ddf1-8157-46ba-b747-ea46713afd05","ios":"levelo://app?vid=8571ddf1-8157-46ba-b747-ea46713afd05"},"vehicle_type_id":"4","last_reported":1704193557,"current_range_meters":0,"station_id":"","pricing_plan_id":"free"},{"bike_id":"b22a412d-4d61-463d-a6c2-0d27acc06e8f","system_id":"levelo_inurba_marseille","lat":43.287154,"lon":5.399979,"is_reserved":false,"is_disabled":false,"rental_uris":{"android":"levelo://app?vid=b22a412d-4d61-463d-a6c2-0d27acc06e8f","ios":"levelo://app?vid=b22a412d-4d61-463d-a6c2-0d27acc06e8f"},"vehicle_type_id":"4","last_reported":1704193557,"current_range_meters":26800,"station_id":"ce4bho92rcd13ifvqh3g","pricing_plan_id":"free"},{"bike_id":"a3d247ed-649d-4c85-a132-e7472f5a507f","system_id":"levelo_inurba_marseille","lat":43.287154,"lon":5.399979,"is_reserved":false,"is_disabled":false,"rental_uris":{"android":"levelo://app?vid=a3d247ed-649d-4c85-a132-e7472f5a507f","ios":"levelo://app?vid=a3d247ed-649d-4c85-a132-e7472f5a507f"},"vehicle_type_id":"4","last_reported":1704193557,"current_range_meters":22000,"station_id":"ce4bho92rcd13ifvqh3g","pricing_plan_id":"free"},{"bike_id":"45120a21-f343-45ce-8fb6-e06904f75898","system_id":"levelo_inurba_marseille","lat":43.320045,"lon":5.415046,"is_reserved":false,"is_disabled":false,"rental_uris":{"android":"levelo://app?vid=45120a21-f343-45ce-8fb6-e06904f75898","ios":"levelo://app?vid=45120a21-f343-45ce-8fb6-e06904f75898"},"vehicle_type_id":"4","last_reported":1704193557,"current_range_meters":30800,"station_id":"ce4bhq92rcd13ifvqhkg","pricing_plan_id":"free"},{"bike_id":"615ddd57-fea9-4bbf-bf62-13fe65a025c6","system_id":"levelo_inurba_marseille","lat":43.320045,"lon":5.415048,"is_reserved":false,"is_disabled":false,"rental_uris":{"android":"levelo://app?vid=615ddd57-fea9-4bbf-bf62-13fe65a025c6","ios":"levelo://app?vid=615ddd57-fea9-4bbf-bf62-13fe65a025c6"},"vehicle_type_id":"4","last_reported":1704193557,"current_range_meters":29200,"station_id":"ce4bhq92rcd13ifvqhkg","pricing_plan_id":"free"},{"bike_id":"0714d2ad-1b59-4216-bfff-3794d1958c2d","system_id":"levelo_inurba_marseille","lat":43.279742,"lon":5.38744,"is_reserved":false,"is_disabled":false,"rental_uris":{"android":"levelo://app?vid=0714d2ad-1b59-4216-bfff-3794d1958c2d","ios":"levelo://app?vid=0714d2ad-1b59-4216-bfff-3794d1958c2d"},"vehicle_type_id":"4","last_reported":1704193557,"current_range_meters":26400,"station_id":"ce4bhg12rcd13ifvqf80","pricing_plan_id":"free"},{"bike_id":"e9e342a5-71f4-448a-a0e1-6ff4791eca67","system_id":"levelo_inurba_marseille","lat":43.320045,"lon":5.415046,"is_reserved":false,"is_disabled":false,"rental_uris":{"android":"levelo://app?vid=e9e342a5-71f4-448a-a0e1-6ff4791eca67","ios":"levelo://app?vid=e9e342a5-71f4-448a-a0e1-6ff4791eca67"},"vehicle_type_id":"4","last_reported":1704193557,"current_range_meters":31200,"station_id":"ce4bhq92rcd13ifvqhkg","pricing_plan_id":"free"},{"bike_id":"7bbcad25-0a4a-4a24-8bcc-a0fa0f9897dc","system_id":"levelo_inurba_marseille","lat":43.292569,"lon":5.409107,"is_reserved":false,"is_disabled":false,"rental_uris":{"android":"levelo://app?vid=7bbcad25-0a4a-4a24-8bcc-a0fa0f9897dc","ios":"levelo://app?vid=7bbcad25-0a4a-4a24-8bcc-a0fa0f9897dc"},"vehicle_type_id":"4","last_reported":1704193557,"current_range_meters":11200,"station_id":"ce4bh192rcd13ifvqdc0","pricing_plan_id":"free"},{"bike_id":"493c529d-4816-4d54-82ca-cf1d3517820d","system_id":"levelo_inurba_marseille","lat":43.325233,"lon":5.414318,"is_reserved":false,"is_disabled":false,"rental_uris":{"android":"levelo://app?vid=493c529d-4816-4d54-82ca-cf1d3517820d","ios":"levelo://app?vid=493c529d-4816-4d54-82ca-cf1d3517820d"},"vehicle_type_id":"4","last_reported":1704193557,"current_range_meters":26400,"station_id":"ce4bhq12rcd13ifvqhhg","pricing_plan_id":"free"},{"bike_id":"260996b3-629f-4165-8d4f-a2b7e8c47d75","system_id":"levelo_inurba_marseille","lat":43.325243,"lon":5.414326,"is_reserved":false,"is_disabled":false,"rental_uris":{"android":"levelo://app?vid=260996b3-629f-4165-8d4f-a2b7e8c47d75","ios":"levelo://app?vid=260996b3-629f-4165-8d4f-a2b7e8c47d75"},"vehicle_type_id":"4","last_reported":1704193557,"current_range_meters":30000,"station_id":"ce4bhq12rcd13ifvqhhg","pricing_plan_id":"free"},{"bike_id":"0e7898ca-bae7-4dc8-9e3a-8312b02faa42","system_id":"levelo_inurba_marseille","lat":43.280784,"lon":5.396622,"is_reserved":false,"is_disabled":false,"rental_uris":{"android":"levelo://app?vid=0e7898ca-bae7-4dc8-9e3a-8312b02faa42","ios":"levelo://app?vid=0e7898ca-bae7-4dc8-9e3a-8312b02faa42"},"vehicle_type_id":"4","last_reported":1704193557,"current_range_meters":18000,"station_id":"ce4bho12rcd13ifvqh2g","pricing_plan_id":"free"},{"bike_id":"72fcfe75-3449-4594-8465-a5d86ec07d19","system_id":"levelo_inurba_marseille","lat":43.27824,"lon":5.392045,"is_reserved":false,"is_disabled":false,"rental_uris":{"android":"levelo://app?vid=72fcfe75-3449-4594-8465-a5d86ec07d19","ios":"levelo://app?vid=72fcfe75-3449-4594-8465-a5d86ec07d19"},"vehicle_type_id":"4","last_reported":1704193557,"current_range_meters":28400,"station_id":"ce4bhjp2rcd13ifvqga0","pricing_plan_id":"free"},{"bike_id":"abead95e-245f-4d7a-ab0e-8c4d4145d43e","system_id":"levelo_inurba_marseille","lat":43.2738,"lon":5.36253,"is_reserved":false,"is_disabled":false,"rental_uris":{"android":"levelo://app?vid=abead95e-245f-4d7a-ab0e-8c4d4145d43e","ios":"levelo://app?vid=abead95e-245f-4d7a-ab0e-8c4d4145d43e"},"vehicle_type_id":"4","last_reported":1704193557,"current_range_meters":24400,"station_id":"ce4bhbh2rcd13ifvqeo0","pricing_plan_id":"free"},{"bike_id":"c276b51d-b218-4a42-acae-3176cb37da3e","system_id":"levelo_inurba_marseille","lat":43.279975,"lon":5.40009,"is_reserved":false,"is_disabled":false,"rental_uris":{"android":"levelo://app?vid=c276b51d-b218-4a42-acae-3176cb37da3e","ios":"levelo://app?vid=c276b51d-b218-4a42-acae-3176cb37da3e"},"vehicle_type_id":"4","last_reported":1704193557,"current_range_meters":28800,"station_id":"ce4bho92rcd13ifvqh4g","pricing_plan_id":"free"},{"bike_id":"dd1fde5c-cda1-4952-aabe-3f4b315e1162","system_id":"levelo_inurba_marseille","lat":43.279952,"lon":5.400085,"is_reserved":false,"is_disabled":false,"rental_uris":{"android":"levelo://app?vid=dd1fde5c-cda1-4952-aabe-3f4b315e1162","ios":"levelo://app?vid=dd1fde5c-cda1-4952-aabe-3f4b315e1162"},"vehicle_type_id":"4","last_reported":1704193557,"current_range_meters":19600,"station_id":"ce4bho92rcd13ifvqh4g","pricing_plan_id":"free"},{"bike_id":"40a6490a-7a82-4760-aa4e-e343f1aa848b","system_id":"levelo_inurba_marseille","lat":43.279952,"lon":5.400085,"is_reserved":false,"is_disabled":false,"rental_uris":{"android":"levelo://app?vid=40a6490a-7a82-4760-aa4e-e343f1aa848b","ios":"levelo://app?vid=40a6490a-7a82-4760-aa4e-e343f1aa848b"},"vehicle_type_id":"4","last_reported":1704193557,"current_range_meters":8400,"station_id":"ce4bho92rcd13ifvqh4g","pricing_plan_id":"free"},{"bike_id":"b2e64161-bed0-442d-9e12-361d365ea82c","system_id":"levelo_inurba_marseille","lat":43.279952,"lon":5.400085,"is_reserved":false,"is_disabled":false,"rental_uris":{"android":"levelo://app?vid=b2e64161-bed0-442d-9e12-361d365ea82c","ios":"levelo://app?vid=b2e64161-bed0-442d-9e12-361d365ea82c"},"vehicle_type_id":"4","last_reported":1704193557,"current_range_meters":30800,"station_id":"ce4bho92rcd13ifvqh4g","pricing_plan_id":"free"},{"bike_id":"67f781ad-c24f-4061-973c-356803fa1c6c","system_id":"levelo_inurba_marseille","lat":43.279952,"lon":5.400085,"is_reserved":false,"is_disabled":false,"rental_uris":{"android":"levelo://app?vid=67f781ad-c24f-4061-973c-356803fa1c6c","ios":"levelo://app?vid=67f781ad-c24f-4061-973c-356803fa1c6c"},"vehicle_type_id":"4","last_reported":1704193557,"current_range_meters":13200,"station_id":"ce4bho92rcd13ifvqh4g","pricing_plan_id":"free"},{"bike_id":"2d68f679-42a3-4a63-8bd6-9ebdf4c92577","system_id":"levelo_inurba_marseille","lat":43.279952,"lon":5.400085,"is_reserved":false,"is_disabled":false,"rental_uris":{"android":"levelo://app?vid=2d68f679-42a3-4a63-8bd6-9ebdf4c92577","ios":"levelo://app?vid=2d68f679-42a3-4a63-8bd6-9ebdf4c92577"},"vehicle_type_id":"4","last_reported":1704193557,"current_range_meters":18400,"station_id":"ce4bho92rcd13ifvqh4g","pricing_plan_id":"free"},{"bike_id":"4760841b-4fd7-4b7d-aef3-782de75b0909","system_id":"levelo_inurba_marseille","lat":43.317121,"lon":5.423936,"is_reserved":false,"is_disabled":false,"rental_uris":{"android":"levelo://app?vid=4760841b-4fd7-4b7d-aef3-782de75b0909","ios":"levelo://app?vid=4760841b-4fd7-4b7d-aef3-782de75b0909"},"vehicle_type_id":"4","last_reported":1704193557,"current_range_meters":22400,"station_id":"ce4bhp92rcd13ifvqhbg","pricing_plan_id":"free"},{"bike_id":"5e3452d0-bbc8-463b-8852-ec98e809d5a0","system_id":"levelo_inurba_marseille","lat":43.317121,"lon":5.423936,"is_reserved":false,"is_disabled":false,"rental_uris":{"android":"levelo://app?vid=5e3452d0-bbc8-463b-8852-ec98e809d5a0","ios":"levelo://app?vid=5e3452d0-bbc8-463b-8852-ec98e809d5a0"},"vehicle_type_id":"4","last_reported":1704193557,"current_range_meters":31600,"station_id":"ce4bhp92rcd13ifvqhbg","pricing_plan_id":"free"},{"bike_id":"e2340435-a767-4a07-9db0-637fd4bce462","system_id":"levelo_inurba_marseille","lat":43.317121,"lon":5.423936,"is_reserved":false,"is_disabled":false,"rental_uris":{"android":"levelo://app?vid=e2340435-a767-4a07-9db0-637fd4bce462","ios":"levelo://app?vid=e2340435-a767-4a07-9db0-637fd4bce462"},"vehicle_type_id":"4","last_reported":1704193557,"current_range_meters":10400,"station_id":"ce4bhp92rcd13ifvqhbg","pricing_plan_id":"free"},{"bike_id":"f3e351f0-7ca3-497e-a450-69da3118abd7","system_id":"levelo_inurba_marseille","lat":43.31723,"lon":5.42406,"is_reserved":false,"is_disabled":false,"rental_uris":{"android":"levelo://app?vid=f3e351f0-7ca3-497e-a450-69da3118abd7","ios":"levelo://app?vid=f3e351f0-7ca3-497e-a450-69da3118abd7"},"vehicle_type_id":"4","last_reported":1704193557,"current_range_meters":25200,"station_id":"ce4bhp92rcd13ifvqhbg","pricing_plan_id":"free"},{"bike_id":"eb56ca18-ac85-401b-985c-b6a30c1e61f1","system_id":"levelo_inurba_marseille","lat":43.310785,"lon":5.424305,"is_reserved":false,"is_disabled":false,"rental_uris":{"android":"levelo://app?vid=eb56ca18-ac85-401b-985c-b6a30c1e61f1","ios":"levelo://app?vid=eb56ca18-ac85-401b-985c-b6a30c1e61f1"},"vehicle_type_id":"4","last_reported":1704193557,"current_range_meters":27600,"station_id":"ce4bhp92rcd13ifvqhag","pricing_plan_id":"free"},{"bike_id":"47f8cb60-186e-4e83-96aa-050d47af2974","system_id":"levelo_inurba_marseille","lat":43.34137,"lon":5.409074,"is_reserved":false,"is_disabled":false,"rental_uris":{"android":"levelo://app?vid=47f8cb60-186e-4e83-96aa-050d47af2974","ios":"levelo://app?vid=47f8cb60-186e-4e83-96aa-050d47af2974"},"vehicle_type_id":"4","last_reported":1704193557,"current_range_meters":12800,"station_id":"ce4bhqh2rcd13ifvqhlg","pricing_plan_id":"free"},{"bike_id":"d7a0f436-4a10-430d-9dfa-fb613b9a9e9c","system_id":"levelo_inurba_marseille","lat":43.340804,"lon":5.410219,"is_reserved":false,"is_disabled":false,"rental_uris":{"android":"levelo://app?vid=d7a0f436-4a10-430d-9dfa-fb613b9a9e9c","ios":"levelo://app?vid=d7a0f436-4a10-430d-9dfa-fb613b9a9e9c"},"vehicle_type_id":"4","last_reported":1704193557,"current_range_meters":19600,"station_id":"ce4bhqh2rcd13ifvqhlg","pricing_plan_id":"free"},{"bike_id":"bffc7df3-9602-4ac8-a431-68f6795d24f7","system_id":"levelo_inurba_marseille","lat":43.273125,"lon":5.390731,"is_reserved":false,"is_disabled":false,"rental_uris":{"android":"levelo://app?vid=bffc7df3-9602-4ac8-a431-68f6795d24f7","ios":"levelo://app?vid=bffc7df3-9602-4ac8-a431-68f6795d24f7"},"vehicle_type_id":"4","last_reported":1704193557,"current_range_meters":25600,"station_id":"ce4bhgp2rcd13ifvqfe0","pricing_plan_id":"free"},{"bike_id":"1e69a20f-b011-4143-92e4-93472f696efe","system_id":"levelo_inurba_marseille","lat":43.273125,"lon":5.390731,"is_reserved":false,"is_disabled":false,"rental_uris":{"android":"levelo://app?vid=1e69a20f-b011-4143-92e4-93472f696efe","ios":"levelo://app?vid=1e69a20f-b011-4143-92e4-93472f696efe"},"vehicle_type_id":"4","last_reported":1704193557,"current_range_meters":16800,"station_id":"ce4bhgp2rcd13ifvqfe0","pricing_plan_id":"free"},{"bike_id":"d6f95a70-c9ed-433f-92b8-5e4ba4dca2e4","system_id":"levelo_inurba_marseille","lat":43.274099,"lon":5.394019,"is_reserved":false,"is_disabled":false,"rental_uris":{"android":"levelo://app?vid=d6f95a70-c9ed-433f-92b8-5e4ba4dca2e4","ios":"levelo://app?vid=d6f95a70-c9ed-433f-92b8-5e4ba4dca2e4"},"vehicle_type_id":"4","last_reported":1704193557,"current_range_meters":30000,"station_id":"ce4bhdp2rcd13ifvqf20","pricing_plan_id":"free"},{"bike_id":"1aaae1a8-b104-4497-a80b-bb9803f0c3e7","system_id":"levelo_inurba_marseille","lat":43.274099,"lon":5.394019,"is_reserved":false,"is_disabled":false,"rental_uris":{"android":"levelo://app?vid=1aaae1a8-b104-4497-a80b-bb9803f0c3e7","ios":"levelo://app?vid=1aaae1a8-b104-4497-a80b-bb9803f0c3e7"},"vehicle_type_id":"4","last_reported":1704193557,"current_range_meters":7600,"station_id":"ce4bhdp2rcd13ifvqf20","pricing_plan_id":"free"},{"bike_id":"10943741-20ac-41ed-9a7f-b8dbd7e26ce9","system_id":"levelo_inurba_marseille","lat":43.274099,"lon":5.394019,"is_reserved":false,"is_disabled":false,"rental_uris":{"android":"levelo://app?vid=10943741-20ac-41ed-9a7f-b8dbd7e26ce9","ios":"levelo://app?vid=10943741-20ac-41ed-9a7f-b8dbd7e26ce9"},"vehicle_type_id":"4","last_reported":1704193557,"current_range_meters":27200,"station_id":"ce4bhdp2rcd13ifvqf20","pricing_plan_id":"free"},{"bike_id":"943bcc48-e632-4273-b6e8-5dbbdadd3d07","system_id":"levelo_inurba_marseille","lat":43.304096,"lon":5.425385,"is_reserved":false,"is_disabled":false,"rental_uris":{"android":"levelo://app?vid=943bcc48-e632-4273-b6e8-5dbbdadd3d07","ios":"levelo://app?vid=943bcc48-e632-4273-b6e8-5dbbdadd3d07"},"vehicle_type_id":"4","last_reported":1704193557,"current_range_meters":16000,"station_id":"ce4bhoh2rcd13ifvqh6g","pricing_plan_id":"free"},{"bike_id":"659b5bb0-4d1b-4a82-b6aa-c06bf50695e6","system_id":"levelo_inurba_marseille","lat":43.295511,"lon":5.422926,"is_reserved":false,"is_disabled":false,"rental_uris":{"android":"levelo://app?vid=659b5bb0-4d1b-4a82-b6aa-c06bf50695e6","ios":"levelo://app?vid=659b5bb0-4d1b-4a82-b6aa-c06bf50695e6"},"vehicle_type_id":"4","last_reported":1704193557,"current_range_meters":30000,"station_id":"ce4bhph2rcd13ifvqhdg","pricing_plan_id":"free"},{"bike_id":"8eeabbeb-a6fe-4d4c-bf1d-50555c333c0c","system_id":"levelo_inurba_marseille","lat":43.272116,"lon":5.391747,"is_reserved":false,"is_disabled":false,"rental_uris":{"android":"levelo://app?vid=8eeabbeb-a6fe-4d4c-bf1d-50555c333c0c","ios":"levelo://app?vid=8eeabbeb-a6fe-4d4c-bf1d-50555c333c0c"},"vehicle_type_id":"4","last_reported":1704193557,"current_range_meters":28400,"station_id":"ce4bhhp2rcd13ifvqfm0","pricing_plan_id":"free"},{"bike_id":"f776b393-ea9c-4617-9f1e-5fd6effb2288","system_id":"levelo_inurba_marseille","lat":43.272124,"lon":5.391768,"is_reserved":false,"is_disabled":false,"rental_uris":{"android":"levelo://app?vid=f776b393-ea9c-4617-9f1e-5fd6effb2288","ios":"levelo://app?vid=f776b393-ea9c-4617-9f1e-5fd6effb2288"},"vehicle_type_id":"4","last_reported":1704193557,"current_range_meters":5600,"station_id":"ce4bhhp2rcd13ifvqfm0","pricing_plan_id":"free"},{"bike_id":"02c91824-15c7-4888-82c3-04dd1ed79730","system_id":"levelo_inurba_marseille","lat":43.272116,"lon":5.391763,"is_reserved":false,"is_disabled":false,"rental_uris":{"android":"levelo://app?vid=02c91824-15c7-4888-82c3-04dd1ed79730","ios":"levelo://app?vid=02c91824-15c7-4888-82c3-04dd1ed79730"},"vehicle_type_id":"4","last_reported":1704193557,"current_range_meters":20400,"station_id":"ce4bhhp2rcd13ifvqfm0","pricing_plan_id":"free"},{"bike_id":"a1de90e0-a402-47ae-9f9d-c4770dc8cf3f","system_id":"levelo_inurba_marseille","lat":43.272124,"lon":5.391768,"is_reserved":false,"is_disabled":false,"rental_uris":{"android":"levelo://app?vid=a1de90e0-a402-47ae-9f9d-c4770dc8cf3f","ios":"levelo://app?vid=a1de90e0-a402-47ae-9f9d-c4770dc8cf3f"},"vehicle_type_id":"4","last_reported":1704193557,"current_range_meters":26000,"station_id":"ce4bhhp2rcd13ifvqfm0","pricing_plan_id":"free"},{"bike_id":"be6a9141-036d-47a4-89cf-72f53e5f3f83","system_id":"levelo_inurba_marseille","lat":43.269467,"lon":5.386439,"is_reserved":false,"is_disabled":false,"rental_uris":{"android":"levelo://app?vid=be6a9141-036d-47a4-89cf-72f53e5f3f83","ios":"levelo://app?vid=be6a9141-036d-47a4-89cf-72f53e5f3f83"},"vehicle_type_id":"4","last_reported":1704193557,"current_range_meters":7600,"station_id":"ce4bhh92rcd13ifvqfh0","pricing_plan_id":"free"},{"bike_id":"1ca639e6-29c4-4447-a5c5-afbc366d498e","system_id":"levelo_inurba_marseille","lat":43.269467,"lon":5.386439,"is_reserved":false,"is_disabled":false,"rental_uris":{"android":"levelo://app?vid=1ca639e6-29c4-4447-a5c5-afbc366d498e","ios":"levelo://app?vid=1ca639e6-29c4-4447-a5c5-afbc366d498e"},"vehicle_type_id":"4","last_reported":1704193557,"current_range_meters":15200,"station_id":"ce4bhh92rcd13ifvqfh0","pricing_plan_id":"free"},{"bike_id":"f1bcd722-9160-418d-8d59-a8076984b730","system_id":"levelo_inurba_marseille","lat":43.269467,"lon":5.386439,"is_reserved":false,"is_disabled":false,"rental_uris":{"android":"levelo://app?vid=f1bcd722-9160-418d-8d59-a8076984b730","ios":"levelo://app?vid=f1bcd722-9160-418d-8d59-a8076984b730"},"vehicle_type_id":"4","last_reported":1704193557,"current_range_meters":31600,"station_id":"ce4bhh92rcd13ifvqfh0","pricing_plan_id":"free"},{"bike_id":"5054ef2f-fc95-4722-8c13-ddc7362ab8aa","system_id":"levelo_inurba_marseille","lat":43.269467,"lon":5.386439,"is_reserved":false,"is_disabled":false,"rental_uris":{"android":"levelo://app?vid=5054ef2f-fc95-4722-8c13-ddc7362ab8aa","ios":"levelo://app?vid=5054ef2f-fc95-4722-8c13-ddc7362ab8aa"},"vehicle_type_id":"4","last_reported":1704193557,"current_range_meters":31200,"station_id":"ce4bhh92rcd13ifvqfh0","pricing_plan_id":"free"},{"bike_id":"d136f0f9-ece0-4a6b-9526-917556657e5a","system_id":"levelo_inurba_marseille","lat":43.269467,"lon":5.386439,"is_reserved":false,"is_disabled":false,"rental_uris":{"android":"levelo://app?vid=d136f0f9-ece0-4a6b-9526-917556657e5a","ios":"levelo://app?vid=d136f0f9-ece0-4a6b-9526-917556657e5a"},"vehicle_type_id":"4","last_reported":1704193557,"current_range_meters":27600,"station_id":"ce4bhh92rcd13ifvqfh0","pricing_plan_id":"free"},{"bike_id":"829e8e59-bb75-4490-8993-e3b0bfb975e0","system_id":"levelo_inurba_marseille","lat":43.269467,"lon":5.386439,"is_reserved":false,"is_disabled":false,"rental_uris":{"android":"levelo://app?vid=829e8e59-bb75-4490-8993-e3b0bfb975e0","ios":"levelo://app?vid=829e8e59-bb75-4490-8993-e3b0bfb975e0"},"vehicle_type_id":"4","last_reported":1704193557,"current_range_meters":8400,"station_id":"ce4bhh92rcd13ifvqfh0","pricing_plan_id":"free"},{"bike_id":"9b214e75-7485-4fd9-8a43-f5867879ae27","system_id":"levelo_inurba_marseille","lat":43.269467,"lon":5.386439,"is_reserved":false,"is_disabled":false,"rental_uris":{"android":"levelo://app?vid=9b214e75-7485-4fd9-8a43-f5867879ae27","ios":"levelo://app?vid=9b214e75-7485-4fd9-8a43-f5867879ae27"},"vehicle_type_id":"4","last_reported":1704193557,"current_range_meters":24000,"station_id":"ce4bhh92rcd13ifvqfh0","pricing_plan_id":"free"},{"bike_id":"92ab16bd-2a65-4391-ba5b-095edf931f42","system_id":"levelo_inurba_marseille","lat":43.269467,"lon":5.386439,"is_reserved":false,"is_disabled":false,"rental_uris":{"android":"levelo://app?vid=92ab16bd-2a65-4391-ba5b-095edf931f42","ios":"levelo://app?vid=92ab16bd-2a65-4391-ba5b-095edf931f42"},"vehicle_type_id":"4","last_reported":1704193557,"current_range_meters":0,"station_id":"ce4bhh92rcd13ifvqfh0","pricing_plan_id":"free"},{"bike_id":"425f9578-de78-4e61-bdf4-7cfac3cad89a","system_id":"levelo_inurba_marseille","lat":43.279465,"lon":5.410561,"is_reserved":false,"is_disabled":false,"rental_uris":{"android":"levelo://app?vid=425f9578-de78-4e61-bdf4-7cfac3cad89a","ios":"levelo://app?vid=425f9578-de78-4e61-bdf4-7cfac3cad89a"},"vehicle_type_id":"4","last_reported":1704193557,"current_range_meters":21600,"station_id":"ce4bhnp2rcd13ifvqh0g","pricing_plan_id":"free"},