{"last_updated":1744089032,"ttl":60,"version":"2.2","data":{"bikes":[{"bike_id":"2607cbcb-f01f-4a18-a84e-704e99a9c241","system_id":"levelo_inurba_marseille","lat":43.25102,"lon":5.403511,"is_reserved":false,"is_disabled":false,"rental_uris":{"android":"levelo://app?vid=2607cbcb-f01f-4a18-a84e-704e99a9c241","ios":"levelo://app?vid=2607cbcb-f01f-4a18-a84e-704e99a9c241"},"vehicle_type_id":"4","last_reported":1744089032,"current_range_meters":2800,"station_id":"ce4bhlh2rcd13ifvqgig","pricing_plan_id":"cebpf4jnsgd1na2vs0mg"},{"bike_id":"bda28d1e-0f84-474d-a739-6c6b9ce16d63","system_id":"levelo_inurba_marseille","lat":43.27059,"lon":5.42292,"is_reserved":false,"is_disabled":false,"rental_uris":{"android":"levelo://app?vid=bda28d1e-0f84-474d-a739-6c6b9ce16d63","ios":"levelo://app?vid=bda28d1e-0f84-474d-a739-6c6b9ce16d63"},"vehicle_type_id":"4","last_reported":1744089032,"current_range_meters":3200,"station_id":"ce4bhk92rcd13ifvqgb0","pricing_plan_id":"cebpf4jnsgd1na2vs0mg"},{"bike_id":"f3a82a8f-9c35-45c4-ba4d-a07bdb15f8b5","system_id":"levelo_inurba_marseille","lat":43.331507,"lon":5.410606,"is_reserved":false,"is_disabled":false,"rental_uris":{"android":"levelo://app?vid=f3a82a8f-9c35-45c4-ba4d-a07bdb15f8b5","ios":"levelo://app?vid=f3a82a8f-9c35-45c4-ba4d-a07bdb15f8b5"},"vehicle_type_id":"4","last_reported":1744089032,"current_range_meters":3200,"station_id":"","pricing_plan_id":"cebpf4jnsgd1na2vs0mg"},{"bike_id":"2e2e9e06-8d2b-4e2e-a7fa-ca3dcaea1b0d","system_id":"levelo_inurba_marseille","lat":43.29893,"lon":5.38924,"is_reserved":false,"is_disabled":false,"rental_uris":{"android":"levelo://app?vid=2e2e9e06-8d2b-4e2e-a7fa-ca3dcaea1b0d","ios":"levelo://app?vid=2e2e9e06-8d2b-4e2e-a7fa-ca3dcaea1b0d"},"vehicle_type_id":"4","last_reported":1744089032,"current_range_meters":3200,"station_id":"ce4bh392rcd13ifvqdl0","pricing_plan_id":"cebpf4jnsgd1na2vs0mg"},{"bike_id":"f85929bf-8ce3-4f64-9a38-f6ea21d51d14","system_id":"levelo_inurba_marseille","lat":43.28024,"lon":5.3694,"is_reserved":false,"is_disabled":false,"rental_uris":{"android":"levelo://app?vid=f85929bf-8ce3-4f64-9a38-f6ea21d51d14","ios":"levelo://app?vid=f85929bf-8ce3-4f64-9a38-f6ea21d51d14"},"vehicle_type_id":"4","last_reported":1744089032,"current_range_meters":3600,"station_id":"ce4bha12rcd13ifvqef0","pricing_plan_id":"cebpf4jnsgd1na2vs0mg"},{"bike_id":"b29aff3b-6390-4b57-b2d8-2d4f62df2edc","system_id":"levelo_inurba_marseille","lat":43.28105,"lon":5.42685,"is_reserved":false,"is_disabled":false,"rental_uris":{"android":"levelo://app?vid=b29aff3b-6390-4b57-b2d8-2d4f62df2edc","ios":"levelo://app?vid=b29aff3b-6390-4b57-b2d8-2d4f62df2edc"},"vehicle_type_id":"4","last_reported":1744089032,"current_range_meters":3600,"station_id":"","pricing_plan_id":"cebpf4jnsgd1na2vs0mg"},{"bike_id":"4e63bc7f-b907-45ea-bc67-f61c9be2b9d6","system_id":"levelo_inurba_marseille","lat":43.299756,"lon":5.384944,"is_reserved":false,"is_disabled":true,"rental_uris":{"android":"levelo://app?vid=4e63bc7f-b907-45ea-bc67-f61c9be2b9d6","ios":"levelo://app?vid=4e63bc7f-b907-45ea-bc67-f61c9be2b9d6"},"vehicle_type_id":"4","last_reported":1744089032,"current_range_meters":3600,"station_id":"ce4bgj92rcd13ifvqbd0","pricing_plan_id":"cebpf4jnsgd1na2vs0mg"},{"bike_id":"136b6e45-ee21-453e-aa22-e07947db9071","system_id":"levelo_inurba_marseille","lat":43.23157,"lon":5.437,"is_reserved":false,"is_disabled":true,"rental_uris":{"android":"levelo://app?vid=136b6e45-ee21-453e-aa22-e07947db9071","ios":"levelo://app?vid=136b6e45-ee21-453e-aa22-e07947db9071"},"vehicle_type_id":"4","last_reported":1744089032,"current_range_meters":3600,"station_id":"ce4bhmp2rcd13ifvqgog","pricing_plan_id":"cebpf4jnsgd1na2vs0mg"},{"bike_id":"00393ee2-317d-4e98-a30d-fd25773ef49f","system_id":"levelo_inurba_marseille","lat":43.35217,"lon":5.35822,"is_reserved":false,"is_disabled":false,"rental_uris":{"android":"levelo://app?vid=00393ee2-317d-4e98-a30d-fd25773ef49f","ios":"levelo://app?vid=00393ee2-317d-4e98-a30d-fd25773ef49f"},"vehicle_type_id":"4","last_reported":1744089032,"current_range_meters":4000,"station_id":"","pricing_plan_id":"cebpf4jnsgd1na2vs0mg"},{"bike_id":"aba5e844-f429-4fca-8fbd-34616f5265a2","system_id":"levelo_inurba_marseille","lat":43.28154,"lon":5.42648,"is_reserved":false,"is_disabled":false,"rental_uris":{"android":"levelo://app?vid=aba5e844-f429-4fca-8fbd-34616f5265a2","ios":"levelo://app?vid=aba5e844-f429-4fca-8fbd-34616f5265a2"},"vehicle_type_id":"4","last_reported":1744089032,"current_range_meters":4000,"station_id":"ce4bhnh2rcd13ifvqgug","pricing_plan_id":"cebpf4jnsgd1na2vs0mg"},{"bike_id":"30641c38-db5b-435c-abfb-7ef62ecbb550","system_id":"levelo_inurba_marseille","lat":43.3055,"lon":5.38429,"is_reserved":false,"is_disabled":true,"rental_uris":{"android":"levelo://app?vid=30641c38-db5b-435c-abfb-7ef62ecbb550","ios":"levelo://app?vid=30641c38-db5b-435c-abfb-7ef62ecbb550"},"vehicle_type_id":"4","last_reported":1744089032,"current_range_meters":4400,"station_id":"ce4bgg92rcd13ifvqb30","pricing_plan_id":"cebpf4jnsgd1na2vs0mg"},{"bike_id":"00084bf2-d9fe-4ce5-a7df-0e18fbb9a5d0","system_id":"levelo_inurba_marseille","lat":43.30258,"lon":5.40066,"is_reserved":false,"is_disabled":false,"rental_uris":{"android":"levelo://app?vid=00084bf2-d9fe-4ce5-a7df-0e18fbb9a5d0","ios":"levelo://app?vid=00084bf2-d9fe-4ce5-a7df-0e18fbb9a5d0"},"vehicle_type_id":"4","last_reported":1744089032,"current_range_meters":4400,"station_id":"ce4bgvh2rcd13ifvqcs0","pricing_plan_id":"cebpf4jnsgd1na2vs0mg"},{"bike_id":"351b921a-1463-4cf6-859d-ca5bd51a6e76","system_id":"levelo_inurba_marseille","lat":43.31658,"lon":5.36404,"is_reserved":false,"is_disabled":false,"rental_uris":{"android":"levelo://app?vid=351b921a-1463-4cf6-859d-ca5bd51a6e76","ios":"levelo://app?vid=351b921a-1463-4cf6-859d-ca5bd51a6e76"},"vehicle_type_id":"4","last_reported":1744089032,"current_range_meters":4800,"station_id":"","pricing_plan_id":"cebpf4jnsgd1na2vs0mg"},{"bike_id":"eb79d1f9-7c91-4ea2-b5f8-796189743e1a","system_id":"levelo_inurba_marseille","lat":43.34257,"lon":5.38108,"is_reserved":false,"is_disabled":false,"rental_uris":{"android":"levelo://app?vid=eb79d1f9-7c91-4ea2-b5f8-796189743e1a","ios":"levelo://app?vid=eb79d1f9-7c91-4ea2-b5f8-796189743e1a"},"vehicle_type_id":"4","last_reported":1744089032,"current_range_meters":5600,"station_id":"","pricing_plan_id":"cebpf4jnsgd1na2vs0mg"},{"bike_id":"c24c2dc1-81db-4df5-8375-4c1f2c251f86","system_id":"levelo_inurba_marseille","lat":43.26223,"lon":5.40468,"is_reserved":false,"is_disabled":false,"rental_uris":{"android":"levelo://app?vid=c24c2dc1-81db-4df5-8375-4c1f2c251f86","ios":"levelo://app?vid=c24c2dc1-81db-4df5-8375-4c1f2c251f86"},"vehicle_type_id":"4","last_reported":1744089032,"current_range_meters":5600,"station_id":"ce4bhmh2rcd13ifvqgmg","pricing_plan_id":"cebpf4jnsgd1na2vs0mg"},{"bike_id":"2fbe95f8-0851-44e4-971f-1fc476136b20","system_id":"levelo_inurba_marseille","lat":43.304399,"lon":5.388977,"is_reserved":false,"is_disabled":false,"rental_uris":{"android":"levelo://app?vid=2fbe95f8-0851-44e4-971f-1fc476136b20","ios":"levelo://app?vid=2fbe95f8-0851-44e4-971f-1fc476136b20"},"vehicle_type_id":"4","last_reported":1744089032,"current_range_meters":5600,"station_id":"ce4bgk12rcd13ifvqbi0","pricing_plan_id":"cebpf4jnsgd1na2vs0mg"},{"bike_id":"d89cf537-5d49-4ffb-bba5-1642ba79c24f","system_id":"levelo_inurba_marseille","lat":43.25111,"lon":5.40324,"is_reserved":false,"is_disabled":false,"rental_uris":{"android":"levelo://app?vid=d89cf537-5d49-4ffb-bba5-1642ba79c24f","ios":"levelo://app?vid=d89cf537-5d49-4ffb-bba5-1642ba79c24f"},"vehicle_type_id":"4","last_reported":1744089032,"current_range_meters":5600,"station_id":"ce4bhlh2rcd13ifvqgig","pricing_plan_id":"cebpf4jnsgd1na2vs0mg"},{"bike_id":"da74ed2e-ece9-4184-bf47-bed68016e781","system_id":"levelo_inurba_marseille","lat":43.26779,"lon":5.39423,"is_reserved":false,"is_disabled":false,"rental_uris":{"android":"levelo://app?vid=da74ed2e-ece9-4184-bf47-bed68016e781","ios":"levelo://app?vid=da74ed2e-ece9-4184-bf47-bed68016e781"},"vehicle_type_id":"4","last_reported":1744089032,"current_range_meters":5600,"station_id":"ce4bhh12rcd13ifvqfg0","pricing_plan_id":"cebpf4jnsgd1na2vs0mg"},{"bike_id":"79ab7e2b-c8a0-4086-a8e4-f12e17aa0560","system_id":"levelo_inurba_marseille","lat":43.30286,"lon":5.37132,"is_reserved":false,"is_disabled":false,"rental_uris":{"android":"levelo://app?vid=79ab7e2b-c8a0-4086-a8e4-f12e17aa0560","ios":"levelo://app?vid=79ab7e2b-c8a0-4086-a8e4-f12e17aa0560"},"vehicle_type_id":"4","last_reported":1744089032,"current_range_meters":5600,"station_id":"","pricing_plan_id":"cebpf4jnsgd1na2vs0mg"},{"bike_id":"ce17fe04-8862-4ea9-afba-f7bcdbfd1051","system_id":"levelo_inurba_marseille","lat":43.284198,"lon":5.349859,"is_reserved":false,"is_disabled":false,"rental_uris":{"android":"levelo://app?vid=ce17fe04-8862-4ea9-afba-f7bcdbfd1051","ios":"levelo://app?vid=ce17fe04-8862-4ea9-afba-f7bcdbfd1051"},"vehicle_type_id":"4","last_reported":1744089032,"current_range_meters":5600,"station_id":"ce4bhbh2rcd13ifvqepg","pricing_plan_id":"cebpf4jnsgd1na2vs0mg"},{"bike_id":"041f93b2-449e-477e-aa21-960efdfb59ac","system_id":"levelo_inurba_marseille","lat":43.29979,"lon":5.38524,"is_reserved":false,"is_disabled":false,"rental_uris":{"android":"levelo://app?vid=041f93b2-449e-477e-aa21-960efdfb59ac","ios":"levelo://app?vid=041f93b2-449e-477e-aa21-960efdfb59ac"},"vehicle_type_id":"4","last_reported":1744089032,"current_range_meters":6000,"station_id":"ce4bgj92rcd13ifvqbd0","pricing_plan_id":"cebpf4jnsgd1na2vs0mg"},{"bike_id":"d3d54bb5-13e4-4bfd-ae24-b2ab9c99b42e","system_id":"levelo_inurba_marseille","lat":43.309152,"lon":5.378786,"is_reserved":false,"is_disabled":false,"rental_uris":{"android":"levelo://app?vid=d3d54bb5-13e4-4bfd-ae24-b2ab9c99b42e","ios":"levelo://app?vid=d3d54bb5-13e4-4bfd-ae24-b2ab9c99b42e"},"vehicle_type_id":"4","last_reported":1744089032,"current_range_meters":6000,"station_id":"","pricing_plan_id":"cebpf4jnsgd1na2vs0mg"},{"bike_id":"badb5974-951d-481c-bbc8-59a201b0f6a8","system_id":"levelo_inurba_marseille","lat":43.28726,"lon":5.36089,"is_reserved":false,"is_disabled":false,"rental_uris":{"android":"levelo://app?vid=badb5974-951d-481c-bbc8-59a201b0f6a8","ios":"levelo://app?vid=badb5974-951d-481c-bbc8-59a201b0f6a8"},"vehicle_type_id":"4","last_reported":1744089032,"current_range_meters":6400,"station_id":"cki0cbj6b192h4jlfktg","pricing_plan_id":"cebpf4jnsgd1na2vs0mg"},{"bike_id":"6b770536-e0ee-4074-a4d5-7fac1065bae9","system_id":"levelo_inurba_marseille","lat":43.33743,"lon":5.39196,"is_reserved":false,"is_disabled":false,"rental_uris":{"android":"levelo://app?vid=6b770536-e0ee-4074-a4d5-7fac1065bae9","ios":"levelo://app?vid=6b770536-e0ee-4074-a4d5-7fac1065bae9"},"vehicle_type_id":"4","last_reported":1744089032,"current_range_meters":6400,"station_id":"ce4bhr92rcd13ifvqhsg","pricing_plan_id":"cebpf4jnsgd1na2vs0mg"},{"bike_id":"a959694d-18ce-4d80-917f-23c91ed81065","system_id":"levelo_inurba_marseille","lat":43.29904,"lon":5.43666,"is_reserved":false,"is_disabled":false,"rental_uris":{"android":"levelo://app?vid=a959694d-18ce-4d80-917f-23c91ed81065","ios":"levelo://app?vid=a959694d-18ce-4d80-917f-23c91ed81065"},"vehicle_type_id":"4","last_reported":1744089032,"current_range_meters":6400,"station_id":"ce4bhpp2rcd13ifvqhfg","pricing_plan_id":"cebpf4jnsgd1na2vs0mg"},{"bike_id":"c74ae530-9670-4460-9e91-da7e134141c6","system_id":"levelo_inurba_marseille","lat":43.3042,"lon":5.38912,"is_reserved":false,"is_disabled":false,"rental_uris":{"android":"levelo://app?vid=c74ae530-9670-4460-9e91-da7e134141c6","ios":"levelo://app?vid=c74ae530-9670-4460-9e91-da7e134141c6"},"vehicle_type_id":"4","last_reported":1744089032,"current_range_meters":6400,"station_id":"ce4bgk12rcd13ifvqbi0","pricing_plan_id":"cebpf4jnsgd1na2vs0mg"},{"bike_id":"c3e6d442-6282-4c88-9f90-93d85aff9e76","system_id":"levelo_inurba_marseille","lat":43.281622,"lon":5.426382,"is_reserved":false,"is_disabled":false,"rental_uris":{"android":"levelo://app?vid=c3e6d442-6282-4c88-9f90-93d85aff9e76","ios":"levelo://app?vid=c3e6d442-6282-4c88-9f90-93d85aff9e76"},"vehicle_type_id":"4","last_reported":1744089032,"current_range_meters":6400,"station_id":"ce4bhnh2rcd13ifvqgug","pricing_plan_id":"cebpf4jnsgd1na2vs0mg"},{"bike_id":"454ad229-ae8c-47df-9402-1bfe4abd3acd","system_id":"levelo_inurba_marseille","lat":43.28334,"lon":5.42666,"is_reserved":false,"is_disabled":false,"rental_uris":{"android":"levelo://app?vid=454ad229-ae8c-47df-9402-1bfe4abd3acd","ios":"levelo://app?vid=454ad229-ae8c-47df-9402-1bfe4abd3acd"},"vehicle_type_id":"4","last_reported":1744089032,"current_range_meters":6400,"station_id":"","pricing_plan_id":"cebpf4jnsgd1na2vs0mg"},{"bike_id":"d3b22430-f2f3-498e-a709-0d9e04280ae5","system_id":"levelo_inurba_marseille","lat":43.30941,"lon":5.3797,"is_reserved":false,"is_disabled":false,"rental_uris":{"android":"levelo://app?vid=d3b22430-f2f3-498e-a709-0d9e04280ae5","ios":"levelo://app?vid=d3b22430-f2f3-498e-a709-0d9e04280ae5"},"vehicle_type_id":"4","last_reported":1744089032,"current_range_meters":6400,"station_id":"","pricing_plan_id":"cebpf4jnsgd1na2vs0mg"},{"bike_id":"6ebe9ec3-b74c-497b-aa8c-e68d0877c617","system_id":"levelo_inurba_marseille","lat":43.251215,"lon":5.403244,"is_reserved":false,"is_disabled":false,"rental_uris":{"android":"levelo://app?vid=6ebe9ec3-b74c-497b-aa8c-e68d0877c617","ios":"levelo://app?vid=6ebe9ec3-b74c-497b-aa8c-e68d0877c617"},"vehicle_type_id":"4","last_reported":1744089032,"current_range_meters":6800,"station_id":"ce4bhlh2rcd13ifvqgig","pricing_plan_id":"cebpf4jnsgd1na2vs0mg"},{"bike_id":"8a38320c-a733-4cf5-8c8e-152497fe8f8f","system_id":"levelo_inurba_marseille","lat":43.281529,"lon":5.426299,"is_reserved":false,"is_disabled":false,"rental_uris":{"android":"levelo://app?vid=8a38320c-a733-4cf5-8c8e-152497fe8f8f","ios":"levelo://app?vid=8a38320c-a733-4cf5-8c8e-152497fe8f8f"},"vehicle_type_id":"4","last_reported":1744089032,"current_range_meters":6800,"station_id":"ce4bhnh2rcd13ifvqgug","pricing_plan_id":"cebpf4jnsgd1na2vs0mg"},{"bike_id":"f3b83e8a-c65f-4f5d-8899-2b84c089f530","system_id":"levelo_inurba_marseille","lat":43.32134,"lon":5.36781,"is_reserved":false,"is_disabled":false,"rental_uris":{"android":"levelo://app?vid=f3b83e8a-c65f-4f5d-8899-2b84c089f530","ios":"levelo://app?vid=f3b83e8a-c65f-4f5d-8899-2b84c089f530"},"vehicle_type_id":"4","last_reported":1744089032,"current_range_meters":6800,"station_id":"","pricing_plan_id":"cebpf4jnsgd1na2vs0mg"},{"bike_id":"516d1131-8d22-4c00-9743-8f8296b9be79","system_id":"levelo_inurba_marseille","lat":43.25485,"lon":5.37642,"is_reserved":false,"is_disabled":true,"rental_uris":{"android":"levelo://app?vid=516d1131-8d22-4c00-9743-8f8296b9be79","ios":"levelo://app?vid=516d1131-8d22-4c00-9743-8f8296b9be79"},"vehicle_type_id":"4","last_reported":1744089032,"current_range_meters":6800,"station_id":"ce4bhh12rcd13ifvqff0","pricing_plan_id":"cebpf4jnsgd1na2vs0mg"},{"bike_id":"73276e73-379c-4215-bfe8-0a4cdf26f8fb","system_id":"levelo_inurba_marseille","lat":43.273787,"lon":5.362519,"is_reserved":false,"is_disabled":true,"rental_uris":{"android":"levelo://app?vid=73276e73-379c-4215-bfe8-0a4cdf26f8fb","ios":"levelo://app?vid=73276e73-379c-4215-bfe8-0a4cdf26f8fb"},"vehicle_type_id":"4","last_reported":1744089032,"current_range_meters":6800,"station_id":"ce4bhbh2rcd13ifvqeo0","pricing_plan_id":"cebpf4jnsgd1na2vs0mg"},{"bike_id":"2f09e351-1fd4-46fd-aaf9-3fc007187281","system_id":"levelo_inurba_marseille","lat":43.30655,"lon":5.40075,"is_reserved":false,"is_disabled":false,"rental_uris":{"android":"levelo://app?vid=2f09e351-1fd4-46fd-aaf9-3fc007187281","ios":"levelo://app?vid=2f09e351-1fd4-46fd-aaf9-3fc007187281"},"vehicle_type_id":"4","last_reported":1744089032,"current_range_meters":6800,"station_id":"ce4bh112rcd13ifvqda0","pricing_plan_id":"cebpf4jnsgd1na2vs0mg"},{"bike_id":"19224d95-e048-4cbb-8884-43e0e6b3db9b","system_id":"levelo_inurba_marseille","lat":43.29898,"lon":5.39787,"is_reserved":false,"is_disabled":true,"rental_uris":{"android":"levelo://app?vid=19224d95-e048-4cbb-8884-43e0e6b3db9b","ios":"levelo://app?vid=19224d95-e048-4cbb-8884-43e0e6b3db9b"},"vehicle_type_id":"4","last_reported":1744089032,"current_range_meters":6800,"station_id":"ce4bh0h2rcd13ifvqd50","pricing_plan_id":"cebpf4jnsgd1na2vs0mg"},{"bike_id":"ebc84582-195b-4b4a-b4a4-256c36fe0b00","system_id":"levelo_inurba_marseille","lat":43.27066,"lon":5.42271,"is_reserved":false,"is_disabled":false,"rental_uris":{"android":"levelo://app?vid=ebc84582-195b-4b4a-b4a4-256c36fe0b00","ios":"levelo://app?vid=ebc84582-195b-4b4a-b4a4-256c36fe0b00"},"vehicle_type_id":"4","last_reported":1744089032,"current_range_meters":7200,"station_id":"ce4bhk92rcd13ifvqgb0","pricing_plan_id":"cebpf4jnsgd1na2vs0mg"},{"bike_id":"755acd57-59ea-49ed-ad6a-698107bd5c37","system_id":"levelo_inurba_marseille","lat":43.32361,"lon":5.36774,"is_reserved":false,"is_disabled":false,"rental_uris":{"android":"levelo://app?vid=755acd57-59ea-49ed-ad6a-698107bd5c37","ios":"levelo://app?vid=755acd57-59ea-49ed-ad6a-698107bd5c37"},"vehicle_type_id":"4","last_reported":1744089032,"current_range_meters":7200,"station_id":"ce4bhsh2rcd13ifvqi2g","pricing_plan_id":"cebpf4jnsgd1na2vs0mg"},{"bike_id":"24387c00-c894-493a-b556-5f0eeae60447","system_id":"levelo_inurba_marseille","lat":43.29539,"lon":5.39051,"is_reserved":false,"is_disabled":false,"rental_uris":{"android":"levelo://app?vid=24387c00-c894-493a-b556-5f0eeae60447","ios":"levelo://app?vid=24387c00-c894-493a-b556-5f0eeae60447"},"vehicle_type_id":"4","last_reported":1744089032,"current_range_meters":7200,"station_id":"ce4bh3p2rcd13ifvqdp0","pricing_plan_id":"cebpf4jnsgd1na2vs0mg"},{"bike_id":"6f0c8a80-7e89-4863-a8d6-f84e65c261ef","system_id":"levelo_inurba_marseille","lat":43.27214,"lon":5.40977,"is_reserved":false,"is_disabled":false,"rental_uris":{"android":"levelo://app?vid=6f0c8a80-7e89-4863-a8d6-f84e65c261ef","ios":"levelo://app?vid=6f0c8a80-7e89-4863-a8d6-f84e65c261ef"},"vehicle_type_id":"4","last_reported":1744089032,"current_range_meters":7200,"station_id":"ce4bhl12rcd13ifvqgf0","pricing_plan_id":"cebpf4jnsgd1na2vs0mg"},{"bike_id":"e223670b-5545-4017-934f-c2adf2f3c08b","system_id":"levelo_inurba_marseille","lat":43.27072,"lon":5.42288,"is_reserved":false,"is_disabled":false,"rental_uris":{"android":"levelo://app?vid=e223670b-5545-4017-934f-c2adf2f3c08b","ios":"levelo://app?vid=e223670b-5545-4017-934f-c2adf2f3c08b"},"vehicle_type_id":"4","last_reported":1744089032,"current_range_meters":7200,"station_id":"ce4bhk92rcd13ifvqgb0","pricing_plan_id":"cebpf4jnsgd1na2vs0mg"},{"bike_id":"21ad2b20-e326-40c8-a3d6-b2092488dc26","system_id":"levelo_inurba_marseille","lat":43.24384,"lon":5.37026,"is_reserved":false,"is_disabled":false,"rental_uris":{"android":"levelo://app?vid=21ad2b20-e326-40c8-a3d6-b2092488dc26","ios":"levelo://app?vid=21ad2b20-e326-40c8-a3d6-b2092488dc26"},"vehicle_type_id":"4","last_reported":1744089032,"current_range_meters":7200,"station_id":"ce4bhhh2rcd13ifvqfk0","pricing_plan_id":"cebpf4jnsgd1na2vs0mg"},{"bike_id":"a5353134-0495-4e2a-a638-32c608b90f0c","system_id":"levelo_inurba_marseille","lat":43.3133,"lon":5.3969,"is_reserved":false,"is_disabled":false,"rental_uris":{"android":"levelo://app?vid=a5353134-0495-4e2a-a638-32c608b90f0c","ios":"levelo://app?vid=a5353134-0495-4e2a-a638-32c608b90f0c"},"vehicle_type_id":"4","last_reported":1744089032,"current_range_meters":7200,"station_id":"ce4bgvp2rcd13ifvqcu0","pricing_plan_id":"cebpf4jnsgd1na2vs0mg"},{"bike_id":"87bda883-ac94-49fc-94c2-3a86e52b4f97","system_id":"levelo_inurba_marseille","lat":43.30736,"lon":5.3838,"is_reserved":false,"is_disabled":false,"rental_uris":{"android":"levelo://app?vid=87bda883-ac94-49fc-94c2-3a86e52b4f97","ios":"levelo://app?vid=87bda883-ac94-49fc-94c2-3a86e52b4f97"},"vehicle_type_id":"4","last_reported":1744089032,"current_range_meters":8000,"station_id":"","pricing_plan_id":"cebpf4jnsgd1na2vs0mg"},{"bike_id":"a061f55a-1f9a-401c-87c6-df0ed877f013","system_id":"levelo_inurba_marseille","lat":43.29638,"lon":5.40594,"is_reserved":false,"is_disabled":false,"rental_uris":{"android":"levelo://app?vid=a061f55a-1f9a-401c-87c6-df0ed877f013","ios":"levelo://app?vid=a061f55a-1f9a-401c-87c6-df0ed877f013"},"vehicle_type_id":"4","last_reported":1744089032,"current_range_meters":8000,"station_id":"ce4bh0h2rcd13ifvqd60","pricing_plan_id":"cebpf4jnsgd1na2vs0mg"},{"bike_id":"5ba02e57-e745-47ce-9b93-c851debe9e12","system_id":"levelo_inurba_marseille","lat":43.271821,"lon":5.409964,"is_reserved":false,"is_disabled":false,"rental_uris":{"android":"levelo://app?vid=5ba02e57-e745-47ce-9b93-c851debe9e12","ios":"levelo://app?vid=5ba02e57-e745-47ce-9b93-c851debe9e12"},"vehicle_type_id":"4","last_reported":1744089032,"current_range_meters":8000,"station_id":"ce4bhl12rcd13ifvqgf0","pricing_plan_id":"cebpf4jnsgd1na2vs0mg"},{"bike_id":"7ae1c95c-1e2c-400a-8efd-618212ebe707","system_id":"levelo_inurba_marseille","lat":43.31597,"lon":5.381407,"is_reserved":false,"is_disabled":false,"rental_uris":{"android":"levelo://app?vid=7ae1c95c-1e2c-400a-8efd-618212ebe707","ios":"levelo://app?vid=7ae1c95c-1e2c-400a-8efd-618212ebe707"},"vehicle_type_id":"4","last_reported":1744089032,"current_range_meters":8000,"station_id":"","pricing_plan_id":"cebpf4jnsgd1na2vs0mg"},{"bike_id":"cc057f14-b1e1-4dee-b107-8741c01c5964","system_id":"levelo_inurba_marseille","lat":43.3206,"lon":5.36803,"is_reserved":false,"is_disabled":true,"rental_uris":{"android":"levelo://app?vid=cc057f14-b1e1-4dee-b107-8741c01c5964","ios":"levelo://app?vid=cc057f14-b1e1-4dee-b107-8741c01c5964"},"vehicle_type_id":"4","last_reported":1744089032,"current_range_meters":8000,"station_id":"ce4bhrh2rcd13ifvqhug","pricing_plan_id":"cebpf4jnsgd1na2vs0mg"},{"bike_id":"1c24abbf-d842-4df3-9e43-2ef3129819ef","system_id":"levelo_inurba_marseille","lat":43.30889,"lon":5.3962,"is_reserved":false,"is_disabled":false,"rental_uris":{"android":"levelo://app?vid=1c24abbf-d842-4df3-9e43-2ef3129819ef","ios":"levelo://app?vid=1c24abbf-d842-4df3-9e43-2ef3129819ef"},"vehicle_type_id":"4","last_reported":1744089032,"current_range_meters":8000,"station_id":"ce4bh012rcd13ifvqcv0","pricing_plan_id":"cebpf4jnsgd1na2vs0mg"},{"bike_id":"20302241-35cd-4a28-96c0-f2bcd5ebb936","system_id":"levelo_inurba_marseille","lat":43.30138,"lon":5.39867,"is_reserved":false,"is_disabled":false,"rental_uris":{"android":"levelo://app?vid=20302241-35cd-4a28-96c0-f2bcd5ebb936","ios":"levelo://app?vid=20302241-35cd-4a28-96c0-f2bcd5ebb936"},"vehicle_type_id":"4","last_reported":1744089032,"current_range_meters":8400,"station_id":"ce4bh0h2rcd13ifvqd40","pricing_plan_id":"cebpf4jnsgd1na2vs0mg"},{"bike_id":"472cc903-1990-45bb-855b-95941b9edb84","system_id":"levelo_inurba_marseille","lat":43.24376,"lon":5.37076,"is_reserved":false,"is_disabled":false,"rental_uris":{"android":"levelo://app?vid=472cc903-1990-45bb-855b-95941b9edb84","ios":"levelo://app?vid=472cc903-1990-45bb-855b-95941b9edb84"},"vehicle_type_id":"4","last_reported":1744089032,"current_range_meters":8400,"station_id":"ce4bhhh2rcd13ifvqfk0","pricing_plan_id":"cebpf4jnsgd1na2vs0mg"},{"bike_id":"89a19d3f-b1d3-4f5d-8160-598b05407dcb","system_id":"levelo_inurba_marseille","lat":43.27168,"lon":5.41002,"is_reserved":false,"is_disabled":false,"rental_uris":{"android":"levelo://app?vid=89a19d3f-b1d3-4f5d-8160-598b05407dcb","ios":"levelo://app?vid=89a19d3f-b1d3-4f5d-8160-598b05407dcb"},"vehicle_type_id":"4","last_reported":1744089032,"current_range_meters":8400,"station_id":"ce4bhl12rcd13ifvqgf0","pricing_plan_id":"cebpf4jnsgd1na2vs0mg"},{"bike_id":"21465284-4bc0-4c69-8d7f-95731c02f76d","system_id":"levelo_inurba_marseille","lat":43.3136,"lon":5.38507,"is_reserved":false,"is_disabled":false,"rental_uris":{"android":"levelo://app?vid=21465284-4bc0-4c69-8d7f-95731c02f76d","ios":"levelo://app?vid=21465284-4bc0-4c69-8d7f-95731c02f76d"},"vehicle_type_id":"4","last_reported":1744089032,"current_range_meters":8400,"station_id":"ce4bgt92rcd13ifvqcf0","pricing_plan_id":"cebpf4jnsgd1na2vs0mg"},{"bike_id":"d172a948-5b54-446c-9325-17335baba5c1","system_id":"levelo_inurba_marseille","lat":43.2935,"lon":5.37869,"is_reserved":false,"is_disabled":true,"rental_uris":{"android":"levelo://app?vid=d172a948-5b54-446c-9325-17335baba5c1","ios":"levelo://app?vid=d172a948-5b54-446c-9325-17335baba5c1"},"vehicle_type_id":"4","last_reported":1744089032,"current_range_meters":8400,"station_id":"ce4bgjh2rcd13ifvqbf0","pricing_plan_id":"cebpf4jnsgd1na2vs0mg"},{"bike_id":"db77aa95-72db-470c-9c43-5322da612de8","system_id":"levelo_inurba_marseille","lat":43.31812,"lon":5.40194,"is_reserved":false,"is_disabled":false,"rental_uris":{"android":"levelo://app?vid=db77aa95-72db-470c-9c43-5322da612de8","ios":"levelo://app?vid=db77aa95-72db-470c-9c43-5322da612de8"},"vehicle_type_id":"4","last_reported":1744089032,"current_range_meters":8400,"station_id":"","pricing_plan_id":"cebpf4jnsgd1na2vs0mg"},{"bike_id":"8b497f79-9857-4c2e-ae6e-95b0d6ccbc52","system_id":"levelo_inurba_marseille","lat":43.324854,"lon":5.365816,"is_reserved":false,"is_disabled":true,"rental_uris":{"android":"levelo://app?vid=8b497f79-9857-4c2e-ae6e-95b0d6ccbc52","ios":"levelo://app?vid=8b497f79-9857-4c2e-ae6e-95b0d6ccbc52"},"vehicle_type_id":"4","last_reported":1744089032,"current_range_meters":8400,"station_id":"ce4bhs12rcd13ifvqhvg","pricing_plan_id":"cebpf4jnsgd1na2vs0mg"},{"bike_id":"6c154a91-7057-4241-9eea-4c0246ceb81e","system_id":"levelo_inurba_marseille","lat":43.292225,"lon":5.3606,"is_reserved":false,"is_disabled":false,"rental_uris":{"android":"levelo://app?vid=6c154a91-7057-4241-9eea-4c0246ceb81e","ios":"levelo://app?vid=6c154a91-7057-4241-9eea-4c0246ceb81e"},"vehicle_type_id":"4","last_reported":1744089032,"current_range_meters":8400,"station_id":"ce4bhbh2rcd13ifvqeqg","pricing_plan_id":"cebpf4jnsgd1na2vs0mg"},{"bike_id":"bec659b1-2ddb-41bf-9e2d-39084f6c1a4a","system_id":"levelo_inurba_marseille","lat":43.31708,"lon":5.42403,"is_reserved":false,"is_disabled":false,"rental_uris":{"android":"levelo://app?vid=bec659b1-2ddb-41bf-9e2d-39084f6c1a4a","ios":"levelo://app?vid=bec659b1-2ddb-41bf-9e2d-39084f6c1a4a"},"vehicle_type_id":"4","last_reported":1744089032,"current_range_meters":8400,"station_id":"ce4bhp92rcd13ifvqhbg","pricing_plan_id":"cebpf4jnsgd1na2vs0mg"},{"bike_id":"1a58a830-97d6-479c-b929-678336cf052d","system_id":"levelo_inurba_marseille","lat":43.310713,"lon":5.383539,"is_reserved":false,"is_disabled":false,"rental_uris":{"android":"levelo://app?vid=1a58a830-97d6-479c-b929-678336cf052d","ios":"levelo://app?vid=1a58a830-97d6-479c-b929-678336cf052d"},"vehicle_type_id":"4","last_reported":1744089032,"current_range_meters":8400,"station_id":"ce4bgv92rcd13ifvqcr0","pricing_plan_id":"cebpf4jnsgd1na2vs0mg"},{"bike_id":"a2939184-a851-4e88-950c-6424e69786a6","system_id":"levelo_inurba_marseille","lat":43.27795,"lon":5.40735,"is_reserved":false,"is_disabled":false,"rental_uris":{"android":"levelo://app?vid=a2939184-a851-4e88-950c-6424e69786a6","ios":"levelo://app?vid=a2939184-a851-4e88-950c-6424e69786a6"},"vehicle_type_id":"4","last_reported":1744089032,"current_range_meters":8400,"station_id":"ce4bhnh2rcd13ifvqgtg","pricing_plan_id":"cebpf4jnsgd1na2vs0mg"},{"bike_id":"9972aee6-4470-443a-8e14-c2078bb91c0d","system_id":"levelo_inurba_marseille","lat":43.31214,"lon":5.37126,"is_reserved":false,"is_disabled":false,"rental_uris":{"android":"levelo://app?vid=9972aee6-4470-443a-8e14-c2078bb91c0d","ios":"levelo://app?vid=9972aee6-4470-443a-8e14-c2078bb91c0d"},"vehicle_type_id":"4","last_reported":1744089032,"current_range_meters":8400,"station_id":"","pricing_plan_id":"cebpf4jnsgd1na2vs0mg"},{"bike_id":"70234b52-bc3d-48f7-a795-85c45f7b3313","system_id":"levelo_inurba_marseille","lat":43.30432,"lon":5.38889,"is_reserved":false,"is_disabled":false,"rental_uris":{"android":"levelo://app?vid=70234b52-bc3d-48f7-a795-85c45f7b3313","ios":"levelo://app?vid=70234b52-bc3d-48f7-a795-85c45f7b3313"},"vehicle_type_id":"4","last_reported":1744089032,"current_range_meters":8400,"station_id":"ce4bgk12rcd13ifvqbi0","pricing_plan_id":"cebpf4jnsgd1na2vs0mg"},{"bike_id":"9f58fe17-7445-4171-ab8a-b7da8864df25","system_id":"levelo_inurba_marseille","lat":43.299028,"lon":5.436631,"is_reserved":false,"is_disabled":false,"rental_uris":{"android":"levelo://app?vid=9f58fe17-7445-4171-ab8a-b7da8864df25","ios":"levelo://app?vid=9f58fe17-7445-4171-ab8a-b7da8864df25"},"vehicle_type_id":"4","last_reported":1744089032,"current_range_meters":8400,"station_id":"ce4bhpp2rcd13ifvqhfg","pricing_plan_id":"cebpf4jnsgd1na2vs0mg"},{"bike_id":"3cbad1fb-d71d-4e4f-90fa-c1465f9f9b65","system_id":"levelo_inurba_marseille","lat":43.21191,"lon":5.350946,"is_reserved":false,"is_disabled":false,"rental_uris":{"android":"levelo://app?vid=3cbad1fb-d71d-4e4f-90fa-c1465f9f9b65","ios":"levelo://app?vid=3cbad1fb-d71d-4e4f-90fa-c1465f9f9b65"},"vehicle_type_id":"4","last_reported":1744089032,"current_range_meters":8400,"station_id":"st_cvj6sg6p6f1abm77japg","pricing_plan_id":"cebpf4jnsgd1na2vs0mg"},{"bike_id":"23f348ed-c392-42a5-8d99-4feb7e18e1d2","system_id":"levelo_inurba_marseille","lat":43.28426,"lon":5.35004,"is_reserved":false,"is_disabled":false,"rental_uris":{"android":"levelo://app?vid=23f348ed-c392-42a5-8d99-4feb7e18e1d2","ios":"levelo://app?vid=23f348ed-c392-42a5-8d99-4feb7e18e1d2"},"vehicle_type_id":"4","last_reported":1744089032,"current_range_meters":8400,"station_id":"ce4bhbh2rcd13ifvqepg","pricing_plan_id":"cebpf4jnsgd1na2vs0mg"},{"bike_id":"ff0b2453-2fbb-467c-80b5-41964aa97aa4","system_id":"levelo_inurba_marseille","lat":43.31071,"lon":5.3837,"is_reserved":false,"is_disabled":false,"rental_uris":{"android":"levelo://app?vid=ff0b2453-2fbb-467c-80b5-41964aa97aa4","ios":"levelo://app?vid=ff0b2453-2fbb-467c-80b5-41964aa97aa4"},"vehicle_type_id":"4","last_reported":1744089032,"current_range_meters":8400,"station_id":"ce4bgv92rcd13ifvqcr0","pricing_plan_id":"cebpf4jnsgd1na2vs0mg"},{"bike_id":"750bc9c2-8244-4f27-a571-77c62d7d6b92","system_id":"levelo_inurba_marseille","lat":43.31288,"lon":5.37769,"is_reserved":false,"is_disabled":false,"rental_uris":{"android":"levelo://app?vid=750bc9c2-8244-4f27-a571-77c62d7d6b92","ios":"levelo://app?vid=750bc9c2-8244-4f27-a571-77c62d7d6b92"},"vehicle_type_id":"4","last_reported":1744089032,"current_range_meters":8800,"station_id":"","pricing_plan_id":"cebpf4jnsgd1na2vs0mg"},{"bike_id":"17ae3293-59cd-4be2-9b83-3db3af796493","system_id":"levelo_inurba_marseille","lat":43.30416,"lon":5.41294,"is_reserved":false,"is_disabled":false,"rental_uris":{"android":"levelo://app?vid=17ae3293-59cd-4be2-9b83-3db3af796493","ios":"levelo://app?vid=17ae3293-59cd-4be2-9b83-3db3af796493"},"vehicle_type_id":"4","last_reported":1744089032,"current_range_meters":8800,"station_id":"ce4bhop2rcd13ifvqh8g","pricing_plan_id":"cebpf4jnsgd1na2vs0mg"},{"bike_id":"1e135bb9-2996-44c8-a5fc-6958b4edfbec","system_id":"levelo_inurba_marseille","lat":43.28686,"lon":5.3743,"is_reserved":false,"is_disabled":false,"rental_uris":{"android":"levelo://app?vid=1e135bb9-2996-44c8-a5fc-6958b4edfbec","ios":"levelo://app?vid=1e135bb9-2996-44c8-a5fc-6958b4edfbec"},"vehicle_type_id":"4","last_reported":1744089032,"current_range_meters":8800,"station_id":"ce4bh3p2rcd13ifvqdq0","pricing_plan_id":"cebpf4jnsgd1na2vs0mg"},{"bike_id":"591f7ff7-49c6-474d-b679-0369581a4079","system_id":"levelo_inurba_marseille","lat":43.30189,"lon":5.39482,"is_reserved":false,"is_disabled":false,"rental_uris":{"android":"levelo://app?vid=591f7ff7-49c6-474d-b679-0369581a4079","ios":"levelo://app?vid=591f7ff7-49c6-474d-b679-0369581a4079"},"vehicle_type_id":"4","last_reported":1744089032,"current_range_meters":8800,"station_id":"ce4bh0p2rcd13ifvqd70","pricing_plan_id":"cebpf4jnsgd1na2vs0mg"},{"bike_id":"9389f907-78e2-4c8e-b008-de9739faa63f","system_id":"levelo_inurba_marseille","lat":43.330269,"lon":5.394342,"is_reserved":false,"is_disabled":false,"rental_uris":{"android":"levelo://app?vid=9389f907-78e2-4c8e-b008-de9739faa63f","ios":"levelo://app?vid=9389f907-78e2-4c8e-b008-de9739faa63f"},"vehicle_type_id":"4","last_reported":1744089032,"current_range_meters":8800,"station_id":"","pricing_plan_id":"cebpf4jnsgd1na2vs0mg"},{"bike_id":"62f09ee9-4a5c-4371-a1a6-0cfab82c7212","system_id":"levelo_inurba_marseille","lat":43.29515,"lon":5.38609,"is_reserved":false,"is_disabled":false,"rental_uris":{"android":"levelo://app?vid=62f09ee9-4a5c-4371-a1a6-0cfab82c7212","ios":"levelo://app?vid=62f09ee9-4a5c-4371-a1a6-0cfab82c7212"},"vehicle_type_id":"4","last_reported":1744089032,"current_range_meters":8800,"station_id":"ce4bgih2rcd13ifvqba0","pricing_plan_id":"cebpf4jnsgd1na2vs0mg"},{"bike_id":"817f52cf-2cb6-4ea2-a9a3-6b1f29447fc4","system_id":"levelo_inurba_marseille","lat":43.2892,"lon":5.3669,"is_reserved":false,"is_disabled":true,"rental_uris":{"android":"levelo://app?vid=817f52cf-2cb6-4ea2-a9a3-6b1f29447fc4","ios":"levelo://app?vid=817f52cf-2cb6-4ea2-a9a3-6b1f29447fc4"},"vehicle_type_id":"4","last_reported":1744089032,"current_range_meters":8800,"station_id":"ce4bhap2rcd13ifvqek0","pricing_plan_id":"cebpf4jnsgd1na2vs0mg"},{"bike_id":"9aac2fe2-cdbb-4c6c-a98a-ccac5f4e4d8e","system_id":"levelo_inurba_marseille","lat":43.278954,"lon":5.38011,"is_reserved":false,"is_disabled":false,"rental_uris":{"android":"levelo://app?vid=9aac2fe2-cdbb-4c6c-a98a-ccac5f4e4d8e","ios":"levelo://app?vid=9aac2fe2-cdbb-4c6c-a98a-ccac5f4e4d8e"},"vehicle_type_id":"4","last_reported":1744089032,"current_range_meters":8800,"station_id":"ce4bhf92rcd13ifvqf50","pricing_plan_id":"cebpf4jnsgd1na2vs0mg"},{"bike_id":"a6cd60db-b487-4028-a006-711bd5f782c4","system_id":"levelo_inurba_marseille","lat":43.309275,"lon":5.401391,"is_reserved":false,"is_disabled":false,"rental_uris":{"android":"levelo://app?vid=a6cd60db-b487-4028-a006-711bd5f782c4","ios":"levelo://app?vid=a6cd60db-b487-4028-a006-711bd5f782c4"},"vehicle_type_id":"4","last_reported":1744089032,"current_range_meters":8800,"station_id":"ce4bgvp2rcd13ifvqct0","pricing_plan_id":"cebpf4jnsgd1na2vs0mg"},{"bike_id":"485f24a3-8ba6-4caa-8780-8392668d8f6b","system_id":"levelo_inurba_marseille","lat":43.316977,"lon":5.377762,"is_reserved":false,"is_disabled":false,"rental_uris":{"android":"levelo://app?vid=485f24a3-8ba6-4caa-8780-8392668d8f6b","ios":"levelo://app?vid=485f24a3-8ba6-4caa-8780-8392668d8f6b"},"vehicle_type_id":"4","last_reported":1744089032,"current_range_meters":9200,"station_id":"ce4bgth2rcd13ifvqch0","pricing_plan_id":"cebpf4jnsgd1na2vs0mg"},{"bike_id":"7b879770-1bbd-421d-9c8b-e0235cabedcf","system_id":"levelo_inurba_marseille","lat":43.254021,"lon":5.419008,"is_reserved":false,"is_disabled":false,"rental_uris":{"android":"levelo://app?vid=7b879770-1bbd-421d-9c8b-e0235cabedcf","ios":"levelo://app?vid=7b879770-1bbd-421d-9c8b-e0235cabedcf"},"vehicle_type_id":"4","last_reported":1744089032,"current_range_meters":9200,"station_id":"","pricing_plan_id":"cebpf4jnsgd1na2vs0mg"},{"bike_id":"7b3646e0-cbf2-40de-92a8-c829ec618775","system_id":"levelo_inurba_marseille","lat":43.32014,"lon":5.38161,"is_reserved":false,"is_disabled":true,"rental_uris":{"android":"levelo://app?vid=7b3646e0-cbf2-40de-92a8-c829ec618775","ios":"levelo://app?vid=7b3646e0-cbf2-40de-92a8-c829ec618775"},"vehicle_type_id":"4","last_reported":1744089032,"current_range_meters":9200,"station_id":"ce4bhr12rcd13ifvqhpg","pricing_plan_id":"cebpf4jnsgd1na2vs0mg"},{"bike_id":"1e01d50e-cead-45bb-a3a4-7e0d04b7b063","system_id":"levelo_inurba_marseille","lat":43.290263,"lon":5.386516,"is_reserved":false,"is_disabled":true,"rental_uris":{"android":"levelo://app?vid=1e01d50e-cead-45bb-a3a4-7e0d04b7b063","ios":"levelo://app?vid=1e01d50e-cead-45bb-a3a4-7e0d04b7b063"},"vehicle_type_id":"4","last_reported":1744089032,"current_range_meters":9200,"station_id":"ce4bh4p2rcd13ifvqe0g","pricing_plan_id":"cebpf4jnsgd1na2vs0mg"},{"bike_id":"b97be67a-237b-4810-9f2a-b7321431efc6","system_id":"levelo_inurba_marseille","lat":43.31333,"lon":5.39704,"is_reserved":false,"is_disabled":false,"rental_uris":{"android":"levelo://app?vid=b97be67a-237b-4810-9f2a-b7321431efc6","ios":"levelo://app?vid=b97be67a-237b-4810-9f2a-b7321431efc6"},"vehicle_type_id":"4","last_reported":1744089032,"current_range_meters":9200,"station_id":"ce4bgvp2rcd13ifvqcu0","pricing_plan_id":"cebpf4jnsgd1na2vs0mg"},{"bike_id":"847cff54-9149-4fb3-8217-2338a6e302d9","system_id":"levelo_inurba_marseille","lat":43.28846,"lon":5.3585,"is_reserved":false,"is_disabled":false,"rental_uris":{"android":"levelo://app?vid=847cff54-9149-4fb3-8217-2338a6e302d9","ios":"levelo://app?vid=847cff54-9149-4fb3-8217-2338a6e302d9"},"vehicle_type_id":"4","last_reported":1744089032,"current_range_meters":9200,"station_id":"ce4bhb12rcd13ifvqem0","pricing_plan_id":"cebpf4jnsgd1na2vs0mg"},{"bike_id":"444a5f07-09c5-40f5-8d58-60f1f25c67b9","system_id":"levelo_inurba_marseille","lat":43.31989,"lon":5.38129,"is_reserved":false,"is_disabled":false,"rental_uris":{"android":"levelo://app?vid=444a5f07-09c5-40f5-8d58-60f1f25c67b9","ios":"levelo://app?vid=444a5f07-09c5-40f5-8d58-60f1f25c67b9"},"vehicle_type_id":"4","last_reported":1744089032,"current_range_meters":9200,"station_id":"ce4bhr12rcd13ifvqhpg","pricing_plan_id":"cebpf4jnsgd1na2vs0mg"},{"bike_id":"b115ed55-21d1-4e22-96d5-e25da485b4c1","system_id":"levelo_inurba_marseille","lat":43.30805,"lon":5.38143,"is_reserved":false,"is_disabled":false,"rental_uris":{"android":"levelo://app?vid=b115ed55-21d1-4e22-96d5-e25da485b4c1","ios":"levelo://app?vid=b115ed55-21d1-4e22-96d5-e25da485b4c1"},"vehicle_type_id":"4","last_reported":1744089032,"current_range_meters":9200,"station_id":"ce4bgt12rcd13ifvqce0","pricing_plan_id":"cebpf4jnsgd1na2vs0mg"},{"bike_id":"20ef46eb-3f7b-455c-a8ba-38646f63cf11","system_id":"levelo_inurba_marseille","lat":43.309276,"lon":5.40151,"is_reserved":false,"is_disabled":false,"rental_uris":{"android":"levelo://app?vid=20ef46eb-3f7b-455c-a8ba-38646f63cf11","ios":"levelo://app?vid=20ef46eb-3f7b-455c-a8ba-38646f63cf11"},"vehicle_type_id":"4","last_reported":1744089032,"current_range_meters":9600,"station_id":"ce4bgvp2rcd13ifvqct0","pricing_plan_id":"cebpf4jnsgd1na2vs0mg"},{"bike_id":"97300505-de07-428c-9e05-3cd53e320821","system_id":"levelo_inurba_marseille","lat":43.30592,"lon":5.39338,"is_reserved":false,"is_disabled":false,"rental_uris":{"android":"levelo://app?vid=97300505-de07-428c-9e05-3cd53e320821","ios":"levelo://app?vid=97300505-de07-428c-9e05-3cd53e320821"},"vehicle_type_id":"4","last_reported":1744089032,"current_range_meters":9600,"station_id":"ce4bh0p2rcd13ifvqd80","pricing_plan_id":"cebpf4jnsgd1na2vs0mg"},{"bike_id":"bb27bf37-4989-481b-9324-76c7fb81df3c","system_id":"levelo_inurba_marseille","lat":43.31159,"lon":5.38781,"is_reserved":false,"is_disabled":false,"rental_uris":{"android":"levelo://app?vid=bb27bf37-4989-481b-9324-76c7fb81df3c","ios":"levelo://app?vid=bb27bf37-4989-481b-9324-76c7fb81df3c"},"vehicle_type_id":"4","last_reported":1744089032,"current_range_meters":9600,"station_id":"ce4bgv12rcd13ifvqcp0","pricing_plan_id":"cebpf4jnsgd1na2vs0mg"},{"bike_id":"89771962-fe60-4144-a8a6-39dd0f7b9fb3","system_id":"levelo_inurba_marseille","lat":43.21177,"lon":5.35068,"is_reserved":false,"is_disabled":false,"rental_uris":{"android":"levelo://app?vid=89771962-fe60-4144-a8a6-39dd0f7b9fb3","ios":"levelo://app?vid=89771962-fe60-4144-a8a6-39dd0f7b9fb3"},"vehicle_type_id":"4","last_reported":1744089032,"current_range_meters":9600,"station_id":"st_cvj6sg6p6f1abm77japg","pricing_plan_id":"cebpf4jnsgd1na2vs0mg"},{"bike_id":"257d1c02-5396-419e-a612-6a8a1704493e","system_id":"levelo_inurba_marseille","lat":43.290141,"lon":5.37549,"is_reserved":false,"is_disabled":true,"rental_uris":{"android":"levelo://app?vid=257d1c02-5396-419e-a612-6a8a1704493e","ios":"levelo://app?vid=257d1c02-5396-419e-a612-6a8a1704493e"},"vehicle_type_id":"4","last_reported":1744089032,"current_range_meters":9600,"station_id":"ce4bh692rcd13ifvqe90","pricing_plan_id":"cebpf4jnsgd1na2vs0mg"},{"bike_id":"f39be6f5-2f69-4c37-b021-559d20b299a4","system_id":"levelo_inurba_marseille","lat":43.30018,"lon":5.37627,"is_reserved":false,"is_disabled":false,"rental_uris":{"android":"levelo://app?vid=f39be6f5-2f69-4c37-b021-559d20b299a4","ios":"levelo://app?vid=f39be6f5-2f69-4c37-b021-559d20b299a4"},"vehicle_type_id":"4","last_reported":1744089032,"current_range_meters":9600,"station_id":"","pricing_plan_id":"cebpf4jnsgd1na2vs0mg"},{"bike_id":"1caaf187-7c56-4777-81af-6cb943962ba6","system_id":"levelo_inurba_marseille","lat":43.303,"lon":5.39217,"is_reserved":false,"is_disabled":true,"rental_uris":{"android":"levelo://app?vid=1caaf187-7c56-4777-81af-6cb943962ba6","ios":"levelo://app?vid=1caaf187-7c56-4777-81af-6cb943962ba6"},"vehicle_type_id":"4","last_reported":1744089032,"current_range_meters":9600,"station_id":"ce4bgkh2rcd13ifvqbk0","pricing_plan_id":"cebpf4jnsgd1na2vs0mg"},{"bike_id":"2e9000dc-6400-4918-a994-dd60039ca96d","system_id":"levelo_inurba_marseille","lat":43.320031,"lon":5.38152,"is_reserved":false,"is_disabled":true,"rental_uris":{"android":"levelo://app?vid=2e9000dc-6400-4918-a994-dd60039ca96d","ios":"levelo://app?vid=2e9000dc-6400-4918-a994-dd60039ca96d"},"vehicle_type_id":"4","last_reported":1744089032,"current_range_meters":9600,"station_id":"ce4bhr12rcd13ifvqhpg","pricing_plan_id":"cebpf4jnsgd1na2vs0mg"},{"bike_id":"fb7a1608-45dc-49fb-b059-ed5163e78863","system_id":"levelo_inurba_marseille","lat":43.31681,"lon":5.43722,"is_reserved":false,"is_disabled":false,"rental_uris":{"android":"levelo://app?vid=fb7a1608-45dc-49fb-b059-ed5163e78863","ios":"levelo://app?vid=fb7a1608-45dc-49fb-b059-ed5163e78863"},"vehicle_type_id":"4","last_reported":1744089032,"current_range_meters":10000,"station_id":"ce4bhp92rcd13ifvqhcg","pricing_plan_id":"cebpf4jnsgd1na2vs0mg"},{"bike_id":"82f28cf6-556c-431d-a12b-bd3ce5fc2f28","system_id":"levelo_inurba_marseille","lat":43.27502,"lon":5.37741,"is_reserved":false,"is_disabled":false,"rental_uris":{"android":"levelo://app?vid=82f28cf6-556c-431d-a12b-bd3ce5fc2f28","ios":"levelo://app?vid=82f28cf6-556c-431d-a12b-bd3ce5fc2f28"},"vehicle_type_id":"4","last_reported":1744089032,"current_range_meters":10000,"station_id":"","pricing_plan_id":"cebpf4jnsgd1na2vs0mg"},{"bike_id":"d1789c99-5c7c-4e88-9d29-ce771e783c08","system_id":"levelo_inurba_marseille","lat":43.31003,"lon":5.37743,"is_reserved":false,"is_disabled":false,"rental_uris":{"android":"levelo://app?vid=d1789c99-5c7c-4e88-9d29-ce771e783c08","ios":"levelo://app?vid=d1789c99-5c7c-4e88-9d29-ce771e783c08"},"vehicle_type_id":"4","last_reported":1744089032,"current_range_meters":10000,"station_id":"","pricing_plan_id":"cebpf4jnsgd1na2vs0mg"},{"bike_id":"e42a3a9c-b79c-475c-96dc-e16180b680f3","system_id":"levelo_inurba_marseille","lat":43.33606,"lon":5.41023,"is_reserved":false,"is_disabled":false,"rental_uris":{"android":"levelo://app?vid=e42a3a9c-b79c-475c-96dc-e16180b680f3","ios":"levelo://app?vid=e42a3a9c-b79c-475c-96dc-e16180b680f3"},"vehicle_type_id":"4","last_reported":1744089032,"current_range_meters":10000,"station_id":"ce4bhqh2rcd13ifvqhmg","pricing_plan_id":"cebpf4jnsgd1na2vs0mg"},{"bike_id":"3271a773-81a4-4437-9f2d-ccac69221033","system_id":"levelo_inurba_marseille","lat":43.265694,"lon":5.389972,"is_reserved":false,"is_disabled":false,"rental_uris":{"android":"levelo://app?vid=3271a773-81a4-4437-9f2d-ccac69221033","ios":"levelo://app?vid=3271a773-81a4-4437-9f2d-ccac69221033"},"vehicle_type_id":"4","last_reported":1744089032,"current_range_meters":10000,"station_id":"ce4bhe12rcd13ifvqf30","pricing_plan_id":"cebpf4jnsgd1na2vs0mg"},{"bike_id":"f11deefa-fd09-4262-a77e-35f24c433380","system_id":"levelo_inurba_marseille","lat":43.30963,"lon":5.39014,"is_reserved":false,"is_disabled":false,"rental_uris":{"android":"levelo://app?vid=f11deefa-fd09-4262-a77e-35f24c433380","ios":"levelo://app?vid=f11deefa-fd09-4262-a77e-35f24c433380"},"vehicle_type_id":"4","last_reported":1744089032,"current_range_meters":10000,"station_id":"ce4bgup2rcd13ifvqco0","pricing_plan_id":"cebpf4jnsgd1na2vs0mg"},{"bike_id":"3576b946-70b3-456f-a60a-d98e227f015c","system_id":"levelo_inurba_marseille","lat":43.30079,"lon":5.38215,"is_reserved":false,"is_disabled":false,"rental_uris":{"android":"levelo://app?vid=3576b946-70b3-456f-a60a-d98e227f015c","ios":"levelo://app?vid=3576b946-70b3-456f-a60a-d98e227f015c"},"vehicle_type_id":"4","last_reported":1744089032,"current_range_meters":10000,"station_id":"ce4bgup2rcd13ifvqcn0","pricing_plan_id":"cebpf4jnsgd1na2vs0mg"},{"bike_id":"3164d024-3042-42c3-b471-557460cea48d","system_id":"levelo_inurba_marseille","lat":43.28152,"lon":5.42642,"is_reserved":false,"is_disabled":false,"rental_uris":{"android":"levelo://app?vid=3164d024-3042-42c3-b471-557460cea48d","ios":"levelo://app?vid=3164d024-3042-42c3-b471-557460cea48d"},"vehicle_type_id":"4","last_reported":1744089032,"current_range_meters":10000,"station_id":"ce4bhnh2rcd13ifvqgug","pricing_plan_id":"cebpf4jnsgd1na2vs0mg"},{"bike_id":"9dfb4532-bf8c-4fd1-a03a-d57492154d55","system_id":"levelo_inurba_marseille","lat":43.3021,"lon":5.39475,"is_reserved":false,"is_disabled":false,"rental_uris":{"android":"levelo://app?vid=9dfb4532-bf8c-4fd1-a03a-d57492154d55","ios":"levelo://app?vid=9dfb4532-bf8c-4fd1-a03a-d57492154d55"},"vehicle_type_id":"4","last_reported":1744089032,"current_range_meters":10000,"station_id":"ce4bh0p2rcd13ifvqd70","pricing_plan_id":"cebpf4jnsgd1na2vs0mg"},{"bike_id":"dff0c398-5457-4c82-99b9-071db8607d47","system_id":"levelo_inurba_marseille","lat":43.256899,"lon":5.419276,"is_reserved":false,"is_disabled":false,"rental_uris":{"android":"levelo://app?vid=dff0c398-5457-4c82-99b9-071db8607d47","ios":"levelo://app?vid=dff0c398-5457-4c82-99b9-071db8607d47"},"vehicle_type_id":"4","last_reported":1744089032,"current_range_meters":10800,"station_id":"","pricing_plan_id":"cebpf4jnsgd1na2vs0mg"},{"bike_id":"f17ce36f-e80a-4732-89e2-7a7dfab19d87","system_id":"levelo_inurba_marseille","lat":43.29898,"lon":5.43657,"is_reserved":false,"is_disabled":false,"rental_uris":{"android":"levelo://app?vid=f17ce36f-e80a-4732-89e2-7a7dfab19d87","ios":"levelo://app?vid=f17ce36f-e80a-4732-89e2-7a7dfab19d87"},"vehicle_type_id":"4","last_reported":1744089032,"current_range_meters":10800,"station_id":"ce4bhpp2rcd13ifvqhfg","pricing_plan_id":"cebpf4jnsgd1na2vs0mg"},{"bike_id":"4ee272f5-b2c0-449c-8b01-facdb8da4962","system_id":"levelo_inurba_marseille","lat":43.284251,"lon":5.349966,"is_reserved":false,"is_disabled":false,"rental_uris":{"android":"levelo://app?vid=4ee272f5-b2c0-449c-8b01-facdb8da4962","ios":"levelo://app?vid=4ee272f5-b2c0-449c-8b01-facdb8da4962"},"vehicle_type_id":"4","last_reported":1744089032,"current_range_meters":10800,"station_id":"ce4bhbh2rcd13ifvqepg","pricing_plan_id":"cebpf4jnsgd1na2vs0mg"},{"bike_id":"ec7d3251-d53b-4874-b96d-6dae899b6aa1","system_id":"levelo_inurba_marseille","lat":43.272,"lon":5.39206,"is_reserved":false,"is_disabled":true,"rental_uris":{"android":"levelo://app?vid=ec7d3251-d53b-4874-b96d-6dae899b6aa1","ios":"levelo://app?vid=ec7d3251-d53b-4874-b96d-6dae899b6aa1"},"vehicle_type_id":"4","last_reported":1744089032,"current_range_meters":10800,"station_id":"ce4bhhp2rcd13ifvqfm0","pricing_plan_id":"cebpf4jnsgd1na2vs0mg"},{"bike_id":"b7d15525-0102-4d63-b7d3-eaa2bc4c21c3","system_id":"levelo_inurba_marseille","lat":43.217456,"lon":5.346113,"is_reserved":false,"is_disabled":true,"rental_uris":{"android":"levelo://app?vid=b7d15525-0102-4d63-b7d3-eaa2bc4c21c3","ios":"levelo://app?vid=b7d15525-0102-4d63-b7d3-eaa2bc4c21c3"},"vehicle_type_id":"4","last_reported":1744089032,"current_range_meters":10800,"station_id":"","pricing_plan_id":"cebpf4jnsgd1na2vs0mg"},{"bike_id":"034b881e-44c7-46eb-affa-8c5577be2c99","system_id":"levelo_inurba_marseille","lat":43.278138,"lon":5.407209,"is_reserved":false,"is_disabled":false,"rental_uris":{"android":"levelo://app?vid=034b881e-44c7-46eb-affa-8c5577be2c99","ios":"levelo://app?vid=034b881e-44c7-46eb-affa-8c5577be2c99"},"vehicle_type_id":"4","last_reported":1744089032,"current_range_meters":10800,"station_id":"ce4bhnh2rcd13ifvqgtg","pricing_plan_id":"cebpf4jnsgd1na2vs0mg"},{"bike_id":"4b9dfe05-0e60-423c-af4b-3ef6e8cad4ce","system_id":"levelo_inurba_marseille","lat":43.251093,"lon":5.403313,"is_reserved":false,"is_disabled":true,"rental_uris":{"android":"levelo://app?vid=4b9dfe05-0e60-423c-af4b-3ef6e8cad4ce","ios":"levelo://app?vid=4b9dfe05-0e60-423c-af4b-3ef6e8cad4ce"},"vehicle_type_id":"4","last_reported":1744089032,"current_range_meters":10800,"station_id":"ce4bhlh2rcd13ifvqgig","pricing_plan_id":"cebpf4jnsgd1na2vs0mg"},{"bike_id":"149d12c1-918e-45ca-96d3-9e3d71a1137b","system_id":"levelo_inurba_marseille","lat":43.29036,"lon":5.40013,"is_reserved":false,"is_disabled":false,"rental_uris":{"android":"levelo://app?vid=149d12c1-918e-45ca-96d3-9e3d71a1137b","ios":"levelo://app?vid=149d12c1-918e-45ca-96d3-9e3d71a1137b"},"vehicle_type_id":"4","last_reported":1744089032,"current_range_meters":10800,"station_id":"","pricing_plan_id":"cebpf4jnsgd1na2vs0mg"},{"bike_id":"14cc2ba1-4299-4c28-810b-27822a7c6cbb","system_id":"levelo_inurba_marseille","lat":43.27832,"lon":5.39211,"is_reserved":false,"is_disabled":false,"rental_uris":{"android":"levelo://app?vid=14cc2ba1-4299-4c28-810b-27822a7c6cbb","ios":"levelo://app?vid=14cc2ba1-4299-4c28-810b-27822a7c6cbb"},"vehicle_type_id":"4","last_reported":1744089032,"current_range_meters":10800,"station_id":"ce4bhjp2rcd13ifvqga0","pricing_plan_id":"cebpf4jnsgd1na2vs0mg"},{"bike_id":"fb9f6b16-b64d-4eb9-b329-0548a57bc9c5","system_id":"levelo_inurba_marseille","lat":43.30101,"lon":5.39072,"is_reserved":false,"is_disabled":false,"rental_uris":{"android":"levelo://app?vid=fb9f6b16-b64d-4eb9-b329-0548a57bc9c5","ios":"levelo://app?vid=fb9f6b16-b64d-4eb9-b329-0548a57bc9c5"},"vehicle_type_id":"4","last_reported":1744089032,"current_range_meters":11200,"station_id":"ce4bh192rcd13ifvqdb0","pricing_plan_id":"cebpf4jnsgd1na2vs0mg"},{"bike_id":"85acd6d3-0e9c-4dc3-a1fa-e50853658602","system_id":"levelo_inurba_marseille","lat":43.308902,"lon":5.396355,"is_reserved":false,"is_disabled":false,"rental_uris":{"android":"levelo://app?vid=85acd6d3-0e9c-4dc3-a1fa-e50853658602","ios":"levelo://app?vid=85acd6d3-0e9c-4dc3-a1fa-e50853658602"},"vehicle_type_id":"4","last_reported":1744089032,"current_range_meters":11200,"station_id":"ce4bh012rcd13ifvqcv0","pricing_plan_id":"cebpf4jnsgd1na2vs0mg"},{"bike_id":"650a74d7-3200-4b41-8b82-9471d3929f27","system_id":"levelo_inurba_marseille","lat":43.30467,"lon":5.37913,"is_reserved":false,"is_disabled":false,"rental_uris":{"android":"levelo://app?vid=650a74d7-3200-4b41-8b82-9471d3929f27","ios":"levelo://app?vid=650a74d7-3200-4b41-8b82-9471d3929f27"},"vehicle_type_id":"4","last_reported":1744089032,"current_range_meters":11200,"station_id":"ce4bgup2rcd13ifvqcn0","pricing_plan_id":"cebpf4jnsgd1na2vs0mg"},{"bike_id":"4e0de06a-5fb6-425c-864f-446dbfc90cbc","system_id":"levelo_inurba_marseille","lat":43.28466,"lon":5.35894,"is_reserved":false,"is_disabled":false,"rental_uris":{"android":"levelo://app?vid=4e0de06a-5fb6-425c-864f-446dbfc90cbc","ios":"levelo://app?vid=4e0de06a-5fb6-425c-864f-446dbfc90cbc"},"vehicle_type_id":"4","last_reported":1744089032,"current_range_meters":11200,"station_id":"ce4bhah2rcd13ifvqei0","pricing_plan_id":"cebpf4jnsgd1na2vs0mg"},{"bike_id":"727420a5-2a4a-4878-9ca5-955e3d4d8d4d","system_id":"levelo_inurba_marseille","lat":43.30628,"lon":5.40092,"is_reserved":false,"is_disabled":false,"rental_uris":{"android":"levelo://app?vid=727420a5-2a4a-4878-9ca5-955e3d4d8d4d","ios":"levelo://app?vid=727420a5-2a4a-4878-9ca5-955e3d4d8d4d"},"vehicle_type_id":"4","last_reported":1744089032,"current_range_meters":11600,"station_id":"ce4bh112rcd13ifvqda0","pricing_plan_id":"cebpf4jnsgd1na2vs0mg"},{"bike_id":"4f003989-bf72-4690-aae5-605687517780","system_id":"levelo_inurba_marseille","lat":43.284381,"lon":5.391842,"is_reserved":false,"is_disabled":false,"rental_uris":{"android":"levelo://app?vid=4f003989-bf72-4690-aae5-605687517780","ios":"levelo://app?vid=4f003989-bf72-4690-aae5-605687517780"},"vehicle_type_id":"4","last_reported":1744089032,"current_range_meters":11600,"station_id":"ce4bhoh2rcd13ifvqh5g","pricing_plan_id":"cebpf4jnsgd1na2vs0mg"},{"bike_id":"0748ce16-1dbb-4683-afb9-eabebbdfd5a5","system_id":"levelo_inurba_marseille","lat":43.29232,"lon":5.40004,"is_reserved":false,"is_disabled":false,"rental_uris":{"android":"levelo://app?vid=0748ce16-1dbb-4683-afb9-eabebbdfd5a5","ios":"levelo://app?vid=0748ce16-1dbb-4683-afb9-eabebbdfd5a5"},"vehicle_type_id":"4","last_reported":1744089032,"current_range_meters":12000,"station_id":"","pricing_plan_id":"cebpf4jnsgd1na2vs0mg"},{"bike_id":"57c4e6e8-026a-4350-b996-12df6b497807","system_id":"levelo_inurba_marseille","lat":43.295989,"lon":5.377074,"is_reserved":false,"is_disabled":true,"rental_uris":{"android":"levelo://app?vid=57c4e6e8-026a-4350-b996-12df6b497807","ios":"levelo://app?vid=57c4e6e8-026a-4350-b996-12df6b497807"},"vehicle_type_id":"4","last_reported":1744089032,"current_range_meters":12000,"station_id":"ce4bgi92rcd13ifvqb90","pricing_plan_id":"cebpf4jnsgd1na2vs0mg"},{"bike_id":"2b321bde-d996-44f1-849a-8b6df8729d2d","system_id":"levelo_inurba_marseille","lat":43.29629,"lon":5.40591,"is_reserved":false,"is_disabled":false,"rental_uris":{"android":"levelo://app?vid=2b321bde-d996-44f1-849a-8b6df8729d2d","ios":"levelo://app?vid=2b321bde-d996-44f1-849a-8b6df8729d2d"},"vehicle_type_id":"4","last_reported":1744089032,"current_range_meters":12000,"station_id":"ce4bh0h2rcd13ifvqd60","pricing_plan_id":"cebpf4jnsgd1na2vs0mg"},{"bike_id":"4c2d3fd7-a1d3-4a8f-b668-55a172b48630","system_id":"levelo_inurba_marseille","lat":43.30444,"lon":5.3891,"is_reserved":false,"is_disabled":false,"rental_uris":{"android":"levelo://app?vid=4c2d3fd7-a1d3-4a8f-b668-55a172b48630","ios":"levelo://app?vid=4c2d3fd7-a1d3-4a8f-b668-55a172b48630"},"vehicle_type_id":"4","last_reported":1744089032,"current_range_meters":12000,"station_id":"ce4bgk12rcd13ifvqbi0","pricing_plan_id":"cebpf4jnsgd1na2vs0mg"},{"bike_id":"bf61ee85-a98a-4de7-9464-757c7368502a","system_id":"levelo_inurba_marseille","lat":43.29785,"lon":5.39363,"is_reserved":false,"is_disabled":false,"rental_uris":{"android":"levelo://app?vid=bf61ee85-a98a-4de7-9464-757c7368502a","ios":"levelo://app?vid=bf61ee85-a98a-4de7-9464-757c7368502a"},"vehicle_type_id":"4","last_reported":1744089032,"current_range_meters":12000,"station_id":"chh1huq6cuj3fo74tm60","pricing_plan_id":"cebpf4jnsgd1na2vs0mg"},{"bike_id":"68d1cc33-0218-451e-8e10-d32225c21263","system_id":"levelo_inurba_marseille","lat":43.23166,"lon":5.43711,"is_reserved":false,"is_disabled":true,"rental_uris":{"android":"levelo://app?vid=68d1cc33-0218-451e-8e10-d32225c21263","ios":"levelo://app?vid=68d1cc33-0218-451e-8e10-d32225c21263"},"vehicle_type_id":"4","last_reported":1744089032,"current_range_meters":12000,"station_id":"ce4bhmp2rcd13ifvqgog","pricing_plan_id":"cebpf4jnsgd1na2vs0mg"},{"bike_id":"c8351757-3fec-4594-855b-7d7cf1a199dd","system_id":"levelo_inurba_marseille","lat":43.28396,"lon":5.37545,"is_reserved":false,"is_disabled":false,"rental_uris":{"android":"levelo://app?vid=c8351757-3fec-4594-855b-7d7cf1a199dd","ios":"levelo://app?vid=c8351757-3fec-4594-855b-7d7cf1a199dd"},"vehicle_type_id":"4","last_reported":1744089032,"current_range_meters":12000,"station_id":"ce4bh412rcd13ifvqds0","pricing_plan_id":"cebpf4jnsgd1na2vs0mg"},{"bike_id":"f9dfa114-9392-45ea-82d5-7f9c22d73bc6","system_id":"levelo_inurba_marseille","lat":43.300055,"lon":5.363925,"is_reserved":false,"is_disabled":false,"rental_uris":{"android":"levelo://app?vid=f9dfa114-9392-45ea-82d5-7f9c22d73bc6","ios":"levelo://app?vid=f9dfa114-9392-45ea-82d5-7f9c22d73bc6"},"vehicle_type_id":"4","last_reported":1744089032,"current_range_meters":12400,"station_id":"","pricing_plan_id":"cebpf4jnsgd1na2vs0mg"},{"bike_id":"0aa02c49-cbb3-4907-a588-f754056f3ba8","system_id":"levelo_inurba_marseille","lat":43.308069,"lon":5.381499,"is_reserved":false,"is_disabled":true,"rental_uris":{"android":"levelo://app?vid=0aa02c49-cbb3-4907-a588-f754056f3ba8","ios":"levelo://app?vid=0aa02c49-cbb3-4907-a588-f754056f3ba8"},"vehicle_type_id":"4","last_reported":1744089032,"current_range_meters":12400,"station_id":"ce4bgt12rcd13ifvqce0","pricing_plan_id":"cebpf4jnsgd1na2vs0mg"},{"bike_id":"206fcf06-0373-48f5-90e1-fb4150cefd1c","system_id":"levelo_inurba_marseille","lat":43.294351,"lon":5.385544,"is_reserved":false,"is_disabled":false,"rental_uris":{"android":"levelo://app?vid=206fcf06-0373-48f5-90e1-fb4150cefd1c","ios":"levelo://app?vid=206fcf06-0373-48f5-90e1-fb4150cefd1c"},"vehicle_type_id":"4","last_reported":1744089032,"current_range_meters":12400,"station_id":"ce4bgjp2rcd13ifvqbh0","pricing_plan_id":"cebpf4jnsgd1na2vs0mg"},{"bike_id":"7d03e8c4-09b6-43fd-b688-8fa9a993b909","system_id":"levelo_inurba_marseille","lat":43.308994,"lon":5.367362,"is_reserved":false,"is_disabled":false,"rental_uris":{"android":"levelo://app?vid=7d03e8c4-09b6-43fd-b688-8fa9a993b909","ios":"levelo://app?vid=7d03e8c4-09b6-43fd-b688-8fa9a993b909"},"vehicle_type_id":"4","last_reported":1744089032,"current_range_meters":12400,"station_id":"","pricing_plan_id":"cebpf4jnsgd1na2vs0mg"},{"bike_id":"65bdf33c-f4b3-4e87-a800-af2a0cbb647e","system_id":"levelo_inurba_marseille","lat":43.2781,"lon":5.40707,"is_reserved":false,"is_disabled":false,"rental_uris":{"android":"levelo://app?vid=65bdf33c-f4b3-4e87-a800-af2a0cbb647e","ios":"levelo://app?vid=65bdf33c-f4b3-4e87-a800-af2a0cbb647e"},"vehicle_type_id":"4","last_reported":1744089032,"current_range_meters":12800,"station_id":"ce4bhnh2rcd13ifvqgtg","pricing_plan_id":"cebpf4jnsgd1na2vs0mg"},{"bike_id":"bb53d251-c2a9-4c03-a6c7-9d1272d728dc","system_id":"levelo_inurba_marseille","lat":43.313628,"lon":5.385009,"is_reserved":false,"is_disabled":false,"rental_uris":{"android":"levelo://app?vid=bb53d251-c2a9-4c03-a6c7-9d1272d728dc","ios":"levelo://app?vid=bb53d251-c2a9-4c03-a6c7-9d1272d728dc"},"vehicle_type_id":"4","last_reported":1744089032,"current_range_meters":12800,"station_id":"ce4bgt92rcd13ifvqcf0","pricing_plan_id":"cebpf4jnsgd1na2vs0mg"},{"bike_id":"48eb4048-1af7-49af-b3cb-6765b6f83818","system_id":"levelo_inurba_marseille","lat":43.309262,"lon":5.401409,"is_reserved":false,"is_disabled":false,"rental_uris":{"android":"levelo://app?vid=48eb4048-1af7-49af-b3cb-6765b6f83818","ios":"levelo://app?vid=48eb4048-1af7-49af-b3cb-6765b6f83818"},"vehicle_type_id":"4","last_reported":1744089032,"current_range_meters":12800,"station_id":"ce4bgvp2rcd13ifvqct0","pricing_plan_id":"cebpf4jnsgd1na2vs0mg"},{"bike_id":"c879db94-7700-49a3-8554-1a634dac59d4","system_id":"levelo_inurba_marseille","lat":43.287101,"lon":5.399825,"is_reserved":false,"is_disabled":false,"rental_uris":{"android":"levelo://app?vid=c879db94-7700-49a3-8554-1a634dac59d4","ios":"levelo://app?vid=c879db94-7700-49a3-8554-1a634dac59d4"},"vehicle_type_id":"4","last_reported":1744089032,"current_range_meters":12800,"station_id":"ce4bho92rcd13ifvqh3g","pricing_plan_id":"cebpf4jnsgd1na2vs0mg"},{"bike_id":"41518c86-5512-450d-8207-a2bc8acc6d42","system_id":"levelo_inurba_marseille","lat":43.30767,"lon":5.37685,"is_reserved":false,"is_disabled":false,"rental_uris":{"android":"levelo://app?vid=41518c86-5512-450d-8207-a2bc8acc6d42","ios":"levelo://app?vid=41518c86-5512-450d-8207-a2bc8acc6d42"},"vehicle_type_id":"4","last_reported":1744089032,"current_range_meters":12800,"station_id":"ce4bgv92rcd13ifvqcq0","pricing_plan_id":"cebpf4jnsgd1na2vs0mg"},{"bike_id":"6ff17da5-9336-4cfd-974e-48be31ce9cbf","system_id":"levelo_inurba_marseille","lat":43.26556,"lon":5.37284,"is_reserved":false,"is_disabled":false,"rental_uris":{"android":"levelo://app?vid=6ff17da5-9336-4cfd-974e-48be31ce9cbf","ios":"levelo://app?vid=6ff17da5-9336-4cfd-974e-48be31ce9cbf"},"vehicle_type_id":"4","last_reported":1744089032,"current_range_meters":12800,"station_id":"ce4bhg12rcd13ifvqf70","pricing_plan_id":"cebpf4jnsgd1na2vs0mg"},{"bike_id":"a2b55975-55e4-4a3f-8af7-2c27ff45ed68","system_id":"levelo_inurba_marseille","lat":43.281566,"lon":5.426324,"is_reserved":false,"is_disabled":true,"rental_uris":{"android":"levelo://app?vid=a2b55975-55e4-4a3f-8af7-2c27ff45ed68","ios":"levelo://app?vid=a2b55975-55e4-4a3f-8af7-2c27ff45ed68"},"vehicle_type_id":"4","last_reported":1744089032,"current_range_meters":13600,"station_id":"ce4bhnh2rcd13ifvqgug","pricing_plan_id":"cebpf4jnsgd1na2vs0mg"},{"bike_id":"93e3fd92-d65f-4f36-ba40-a3e5476ebc87","system_id":"levelo_inurba_marseille","lat":43.306624,"lon":5.36604,"is_reserved":false,"is_disabled":false,"rental_uris":{"android":"levelo://app?vid=93e3fd92-d65f-4f36-ba40-a3e5476ebc87","ios":"levelo://app?vid=93e3fd92-d65f-4f36-ba40-a3e5476ebc87"},"vehicle_type_id":"4","last_reported":1744089032,"current_range_meters":13600,"station_id":"","pricing_plan_id":"cebpf4jnsgd1na2vs0mg"},{"bike_id":"158df057-ca83-4895-ad1d-881f1e1b56e6","system_id":"levelo_inurba_marseille","lat":43.272025,"lon":5.391889,"is_reserved":false,"is_disabled":true,"rental_uris":{"android":"levelo://app?vid=158df057-ca83-4895-ad1d-881f1e1b56e6","ios":"levelo://app?vid=158df057-ca83-4895-ad1d-881f1e1b56e6"},"vehicle_type_id":"4","last_reported":1744089032,"current_range_meters":13600,"station_id":"ce4bhhp2rcd13ifvqfm0","pricing_plan_id":"cebpf4jnsgd1na2vs0mg"},{"bike_id":"4c5ed3bf-cdf5-43ce-9e91-f475551dd826","system_id":"levelo_inurba_marseille","lat":43.313218,"lon":5.396959,"is_reserved":false,"is_disabled":false,"rental_uris":{"android":"levelo://app?vid=4c5ed3bf-cdf5-43ce-9e91-f475551dd826","ios":"levelo://app?vid=4c5ed3bf-cdf5-43ce-9e91-f475551dd826"},"vehicle_type_id":"4","last_reported":1744089032,"current_range_meters":13600,"station_id":"ce4bgvp2rcd13ifvqcu0","pricing_plan_id":"cebpf4jnsgd1na2vs0mg"},{"bike_id":"5aa69766-38fe-4c8e-af06-a6c9608392bf","system_id":"levelo_inurba_marseille","lat":43.295273,"lon":5.378634,"is_reserved":false,"is_disabled":true,"rental_uris":{"android":"levelo://app?vid=5aa69766-38fe-4c8e-af06-a6c9608392bf","ios":"levelo://app?vid=5aa69766-38fe-4c8e-af06-a6c9608392bf"},"vehicle_type_id":"4","last_reported":1744089032,"current_range_meters":13600,"station_id":"","pricing_plan_id":"cebpf4jnsgd1na2vs0mg"},{"bike_id":"61cd41de-07c4-4597-a74e-0c712a9e4d87","system_id":"levelo_inurba_marseille","lat":43.22917,"lon":5.354,"is_reserved":false,"is_disabled":true,"rental_uris":{"android":"levelo://app?vid=61cd41de-07c4-4597-a74e-0c712a9e4d87","ios":"levelo://app?vid=61cd41de-07c4-4597-a74e-0c712a9e4d87"},"vehicle_type_id":"4","last_reported":1744089032,"current_range_meters":13600,"station_id":"cpo3532slgdg3j2ikp40","pricing_plan_id":"cebpf4jnsgd1na2vs0mg"},{"bike_id":"e0c712a4-8c41-4e69-a875-50251525a0f6","system_id":"levelo_inurba_marseille","lat":43.2799,"lon":5.4083,"is_reserved":false,"is_disabled":false,"rental_uris":{"android":"levelo://app?vid=e0c712a4-8c41-4e69-a875-50251525a0f6","ios":"levelo://app?vid=e0c712a4-8c41-4e69-a875-50251525a0f6"},"vehicle_type_id":"4","last_reported":1744089032,"current_range_meters":13600,"station_id":"","pricing_plan_id":"cebpf4jnsgd1na2vs0mg"},{"bike_id":"28106982-b4c2-4a17-a517-f2f6ec8e207f","system_id":"levelo_inurba_marseille","lat":43.31441,"lon":5.38404,"is_reserved":false,"is_disabled":false,"rental_uris":{"android":"levelo://app?vid=28106982-b4c2-4a17-a517-f2f6ec8e207f","ios":"levelo://app?vid=28106982-b4c2-4a17-a517-f2f6ec8e207f"},"vehicle_type_id":"4","last_reported":1744089032,"current_range_meters":13600,"station_id":"ce4bgt92rcd13ifvqcf0","pricing_plan_id":"cebpf4jnsgd1na2vs0mg"},{"bike_id":"1ca7d0c4-b7aa-4350-ad9f-4e24c2ba029a","system_id":"levelo_inurba_marseille","lat":43.30377,"lon":5.4249,"is_reserved":false,"is_disabled":true,"rental_uris":{"android":"levelo://app?vid=1ca7d0c4-b7aa-4350-ad9f-4e24c2ba029a","ios":"levelo://app?vid=1ca7d0c4-b7aa-4350-ad9f-4e24c2ba029a"},"vehicle_type_id":"4","last_reported":1744089032,"current_range_meters":14000,"station_id":"ce4bhoh2rcd13ifvqh6g","pricing_plan_id":"cebpf4jnsgd1na2vs0mg"},{"bike_id":"df6563dc-a431-4574-8dda-6468e1931093","system_id":"levelo_inurba_marseille","lat":43.30475,"lon":5.37916,"is_reserved":false,"is_disabled":false,"rental_uris":{"android":"levelo://app?vid=df6563dc-a431-4574-8dda-6468e1931093","ios":"levelo://app?vid=df6563dc-a431-4574-8dda-6468e1931093"},"vehicle_type_id":"4","last_reported":1744089032,"current_range_meters":14000,"station_id":"ce4bgup2rcd13ifvqcn0","pricing_plan_id":"cebpf4jnsgd1na2vs0mg"},{"bike_id":"424487f3-4350-40b8-aa7c-dfad0244cdf9","system_id":"levelo_inurba_marseille","lat":43.2782,"lon":5.417755,"is_reserved":false,"is_disabled":false,"rental_uris":{"android":"levelo://app?vid=424487f3-4350-40b8-aa7c-dfad0244cdf9","ios":"levelo://app?vid=424487f3-4350-40b8-aa7c-dfad0244cdf9"},"vehicle_type_id":"4","last_reported":1744089032,"current_range_meters":14000,"station_id":"","pricing_plan_id":"cebpf4jnsgd1na2vs0mg"},{"bike_id":"f143ff2e-721e-493c-bcdc-a7d2cc09ad81","system_id":"levelo_inurba_marseille","lat":43.31012,"lon":5.37753,"is_reserved":false,"is_disabled":false,"rental_uris":{"android":"levelo://app?vid=f143ff2e-721e-493c-bcdc-a7d2cc09ad81","ios":"levelo://app?vid=f143ff2e-721e-493c-bcdc-a7d2cc09ad81"},"vehicle_type_id":"4","last_reported":1744089032,"current_range_meters":14000,"station_id":"","pricing_plan_id":"cebpf4jnsgd1na2vs0mg"},{"bike_id":"45d83681-f2eb-4a39-a20c-4022ba893ea0","system_id":"levelo_inurba_marseille","lat":43.339022,"lon":5.392138,"is_reserved":false,"is_disabled":false,"rental_uris":{"android":"levelo://app?vid=45d83681-f2eb-4a39-a20c-4022ba893ea0","ios":"levelo://app?vid=45d83681-f2eb-4a39-a20c-4022ba893ea0"},"vehicle_type_id":"4","last_reported":1744089032,"current_range_meters":14000,"station_id":"","pricing_plan_id":"cebpf4jnsgd1na2vs0mg"},{"bike_id":"5400246c-7213-42af-8845-b691cc20ffe8","system_id":"levelo_inurba_marseille","lat":43.27989,"lon":5.41665,"is_reserved":false,"is_disabled":false,"rental_uris":{"android":"levelo://app?vid=5400246c-7213-42af-8845-b691cc20ffe8","ios":"levelo://app?vid=5400246c-7213-42af-8845-b691cc20ffe8"},"vehicle_type_id":"4","last_reported":1744089032,"current_range_meters":14000,"station_id":"ce4bho12rcd13ifvqh1g","pricing_plan_id":"cebpf4jnsgd1na2vs0mg"},{"bike_id":"92b7ed43-544e-48a7-9211-49c5372e8440","system_id":"levelo_inurba_marseille","lat":43.28937,"lon":5.36637,"is_reserved":false,"is_disabled":false,"rental_uris":{"android":"levelo://app?vid=92b7ed43-544e-48a7-9211-49c5372e8440","ios":"levelo://app?vid=92b7ed43-544e-48a7-9211-49c5372e8440"},"vehicle_type_id":"4","last_reported":1744089032,"current_range_meters":14400,"station_id":"ce4bhap2rcd13ifvqek0","pricing_plan_id":"cebpf4jnsgd1na2vs0mg"},{"bike_id":"f1e2fa16-262f-4907-ad0a-1dffa0dc2ed8","system_id":"levelo_inurba_marseille","lat":43.28715,"lon":5.36077,"is_reserved":false,"is_disabled":false,"rental_uris":{"android":"levelo://app?vid=f1e2fa16-262f-4907-ad0a-1dffa0dc2ed8","ios":"levelo://app?vid=f1e2fa16-262f-4907-ad0a-1dffa0dc2ed8"},"vehicle_type_id":"4","last_reported":1744089032,"current_range_meters":14400,"station_id":"cki0cbj6b192h4jlfktg","pricing_plan_id":"cebpf4jnsgd1na2vs0mg"},{"bike_id":"7a27bbe8-2753-4075-8ccd-7f573c8d455f","system_id":"levelo_inurba_marseille","lat":43.24169,"lon":5.3968,"is_reserved":false,"is_disabled":false,"rental_uris":{"android":"levelo://app?vid=7a27bbe8-2753-4075-8ccd-7f573c8d455f","ios":"levelo://app?vid=7a27bbe8-2753-4075-8ccd-7f573c8d455f"},"vehicle_type_id":"4","last_reported":1744089032,"current_range_meters":14400,"station_id":"ce4bhn12rcd13ifvqgpg","pricing_plan_id":"cebpf4jnsgd1na2vs0mg"},{"bike_id":"d2818a82-492e-4cf8-8605-026ac930fd78","system_id":"levelo_inurba_marseille","lat":43.28459,"lon":5.35897,"is_reserved":false,"is_disabled":false,"rental_uris":{"android":"levelo://app?vid=d2818a82-492e-4cf8-8605-026ac930fd78","ios":"levelo://app?vid=d2818a82-492e-4cf8-8605-026ac930fd78"},"vehicle_type_id":"4","last_reported":1744089032,"current_range_meters":14400,"station_id":"ce4bhah2rcd13ifvqei0","pricing_plan_id":"cebpf4jnsgd1na2vs0mg"},{"bike_id":"1348ebda-69b3-4fab-9110-656bacb9c452","system_id":"levelo_inurba_marseille","lat":43.28649,"lon":5.36353,"is_reserved":false,"is_disabled":false,"rental_uris":{"android":"levelo://app?vid=1348ebda-69b3-4fab-9110-656bacb9c452","ios":"levelo://app?vid=1348ebda-69b3-4fab-9110-656bacb9c452"},"vehicle_type_id":"4","last_reported":1744089032,"current_range_meters":14400,"station_id":"ce4bhah2rcd13ifvqej0","pricing_plan_id":"cebpf4jnsgd1na2vs0mg"},{"bike_id":"4365230e-a3c6-408e-a862-d505e679dc52","system_id":"levelo_inurba_marseille","lat":43.26187,"lon":5.37455,"is_reserved":false,"is_disabled":false,"rental_uris":{"android":"levelo://app?vid=4365230e-a3c6-408e-a862-d505e679dc52","ios":"levelo://app?vid=4365230e-a3c6-408e-a862-d505e679dc52"},"vehicle_type_id":"4","last_reported":1744089032,"current_range_meters":14800,"station_id":"ce4bhgp2rcd13ifvqfc0","pricing_plan_id":"cebpf4jnsgd1na2vs0mg"},{"bike_id":"f0e5f8fc-186f-4f8d-ac1a-a52c8c71269c","system_id":"levelo_inurba_marseille","lat":43.31359,"lon":5.38516,"is_reserved":false,"is_disabled":false,"rental_uris":{"android":"levelo://app?vid=f0e5f8fc-186f-4f8d-ac1a-a52c8c71269c","ios":"levelo://app?vid=f0e5f8fc-186f-4f8d-ac1a-a52c8c71269c"},"vehicle_type_id":"4","last_reported":1744089032,"current_range_meters":14800,"station_id":"ce4bgt92rcd13ifvqcf0","pricing_plan_id":"cebpf4jnsgd1na2vs0mg"},{"bike_id":"19bb28ca-216b-4255-a4eb-cf63bcca46db","system_id":"levelo_inurba_marseille","lat":43.284576,"lon":5.358862,"is_reserved":false,"is_disabled":false,"rental_uris":{"android":"levelo://app?vid=19bb28ca-216b-4255-a4eb-cf63bcca46db","ios":"levelo://app?vid=19bb28ca-216b-4255-a4eb-cf63bcca46db"},"vehicle_type_id":"4","last_reported":1744089032,"current_range_meters":14800,"station_id":"ce4bhah2rcd13ifvqei0","pricing_plan_id":"cebpf4jnsgd1na2vs0mg"},{"bike_id":"d8421346-201f-4f05-b2e3-be9e14af6fb5","system_id":"levelo_inurba_marseille","lat":43.303069,"lon":5.368965,"is_reserved":false,"is_disabled":false,"rental_uris":{"android":"levelo://app?vid=d8421346-201f-4f05-b2e3-be9e14af6fb5","ios":"levelo://app?vid=d8421346-201f-4f05-b2e3-be9e14af6fb5"},"vehicle_type_id":"4","last_reported":1744089032,"current_range_meters":14800,"station_id":"ce4bgqh2rcd13ifvqc5g","pricing_plan_id":"cebpf4jnsgd1na2vs0mg"},{"bike_id":"b397701f-0d3d-44bf-ab3e-3ccc7e74fb2e","system_id":"levelo_inurba_marseille","lat":43.26415,"lon":5.42277,"is_reserved":false,"is_disabled":false,"rental_uris":{"android":"levelo://app?vid=b397701f-0d3d-44bf-ab3e-3ccc7e74fb2e","ios":"levelo://app?vid=b397701f-0d3d-44bf-ab3e-3ccc7e74fb2e"},"vehicle_type_id":"4","last_reported":1744089032,"current_range_meters":14800,"station_id":"","pricing_plan_id":"cebpf4jnsgd1na2vs0mg"},{"bike_id":"01b7378b-2eb9-4de2-9d50-fb3034d8e0d7","system_id":"levelo_inurba_marseille","lat":43.303223,"lon":5.404369,"is_reserved":false,"is_disabled":false,"rental_uris":{"android":"levelo://app?vid=01b7378b-2eb9-4de2-9d50-fb3034d8e0d7","ios":"levelo://app?vid=01b7378b-2eb9-4de2-9d50-fb3034d8e0d7"},"vehicle_type_id":"4","last_reported":1744089032,"current_range_meters":15200,"station_id":"ce4bh012rcd13ifvqd10","pricing_plan_id":"cebpf4jnsgd1na2vs0mg"},{"bike_id":"e054f688-e975-45ab-8945-bcc4f74953b0","system_id":"levelo_inurba_marseille","lat":43.29498,"lon":5.39069,"is_reserved":false,"is_disabled":false,"rental_uris":{"android":"levelo://app?vid=e054f688-e975-45ab-8945-bcc4f74953b0","ios":"levelo://app?vid=e054f688-e975-45ab-8945-bcc4f74953b0"},"vehicle_type_id":"4","last_reported":1744089032,"current_range_meters":15200,"station_id":"ce4bh3p2rcd13ifvqdp0","pricing_plan_id":"cebpf4jnsgd1na2vs0mg"},{"bike_id":"41947e67-a831-4ba3-8cae-2c5603bc9a84","system_id":"levelo_inurba_marseille","lat":43.28561,"lon":5.39506,"is_reserved":false,"is_disabled":false,"rental_uris":{"android":"levelo://app?vid=41947e67-a831-4ba3-8cae-2c5603bc9a84","ios":"levelo://app?vid=41947e67-a831-4ba3-8cae-2c5603bc9a84"},"vehicle_type_id":"4","last_reported":1744089032,"current_range_meters":15200,"station_id":"ce4bh292rcd13ifvqdg0","pricing_plan_id":"cebpf4jnsgd1na2vs0mg"},{"bike_id":"d80533cc-8dc7-4356-8433-af344ad5199e","system_id":"levelo_inurba_marseille","lat":43.28683,"lon":5.39985,"is_reserved":false,"is_disabled":false,"rental_uris":{"android":"levelo://app?vid=d80533cc-8dc7-4356-8433-af344ad5199e","ios":"levelo://app?vid=d80533cc-8dc7-4356-8433-af344ad5199e"},"vehicle_type_id":"4","last_reported":1744089032,"current_range_meters":15200,"station_id":"ce4bho92rcd13ifvqh3g","pricing_plan_id":"cebpf4jnsgd1na2vs0mg"},{"bike_id":"d41a164c-6af8-4344-bffb-3b3c38a6d184","system_id":"levelo_inurba_marseille","lat":43.30554,"lon":5.36535,"is_reserved":false,"is_disabled":true,"rental_uris":{"android":"levelo://app?vid=d41a164c-6af8-4344-bffb-3b3c38a6d184","ios":"levelo://app?vid=d41a164c-6af8-4344-bffb-3b3c38a6d184"},"vehicle_type_id":"4","last_reported":1744089032,"current_range_meters":15200,"station_id":"ce4bgs12rcd13ifvqcag","pricing_plan_id":"cebpf4jnsgd1na2vs0mg"},{"bike_id":"3a623142-9aab-435a-98a5-0d62aaa52c1d","system_id":"levelo_inurba_marseille","lat":43.251153,"lon":5.403289,"is_reserved":false,"is_disabled":false,"rental_uris":{"android":"levelo://app?vid=3a623142-9aab-435a-98a5-0d62aaa52c1d","ios":"levelo://app?vid=3a623142-9aab-435a-98a5-0d62aaa52c1d"},"vehicle_type_id":"4","last_reported":1744089032,"current_range_meters":16000,"station_id":"ce4bhlh2rcd13ifvqgig","pricing_plan_id":"cebpf4jnsgd1na2vs0mg"},{"bike_id":"2aff3da0-1529-4960-a86c-d64b02e2b8cd","system_id":"levelo_inurba_marseille","lat":43.23067,"lon":5.35506,"is_reserved":false,"is_disabled":false,"rental_uris":{"android":"levelo://app?vid=2aff3da0-1529-4960-a86c-d64b02e2b8cd","ios":"levelo://app?vid=2aff3da0-1529-4960-a86c-d64b02e2b8cd"},"vehicle_type_id":"4","last_reported":1744089032,"current_range_meters":16000,"station_id":"cpo3342slgdg3j2ifvpg","pricing_plan_id":"cebpf4jnsgd1na2vs0mg"},{"bike_id":"67f5402e-84ba-4cca-bae1-1308d8bfce95","system_id":"levelo_inurba_marseille","lat":43.32352,"lon":5.36764,"is_reserved":false,"is_disabled":false,"rental_uris":{"android":"levelo://app?vid=67f5402e-84ba-4cca-bae1-1308d8bfce95","ios":"levelo://app?vid=67f5402e-84ba-4cca-bae1-1308d8bfce95"},"vehicle_type_id":"4","last_reported":1744089032,"current_range_meters":16000,"station_id":"ce4bhsh2rcd13ifvqi2g","pricing_plan_id":"cebpf4jnsgd1na2vs0mg"},{"bike_id":"fbe27213-9351-4c47-8819-a8eeb6a2201b","system_id":"levelo_inurba_marseille","lat":43.28387,"lon":5.37538,"is_reserved":false,"is_disabled":false,"rental_uris":{"android":"levelo://app?vid=fbe27213-9351-4c47-8819-a8eeb6a2201b","ios":"levelo://app?vid=fbe27213-9351-4c47-8819-a8eeb6a2201b"},"vehicle_type_id":"4","last_reported":1744089032,"current_range_meters":16000,"station_id":"ce4bh412rcd13ifvqds0","pricing_plan_id":"cebpf4jnsgd1na2vs0mg"},{"bike_id":"f67f2c81-b683-4e15-9867-162153db8fdc","system_id":"levelo_inurba_marseille","lat":43.284712,"lon":5.374702,"is_reserved":false,"is_disabled":false,"rental_uris":{"android":"levelo://app?vid=f67f2c81-b683-4e15-9867-162153db8fdc","ios":"levelo://app?vid=f67f2c81-b683-4e15-9867-162153db8fdc"},"vehicle_type_id":"4","last_reported":1744089032,"current_range_meters":16000,"station_id":"ce4bhbp2rcd13ifvqerg","pricing_plan_id":"cebpf4jnsgd1na2vs0mg"},{"bike_id":"6a9463a6-0650-4e46-9ab3-34331315c861","system_id":"levelo_inurba_marseille","lat":43.28387,"lon":5.37548,"is_reserved":false,"is_disabled":false,"rental_uris":{"android":"levelo://app?vid=6a9463a6-0650-4e46-9ab3-34331315c861","ios":"levelo://app?vid=6a9463a6-0650-4e46-9ab3-34331315c861"},"vehicle_type_id":"4","last_reported":1744089032,"current_range_meters":16000,"station_id":"ce4bh412rcd13ifvqds0","pricing_plan_id":"cebpf4jnsgd1na2vs0mg"},{"bike_id":"af24e20d-cd14-47b0-8e42-24aa1cee57db","system_id":"levelo_inurba_marseille","lat":43.274962,"lon":5.424556,"is_reserved":false,"is_disabled":false,"rental_uris":{"android":"levelo://app?vid=af24e20d-cd14-47b0-8e42-24aa1cee57db","ios":"levelo://app?vid=af24e20d-cd14-47b0-8e42-24aa1cee57db"},"vehicle_type_id":"4","last_reported":1744089032,"current_range_meters":16000,"station_id":"ce4bhn92rcd13ifvqgrg","pricing_plan_id":"cebpf4jnsgd1na2vs0mg"},{"bike_id":"852819f8-8577-46de-b1fa-432b264e47e4","system_id":"levelo_inurba_marseille","lat":43.241697,"lon":5.397381,"is_reserved":false,"is_disabled":false,"rental_uris":{"android":"levelo://app?vid=852819f8-8577-46de-b1fa-432b264e47e4","ios":"levelo://app?vid=852819f8-8577-46de-b1fa-432b264e47e4"},"vehicle_type_id":"4","last_reported":1744089032,"current_range_meters":16400,"station_id":"ce4bhn12rcd13ifvqgpg","pricing_plan_id":"cebpf4jnsgd1na2vs0mg"},{"bike_id":"aabb93c4-65dc-483d-9fd8-04828834eee9","system_id":"levelo_inurba_marseille","lat":43.28929,"lon":5.36635,"is_reserved":false,"is_disabled":false,"rental_uris":{"android":"levelo://app?vid=aabb93c4-65dc-483d-9fd8-04828834eee9","ios":"levelo://app?vid=aabb93c4-65dc-483d-9fd8-04828834eee9"},"vehicle_type_id":"4","last_reported":1744089032,"current_range_meters":16400,"station_id":"ce4bhap2rcd13ifvqek0","pricing_plan_id":"cebpf4jnsgd1na2vs0mg"},{"bike_id":"ade956e2-12af-48ee-aef6-a4e64043598a","system_id":"levelo_inurba_marseille","lat":43.287193,"lon":5.379371,"is_reserved":false,"is_disabled":false,"rental_uris":{"android":"levelo://app?vid=ade956e2-12af-48ee-aef6-a4e64043598a","ios":"levelo://app?vid=ade956e2-12af-48ee-aef6-a4e64043598a"},"vehicle_type_id":"4","last_reported":1744089032,"current_range_meters":16400,"station_id":"ce4bh9p2rcd13ifvqec0","pricing_plan_id":"cebpf4jnsgd1na2vs0mg"},{"bike_id":"90c56d57-56f3-4b37-a753-872d1a962a8d","system_id":"levelo_inurba_marseille","lat":43.29279,"lon":5.401254,"is_reserved":false,"is_disabled":false,"rental_uris":{"android":"levelo://app?vid=90c56d57-56f3-4b37-a753-872d1a962a8d","ios":"levelo://app?vid=90c56d57-56f3-4b37-a753-872d1a962a8d"},"vehicle_type_id":"4","last_reported":1744089032,"current_range_meters":16400,"station_id":"ce4bh312rcd13ifvqdk0","pricing_plan_id":"cebpf4jnsgd1na2vs0mg"},{"bike_id":"0d137e5e-4aa9-4d4c-b4ca-556b2a058b9d","system_id":"levelo_inurba_marseille","lat":43.24725,"lon":5.3948,"is_reserved":false,"is_disabled":false,"rental_uris":{"android":"levelo://app?vid=0d137e5e-4aa9-4d4c-b4ca-556b2a058b9d","ios":"levelo://app?vid=0d137e5e-4aa9-4d4c-b4ca-556b2a058b9d"},"vehicle_type_id":"4","last_reported":1744089032,"current_range_meters":16400,"station_id":"","pricing_plan_id":"cebpf4jnsgd1na2vs0mg"},{"bike_id":"25addcb4-8c65-4b9f-a107-9a505bc7e1e5","system_id":"levelo_inurba_marseille","lat":43.31475,"lon":5.36861,"is_reserved":false,"is_disabled":false,"rental_uris":{"android":"levelo://app?vid=25addcb4-8c65-4b9f-a107-9a505bc7e1e5","ios":"levelo://app?vid=25addcb4-8c65-4b9f-a107-9a505bc7e1e5"},"vehicle_type_id":"4","last_reported":1744089032,"current_range_meters":16400,"station_id":"","pricing_plan_id":"cebpf4jnsgd1na2vs0mg"},{"bike_id":"ad0d4453-2c58-4258-8e17-aa49c50e1a2a","system_id":"levelo_inurba_marseille","lat":43.319978,"lon":5.381558,"is_reserved":false,"is_disabled":false,"rental_uris":{"android":"levelo://app?vid=ad0d4453-2c58-4258-8e17-aa49c50e1a2a","ios":"levelo://app?vid=ad0d4453-2c58-4258-8e17-aa49c50e1a2a"},"vehicle_type_id":"4","last_reported":1744089032,"current_range_meters":16400,"station_id":"ce4bhr12rcd13ifvqhpg","pricing_plan_id":"cebpf4jnsgd1na2vs0mg"},{"bike_id":"9de631d8-33cc-46a8-9c33-d43cd6133cfd","system_id":"levelo_inurba_marseille","lat":43.30395,"lon":5.41316,"is_reserved":false,"is_disabled":false,"rental_uris":{"android":"levelo://app?vid=9de631d8-33cc-46a8-9c33-d43cd6133cfd","ios":"levelo://app?vid=9de631d8-33cc-46a8-9c33-d43cd6133cfd"},"vehicle_type_id":"4","last_reported":1744089032,"current_range_meters":16400,"station_id":"ce4bhop2rcd13ifvqh8g","pricing_plan_id":"cebpf4jnsgd1na2vs0mg"},{"bike_id":"140748c5-3e7f-4cb1-b2cb-60696689fb02","system_id":"levelo_inurba_marseille","lat":43.30462,"lon":5.37901,"is_reserved":false,"is_disabled":false,"rental_uris":{"android":"levelo://app?vid=140748c5-3e7f-4cb1-b2cb-60696689fb02","ios":"levelo://app?vid=140748c5-3e7f-4cb1-b2cb-60696689fb02"},"vehicle_type_id":"4","last_reported":1744089032,"current_range_meters":16800,"station_id":"ce4bgup2rcd13ifvqcn0","pricing_plan_id":"cebpf4jnsgd1na2vs0mg"},{"bike_id":"230b73a5-e986-4f1f-933c-dca4f2cf61af","system_id":"levelo_inurba_marseille","lat":43.34702,"lon":5.34668,"is_reserved":false,"is_disabled":false,"rental_uris":{"android":"levelo://app?vid=230b73a5-e986-4f1f-933c-dca4f2cf61af","ios":"levelo://app?vid=230b73a5-e986-4f1f-933c-dca4f2cf61af"},"vehicle_type_id":"4","last_reported":1744089032,"current_range_meters":16800,"station_id":"","pricing_plan_id":"cebpf4jnsgd1na2vs0mg"},{"bike_id":"302b0c63-344c-4e0d-b6e7-6cb2af7663da","system_id":"levelo_inurba_marseille","lat":43.26954,"lon":5.3861,"is_reserved":false,"is_disabled":true,"rental_uris":{"android":"levelo://app?vid=302b0c63-344c-4e0d-b6e7-6cb2af7663da","ios":"levelo://app?vid=302b0c63-344c-4e0d-b6e7-6cb2af7663da"},"vehicle_type_id":"4","last_reported":1744089032,"current_range_meters":16800,"station_id":"ce4bhh92rcd13ifvqfh0","pricing_plan_id":"cebpf4jnsgd1na2vs0mg"},{"bike_id":"516d4f98-b641-41fd-ba0e-01581b98c430","system_id":"levelo_inurba_marseille","lat":43.26561,"lon":5.37286,"is_reserved":false,"is_disabled":false,"rental_uris":{"android":"levelo://app?vid=516d4f98-b641-41fd-ba0e-01581b98c430","ios":"levelo://app?vid=516d4f98-b641-41fd-ba0e-01581b98c430"},"vehicle_type_id":"4","last_reported":1744089032,"current_range_meters":16800,"station_id":"ce4bhg12rcd13ifvqf70","pricing_plan_id":"cebpf4jnsgd1na2vs0mg"},{"bike_id":"3992552f-8665-4257-82ce-346cf4533fc2","system_id":"levelo_inurba_marseille","lat":43.278075,"lon":5.407126,"is_reserved":false,"is_disabled":false,"rental_uris":{"android":"levelo://app?vid=3992552f-8665-4257-82ce-346cf4533fc2","ios":"levelo://app?vid=3992552f-8665-4257-82ce-346cf4533fc2"},"vehicle_type_id":"4","last_reported":1744089032,"current_range_meters":16800,"station_id":"ce4bhnh2rcd13ifvqgtg","pricing_plan_id":"cebpf4jnsgd1na2vs0mg"},{"bike_id":"ab0207b1-b985-474e-be44-064a9543ddc8","system_id":"levelo_inurba_marseille","lat":43.26941,"lon":5.40258,"is_reserved":false,"is_disabled":false,"rental_uris":{"android":"levelo://app?vid=ab0207b1-b985-474e-be44-064a9543ddc8","ios":"levelo://app?vid=ab0207b1-b985-474e-be44-064a9543ddc8"},"vehicle_type_id":"4","last_reported":1744089032,"current_range_meters":16800,"station_id":"cjm6bp8fraef2m0cb0m0","pricing_plan_id":"cebpf4jnsgd1na2vs0mg"},{"bike_id":"e0242f3e-c1d6-442e-9387-9ce899d3c4b8","system_id":"levelo_inurba_marseille","lat":43.296277,"lon":5.405883,"is_reserved":false,"is_disabled":false,"rental_uris":{"android":"levelo://app?vid=e0242f3e-c1d6-442e-9387-9ce899d3c4b8","ios":"levelo://app?vid=e0242f3e-c1d6-442e-9387-9ce899d3c4b8"},"vehicle_type_id":"4","last_reported":1744089032,"current_range_meters":17200,"station_id":"ce4bh0h2rcd13ifvqd60","pricing_plan_id":"cebpf4jnsgd1na2vs0mg"},{"bike_id":"ffd23061-d90c-47a4-89fb-f1646bcdff1c","system_id":"levelo_inurba_marseille","lat":43.27054,"lon":5.42287,"is_reserved":false,"is_disabled":true,"rental_uris":{"android":"levelo://app?vid=ffd23061-d90c-47a4-89fb-f1646bcdff1c","ios":"levelo://app?vid=ffd23061-d90c-47a4-89fb-f1646bcdff1c"},"vehicle_type_id":"4","last_reported":1744089032,"current_range_meters":17200,"station_id":"ce4bhk92rcd13ifvqgb0","pricing_plan_id":"cebpf4jnsgd1na2vs0mg"},{"bike_id":"a70a76a2-6f35-4514-96d1-711d49f1f94f","system_id":"levelo_inurba_marseille","lat":43.2963,"lon":5.40598,"is_reserved":false,"is_disabled":false,"rental_uris":{"android":"levelo://app?vid=a70a76a2-6f35-4514-96d1-711d49f1f94f","ios":"levelo://app?vid=a70a76a2-6f35-4514-96d1-711d49f1f94f"},"vehicle_type_id":"4","last_reported":1744089032,"current_range_meters":17200,"station_id":"ce4bh0h2rcd13ifvqd60","pricing_plan_id":"cebpf4jnsgd1na2vs0mg"},{"bike_id":"b7ea98cd-7ee2-4883-bc42-aca939a5c4d9","system_id":"levelo_inurba_marseille","lat":43.28564,"lon":5.39516,"is_reserved":false,"is_disabled":false,"rental_uris":{"android":"levelo://app?vid=b7ea98cd-7ee2-4883-bc42-aca939a5c4d9","ios":"levelo://app?vid=b7ea98cd-7ee2-4883-bc42-aca939a5c4d9"},"vehicle_type_id":"4","last_reported":1744089032,"current_range_meters":17200,"station_id":"ce4bh292rcd13ifvqdg0","pricing_plan_id":"cebpf4jnsgd1na2vs0mg"},{"bike_id":"c1ab22c3-8480-4c80-a462-a754e71d457d","system_id":"levelo_inurba_marseille","lat":43.3149,"lon":5.37278,"is_reserved":false,"is_disabled":false,"rental_uris":{"android":"levelo://app?vid=c1ab22c3-8480-4c80-a462-a754e71d457d","ios":"levelo://app?vid=c1ab22c3-8480-4c80-a462-a754e71d457d"},"vehicle_type_id":"4","last_reported":1744089032,"current_range_meters":17200,"station_id":"ce4bgt12rcd13ifvqcd0","pricing_plan_id":"cebpf4jnsgd1na2vs0mg"},{"bike_id":"97de4673-cb3d-476d-87f5-c831a74b2710","system_id":"levelo_inurba_marseille","lat":43.27947,"lon":5.41038,"is_reserved":false,"is_disabled":false,"rental_uris":{"android":"levelo://app?vid=97de4673-cb3d-476d-87f5-c831a74b2710","ios":"levelo://app?vid=97de4673-cb3d-476d-87f5-c831a74b2710"},"vehicle_type_id":"4","last_reported":1744089032,"current_range_meters":17200,"station_id":"ce4bhnp2rcd13ifvqh0g","pricing_plan_id":"cebpf4jnsgd1na2vs0mg"},{"bike_id":"17038a20-3c1e-434d-9e28-e3ac14276969","system_id":"levelo_inurba_marseille","lat":43.30888,"lon":5.39639,"is_reserved":false,"is_disabled":false,"rental_uris":{"android":"levelo://app?vid=17038a20-3c1e-434d-9e28-e3ac14276969","ios":"levelo://app?vid=17038a20-3c1e-434d-9e28-e3ac14276969"},"vehicle_type_id":"4","last_reported":1744089032,"current_range_meters":17200,"station_id":"ce4bh012rcd13ifvqcv0","pricing_plan_id":"cebpf4jnsgd1na2vs0mg"},{"bike_id":"15f74a3a-55d8-4027-ba23-8e12ba4914a9","system_id":"levelo_inurba_marseille","lat":43.312728,"lon":5.401654,"is_reserved":false,"is_disabled":false,"rental_uris":{"android":"levelo://app?vid=15f74a3a-55d8-4027-ba23-8e12ba4914a9","ios":"levelo://app?vid=15f74a3a-55d8-4027-ba23-8e12ba4914a9"},"vehicle_type_id":"4","last_reported":1744089032,"current_range_meters":17600,"station_id":"ce4bh092rcd13ifvqd30","pricing_plan_id":"cebpf4jnsgd1na2vs0mg"},{"bike_id":"c140cac6-8e8a-47f9-b3a2-5663c3fe91b5","system_id":"levelo_inurba_marseille","lat":43.28723,"lon":5.36119,"is_reserved":false,"is_disabled":false,"rental_uris":{"android":"levelo://app?vid=c140cac6-8e8a-47f9-b3a2-5663c3fe91b5","ios":"levelo://app?vid=c140cac6-8e8a-47f9-b3a2-5663c3fe91b5"},"vehicle_type_id":"4","last_reported":1744089032,"current_range_meters":17600,"station_id":"cki0cbj6b192h4jlfktg","pricing_plan_id":"cebpf4jnsgd1na2vs0mg"},{"bike_id":"d81c8687-7566-4a51-9c05-fb2d29ddb3e1","system_id":"levelo_inurba_marseille","lat":43.30299,"lon":5.36922,"is_reserved":false,"is_disabled":true,"rental_uris":{"android":"levelo://app?vid=d81c8687-7566-4a51-9c05-fb2d29ddb3e1","ios":"levelo://app?vid=d81c8687-7566-4a51-9c05-fb2d29ddb3e1"},"vehicle_type_id":"4","last_reported":1744089032,"current_range_meters":17600,"station_id":"ce4bgqh2rcd13ifvqc5g","pricing_plan_id":"cebpf4jnsgd1na2vs0mg"},{"bike_id":"e24c6fd3-f9cb-40c7-9e57-dd2c20540e9b","system_id":"levelo_inurba_marseille","lat":43.33058,"lon":5.40838,"is_reserved":false,"is_disabled":false,"rental_uris":{"android":"levelo://app?vid=e24c6fd3-f9cb-40c7-9e57-dd2c20540e9b","ios":"levelo://app?vid=e24c6fd3-f9cb-40c7-9e57-dd2c20540e9b"},"vehicle_type_id":"4","last_reported":1744089032,"current_range_meters":17600,"station_id":"","pricing_plan_id":"cebpf4jnsgd1na2vs0mg"},{"bike_id":"4fd3afd2-3a01-446b-a437-3eaf01a94b5a","system_id":"levelo_inurba_marseille","lat":43.23143,"lon":5.43722,"is_reserved":false,"is_disabled":false,"rental_uris":{"android":"levelo://app?vid=4fd3afd2-3a01-446b-a437-3eaf01a94b5a","ios":"levelo://app?vid=4fd3afd2-3a01-446b-a437-3eaf01a94b5a"},"vehicle_type_id":"4","last_reported":1744089032,"current_range_meters":17600,"station_id":"ce4bhmp2rcd13ifvqgog","pricing_plan_id":"cebpf4jnsgd1na2vs0mg"},{"bike_id":"27c3e362-a103-4a86-bbe2-a7d7344b27e0","system_id":"levelo_inurba_marseille","lat":43.313674,"lon":5.385059,"is_reserved":false,"is_disabled":false,"rental_uris":{"android":"levelo://app?vid=27c3e362-a103-4a86-bbe2-a7d7344b27e0","ios":"levelo://app?vid=27c3e362-a103-4a86-bbe2-a7d7344b27e0"},"vehicle_type_id":"4","last_reported":1744089032,"current_range_meters":17600,"station_id":"ce4bgt92rcd13ifvqcf0","pricing_plan_id":"cebpf4jnsgd1na2vs0mg"},{"bike_id":"d87231b7-aff6-4409-be5c-a19bac0dbb76","system_id":"levelo_inurba_marseille","lat":43.28614,"lon":5.35126,"is_reserved":false,"is_disabled":false,"rental_uris":{"android":"levelo://app?vid=d87231b7-aff6-4409-be5c-a19bac0dbb76","ios":"levelo://app?vid=d87231b7-aff6-4409-be5c-a19bac0dbb76"},"vehicle_type_id":"4","last_reported":1744089032,"current_range_meters":17600,"station_id":"ce4bhch2rcd13ifvqeug","pricing_plan_id":"cebpf4jnsgd1na2vs0mg"},{"bike_id":"5d5b1a9a-ac99-4a6c-99e1-d2b26a4109e6","system_id":"levelo_inurba_marseille","lat":43.31333,"lon":5.39696,"is_reserved":false,"is_disabled":false,"rental_uris":{"android":"levelo://app?vid=5d5b1a9a-ac99-4a6c-99e1-d2b26a4109e6","ios":"levelo://app?vid=5d5b1a9a-ac99-4a6c-99e1-d2b26a4109e6"},"vehicle_type_id":"4","last_reported":1744089032,"current_range_meters":18000,"station_id":"ce4bgvp2rcd13ifvqcu0","pricing_plan_id":"cebpf4jnsgd1na2vs0mg"},{"bike_id":"af26ad19-9abe-49ff-a248-1cbef9be5ba8","system_id":"levelo_inurba_marseille","lat":43.29634,"lon":5.40618,"is_reserved":false,"is_disabled":false,"rental_uris":{"android":"levelo://app?vid=af26ad19-9abe-49ff-a248-1cbef9be5ba8","ios":"levelo://app?vid=af26ad19-9abe-49ff-a248-1cbef9be5ba8"},"vehicle_type_id":"4","last_reported":1744089032,"current_range_meters":18000,"station_id":"ce4bh0h2rcd13ifvqd60","pricing_plan_id":"cebpf4jnsgd1na2vs0mg"},{"bike_id":"b2e035e7-133c-4668-a748-9af734fdad11","system_id":"levelo_inurba_marseille","lat":43.28215,"lon":5.37678,"is_reserved":false,"is_disabled":false,"rental_uris":{"android":"levelo://app?vid=b2e035e7-133c-4668-a748-9af734fdad11","ios":"levelo://app?vid=b2e035e7-133c-4668-a748-9af734fdad11"},"vehicle_type_id":"4","last_reported":1744089032,"current_range_meters":18000,"station_id":"","pricing_plan_id":"cebpf4jnsgd1na2vs0mg"},{"bike_id":"c07089cb-fc37-4213-a93b-fc326f79309b","system_id":"levelo_inurba_marseille","lat":43.31357,"lon":5.38506,"is_reserved":false,"is_disabled":true,"rental_uris":{"android":"levelo://app?vid=c07089cb-fc37-4213-a93b-fc326f79309b","ios":"levelo://app?vid=c07089cb-fc37-4213-a93b-fc326f79309b"},"vehicle_type_id":"4","last_reported":1744089032,"current_range_meters":18000,"station_id":"ce4bgt92rcd13ifvqcf0","pricing_plan_id":"cebpf4jnsgd1na2vs0mg"},{"bike_id":"e2a40092-9e31-4930-a140-c9db9169b22d","system_id":"levelo_inurba_marseille","lat":43.310764,"lon":5.38354,"is_reserved":false,"is_disabled":false,"rental_uris":{"android":"levelo://app?vid=e2a40092-9e31-4930-a140-c9db9169b22d","ios":"levelo://app?vid=e2a40092-9e31-4930-a140-c9db9169b22d"},"vehicle_type_id":"4","last_reported":1744089032,"current_range_meters":18000,"station_id":"ce4bgv92rcd13ifvqcr0","pricing_plan_id":"cebpf4jnsgd1na2vs0mg"},{"bike_id":"ce641620-c7c1-4693-8c90-e4348aa1a019","system_id":"levelo_inurba_marseille","lat":43.30365,"lon":5.42508,"is_reserved":false,"is_disabled":false,"rental_uris":{"android":"levelo://app?vid=ce641620-c7c1-4693-8c90-e4348aa1a019","ios":"levelo://app?vid=ce641620-c7c1-4693-8c90-e4348aa1a019"},"vehicle_type_id":"4","last_reported":1744089032,"current_range_meters":18000,"station_id":"ce4bhoh2rcd13ifvqh6g","pricing_plan_id":"cebpf4jnsgd1na2vs0mg"},{"bike_id":"11a6ff8e-c397-45c3-a259-6ad14be198e6","system_id":"levelo_inurba_marseille","lat":43.251092,"lon":5.403274,"is_reserved":false,"is_disabled":false,"rental_uris":{"android":"levelo://app?vid=11a6ff8e-c397-45c3-a259-6ad14be198e6","ios":"levelo://app?vid=11a6ff8e-c397-45c3-a259-6ad14be198e6"},"vehicle_type_id":"4","last_reported":1744089032,"current_range_meters":18000,"station_id":"ce4bhlh2rcd13ifvqgig","pricing_plan_id":"cebpf4jnsgd1na2vs0mg"},{"bike_id":"7c8cd073-d66c-4b67-9299-5a3eb82c408f","system_id":"levelo_inurba_marseille","lat":43.284181,"lon":5.375174,"is_reserved":false,"is_disabled":false,"rental_uris":{"android":"levelo://app?vid=7c8cd073-d66c-4b67-9299-5a3eb82c408f","ios":"levelo://app?vid=7c8cd073-d66c-4b67-9299-5a3eb82c408f"},"vehicle_type_id":"4","last_reported":1744089032,"current_range_meters":18000,"station_id":"ce4bh412rcd13ifvqds0","pricing_plan_id":"cebpf4jnsgd1na2vs0mg"},{"bike_id":"cc660884-f297-4bb0-b7e1-51d0db0ddc0b","system_id":"levelo_inurba_marseille","lat":43.28401,"lon":5.37551,"is_reserved":false,"is_disabled":false,"rental_uris":{"android":"levelo://app?vid=cc660884-f297-4bb0-b7e1-51d0db0ddc0b","ios":"levelo://app?vid=cc660884-f297-4bb0-b7e1-51d0db0ddc0b"},"vehicle_type_id":"4","last_reported":1744089032,"current_range_meters":18800,"station_id":"ce4bh412rcd13ifvqds0","pricing_plan_id":"cebpf4jnsgd1na2vs0mg"},{"bike_id":"fc8865af-1b71-4ee0-81f9-cc228523c040","system_id":"levelo_inurba_marseille","lat":43.303196,"lon":5.404314,"is_reserved":false,"is_disabled":false,"rental_uris":{"android":"levelo://app?vid=fc8865af-1b71-4ee0-81f9-cc228523c040","ios":"levelo://app?vid=fc8865af-1b71-4ee0-81f9-cc228523c040"},"vehicle_type_id":"4","last_reported":1744089032,"current_range_meters":18800,"station_id":"ce4bh012rcd13ifvqd10","pricing_plan_id":"cebpf4jnsgd1na2vs0mg"},{"bike_id":"062b7966-1004-44b4-a41b-ccc4903e1341","system_id":"levelo_inurba_marseille","lat":43.30447,"lon":5.38886,"is_reserved":false,"is_disabled":false,"rental_uris":{"android":"levelo://app?vid=062b7966-1004-44b4-a41b-ccc4903e1341","ios":"levelo://app?vid=062b7966-1004-44b4-a41b-ccc4903e1341"},"vehicle_type_id":"4","last_reported":1744089032,"current_range_meters":18800,"station_id":"ce4bgk12rcd13ifvqbi0","pricing_plan_id":"cebpf4jnsgd1na2vs0mg"},{"bike_id":"9ca93c0f-68f6-4d34-8454-b9fd5f66793e","system_id":"levelo_inurba_marseille","lat":43.27204,"lon":5.39188,"is_reserved":false,"is_disabled":false,"rental_uris":{"android":"levelo://app?vid=9ca93c0f-68f6-4d34-8454-b9fd5f66793e","ios":"levelo://app?vid=9ca93c0f-68f6-4d34-8454-b9fd5f66793e"},"vehicle_type_id":"4","last_reported":1744089032,"current_range_meters":18800,"station_id":"ce4bhhp2rcd13ifvqfm0","pricing_plan_id":"cebpf4jnsgd1na2vs0mg"},{"bike_id":"870197ba-8661-4085-a36c-bffec9696405","system_id":"levelo_inurba_marseille","lat":43.28464,"lon":5.35898,"is_reserved":false,"is_disabled":false,"rental_uris":{"android":"levelo://app?vid=870197ba-8661-4085-a36c-bffec9696405","ios":"levelo://app?vid=870197ba-8661-4085-a36c-bffec9696405"},"vehicle_type_id":"4","last_reported":1744089032,"current_range_meters":18800,"station_id":"ce4bhah2rcd13ifvqei0","pricing_plan_id":"cebpf4jnsgd1na2vs0mg"},{"bike_id":"a75273b0-6be3-4981-945a-c0d8b820c26c","system_id":"levelo_inurba_marseille","lat":43.28691,"lon":5.37418,"is_reserved":false,"is_disabled":false,"rental_uris":{"android":"levelo://app?vid=a75273b0-6be3-4981-945a-c0d8b820c26c","ios":"levelo://app?vid=a75273b0-6be3-4981-945a-c0d8b820c26c"},"vehicle_type_id":"4","last_reported":1744089032,"current_range_meters":18800,"station_id":"ce4bh3p2rcd13ifvqdq0","pricing_plan_id":"cebpf4jnsgd1na2vs0mg"},{"bike_id":"0914e419-91e3-4a03-9ab8-157df463dbc7","system_id":"levelo_inurba_marseille","lat":43.269374,"lon":5.386313,"is_reserved":false,"is_disabled":true,"rental_uris":{"android":"levelo://app?vid=0914e419-91e3-4a03-9ab8-157df463dbc7","ios":"levelo://app?vid=0914e419-91e3-4a03-9ab8-157df463dbc7"},"vehicle_type_id":"4","last_reported":1744089032,"current_range_meters":18800,"station_id":"ce4bhh92rcd13ifvqfh0","pricing_plan_id":"cebpf4jnsgd1na2vs0mg"},{"bike_id":"ff41a0fe-f825-4e7b-ab7a-9d0a61ab471c","system_id":"levelo_inurba_marseille","lat":43.30725,"lon":5.42475,"is_reserved":false,"is_disabled":false,"rental_uris":{"android":"levelo://app?vid=ff41a0fe-f825-4e7b-ab7a-9d0a61ab471c","ios":"levelo://app?vid=ff41a0fe-f825-4e7b-ab7a-9d0a61ab471c"},"vehicle_type_id":"4","last_reported":1744089032,"current_range_meters":18800,"station_id":"st_cvj6ca6bvosntc0bfgr0","pricing_plan_id":"cebpf4jnsgd1na2vs0mg"},{"bike_id":"ccdb09db-4e19-47b4-9bfb-fbee15edcc7d","system_id":"levelo_inurba_marseille","lat":43.29277,"lon":5.36843,"is_reserved":false,"is_disabled":false,"rental_uris":{"android":"levelo://app?vid=ccdb09db-4e19-47b4-9bfb-fbee15edcc7d","ios":"levelo://app?vid=ccdb09db-4e19-47b4-9bfb-fbee15edcc7d"},"vehicle_type_id":"4","last_reported":1744089032,"current_range_meters":18800,"station_id":"ce4bhbp2rcd13ifvqesg","pricing_plan_id":"cebpf4jnsgd1na2vs0mg"},{"bike_id":"9341c371-65f6-4d52-acb2-9df76258eee1","system_id":"levelo_inurba_marseille","lat":43.30426,"lon":5.38893,"is_reserved":false,"is_disabled":false,"rental_uris":{"android":"levelo://app?vid=9341c371-65f6-4d52-acb2-9df76258eee1","ios":"levelo://app?vid=9341c371-65f6-4d52-acb2-9df76258eee1"},"vehicle_type_id":"4","last_reported":1744089032,"current_range_meters":18800,"station_id":"ce4bgk12rcd13ifvqbi0","pricing_plan_id":"cebpf4jnsgd1na2vs0mg"},{"bike_id":"0c83949a-de2b-47de-a4e7-4f5375eeab2e","system_id":"levelo_inurba_marseille","lat":43.265537,"lon":5.372964,"is_reserved":false,"is_disabled":false,"rental_uris":{"android":"levelo://app?vid=0c83949a-de2b-47de-a4e7-4f5375eeab2e","ios":"levelo://app?vid=0c83949a-de2b-47de-a4e7-4f5375eeab2e"},"vehicle_type_id":"4","last_reported":1744089032,"current_range_meters":18800,"station_id":"ce4bhg12rcd13ifvqf70","pricing_plan_id":"cebpf4jnsgd1na2vs0mg"},{"bike_id":"5273534c-3473-4abd-9c4b-e677a5c1499a","system_id":"levelo_inurba_marseille","lat":43.290392,"lon":5.369708,"is_reserved":false,"is_disabled":false,"rental_uris":{"android":"levelo://app?vid=5273534c-3473-4abd-9c4b-e677a5c1499a","ios":"levelo://app?vid=5273534c-3473-4abd-9c4b-e677a5c1499a"},"vehicle_type_id":"4","last_reported":1744089032,"current_range_meters":18800,"station_id":"","pricing_plan_id":"cebpf4jnsgd1na2vs0mg"},{"bike_id":"1e099cf5-9456-4ac3-8d36-9153ce8a87f2","system_id":"levelo_inurba_marseille","lat":43.295721,"lon":5.399656,"is_reserved":false,"is_disabled":true,"rental_uris":{"android":"levelo://app?vid=1e099cf5-9456-4ac3-8d36-9153ce8a87f2","ios":"levelo://app?vid=1e099cf5-9456-4ac3-8d36-9153ce8a87f2"},"vehicle_type_id":"4","last_reported":1744089032,"current_range_meters":19200,"station_id":"ce4bh312rcd13ifvqdj0","pricing_plan_id":"cebpf4jnsgd1na2vs0mg"},{"bike_id":"e689ee66-dfb5-4334-8360-29e3fc7e043d","system_id":"levelo_inurba_marseille","lat":43.28396,"lon":5.37531,"is_reserved":false,"is_disabled":false,"rental_uris":{"android":"levelo://app?vid=e689ee66-dfb5-4334-8360-29e3fc7e043d","ios":"levelo://app?vid=e689ee66-dfb5-4334-8360-29e3fc7e043d"},"vehicle_type_id":"4","last_reported":1744089032,"current_range_meters":19200,"station_id":"ce4bh412rcd13ifvqds0","pricing_plan_id":"cebpf4jnsgd1na2vs0mg"},{"bike_id":"27768073-dde6-48e9-bf13-e40e2934834a","system_id":"levelo_inurba_marseille","lat":43.24174,"lon":5.39736,"is_reserved":false,"is_disabled":false,"rental_uris":{"android":"levelo://app?vid=27768073-dde6-48e9-bf13-e40e2934834a","ios":"levelo://app?vid=27768073-dde6-48e9-bf13-e40e2934834a"},"vehicle_type_id":"4","last_reported":1744089032,"current_range_meters":19200,"station_id":"ce4bhn12rcd13ifvqgpg","pricing_plan_id":"cebpf4jnsgd1na2vs0mg"},{"bike_id":"52dfef30-eef0-4dd6-a138-a48c8dcc2c3a","system_id":"levelo_inurba_marseille","lat":43.30387,"lon":5.42766,"is_reserved":false,"is_disabled":true,"rental_uris":{"android":"levelo://app?vid=52dfef30-eef0-4dd6-a138-a48c8dcc2c3a","ios":"levelo://app?vid=52dfef30-eef0-4dd6-a138-a48c8dcc2c3a"},"vehicle_type_id":"4","last_reported":1744089032,"current_range_meters":19200,"station_id":"","pricing_plan_id":"cebpf4jnsgd1na2vs0mg"},