{"last_updated":1749499893,"ttl":60,"version":"2.2","data":{"bikes":[{"bike_id":"e47ff1b3-84f4-4223-8488-03c55121b410","system_id":"levelo_inurba_marseille","lat":43.32453,"lon":5.43549,"is_reserved":false,"is_disabled":false,"rental_uris":{"android":"levelo://app?vid=e47ff1b3-84f4-4223-8488-03c55121b410","ios":"levelo://app?vid=e47ff1b3-84f4-4223-8488-03c55121b410"},"vehicle_type_id":"4","last_reported":1749499893,"current_range_meters":2800,"station_id":"","pricing_plan_id":"cebpf4jnsgd1na2vs0mg"},{"bike_id":"8c03ec80-dc19-4c9d-b151-e0210828c13a","system_id":"levelo_inurba_marseille","lat":43.29676,"lon":5.39417,"is_reserved":false,"is_disabled":false,"rental_uris":{"android":"levelo://app?vid=8c03ec80-dc19-4c9d-b151-e0210828c13a","ios":"levelo://app?vid=8c03ec80-dc19-4c9d-b151-e0210828c13a"},"vehicle_type_id":"4","last_reported":1749499893,"current_range_meters":2800,"station_id":"","pricing_plan_id":"cebpf4jnsgd1na2vs0mg"},{"bike_id":"1ea4d901-280f-4050-a043-0b37afe86b03","system_id":"levelo_inurba_marseille","lat":43.21189,"lon":5.35065,"is_reserved":false,"is_disabled":false,"rental_uris":{"android":"levelo://app?vid=1ea4d901-280f-4050-a043-0b37afe86b03","ios":"levelo://app?vid=1ea4d901-280f-4050-a043-0b37afe86b03"},"vehicle_type_id":"4","last_reported":1749499893,"current_range_meters":3200,"station_id":"st_cvj6sg6p6f1abm77japg","pricing_plan_id":"cebpf4jnsgd1na2vs0mg"},{"bike_id":"91b5925d-2d0a-4921-81ac-1150c1974987","system_id":"levelo_inurba_marseille","lat":43.28225,"lon":5.34888,"is_reserved":false,"is_disabled":false,"rental_uris":{"android":"levelo://app?vid=91b5925d-2d0a-4921-81ac-1150c1974987","ios":"levelo://app?vid=91b5925d-2d0a-4921-81ac-1150c1974987"},"vehicle_type_id":"4","last_reported":1749499893,"current_range_meters":3200,"station_id":"","pricing_plan_id":"cebpf4jnsgd1na2vs0mg"},{"bike_id":"67d4735d-a812-4e55-90bc-5641f4e35931","system_id":"levelo_inurba_marseille","lat":43.2119,"lon":5.35074,"is_reserved":false,"is_disabled":false,"rental_uris":{"android":"levelo://app?vid=67d4735d-a812-4e55-90bc-5641f4e35931","ios":"levelo://app?vid=67d4735d-a812-4e55-90bc-5641f4e35931"},"vehicle_type_id":"4","last_reported":1749499893,"current_range_meters":3600,"station_id":"st_cvj6sg6p6f1abm77japg","pricing_plan_id":"cebpf4jnsgd1na2vs0mg"},{"bike_id":"25b66047-1497-4b15-97cd-51b8ba478910","system_id":"levelo_inurba_marseille","lat":43.29548,"lon":5.38653,"is_reserved":false,"is_disabled":false,"rental_uris":{"android":"levelo://app?vid=25b66047-1497-4b15-97cd-51b8ba478910","ios":"levelo://app?vid=25b66047-1497-4b15-97cd-51b8ba478910"},"vehicle_type_id":"4","last_reported":1749499893,"current_range_meters":3600,"station_id":"","pricing_plan_id":"cebpf4jnsgd1na2vs0mg"},{"bike_id":"208e953e-ca7e-438b-82e7-c1329ee5268c","system_id":"levelo_inurba_marseille","lat":43.24801,"lon":5.37452,"is_reserved":false,"is_disabled":false,"rental_uris":{"android":"levelo://app?vid=208e953e-ca7e-438b-82e7-c1329ee5268c","ios":"levelo://app?vid=208e953e-ca7e-438b-82e7-c1329ee5268c"},"vehicle_type_id":"4","last_reported":1749499893,"current_range_meters":3600,"station_id":"ce4bhgh2rcd13ifvqfb0","pricing_plan_id":"cebpf4jnsgd1na2vs0mg"},{"bike_id":"76dff3f0-834f-4367-9c95-a64d3e371b8d","system_id":"levelo_inurba_marseille","lat":43.2617,"lon":5.40375,"is_reserved":false,"is_disabled":false,"rental_uris":{"android":"levelo://app?vid=76dff3f0-834f-4367-9c95-a64d3e371b8d","ios":"levelo://app?vid=76dff3f0-834f-4367-9c95-a64d3e371b8d"},"vehicle_type_id":"4","last_reported":1749499893,"current_range_meters":3600,"station_id":"ce4bhmh2rcd13ifvqgmg","pricing_plan_id":"cebpf4jnsgd1na2vs0mg"},{"bike_id":"37131763-d567-471b-9511-f463050a0ad1","system_id":"levelo_inurba_marseille","lat":43.29571,"lon":5.37485,"is_reserved":false,"is_disabled":true,"rental_uris":{"android":"levelo://app?vid=37131763-d567-471b-9511-f463050a0ad1","ios":"levelo://app?vid=37131763-d567-471b-9511-f463050a0ad1"},"vehicle_type_id":"4","last_reported":1749499893,"current_range_meters":3600,"station_id":"ce4bgh92rcd13ifvqb50","pricing_plan_id":"cebpf4jnsgd1na2vs0mg"},{"bike_id":"a2d73be7-868a-4600-9834-af16b43b12ad","system_id":"levelo_inurba_marseille","lat":43.24485,"lon":5.42513,"is_reserved":false,"is_disabled":false,"rental_uris":{"android":"levelo://app?vid=a2d73be7-868a-4600-9834-af16b43b12ad","ios":"levelo://app?vid=a2d73be7-868a-4600-9834-af16b43b12ad"},"vehicle_type_id":"4","last_reported":1749499893,"current_range_meters":4000,"station_id":"","pricing_plan_id":"cebpf4jnsgd1na2vs0mg"},{"bike_id":"3d9d3976-b6da-415d-b0e7-53db0b5a7bcb","system_id":"levelo_inurba_marseille","lat":43.28104,"lon":5.3785,"is_reserved":false,"is_disabled":true,"rental_uris":{"android":"levelo://app?vid=3d9d3976-b6da-415d-b0e7-53db0b5a7bcb","ios":"levelo://app?vid=3d9d3976-b6da-415d-b0e7-53db0b5a7bcb"},"vehicle_type_id":"4","last_reported":1749499893,"current_range_meters":4000,"station_id":"ce4bha12rcd13ifvqee0","pricing_plan_id":"cebpf4jnsgd1na2vs0mg"},{"bike_id":"04983142-7950-4df8-ad98-d43a378ca8b2","system_id":"levelo_inurba_marseille","lat":43.28707,"lon":5.37082,"is_reserved":false,"is_disabled":false,"rental_uris":{"android":"levelo://app?vid=04983142-7950-4df8-ad98-d43a378ca8b2","ios":"levelo://app?vid=04983142-7950-4df8-ad98-d43a378ca8b2"},"vehicle_type_id":"4","last_reported":1749499893,"current_range_meters":4000,"station_id":"","pricing_plan_id":"cebpf4jnsgd1na2vs0mg"},{"bike_id":"78c46292-67b2-4525-8e61-233920ce9ba5","system_id":"levelo_inurba_marseille","lat":43.29555,"lon":5.42289,"is_reserved":false,"is_disabled":false,"rental_uris":{"android":"levelo://app?vid=78c46292-67b2-4525-8e61-233920ce9ba5","ios":"levelo://app?vid=78c46292-67b2-4525-8e61-233920ce9ba5"},"vehicle_type_id":"4","last_reported":1749499893,"current_range_meters":4000,"station_id":"ce4bhph2rcd13ifvqhdg","pricing_plan_id":"cebpf4jnsgd1na2vs0mg"},{"bike_id":"ff35a1d8-f575-4f43-bff5-6762ba0c275b","system_id":"levelo_inurba_marseille","lat":43.231947,"lon":5.355497,"is_reserved":false,"is_disabled":true,"rental_uris":{"android":"levelo://app?vid=ff35a1d8-f575-4f43-bff5-6762ba0c275b","ios":"levelo://app?vid=ff35a1d8-f575-4f43-bff5-6762ba0c275b"},"vehicle_type_id":"4","last_reported":1749499893,"current_range_meters":4000,"station_id":"ce4bhu92rcd13ifvqi70","pricing_plan_id":"cebpf4jnsgd1na2vs0mg"},{"bike_id":"4e687346-16de-4ecf-8bf2-3d5b73a3cf9c","system_id":"levelo_inurba_marseille","lat":43.31991,"lon":5.38143,"is_reserved":false,"is_disabled":false,"rental_uris":{"android":"levelo://app?vid=4e687346-16de-4ecf-8bf2-3d5b73a3cf9c","ios":"levelo://app?vid=4e687346-16de-4ecf-8bf2-3d5b73a3cf9c"},"vehicle_type_id":"4","last_reported":1749499893,"current_range_meters":4400,"station_id":"ce4bhr12rcd13ifvqhpg","pricing_plan_id":"cebpf4jnsgd1na2vs0mg"},{"bike_id":"a7b6f345-c573-436e-85b2-3dab9793ee94","system_id":"levelo_inurba_marseille","lat":43.27832,"lon":5.39201,"is_reserved":false,"is_disabled":false,"rental_uris":{"android":"levelo://app?vid=a7b6f345-c573-436e-85b2-3dab9793ee94","ios":"levelo://app?vid=a7b6f345-c573-436e-85b2-3dab9793ee94"},"vehicle_type_id":"4","last_reported":1749499893,"current_range_meters":4400,"station_id":"ce4bhjp2rcd13ifvqga0","pricing_plan_id":"cebpf4jnsgd1na2vs0mg"},{"bike_id":"c94192a2-124d-4a00-a51a-6765e8678025","system_id":"levelo_inurba_marseille","lat":43.30313,"lon":5.39189,"is_reserved":false,"is_disabled":true,"rental_uris":{"android":"levelo://app?vid=c94192a2-124d-4a00-a51a-6765e8678025","ios":"levelo://app?vid=c94192a2-124d-4a00-a51a-6765e8678025"},"vehicle_type_id":"4","last_reported":1749499893,"current_range_meters":4400,"station_id":"ce4bgkh2rcd13ifvqbk0","pricing_plan_id":"cebpf4jnsgd1na2vs0mg"},{"bike_id":"2ee95ae0-83a2-4f87-92e7-182763430c39","system_id":"levelo_inurba_marseille","lat":43.28657,"lon":5.36341,"is_reserved":false,"is_disabled":true,"rental_uris":{"android":"levelo://app?vid=2ee95ae0-83a2-4f87-92e7-182763430c39","ios":"levelo://app?vid=2ee95ae0-83a2-4f87-92e7-182763430c39"},"vehicle_type_id":"4","last_reported":1749499893,"current_range_meters":4800,"station_id":"ce4bhah2rcd13ifvqej0","pricing_plan_id":"cebpf4jnsgd1na2vs0mg"},{"bike_id":"994fbbd1-7b7a-4973-8b72-780a5cbeda75","system_id":"levelo_inurba_marseille","lat":43.2898,"lon":5.37859,"is_reserved":false,"is_disabled":true,"rental_uris":{"android":"levelo://app?vid=994fbbd1-7b7a-4973-8b72-780a5cbeda75","ios":"levelo://app?vid=994fbbd1-7b7a-4973-8b72-780a5cbeda75"},"vehicle_type_id":"4","last_reported":1749499893,"current_range_meters":5600,"station_id":"ce4bh9p2rcd13ifvqed0","pricing_plan_id":"cebpf4jnsgd1na2vs0mg"},{"bike_id":"8e35c170-5672-4a09-a460-d07498e06131","system_id":"levelo_inurba_marseille","lat":43.31167,"lon":5.38721,"is_reserved":false,"is_disabled":false,"rental_uris":{"android":"levelo://app?vid=8e35c170-5672-4a09-a460-d07498e06131","ios":"levelo://app?vid=8e35c170-5672-4a09-a460-d07498e06131"},"vehicle_type_id":"4","last_reported":1749499893,"current_range_meters":5600,"station_id":"ce4bgv12rcd13ifvqcp0","pricing_plan_id":"cebpf4jnsgd1na2vs0mg"},{"bike_id":"a61242dd-8369-4520-9963-a504224e1a30","system_id":"levelo_inurba_marseille","lat":43.23121,"lon":5.40798,"is_reserved":false,"is_disabled":false,"rental_uris":{"android":"levelo://app?vid=a61242dd-8369-4520-9963-a504224e1a30","ios":"levelo://app?vid=a61242dd-8369-4520-9963-a504224e1a30"},"vehicle_type_id":"4","last_reported":1749499893,"current_range_meters":5600,"station_id":"","pricing_plan_id":"cebpf4jnsgd1na2vs0mg"},{"bike_id":"51758c19-1362-479f-b112-1accb31094e0","system_id":"levelo_inurba_marseille","lat":43.28719,"lon":5.37936,"is_reserved":false,"is_disabled":false,"rental_uris":{"android":"levelo://app?vid=51758c19-1362-479f-b112-1accb31094e0","ios":"levelo://app?vid=51758c19-1362-479f-b112-1accb31094e0"},"vehicle_type_id":"4","last_reported":1749499893,"current_range_meters":5600,"station_id":"ce4bh9p2rcd13ifvqec0","pricing_plan_id":"cebpf4jnsgd1na2vs0mg"},{"bike_id":"38f23691-32e8-4944-adc9-f1e97af1fb85","system_id":"levelo_inurba_marseille","lat":43.28921,"lon":5.38394,"is_reserved":false,"is_disabled":false,"rental_uris":{"android":"levelo://app?vid=38f23691-32e8-4944-adc9-f1e97af1fb85","ios":"levelo://app?vid=38f23691-32e8-4944-adc9-f1e97af1fb85"},"vehicle_type_id":"4","last_reported":1749499893,"current_range_meters":5600,"station_id":"ce4bh612rcd13ifvqe6g","pricing_plan_id":"cebpf4jnsgd1na2vs0mg"},{"bike_id":"47dd68b0-03ff-490e-b861-4299158d1df4","system_id":"levelo_inurba_marseille","lat":43.31167,"lon":5.38713,"is_reserved":false,"is_disabled":false,"rental_uris":{"android":"levelo://app?vid=47dd68b0-03ff-490e-b861-4299158d1df4","ios":"levelo://app?vid=47dd68b0-03ff-490e-b861-4299158d1df4"},"vehicle_type_id":"4","last_reported":1749499893,"current_range_meters":6000,"station_id":"ce4bgv12rcd13ifvqcp0","pricing_plan_id":"cebpf4jnsgd1na2vs0mg"},{"bike_id":"de91ba17-0dc3-4fdd-a3dc-b98fd0ba0f1f","system_id":"levelo_inurba_marseille","lat":43.30796,"lon":5.37661,"is_reserved":false,"is_disabled":false,"rental_uris":{"android":"levelo://app?vid=de91ba17-0dc3-4fdd-a3dc-b98fd0ba0f1f","ios":"levelo://app?vid=de91ba17-0dc3-4fdd-a3dc-b98fd0ba0f1f"},"vehicle_type_id":"4","last_reported":1749499893,"current_range_meters":6000,"station_id":"ce4bgv92rcd13ifvqcq0","pricing_plan_id":"cebpf4jnsgd1na2vs0mg"},{"bike_id":"36c4c3b4-e3f5-4188-acbc-a0ca1b108ee0","system_id":"levelo_inurba_marseille","lat":43.32291,"lon":5.38268,"is_reserved":false,"is_disabled":false,"rental_uris":{"android":"levelo://app?vid=36c4c3b4-e3f5-4188-acbc-a0ca1b108ee0","ios":"levelo://app?vid=36c4c3b4-e3f5-4188-acbc-a0ca1b108ee0"},"vehicle_type_id":"4","last_reported":1749499893,"current_range_meters":5600,"station_id":"ce4bhr12rcd13ifvqhqg","pricing_plan_id":"cebpf4jnsgd1na2vs0mg"},{"bike_id":"82075e33-681b-4435-91e1-d9694e703210","system_id":"levelo_inurba_marseille","lat":43.28695,"lon":5.3739,"is_reserved":false,"is_disabled":false,"rental_uris":{"android":"levelo://app?vid=82075e33-681b-4435-91e1-d9694e703210","ios":"levelo://app?vid=82075e33-681b-4435-91e1-d9694e703210"},"vehicle_type_id":"4","last_reported":1749499893,"current_range_meters":6000,"station_id":"ce4bh3p2rcd13ifvqdq0","pricing_plan_id":"cebpf4jnsgd1na2vs0mg"},{"bike_id":"2432aaf3-3960-4e20-8418-81981bb12dfb","system_id":"levelo_inurba_marseille","lat":43.25494,"lon":5.37646,"is_reserved":false,"is_disabled":false,"rental_uris":{"android":"levelo://app?vid=2432aaf3-3960-4e20-8418-81981bb12dfb","ios":"levelo://app?vid=2432aaf3-3960-4e20-8418-81981bb12dfb"},"vehicle_type_id":"4","last_reported":1749499893,"current_range_meters":6000,"station_id":"ce4bhh12rcd13ifvqff0","pricing_plan_id":"cebpf4jnsgd1na2vs0mg"},{"bike_id":"b627a4bc-ec3d-4a3d-b098-2cb9e5bfa8f1","system_id":"levelo_inurba_marseille","lat":43.289691,"lon":5.479024,"is_reserved":false,"is_disabled":false,"rental_uris":{"android":"levelo://app?vid=b627a4bc-ec3d-4a3d-b098-2cb9e5bfa8f1","ios":"levelo://app?vid=b627a4bc-ec3d-4a3d-b098-2cb9e5bfa8f1"},"vehicle_type_id":"4","last_reported":1749499893,"current_range_meters":6000,"station_id":"","pricing_plan_id":"cebpf4jnsgd1na2vs0mg"},{"bike_id":"ab9b945d-3acf-4ac8-834b-d9431728f012","system_id":"levelo_inurba_marseille","lat":43.3059,"lon":5.39364,"is_reserved":false,"is_disabled":false,"rental_uris":{"android":"levelo://app?vid=ab9b945d-3acf-4ac8-834b-d9431728f012","ios":"levelo://app?vid=ab9b945d-3acf-4ac8-834b-d9431728f012"},"vehicle_type_id":"4","last_reported":1749499893,"current_range_meters":6400,"station_id":"ce4bh0p2rcd13ifvqd80","pricing_plan_id":"cebpf4jnsgd1na2vs0mg"},{"bike_id":"7bb372dc-7243-4475-ad00-0cfbc5892bb1","system_id":"levelo_inurba_marseille","lat":43.29537,"lon":5.39031,"is_reserved":false,"is_disabled":false,"rental_uris":{"android":"levelo://app?vid=7bb372dc-7243-4475-ad00-0cfbc5892bb1","ios":"levelo://app?vid=7bb372dc-7243-4475-ad00-0cfbc5892bb1"},"vehicle_type_id":"4","last_reported":1749499893,"current_range_meters":6400,"station_id":"ce4bh3p2rcd13ifvqdp0","pricing_plan_id":"cebpf4jnsgd1na2vs0mg"},{"bike_id":"27fa0c7b-a01b-4d7c-b4b0-de600230e3a3","system_id":"levelo_inurba_marseille","lat":43.27551,"lon":5.3843,"is_reserved":false,"is_disabled":false,"rental_uris":{"android":"levelo://app?vid=27fa0c7b-a01b-4d7c-b4b0-de600230e3a3","ios":"levelo://app?vid=27fa0c7b-a01b-4d7c-b4b0-de600230e3a3"},"vehicle_type_id":"4","last_reported":1749499893,"current_range_meters":6800,"station_id":"ce4bhh92rcd13ifvqfi0","pricing_plan_id":"cebpf4jnsgd1na2vs0mg"},{"bike_id":"26b898cc-11a0-4c85-a890-8a9bb099fecf","system_id":"levelo_inurba_marseille","lat":43.32175,"lon":5.38079,"is_reserved":false,"is_disabled":false,"rental_uris":{"android":"levelo://app?vid=26b898cc-11a0-4c85-a890-8a9bb099fecf","ios":"levelo://app?vid=26b898cc-11a0-4c85-a890-8a9bb099fecf"},"vehicle_type_id":"4","last_reported":1749499893,"current_range_meters":6800,"station_id":"","pricing_plan_id":"cebpf4jnsgd1na2vs0mg"},{"bike_id":"3354f4dd-b178-4051-91cd-3dcb6e091cb6","system_id":"levelo_inurba_marseille","lat":43.23139,"lon":5.43721,"is_reserved":false,"is_disabled":false,"rental_uris":{"android":"levelo://app?vid=3354f4dd-b178-4051-91cd-3dcb6e091cb6","ios":"levelo://app?vid=3354f4dd-b178-4051-91cd-3dcb6e091cb6"},"vehicle_type_id":"4","last_reported":1749499893,"current_range_meters":6800,"station_id":"ce4bhmp2rcd13ifvqgog","pricing_plan_id":"cebpf4jnsgd1na2vs0mg"},{"bike_id":"46ad0958-a2d7-473e-8aeb-a02bfd147679","system_id":"levelo_inurba_marseille","lat":43.23958,"lon":5.36597,"is_reserved":false,"is_disabled":true,"rental_uris":{"android":"levelo://app?vid=46ad0958-a2d7-473e-8aeb-a02bfd147679","ios":"levelo://app?vid=46ad0958-a2d7-473e-8aeb-a02bfd147679"},"vehicle_type_id":"4","last_reported":1749499893,"current_range_meters":6800,"station_id":"ce4bhi12rcd13ifvqfp0","pricing_plan_id":"cebpf4jnsgd1na2vs0mg"},{"bike_id":"895a7349-2d37-4aba-8a90-c5271330ff3f","system_id":"levelo_inurba_marseille","lat":43.30447,"lon":5.38875,"is_reserved":false,"is_disabled":false,"rental_uris":{"android":"levelo://app?vid=895a7349-2d37-4aba-8a90-c5271330ff3f","ios":"levelo://app?vid=895a7349-2d37-4aba-8a90-c5271330ff3f"},"vehicle_type_id":"4","last_reported":1749499893,"current_range_meters":6800,"station_id":"ce4bgk12rcd13ifvqbi0","pricing_plan_id":"cebpf4jnsgd1na2vs0mg"},{"bike_id":"98f11f65-6612-45c4-b58f-5380fdc19591","system_id":"levelo_inurba_marseille","lat":43.30095,"lon":5.39096,"is_reserved":false,"is_disabled":false,"rental_uris":{"android":"levelo://app?vid=98f11f65-6612-45c4-b58f-5380fdc19591","ios":"levelo://app?vid=98f11f65-6612-45c4-b58f-5380fdc19591"},"vehicle_type_id":"4","last_reported":1749499893,"current_range_meters":6000,"station_id":"ce4bh192rcd13ifvqdb0","pricing_plan_id":"cebpf4jnsgd1na2vs0mg"},{"bike_id":"f848b3bb-76f6-4b44-988d-5348a1a2d04b","system_id":"levelo_inurba_marseille","lat":43.284198,"lon":5.374989,"is_reserved":false,"is_disabled":false,"rental_uris":{"android":"levelo://app?vid=f848b3bb-76f6-4b44-988d-5348a1a2d04b","ios":"levelo://app?vid=f848b3bb-76f6-4b44-988d-5348a1a2d04b"},"vehicle_type_id":"4","last_reported":1749499893,"current_range_meters":6800,"station_id":"ce4bh412rcd13ifvqds0","pricing_plan_id":"cebpf4jnsgd1na2vs0mg"},{"bike_id":"a34aa760-19cf-4750-9133-b676aeeef362","system_id":"levelo_inurba_marseille","lat":43.29539,"lon":5.37495,"is_reserved":false,"is_disabled":true,"rental_uris":{"android":"levelo://app?vid=a34aa760-19cf-4750-9133-b676aeeef362","ios":"levelo://app?vid=a34aa760-19cf-4750-9133-b676aeeef362"},"vehicle_type_id":"4","last_reported":1749499893,"current_range_meters":7200,"station_id":"ce4bgkp2rcd13ifvqbmg","pricing_plan_id":"cebpf4jnsgd1na2vs0mg"},{"bike_id":"5b19dfb6-c827-4bdd-92a9-41fbee3f3f7a","system_id":"levelo_inurba_marseille","lat":43.29265,"lon":5.38441,"is_reserved":false,"is_disabled":false,"rental_uris":{"android":"levelo://app?vid=5b19dfb6-c827-4bdd-92a9-41fbee3f3f7a","ios":"levelo://app?vid=5b19dfb6-c827-4bdd-92a9-41fbee3f3f7a"},"vehicle_type_id":"4","last_reported":1749499893,"current_range_meters":7200,"station_id":"ce4bh692rcd13ifvqea0","pricing_plan_id":"cebpf4jnsgd1na2vs0mg"},{"bike_id":"4614b391-7bd5-4e2d-ae2f-1ce84135b852","system_id":"levelo_inurba_marseille","lat":43.31704,"lon":5.37721,"is_reserved":false,"is_disabled":false,"rental_uris":{"android":"levelo://app?vid=4614b391-7bd5-4e2d-ae2f-1ce84135b852","ios":"levelo://app?vid=4614b391-7bd5-4e2d-ae2f-1ce84135b852"},"vehicle_type_id":"4","last_reported":1749499893,"current_range_meters":7200,"station_id":"ce4bgth2rcd13ifvqch0","pricing_plan_id":"cebpf4jnsgd1na2vs0mg"},{"bike_id":"781bcf50-52ca-4350-bf0f-8071b3b2b128","system_id":"levelo_inurba_marseille","lat":43.29905,"lon":5.43656,"is_reserved":false,"is_disabled":false,"rental_uris":{"android":"levelo://app?vid=781bcf50-52ca-4350-bf0f-8071b3b2b128","ios":"levelo://app?vid=781bcf50-52ca-4350-bf0f-8071b3b2b128"},"vehicle_type_id":"4","last_reported":1749499893,"current_range_meters":7200,"station_id":"ce4bhpp2rcd13ifvqhfg","pricing_plan_id":"cebpf4jnsgd1na2vs0mg"},{"bike_id":"5ff7c847-94f1-4642-94ea-e9dc6811d073","system_id":"levelo_inurba_marseille","lat":43.26011,"lon":5.37407,"is_reserved":false,"is_disabled":false,"rental_uris":{"android":"levelo://app?vid=5ff7c847-94f1-4642-94ea-e9dc6811d073","ios":"levelo://app?vid=5ff7c847-94f1-4642-94ea-e9dc6811d073"},"vehicle_type_id":"4","last_reported":1749499893,"current_range_meters":7200,"station_id":"","pricing_plan_id":"cebpf4jnsgd1na2vs0mg"},{"bike_id":"d3860c84-0e7a-473f-a04e-1ba052379ffe","system_id":"levelo_inurba_marseille","lat":43.2959,"lon":5.39163,"is_reserved":false,"is_disabled":false,"rental_uris":{"android":"levelo://app?vid=d3860c84-0e7a-473f-a04e-1ba052379ffe","ios":"levelo://app?vid=d3860c84-0e7a-473f-a04e-1ba052379ffe"},"vehicle_type_id":"4","last_reported":1749499893,"current_range_meters":8000,"station_id":"","pricing_plan_id":"cebpf4jnsgd1na2vs0mg"},{"bike_id":"da424ee0-913f-44dd-8451-24217ed66a3a","system_id":"levelo_inurba_marseille","lat":43.29348,"lon":5.38744,"is_reserved":false,"is_disabled":false,"rental_uris":{"android":"levelo://app?vid=da424ee0-913f-44dd-8451-24217ed66a3a","ios":"levelo://app?vid=da424ee0-913f-44dd-8451-24217ed66a3a"},"vehicle_type_id":"4","last_reported":1749499893,"current_range_meters":8000,"station_id":"","pricing_plan_id":"cebpf4jnsgd1na2vs0mg"},{"bike_id":"f8017a57-3493-45e7-8493-16537594261e","system_id":"levelo_inurba_marseille","lat":43.273063,"lon":5.390739,"is_reserved":false,"is_disabled":false,"rental_uris":{"android":"levelo://app?vid=f8017a57-3493-45e7-8493-16537594261e","ios":"levelo://app?vid=f8017a57-3493-45e7-8493-16537594261e"},"vehicle_type_id":"4","last_reported":1749499893,"current_range_meters":8000,"station_id":"ce4bhgp2rcd13ifvqfe0","pricing_plan_id":"cebpf4jnsgd1na2vs0mg"},{"bike_id":"89e61be4-479c-4cec-a748-e4051ae578a2","system_id":"levelo_inurba_marseille","lat":43.32347,"lon":5.38901,"is_reserved":false,"is_disabled":false,"rental_uris":{"android":"levelo://app?vid=89e61be4-479c-4cec-a748-e4051ae578a2","ios":"levelo://app?vid=89e61be4-479c-4cec-a748-e4051ae578a2"},"vehicle_type_id":"4","last_reported":1749499893,"current_range_meters":8000,"station_id":"ce4bhqp2rcd13ifvqhog","pricing_plan_id":"cebpf4jnsgd1na2vs0mg"},{"bike_id":"3333318d-f038-4b61-8e7a-98b8797024af","system_id":"levelo_inurba_marseille","lat":43.26478,"lon":5.39224,"is_reserved":false,"is_disabled":false,"rental_uris":{"android":"levelo://app?vid=3333318d-f038-4b61-8e7a-98b8797024af","ios":"levelo://app?vid=3333318d-f038-4b61-8e7a-98b8797024af"},"vehicle_type_id":"4","last_reported":1749499893,"current_range_meters":8000,"station_id":"","pricing_plan_id":"cebpf4jnsgd1na2vs0mg"},{"bike_id":"5478c1b4-4c7d-476f-b8e4-102490ff70cd","system_id":"levelo_inurba_marseille","lat":43.31807,"lon":5.37314,"is_reserved":false,"is_disabled":false,"rental_uris":{"android":"levelo://app?vid=5478c1b4-4c7d-476f-b8e4-102490ff70cd","ios":"levelo://app?vid=5478c1b4-4c7d-476f-b8e4-102490ff70cd"},"vehicle_type_id":"4","last_reported":1749499893,"current_range_meters":8400,"station_id":"","pricing_plan_id":"cebpf4jnsgd1na2vs0mg"},{"bike_id":"11d99533-1239-4522-b0b5-f8a3bff696e7","system_id":"levelo_inurba_marseille","lat":43.30164,"lon":5.42434,"is_reserved":false,"is_disabled":false,"rental_uris":{"android":"levelo://app?vid=11d99533-1239-4522-b0b5-f8a3bff696e7","ios":"levelo://app?vid=11d99533-1239-4522-b0b5-f8a3bff696e7"},"vehicle_type_id":"4","last_reported":1749499893,"current_range_meters":8400,"station_id":"","pricing_plan_id":"cebpf4jnsgd1na2vs0mg"},{"bike_id":"9ab5dcb2-22af-49e2-b2c1-32117ad578dc","system_id":"levelo_inurba_marseille","lat":43.2951,"lon":5.42557,"is_reserved":false,"is_disabled":false,"rental_uris":{"android":"levelo://app?vid=9ab5dcb2-22af-49e2-b2c1-32117ad578dc","ios":"levelo://app?vid=9ab5dcb2-22af-49e2-b2c1-32117ad578dc"},"vehicle_type_id":"4","last_reported":1749499893,"current_range_meters":8400,"station_id":"","pricing_plan_id":"cebpf4jnsgd1na2vs0mg"},{"bike_id":"8b4caff4-6ee7-47a5-a64f-5ccaa83c132f","system_id":"levelo_inurba_marseille","lat":43.295355,"lon":5.425144,"is_reserved":false,"is_disabled":false,"rental_uris":{"android":"levelo://app?vid=8b4caff4-6ee7-47a5-a64f-5ccaa83c132f","ios":"levelo://app?vid=8b4caff4-6ee7-47a5-a64f-5ccaa83c132f"},"vehicle_type_id":"4","last_reported":1749499893,"current_range_meters":8400,"station_id":"","pricing_plan_id":"cebpf4jnsgd1na2vs0mg"},{"bike_id":"dd67f108-95bf-4a1e-b619-4bb77e009c5b","system_id":"levelo_inurba_marseille","lat":43.29062,"lon":5.42753,"is_reserved":false,"is_disabled":false,"rental_uris":{"android":"levelo://app?vid=dd67f108-95bf-4a1e-b619-4bb77e009c5b","ios":"levelo://app?vid=dd67f108-95bf-4a1e-b619-4bb77e009c5b"},"vehicle_type_id":"4","last_reported":1749499893,"current_range_meters":8400,"station_id":"","pricing_plan_id":"cebpf4jnsgd1na2vs0mg"},{"bike_id":"453308a3-e58c-4642-acf1-41fe30f821d6","system_id":"levelo_inurba_marseille","lat":43.299809,"lon":5.385121,"is_reserved":false,"is_disabled":false,"rental_uris":{"android":"levelo://app?vid=453308a3-e58c-4642-acf1-41fe30f821d6","ios":"levelo://app?vid=453308a3-e58c-4642-acf1-41fe30f821d6"},"vehicle_type_id":"4","last_reported":1749499893,"current_range_meters":8400,"station_id":"ce4bgkh2rcd13ifvqbk0","pricing_plan_id":"cebpf4jnsgd1na2vs0mg"},{"bike_id":"9d073130-46db-46c4-affb-6564e2de5a50","system_id":"levelo_inurba_marseille","lat":43.32372,"lon":5.38814,"is_reserved":false,"is_disabled":false,"rental_uris":{"android":"levelo://app?vid=9d073130-46db-46c4-affb-6564e2de5a50","ios":"levelo://app?vid=9d073130-46db-46c4-affb-6564e2de5a50"},"vehicle_type_id":"4","last_reported":1749499893,"current_range_meters":8400,"station_id":"","pricing_plan_id":"cebpf4jnsgd1na2vs0mg"},{"bike_id":"fae54eaa-1eca-4575-a66c-d9eca7c0582c","system_id":"levelo_inurba_marseille","lat":43.26954,"lon":5.38631,"is_reserved":false,"is_disabled":false,"rental_uris":{"android":"levelo://app?vid=fae54eaa-1eca-4575-a66c-d9eca7c0582c","ios":"levelo://app?vid=fae54eaa-1eca-4575-a66c-d9eca7c0582c"},"vehicle_type_id":"4","last_reported":1749499893,"current_range_meters":8400,"station_id":"ce4bhh92rcd13ifvqfh0","pricing_plan_id":"cebpf4jnsgd1na2vs0mg"},{"bike_id":"39cdf7ed-89dc-4de2-aafe-6c9905ce3698","system_id":"levelo_inurba_marseille","lat":43.29785,"lon":5.36771,"is_reserved":false,"is_disabled":false,"rental_uris":{"android":"levelo://app?vid=39cdf7ed-89dc-4de2-aafe-6c9905ce3698","ios":"levelo://app?vid=39cdf7ed-89dc-4de2-aafe-6c9905ce3698"},"vehicle_type_id":"4","last_reported":1749499893,"current_range_meters":8800,"station_id":"","pricing_plan_id":"cebpf4jnsgd1na2vs0mg"},{"bike_id":"3bb87db6-8022-418f-a4aa-7c455834f81e","system_id":"levelo_inurba_marseille","lat":43.2357,"lon":5.37907,"is_reserved":false,"is_disabled":true,"rental_uris":{"android":"levelo://app?vid=3bb87db6-8022-418f-a4aa-7c455834f81e","ios":"levelo://app?vid=3bb87db6-8022-418f-a4aa-7c455834f81e"},"vehicle_type_id":"4","last_reported":1749499893,"current_range_meters":8800,"station_id":"","pricing_plan_id":"cebpf4jnsgd1na2vs0mg"},{"bike_id":"3a642daa-c509-4966-b3ed-a2aad9246ee2","system_id":"levelo_inurba_marseille","lat":43.30788,"lon":5.37636,"is_reserved":false,"is_disabled":false,"rental_uris":{"android":"levelo://app?vid=3a642daa-c509-4966-b3ed-a2aad9246ee2","ios":"levelo://app?vid=3a642daa-c509-4966-b3ed-a2aad9246ee2"},"vehicle_type_id":"4","last_reported":1749499893,"current_range_meters":8800,"station_id":"ce4bgv92rcd13ifvqcq0","pricing_plan_id":"cebpf4jnsgd1na2vs0mg"},{"bike_id":"5cab8021-47c8-4131-a2c2-7572304f54a4","system_id":"levelo_inurba_marseille","lat":43.28276,"lon":5.35063,"is_reserved":false,"is_disabled":true,"rental_uris":{"android":"levelo://app?vid=5cab8021-47c8-4131-a2c2-7572304f54a4","ios":"levelo://app?vid=5cab8021-47c8-4131-a2c2-7572304f54a4"},"vehicle_type_id":"4","last_reported":1749499893,"current_range_meters":8800,"station_id":"ce4bhbp2rcd13ifvqerg","pricing_plan_id":"cebpf4jnsgd1na2vs0mg"},{"bike_id":"d2261009-8ddd-4b42-ba53-fed00046c1a9","system_id":"levelo_inurba_marseille","lat":43.28668,"lon":5.36345,"is_reserved":false,"is_disabled":false,"rental_uris":{"android":"levelo://app?vid=d2261009-8ddd-4b42-ba53-fed00046c1a9","ios":"levelo://app?vid=d2261009-8ddd-4b42-ba53-fed00046c1a9"},"vehicle_type_id":"4","last_reported":1749499893,"current_range_meters":8800,"station_id":"ce4bhah2rcd13ifvqej0","pricing_plan_id":"cebpf4jnsgd1na2vs0mg"},{"bike_id":"3a0432f6-becc-4fda-9dbc-1d49ce7ba5ca","system_id":"levelo_inurba_marseille","lat":43.27683,"lon":5.38877,"is_reserved":false,"is_disabled":false,"rental_uris":{"android":"levelo://app?vid=3a0432f6-becc-4fda-9dbc-1d49ce7ba5ca","ios":"levelo://app?vid=3a0432f6-becc-4fda-9dbc-1d49ce7ba5ca"},"vehicle_type_id":"4","last_reported":1749499893,"current_range_meters":8800,"station_id":"ce4bhi12rcd13ifvqfo0","pricing_plan_id":"cebpf4jnsgd1na2vs0mg"},{"bike_id":"ee7a2e6a-3e65-41f6-b8b3-501fb42682dc","system_id":"levelo_inurba_marseille","lat":43.27556,"lon":5.38415,"is_reserved":false,"is_disabled":true,"rental_uris":{"android":"levelo://app?vid=ee7a2e6a-3e65-41f6-b8b3-501fb42682dc","ios":"levelo://app?vid=ee7a2e6a-3e65-41f6-b8b3-501fb42682dc"},"vehicle_type_id":"4","last_reported":1749499893,"current_range_meters":8800,"station_id":"ce4bhh92rcd13ifvqfi0","pricing_plan_id":"cebpf4jnsgd1na2vs0mg"},{"bike_id":"0d5e3acd-2ba7-492b-aa82-e5ed5a802459","system_id":"levelo_inurba_marseille","lat":43.29029,"lon":5.38642,"is_reserved":false,"is_disabled":false,"rental_uris":{"android":"levelo://app?vid=0d5e3acd-2ba7-492b-aa82-e5ed5a802459","ios":"levelo://app?vid=0d5e3acd-2ba7-492b-aa82-e5ed5a802459"},"vehicle_type_id":"4","last_reported":1749499893,"current_range_meters":9200,"station_id":"ce4bh4p2rcd13ifvqe0g","pricing_plan_id":"cebpf4jnsgd1na2vs0mg"},{"bike_id":"2e5b7a2e-ae80-4b63-807c-0d74d0713d36","system_id":"levelo_inurba_marseille","lat":43.28432,"lon":5.34984,"is_reserved":false,"is_disabled":true,"rental_uris":{"android":"levelo://app?vid=2e5b7a2e-ae80-4b63-807c-0d74d0713d36","ios":"levelo://app?vid=2e5b7a2e-ae80-4b63-807c-0d74d0713d36"},"vehicle_type_id":"4","last_reported":1749499893,"current_range_meters":9200,"station_id":"ce4bhbh2rcd13ifvqepg","pricing_plan_id":"cebpf4jnsgd1na2vs0mg"},{"bike_id":"8a0e05b6-7ce9-4938-8f27-560911aac45f","system_id":"levelo_inurba_marseille","lat":43.30138,"lon":5.39835,"is_reserved":false,"is_disabled":false,"rental_uris":{"android":"levelo://app?vid=8a0e05b6-7ce9-4938-8f27-560911aac45f","ios":"levelo://app?vid=8a0e05b6-7ce9-4938-8f27-560911aac45f"},"vehicle_type_id":"4","last_reported":1749499893,"current_range_meters":9200,"station_id":"ce4bh0h2rcd13ifvqd40","pricing_plan_id":"cebpf4jnsgd1na2vs0mg"},{"bike_id":"2b74abfb-1262-40a3-bda3-f22e67504377","system_id":"levelo_inurba_marseille","lat":43.30457,"lon":5.36885,"is_reserved":false,"is_disabled":false,"rental_uris":{"android":"levelo://app?vid=2b74abfb-1262-40a3-bda3-f22e67504377","ios":"levelo://app?vid=2b74abfb-1262-40a3-bda3-f22e67504377"},"vehicle_type_id":"4","last_reported":1749499893,"current_range_meters":9200,"station_id":"","pricing_plan_id":"cebpf4jnsgd1na2vs0mg"},{"bike_id":"cb990818-444e-4c31-908c-0ac881770dbf","system_id":"levelo_inurba_marseille","lat":43.331132,"lon":5.382442,"is_reserved":false,"is_disabled":false,"rental_uris":{"android":"levelo://app?vid=cb990818-444e-4c31-908c-0ac881770dbf","ios":"levelo://app?vid=cb990818-444e-4c31-908c-0ac881770dbf"},"vehicle_type_id":"4","last_reported":1749499893,"current_range_meters":9200,"station_id":"","pricing_plan_id":"cebpf4jnsgd1na2vs0mg"},{"bike_id":"8754d789-f47b-4e0d-80fb-defb7f889879","system_id":"levelo_inurba_marseille","lat":43.26224,"lon":5.40449,"is_reserved":false,"is_disabled":false,"rental_uris":{"android":"levelo://app?vid=8754d789-f47b-4e0d-80fb-defb7f889879","ios":"levelo://app?vid=8754d789-f47b-4e0d-80fb-defb7f889879"},"vehicle_type_id":"4","last_reported":1749499893,"current_range_meters":9200,"station_id":"ce4bhmh2rcd13ifvqgmg","pricing_plan_id":"cebpf4jnsgd1na2vs0mg"},{"bike_id":"7101e620-cc76-4028-b91a-a52aa997ec1d","system_id":"levelo_inurba_marseille","lat":43.30687,"lon":5.3735,"is_reserved":false,"is_disabled":false,"rental_uris":{"android":"levelo://app?vid=7101e620-cc76-4028-b91a-a52aa997ec1d","ios":"levelo://app?vid=7101e620-cc76-4028-b91a-a52aa997ec1d"},"vehicle_type_id":"4","last_reported":1749499893,"current_range_meters":9200,"station_id":"","pricing_plan_id":"cebpf4jnsgd1na2vs0mg"},{"bike_id":"54b79514-2f3a-4152-92b3-1e8c3bb1a8e7","system_id":"levelo_inurba_marseille","lat":43.30794,"lon":5.38162,"is_reserved":false,"is_disabled":false,"rental_uris":{"android":"levelo://app?vid=54b79514-2f3a-4152-92b3-1e8c3bb1a8e7","ios":"levelo://app?vid=54b79514-2f3a-4152-92b3-1e8c3bb1a8e7"},"vehicle_type_id":"4","last_reported":1749499893,"current_range_meters":9200,"station_id":"ce4bgt12rcd13ifvqce0","pricing_plan_id":"cebpf4jnsgd1na2vs0mg"},{"bike_id":"1e81a32b-a654-4850-aaa5-a9d684742657","system_id":"levelo_inurba_marseille","lat":43.31635,"lon":5.38309,"is_reserved":false,"is_disabled":false,"rental_uris":{"android":"levelo://app?vid=1e81a32b-a654-4850-aaa5-a9d684742657","ios":"levelo://app?vid=1e81a32b-a654-4850-aaa5-a9d684742657"},"vehicle_type_id":"4","last_reported":1749499893,"current_range_meters":9600,"station_id":"","pricing_plan_id":"cebpf4jnsgd1na2vs0mg"},{"bike_id":"7a286b17-17df-491a-a381-1330c2f7a715","system_id":"levelo_inurba_marseille","lat":43.2991,"lon":5.43657,"is_reserved":false,"is_disabled":false,"rental_uris":{"android":"levelo://app?vid=7a286b17-17df-491a-a381-1330c2f7a715","ios":"levelo://app?vid=7a286b17-17df-491a-a381-1330c2f7a715"},"vehicle_type_id":"4","last_reported":1749499893,"current_range_meters":9600,"station_id":"ce4bhpp2rcd13ifvqhfg","pricing_plan_id":"cebpf4jnsgd1na2vs0mg"},{"bike_id":"b3a82d2c-dfec-472d-ae15-3fe01e77b2bd","system_id":"levelo_inurba_marseille","lat":43.24086,"lon":5.37744,"is_reserved":false,"is_disabled":false,"rental_uris":{"android":"levelo://app?vid=b3a82d2c-dfec-472d-ae15-3fe01e77b2bd","ios":"levelo://app?vid=b3a82d2c-dfec-472d-ae15-3fe01e77b2bd"},"vehicle_type_id":"4","last_reported":1749499893,"current_range_meters":9600,"station_id":"ce4bhnp2rcd13ifvqgvg","pricing_plan_id":"cebpf4jnsgd1na2vs0mg"},{"bike_id":"6ec3047c-5030-4518-b445-38ca3527de8a","system_id":"levelo_inurba_marseille","lat":43.31383,"lon":5.38526,"is_reserved":false,"is_disabled":false,"rental_uris":{"android":"levelo://app?vid=6ec3047c-5030-4518-b445-38ca3527de8a","ios":"levelo://app?vid=6ec3047c-5030-4518-b445-38ca3527de8a"},"vehicle_type_id":"4","last_reported":1749499893,"current_range_meters":9600,"station_id":"ce4bgt92rcd13ifvqcf0","pricing_plan_id":"cebpf4jnsgd1na2vs0mg"},{"bike_id":"bbaec0b3-0388-4f47-864b-ef3912c17e27","system_id":"levelo_inurba_marseille","lat":43.24661,"lon":5.38159,"is_reserved":false,"is_disabled":false,"rental_uris":{"android":"levelo://app?vid=bbaec0b3-0388-4f47-864b-ef3912c17e27","ios":"levelo://app?vid=bbaec0b3-0388-4f47-864b-ef3912c17e27"},"vehicle_type_id":"4","last_reported":1749499893,"current_range_meters":9600,"station_id":"ce4bhih2rcd13ifvqfr0","pricing_plan_id":"cebpf4jnsgd1na2vs0mg"},{"bike_id":"da14da1f-7442-42b5-98f6-365f4fbd4c56","system_id":"levelo_inurba_marseille","lat":43.31956,"lon":5.38384,"is_reserved":false,"is_disabled":false,"rental_uris":{"android":"levelo://app?vid=da14da1f-7442-42b5-98f6-365f4fbd4c56","ios":"levelo://app?vid=da14da1f-7442-42b5-98f6-365f4fbd4c56"},"vehicle_type_id":"4","last_reported":1749499893,"current_range_meters":9600,"station_id":"","pricing_plan_id":"cebpf4jnsgd1na2vs0mg"},{"bike_id":"8d6bbb09-a686-4f43-be0f-157b3968cfa5","system_id":"levelo_inurba_marseille","lat":43.2902,"lon":5.38147,"is_reserved":false,"is_disabled":false,"rental_uris":{"android":"levelo://app?vid=8d6bbb09-a686-4f43-be0f-157b3968cfa5","ios":"levelo://app?vid=8d6bbb09-a686-4f43-be0f-157b3968cfa5"},"vehicle_type_id":"4","last_reported":1749499893,"current_range_meters":9600,"station_id":"ce4bh4p2rcd13ifvqe1g","pricing_plan_id":"cebpf4jnsgd1na2vs0mg"},{"bike_id":"a8fcb642-c8d4-48b7-bc7d-d92da8830f3d","system_id":"levelo_inurba_marseille","lat":43.29984,"lon":5.37178,"is_reserved":false,"is_disabled":true,"rental_uris":{"android":"levelo://app?vid=a8fcb642-c8d4-48b7-bc7d-d92da8830f3d","ios":"levelo://app?vid=a8fcb642-c8d4-48b7-bc7d-d92da8830f3d"},"vehicle_type_id":"4","last_reported":1749499893,"current_range_meters":10000,"station_id":"ce4bgr92rcd13ifvqc7g","pricing_plan_id":"cebpf4jnsgd1na2vs0mg"},{"bike_id":"3651f5c9-3783-419c-99ff-c3b714b60a11","system_id":"levelo_inurba_marseille","lat":43.28155,"lon":5.42634,"is_reserved":false,"is_disabled":false,"rental_uris":{"android":"levelo://app?vid=3651f5c9-3783-419c-99ff-c3b714b60a11","ios":"levelo://app?vid=3651f5c9-3783-419c-99ff-c3b714b60a11"},"vehicle_type_id":"4","last_reported":1749499893,"current_range_meters":10000,"station_id":"ce4bhnh2rcd13ifvqgug","pricing_plan_id":"cebpf4jnsgd1na2vs0mg"},{"bike_id":"bc515bb3-3fc0-48a4-8cee-bbabb601d958","system_id":"levelo_inurba_marseille","lat":43.30596,"lon":5.39359,"is_reserved":false,"is_disabled":true,"rental_uris":{"android":"levelo://app?vid=bc515bb3-3fc0-48a4-8cee-bbabb601d958","ios":"levelo://app?vid=bc515bb3-3fc0-48a4-8cee-bbabb601d958"},"vehicle_type_id":"4","last_reported":1749499893,"current_range_meters":10000,"station_id":"ce4bh0p2rcd13ifvqd80","pricing_plan_id":"cebpf4jnsgd1na2vs0mg"},{"bike_id":"35055393-59aa-400c-82f3-1df464532a80","system_id":"levelo_inurba_marseille","lat":43.31362,"lon":5.38496,"is_reserved":false,"is_disabled":false,"rental_uris":{"android":"levelo://app?vid=35055393-59aa-400c-82f3-1df464532a80","ios":"levelo://app?vid=35055393-59aa-400c-82f3-1df464532a80"},"vehicle_type_id":"4","last_reported":1749499893,"current_range_meters":10000,"station_id":"ce4bgt92rcd13ifvqcf0","pricing_plan_id":"cebpf4jnsgd1na2vs0mg"},{"bike_id":"ed381822-bfd2-4ea9-8fe0-874eec1ab35b","system_id":"levelo_inurba_marseille","lat":43.2407,"lon":5.37759,"is_reserved":false,"is_disabled":false,"rental_uris":{"android":"levelo://app?vid=ed381822-bfd2-4ea9-8fe0-874eec1ab35b","ios":"levelo://app?vid=ed381822-bfd2-4ea9-8fe0-874eec1ab35b"},"vehicle_type_id":"4","last_reported":1749499893,"current_range_meters":10000,"station_id":"ce4bhnp2rcd13ifvqgvg","pricing_plan_id":"cebpf4jnsgd1na2vs0mg"},{"bike_id":"0e2efd0d-a4ff-4761-96ec-802c35dd72b9","system_id":"levelo_inurba_marseille","lat":43.29275,"lon":5.38464,"is_reserved":false,"is_disabled":false,"rental_uris":{"android":"levelo://app?vid=0e2efd0d-a4ff-4761-96ec-802c35dd72b9","ios":"levelo://app?vid=0e2efd0d-a4ff-4761-96ec-802c35dd72b9"},"vehicle_type_id":"4","last_reported":1749499893,"current_range_meters":10000,"station_id":"ce4bh692rcd13ifvqea0","pricing_plan_id":"cebpf4jnsgd1na2vs0mg"},{"bike_id":"9dd94698-440d-4bcb-96f3-0056f6e24e39","system_id":"levelo_inurba_marseille","lat":43.30319,"lon":5.40439,"is_reserved":false,"is_disabled":false,"rental_uris":{"android":"levelo://app?vid=9dd94698-440d-4bcb-96f3-0056f6e24e39","ios":"levelo://app?vid=9dd94698-440d-4bcb-96f3-0056f6e24e39"},"vehicle_type_id":"4","last_reported":1749499893,"current_range_meters":9600,"station_id":"ce4bh012rcd13ifvqd10","pricing_plan_id":"cebpf4jnsgd1na2vs0mg"},{"bike_id":"cce260bd-5a84-45db-89da-4259b46d2b3d","system_id":"levelo_inurba_marseille","lat":43.27174,"lon":5.40992,"is_reserved":false,"is_disabled":false,"rental_uris":{"android":"levelo://app?vid=cce260bd-5a84-45db-89da-4259b46d2b3d","ios":"levelo://app?vid=cce260bd-5a84-45db-89da-4259b46d2b3d"},"vehicle_type_id":"4","last_reported":1749499893,"current_range_meters":10000,"station_id":"ce4bhl12rcd13ifvqgf0","pricing_plan_id":"cebpf4jnsgd1na2vs0mg"},{"bike_id":"62bea32f-b147-4070-b162-523f879a2a9c","system_id":"levelo_inurba_marseille","lat":43.25326,"lon":5.39349,"is_reserved":false,"is_disabled":true,"rental_uris":{"android":"levelo://app?vid=62bea32f-b147-4070-b162-523f879a2a9c","ios":"levelo://app?vid=62bea32f-b147-4070-b162-523f879a2a9c"},"vehicle_type_id":"4","last_reported":1749499893,"current_range_meters":10000,"station_id":"","pricing_plan_id":"cebpf4jnsgd1na2vs0mg"},{"bike_id":"335e2aaa-680e-4cd6-bdd1-a973689fd3a5","system_id":"levelo_inurba_marseille","lat":43.303,"lon":5.3922,"is_reserved":false,"is_disabled":false,"rental_uris":{"android":"levelo://app?vid=335e2aaa-680e-4cd6-bdd1-a973689fd3a5","ios":"levelo://app?vid=335e2aaa-680e-4cd6-bdd1-a973689fd3a5"},"vehicle_type_id":"4","last_reported":1749499893,"current_range_meters":10000,"station_id":"ce4bgkh2rcd13ifvqbk0","pricing_plan_id":"cebpf4jnsgd1na2vs0mg"},{"bike_id":"25819d54-8243-4c84-8a25-d42aa611e9aa","system_id":"levelo_inurba_marseille","lat":43.2815,"lon":5.42639,"is_reserved":false,"is_disabled":false,"rental_uris":{"android":"levelo://app?vid=25819d54-8243-4c84-8a25-d42aa611e9aa","ios":"levelo://app?vid=25819d54-8243-4c84-8a25-d42aa611e9aa"},"vehicle_type_id":"4","last_reported":1749499893,"current_range_meters":10800,"station_id":"ce4bhnh2rcd13ifvqgug","pricing_plan_id":"cebpf4jnsgd1na2vs0mg"},{"bike_id":"898adc08-6852-494f-92e0-a15241901b70","system_id":"levelo_inurba_marseille","lat":43.26178,"lon":5.37578,"is_reserved":false,"is_disabled":false,"rental_uris":{"android":"levelo://app?vid=898adc08-6852-494f-92e0-a15241901b70","ios":"levelo://app?vid=898adc08-6852-494f-92e0-a15241901b70"},"vehicle_type_id":"4","last_reported":1749499893,"current_range_meters":10800,"station_id":"","pricing_plan_id":"cebpf4jnsgd1na2vs0mg"},{"bike_id":"fbb9b34c-7031-4d75-9691-342c610b2101","system_id":"levelo_inurba_marseille","lat":43.28398,"lon":5.36456,"is_reserved":false,"is_disabled":false,"rental_uris":{"android":"levelo://app?vid=fbb9b34c-7031-4d75-9691-342c610b2101","ios":"levelo://app?vid=fbb9b34c-7031-4d75-9691-342c610b2101"},"vehicle_type_id":"4","last_reported":1749499893,"current_range_meters":10800,"station_id":"","pricing_plan_id":"cebpf4jnsgd1na2vs0mg"},{"bike_id":"c41e1ec3-35fd-44af-8ba0-43706f79a862","system_id":"levelo_inurba_marseille","lat":43.31891,"lon":5.40736,"is_reserved":false,"is_disabled":false,"rental_uris":{"android":"levelo://app?vid=c41e1ec3-35fd-44af-8ba0-43706f79a862","ios":"levelo://app?vid=c41e1ec3-35fd-44af-8ba0-43706f79a862"},"vehicle_type_id":"4","last_reported":1749499893,"current_range_meters":10800,"station_id":"ce4bhq12rcd13ifvqhig","pricing_plan_id":"cebpf4jnsgd1na2vs0mg"},{"bike_id":"cc734b6c-6593-4fc7-af95-47506d22191b","system_id":"levelo_inurba_marseille","lat":43.29538,"lon":5.38532,"is_reserved":false,"is_disabled":false,"rental_uris":{"android":"levelo://app?vid=cc734b6c-6593-4fc7-af95-47506d22191b","ios":"levelo://app?vid=cc734b6c-6593-4fc7-af95-47506d22191b"},"vehicle_type_id":"4","last_reported":1749499893,"current_range_meters":10800,"station_id":"ce4bgih2rcd13ifvqba0","pricing_plan_id":"cebpf4jnsgd1na2vs0mg"},{"bike_id":"2af4af64-0065-45b8-93fc-e286f53a888e","system_id":"levelo_inurba_marseille","lat":43.23378,"lon":5.36506,"is_reserved":false,"is_disabled":false,"rental_uris":{"android":"levelo://app?vid=2af4af64-0065-45b8-93fc-e286f53a888e","ios":"levelo://app?vid=2af4af64-0065-45b8-93fc-e286f53a888e"},"vehicle_type_id":"4","last_reported":1749499893,"current_range_meters":10800,"station_id":"","pricing_plan_id":"cebpf4jnsgd1na2vs0mg"},{"bike_id":"a1c12042-4871-4e55-a727-6370e6e23e7b","system_id":"levelo_inurba_marseille","lat":43.2466,"lon":5.38166,"is_reserved":false,"is_disabled":false,"rental_uris":{"android":"levelo://app?vid=a1c12042-4871-4e55-a727-6370e6e23e7b","ios":"levelo://app?vid=a1c12042-4871-4e55-a727-6370e6e23e7b"},"vehicle_type_id":"4","last_reported":1749499893,"current_range_meters":10800,"station_id":"ce4bhih2rcd13ifvqfr0","pricing_plan_id":"cebpf4jnsgd1na2vs0mg"},{"bike_id":"c09b1c1e-6d5b-4a72-8f97-eccd430a9e54","system_id":"levelo_inurba_marseille","lat":43.26677,"lon":5.38264,"is_reserved":false,"is_disabled":true,"rental_uris":{"android":"levelo://app?vid=c09b1c1e-6d5b-4a72-8f97-eccd430a9e54","ios":"levelo://app?vid=c09b1c1e-6d5b-4a72-8f97-eccd430a9e54"},"vehicle_type_id":"4","last_reported":1749499893,"current_range_meters":10800,"station_id":"ce4bhgp2rcd13ifvqfc0","pricing_plan_id":"cebpf4jnsgd1na2vs0mg"},{"bike_id":"519951cb-8485-41b2-891d-f02f44e02dc9","system_id":"levelo_inurba_marseille","lat":43.27562,"lon":5.38409,"is_reserved":false,"is_disabled":false,"rental_uris":{"android":"levelo://app?vid=519951cb-8485-41b2-891d-f02f44e02dc9","ios":"levelo://app?vid=519951cb-8485-41b2-891d-f02f44e02dc9"},"vehicle_type_id":"4","last_reported":1749499893,"current_range_meters":11200,"station_id":"ce4bhh92rcd13ifvqfi0","pricing_plan_id":"cebpf4jnsgd1na2vs0mg"},{"bike_id":"84e092f0-36e8-4311-a40c-ab563c0a1fd9","system_id":"levelo_inurba_marseille","lat":43.29098,"lon":5.38135,"is_reserved":false,"is_disabled":false,"rental_uris":{"android":"levelo://app?vid=84e092f0-36e8-4311-a40c-ab563c0a1fd9","ios":"levelo://app?vid=84e092f0-36e8-4311-a40c-ab563c0a1fd9"},"vehicle_type_id":"4","last_reported":1749499893,"current_range_meters":11200,"station_id":"ce4bh512rcd13ifvqe2g","pricing_plan_id":"cebpf4jnsgd1na2vs0mg"},{"bike_id":"cefa7eb0-ebe4-4aed-9dde-ae44cf3d4f01","system_id":"levelo_inurba_marseille","lat":43.2756,"lon":5.38426,"is_reserved":false,"is_disabled":false,"rental_uris":{"android":"levelo://app?vid=cefa7eb0-ebe4-4aed-9dde-ae44cf3d4f01","ios":"levelo://app?vid=cefa7eb0-ebe4-4aed-9dde-ae44cf3d4f01"},"vehicle_type_id":"4","last_reported":1749499893,"current_range_meters":11200,"station_id":"ce4bhh92rcd13ifvqfi0","pricing_plan_id":"cebpf4jnsgd1na2vs0mg"},{"bike_id":"2f32b755-3ca4-4102-8e33-37fff5e1ff8d","system_id":"levelo_inurba_marseille","lat":43.27138,"lon":5.40164,"is_reserved":false,"is_disabled":false,"rental_uris":{"android":"levelo://app?vid=2f32b755-3ca4-4102-8e33-37fff5e1ff8d","ios":"levelo://app?vid=2f32b755-3ca4-4102-8e33-37fff5e1ff8d"},"vehicle_type_id":"4","last_reported":1749499893,"current_range_meters":11200,"station_id":"","pricing_plan_id":"cebpf4jnsgd1na2vs0mg"},{"bike_id":"5aee6e98-5d72-4a58-8068-559ee9f9703d","system_id":"levelo_inurba_marseille","lat":43.21186,"lon":5.35074,"is_reserved":false,"is_disabled":false,"rental_uris":{"android":"levelo://app?vid=5aee6e98-5d72-4a58-8068-559ee9f9703d","ios":"levelo://app?vid=5aee6e98-5d72-4a58-8068-559ee9f9703d"},"vehicle_type_id":"4","last_reported":1749499893,"current_range_meters":11200,"station_id":"st_cvj6sg6p6f1abm77japg","pricing_plan_id":"cebpf4jnsgd1na2vs0mg"},{"bike_id":"c8c4af1d-070c-484a-a3f7-babd17d99646","system_id":"levelo_inurba_marseille","lat":43.33684,"lon":5.39207,"is_reserved":false,"is_disabled":false,"rental_uris":{"android":"levelo://app?vid=c8c4af1d-070c-484a-a3f7-babd17d99646","ios":"levelo://app?vid=c8c4af1d-070c-484a-a3f7-babd17d99646"},"vehicle_type_id":"4","last_reported":1749499893,"current_range_meters":11200,"station_id":"ce4bhr92rcd13ifvqhsg","pricing_plan_id":"cebpf4jnsgd1na2vs0mg"},{"bike_id":"d7f228d3-40c9-494e-aaba-c8ab739652fc","system_id":"levelo_inurba_marseille","lat":43.305023,"lon":5.372826,"is_reserved":false,"is_disabled":false,"rental_uris":{"android":"levelo://app?vid=d7f228d3-40c9-494e-aaba-c8ab739652fc","ios":"levelo://app?vid=d7f228d3-40c9-494e-aaba-c8ab739652fc"},"vehicle_type_id":"4","last_reported":1749499893,"current_range_meters":11200,"station_id":"","pricing_plan_id":"cebpf4jnsgd1na2vs0mg"},{"bike_id":"ccb5bf22-ad94-4d1f-ae27-4053400a5df2","system_id":"levelo_inurba_marseille","lat":43.25112,"lon":5.40326,"is_reserved":false,"is_disabled":false,"rental_uris":{"android":"levelo://app?vid=ccb5bf22-ad94-4d1f-ae27-4053400a5df2","ios":"levelo://app?vid=ccb5bf22-ad94-4d1f-ae27-4053400a5df2"},"vehicle_type_id":"4","last_reported":1749499893,"current_range_meters":11600,"station_id":"ce4bhlh2rcd13ifvqgig","pricing_plan_id":"cebpf4jnsgd1na2vs0mg"},{"bike_id":"2649ef45-0b6a-4349-a65a-a2f74f74f74f","system_id":"levelo_inurba_marseille","lat":43.2648,"lon":5.39224,"is_reserved":false,"is_disabled":false,"rental_uris":{"android":"levelo://app?vid=2649ef45-0b6a-4349-a65a-a2f74f74f74f","ios":"levelo://app?vid=2649ef45-0b6a-4349-a65a-a2f74f74f74f"},"vehicle_type_id":"4","last_reported":1749499893,"current_range_meters":11600,"station_id":"","pricing_plan_id":"cebpf4jnsgd1na2vs0mg"},{"bike_id":"4b29d212-5894-4ede-9882-d3bb36086cc8","system_id":"levelo_inurba_marseille","lat":43.25873,"lon":5.39901,"is_reserved":false,"is_disabled":false,"rental_uris":{"android":"levelo://app?vid=4b29d212-5894-4ede-9882-d3bb36086cc8","ios":"levelo://app?vid=4b29d212-5894-4ede-9882-d3bb36086cc8"},"vehicle_type_id":"4","last_reported":1749499893,"current_range_meters":11600,"station_id":"ce4bhl92rcd13ifvqghg","pricing_plan_id":"cebpf4jnsgd1na2vs0mg"},{"bike_id":"83f36aff-4fa6-430d-822d-5cb2a6495b4a","system_id":"levelo_inurba_marseille","lat":43.30213,"lon":5.39463,"is_reserved":false,"is_disabled":false,"rental_uris":{"android":"levelo://app?vid=83f36aff-4fa6-430d-822d-5cb2a6495b4a","ios":"levelo://app?vid=83f36aff-4fa6-430d-822d-5cb2a6495b4a"},"vehicle_type_id":"4","last_reported":1749499893,"current_range_meters":11600,"station_id":"ce4bh0p2rcd13ifvqd70","pricing_plan_id":"cebpf4jnsgd1na2vs0mg"},{"bike_id":"cbfedbd2-2f9f-46ef-a876-c1ceced19926","system_id":"levelo_inurba_marseille","lat":43.28855,"lon":5.39312,"is_reserved":false,"is_disabled":false,"rental_uris":{"android":"levelo://app?vid=cbfedbd2-2f9f-46ef-a876-c1ceced19926","ios":"levelo://app?vid=cbfedbd2-2f9f-46ef-a876-c1ceced19926"},"vehicle_type_id":"4","last_reported":1749499893,"current_range_meters":11600,"station_id":"ce4bh2p2rcd13ifvqdi0","pricing_plan_id":"cebpf4jnsgd1na2vs0mg"},{"bike_id":"8f0c6b5d-ac9c-41e4-ba7f-7d5d11791c0c","system_id":"levelo_inurba_marseille","lat":43.29885,"lon":5.38925,"is_reserved":false,"is_disabled":false,"rental_uris":{"android":"levelo://app?vid=8f0c6b5d-ac9c-41e4-ba7f-7d5d11791c0c","ios":"levelo://app?vid=8f0c6b5d-ac9c-41e4-ba7f-7d5d11791c0c"},"vehicle_type_id":"4","last_reported":1749499893,"current_range_meters":11600,"station_id":"ce4bh392rcd13ifvqdl0","pricing_plan_id":"cebpf4jnsgd1na2vs0mg"},{"bike_id":"0d3339d1-cc02-439b-b952-a4b2d3813106","system_id":"levelo_inurba_marseille","lat":43.29372,"lon":5.37863,"is_reserved":false,"is_disabled":false,"rental_uris":{"android":"levelo://app?vid=0d3339d1-cc02-439b-b952-a4b2d3813106","ios":"levelo://app?vid=0d3339d1-cc02-439b-b952-a4b2d3813106"},"vehicle_type_id":"4","last_reported":1749499893,"current_range_meters":12000,"station_id":"ce4bgjh2rcd13ifvqbf0","pricing_plan_id":"cebpf4jnsgd1na2vs0mg"},{"bike_id":"dedeea7e-9ff1-41e2-a1ca-3ecca467e74d","system_id":"levelo_inurba_marseille","lat":43.26497,"lon":5.39542,"is_reserved":false,"is_disabled":false,"rental_uris":{"android":"levelo://app?vid=dedeea7e-9ff1-41e2-a1ca-3ecca467e74d","ios":"levelo://app?vid=dedeea7e-9ff1-41e2-a1ca-3ecca467e74d"},"vehicle_type_id":"4","last_reported":1749499893,"current_range_meters":12000,"station_id":"ce4bhi12rcd13ifvqfq0","pricing_plan_id":"cebpf4jnsgd1na2vs0mg"},{"bike_id":"f156dd16-bfc6-4d9c-8774-e71864afe86d","system_id":"levelo_inurba_marseille","lat":43.27992,"lon":5.41654,"is_reserved":false,"is_disabled":true,"rental_uris":{"android":"levelo://app?vid=f156dd16-bfc6-4d9c-8774-e71864afe86d","ios":"levelo://app?vid=f156dd16-bfc6-4d9c-8774-e71864afe86d"},"vehicle_type_id":"4","last_reported":1749499893,"current_range_meters":12000,"station_id":"ce4bho12rcd13ifvqh1g","pricing_plan_id":"cebpf4jnsgd1na2vs0mg"},{"bike_id":"2aca8f6c-29f3-451a-bbc4-2f87e04c24a0","system_id":"levelo_inurba_marseille","lat":43.28623,"lon":5.35105,"is_reserved":false,"is_disabled":true,"rental_uris":{"android":"levelo://app?vid=2aca8f6c-29f3-451a-bbc4-2f87e04c24a0","ios":"levelo://app?vid=2aca8f6c-29f3-451a-bbc4-2f87e04c24a0"},"vehicle_type_id":"4","last_reported":1749499893,"current_range_meters":12000,"station_id":"ce4bhch2rcd13ifvqeug","pricing_plan_id":"cebpf4jnsgd1na2vs0mg"},{"bike_id":"6de719d4-c4b4-4a1d-b741-b988ca73c825","system_id":"levelo_inurba_marseille","lat":43.27952,"lon":5.41047,"is_reserved":false,"is_disabled":false,"rental_uris":{"android":"levelo://app?vid=6de719d4-c4b4-4a1d-b741-b988ca73c825","ios":"levelo://app?vid=6de719d4-c4b4-4a1d-b741-b988ca73c825"},"vehicle_type_id":"4","last_reported":1749499893,"current_range_meters":12000,"station_id":"ce4bhnp2rcd13ifvqh0g","pricing_plan_id":"cebpf4jnsgd1na2vs0mg"},{"bike_id":"9c321b1f-5d95-44be-92f0-5a6d215c91ff","system_id":"levelo_inurba_marseille","lat":43.31082,"lon":5.38351,"is_reserved":false,"is_disabled":false,"rental_uris":{"android":"levelo://app?vid=9c321b1f-5d95-44be-92f0-5a6d215c91ff","ios":"levelo://app?vid=9c321b1f-5d95-44be-92f0-5a6d215c91ff"},"vehicle_type_id":"4","last_reported":1749499893,"current_range_meters":12000,"station_id":"ce4bgv92rcd13ifvqcr0","pricing_plan_id":"cebpf4jnsgd1na2vs0mg"},{"bike_id":"38732871-8503-466e-a980-ace2b8f5936b","system_id":"levelo_inurba_marseille","lat":43.270753,"lon":5.422675,"is_reserved":false,"is_disabled":false,"rental_uris":{"android":"levelo://app?vid=38732871-8503-466e-a980-ace2b8f5936b","ios":"levelo://app?vid=38732871-8503-466e-a980-ace2b8f5936b"},"vehicle_type_id":"4","last_reported":1749499893,"current_range_meters":12400,"station_id":"ce4bhk92rcd13ifvqgb0","pricing_plan_id":"cebpf4jnsgd1na2vs0mg"},{"bike_id":"f7be3d68-723c-4f9c-ac82-a1846e74c3fc","system_id":"levelo_inurba_marseille","lat":43.29302,"lon":5.37459,"is_reserved":false,"is_disabled":false,"rental_uris":{"android":"levelo://app?vid=f7be3d68-723c-4f9c-ac82-a1846e74c3fc","ios":"levelo://app?vid=f7be3d68-723c-4f9c-ac82-a1846e74c3fc"},"vehicle_type_id":"4","last_reported":1749499893,"current_range_meters":12400,"station_id":"ce4bgi12rcd13ifvqb70","pricing_plan_id":"cebpf4jnsgd1na2vs0mg"},{"bike_id":"4229be07-5a51-41a1-b4e0-6e1b3ef89c53","system_id":"levelo_inurba_marseille","lat":43.25112,"lon":5.40316,"is_reserved":false,"is_disabled":false,"rental_uris":{"android":"levelo://app?vid=4229be07-5a51-41a1-b4e0-6e1b3ef89c53","ios":"levelo://app?vid=4229be07-5a51-41a1-b4e0-6e1b3ef89c53"},"vehicle_type_id":"4","last_reported":1749499893,"current_range_meters":12000,"station_id":"ce4bhlh2rcd13ifvqgig","pricing_plan_id":"cebpf4jnsgd1na2vs0mg"},{"bike_id":"024943c5-334c-4e30-9fa1-4e01ad9ec84d","system_id":"levelo_inurba_marseille","lat":43.25829,"lon":5.39434,"is_reserved":false,"is_disabled":true,"rental_uris":{"android":"levelo://app?vid=024943c5-334c-4e30-9fa1-4e01ad9ec84d","ios":"levelo://app?vid=024943c5-334c-4e30-9fa1-4e01ad9ec84d"},"vehicle_type_id":"4","last_reported":1749499893,"current_range_meters":12400,"station_id":"ce4bhip2rcd13ifvqft0","pricing_plan_id":"cebpf4jnsgd1na2vs0mg"},{"bike_id":"0a127e16-3cb1-419e-8447-76510bd0b1ca","system_id":"levelo_inurba_marseille","lat":43.26048,"lon":5.39395,"is_reserved":false,"is_disabled":false,"rental_uris":{"android":"levelo://app?vid=0a127e16-3cb1-419e-8447-76510bd0b1ca","ios":"levelo://app?vid=0a127e16-3cb1-419e-8447-76510bd0b1ca"},"vehicle_type_id":"4","last_reported":1749499893,"current_range_meters":12400,"station_id":"ce4bhh92rcd13ifvqfj0","pricing_plan_id":"cebpf4jnsgd1na2vs0mg"},{"bike_id":"3740405a-2647-4804-bac9-7004c70779a2","system_id":"levelo_inurba_marseille","lat":43.28111,"lon":5.37841,"is_reserved":false,"is_disabled":false,"rental_uris":{"android":"levelo://app?vid=3740405a-2647-4804-bac9-7004c70779a2","ios":"levelo://app?vid=3740405a-2647-4804-bac9-7004c70779a2"},"vehicle_type_id":"4","last_reported":1749499893,"current_range_meters":12400,"station_id":"ce4bha12rcd13ifvqee0","pricing_plan_id":"cebpf4jnsgd1na2vs0mg"},{"bike_id":"84351d3d-7144-4da1-a310-4760967578db","system_id":"levelo_inurba_marseille","lat":43.292392,"lon":5.40923,"is_reserved":false,"is_disabled":false,"rental_uris":{"android":"levelo://app?vid=84351d3d-7144-4da1-a310-4760967578db","ios":"levelo://app?vid=84351d3d-7144-4da1-a310-4760967578db"},"vehicle_type_id":"4","last_reported":1749499893,"current_range_meters":12400,"station_id":"ce4bh192rcd13ifvqdc0","pricing_plan_id":"cebpf4jnsgd1na2vs0mg"},{"bike_id":"6063cd56-24ec-4e86-99ed-9acfc77c1ecd","system_id":"levelo_inurba_marseille","lat":43.28704,"lon":5.39983,"is_reserved":false,"is_disabled":false,"rental_uris":{"android":"levelo://app?vid=6063cd56-24ec-4e86-99ed-9acfc77c1ecd","ios":"levelo://app?vid=6063cd56-24ec-4e86-99ed-9acfc77c1ecd"},"vehicle_type_id":"4","last_reported":1749499893,"current_range_meters":12400,"station_id":"ce4bho92rcd13ifvqh3g","pricing_plan_id":"cebpf4jnsgd1na2vs0mg"},{"bike_id":"279a92c5-29f9-4406-8ca1-e740c792dbaf","system_id":"levelo_inurba_marseille","lat":43.28576,"lon":5.39493,"is_reserved":false,"is_disabled":false,"rental_uris":{"android":"levelo://app?vid=279a92c5-29f9-4406-8ca1-e740c792dbaf","ios":"levelo://app?vid=279a92c5-29f9-4406-8ca1-e740c792dbaf"},"vehicle_type_id":"4","last_reported":1749499893,"current_range_meters":12400,"station_id":"ce4bh292rcd13ifvqdg0","pricing_plan_id":"cebpf4jnsgd1na2vs0mg"},{"bike_id":"63f3d5f7-5d0f-49b8-a77f-5cff9b0070b7","system_id":"levelo_inurba_marseille","lat":43.30588,"lon":5.39352,"is_reserved":false,"is_disabled":false,"rental_uris":{"android":"levelo://app?vid=63f3d5f7-5d0f-49b8-a77f-5cff9b0070b7","ios":"levelo://app?vid=63f3d5f7-5d0f-49b8-a77f-5cff9b0070b7"},"vehicle_type_id":"4","last_reported":1749499893,"current_range_meters":12800,"station_id":"ce4bh0p2rcd13ifvqd80","pricing_plan_id":"cebpf4jnsgd1na2vs0mg"},{"bike_id":"3de3b903-72c6-4083-a716-90c8a7c88334","system_id":"levelo_inurba_marseille","lat":43.2816,"lon":5.42638,"is_reserved":false,"is_disabled":false,"rental_uris":{"android":"levelo://app?vid=3de3b903-72c6-4083-a716-90c8a7c88334","ios":"levelo://app?vid=3de3b903-72c6-4083-a716-90c8a7c88334"},"vehicle_type_id":"4","last_reported":1749499893,"current_range_meters":12800,"station_id":"ce4bhnh2rcd13ifvqgug","pricing_plan_id":"cebpf4jnsgd1na2vs0mg"},{"bike_id":"acf56c95-903d-4e41-b227-6ed213a46e8f","system_id":"levelo_inurba_marseille","lat":43.31377,"lon":5.38513,"is_reserved":false,"is_disabled":false,"rental_uris":{"android":"levelo://app?vid=acf56c95-903d-4e41-b227-6ed213a46e8f","ios":"levelo://app?vid=acf56c95-903d-4e41-b227-6ed213a46e8f"},"vehicle_type_id":"4","last_reported":1749499893,"current_range_meters":12800,"station_id":"ce4bgt92rcd13ifvqcf0","pricing_plan_id":"cebpf4jnsgd1na2vs0mg"},{"bike_id":"b6285f6b-e9e7-470d-9b6d-1afe99ab71bf","system_id":"levelo_inurba_marseille","lat":43.26188,"lon":5.42073,"is_reserved":false,"is_disabled":false,"rental_uris":{"android":"levelo://app?vid=b6285f6b-e9e7-470d-9b6d-1afe99ab71bf","ios":"levelo://app?vid=b6285f6b-e9e7-470d-9b6d-1afe99ab71bf"},"vehicle_type_id":"4","last_reported":1749499893,"current_range_meters":12800,"station_id":"","pricing_plan_id":"cebpf4jnsgd1na2vs0mg"},{"bike_id":"5b0bb135-cdce-47bf-97a3-e4f84ad8e420","system_id":"levelo_inurba_marseille","lat":43.28114,"lon":5.37856,"is_reserved":false,"is_disabled":false,"rental_uris":{"android":"levelo://app?vid=5b0bb135-cdce-47bf-97a3-e4f84ad8e420","ios":"levelo://app?vid=5b0bb135-cdce-47bf-97a3-e4f84ad8e420"},"vehicle_type_id":"4","last_reported":1749499893,"current_range_meters":12800,"station_id":"ce4bha12rcd13ifvqee0","pricing_plan_id":"cebpf4jnsgd1na2vs0mg"},{"bike_id":"7facd0d3-e088-4a5a-a896-d77e8e818ab6","system_id":"levelo_inurba_marseille","lat":43.292294,"lon":5.361019,"is_reserved":false,"is_disabled":true,"rental_uris":{"android":"levelo://app?vid=7facd0d3-e088-4a5a-a896-d77e8e818ab6","ios":"levelo://app?vid=7facd0d3-e088-4a5a-a896-d77e8e818ab6"},"vehicle_type_id":"4","last_reported":1749499893,"current_range_meters":12800,"station_id":"ce4bhbh2rcd13ifvqeqg","pricing_plan_id":"cebpf4jnsgd1na2vs0mg"},{"bike_id":"b4b9c51c-f667-4ae5-a226-3653c9de9e9a","system_id":"levelo_inurba_marseille","lat":43.30095,"lon":5.39083,"is_reserved":false,"is_disabled":false,"rental_uris":{"android":"levelo://app?vid=b4b9c51c-f667-4ae5-a226-3653c9de9e9a","ios":"levelo://app?vid=b4b9c51c-f667-4ae5-a226-3653c9de9e9a"},"vehicle_type_id":"4","last_reported":1749499893,"current_range_meters":12800,"station_id":"ce4bh192rcd13ifvqdb0","pricing_plan_id":"cebpf4jnsgd1na2vs0mg"},{"bike_id":"1dbaabc4-cdbd-49a5-af7d-9dd9fdfa76cc","system_id":"levelo_inurba_marseille","lat":43.29881,"lon":5.38913,"is_reserved":false,"is_disabled":false,"rental_uris":{"android":"levelo://app?vid=1dbaabc4-cdbd-49a5-af7d-9dd9fdfa76cc","ios":"levelo://app?vid=1dbaabc4-cdbd-49a5-af7d-9dd9fdfa76cc"},"vehicle_type_id":"4","last_reported":1749499893,"current_range_meters":12800,"station_id":"ce4bh392rcd13ifvqdl0","pricing_plan_id":"cebpf4jnsgd1na2vs0mg"},{"bike_id":"fea03510-d732-494e-a818-113e6eebaa67","system_id":"levelo_inurba_marseille","lat":43.22933,"lon":5.35374,"is_reserved":false,"is_disabled":true,"rental_uris":{"android":"levelo://app?vid=fea03510-d732-494e-a818-113e6eebaa67","ios":"levelo://app?vid=fea03510-d732-494e-a818-113e6eebaa67"},"vehicle_type_id":"4","last_reported":1749499893,"current_range_meters":12800,"station_id":"cpo3532slgdg3j2ikp40","pricing_plan_id":"cebpf4jnsgd1na2vs0mg"},{"bike_id":"6e9bfa76-6a26-470b-a7b9-03c31cb687a8","system_id":"levelo_inurba_marseille","lat":43.28716,"lon":5.37939,"is_reserved":false,"is_disabled":false,"rental_uris":{"android":"levelo://app?vid=6e9bfa76-6a26-470b-a7b9-03c31cb687a8","ios":"levelo://app?vid=6e9bfa76-6a26-470b-a7b9-03c31cb687a8"},"vehicle_type_id":"4","last_reported":1749499893,"current_range_meters":12800,"station_id":"ce4bh9p2rcd13ifvqec0","pricing_plan_id":"cebpf4jnsgd1na2vs0mg"},{"bike_id":"9455d38b-6f8c-4442-87c1-499e849fe884","system_id":"levelo_inurba_marseille","lat":43.28419,"lon":5.34998,"is_reserved":false,"is_disabled":true,"rental_uris":{"android":"levelo://app?vid=9455d38b-6f8c-4442-87c1-499e849fe884","ios":"levelo://app?vid=9455d38b-6f8c-4442-87c1-499e849fe884"},"vehicle_type_id":"4","last_reported":1749499893,"current_range_meters":12800,"station_id":"ce4bhbh2rcd13ifvqepg","pricing_plan_id":"cebpf4jnsgd1na2vs0mg"},{"bike_id":"0ca5c1a0-e310-4625-a32d-0a021a84cc09","system_id":"levelo_inurba_marseille","lat":43.305557,"lon":5.375913,"is_reserved":false,"is_disabled":false,"rental_uris":{"android":"levelo://app?vid=0ca5c1a0-e310-4625-a32d-0a021a84cc09","ios":"levelo://app?vid=0ca5c1a0-e310-4625-a32d-0a021a84cc09"},"vehicle_type_id":"4","last_reported":1749499893,"current_range_meters":13600,"station_id":"","pricing_plan_id":"cebpf4jnsgd1na2vs0mg"},{"bike_id":"88113087-f0bb-4133-ab2a-bbfce1f3d99a","system_id":"levelo_inurba_marseille","lat":43.31704,"lon":5.40458,"is_reserved":false,"is_disabled":true,"rental_uris":{"android":"levelo://app?vid=88113087-f0bb-4133-ab2a-bbfce1f3d99a","ios":"levelo://app?vid=88113087-f0bb-4133-ab2a-bbfce1f3d99a"},"vehicle_type_id":"4","last_reported":1749499893,"current_range_meters":13600,"station_id":"ce4bh012rcd13ifvqd00","pricing_plan_id":"cebpf4jnsgd1na2vs0mg"},{"bike_id":"140ab034-222f-4ace-867a-9da3b2af3d45","system_id":"levelo_inurba_marseille","lat":43.30137,"lon":5.39879,"is_reserved":false,"is_disabled":false,"rental_uris":{"android":"levelo://app?vid=140ab034-222f-4ace-867a-9da3b2af3d45","ios":"levelo://app?vid=140ab034-222f-4ace-867a-9da3b2af3d45"},"vehicle_type_id":"4","last_reported":1749499893,"current_range_meters":13600,"station_id":"ce4bh0h2rcd13ifvqd40","pricing_plan_id":"cebpf4jnsgd1na2vs0mg"},{"bike_id":"3b33593f-98f0-4b12-b11c-8ecbf0798666","system_id":"levelo_inurba_marseille","lat":43.26828,"lon":5.39374,"is_reserved":false,"is_disabled":false,"rental_uris":{"android":"levelo://app?vid=3b33593f-98f0-4b12-b11c-8ecbf0798666","ios":"levelo://app?vid=3b33593f-98f0-4b12-b11c-8ecbf0798666"},"vehicle_type_id":"4","last_reported":1749499893,"current_range_meters":13600,"station_id":"ce4bhh12rcd13ifvqfg0","pricing_plan_id":"cebpf4jnsgd1na2vs0mg"},{"bike_id":"b0df0d6e-1cc2-4b8a-bacb-a1ed17fee813","system_id":"levelo_inurba_marseille","lat":43.24075,"lon":5.37755,"is_reserved":false,"is_disabled":false,"rental_uris":{"android":"levelo://app?vid=b0df0d6e-1cc2-4b8a-bacb-a1ed17fee813","ios":"levelo://app?vid=b0df0d6e-1cc2-4b8a-bacb-a1ed17fee813"},"vehicle_type_id":"4","last_reported":1749499893,"current_range_meters":13600,"station_id":"ce4bhnp2rcd13ifvqgvg","pricing_plan_id":"cebpf4jnsgd1na2vs0mg"},{"bike_id":"6fd4cd93-a409-4da9-ad4b-b6025023458d","system_id":"levelo_inurba_marseille","lat":43.30124,"lon":5.37075,"is_reserved":false,"is_disabled":false,"rental_uris":{"android":"levelo://app?vid=6fd4cd93-a409-4da9-ad4b-b6025023458d","ios":"levelo://app?vid=6fd4cd93-a409-4da9-ad4b-b6025023458d"},"vehicle_type_id":"4","last_reported":1749499893,"current_range_meters":14000,"station_id":"","pricing_plan_id":"cebpf4jnsgd1na2vs0mg"},{"bike_id":"4eada35f-a65e-4d4e-b60d-b88e9a624416","system_id":"levelo_inurba_marseille","lat":43.24156,"lon":5.37412,"is_reserved":false,"is_disabled":true,"rental_uris":{"android":"levelo://app?vid=4eada35f-a65e-4d4e-b60d-b88e9a624416","ios":"levelo://app?vid=4eada35f-a65e-4d4e-b60d-b88e9a624416"},"vehicle_type_id":"4","last_reported":1749499893,"current_range_meters":14000,"station_id":"","pricing_plan_id":"cebpf4jnsgd1na2vs0mg"},{"bike_id":"660219bc-9f09-49e5-8bb8-0a89276755ae","system_id":"levelo_inurba_marseille","lat":43.29994,"lon":5.37163,"is_reserved":false,"is_disabled":true,"rental_uris":{"android":"levelo://app?vid=660219bc-9f09-49e5-8bb8-0a89276755ae","ios":"levelo://app?vid=660219bc-9f09-49e5-8bb8-0a89276755ae"},"vehicle_type_id":"4","last_reported":1749499893,"current_range_meters":14000,"station_id":"ce4bgr92rcd13ifvqc7g","pricing_plan_id":"cebpf4jnsgd1na2vs0mg"},{"bike_id":"09e70eef-6915-44a5-9df8-7120a5b6a583","system_id":"levelo_inurba_marseille","lat":43.302,"lon":5.36629,"is_reserved":false,"is_disabled":false,"rental_uris":{"android":"levelo://app?vid=09e70eef-6915-44a5-9df8-7120a5b6a583","ios":"levelo://app?vid=09e70eef-6915-44a5-9df8-7120a5b6a583"},"vehicle_type_id":"4","last_reported":1749499893,"current_range_meters":13600,"station_id":"ce4bgrh2rcd13ifvqc8g","pricing_plan_id":"cebpf4jnsgd1na2vs0mg"},{"bike_id":"5e415b8a-98a7-4d69-97b3-b00a94b59ca3","system_id":"levelo_inurba_marseille","lat":43.29277,"lon":5.3761,"is_reserved":false,"is_disabled":false,"rental_uris":{"android":"levelo://app?vid=5e415b8a-98a7-4d69-97b3-b00a94b59ca3","ios":"levelo://app?vid=5e415b8a-98a7-4d69-97b3-b00a94b59ca3"},"vehicle_type_id":"4","last_reported":1749499893,"current_range_meters":14000,"station_id":"ce4bgi12rcd13ifvqb80","pricing_plan_id":"cebpf4jnsgd1na2vs0mg"},{"bike_id":"9508da7d-5dc8-430b-abbe-98007997b41c","system_id":"levelo_inurba_marseille","lat":43.28412,"lon":5.37517,"is_reserved":false,"is_disabled":false,"rental_uris":{"android":"levelo://app?vid=9508da7d-5dc8-430b-abbe-98007997b41c","ios":"levelo://app?vid=9508da7d-5dc8-430b-abbe-98007997b41c"},"vehicle_type_id":"4","last_reported":1749499893,"current_range_meters":14000,"station_id":"ce4bh412rcd13ifvqds0","pricing_plan_id":"cebpf4jnsgd1na2vs0mg"},{"bike_id":"0053f0bd-3481-4f8f-a19e-7dd7a6624507","system_id":"levelo_inurba_marseille","lat":43.29893,"lon":5.4367,"is_reserved":false,"is_disabled":false,"rental_uris":{"android":"levelo://app?vid=0053f0bd-3481-4f8f-a19e-7dd7a6624507","ios":"levelo://app?vid=0053f0bd-3481-4f8f-a19e-7dd7a6624507"},"vehicle_type_id":"4","last_reported":1749499893,"current_range_meters":14000,"station_id":"ce4bhpp2rcd13ifvqhfg","pricing_plan_id":"cebpf4jnsgd1na2vs0mg"},{"bike_id":"8e317286-d121-41fb-88b8-5b957116b9fe","system_id":"levelo_inurba_marseille","lat":43.2119,"lon":5.35058,"is_reserved":false,"is_disabled":false,"rental_uris":{"android":"levelo://app?vid=8e317286-d121-41fb-88b8-5b957116b9fe","ios":"levelo://app?vid=8e317286-d121-41fb-88b8-5b957116b9fe"},"vehicle_type_id":"4","last_reported":1749499893,"current_range_meters":14000,"station_id":"st_cvj6sg6p6f1abm77japg","pricing_plan_id":"cebpf4jnsgd1na2vs0mg"},{"bike_id":"410a7874-3a18-4062-bc9b-8174356f58ae","system_id":"levelo_inurba_marseille","lat":43.30309,"lon":5.39216,"is_reserved":false,"is_disabled":false,"rental_uris":{"android":"levelo://app?vid=410a7874-3a18-4062-bc9b-8174356f58ae","ios":"levelo://app?vid=410a7874-3a18-4062-bc9b-8174356f58ae"},"vehicle_type_id":"4","last_reported":1749499893,"current_range_meters":14000,"station_id":"ce4bgkh2rcd13ifvqbk0","pricing_plan_id":"cebpf4jnsgd1na2vs0mg"},{"bike_id":"ad6c329c-2135-419b-93d2-3080b8444257","system_id":"levelo_inurba_marseille","lat":43.28331,"lon":5.38108,"is_reserved":false,"is_disabled":true,"rental_uris":{"android":"levelo://app?vid=ad6c329c-2135-419b-93d2-3080b8444257","ios":"levelo://app?vid=ad6c329c-2135-419b-93d2-3080b8444257"},"vehicle_type_id":"4","last_reported":1749499893,"current_range_meters":14000,"station_id":"ce4bh412rcd13ifvqdr0","pricing_plan_id":"cebpf4jnsgd1na2vs0mg"},{"bike_id":"d067383d-65c7-4d60-92cc-479643f376c4","system_id":"levelo_inurba_marseille","lat":43.32517,"lon":5.39457,"is_reserved":false,"is_disabled":false,"rental_uris":{"android":"levelo://app?vid=d067383d-65c7-4d60-92cc-479643f376c4","ios":"levelo://app?vid=d067383d-65c7-4d60-92cc-479643f376c4"},"vehicle_type_id":"4","last_reported":1749499893,"current_range_meters":14000,"station_id":"","pricing_plan_id":"cebpf4jnsgd1na2vs0mg"},{"bike_id":"53f9233f-ac00-4f6e-9176-bab433acb5a3","system_id":"levelo_inurba_marseille","lat":43.24166,"lon":5.36398,"is_reserved":false,"is_disabled":false,"rental_uris":{"android":"levelo://app?vid=53f9233f-ac00-4f6e-9176-bab433acb5a3","ios":"levelo://app?vid=53f9233f-ac00-4f6e-9176-bab433acb5a3"},"vehicle_type_id":"4","last_reported":1749499893,"current_range_meters":14000,"station_id":"cpo36qri1sfpv3e86is0","pricing_plan_id":"cebpf4jnsgd1na2vs0mg"},{"bike_id":"c7432800-1b14-4854-84d5-dd3690953cae","system_id":"levelo_inurba_marseille","lat":43.26188,"lon":5.37436,"is_reserved":false,"is_disabled":true,"rental_uris":{"android":"levelo://app?vid=c7432800-1b14-4854-84d5-dd3690953cae","ios":"levelo://app?vid=c7432800-1b14-4854-84d5-dd3690953cae"},"vehicle_type_id":"4","last_reported":1749499893,"current_range_meters":14400,"station_id":"ce4bhgp2rcd13ifvqfc0","pricing_plan_id":"cebpf4jnsgd1na2vs0mg"},{"bike_id":"f8159e7e-9726-42c5-9daf-c0de4e4fd801","system_id":"levelo_inurba_marseille","lat":43.29537,"lon":5.39028,"is_reserved":false,"is_disabled":false,"rental_uris":{"android":"levelo://app?vid=f8159e7e-9726-42c5-9daf-c0de4e4fd801","ios":"levelo://app?vid=f8159e7e-9726-42c5-9daf-c0de4e4fd801"},"vehicle_type_id":"4","last_reported":1749499893,"current_range_meters":14400,"station_id":"ce4bh3p2rcd13ifvqdp0","pricing_plan_id":"cebpf4jnsgd1na2vs0mg"},{"bike_id":"57a1fb92-778b-4eb7-af6a-4ff4c7473829","system_id":"levelo_inurba_marseille","lat":43.28922,"lon":5.38393,"is_reserved":false,"is_disabled":false,"rental_uris":{"android":"levelo://app?vid=57a1fb92-778b-4eb7-af6a-4ff4c7473829","ios":"levelo://app?vid=57a1fb92-778b-4eb7-af6a-4ff4c7473829"},"vehicle_type_id":"4","last_reported":1749499893,"current_range_meters":14400,"station_id":"ce4bh612rcd13ifvqe6g","pricing_plan_id":"cebpf4jnsgd1na2vs0mg"},{"bike_id":"ec02e175-aaa4-4066-abe1-304d2d5f3fc5","system_id":"levelo_inurba_marseille","lat":43.24179,"lon":5.39727,"is_reserved":false,"is_disabled":false,"rental_uris":{"android":"levelo://app?vid=ec02e175-aaa4-4066-abe1-304d2d5f3fc5","ios":"levelo://app?vid=ec02e175-aaa4-4066-abe1-304d2d5f3fc5"},"vehicle_type_id":"4","last_reported":1749499893,"current_range_meters":14800,"station_id":"ce4bhn12rcd13ifvqgpg","pricing_plan_id":"cebpf4jnsgd1na2vs0mg"},{"bike_id":"0f3e053f-6ca5-42b0-8507-3c0438085ec9","system_id":"levelo_inurba_marseille","lat":43.29572,"lon":5.39961,"is_reserved":false,"is_disabled":false,"rental_uris":{"android":"levelo://app?vid=0f3e053f-6ca5-42b0-8507-3c0438085ec9","ios":"levelo://app?vid=0f3e053f-6ca5-42b0-8507-3c0438085ec9"},"vehicle_type_id":"4","last_reported":1749499893,"current_range_meters":14800,"station_id":"ce4bh312rcd13ifvqdj0","pricing_plan_id":"cebpf4jnsgd1na2vs0mg"},{"bike_id":"5077581b-cebb-46fc-ba69-4fa8272d4810","system_id":"levelo_inurba_marseille","lat":43.213635,"lon":5.355187,"is_reserved":false,"is_disabled":false,"rental_uris":{"android":"levelo://app?vid=5077581b-cebb-46fc-ba69-4fa8272d4810","ios":"levelo://app?vid=5077581b-cebb-46fc-ba69-4fa8272d4810"},"vehicle_type_id":"4","last_reported":1749499893,"current_range_meters":14800,"station_id":"","pricing_plan_id":"cebpf4jnsgd1na2vs0mg"},{"bike_id":"5958541c-d2e7-4fc0-b6e8-efde527d71c5","system_id":"levelo_inurba_marseille","lat":43.30883,"lon":5.39625,"is_reserved":false,"is_disabled":false,"rental_uris":{"android":"levelo://app?vid=5958541c-d2e7-4fc0-b6e8-efde527d71c5","ios":"levelo://app?vid=5958541c-d2e7-4fc0-b6e8-efde527d71c5"},"vehicle_type_id":"4","last_reported":1749499893,"current_range_meters":14800,"station_id":"ce4bh012rcd13ifvqcv0","pricing_plan_id":"cebpf4jnsgd1na2vs0mg"},{"bike_id":"2ffb5d6d-efc6-4007-9177-680a2afd86cf","system_id":"levelo_inurba_marseille","lat":43.31115,"lon":5.37773,"is_reserved":false,"is_disabled":false,"rental_uris":{"android":"levelo://app?vid=2ffb5d6d-efc6-4007-9177-680a2afd86cf","ios":"levelo://app?vid=2ffb5d6d-efc6-4007-9177-680a2afd86cf"},"vehicle_type_id":"4","last_reported":1749499893,"current_range_meters":14800,"station_id":"ce4bgt92rcd13ifvqcg0","pricing_plan_id":"cebpf4jnsgd1na2vs0mg"},{"bike_id":"d8a6ae96-f1fd-433b-afa9-0daef9dc710d","system_id":"levelo_inurba_marseille","lat":43.28489,"lon":5.3854,"is_reserved":false,"is_disabled":false,"rental_uris":{"android":"levelo://app?vid=d8a6ae96-f1fd-433b-afa9-0daef9dc710d","ios":"levelo://app?vid=d8a6ae96-f1fd-433b-afa9-0daef9dc710d"},"vehicle_type_id":"4","last_reported":1749499893,"current_range_meters":14800,"station_id":"ce4bh8p2rcd13ifvqeb0","pricing_plan_id":"cebpf4jnsgd1na2vs0mg"},{"bike_id":"60a8540b-0b97-4e6a-b532-b4cdb1bca662","system_id":"levelo_inurba_marseille","lat":43.25992,"lon":5.38776,"is_reserved":false,"is_disabled":false,"rental_uris":{"android":"levelo://app?vid=60a8540b-0b97-4e6a-b532-b4cdb1bca662","ios":"levelo://app?vid=60a8540b-0b97-4e6a-b532-b4cdb1bca662"},"vehicle_type_id":"4","last_reported":1749499893,"current_range_meters":14800,"station_id":"","pricing_plan_id":"cebpf4jnsgd1na2vs0mg"},{"bike_id":"e6b1bb72-87f6-487e-8834-f48fcc12f11f","system_id":"levelo_inurba_marseille","lat":43.29003,"lon":5.35608,"is_reserved":false,"is_disabled":true,"rental_uris":{"android":"levelo://app?vid=e6b1bb72-87f6-487e-8834-f48fcc12f11f","ios":"levelo://app?vid=e6b1bb72-87f6-487e-8834-f48fcc12f11f"},"vehicle_type_id":"4","last_reported":1749499893,"current_range_meters":14800,"station_id":"ce4bhb92rcd13ifvqen0","pricing_plan_id":"cebpf4jnsgd1na2vs0mg"},{"bike_id":"0c232e30-20b7-4486-a907-b2ce079334bc","system_id":"levelo_inurba_marseille","lat":43.28935,"lon":5.38398,"is_reserved":false,"is_disabled":false,"rental_uris":{"android":"levelo://app?vid=0c232e30-20b7-4486-a907-b2ce079334bc","ios":"levelo://app?vid=0c232e30-20b7-4486-a907-b2ce079334bc"},"vehicle_type_id":"4","last_reported":1749499893,"current_range_meters":14800,"station_id":"ce4bh612rcd13ifvqe6g","pricing_plan_id":"cebpf4jnsgd1na2vs0mg"},{"bike_id":"01383789-71d2-452c-a66a-0c796da3464d","system_id":"levelo_inurba_marseille","lat":43.30787,"lon":5.37642,"is_reserved":false,"is_disabled":false,"rental_uris":{"android":"levelo://app?vid=01383789-71d2-452c-a66a-0c796da3464d","ios":"levelo://app?vid=01383789-71d2-452c-a66a-0c796da3464d"},"vehicle_type_id":"4","last_reported":1749499893,"current_range_meters":14800,"station_id":"ce4bgv92rcd13ifvqcq0","pricing_plan_id":"cebpf4jnsgd1na2vs0mg"},{"bike_id":"8990c0d6-b765-466a-beee-1a9dd63c2409","system_id":"levelo_inurba_marseille","lat":43.29281,"lon":5.40893,"is_reserved":false,"is_disabled":false,"rental_uris":{"android":"levelo://app?vid=8990c0d6-b765-466a-beee-1a9dd63c2409","ios":"levelo://app?vid=8990c0d6-b765-466a-beee-1a9dd63c2409"},"vehicle_type_id":"4","last_reported":1749499893,"current_range_meters":14800,"station_id":"ce4bh192rcd13ifvqdc0","pricing_plan_id":"cebpf4jnsgd1na2vs0mg"},{"bike_id":"dcfd58bb-08ac-433d-bb9f-e59e74058d3a","system_id":"levelo_inurba_marseille","lat":43.28925,"lon":5.3839,"is_reserved":false,"is_disabled":false,"rental_uris":{"android":"levelo://app?vid=dcfd58bb-08ac-433d-bb9f-e59e74058d3a","ios":"levelo://app?vid=dcfd58bb-08ac-433d-bb9f-e59e74058d3a"},"vehicle_type_id":"4","last_reported":1749499893,"current_range_meters":14800,"station_id":"ce4bh612rcd13ifvqe6g","pricing_plan_id":"cebpf4jnsgd1na2vs0mg"},{"bike_id":"ef555bdb-3115-4b1f-9398-9c76776e1204","system_id":"levelo_inurba_marseille","lat":43.26018,"lon":5.37402,"is_reserved":false,"is_disabled":false,"rental_uris":{"android":"levelo://app?vid=ef555bdb-3115-4b1f-9398-9c76776e1204","ios":"levelo://app?vid=ef555bdb-3115-4b1f-9398-9c76776e1204"},"vehicle_type_id":"4","last_reported":1749499893,"current_range_meters":15200,"station_id":"","pricing_plan_id":"cebpf4jnsgd1na2vs0mg"},{"bike_id":"eb9df3bc-9c9c-4053-bad1-25b7d7db3aa9","system_id":"levelo_inurba_marseille","lat":43.30442,"lon":5.38887,"is_reserved":false,"is_disabled":false,"rental_uris":{"android":"levelo://app?vid=eb9df3bc-9c9c-4053-bad1-25b7d7db3aa9","ios":"levelo://app?vid=eb9df3bc-9c9c-4053-bad1-25b7d7db3aa9"},"vehicle_type_id":"4","last_reported":1749499893,"current_range_meters":15200,"station_id":"ce4bgk12rcd13ifvqbi0","pricing_plan_id":"cebpf4jnsgd1na2vs0mg"},{"bike_id":"af33d591-ee19-4f28-8873-2e84ad684f0c","system_id":"levelo_inurba_marseille","lat":43.2921,"lon":5.3932,"is_reserved":false,"is_disabled":false,"rental_uris":{"android":"levelo://app?vid=af33d591-ee19-4f28-8873-2e84ad684f0c","ios":"levelo://app?vid=af33d591-ee19-4f28-8873-2e84ad684f0c"},"vehicle_type_id":"4","last_reported":1749499893,"current_range_meters":15200,"station_id":"ce4bh192rcd13ifvqdd0","pricing_plan_id":"cebpf4jnsgd1na2vs0mg"},{"bike_id":"35f097a8-7581-4e11-ae9e-040aecd561bc","system_id":"levelo_inurba_marseille","lat":43.2841,"lon":5.37506,"is_reserved":false,"is_disabled":false,"rental_uris":{"android":"levelo://app?vid=35f097a8-7581-4e11-ae9e-040aecd561bc","ios":"levelo://app?vid=35f097a8-7581-4e11-ae9e-040aecd561bc"},"vehicle_type_id":"4","last_reported":1749499893,"current_range_meters":15200,"station_id":"ce4bh412rcd13ifvqds0","pricing_plan_id":"cebpf4jnsgd1na2vs0mg"},{"bike_id":"af7d415a-487e-423f-a30f-24c807e62e91","system_id":"levelo_inurba_marseille","lat":43.284766,"lon":5.384188,"is_reserved":false,"is_disabled":false,"rental_uris":{"android":"levelo://app?vid=af7d415a-487e-423f-a30f-24c807e62e91","ios":"levelo://app?vid=af7d415a-487e-423f-a30f-24c807e62e91"},"vehicle_type_id":"4","last_reported":1749499893,"current_range_meters":15200,"station_id":"ce4bh512rcd13ifvqe3g","pricing_plan_id":"cebpf4jnsgd1na2vs0mg"},{"bike_id":"402b268f-51d8-4319-85da-3f411d4d5d91","system_id":"levelo_inurba_marseille","lat":43.21187,"lon":5.35074,"is_reserved":false,"is_disabled":false,"rental_uris":{"android":"levelo://app?vid=402b268f-51d8-4319-85da-3f411d4d5d91","ios":"levelo://app?vid=402b268f-51d8-4319-85da-3f411d4d5d91"},"vehicle_type_id":"4","last_reported":1749499893,"current_range_meters":15200,"station_id":"st_cvj6sg6p6f1abm77japg","pricing_plan_id":"cebpf4jnsgd1na2vs0mg"},{"bike_id":"a06a5e76-7a40-4637-ae47-ceef6131d43b","system_id":"levelo_inurba_marseille","lat":43.30288,"lon":5.36978,"is_reserved":false,"is_disabled":false,"rental_uris":{"android":"levelo://app?vid=a06a5e76-7a40-4637-ae47-ceef6131d43b","ios":"levelo://app?vid=a06a5e76-7a40-4637-ae47-ceef6131d43b"},"vehicle_type_id":"4","last_reported":1749499893,"current_range_meters":16000,"station_id":"","pricing_plan_id":"cebpf4jnsgd1na2vs0mg"},{"bike_id":"515d2ce1-2328-4fe3-83b8-d9970d6db626","system_id":"levelo_inurba_marseille","lat":43.30261,"lon":5.40076,"is_reserved":false,"is_disabled":false,"rental_uris":{"android":"levelo://app?vid=515d2ce1-2328-4fe3-83b8-d9970d6db626","ios":"levelo://app?vid=515d2ce1-2328-4fe3-83b8-d9970d6db626"},"vehicle_type_id":"4","last_reported":1749499893,"current_range_meters":16000,"station_id":"ce4bgvh2rcd13ifvqcs0","pricing_plan_id":"cebpf4jnsgd1na2vs0mg"},{"bike_id":"93f545d1-3747-44d9-9978-fb1a1dcdcb48","system_id":"levelo_inurba_marseille","lat":43.29553,"lon":5.42294,"is_reserved":false,"is_disabled":false,"rental_uris":{"android":"levelo://app?vid=93f545d1-3747-44d9-9978-fb1a1dcdcb48","ios":"levelo://app?vid=93f545d1-3747-44d9-9978-fb1a1dcdcb48"},"vehicle_type_id":"4","last_reported":1749499893,"current_range_meters":16000,"station_id":"ce4bhph2rcd13ifvqhdg","pricing_plan_id":"cebpf4jnsgd1na2vs0mg"},{"bike_id":"aedbefc8-3517-4ce0-bd3a-42446fe18275","system_id":"levelo_inurba_marseille","lat":43.26573,"lon":5.38999,"is_reserved":false,"is_disabled":false,"rental_uris":{"android":"levelo://app?vid=aedbefc8-3517-4ce0-bd3a-42446fe18275","ios":"levelo://app?vid=aedbefc8-3517-4ce0-bd3a-42446fe18275"},"vehicle_type_id":"4","last_reported":1749499893,"current_range_meters":16000,"station_id":"ce4bhe12rcd13ifvqf30","pricing_plan_id":"cebpf4jnsgd1na2vs0mg"},{"bike_id":"9e690a8e-fc23-4208-b342-bb6408cf943e","system_id":"levelo_inurba_marseille","lat":43.29535,"lon":5.38535,"is_reserved":false,"is_disabled":false,"rental_uris":{"android":"levelo://app?vid=9e690a8e-fc23-4208-b342-bb6408cf943e","ios":"levelo://app?vid=9e690a8e-fc23-4208-b342-bb6408cf943e"},"vehicle_type_id":"4","last_reported":1749499893,"current_range_meters":16000,"station_id":"ce4bgih2rcd13ifvqba0","pricing_plan_id":"cebpf4jnsgd1na2vs0mg"},{"bike_id":"3bda16d8-90d9-4118-9969-3498193106e5","system_id":"levelo_inurba_marseille","lat":43.28408,"lon":5.37516,"is_reserved":false,"is_disabled":true,"rental_uris":{"android":"levelo://app?vid=3bda16d8-90d9-4118-9969-3498193106e5","ios":"levelo://app?vid=3bda16d8-90d9-4118-9969-3498193106e5"},"vehicle_type_id":"4","last_reported":1749499893,"current_range_meters":16000,"station_id":"ce4bh412rcd13ifvqds0","pricing_plan_id":"cebpf4jnsgd1na2vs0mg"},{"bike_id":"03505c4f-b2ee-4db7-baab-5417f41de499","system_id":"levelo_inurba_marseille","lat":43.284056,"lon":5.375108,"is_reserved":false,"is_disabled":false,"rental_uris":{"android":"levelo://app?vid=03505c4f-b2ee-4db7-baab-5417f41de499","ios":"levelo://app?vid=03505c4f-b2ee-4db7-baab-5417f41de499"},"vehicle_type_id":"4","last_reported":1749499893,"current_range_meters":16000,"station_id":"ce4bh412rcd13ifvqds0","pricing_plan_id":"cebpf4jnsgd1na2vs0mg"},{"bike_id":"1f8fca81-6dbf-487d-9391-3a152403521c","system_id":"levelo_inurba_marseille","lat":43.29202,"lon":5.39317,"is_reserved":false,"is_disabled":false,"rental_uris":{"android":"levelo://app?vid=1f8fca81-6dbf-487d-9391-3a152403521c","ios":"levelo://app?vid=1f8fca81-6dbf-487d-9391-3a152403521c"},"vehicle_type_id":"4","last_reported":1749499893,"current_range_meters":16000,"station_id":"ce4bh192rcd13ifvqdd0","pricing_plan_id":"cebpf4jnsgd1na2vs0mg"},{"bike_id":"953f9845-659c-4f8d-bee1-cc06e39e912f","system_id":"levelo_inurba_marseille","lat":43.29863,"lon":5.39724,"is_reserved":false,"is_disabled":false,"rental_uris":{"android":"levelo://app?vid=953f9845-659c-4f8d-bee1-cc06e39e912f","ios":"levelo://app?vid=953f9845-659c-4f8d-bee1-cc06e39e912f"},"vehicle_type_id":"4","last_reported":1749499893,"current_range_meters":16000,"station_id":"ce4bh0h2rcd13ifvqd50","pricing_plan_id":"cebpf4jnsgd1na2vs0mg"},{"bike_id":"48b9e544-61b6-44f8-bf67-b53af4ee54c1","system_id":"levelo_inurba_marseille","lat":43.28111,"lon":5.3786,"is_reserved":false,"is_disabled":false,"rental_uris":{"android":"levelo://app?vid=48b9e544-61b6-44f8-bf67-b53af4ee54c1","ios":"levelo://app?vid=48b9e544-61b6-44f8-bf67-b53af4ee54c1"},"vehicle_type_id":"4","last_reported":1749499893,"current_range_meters":16400,"station_id":"ce4bha12rcd13ifvqee0","pricing_plan_id":"cebpf4jnsgd1na2vs0mg"},{"bike_id":"43449477-5d4e-4908-a1f4-19ff2876f22d","system_id":"levelo_inurba_marseille","lat":43.27973,"lon":5.38739,"is_reserved":false,"is_disabled":false,"rental_uris":{"android":"levelo://app?vid=43449477-5d4e-4908-a1f4-19ff2876f22d","ios":"levelo://app?vid=43449477-5d4e-4908-a1f4-19ff2876f22d"},"vehicle_type_id":"4","last_reported":1749499893,"current_range_meters":16400,"station_id":"ce4bhg12rcd13ifvqf80","pricing_plan_id":"cebpf4jnsgd1na2vs0mg"},{"bike_id":"23e89bac-e2bf-4e89-8e08-1f432b7a4188","system_id":"levelo_inurba_marseille","lat":43.21198,"lon":5.35057,"is_reserved":false,"is_disabled":true,"rental_uris":{"android":"levelo://app?vid=23e89bac-e2bf-4e89-8e08-1f432b7a4188","ios":"levelo://app?vid=23e89bac-e2bf-4e89-8e08-1f432b7a4188"},"vehicle_type_id":"4","last_reported":1749499893,"current_range_meters":16400,"station_id":"st_cvj6sg6p6f1abm77japg","pricing_plan_id":"cebpf4jnsgd1na2vs0mg"},{"bike_id":"03c0db53-7bee-41cf-9720-4c41e24c0048","system_id":"levelo_inurba_marseille","lat":43.28275,"lon":5.35064,"is_reserved":false,"is_disabled":true,"rental_uris":{"android":"levelo://app?vid=03c0db53-7bee-41cf-9720-4c41e24c0048","ios":"levelo://app?vid=03c0db53-7bee-41cf-9720-4c41e24c0048"},"vehicle_type_id":"4","last_reported":1749499893,"current_range_meters":16400,"station_id":"ce4bhbp2rcd13ifvqerg","pricing_plan_id":"cebpf4jnsgd1na2vs0mg"},{"bike_id":"b7651752-8eb3-4b67-91fc-0a6e006c8d1f","system_id":"levelo_inurba_marseille","lat":43.21194,"lon":5.35064,"is_reserved":false,"is_disabled":false,"rental_uris":{"android":"levelo://app?vid=b7651752-8eb3-4b67-91fc-0a6e006c8d1f","ios":"levelo://app?vid=b7651752-8eb3-4b67-91fc-0a6e006c8d1f"},"vehicle_type_id":"4","last_reported":1749499893,"current_range_meters":16400,"station_id":"st_cvj6sg6p6f1abm77japg","pricing_plan_id":"cebpf4jnsgd1na2vs0mg"},{"bike_id":"c46183ac-8cca-4cdf-a8a9-22b7c63cf27e","system_id":"levelo_inurba_marseille","lat":43.28846,"lon":5.3582,"is_reserved":false,"is_disabled":true,"rental_uris":{"android":"levelo://app?vid=c46183ac-8cca-4cdf-a8a9-22b7c63cf27e","ios":"levelo://app?vid=c46183ac-8cca-4cdf-a8a9-22b7c63cf27e"},"vehicle_type_id":"4","last_reported":1749499893,"current_range_meters":16400,"station_id":"ce4bhb12rcd13ifvqem0","pricing_plan_id":"cebpf4jnsgd1na2vs0mg"},{"bike_id":"55ee954e-4c7a-4c25-9cd6-7e179d2c3d9b","system_id":"levelo_inurba_marseille","lat":43.2903,"lon":5.38637,"is_reserved":false,"is_disabled":false,"rental_uris":{"android":"levelo://app?vid=55ee954e-4c7a-4c25-9cd6-7e179d2c3d9b","ios":"levelo://app?vid=55ee954e-4c7a-4c25-9cd6-7e179d2c3d9b"},"vehicle_type_id":"4","last_reported":1749499893,"current_range_meters":16400,"station_id":"ce4bh4p2rcd13ifvqe0g","pricing_plan_id":"cebpf4jnsgd1na2vs0mg"},{"bike_id":"6d7846b8-8c63-4a95-abfe-b504a0e7f6a5","system_id":"levelo_inurba_marseille","lat":43.30604,"lon":5.39332,"is_reserved":false,"is_disabled":false,"rental_uris":{"android":"levelo://app?vid=6d7846b8-8c63-4a95-abfe-b504a0e7f6a5","ios":"levelo://app?vid=6d7846b8-8c63-4a95-abfe-b504a0e7f6a5"},"vehicle_type_id":"4","last_reported":1749499893,"current_range_meters":16400,"station_id":"ce4bh0p2rcd13ifvqd80","pricing_plan_id":"cebpf4jnsgd1na2vs0mg"},{"bike_id":"a26f8764-c0b8-4df6-9002-5ba3978882a6","system_id":"levelo_inurba_marseille","lat":43.29023,"lon":5.35639,"is_reserved":false,"is_disabled":true,"rental_uris":{"android":"levelo://app?vid=a26f8764-c0b8-4df6-9002-5ba3978882a6","ios":"levelo://app?vid=a26f8764-c0b8-4df6-9002-5ba3978882a6"},"vehicle_type_id":"4","last_reported":1749499893,"current_range_meters":16400,"station_id":"ce4bhb92rcd13ifvqen0","pricing_plan_id":"cebpf4jnsgd1na2vs0mg"},{"bike_id":"b517a375-3cba-4f61-83db-598bdc7e35c2","system_id":"levelo_inurba_marseille","lat":43.28077,"lon":5.39659,"is_reserved":false,"is_disabled":false,"rental_uris":{"android":"levelo://app?vid=b517a375-3cba-4f61-83db-598bdc7e35c2","ios":"levelo://app?vid=b517a375-3cba-4f61-83db-598bdc7e35c2"},"vehicle_type_id":"4","last_reported":1749499893,"current_range_meters":16400,"station_id":"ce4bho12rcd13ifvqh2g","pricing_plan_id":"cebpf4jnsgd1na2vs0mg"},{"bike_id":"ca27e12a-1f2d-4cf2-be29-12a2b9ff1547","system_id":"levelo_inurba_marseille","lat":43.31721,"lon":5.42401,"is_reserved":false,"is_disabled":false,"rental_uris":{"android":"levelo://app?vid=ca27e12a-1f2d-4cf2-be29-12a2b9ff1547","ios":"levelo://app?vid=ca27e12a-1f2d-4cf2-be29-12a2b9ff1547"},"vehicle_type_id":"4","last_reported":1749499893,"current_range_meters":16400,"station_id":"ce4bhp92rcd13ifvqhbg","pricing_plan_id":"cebpf4jnsgd1na2vs0mg"},{"bike_id":"b2a55171-9e11-4eba-beeb-f2e7c5d27df2","system_id":"levelo_inurba_marseille","lat":43.2119,"lon":5.35072,"is_reserved":false,"is_disabled":false,"rental_uris":{"android":"levelo://app?vid=b2a55171-9e11-4eba-beeb-f2e7c5d27df2","ios":"levelo://app?vid=b2a55171-9e11-4eba-beeb-f2e7c5d27df2"},"vehicle_type_id":"4","last_reported":1749499893,"current_range_meters":16400,"station_id":"st_cvj6sg6p6f1abm77japg","pricing_plan_id":"cebpf4jnsgd1na2vs0mg"},{"bike_id":"0474488f-a611-4a9f-be3f-7ab0841ddf9d","system_id":"levelo_inurba_marseille","lat":43.29209,"lon":5.39313,"is_reserved":false,"is_disabled":false,"rental_uris":{"android":"levelo://app?vid=0474488f-a611-4a9f-be3f-7ab0841ddf9d","ios":"levelo://app?vid=0474488f-a611-4a9f-be3f-7ab0841ddf9d"},"vehicle_type_id":"4","last_reported":1749499893,"current_range_meters":16800,"station_id":"ce4bh192rcd13ifvqdd0","pricing_plan_id":"cebpf4jnsgd1na2vs0mg"},{"bike_id":"7c2ad8a5-4b30-4eca-a016-b09bc7c4cfd5","system_id":"levelo_inurba_marseille","lat":43.33164,"lon":5.38037,"is_reserved":false,"is_disabled":false,"rental_uris":{"android":"levelo://app?vid=7c2ad8a5-4b30-4eca-a016-b09bc7c4cfd5","ios":"levelo://app?vid=7c2ad8a5-4b30-4eca-a016-b09bc7c4cfd5"},"vehicle_type_id":"4","last_reported":1749499893,"current_range_meters":16800,"station_id":"","pricing_plan_id":"cebpf4jnsgd1na2vs0mg"},{"bike_id":"e6e2ecdb-55b3-40fc-adbb-4ab01023bd91","system_id":"levelo_inurba_marseille","lat":43.28716,"lon":5.39974,"is_reserved":false,"is_disabled":false,"rental_uris":{"android":"levelo://app?vid=e6e2ecdb-55b3-40fc-adbb-4ab01023bd91","ios":"levelo://app?vid=e6e2ecdb-55b3-40fc-adbb-4ab01023bd91"},"vehicle_type_id":"4","last_reported":1749499893,"current_range_meters":16800,"station_id":"ce4bho92rcd13ifvqh3g","pricing_plan_id":"cebpf4jnsgd1na2vs0mg"},{"bike_id":"e9785758-5ecf-4784-8532-e99582168318","system_id":"levelo_inurba_marseille","lat":43.24545,"lon":5.39521,"is_reserved":false,"is_disabled":false,"rental_uris":{"android":"levelo://app?vid=e9785758-5ecf-4784-8532-e99582168318","ios":"levelo://app?vid=e9785758-5ecf-4784-8532-e99582168318"},"vehicle_type_id":"4","last_reported":1749499893,"current_range_meters":16800,"station_id":"ce4bhlp2rcd13ifvqgjg","pricing_plan_id":"cebpf4jnsgd1na2vs0mg"},{"bike_id":"7fbb8cf5-f563-4c4a-90cf-1a5ac10b01c4","system_id":"levelo_inurba_marseille","lat":43.21215,"lon":5.35087,"is_reserved":false,"is_disabled":false,"rental_uris":{"android":"levelo://app?vid=7fbb8cf5-f563-4c4a-90cf-1a5ac10b01c4","ios":"levelo://app?vid=7fbb8cf5-f563-4c4a-90cf-1a5ac10b01c4"},"vehicle_type_id":"4","last_reported":1749499893,"current_range_meters":16800,"station_id":"st_cvj6sg6p6f1abm77japg","pricing_plan_id":"cebpf4jnsgd1na2vs0mg"},{"bike_id":"f0e7af00-bbcb-405c-a428-f4d0512be2ed","system_id":"levelo_inurba_marseille","lat":43.26777,"lon":5.39411,"is_reserved":false,"is_disabled":false,"rental_uris":{"android":"levelo://app?vid=f0e7af00-bbcb-405c-a428-f4d0512be2ed","ios":"levelo://app?vid=f0e7af00-bbcb-405c-a428-f4d0512be2ed"},"vehicle_type_id":"4","last_reported":1749499893,"current_range_meters":16800,"station_id":"ce4bhh12rcd13ifvqfg0","pricing_plan_id":"cebpf4jnsgd1na2vs0mg"},{"bike_id":"eca942b4-34e9-4d21-b68a-0dfee2c9821f","system_id":"levelo_inurba_marseille","lat":43.30131,"lon":5.38774,"is_reserved":false,"is_disabled":true,"rental_uris":{"android":"levelo://app?vid=eca942b4-34e9-4d21-b68a-0dfee2c9821f","ios":"levelo://app?vid=eca942b4-34e9-4d21-b68a-0dfee2c9821f"},"vehicle_type_id":"4","last_reported":1749499893,"current_range_meters":16800,"station_id":"ce4bghh2rcd13ifvqb60","pricing_plan_id":"cebpf4jnsgd1na2vs0mg"},{"bike_id":"e925ed2b-babc-4cf9-b75b-bac898fd5635","system_id":"levelo_inurba_marseille","lat":43.21217,"lon":5.35067,"is_reserved":false,"is_disabled":false,"rental_uris":{"android":"levelo://app?vid=e925ed2b-babc-4cf9-b75b-bac898fd5635","ios":"levelo://app?vid=e925ed2b-babc-4cf9-b75b-bac898fd5635"},"vehicle_type_id":"4","last_reported":1749499893,"current_range_meters":16800,"station_id":"st_cvj6sg6p6f1abm77japg","pricing_plan_id":"cebpf4jnsgd1na2vs0mg"},{"bike_id":"ac3e84ba-8505-4cff-b748-ef8e73adb51c","system_id":"levelo_inurba_marseille","lat":43.33139,"lon":5.38583,"is_reserved":false,"is_disabled":false,"rental_uris":{"android":"levelo://app?vid=ac3e84ba-8505-4cff-b748-ef8e73adb51c","ios":"levelo://app?vid=ac3e84ba-8505-4cff-b748-ef8e73adb51c"},"vehicle_type_id":"4","last_reported":1749499893,"current_range_meters":17200,"station_id":"","pricing_plan_id":"cebpf4jnsgd1na2vs0mg"},{"bike_id":"f79292e4-f3c3-4e7a-bd5f-6ad7145387ef","system_id":"levelo_inurba_marseille","lat":43.27445,"lon":5.39415,"is_reserved":false,"is_disabled":true,"rental_uris":{"android":"levelo://app?vid=f79292e4-f3c3-4e7a-bd5f-6ad7145387ef","ios":"levelo://app?vid=f79292e4-f3c3-4e7a-bd5f-6ad7145387ef"},"vehicle_type_id":"4","last_reported":1749499893,"current_range_meters":17200,"station_id":"ce4bhdp2rcd13ifvqf20","pricing_plan_id":"cebpf4jnsgd1na2vs0mg"},{"bike_id":"05f647b8-df3c-4264-ac8e-61129fa51dc2","system_id":"levelo_inurba_marseille","lat":43.309255,"lon":5.40139,"is_reserved":false,"is_disabled":false,"rental_uris":{"android":"levelo://app?vid=05f647b8-df3c-4264-ac8e-61129fa51dc2","ios":"levelo://app?vid=05f647b8-df3c-4264-ac8e-61129fa51dc2"},"vehicle_type_id":"4","last_reported":1749499893,"current_range_meters":17200,"station_id":"ce4bgvp2rcd13ifvqct0","pricing_plan_id":"cebpf4jnsgd1na2vs0mg"},{"bike_id":"4e23d3a1-9ba5-486b-a8d5-230774ac0cdb","system_id":"levelo_inurba_marseille","lat":43.28458,"lon":5.3589,"is_reserved":false,"is_disabled":false,"rental_uris":{"android":"levelo://app?vid=4e23d3a1-9ba5-486b-a8d5-230774ac0cdb","ios":"levelo://app?vid=4e23d3a1-9ba5-486b-a8d5-230774ac0cdb"},"vehicle_type_id":"4","last_reported":1749499893,"current_range_meters":17200,"station_id":"ce4bhah2rcd13ifvqei0","pricing_plan_id":"cebpf4jnsgd1na2vs0mg"},{"bike_id":"1b2c8f7c-d9e9-4779-8ab9-38b7ff2b7183","system_id":"levelo_inurba_marseille","lat":43.2952,"lon":5.39036,"is_reserved":false,"is_disabled":false,"rental_uris":{"android":"levelo://app?vid=1b2c8f7c-d9e9-4779-8ab9-38b7ff2b7183","ios":"levelo://app?vid=1b2c8f7c-d9e9-4779-8ab9-38b7ff2b7183"},"vehicle_type_id":"4","last_reported":1749499893,"current_range_meters":17200,"station_id":"ce4bh3p2rcd13ifvqdp0","pricing_plan_id":"cebpf4jnsgd1na2vs0mg"},{"bike_id":"c6830c0d-e468-46fa-b9c2-96c1aec56a2d","system_id":"levelo_inurba_marseille","lat":43.2729,"lon":5.43113,"is_reserved":false,"is_disabled":false,"rental_uris":{"android":"levelo://app?vid=c6830c0d-e468-46fa-b9c2-96c1aec56a2d","ios":"levelo://app?vid=c6830c0d-e468-46fa-b9c2-96c1aec56a2d"},"vehicle_type_id":"4","last_reported":1749499893,"current_range_meters":17200,"station_id":"","pricing_plan_id":"cebpf4jnsgd1na2vs0mg"},{"bike_id":"2c8d006e-daaf-4343-80bf-21952f3533cf","system_id":"levelo_inurba_marseille","lat":43.269536,"lon":5.386459,"is_reserved":false,"is_disabled":false,"rental_uris":{"android":"levelo://app?vid=2c8d006e-daaf-4343-80bf-21952f3533cf","ios":"levelo://app?vid=2c8d006e-daaf-4343-80bf-21952f3533cf"},"vehicle_type_id":"4","last_reported":1749499893,"current_range_meters":17600,"station_id":"ce4bhh92rcd13ifvqfh0","pricing_plan_id":"cebpf4jnsgd1na2vs0mg"},{"bike_id":"c8ada7f1-d789-4185-9ede-83633897d820","system_id":"levelo_inurba_marseille","lat":43.29452,"lon":5.39752,"is_reserved":false,"is_disabled":false,"rental_uris":{"android":"levelo://app?vid=c8ada7f1-d789-4185-9ede-83633897d820","ios":"levelo://app?vid=c8ada7f1-d789-4185-9ede-83633897d820"},"vehicle_type_id":"4","last_reported":1749499893,"current_range_meters":17600,"station_id":"ce4bh3h2rcd13ifvqdo0","pricing_plan_id":"cebpf4jnsgd1na2vs0mg"},{"bike_id":"164919ed-6ce0-4c17-990d-139a643280f6","system_id":"levelo_inurba_marseille","lat":43.29205,"lon":5.39318,"is_reserved":false,"is_disabled":false,"rental_uris":{"android":"levelo://app?vid=164919ed-6ce0-4c17-990d-139a643280f6","ios":"levelo://app?vid=164919ed-6ce0-4c17-990d-139a643280f6"},"vehicle_type_id":"4","last_reported":1749499893,"current_range_meters":17600,"station_id":"ce4bh192rcd13ifvqdd0","pricing_plan_id":"cebpf4jnsgd1na2vs0mg"},{"bike_id":"c30dbedc-c866-492b-a092-32c1ee0c1f22","system_id":"levelo_inurba_marseille","lat":43.29533,"lon":5.38556,"is_reserved":false,"is_disabled":true,"rental_uris":{"android":"levelo://app?vid=c30dbedc-c866-492b-a092-32c1ee0c1f22","ios":"levelo://app?vid=c30dbedc-c866-492b-a092-32c1ee0c1f22"},"vehicle_type_id":"4","last_reported":1749499893,"current_range_meters":17600,"station_id":"ce4bgih2rcd13ifvqba0","pricing_plan_id":"cebpf4jnsgd1na2vs0mg"},{"bike_id":"0809734b-84e7-427c-9743-70f53c16d3b0","system_id":"levelo_inurba_marseille","lat":43.28006,"lon":5.35168,"is_reserved":false,"is_disabled":false,"rental_uris":{"android":"levelo://app?vid=0809734b-84e7-427c-9743-70f53c16d3b0","ios":"levelo://app?vid=0809734b-84e7-427c-9743-70f53c16d3b0"},"vehicle_type_id":"4","last_reported":1749499893,"current_range_meters":17600,"station_id":"","pricing_plan_id":"cebpf4jnsgd1na2vs0mg"},{"bike_id":"762d985c-1d86-4a13-aa77-cf9f8e356f65","system_id":"levelo_inurba_marseille","lat":43.279114,"lon":5.395655,"is_reserved":false,"is_disabled":false,"rental_uris":{"android":"levelo://app?vid=762d985c-1d86-4a13-aa77-cf9f8e356f65","ios":"levelo://app?vid=762d985c-1d86-4a13-aa77-cf9f8e356f65"},"vehicle_type_id":"4","last_reported":1749499893,"current_range_meters":17600,"station_id":"ce4bhdp2rcd13ifvqf20","pricing_plan_id":"cebpf4jnsgd1na2vs0mg"},{"bike_id":"6c242093-56eb-4882-9dc1-0d54a9c20364","system_id":"levelo_inurba_marseille","lat":43.29718,"lon":5.36605,"is_reserved":false,"is_disabled":false,"rental_uris":{"android":"levelo://app?vid=6c242093-56eb-4882-9dc1-0d54a9c20364","ios":"levelo://app?vid=6c242093-56eb-4882-9dc1-0d54a9c20364"},"vehicle_type_id":"4","last_reported":1749499893,"current_range_meters":17600,"station_id":"ce4bgn12rcd13ifvqbt0","pricing_plan_id":"cebpf4jnsgd1na2vs0mg"},{"bike_id":"b1e8eb07-82b7-4bcc-af1f-8461c1c89166","system_id":"levelo_inurba_marseille","lat":43.3136,"lon":5.38505,"is_reserved":false,"is_disabled":false,"rental_uris":{"android":"levelo://app?vid=b1e8eb07-82b7-4bcc-af1f-8461c1c89166","ios":"levelo://app?vid=b1e8eb07-82b7-4bcc-af1f-8461c1c89166"},"vehicle_type_id":"4","last_reported":1749499893,"current_range_meters":17600,"station_id":"ce4bgt92rcd13ifvqcf0","pricing_plan_id":"cebpf4jnsgd1na2vs0mg"},{"bike_id":"44dcf47b-d32a-4f38-af44-353bbe17ffe6","system_id":"levelo_inurba_marseille","lat":43.29515,"lon":5.39042,"is_reserved":false,"is_disabled":false,"rental_uris":{"android":"levelo://app?vid=44dcf47b-d32a-4f38-af44-353bbe17ffe6","ios":"levelo://app?vid=44dcf47b-d32a-4f38-af44-353bbe17ffe6"},"vehicle_type_id":"4","last_reported":1749499893,"current_range_meters":17600,"station_id":"ce4bh3p2rcd13ifvqdp0","pricing_plan_id":"cebpf4jnsgd1na2vs0mg"},{"bike_id":"187b0a7b-e256-4c19-9794-bb250a6c5653","system_id":"levelo_inurba_marseille","lat":43.31825,"lon":5.38064,"is_reserved":false,"is_disabled":false,"rental_uris":{"android":"levelo://app?vid=187b0a7b-e256-4c19-9794-bb250a6c5653","ios":"levelo://app?vid=187b0a7b-e256-4c19-9794-bb250a6c5653"},"vehicle_type_id":"4","last_reported":1749499893,"current_range_meters":17600,"station_id":"","pricing_plan_id":"cebpf4jnsgd1na2vs0mg"},{"bike_id":"f4a29103-ddc8-43d9-b2d0-69f329925d84","system_id":"levelo_inurba_marseille","lat":43.28408,"lon":5.37482,"is_reserved":false,"is_disabled":false,"rental_uris":{"android":"levelo://app?vid=f4a29103-ddc8-43d9-b2d0-69f329925d84","ios":"levelo://app?vid=f4a29103-ddc8-43d9-b2d0-69f329925d84"},"vehicle_type_id":"4","last_reported":1749499893,"current_range_meters":17600,"station_id":"ce4bh412rcd13ifvqds0","pricing_plan_id":"cebpf4jnsgd1na2vs0mg"},{"bike_id":"25909464-de48-4519-b5c4-e0f831c11d42","system_id":"levelo_inurba_marseille","lat":43.28708,"lon":5.37945,"is_reserved":false,"is_disabled":false,"rental_uris":{"android":"levelo://app?vid=25909464-de48-4519-b5c4-e0f831c11d42","ios":"levelo://app?vid=25909464-de48-4519-b5c4-e0f831c11d42"},"vehicle_type_id":"4","last_reported":1749499893,"current_range_meters":18000,"station_id":"ce4bh9p2rcd13ifvqec0","pricing_plan_id":"cebpf4jnsgd1na2vs0mg"},{"bike_id":"4f69649f-50de-436f-8e2a-8a711b06407d","system_id":"levelo_inurba_marseille","lat":43.29794,"lon":5.38052,"is_reserved":false,"is_disabled":false,"rental_uris":{"android":"levelo://app?vid=4f69649f-50de-436f-8e2a-8a711b06407d","ios":"levelo://app?vid=4f69649f-50de-436f-8e2a-8a711b06407d"},