{"last_updated":1732014505,"ttl":60,"version":"2.2","data":{"bikes":[{"bike_id":"2e9bab8e-ab55-4691-9848-dd507e5d945b","system_id":"levelo_inurba_marseille","lat":43.25495,"lon":5.37648,"is_reserved":false,"is_disabled":false,"rental_uris":{"android":"levelo://app?vid=2e9bab8e-ab55-4691-9848-dd507e5d945b","ios":"levelo://app?vid=2e9bab8e-ab55-4691-9848-dd507e5d945b"},"vehicle_type_id":"4","last_reported":1732014505,"current_range_meters":38800,"station_id":"ce4bhh12rcd13ifvqff0","pricing_plan_id":"cebpf4jnsgd1na2vs0mg"},{"bike_id":"0e1c2a5a-9d09-47c3-98ea-6ec79f6c76a5","system_id":"levelo_inurba_marseille","lat":43.31353,"lon":5.36713,"is_reserved":false,"is_disabled":true,"rental_uris":{"android":"levelo://app?vid=0e1c2a5a-9d09-47c3-98ea-6ec79f6c76a5","ios":"levelo://app?vid=0e1c2a5a-9d09-47c3-98ea-6ec79f6c76a5"},"vehicle_type_id":"4","last_reported":1732014505,"current_range_meters":0,"station_id":"ce4bgr92rcd13ifvqc6g","pricing_plan_id":"cebpf4jnsgd1na2vs0mg"},{"bike_id":"8eee82bc-1982-4bd2-808a-3b622929f9f2","system_id":"levelo_inurba_marseille","lat":43.27839,"lon":5.39213,"is_reserved":false,"is_disabled":false,"rental_uris":{"android":"levelo://app?vid=8eee82bc-1982-4bd2-808a-3b622929f9f2","ios":"levelo://app?vid=8eee82bc-1982-4bd2-808a-3b622929f9f2"},"vehicle_type_id":"4","last_reported":1732014505,"current_range_meters":18000,"station_id":"ce4bhjp2rcd13ifvqga0","pricing_plan_id":"cebpf4jnsgd1na2vs0mg"},{"bike_id":"7f51cb17-6f5b-4ee6-a2a5-2fef689a15a9","system_id":"levelo_inurba_marseille","lat":43.27948,"lon":5.41041,"is_reserved":false,"is_disabled":true,"rental_uris":{"android":"levelo://app?vid=7f51cb17-6f5b-4ee6-a2a5-2fef689a15a9","ios":"levelo://app?vid=7f51cb17-6f5b-4ee6-a2a5-2fef689a15a9"},"vehicle_type_id":"4","last_reported":1732014505,"current_range_meters":29600,"station_id":"ce4bhnp2rcd13ifvqh0g","pricing_plan_id":"cebpf4jnsgd1na2vs0mg"},{"bike_id":"56b1e23a-a8b6-4eed-a858-f200a5a0a62a","system_id":"levelo_inurba_marseille","lat":43.23148,"lon":5.43727,"is_reserved":false,"is_disabled":false,"rental_uris":{"android":"levelo://app?vid=56b1e23a-a8b6-4eed-a858-f200a5a0a62a","ios":"levelo://app?vid=56b1e23a-a8b6-4eed-a858-f200a5a0a62a"},"vehicle_type_id":"4","last_reported":1732014505,"current_range_meters":38800,"station_id":"ce4bhmp2rcd13ifvqgog","pricing_plan_id":"cebpf4jnsgd1na2vs0mg"},{"bike_id":"bb9ea763-6e93-4922-b0c2-ce9421dca49b","system_id":"levelo_inurba_marseille","lat":43.25932,"lon":5.40911,"is_reserved":false,"is_disabled":true,"rental_uris":{"android":"levelo://app?vid=bb9ea763-6e93-4922-b0c2-ce9421dca49b","ios":"levelo://app?vid=bb9ea763-6e93-4922-b0c2-ce9421dca49b"},"vehicle_type_id":"4","last_reported":1732014505,"current_range_meters":0,"station_id":"ce4bhm92rcd13ifvqglg","pricing_plan_id":"cebpf4jnsgd1na2vs0mg"},{"bike_id":"696dad62-b035-4843-b522-aad62f104751","system_id":"levelo_inurba_marseille","lat":43.34147,"lon":5.40914,"is_reserved":false,"is_disabled":false,"rental_uris":{"android":"levelo://app?vid=696dad62-b035-4843-b522-aad62f104751","ios":"levelo://app?vid=696dad62-b035-4843-b522-aad62f104751"},"vehicle_type_id":"4","last_reported":1732014505,"current_range_meters":25600,"station_id":"ce4bhqh2rcd13ifvqhlg","pricing_plan_id":"cebpf4jnsgd1na2vs0mg"},{"bike_id":"9502eb2d-3d88-47b6-823d-d0a9ae92ce64","system_id":"levelo_inurba_marseille","lat":43.29918,"lon":5.374716,"is_reserved":false,"is_disabled":false,"rental_uris":{"android":"levelo://app?vid=9502eb2d-3d88-47b6-823d-d0a9ae92ce64","ios":"levelo://app?vid=9502eb2d-3d88-47b6-823d-d0a9ae92ce64"},"vehicle_type_id":"4","last_reported":1732014505,"current_range_meters":14800,"station_id":"ce4bgjh2rcd13ifvqbg0","pricing_plan_id":"cebpf4jnsgd1na2vs0mg"},{"bike_id":"44844be9-638e-4507-ac65-ec7f5cae522c","system_id":"levelo_inurba_marseille","lat":43.29092,"lon":5.38142,"is_reserved":false,"is_disabled":false,"rental_uris":{"android":"levelo://app?vid=44844be9-638e-4507-ac65-ec7f5cae522c","ios":"levelo://app?vid=44844be9-638e-4507-ac65-ec7f5cae522c"},"vehicle_type_id":"4","last_reported":1732014505,"current_range_meters":9200,"station_id":"ce4bh512rcd13ifvqe2g","pricing_plan_id":"cebpf4jnsgd1na2vs0mg"},{"bike_id":"ab8b3dcb-d33d-4854-a37e-2243fffa6f29","system_id":"levelo_inurba_marseille","lat":43.30155,"lon":5.38075,"is_reserved":false,"is_disabled":false,"rental_uris":{"android":"levelo://app?vid=ab8b3dcb-d33d-4854-a37e-2243fffa6f29","ios":"levelo://app?vid=ab8b3dcb-d33d-4854-a37e-2243fffa6f29"},"vehicle_type_id":"4","last_reported":1732014505,"current_range_meters":35600,"station_id":"ce4bgjp2rcd13ifvqbh0","pricing_plan_id":"cebpf4jnsgd1na2vs0mg"},{"bike_id":"ad462c4b-e81f-4e31-9bd9-51270a96d164","system_id":"levelo_inurba_marseille","lat":43.25501,"lon":5.3765,"is_reserved":false,"is_disabled":false,"rental_uris":{"android":"levelo://app?vid=ad462c4b-e81f-4e31-9bd9-51270a96d164","ios":"levelo://app?vid=ad462c4b-e81f-4e31-9bd9-51270a96d164"},"vehicle_type_id":"4","last_reported":1732014505,"current_range_meters":24000,"station_id":"ce4bhh12rcd13ifvqff0","pricing_plan_id":"cebpf4jnsgd1na2vs0mg"},{"bike_id":"dd984550-0daa-4a45-80ba-024809d9cd71","system_id":"levelo_inurba_marseille","lat":43.299731,"lon":5.384892,"is_reserved":false,"is_disabled":false,"rental_uris":{"android":"levelo://app?vid=dd984550-0daa-4a45-80ba-024809d9cd71","ios":"levelo://app?vid=dd984550-0daa-4a45-80ba-024809d9cd71"},"vehicle_type_id":"4","last_reported":1732014505,"current_range_meters":28000,"station_id":"ce4bgj92rcd13ifvqbd0","pricing_plan_id":"cebpf4jnsgd1na2vs0mg"},{"bike_id":"2328b20c-b079-4e22-8751-2fdcaa9ca610","system_id":"levelo_inurba_marseille","lat":43.28347,"lon":5.35018,"is_reserved":false,"is_disabled":false,"rental_uris":{"android":"levelo://app?vid=2328b20c-b079-4e22-8751-2fdcaa9ca610","ios":"levelo://app?vid=2328b20c-b079-4e22-8751-2fdcaa9ca610"},"vehicle_type_id":"4","last_reported":1732014505,"current_range_meters":31200,"station_id":"ce4bhbp2rcd13ifvqerg","pricing_plan_id":"cebpf4jnsgd1na2vs0mg"},{"bike_id":"e08875d1-5eda-43a9-a5b5-ee3ebd16c83c","system_id":"levelo_inurba_marseille","lat":43.25014,"lon":5.38917,"is_reserved":false,"is_disabled":false,"rental_uris":{"android":"levelo://app?vid=e08875d1-5eda-43a9-a5b5-ee3ebd16c83c","ios":"levelo://app?vid=e08875d1-5eda-43a9-a5b5-ee3ebd16c83c"},"vehicle_type_id":"4","last_reported":1732014505,"current_range_meters":36400,"station_id":"ce4bhgp2rcd13ifvqfd0","pricing_plan_id":"cebpf4jnsgd1na2vs0mg"},{"bike_id":"b1879da0-4952-4a10-8d90-fd2192536eda","system_id":"levelo_inurba_marseille","lat":43.23154,"lon":5.43719,"is_reserved":false,"is_disabled":false,"rental_uris":{"android":"levelo://app?vid=b1879da0-4952-4a10-8d90-fd2192536eda","ios":"levelo://app?vid=b1879da0-4952-4a10-8d90-fd2192536eda"},"vehicle_type_id":"4","last_reported":1732014505,"current_range_meters":39200,"station_id":"ce4bhmp2rcd13ifvqgog","pricing_plan_id":"cebpf4jnsgd1na2vs0mg"},{"bike_id":"ba0bf38d-239c-4b4c-b3f4-7f8e711a06e1","system_id":"levelo_inurba_marseille","lat":43.29974,"lon":5.38489,"is_reserved":false,"is_disabled":false,"rental_uris":{"android":"levelo://app?vid=ba0bf38d-239c-4b4c-b3f4-7f8e711a06e1","ios":"levelo://app?vid=ba0bf38d-239c-4b4c-b3f4-7f8e711a06e1"},"vehicle_type_id":"4","last_reported":1732014505,"current_range_meters":35600,"station_id":"ce4bgj92rcd13ifvqbd0","pricing_plan_id":"cebpf4jnsgd1na2vs0mg"},{"bike_id":"8eb2a4c3-5652-483c-a00c-71aed605d2ac","system_id":"levelo_inurba_marseille","lat":43.30788,"lon":5.37659,"is_reserved":false,"is_disabled":true,"rental_uris":{"android":"levelo://app?vid=8eb2a4c3-5652-483c-a00c-71aed605d2ac","ios":"levelo://app?vid=8eb2a4c3-5652-483c-a00c-71aed605d2ac"},"vehicle_type_id":"4","last_reported":1732014505,"current_range_meters":0,"station_id":"ce4bgv92rcd13ifvqcq0","pricing_plan_id":"cebpf4jnsgd1na2vs0mg"},{"bike_id":"c34204ae-acb3-46d2-8c9f-d610f23ead88","system_id":"levelo_inurba_marseille","lat":43.31267,"lon":5.40167,"is_reserved":false,"is_disabled":false,"rental_uris":{"android":"levelo://app?vid=c34204ae-acb3-46d2-8c9f-d610f23ead88","ios":"levelo://app?vid=c34204ae-acb3-46d2-8c9f-d610f23ead88"},"vehicle_type_id":"4","last_reported":1732014505,"current_range_meters":8400,"station_id":"ce4bh092rcd13ifvqd30","pricing_plan_id":"cebpf4jnsgd1na2vs0mg"},{"bike_id":"975a85a9-f5df-4430-b273-7a53da1a7def","system_id":"levelo_inurba_marseille","lat":43.29872,"lon":5.39714,"is_reserved":false,"is_disabled":false,"rental_uris":{"android":"levelo://app?vid=975a85a9-f5df-4430-b273-7a53da1a7def","ios":"levelo://app?vid=975a85a9-f5df-4430-b273-7a53da1a7def"},"vehicle_type_id":"4","last_reported":1732014505,"current_range_meters":38800,"station_id":"ce4bh0h2rcd13ifvqd50","pricing_plan_id":"cebpf4jnsgd1na2vs0mg"},{"bike_id":"1ceca4c0-e64b-47cd-84e8-4eaf493a34ff","system_id":"levelo_inurba_marseille","lat":43.30337,"lon":5.40254,"is_reserved":false,"is_disabled":true,"rental_uris":{"android":"levelo://app?vid=1ceca4c0-e64b-47cd-84e8-4eaf493a34ff","ios":"levelo://app?vid=1ceca4c0-e64b-47cd-84e8-4eaf493a34ff"},"vehicle_type_id":"4","last_reported":1732014505,"current_range_meters":0,"station_id":"","pricing_plan_id":"cebpf4jnsgd1na2vs0mg"},{"bike_id":"67e7be22-2de4-40ec-8f9a-2c37035192f6","system_id":"levelo_inurba_marseille","lat":43.24073,"lon":5.37764,"is_reserved":false,"is_disabled":false,"rental_uris":{"android":"levelo://app?vid=67e7be22-2de4-40ec-8f9a-2c37035192f6","ios":"levelo://app?vid=67e7be22-2de4-40ec-8f9a-2c37035192f6"},"vehicle_type_id":"4","last_reported":1732014505,"current_range_meters":25600,"station_id":"ce4bhnp2rcd13ifvqgvg","pricing_plan_id":"cebpf4jnsgd1na2vs0mg"},{"bike_id":"016f32c2-0d80-4be0-8191-cf3e3e28a916","system_id":"levelo_inurba_marseille","lat":43.29529,"lon":5.38534,"is_reserved":false,"is_disabled":false,"rental_uris":{"android":"levelo://app?vid=016f32c2-0d80-4be0-8191-cf3e3e28a916","ios":"levelo://app?vid=016f32c2-0d80-4be0-8191-cf3e3e28a916"},"vehicle_type_id":"4","last_reported":1732014505,"current_range_meters":20400,"station_id":"ce4bgih2rcd13ifvqba0","pricing_plan_id":"cebpf4jnsgd1na2vs0mg"},{"bike_id":"7ae9340b-ad64-49a4-af84-4b3833728baf","system_id":"levelo_inurba_marseille","lat":43.25503,"lon":5.3765,"is_reserved":false,"is_disabled":false,"rental_uris":{"android":"levelo://app?vid=7ae9340b-ad64-49a4-af84-4b3833728baf","ios":"levelo://app?vid=7ae9340b-ad64-49a4-af84-4b3833728baf"},"vehicle_type_id":"4","last_reported":1732014505,"current_range_meters":15200,"station_id":"ce4bhh12rcd13ifvqff0","pricing_plan_id":"cebpf4jnsgd1na2vs0mg"},{"bike_id":"73035774-c229-4ffc-bdf9-36362f2cdc64","system_id":"levelo_inurba_marseille","lat":43.27201,"lon":5.39195,"is_reserved":false,"is_disabled":true,"rental_uris":{"android":"levelo://app?vid=73035774-c229-4ffc-bdf9-36362f2cdc64","ios":"levelo://app?vid=73035774-c229-4ffc-bdf9-36362f2cdc64"},"vehicle_type_id":"4","last_reported":1732014505,"current_range_meters":0,"station_id":"ce4bhhp2rcd13ifvqfm0","pricing_plan_id":"cebpf4jnsgd1na2vs0mg"},{"bike_id":"e558fbe9-1349-4b04-9ba5-017d39440129","system_id":"levelo_inurba_marseille","lat":43.30144,"lon":5.38096,"is_reserved":false,"is_disabled":false,"rental_uris":{"android":"levelo://app?vid=e558fbe9-1349-4b04-9ba5-017d39440129","ios":"levelo://app?vid=e558fbe9-1349-4b04-9ba5-017d39440129"},"vehicle_type_id":"4","last_reported":1732014505,"current_range_meters":19600,"station_id":"ce4bgjp2rcd13ifvqbh0","pricing_plan_id":"cebpf4jnsgd1na2vs0mg"},{"bike_id":"74a095eb-1835-47a0-a475-28dc99d16ff9","system_id":"levelo_inurba_marseille","lat":43.29297,"lon":5.37464,"is_reserved":false,"is_disabled":false,"rental_uris":{"android":"levelo://app?vid=74a095eb-1835-47a0-a475-28dc99d16ff9","ios":"levelo://app?vid=74a095eb-1835-47a0-a475-28dc99d16ff9"},"vehicle_type_id":"4","last_reported":1732014505,"current_range_meters":39200,"station_id":"ce4bgi12rcd13ifvqb70","pricing_plan_id":"cebpf4jnsgd1na2vs0mg"},{"bike_id":"e361f0ea-e7a3-47b8-9666-75bca25face6","system_id":"levelo_inurba_marseille","lat":43.29918,"lon":5.37479,"is_reserved":false,"is_disabled":false,"rental_uris":{"android":"levelo://app?vid=e361f0ea-e7a3-47b8-9666-75bca25face6","ios":"levelo://app?vid=e361f0ea-e7a3-47b8-9666-75bca25face6"},"vehicle_type_id":"4","last_reported":1732014505,"current_range_meters":38800,"station_id":"ce4bgjh2rcd13ifvqbg0","pricing_plan_id":"cebpf4jnsgd1na2vs0mg"},{"bike_id":"9ce67508-8b06-4b57-9464-c2d28878484d","system_id":"levelo_inurba_marseille","lat":43.34154,"lon":5.40909,"is_reserved":false,"is_disabled":false,"rental_uris":{"android":"levelo://app?vid=9ce67508-8b06-4b57-9464-c2d28878484d","ios":"levelo://app?vid=9ce67508-8b06-4b57-9464-c2d28878484d"},"vehicle_type_id":"4","last_reported":1732014505,"current_range_meters":27200,"station_id":"ce4bhqh2rcd13ifvqhlg","pricing_plan_id":"cebpf4jnsgd1na2vs0mg"},{"bike_id":"45949901-07a0-4edb-9e1b-0e2169a074dc","system_id":"levelo_inurba_marseille","lat":43.30537,"lon":5.36706,"is_reserved":false,"is_disabled":false,"rental_uris":{"android":"levelo://app?vid=45949901-07a0-4edb-9e1b-0e2169a074dc","ios":"levelo://app?vid=45949901-07a0-4edb-9e1b-0e2169a074dc"},"vehicle_type_id":"4","last_reported":1732014505,"current_range_meters":38800,"station_id":"ce4bgrp2rcd13ifvqc9g","pricing_plan_id":"cebpf4jnsgd1na2vs0mg"},{"bike_id":"1341a828-b981-4198-a789-8a5791ca7539","system_id":"levelo_inurba_marseille","lat":43.25012,"lon":5.38913,"is_reserved":false,"is_disabled":false,"rental_uris":{"android":"levelo://app?vid=1341a828-b981-4198-a789-8a5791ca7539","ios":"levelo://app?vid=1341a828-b981-4198-a789-8a5791ca7539"},"vehicle_type_id":"4","last_reported":1732014505,"current_range_meters":36800,"station_id":"ce4bhgp2rcd13ifvqfd0","pricing_plan_id":"cebpf4jnsgd1na2vs0mg"},{"bike_id":"b4c6db65-509a-4b31-a5b8-05c1e0b8b2a9","system_id":"levelo_inurba_marseille","lat":43.30598,"lon":5.37209,"is_reserved":false,"is_disabled":false,"rental_uris":{"android":"levelo://app?vid=b4c6db65-509a-4b31-a5b8-05c1e0b8b2a9","ios":"levelo://app?vid=b4c6db65-509a-4b31-a5b8-05c1e0b8b2a9"},"vehicle_type_id":"4","last_reported":1732014505,"current_range_meters":28400,"station_id":"ce4bgqh2rcd13ifvqc4g","pricing_plan_id":"cebpf4jnsgd1na2vs0mg"},{"bike_id":"e3511c0c-eb2b-4100-bb2d-c5ebcd644bea","system_id":"levelo_inurba_marseille","lat":43.23951,"lon":5.36646,"is_reserved":false,"is_disabled":true,"rental_uris":{"android":"levelo://app?vid=e3511c0c-eb2b-4100-bb2d-c5ebcd644bea","ios":"levelo://app?vid=e3511c0c-eb2b-4100-bb2d-c5ebcd644bea"},"vehicle_type_id":"4","last_reported":1732014505,"current_range_meters":36400,"station_id":"ce4bhi12rcd13ifvqfp0","pricing_plan_id":"cebpf4jnsgd1na2vs0mg"},{"bike_id":"5917a06d-1a89-42ee-9c96-70b3e49f2520","system_id":"levelo_inurba_marseille","lat":43.317,"lon":5.40479,"is_reserved":false,"is_disabled":true,"rental_uris":{"android":"levelo://app?vid=5917a06d-1a89-42ee-9c96-70b3e49f2520","ios":"levelo://app?vid=5917a06d-1a89-42ee-9c96-70b3e49f2520"},"vehicle_type_id":"4","last_reported":1732014505,"current_range_meters":12800,"station_id":"ce4bh012rcd13ifvqd00","pricing_plan_id":"cebpf4jnsgd1na2vs0mg"},{"bike_id":"7c1fb462-847d-4126-8726-9a70b5e7e7d8","system_id":"levelo_inurba_marseille","lat":43.26945,"lon":5.38624,"is_reserved":false,"is_disabled":false,"rental_uris":{"android":"levelo://app?vid=7c1fb462-847d-4126-8726-9a70b5e7e7d8","ios":"levelo://app?vid=7c1fb462-847d-4126-8726-9a70b5e7e7d8"},"vehicle_type_id":"4","last_reported":1732014505,"current_range_meters":31200,"station_id":"ce4bhh92rcd13ifvqfh0","pricing_plan_id":"cebpf4jnsgd1na2vs0mg"},{"bike_id":"e4200a2f-51c9-4a2d-93c0-970a40d32e47","system_id":"levelo_inurba_marseille","lat":43.30148,"lon":5.38082,"is_reserved":false,"is_disabled":false,"rental_uris":{"android":"levelo://app?vid=e4200a2f-51c9-4a2d-93c0-970a40d32e47","ios":"levelo://app?vid=e4200a2f-51c9-4a2d-93c0-970a40d32e47"},"vehicle_type_id":"4","last_reported":1732014505,"current_range_meters":14800,"station_id":"ce4bgjp2rcd13ifvqbh0","pricing_plan_id":"cebpf4jnsgd1na2vs0mg"},{"bike_id":"dea9ca47-7d23-4787-88ae-a156592727a7","system_id":"levelo_inurba_marseille","lat":43.26804,"lon":5.40267,"is_reserved":false,"is_disabled":false,"rental_uris":{"android":"levelo://app?vid=dea9ca47-7d23-4787-88ae-a156592727a7","ios":"levelo://app?vid=dea9ca47-7d23-4787-88ae-a156592727a7"},"vehicle_type_id":"4","last_reported":1732014505,"current_range_meters":32000,"station_id":"ce501612rcd8frsf0b60","pricing_plan_id":"cebpf4jnsgd1na2vs0mg"},{"bike_id":"1cc90608-5a84-4c67-ae6a-369c2355d020","system_id":"levelo_inurba_marseille","lat":43.24078,"lon":5.37741,"is_reserved":false,"is_disabled":false,"rental_uris":{"android":"levelo://app?vid=1cc90608-5a84-4c67-ae6a-369c2355d020","ios":"levelo://app?vid=1cc90608-5a84-4c67-ae6a-369c2355d020"},"vehicle_type_id":"4","last_reported":1732014505,"current_range_meters":29600,"station_id":"ce4bhnp2rcd13ifvqgvg","pricing_plan_id":"cebpf4jnsgd1na2vs0mg"},{"bike_id":"67b78113-229b-4ae1-b340-18b5be2b757d","system_id":"levelo_inurba_marseille","lat":43.30271,"lon":5.37707,"is_reserved":false,"is_disabled":false,"rental_uris":{"android":"levelo://app?vid=67b78113-229b-4ae1-b340-18b5be2b757d","ios":"levelo://app?vid=67b78113-229b-4ae1-b340-18b5be2b757d"},"vehicle_type_id":"4","last_reported":1732014505,"current_range_meters":38000,"station_id":"ce4bguh2rcd13ifvqcj0","pricing_plan_id":"cebpf4jnsgd1na2vs0mg"},{"bike_id":"fefdee1c-9b22-4528-b57d-4124b76a55ba","system_id":"levelo_inurba_marseille","lat":43.2681,"lon":5.4027,"is_reserved":false,"is_disabled":false,"rental_uris":{"android":"levelo://app?vid=fefdee1c-9b22-4528-b57d-4124b76a55ba","ios":"levelo://app?vid=fefdee1c-9b22-4528-b57d-4124b76a55ba"},"vehicle_type_id":"4","last_reported":1732014505,"current_range_meters":23200,"station_id":"ce501612rcd8frsf0b60","pricing_plan_id":"cebpf4jnsgd1na2vs0mg"},{"bike_id":"24faf1f8-8d00-4d77-9ba0-896f97447334","system_id":"levelo_inurba_marseille","lat":43.337444,"lon":5.374475,"is_reserved":false,"is_disabled":false,"rental_uris":{"android":"levelo://app?vid=24faf1f8-8d00-4d77-9ba0-896f97447334","ios":"levelo://app?vid=24faf1f8-8d00-4d77-9ba0-896f97447334"},"vehicle_type_id":"4","last_reported":1732014505,"current_range_meters":24800,"station_id":"ce4bh0h2rcd13ifvqd50","pricing_plan_id":"cebpf4jnsgd1na2vs0mg"},{"bike_id":"3f095bc8-9af8-4b0b-a298-157d8e949f36","system_id":"levelo_inurba_marseille","lat":43.27672,"lon":5.38887,"is_reserved":false,"is_disabled":true,"rental_uris":{"android":"levelo://app?vid=3f095bc8-9af8-4b0b-a298-157d8e949f36","ios":"levelo://app?vid=3f095bc8-9af8-4b0b-a298-157d8e949f36"},"vehicle_type_id":"4","last_reported":1732014505,"current_range_meters":6800,"station_id":"ce4bhi12rcd13ifvqfo0","pricing_plan_id":"cebpf4jnsgd1na2vs0mg"},{"bike_id":"bd1f307e-0e93-4c65-a742-78dc3a43bb0a","system_id":"levelo_inurba_marseille","lat":43.29876,"lon":5.3973,"is_reserved":false,"is_disabled":false,"rental_uris":{"android":"levelo://app?vid=bd1f307e-0e93-4c65-a742-78dc3a43bb0a","ios":"levelo://app?vid=bd1f307e-0e93-4c65-a742-78dc3a43bb0a"},"vehicle_type_id":"4","last_reported":1732014505,"current_range_meters":16400,"station_id":"ce4bh0h2rcd13ifvqd50","pricing_plan_id":"cebpf4jnsgd1na2vs0mg"},{"bike_id":"14356795-be5e-4326-aef1-fd6b8ddaac7f","system_id":"levelo_inurba_marseille","lat":43.25002,"lon":5.38932,"is_reserved":false,"is_disabled":true,"rental_uris":{"android":"levelo://app?vid=14356795-be5e-4326-aef1-fd6b8ddaac7f","ios":"levelo://app?vid=14356795-be5e-4326-aef1-fd6b8ddaac7f"},"vehicle_type_id":"4","last_reported":1732014505,"current_range_meters":400,"station_id":"ce4bhgp2rcd13ifvqfd0","pricing_plan_id":"cebpf4jnsgd1na2vs0mg"},{"bike_id":"e9591178-cdc3-434f-a4e8-8a21a67ac277","system_id":"levelo_inurba_marseille","lat":43.30554,"lon":5.36711,"is_reserved":false,"is_disabled":false,"rental_uris":{"android":"levelo://app?vid=e9591178-cdc3-434f-a4e8-8a21a67ac277","ios":"levelo://app?vid=e9591178-cdc3-434f-a4e8-8a21a67ac277"},"vehicle_type_id":"4","last_reported":1732014505,"current_range_meters":19600,"station_id":"ce4bgrp2rcd13ifvqc9g","pricing_plan_id":"cebpf4jnsgd1na2vs0mg"},{"bike_id":"d674a550-723f-4e20-a0c2-89aa344c2ade","system_id":"levelo_inurba_marseille","lat":43.28204,"lon":5.44373,"is_reserved":false,"is_disabled":false,"rental_uris":{"android":"levelo://app?vid=d674a550-723f-4e20-a0c2-89aa344c2ade","ios":"levelo://app?vid=d674a550-723f-4e20-a0c2-89aa344c2ade"},"vehicle_type_id":"4","last_reported":1732014505,"current_range_meters":2800,"station_id":"","pricing_plan_id":"cebpf4jnsgd1na2vs0mg"},{"bike_id":"ab4297d2-0aa9-44f9-93b4-8a0cd0165068","system_id":"levelo_inurba_marseille","lat":43.31496,"lon":5.37309,"is_reserved":false,"is_disabled":false,"rental_uris":{"android":"levelo://app?vid=ab4297d2-0aa9-44f9-93b4-8a0cd0165068","ios":"levelo://app?vid=ab4297d2-0aa9-44f9-93b4-8a0cd0165068"},"vehicle_type_id":"4","last_reported":1732014505,"current_range_meters":16400,"station_id":"ce4bgt12rcd13ifvqcd0","pricing_plan_id":"cebpf4jnsgd1na2vs0mg"},{"bike_id":"41b2a974-6656-4fdc-9657-d75024b40bbf","system_id":"levelo_inurba_marseille","lat":43.28481,"lon":5.3855,"is_reserved":false,"is_disabled":false,"rental_uris":{"android":"levelo://app?vid=41b2a974-6656-4fdc-9657-d75024b40bbf","ios":"levelo://app?vid=41b2a974-6656-4fdc-9657-d75024b40bbf"},"vehicle_type_id":"4","last_reported":1732014505,"current_range_meters":14800,"station_id":"ce4bh8p2rcd13ifvqeb0","pricing_plan_id":"cebpf4jnsgd1na2vs0mg"},{"bike_id":"6e4700da-2223-4213-b156-7eedfb193e83","system_id":"levelo_inurba_marseille","lat":43.23191,"lon":5.35554,"is_reserved":false,"is_disabled":false,"rental_uris":{"android":"levelo://app?vid=6e4700da-2223-4213-b156-7eedfb193e83","ios":"levelo://app?vid=6e4700da-2223-4213-b156-7eedfb193e83"},"vehicle_type_id":"4","last_reported":1732014505,"current_range_meters":3600,"station_id":"ce4bhu92rcd13ifvqi70","pricing_plan_id":"cebpf4jnsgd1na2vs0mg"},{"bike_id":"fce1e9bf-ed0e-413f-9dfd-03b83a4db932","system_id":"levelo_inurba_marseille","lat":43.29796,"lon":5.38073,"is_reserved":false,"is_disabled":false,"rental_uris":{"android":"levelo://app?vid=fce1e9bf-ed0e-413f-9dfd-03b83a4db932","ios":"levelo://app?vid=fce1e9bf-ed0e-413f-9dfd-03b83a4db932"},"vehicle_type_id":"4","last_reported":1732014505,"current_range_meters":36400,"station_id":"ce4bgip2rcd13ifvqbb0","pricing_plan_id":"cebpf4jnsgd1na2vs0mg"},{"bike_id":"075ff912-72cc-4b3b-9834-76fee3b73875","system_id":"levelo_inurba_marseille","lat":43.28939,"lon":5.36635,"is_reserved":false,"is_disabled":false,"rental_uris":{"android":"levelo://app?vid=075ff912-72cc-4b3b-9834-76fee3b73875","ios":"levelo://app?vid=075ff912-72cc-4b3b-9834-76fee3b73875"},"vehicle_type_id":"4","last_reported":1732014505,"current_range_meters":37600,"station_id":"ce4bhap2rcd13ifvqek0","pricing_plan_id":"cebpf4jnsgd1na2vs0mg"},{"bike_id":"76b26817-8a0e-47d4-9818-68227ec46540","system_id":"levelo_inurba_marseille","lat":43.29064,"lon":5.3716,"is_reserved":false,"is_disabled":true,"rental_uris":{"android":"levelo://app?vid=76b26817-8a0e-47d4-9818-68227ec46540","ios":"levelo://app?vid=76b26817-8a0e-47d4-9818-68227ec46540"},"vehicle_type_id":"4","last_reported":1732014505,"current_range_meters":37600,"station_id":"ce4bh5p2rcd13ifvqe4g","pricing_plan_id":"cebpf4jnsgd1na2vs0mg"},{"bike_id":"fc7685bc-12d2-4453-957c-236516983ef0","system_id":"levelo_inurba_marseille","lat":43.24389,"lon":5.37056,"is_reserved":false,"is_disabled":false,"rental_uris":{"android":"levelo://app?vid=fc7685bc-12d2-4453-957c-236516983ef0","ios":"levelo://app?vid=fc7685bc-12d2-4453-957c-236516983ef0"},"vehicle_type_id":"4","last_reported":1732014505,"current_range_meters":9200,"station_id":"ce4bhhh2rcd13ifvqfk0","pricing_plan_id":"cebpf4jnsgd1na2vs0mg"},{"bike_id":"3c845471-a1cb-4db8-bd83-ebb4e6ea7851","system_id":"levelo_inurba_marseille","lat":43.29785,"lon":5.37101,"is_reserved":false,"is_disabled":false,"rental_uris":{"android":"levelo://app?vid=3c845471-a1cb-4db8-bd83-ebb4e6ea7851","ios":"levelo://app?vid=3c845471-a1cb-4db8-bd83-ebb4e6ea7851"},"vehicle_type_id":"4","last_reported":1732014505,"current_range_meters":38400,"station_id":"ce4bgop2rcd13ifvqc1g","pricing_plan_id":"cebpf4jnsgd1na2vs0mg"},{"bike_id":"26cebf06-260c-4863-8cb4-8027a65a5ba0","system_id":"levelo_inurba_marseille","lat":43.33612,"lon":5.41028,"is_reserved":false,"is_disabled":false,"rental_uris":{"android":"levelo://app?vid=26cebf06-260c-4863-8cb4-8027a65a5ba0","ios":"levelo://app?vid=26cebf06-260c-4863-8cb4-8027a65a5ba0"},"vehicle_type_id":"4","last_reported":1732014505,"current_range_meters":38800,"station_id":"ce4bhqh2rcd13ifvqhmg","pricing_plan_id":"cebpf4jnsgd1na2vs0mg"},{"bike_id":"55a71a41-be71-4d47-af9c-bb7ed396d09b","system_id":"levelo_inurba_marseille","lat":43.25827,"lon":5.39434,"is_reserved":false,"is_disabled":false,"rental_uris":{"android":"levelo://app?vid=55a71a41-be71-4d47-af9c-bb7ed396d09b","ios":"levelo://app?vid=55a71a41-be71-4d47-af9c-bb7ed396d09b"},"vehicle_type_id":"4","last_reported":1732014505,"current_range_meters":28400,"station_id":"ce4bhip2rcd13ifvqft0","pricing_plan_id":"cebpf4jnsgd1na2vs0mg"},{"bike_id":"31e6bd0b-c283-428e-a60e-39ea0d752798","system_id":"levelo_inurba_marseille","lat":43.26213,"lon":5.37442,"is_reserved":false,"is_disabled":false,"rental_uris":{"android":"levelo://app?vid=31e6bd0b-c283-428e-a60e-39ea0d752798","ios":"levelo://app?vid=31e6bd0b-c283-428e-a60e-39ea0d752798"},"vehicle_type_id":"4","last_reported":1732014505,"current_range_meters":14800,"station_id":"ce4bhgp2rcd13ifvqfc0","pricing_plan_id":"cebpf4jnsgd1na2vs0mg"},{"bike_id":"4ebc87da-5f5a-4c8c-90f6-6d9b4554ca3e","system_id":"levelo_inurba_marseille","lat":43.30604,"lon":5.3722,"is_reserved":false,"is_disabled":false,"rental_uris":{"android":"levelo://app?vid=4ebc87da-5f5a-4c8c-90f6-6d9b4554ca3e","ios":"levelo://app?vid=4ebc87da-5f5a-4c8c-90f6-6d9b4554ca3e"},"vehicle_type_id":"4","last_reported":1732014505,"current_range_meters":36800,"station_id":"ce4bgqh2rcd13ifvqc4g","pricing_plan_id":"cebpf4jnsgd1na2vs0mg"},{"bike_id":"d7b99e7e-4574-43ab-9fa2-68af3d5a1880","system_id":"levelo_inurba_marseille","lat":43.30473,"lon":5.37913,"is_reserved":false,"is_disabled":false,"rental_uris":{"android":"levelo://app?vid=d7b99e7e-4574-43ab-9fa2-68af3d5a1880","ios":"levelo://app?vid=d7b99e7e-4574-43ab-9fa2-68af3d5a1880"},"vehicle_type_id":"4","last_reported":1732014505,"current_range_meters":30800,"station_id":"ce4bgup2rcd13ifvqcn0","pricing_plan_id":"cebpf4jnsgd1na2vs0mg"},{"bike_id":"c965d922-041e-4314-8721-46b1ef5413d3","system_id":"levelo_inurba_marseille","lat":43.26203,"lon":5.37929,"is_reserved":false,"is_disabled":false,"rental_uris":{"android":"levelo://app?vid=c965d922-041e-4314-8721-46b1ef5413d3","ios":"levelo://app?vid=c965d922-041e-4314-8721-46b1ef5413d3"},"vehicle_type_id":"4","last_reported":1732014505,"current_range_meters":39200,"station_id":"ce4bhjp2rcd13ifvqg90","pricing_plan_id":"cebpf4jnsgd1na2vs0mg"},{"bike_id":"bc67f4cd-ec09-4dab-97b3-b7033282c703","system_id":"levelo_inurba_marseille","lat":43.29612,"lon":5.37722,"is_reserved":false,"is_disabled":false,"rental_uris":{"android":"levelo://app?vid=bc67f4cd-ec09-4dab-97b3-b7033282c703","ios":"levelo://app?vid=bc67f4cd-ec09-4dab-97b3-b7033282c703"},"vehicle_type_id":"4","last_reported":1732014505,"current_range_meters":38800,"station_id":"ce4bgi92rcd13ifvqb90","pricing_plan_id":"cebpf4jnsgd1na2vs0mg"},{"bike_id":"09fc0782-370e-473a-badb-c037ea87527a","system_id":"levelo_inurba_marseille","lat":43.32,"lon":5.38164,"is_reserved":false,"is_disabled":false,"rental_uris":{"android":"levelo://app?vid=09fc0782-370e-473a-badb-c037ea87527a","ios":"levelo://app?vid=09fc0782-370e-473a-badb-c037ea87527a"},"vehicle_type_id":"4","last_reported":1732014505,"current_range_meters":33200,"station_id":"ce4bhr12rcd13ifvqhpg","pricing_plan_id":"cebpf4jnsgd1na2vs0mg"},{"bike_id":"bc249293-6395-4334-b84a-652f70f197fc","system_id":"levelo_inurba_marseille","lat":43.27629,"lon":5.42644,"is_reserved":false,"is_disabled":true,"rental_uris":{"android":"levelo://app?vid=bc249293-6395-4334-b84a-652f70f197fc","ios":"levelo://app?vid=bc249293-6395-4334-b84a-652f70f197fc"},"vehicle_type_id":"4","last_reported":1732014505,"current_range_meters":0,"station_id":"","pricing_plan_id":"cebpf4jnsgd1na2vs0mg"},{"bike_id":"04c35673-35f2-4daa-b426-8c68b129b6a4","system_id":"levelo_inurba_marseille","lat":43.29908,"lon":5.37472,"is_reserved":false,"is_disabled":false,"rental_uris":{"android":"levelo://app?vid=04c35673-35f2-4daa-b426-8c68b129b6a4","ios":"levelo://app?vid=04c35673-35f2-4daa-b426-8c68b129b6a4"},"vehicle_type_id":"4","last_reported":1732014505,"current_range_meters":39200,"station_id":"ce4bgjh2rcd13ifvqbg0","pricing_plan_id":"cebpf4jnsgd1na2vs0mg"},{"bike_id":"71b21367-a338-4ce3-8b9b-13a190891016","system_id":"levelo_inurba_marseille","lat":43.33024,"lon":5.39043,"is_reserved":false,"is_disabled":false,"rental_uris":{"android":"levelo://app?vid=71b21367-a338-4ce3-8b9b-13a190891016","ios":"levelo://app?vid=71b21367-a338-4ce3-8b9b-13a190891016"},"vehicle_type_id":"4","last_reported":1732014505,"current_range_meters":28000,"station_id":"ce4bhr92rcd13ifvqhrg","pricing_plan_id":"cebpf4jnsgd1na2vs0mg"},{"bike_id":"be1dd5f8-91fc-4786-8461-76cd869dae13","system_id":"levelo_inurba_marseille","lat":43.31982,"lon":5.41584,"is_reserved":false,"is_disabled":true,"rental_uris":{"android":"levelo://app?vid=be1dd5f8-91fc-4786-8461-76cd869dae13","ios":"levelo://app?vid=be1dd5f8-91fc-4786-8461-76cd869dae13"},"vehicle_type_id":"4","last_reported":1732014505,"current_range_meters":26800,"station_id":"","pricing_plan_id":"cebpf4jnsgd1na2vs0mg"},{"bike_id":"861def74-50a1-494e-b6b8-966ec9bdcf27","system_id":"levelo_inurba_marseille","lat":43.29989,"lon":5.38469,"is_reserved":false,"is_disabled":false,"rental_uris":{"android":"levelo://app?vid=861def74-50a1-494e-b6b8-966ec9bdcf27","ios":"levelo://app?vid=861def74-50a1-494e-b6b8-966ec9bdcf27"},"vehicle_type_id":"4","last_reported":1732014505,"current_range_meters":36800,"station_id":"ce4bgj92rcd13ifvqbd0","pricing_plan_id":"cebpf4jnsgd1na2vs0mg"},{"bike_id":"faa3accd-82ad-4ab4-8459-e7f3d78bab6c","system_id":"levelo_inurba_marseille","lat":43.28153,"lon":5.42648,"is_reserved":false,"is_disabled":false,"rental_uris":{"android":"levelo://app?vid=faa3accd-82ad-4ab4-8459-e7f3d78bab6c","ios":"levelo://app?vid=faa3accd-82ad-4ab4-8459-e7f3d78bab6c"},"vehicle_type_id":"4","last_reported":1732014505,"current_range_meters":38800,"station_id":"ce4bhnh2rcd13ifvqgug","pricing_plan_id":"cebpf4jnsgd1na2vs0mg"},{"bike_id":"ee5ad2bc-dd93-4a60-9deb-ff629596020e","system_id":"levelo_inurba_marseille","lat":43.24181,"lon":5.39732,"is_reserved":false,"is_disabled":false,"rental_uris":{"android":"levelo://app?vid=ee5ad2bc-dd93-4a60-9deb-ff629596020e","ios":"levelo://app?vid=ee5ad2bc-dd93-4a60-9deb-ff629596020e"},"vehicle_type_id":"4","last_reported":1732014505,"current_range_meters":38800,"station_id":"ce4bhn12rcd13ifvqgpg","pricing_plan_id":"cebpf4jnsgd1na2vs0mg"},{"bike_id":"f27af926-d29f-423c-a6bd-0bad3160df4c","system_id":"levelo_inurba_marseille","lat":43.301514,"lon":5.374277,"is_reserved":false,"is_disabled":false,"rental_uris":{"android":"levelo://app?vid=f27af926-d29f-423c-a6bd-0bad3160df4c","ios":"levelo://app?vid=f27af926-d29f-423c-a6bd-0bad3160df4c"},"vehicle_type_id":"4","last_reported":1732014505,"current_range_meters":28800,"station_id":"ce4bgs92rcd13ifvqcc0","pricing_plan_id":"cebpf4jnsgd1na2vs0mg"},{"bike_id":"c8642b34-6a9b-4da1-8285-b4b04cfc60a1","system_id":"levelo_inurba_marseille","lat":43.28268,"lon":5.35068,"is_reserved":false,"is_disabled":false,"rental_uris":{"android":"levelo://app?vid=c8642b34-6a9b-4da1-8285-b4b04cfc60a1","ios":"levelo://app?vid=c8642b34-6a9b-4da1-8285-b4b04cfc60a1"},"vehicle_type_id":"4","last_reported":1732014505,"current_range_meters":33600,"station_id":"ce4bhbp2rcd13ifvqerg","pricing_plan_id":"cebpf4jnsgd1na2vs0mg"},{"bike_id":"e5e2248a-03d3-4b07-b4f7-fd61796e9419","system_id":"levelo_inurba_marseille","lat":43.29979,"lon":5.38086,"is_reserved":false,"is_disabled":true,"rental_uris":{"android":"levelo://app?vid=e5e2248a-03d3-4b07-b4f7-fd61796e9419","ios":"levelo://app?vid=e5e2248a-03d3-4b07-b4f7-fd61796e9419"},"vehicle_type_id":"4","last_reported":1732014505,"current_range_meters":0,"station_id":"","pricing_plan_id":"cebpf4jnsgd1na2vs0mg"},{"bike_id":"6ceef664-acd2-42e1-b843-e993f58ca8f0","system_id":"levelo_inurba_marseille","lat":43.33606,"lon":5.41027,"is_reserved":false,"is_disabled":false,"rental_uris":{"android":"levelo://app?vid=6ceef664-acd2-42e1-b843-e993f58ca8f0","ios":"levelo://app?vid=6ceef664-acd2-42e1-b843-e993f58ca8f0"},"vehicle_type_id":"4","last_reported":1732014505,"current_range_meters":17600,"station_id":"ce4bhqh2rcd13ifvqhmg","pricing_plan_id":"cebpf4jnsgd1na2vs0mg"},{"bike_id":"17499d31-2db8-4aec-84ea-c73c6e953f7f","system_id":"levelo_inurba_marseille","lat":43.30597,"lon":5.3721,"is_reserved":false,"is_disabled":false,"rental_uris":{"android":"levelo://app?vid=17499d31-2db8-4aec-84ea-c73c6e953f7f","ios":"levelo://app?vid=17499d31-2db8-4aec-84ea-c73c6e953f7f"},"vehicle_type_id":"4","last_reported":1732014505,"current_range_meters":30800,"station_id":"ce4bgqh2rcd13ifvqc4g","pricing_plan_id":"cebpf4jnsgd1na2vs0mg"},{"bike_id":"56edd46b-d236-45f1-ba2f-1f7d8acc3af2","system_id":"levelo_inurba_marseille","lat":43.29971,"lon":5.38483,"is_reserved":false,"is_disabled":false,"rental_uris":{"android":"levelo://app?vid=56edd46b-d236-45f1-ba2f-1f7d8acc3af2","ios":"levelo://app?vid=56edd46b-d236-45f1-ba2f-1f7d8acc3af2"},"vehicle_type_id":"4","last_reported":1732014505,"current_range_meters":38000,"station_id":"","pricing_plan_id":"cebpf4jnsgd1na2vs0mg"},{"bike_id":"2a35a096-a0cd-4860-a2a7-a67e3af8991f","system_id":"levelo_inurba_marseille","lat":43.28932,"lon":5.36632,"is_reserved":false,"is_disabled":false,"rental_uris":{"android":"levelo://app?vid=2a35a096-a0cd-4860-a2a7-a67e3af8991f","ios":"levelo://app?vid=2a35a096-a0cd-4860-a2a7-a67e3af8991f"},"vehicle_type_id":"4","last_reported":1732014505,"current_range_meters":24000,"station_id":"ce4bhap2rcd13ifvqek0","pricing_plan_id":"cebpf4jnsgd1na2vs0mg"},{"bike_id":"22f8ad8d-8355-4d76-a49e-ab4217672741","system_id":"levelo_inurba_marseille","lat":43.2827,"lon":5.35066,"is_reserved":false,"is_disabled":false,"rental_uris":{"android":"levelo://app?vid=22f8ad8d-8355-4d76-a49e-ab4217672741","ios":"levelo://app?vid=22f8ad8d-8355-4d76-a49e-ab4217672741"},"vehicle_type_id":"4","last_reported":1732014505,"current_range_meters":1200,"station_id":"ce4bhbp2rcd13ifvqerg","pricing_plan_id":"cebpf4jnsgd1na2vs0mg"},{"bike_id":"a6574722-e745-4613-9b84-7430ad16be4b","system_id":"levelo_inurba_marseille","lat":43.25863,"lon":5.39891,"is_reserved":false,"is_disabled":false,"rental_uris":{"android":"levelo://app?vid=a6574722-e745-4613-9b84-7430ad16be4b","ios":"levelo://app?vid=a6574722-e745-4613-9b84-7430ad16be4b"},"vehicle_type_id":"4","last_reported":1732014505,"current_range_meters":9200,"station_id":"ce4bhl92rcd13ifvqghg","pricing_plan_id":"cebpf4jnsgd1na2vs0mg"},{"bike_id":"cfbed237-c79f-4f65-b311-be4997dd399e","system_id":"levelo_inurba_marseille","lat":43.27198,"lon":5.39192,"is_reserved":false,"is_disabled":true,"rental_uris":{"android":"levelo://app?vid=cfbed237-c79f-4f65-b311-be4997dd399e","ios":"levelo://app?vid=cfbed237-c79f-4f65-b311-be4997dd399e"},"vehicle_type_id":"4","last_reported":1732014505,"current_range_meters":9600,"station_id":"ce4bhhp2rcd13ifvqfm0","pricing_plan_id":"cebpf4jnsgd1na2vs0mg"},{"bike_id":"c7fb6eec-13ce-41a3-96da-edadb06d7a7b","system_id":"levelo_inurba_marseille","lat":43.293586,"lon":5.378348,"is_reserved":false,"is_disabled":false,"rental_uris":{"android":"levelo://app?vid=c7fb6eec-13ce-41a3-96da-edadb06d7a7b","ios":"levelo://app?vid=c7fb6eec-13ce-41a3-96da-edadb06d7a7b"},"vehicle_type_id":"4","last_reported":1732014505,"current_range_meters":12000,"station_id":"ce4bgjh2rcd13ifvqbf0","pricing_plan_id":"cebpf4jnsgd1na2vs0mg"},{"bike_id":"d6efe9b0-b4e9-4e49-baf5-57e7580b2300","system_id":"levelo_inurba_marseille","lat":43.26681,"lon":5.38269,"is_reserved":false,"is_disabled":false,"rental_uris":{"android":"levelo://app?vid=d6efe9b0-b4e9-4e49-baf5-57e7580b2300","ios":"levelo://app?vid=d6efe9b0-b4e9-4e49-baf5-57e7580b2300"},"vehicle_type_id":"4","last_reported":1732014505,"current_range_meters":28000,"station_id":"ce4bhg92rcd13ifvqf90","pricing_plan_id":"cebpf4jnsgd1na2vs0mg"},{"bike_id":"1a098a79-b9cd-42e6-a616-d186d3aa3585","system_id":"levelo_inurba_marseille","lat":43.29866,"lon":5.39723,"is_reserved":false,"is_disabled":false,"rental_uris":{"android":"levelo://app?vid=1a098a79-b9cd-42e6-a616-d186d3aa3585","ios":"levelo://app?vid=1a098a79-b9cd-42e6-a616-d186d3aa3585"},"vehicle_type_id":"4","last_reported":1732014505,"current_range_meters":8400,"station_id":"ce4bh0h2rcd13ifvqd50","pricing_plan_id":"cebpf4jnsgd1na2vs0mg"},{"bike_id":"2a270517-9d5b-492f-a609-2bf32ee97d0e","system_id":"levelo_inurba_marseille","lat":43.29581,"lon":5.37498,"is_reserved":false,"is_disabled":true,"rental_uris":{"android":"levelo://app?vid=2a270517-9d5b-492f-a609-2bf32ee97d0e","ios":"levelo://app?vid=2a270517-9d5b-492f-a609-2bf32ee97d0e"},"vehicle_type_id":"4","last_reported":1732014505,"current_range_meters":33600,"station_id":"ce4bgh92rcd13ifvqb50","pricing_plan_id":"cebpf4jnsgd1na2vs0mg"},{"bike_id":"7289239c-a3b0-403c-b810-a6e7cb8c855e","system_id":"levelo_inurba_marseille","lat":43.29035,"lon":5.37564,"is_reserved":false,"is_disabled":true,"rental_uris":{"android":"levelo://app?vid=7289239c-a3b0-403c-b810-a6e7cb8c855e","ios":"levelo://app?vid=7289239c-a3b0-403c-b810-a6e7cb8c855e"},"vehicle_type_id":"4","last_reported":1732014505,"current_range_meters":9600,"station_id":"ce4bh692rcd13ifvqe90","pricing_plan_id":"cebpf4jnsgd1na2vs0mg"},{"bike_id":"140ca15d-c861-474c-8c88-6f4e42322c5b","system_id":"levelo_inurba_marseille","lat":43.30649,"lon":5.40102,"is_reserved":false,"is_disabled":false,"rental_uris":{"android":"levelo://app?vid=140ca15d-c861-474c-8c88-6f4e42322c5b","ios":"levelo://app?vid=140ca15d-c861-474c-8c88-6f4e42322c5b"},"vehicle_type_id":"4","last_reported":1732014505,"current_range_meters":30400,"station_id":"ce4bh112rcd13ifvqda0","pricing_plan_id":"cebpf4jnsgd1na2vs0mg"},{"bike_id":"e872e288-7898-4d61-9856-14094895d63e","system_id":"levelo_inurba_marseille","lat":43.28705,"lon":5.39974,"is_reserved":false,"is_disabled":false,"rental_uris":{"android":"levelo://app?vid=e872e288-7898-4d61-9856-14094895d63e","ios":"levelo://app?vid=e872e288-7898-4d61-9856-14094895d63e"},"vehicle_type_id":"4","last_reported":1732014505,"current_range_meters":30400,"station_id":"ce4bho92rcd13ifvqh3g","pricing_plan_id":"cebpf4jnsgd1na2vs0mg"},{"bike_id":"1ff970a9-d231-4bbd-92a9-fc25fa1a5bc7","system_id":"levelo_inurba_marseille","lat":43.30149,"lon":5.38083,"is_reserved":false,"is_disabled":false,"rental_uris":{"android":"levelo://app?vid=1ff970a9-d231-4bbd-92a9-fc25fa1a5bc7","ios":"levelo://app?vid=1ff970a9-d231-4bbd-92a9-fc25fa1a5bc7"},"vehicle_type_id":"4","last_reported":1732014505,"current_range_meters":38000,"station_id":"ce4bgjp2rcd13ifvqbh0","pricing_plan_id":"cebpf4jnsgd1na2vs0mg"},{"bike_id":"f1888b1a-22ac-4f8d-8a07-bea9e3e6d605","system_id":"levelo_inurba_marseille","lat":43.30897,"lon":5.36847,"is_reserved":false,"is_disabled":false,"rental_uris":{"android":"levelo://app?vid=f1888b1a-22ac-4f8d-8a07-bea9e3e6d605","ios":"levelo://app?vid=f1888b1a-22ac-4f8d-8a07-bea9e3e6d605"},"vehicle_type_id":"4","last_reported":1732014505,"current_range_meters":22400,"station_id":"ce4bgn92rcd13ifvqbvg","pricing_plan_id":"cebpf4jnsgd1na2vs0mg"},{"bike_id":"693ccd62-ca5d-40a8-8ca4-ee371e2a26a2","system_id":"levelo_inurba_marseille","lat":43.29807,"lon":5.38093,"is_reserved":false,"is_disabled":false,"rental_uris":{"android":"levelo://app?vid=693ccd62-ca5d-40a8-8ca4-ee371e2a26a2","ios":"levelo://app?vid=693ccd62-ca5d-40a8-8ca4-ee371e2a26a2"},"vehicle_type_id":"4","last_reported":1732014505,"current_range_meters":38400,"station_id":"ce4bgip2rcd13ifvqbb0","pricing_plan_id":"cebpf4jnsgd1na2vs0mg"},{"bike_id":"24b2c3eb-8b9b-40a7-8aad-177c7a5a5f47","system_id":"levelo_inurba_marseille","lat":43.26934,"lon":5.38909,"is_reserved":false,"is_disabled":true,"rental_uris":{"android":"levelo://app?vid=24b2c3eb-8b9b-40a7-8aad-177c7a5a5f47","ios":"levelo://app?vid=24b2c3eb-8b9b-40a7-8aad-177c7a5a5f47"},"vehicle_type_id":"4","last_reported":1732014505,"current_range_meters":0,"station_id":"ce4bhhh2rcd13ifvqfl0","pricing_plan_id":"cebpf4jnsgd1na2vs0mg"},{"bike_id":"0c21866d-64a6-48bd-84ec-2cdb016bb953","system_id":"levelo_inurba_marseille","lat":43.24391,"lon":5.37056,"is_reserved":false,"is_disabled":true,"rental_uris":{"android":"levelo://app?vid=0c21866d-64a6-48bd-84ec-2cdb016bb953","ios":"levelo://app?vid=0c21866d-64a6-48bd-84ec-2cdb016bb953"},"vehicle_type_id":"4","last_reported":1732014505,"current_range_meters":0,"station_id":"ce4bhhh2rcd13ifvqfk0","pricing_plan_id":"cebpf4jnsgd1na2vs0mg"},{"bike_id":"6de1d38f-96e9-4031-a311-be1e58204c58","system_id":"levelo_inurba_marseille","lat":43.3014,"lon":5.39861,"is_reserved":false,"is_disabled":false,"rental_uris":{"android":"levelo://app?vid=6de1d38f-96e9-4031-a311-be1e58204c58","ios":"levelo://app?vid=6de1d38f-96e9-4031-a311-be1e58204c58"},"vehicle_type_id":"4","last_reported":1732014505,"current_range_meters":39200,"station_id":"ce4bh0h2rcd13ifvqd40","pricing_plan_id":"cebpf4jnsgd1na2vs0mg"},{"bike_id":"8d9c7874-6ecd-4ea0-a9e8-ef53041c8d83","system_id":"levelo_inurba_marseille","lat":43.31361,"lon":5.385,"is_reserved":false,"is_disabled":true,"rental_uris":{"android":"levelo://app?vid=8d9c7874-6ecd-4ea0-a9e8-ef53041c8d83","ios":"levelo://app?vid=8d9c7874-6ecd-4ea0-a9e8-ef53041c8d83"},"vehicle_type_id":"4","last_reported":1732014505,"current_range_meters":36400,"station_id":"ce4bgt92rcd13ifvqcf0","pricing_plan_id":"cebpf4jnsgd1na2vs0mg"},{"bike_id":"9b4d52a8-a22b-418c-a556-65afaca3a235","system_id":"levelo_inurba_marseille","lat":43.337444,"lon":5.374475,"is_reserved":false,"is_disabled":false,"rental_uris":{"android":"levelo://app?vid=9b4d52a8-a22b-418c-a556-65afaca3a235","ios":"levelo://app?vid=9b4d52a8-a22b-418c-a556-65afaca3a235"},"vehicle_type_id":"4","last_reported":1732014505,"current_range_meters":38000,"station_id":"","pricing_plan_id":"cebpf4jnsgd1na2vs0mg"},{"bike_id":"d11f792a-d702-4584-a3d4-51714936f580","system_id":"levelo_inurba_marseille","lat":43.30597,"lon":5.37216,"is_reserved":false,"is_disabled":false,"rental_uris":{"android":"levelo://app?vid=d11f792a-d702-4584-a3d4-51714936f580","ios":"levelo://app?vid=d11f792a-d702-4584-a3d4-51714936f580"},"vehicle_type_id":"4","last_reported":1732014505,"current_range_meters":28400,"station_id":"ce4bgqh2rcd13ifvqc4g","pricing_plan_id":"cebpf4jnsgd1na2vs0mg"},{"bike_id":"d6e54eb8-b569-4670-b12b-fc7e345ccec9","system_id":"levelo_inurba_marseille","lat":43.29729,"lon":5.37689,"is_reserved":false,"is_disabled":false,"rental_uris":{"android":"levelo://app?vid=d6e54eb8-b569-4670-b12b-fc7e345ccec9","ios":"levelo://app?vid=d6e54eb8-b569-4670-b12b-fc7e345ccec9"},"vehicle_type_id":"4","last_reported":1732014505,"current_range_meters":36800,"station_id":"ce4bgkh2rcd13ifvqbl0","pricing_plan_id":"cebpf4jnsgd1na2vs0mg"},{"bike_id":"d1b604a8-334d-4cfc-ba9c-720d8061c18c","system_id":"levelo_inurba_marseille","lat":43.30603,"lon":5.37218,"is_reserved":false,"is_disabled":false,"rental_uris":{"android":"levelo://app?vid=d1b604a8-334d-4cfc-ba9c-720d8061c18c","ios":"levelo://app?vid=d1b604a8-334d-4cfc-ba9c-720d8061c18c"},"vehicle_type_id":"4","last_reported":1732014505,"current_range_meters":27200,"station_id":"ce4bgqh2rcd13ifvqc4g","pricing_plan_id":"cebpf4jnsgd1na2vs0mg"},{"bike_id":"80212927-33be-43b7-8961-134b41cfca7c","system_id":"levelo_inurba_marseille","lat":43.29797,"lon":5.38107,"is_reserved":false,"is_disabled":false,"rental_uris":{"android":"levelo://app?vid=80212927-33be-43b7-8961-134b41cfca7c","ios":"levelo://app?vid=80212927-33be-43b7-8961-134b41cfca7c"},"vehicle_type_id":"4","last_reported":1732014505,"current_range_meters":18800,"station_id":"ce4bgip2rcd13ifvqbb0","pricing_plan_id":"cebpf4jnsgd1na2vs0mg"},{"bike_id":"518fe038-4998-4612-a13d-47f0d0362382","system_id":"levelo_inurba_marseille","lat":43.2952,"lon":5.37494,"is_reserved":false,"is_disabled":false,"rental_uris":{"android":"levelo://app?vid=518fe038-4998-4612-a13d-47f0d0362382","ios":"levelo://app?vid=518fe038-4998-4612-a13d-47f0d0362382"},"vehicle_type_id":"4","last_reported":1732014505,"current_range_meters":36800,"station_id":"ce4bgkp2rcd13ifvqbmg","pricing_plan_id":"cebpf4jnsgd1na2vs0mg"},{"bike_id":"d994d94a-5540-4488-81e8-b99a56adfde9","system_id":"levelo_inurba_marseille","lat":43.250857,"lon":5.395296,"is_reserved":false,"is_disabled":false,"rental_uris":{"android":"levelo://app?vid=d994d94a-5540-4488-81e8-b99a56adfde9","ios":"levelo://app?vid=d994d94a-5540-4488-81e8-b99a56adfde9"},"vehicle_type_id":"4","last_reported":1732014505,"current_range_meters":37600,"station_id":"ce4bhm12rcd13ifvqgkg","pricing_plan_id":"cebpf4jnsgd1na2vs0mg"},{"bike_id":"adc56414-ff01-408b-87c1-1f9cbdadcf06","system_id":"levelo_inurba_marseille","lat":43.30466,"lon":5.37897,"is_reserved":false,"is_disabled":true,"rental_uris":{"android":"levelo://app?vid=adc56414-ff01-408b-87c1-1f9cbdadcf06","ios":"levelo://app?vid=adc56414-ff01-408b-87c1-1f9cbdadcf06"},"vehicle_type_id":"4","last_reported":1732014505,"current_range_meters":1200,"station_id":"ce4bgup2rcd13ifvqcn0","pricing_plan_id":"cebpf4jnsgd1na2vs0mg"},{"bike_id":"1462f68e-113f-431d-9d5b-f4d7f987f2b8","system_id":"levelo_inurba_marseille","lat":43.28474,"lon":5.38402,"is_reserved":false,"is_disabled":true,"rental_uris":{"android":"levelo://app?vid=1462f68e-113f-431d-9d5b-f4d7f987f2b8","ios":"levelo://app?vid=1462f68e-113f-431d-9d5b-f4d7f987f2b8"},"vehicle_type_id":"4","last_reported":1732014505,"current_range_meters":15200,"station_id":"ce4bh512rcd13ifvqe3g","pricing_plan_id":"cebpf4jnsgd1na2vs0mg"},{"bike_id":"b9f521ff-4210-48a8-86f2-695a4551af32","system_id":"levelo_inurba_marseille","lat":43.29166,"lon":5.37139,"is_reserved":false,"is_disabled":true,"rental_uris":{"android":"levelo://app?vid=b9f521ff-4210-48a8-86f2-695a4551af32","ios":"levelo://app?vid=b9f521ff-4210-48a8-86f2-695a4551af32"},"vehicle_type_id":"4","last_reported":1732014505,"current_range_meters":12000,"station_id":"ce4bha92rcd13ifvqeh0","pricing_plan_id":"cebpf4jnsgd1na2vs0mg"},{"bike_id":"0b733133-03c9-4766-961e-92b775b50bbc","system_id":"levelo_inurba_marseille","lat":43.28193,"lon":5.44267,"is_reserved":false,"is_disabled":true,"rental_uris":{"android":"levelo://app?vid=0b733133-03c9-4766-961e-92b775b50bbc","ios":"levelo://app?vid=0b733133-03c9-4766-961e-92b775b50bbc"},"vehicle_type_id":"4","last_reported":1732014505,"current_range_meters":0,"station_id":"","pricing_plan_id":"cebpf4jnsgd1na2vs0mg"},{"bike_id":"74eb70e9-b94e-49a5-9a48-368b4be133db","system_id":"levelo_inurba_marseille","lat":43.30802,"lon":5.4352,"is_reserved":false,"is_disabled":false,"rental_uris":{"android":"levelo://app?vid=74eb70e9-b94e-49a5-9a48-368b4be133db","ios":"levelo://app?vid=74eb70e9-b94e-49a5-9a48-368b4be133db"},"vehicle_type_id":"4","last_reported":1732014505,"current_range_meters":38800,"station_id":"ce4bhph2rcd13ifvqheg","pricing_plan_id":"cebpf4jnsgd1na2vs0mg"},{"bike_id":"4cba050b-d851-4ee5-8ce0-ea7f25d9c27b","system_id":"levelo_inurba_marseille","lat":43.27493,"lon":5.42464,"is_reserved":false,"is_disabled":true,"rental_uris":{"android":"levelo://app?vid=4cba050b-d851-4ee5-8ce0-ea7f25d9c27b","ios":"levelo://app?vid=4cba050b-d851-4ee5-8ce0-ea7f25d9c27b"},"vehicle_type_id":"4","last_reported":1732014505,"current_range_meters":37600,"station_id":"ce4bhn92rcd13ifvqgrg","pricing_plan_id":"cebpf4jnsgd1na2vs0mg"},{"bike_id":"c4c95739-ad31-423c-a98a-2aaceff657a2","system_id":"levelo_inurba_marseille","lat":43.30947,"lon":5.39044,"is_reserved":false,"is_disabled":true,"rental_uris":{"android":"levelo://app?vid=c4c95739-ad31-423c-a98a-2aaceff657a2","ios":"levelo://app?vid=c4c95739-ad31-423c-a98a-2aaceff657a2"},"vehicle_type_id":"4","last_reported":1732014505,"current_range_meters":11600,"station_id":"ce4bgup2rcd13ifvqco0","pricing_plan_id":"cebpf4jnsgd1na2vs0mg"},{"bike_id":"7a62bdc9-e634-46ba-b613-31b659662f35","system_id":"levelo_inurba_marseille","lat":43.2781,"lon":5.40714,"is_reserved":false,"is_disabled":false,"rental_uris":{"android":"levelo://app?vid=7a62bdc9-e634-46ba-b613-31b659662f35","ios":"levelo://app?vid=7a62bdc9-e634-46ba-b613-31b659662f35"},"vehicle_type_id":"4","last_reported":1732014505,"current_range_meters":33600,"station_id":"ce4bhnh2rcd13ifvqgtg","pricing_plan_id":"cebpf4jnsgd1na2vs0mg"},{"bike_id":"e65461e3-d425-4dee-a20c-933c7023442e","system_id":"levelo_inurba_marseille","lat":43.30253,"lon":5.40047,"is_reserved":false,"is_disabled":true,"rental_uris":{"android":"levelo://app?vid=e65461e3-d425-4dee-a20c-933c7023442e","ios":"levelo://app?vid=e65461e3-d425-4dee-a20c-933c7023442e"},"vehicle_type_id":"4","last_reported":1732014505,"current_range_meters":38400,"station_id":"ce4bgvh2rcd13ifvqcs0","pricing_plan_id":"cebpf4jnsgd1na2vs0mg"},{"bike_id":"8c0f7771-880b-4614-abc8-3e41755a48fc","system_id":"levelo_inurba_marseille","lat":43.29026,"lon":5.39979,"is_reserved":false,"is_disabled":true,"rental_uris":{"android":"levelo://app?vid=8c0f7771-880b-4614-abc8-3e41755a48fc","ios":"levelo://app?vid=8c0f7771-880b-4614-abc8-3e41755a48fc"},"vehicle_type_id":"4","last_reported":1732014505,"current_range_meters":0,"station_id":"ce4bh392rcd13ifvqdm0","pricing_plan_id":"cebpf4jnsgd1na2vs0mg"},{"bike_id":"ff78d3fd-1323-4be7-9b8e-cca0330f5550","system_id":"levelo_inurba_marseille","lat":43.30536,"lon":5.36693,"is_reserved":false,"is_disabled":false,"rental_uris":{"android":"levelo://app?vid=ff78d3fd-1323-4be7-9b8e-cca0330f5550","ios":"levelo://app?vid=ff78d3fd-1323-4be7-9b8e-cca0330f5550"},"vehicle_type_id":"4","last_reported":1732014505,"current_range_meters":33600,"station_id":"ce4bgrp2rcd13ifvqc9g","pricing_plan_id":"cebpf4jnsgd1na2vs0mg"},{"bike_id":"bf616fda-0885-4bcf-8258-bc47aa3041a1","system_id":"levelo_inurba_marseille","lat":43.32485,"lon":5.36559,"is_reserved":false,"is_disabled":false,"rental_uris":{"android":"levelo://app?vid=bf616fda-0885-4bcf-8258-bc47aa3041a1","ios":"levelo://app?vid=bf616fda-0885-4bcf-8258-bc47aa3041a1"},"vehicle_type_id":"4","last_reported":1732014505,"current_range_meters":39200,"station_id":"ce4bhs12rcd13ifvqhvg","pricing_plan_id":"cebpf4jnsgd1na2vs0mg"},{"bike_id":"f52431c3-a0fa-4826-a02b-0d71a6a0f875","system_id":"levelo_inurba_marseille","lat":43.30288,"lon":5.37695,"is_reserved":false,"is_disabled":false,"rental_uris":{"android":"levelo://app?vid=f52431c3-a0fa-4826-a02b-0d71a6a0f875","ios":"levelo://app?vid=f52431c3-a0fa-4826-a02b-0d71a6a0f875"},"vehicle_type_id":"4","last_reported":1732014505,"current_range_meters":14800,"station_id":"ce4bguh2rcd13ifvqcj0","pricing_plan_id":"cebpf4jnsgd1na2vs0mg"},{"bike_id":"20d43469-0b35-4110-9c40-be0f1a781705","system_id":"levelo_inurba_marseille","lat":43.26212,"lon":5.37437,"is_reserved":false,"is_disabled":false,"rental_uris":{"android":"levelo://app?vid=20d43469-0b35-4110-9c40-be0f1a781705","ios":"levelo://app?vid=20d43469-0b35-4110-9c40-be0f1a781705"},"vehicle_type_id":"4","last_reported":1732014505,"current_range_meters":27600,"station_id":"ce4bhgp2rcd13ifvqfc0","pricing_plan_id":"cebpf4jnsgd1na2vs0mg"},{"bike_id":"66010a32-01cb-4e8c-b4d4-e9efb6ebfb75","system_id":"levelo_inurba_marseille","lat":43.31229,"lon":5.36869,"is_reserved":false,"is_disabled":false,"rental_uris":{"android":"levelo://app?vid=66010a32-01cb-4e8c-b4d4-e9efb6ebfb75","ios":"levelo://app?vid=66010a32-01cb-4e8c-b4d4-e9efb6ebfb75"},"vehicle_type_id":"4","last_reported":1732014505,"current_range_meters":6400,"station_id":"ce4bgl92rcd13ifvqbq0","pricing_plan_id":"cebpf4jnsgd1na2vs0mg"},{"bike_id":"9f1dfffb-1213-4f6e-84d3-a2f0789a9ef3","system_id":"levelo_inurba_marseille","lat":43.27619,"lon":5.3587,"is_reserved":false,"is_disabled":true,"rental_uris":{"android":"levelo://app?vid=9f1dfffb-1213-4f6e-84d3-a2f0789a9ef3","ios":"levelo://app?vid=9f1dfffb-1213-4f6e-84d3-a2f0789a9ef3"},"vehicle_type_id":"4","last_reported":1732014505,"current_range_meters":0,"station_id":"","pricing_plan_id":"cebpf4jnsgd1na2vs0mg"},{"bike_id":"8dfe3502-1a44-41d0-93ec-2f8847296f61","system_id":"levelo_inurba_marseille","lat":43.29191,"lon":5.35804,"is_reserved":false,"is_disabled":true,"rental_uris":{"android":"levelo://app?vid=8dfe3502-1a44-41d0-93ec-2f8847296f61","ios":"levelo://app?vid=8dfe3502-1a44-41d0-93ec-2f8847296f61"},"vehicle_type_id":"4","last_reported":1732014505,"current_range_meters":38800,"station_id":"ce4bhb12rcd13ifvqel0","pricing_plan_id":"cebpf4jnsgd1na2vs0mg"},{"bike_id":"954054ad-77ac-46c3-a1b5-c8fc266a522b","system_id":"levelo_inurba_marseille","lat":43.31725,"lon":5.42397,"is_reserved":false,"is_disabled":false,"rental_uris":{"android":"levelo://app?vid=954054ad-77ac-46c3-a1b5-c8fc266a522b","ios":"levelo://app?vid=954054ad-77ac-46c3-a1b5-c8fc266a522b"},"vehicle_type_id":"4","last_reported":1732014505,"current_range_meters":38800,"station_id":"ce4bhp92rcd13ifvqhbg","pricing_plan_id":"cebpf4jnsgd1na2vs0mg"},{"bike_id":"d3845bde-cb25-4ef5-9dc8-d90b98cea816","system_id":"levelo_inurba_marseille","lat":43.293,"lon":5.37459,"is_reserved":false,"is_disabled":false,"rental_uris":{"android":"levelo://app?vid=d3845bde-cb25-4ef5-9dc8-d90b98cea816","ios":"levelo://app?vid=d3845bde-cb25-4ef5-9dc8-d90b98cea816"},"vehicle_type_id":"4","last_reported":1732014505,"current_range_meters":38800,"station_id":"ce4bgi12rcd13ifvqb70","pricing_plan_id":"cebpf4jnsgd1na2vs0mg"},{"bike_id":"c8f98c82-9f99-4496-8f1c-23fe72deb1dd","system_id":"levelo_inurba_marseille","lat":43.2781,"lon":5.40713,"is_reserved":false,"is_disabled":false,"rental_uris":{"android":"levelo://app?vid=c8f98c82-9f99-4496-8f1c-23fe72deb1dd","ios":"levelo://app?vid=c8f98c82-9f99-4496-8f1c-23fe72deb1dd"},"vehicle_type_id":"4","last_reported":1732014505,"current_range_meters":5600,"station_id":"ce4bhnh2rcd13ifvqgtg","pricing_plan_id":"cebpf4jnsgd1na2vs0mg"},{"bike_id":"353c6a8d-965b-4c4e-afca-3ed0328c2d2e","system_id":"levelo_inurba_marseille","lat":43.26062,"lon":5.39398,"is_reserved":false,"is_disabled":false,"rental_uris":{"android":"levelo://app?vid=353c6a8d-965b-4c4e-afca-3ed0328c2d2e","ios":"levelo://app?vid=353c6a8d-965b-4c4e-afca-3ed0328c2d2e"},"vehicle_type_id":"4","last_reported":1732014505,"current_range_meters":28800,"station_id":"ce4bhh92rcd13ifvqfj0","pricing_plan_id":"cebpf4jnsgd1na2vs0mg"},{"bike_id":"2d983866-913c-4390-ae48-1873d10c9730","system_id":"levelo_inurba_marseille","lat":43.24813,"lon":5.37458,"is_reserved":false,"is_disabled":true,"rental_uris":{"android":"levelo://app?vid=2d983866-913c-4390-ae48-1873d10c9730","ios":"levelo://app?vid=2d983866-913c-4390-ae48-1873d10c9730"},"vehicle_type_id":"4","last_reported":1732014505,"current_range_meters":16800,"station_id":"ce4bhgh2rcd13ifvqfb0","pricing_plan_id":"cebpf4jnsgd1na2vs0mg"},{"bike_id":"bab65bde-058b-478e-ae1f-b087d5eb58da","system_id":"levelo_inurba_marseille","lat":43.30469,"lon":5.37901,"is_reserved":false,"is_disabled":false,"rental_uris":{"android":"levelo://app?vid=bab65bde-058b-478e-ae1f-b087d5eb58da","ios":"levelo://app?vid=bab65bde-058b-478e-ae1f-b087d5eb58da"},"vehicle_type_id":"4","last_reported":1732014505,"current_range_meters":39200,"station_id":"ce4bgup2rcd13ifvqcn0","pricing_plan_id":"cebpf4jnsgd1na2vs0mg"},{"bike_id":"88196073-5d79-4eef-8b98-5b6c67eee457","system_id":"levelo_inurba_marseille","lat":43.31083,"lon":5.4243,"is_reserved":false,"is_disabled":true,"rental_uris":{"android":"levelo://app?vid=88196073-5d79-4eef-8b98-5b6c67eee457","ios":"levelo://app?vid=88196073-5d79-4eef-8b98-5b6c67eee457"},"vehicle_type_id":"4","last_reported":1732014505,"current_range_meters":16800,"station_id":"ce4bhp92rcd13ifvqhag","pricing_plan_id":"cebpf4jnsgd1na2vs0mg"},{"bike_id":"dc6d24e2-2777-4e90-a873-656596156e63","system_id":"levelo_inurba_marseille","lat":43.33606,"lon":5.41018,"is_reserved":false,"is_disabled":false,"rental_uris":{"android":"levelo://app?vid=dc6d24e2-2777-4e90-a873-656596156e63","ios":"levelo://app?vid=dc6d24e2-2777-4e90-a873-656596156e63"},"vehicle_type_id":"4","last_reported":1732014505,"current_range_meters":17600,"station_id":"ce4bhqh2rcd13ifvqhmg","pricing_plan_id":"cebpf4jnsgd1na2vs0mg"},{"bike_id":"9130cf08-b660-4a59-baca-2e1ec68f5010","system_id":"levelo_inurba_marseille","lat":43.32655,"lon":5.40993,"is_reserved":false,"is_disabled":false,"rental_uris":{"android":"levelo://app?vid=9130cf08-b660-4a59-baca-2e1ec68f5010","ios":"levelo://app?vid=9130cf08-b660-4a59-baca-2e1ec68f5010"},"vehicle_type_id":"4","last_reported":1732014505,"current_range_meters":38000,"station_id":"ce4bhpp2rcd13ifvqhgg","pricing_plan_id":"cebpf4jnsgd1na2vs0mg"},{"bike_id":"4430c7fe-75c4-4750-ade5-2860cae79f17","system_id":"levelo_inurba_marseille","lat":43.23156,"lon":5.43712,"is_reserved":false,"is_disabled":false,"rental_uris":{"android":"levelo://app?vid=4430c7fe-75c4-4750-ade5-2860cae79f17","ios":"levelo://app?vid=4430c7fe-75c4-4750-ade5-2860cae79f17"},"vehicle_type_id":"4","last_reported":1732014505,"current_range_meters":38800,"station_id":"ce4bhmp2rcd13ifvqgog","pricing_plan_id":"cebpf4jnsgd1na2vs0mg"},{"bike_id":"e264033a-f915-4b27-a08a-2f42cfcf052a","system_id":"levelo_inurba_marseille","lat":43.32768,"lon":5.37507,"is_reserved":false,"is_disabled":false,"rental_uris":{"android":"levelo://app?vid=e264033a-f915-4b27-a08a-2f42cfcf052a","ios":"levelo://app?vid=e264033a-f915-4b27-a08a-2f42cfcf052a"},"vehicle_type_id":"4","last_reported":1732014505,"current_range_meters":36800,"station_id":"","pricing_plan_id":"cebpf4jnsgd1na2vs0mg"},{"bike_id":"affc6a42-c87f-4640-9297-4a4ea6bc3ad3","system_id":"levelo_inurba_marseille","lat":43.29557,"lon":5.42275,"is_reserved":false,"is_disabled":false,"rental_uris":{"android":"levelo://app?vid=affc6a42-c87f-4640-9297-4a4ea6bc3ad3","ios":"levelo://app?vid=affc6a42-c87f-4640-9297-4a4ea6bc3ad3"},"vehicle_type_id":"4","last_reported":1732014505,"current_range_meters":38400,"station_id":"ce4bhph2rcd13ifvqhdg","pricing_plan_id":"cebpf4jnsgd1na2vs0mg"},{"bike_id":"269b0edc-543b-4f96-b4ef-b3bb491c5274","system_id":"levelo_inurba_marseille","lat":43.30419,"lon":5.41281,"is_reserved":false,"is_disabled":false,"rental_uris":{"android":"levelo://app?vid=269b0edc-543b-4f96-b4ef-b3bb491c5274","ios":"levelo://app?vid=269b0edc-543b-4f96-b4ef-b3bb491c5274"},"vehicle_type_id":"4","last_reported":1732014505,"current_range_meters":38400,"station_id":"ce4bhop2rcd13ifvqh8g","pricing_plan_id":"cebpf4jnsgd1na2vs0mg"},{"bike_id":"06eb17a0-0db5-4c99-8229-ab8db105b1c7","system_id":"levelo_inurba_marseille","lat":43.25861,"lon":5.39902,"is_reserved":false,"is_disabled":false,"rental_uris":{"android":"levelo://app?vid=06eb17a0-0db5-4c99-8229-ab8db105b1c7","ios":"levelo://app?vid=06eb17a0-0db5-4c99-8229-ab8db105b1c7"},"vehicle_type_id":"4","last_reported":1732014505,"current_range_meters":30400,"station_id":"ce4bhl92rcd13ifvqghg","pricing_plan_id":"cebpf4jnsgd1na2vs0mg"},{"bike_id":"123862ba-68e2-48f6-a477-31ab9dae8bd5","system_id":"levelo_inurba_marseille","lat":43.337444,"lon":5.374475,"is_reserved":false,"is_disabled":true,"rental_uris":{"android":"levelo://app?vid=123862ba-68e2-48f6-a477-31ab9dae8bd5","ios":"levelo://app?vid=123862ba-68e2-48f6-a477-31ab9dae8bd5"},"vehicle_type_id":"4","last_reported":1732014505,"current_range_meters":16400,"station_id":"","pricing_plan_id":"cebpf4jnsgd1na2vs0mg"},{"bike_id":"25ddf417-8230-4dbc-b38a-2b2cb1ba9d73","system_id":"levelo_inurba_marseille","lat":43.30277,"lon":5.37697,"is_reserved":false,"is_disabled":true,"rental_uris":{"android":"levelo://app?vid=25ddf417-8230-4dbc-b38a-2b2cb1ba9d73","ios":"levelo://app?vid=25ddf417-8230-4dbc-b38a-2b2cb1ba9d73"},"vehicle_type_id":"4","last_reported":1732014505,"current_range_meters":10800,"station_id":"ce4bguh2rcd13ifvqcj0","pricing_plan_id":"cebpf4jnsgd1na2vs0mg"},{"bike_id":"117d9149-0d48-4b4a-bb66-4037de3912fd","system_id":"levelo_inurba_marseille","lat":43.28656,"lon":5.36345,"is_reserved":false,"is_disabled":false,"rental_uris":{"android":"levelo://app?vid=117d9149-0d48-4b4a-bb66-4037de3912fd","ios":"levelo://app?vid=117d9149-0d48-4b4a-bb66-4037de3912fd"},"vehicle_type_id":"4","last_reported":1732014505,"current_range_meters":4000,"station_id":"ce4bhah2rcd13ifvqej0","pricing_plan_id":"cebpf4jnsgd1na2vs0mg"},{"bike_id":"c0414705-628e-4ecb-a390-6a6747dfe975","system_id":"levelo_inurba_marseille","lat":43.3042,"lon":5.36743,"is_reserved":false,"is_disabled":false,"rental_uris":{"android":"levelo://app?vid=c0414705-628e-4ecb-a390-6a6747dfe975","ios":"levelo://app?vid=c0414705-628e-4ecb-a390-6a6747dfe975"},"vehicle_type_id":"4","last_reported":1732014505,"current_range_meters":36400,"station_id":"","pricing_plan_id":"cebpf4jnsgd1na2vs0mg"},{"bike_id":"39e53801-da3e-4c0c-a56f-94942d8ebc7e","system_id":"levelo_inurba_marseille","lat":43.31376,"lon":5.38492,"is_reserved":false,"is_disabled":false,"rental_uris":{"android":"levelo://app?vid=39e53801-da3e-4c0c-a56f-94942d8ebc7e","ios":"levelo://app?vid=39e53801-da3e-4c0c-a56f-94942d8ebc7e"},"vehicle_type_id":"4","last_reported":1732014505,"current_range_meters":38800,"station_id":"ce4bgt92rcd13ifvqcf0","pricing_plan_id":"cebpf4jnsgd1na2vs0mg"},{"bike_id":"7b0fd8f4-d52c-4727-9cb7-797234d970be","system_id":"levelo_inurba_marseille","lat":43.25862,"lon":5.39897,"is_reserved":false,"is_disabled":false,"rental_uris":{"android":"levelo://app?vid=7b0fd8f4-d52c-4727-9cb7-797234d970be","ios":"levelo://app?vid=7b0fd8f4-d52c-4727-9cb7-797234d970be"},"vehicle_type_id":"4","last_reported":1732014505,"current_range_meters":23200,"station_id":"ce4bhl92rcd13ifvqghg","pricing_plan_id":"cebpf4jnsgd1na2vs0mg"},{"bike_id":"ec93ac56-7bc0-4cdf-815b-5a5b3f95e7c4","system_id":"levelo_inurba_marseille","lat":43.30545,"lon":5.36542,"is_reserved":false,"is_disabled":false,"rental_uris":{"android":"levelo://app?vid=ec93ac56-7bc0-4cdf-815b-5a5b3f95e7c4","ios":"levelo://app?vid=ec93ac56-7bc0-4cdf-815b-5a5b3f95e7c4"},"vehicle_type_id":"4","last_reported":1732014505,"current_range_meters":19600,"station_id":"ce4bgs12rcd13ifvqcag","pricing_plan_id":"cebpf4jnsgd1na2vs0mg"},{"bike_id":"5f31086d-f633-4c5d-83a0-c87d63138cb5","system_id":"levelo_inurba_marseille","lat":43.30141,"lon":5.37414,"is_reserved":false,"is_disabled":false,"rental_uris":{"android":"levelo://app?vid=5f31086d-f633-4c5d-83a0-c87d63138cb5","ios":"levelo://app?vid=5f31086d-f633-4c5d-83a0-c87d63138cb5"},"vehicle_type_id":"4","last_reported":1732014505,"current_range_meters":28000,"station_id":"ce4bgs92rcd13ifvqcc0","pricing_plan_id":"cebpf4jnsgd1na2vs0mg"},{"bike_id":"efaa20f7-d2fb-4778-9ca3-b17e9193d440","system_id":"levelo_inurba_marseille","lat":43.3372,"lon":5.39173,"is_reserved":false,"is_disabled":false,"rental_uris":{"android":"levelo://app?vid=efaa20f7-d2fb-4778-9ca3-b17e9193d440","ios":"levelo://app?vid=efaa20f7-d2fb-4778-9ca3-b17e9193d440"},"vehicle_type_id":"4","last_reported":1732014505,"current_range_meters":38800,"station_id":"ce4bhr92rcd13ifvqhsg","pricing_plan_id":"cebpf4jnsgd1na2vs0mg"},{"bike_id":"4b1089fa-7b1e-4c9e-b4cc-042056d6026b","system_id":"levelo_inurba_marseille","lat":43.30208,"lon":5.3946,"is_reserved":false,"is_disabled":true,"rental_uris":{"android":"levelo://app?vid=4b1089fa-7b1e-4c9e-b4cc-042056d6026b","ios":"levelo://app?vid=4b1089fa-7b1e-4c9e-b4cc-042056d6026b"},"vehicle_type_id":"4","last_reported":1732014505,"current_range_meters":28400,"station_id":"ce4bh0p2rcd13ifvqd70","pricing_plan_id":"cebpf4jnsgd1na2vs0mg"},{"bike_id":"d5d93423-8b59-49ff-a38f-f9112bad0624","system_id":"levelo_inurba_marseille","lat":43.23153,"lon":5.43707,"is_reserved":false,"is_disabled":true,"rental_uris":{"android":"levelo://app?vid=d5d93423-8b59-49ff-a38f-f9112bad0624","ios":"levelo://app?vid=d5d93423-8b59-49ff-a38f-f9112bad0624"},"vehicle_type_id":"4","last_reported":1732014505,"current_range_meters":19200,"station_id":"ce4bhmp2rcd13ifvqgog","pricing_plan_id":"cebpf4jnsgd1na2vs0mg"},{"bike_id":"e2f6a0a8-eb6e-492e-a17f-6bde58b9d768","system_id":"levelo_inurba_marseille","lat":43.29846,"lon":5.36274,"is_reserved":false,"is_disabled":false,"rental_uris":{"android":"levelo://app?vid=e2f6a0a8-eb6e-492e-a17f-6bde58b9d768","ios":"levelo://app?vid=e2f6a0a8-eb6e-492e-a17f-6bde58b9d768"},"vehicle_type_id":"4","last_reported":1732014505,"current_range_meters":37600,"station_id":"ce4bgpp2rcd13ifvqc3g","pricing_plan_id":"cebpf4jnsgd1na2vs0mg"},{"bike_id":"cda5d921-6da1-47fc-a138-92315e85d6fc","system_id":"levelo_inurba_marseille","lat":43.28069,"lon":5.39649,"is_reserved":false,"is_disabled":false,"rental_uris":{"android":"levelo://app?vid=cda5d921-6da1-47fc-a138-92315e85d6fc","ios":"levelo://app?vid=cda5d921-6da1-47fc-a138-92315e85d6fc"},"vehicle_type_id":"4","last_reported":1732014505,"current_range_meters":38000,"station_id":"ce4bho12rcd13ifvqh2g","pricing_plan_id":"cebpf4jnsgd1na2vs0mg"},{"bike_id":"fbf50743-a751-4d22-8d7f-9047b9d72787","system_id":"levelo_inurba_marseille","lat":43.33327,"lon":5.41875,"is_reserved":false,"is_disabled":false,"rental_uris":{"android":"levelo://app?vid=fbf50743-a751-4d22-8d7f-9047b9d72787","ios":"levelo://app?vid=fbf50743-a751-4d22-8d7f-9047b9d72787"},"vehicle_type_id":"4","last_reported":1732014505,"current_range_meters":28000,"station_id":"","pricing_plan_id":"cebpf4jnsgd1na2vs0mg"},{"bike_id":"efd2abb9-a969-4f23-9397-40c44098ffb7","system_id":"levelo_inurba_marseille","lat":43.29186,"lon":5.35801,"is_reserved":false,"is_disabled":false,"rental_uris":{"android":"levelo://app?vid=efd2abb9-a969-4f23-9397-40c44098ffb7","ios":"levelo://app?vid=efd2abb9-a969-4f23-9397-40c44098ffb7"},"vehicle_type_id":"4","last_reported":1732014505,"current_range_meters":30800,"station_id":"ce4bhb12rcd13ifvqel0","pricing_plan_id":"cebpf4jnsgd1na2vs0mg"},{"bike_id":"3048e108-c55f-405b-8916-31638314913e","system_id":"levelo_inurba_marseille","lat":43.28261,"lon":5.35066,"is_reserved":false,"is_disabled":false,"rental_uris":{"android":"levelo://app?vid=3048e108-c55f-405b-8916-31638314913e","ios":"levelo://app?vid=3048e108-c55f-405b-8916-31638314913e"},"vehicle_type_id":"4","last_reported":1732014505,"current_range_meters":8800,"station_id":"ce4bhbp2rcd13ifvqerg","pricing_plan_id":"cebpf4jnsgd1na2vs0mg"},{"bike_id":"50dac71f-1291-4d6a-b3cd-1f9bbacc24d5","system_id":"levelo_inurba_marseille","lat":43.28467,"lon":5.38414,"is_reserved":false,"is_disabled":false,"rental_uris":{"android":"levelo://app?vid=50dac71f-1291-4d6a-b3cd-1f9bbacc24d5","ios":"levelo://app?vid=50dac71f-1291-4d6a-b3cd-1f9bbacc24d5"},"vehicle_type_id":"4","last_reported":1732014505,"current_range_meters":9600,"station_id":"ce4bh512rcd13ifvqe3g","pricing_plan_id":"cebpf4jnsgd1na2vs0mg"},{"bike_id":"219656c0-67d1-41e4-acab-237791f01352","system_id":"levelo_inurba_marseille","lat":43.26203,"lon":5.37929,"is_reserved":false,"is_disabled":false,"rental_uris":{"android":"levelo://app?vid=219656c0-67d1-41e4-acab-237791f01352","ios":"levelo://app?vid=219656c0-67d1-41e4-acab-237791f01352"},"vehicle_type_id":"4","last_reported":1732014505,"current_range_meters":14800,"station_id":"ce4bhjp2rcd13ifvqg90","pricing_plan_id":"cebpf4jnsgd1na2vs0mg"},{"bike_id":"e724f48d-7831-4a53-bd1c-2ddf0f9a9faa","system_id":"levelo_inurba_marseille","lat":43.30315,"lon":5.36907,"is_reserved":false,"is_disabled":false,"rental_uris":{"android":"levelo://app?vid=e724f48d-7831-4a53-bd1c-2ddf0f9a9faa","ios":"levelo://app?vid=e724f48d-7831-4a53-bd1c-2ddf0f9a9faa"},"vehicle_type_id":"4","last_reported":1732014505,"current_range_meters":8400,"station_id":"ce4bgqh2rcd13ifvqc5g","pricing_plan_id":"cebpf4jnsgd1na2vs0mg"},{"bike_id":"abb6771c-4def-4b0e-bb37-1f080fc9082c","system_id":"levelo_inurba_marseille","lat":43.29574,"lon":5.37511,"is_reserved":false,"is_disabled":false,"rental_uris":{"android":"levelo://app?vid=abb6771c-4def-4b0e-bb37-1f080fc9082c","ios":"levelo://app?vid=abb6771c-4def-4b0e-bb37-1f080fc9082c"},"vehicle_type_id":"4","last_reported":1732014505,"current_range_meters":35600,"station_id":"ce4bgh92rcd13ifvqb50","pricing_plan_id":"cebpf4jnsgd1na2vs0mg"},{"bike_id":"f0e2f4e5-f602-4a1c-ba1a-aa1d1150f28c","system_id":"levelo_inurba_marseille","lat":43.2963,"lon":5.40601,"is_reserved":false,"is_disabled":true,"rental_uris":{"android":"levelo://app?vid=f0e2f4e5-f602-4a1c-ba1a-aa1d1150f28c","ios":"levelo://app?vid=f0e2f4e5-f602-4a1c-ba1a-aa1d1150f28c"},"vehicle_type_id":"4","last_reported":1732014505,"current_range_meters":38800,"station_id":"ce4bh0h2rcd13ifvqd60","pricing_plan_id":"cebpf4jnsgd1na2vs0mg"},{"bike_id":"f9a8ee78-c6b1-4f65-9e22-f5d1574bd022","system_id":"levelo_inurba_marseille","lat":43.30941,"lon":5.39025,"is_reserved":false,"is_disabled":false,"rental_uris":{"android":"levelo://app?vid=f9a8ee78-c6b1-4f65-9e22-f5d1574bd022","ios":"levelo://app?vid=f9a8ee78-c6b1-4f65-9e22-f5d1574bd022"},"vehicle_type_id":"4","last_reported":1732014505,"current_range_meters":30000,"station_id":"ce4bgup2rcd13ifvqco0","pricing_plan_id":"cebpf4jnsgd1na2vs0mg"},{"bike_id":"81f9fe4a-dfb3-4b4f-8aab-e637efb806dc","system_id":"levelo_inurba_marseille","lat":43.25861,"lon":5.39903,"is_reserved":false,"is_disabled":false,"rental_uris":{"android":"levelo://app?vid=81f9fe4a-dfb3-4b4f-8aab-e637efb806dc","ios":"levelo://app?vid=81f9fe4a-dfb3-4b4f-8aab-e637efb806dc"},"vehicle_type_id":"4","last_reported":1732014505,"current_range_meters":8400,"station_id":"ce4bhl92rcd13ifvqghg","pricing_plan_id":"cebpf4jnsgd1na2vs0mg"},{"bike_id":"03d81797-2d3e-41fb-83d2-92ced9838d9a","system_id":"levelo_inurba_marseille","lat":43.26802,"lon":5.40266,"is_reserved":false,"is_disabled":true,"rental_uris":{"android":"levelo://app?vid=03d81797-2d3e-41fb-83d2-92ced9838d9a","ios":"levelo://app?vid=03d81797-2d3e-41fb-83d2-92ced9838d9a"},"vehicle_type_id":"4","last_reported":1732014505,"current_range_meters":28400,"station_id":"ce501612rcd8frsf0b60","pricing_plan_id":"cebpf4jnsgd1na2vs0mg"},{"bike_id":"e33a3691-cc51-4144-a57a-d483ec05c372","system_id":"levelo_inurba_marseille","lat":43.2799,"lon":5.41656,"is_reserved":false,"is_disabled":false,"rental_uris":{"android":"levelo://app?vid=e33a3691-cc51-4144-a57a-d483ec05c372","ios":"levelo://app?vid=e33a3691-cc51-4144-a57a-d483ec05c372"},"vehicle_type_id":"4","last_reported":1732014505,"current_range_meters":37600,"station_id":"ce4bho12rcd13ifvqh1g","pricing_plan_id":"cebpf4jnsgd1na2vs0mg"},{"bike_id":"7e225853-ea2f-419d-a4b1-862371673496","system_id":"levelo_inurba_marseille","lat":43.26684,"lon":5.38271,"is_reserved":false,"is_disabled":false,"rental_uris":{"android":"levelo://app?vid=7e225853-ea2f-419d-a4b1-862371673496","ios":"levelo://app?vid=7e225853-ea2f-419d-a4b1-862371673496"},"vehicle_type_id":"4","last_reported":1732014505,"current_range_meters":9600,"station_id":"ce4bhg92rcd13ifvqf90","pricing_plan_id":"cebpf4jnsgd1na2vs0mg"},{"bike_id":"33816dd1-f398-4bae-aa29-eb2001275640","system_id":"levelo_inurba_marseille","lat":43.30139,"lon":5.38777,"is_reserved":false,"is_disabled":false,"rental_uris":{"android":"levelo://app?vid=33816dd1-f398-4bae-aa29-eb2001275640","ios":"levelo://app?vid=33816dd1-f398-4bae-aa29-eb2001275640"},"vehicle_type_id":"4","last_reported":1732014505,"current_range_meters":17200,"station_id":"ce4bghh2rcd13ifvqb60","pricing_plan_id":"cebpf4jnsgd1na2vs0mg"},{"bike_id":"4de41581-3b4d-48da-b235-99669862c70a","system_id":"levelo_inurba_marseille","lat":43.29617,"lon":5.37704,"is_reserved":false,"is_disabled":true,"rental_uris":{"android":"levelo://app?vid=4de41581-3b4d-48da-b235-99669862c70a","ios":"levelo://app?vid=4de41581-3b4d-48da-b235-99669862c70a"},"vehicle_type_id":"4","last_reported":1732014505,"current_range_meters":28800,"station_id":"ce4bgi92rcd13ifvqb90","pricing_plan_id":"cebpf4jnsgd1na2vs0mg"},{"bike_id":"2910f69a-6dac-4d69-a60d-e4f1b8cce200","system_id":"levelo_inurba_marseille","lat":43.27816,"lon":5.40719,"is_reserved":false,"is_disabled":true,"rental_uris":{"android":"levelo://app?vid=2910f69a-6dac-4d69-a60d-e4f1b8cce200","ios":"levelo://app?vid=2910f69a-6dac-4d69-a60d-e4f1b8cce200"},"vehicle_type_id":"4","last_reported":1732014505,"current_range_meters":20000,"station_id":"ce4bhnh2rcd13ifvqgtg","pricing_plan_id":"cebpf4jnsgd1na2vs0mg"},{"bike_id":"3d4a8a11-cd8e-4217-a130-2b8f97253671","system_id":"levelo_inurba_marseille","lat":43.30277,"lon":5.377,"is_reserved":false,"is_disabled":false,"rental_uris":{"android":"levelo://app?vid=3d4a8a11-cd8e-4217-a130-2b8f97253671","ios":"levelo://app?vid=3d4a8a11-cd8e-4217-a130-2b8f97253671"},"vehicle_type_id":"4","last_reported":1732014505,"current_range_meters":38800,"station_id":"ce4bguh2rcd13ifvqcj0","pricing_plan_id":"cebpf4jnsgd1na2vs0mg"},{"bike_id":"26e0462d-17a5-4dc7-9e26-89eb13ddbe10","system_id":"levelo_inurba_marseille","lat":43.29092,"lon":5.38134,"is_reserved":false,"is_disabled":false,"rental_uris":{"android":"levelo://app?vid=26e0462d-17a5-4dc7-9e26-89eb13ddbe10","ios":"levelo://app?vid=26e0462d-17a5-4dc7-9e26-89eb13ddbe10"},"vehicle_type_id":"4","last_reported":1732014505,"current_range_meters":28800,"station_id":"ce4bh512rcd13ifvqe2g","pricing_plan_id":"cebpf4jnsgd1na2vs0mg"},{"bike_id":"8a45d354-d5d7-49f6-9288-2e43addcd455","system_id":"levelo_inurba_marseille","lat":43.27988,"lon":5.40019,"is_reserved":false,"is_disabled":false,"rental_uris":{"android":"levelo://app?vid=8a45d354-d5d7-49f6-9288-2e43addcd455","ios":"levelo://app?vid=8a45d354-d5d7-49f6-9288-2e43addcd455"},"vehicle_type_id":"4","last_reported":1732014505,"current_range_meters":30000,"station_id":"ce4bho92rcd13ifvqh4g","pricing_plan_id":"cebpf4jnsgd1na2vs0mg"},{"bike_id":"953bdd78-0286-4c0a-ba2e-04996f889638","system_id":"levelo_inurba_marseille","lat":43.28299,"lon":5.3509,"is_reserved":false,"is_disabled":false,"rental_uris":{"android":"levelo://app?vid=953bdd78-0286-4c0a-ba2e-04996f889638","ios":"levelo://app?vid=953bdd78-0286-4c0a-ba2e-04996f889638"},"vehicle_type_id":"4","last_reported":1732014505,"current_range_meters":31200,"station_id":"ce4bhbp2rcd13ifvqerg","pricing_plan_id":"cebpf4jnsgd1na2vs0mg"},{"bike_id":"85782696-36f2-4c33-98b6-2d88f8670e2c","system_id":"levelo_inurba_marseille","lat":43.31081,"lon":5.42429,"is_reserved":false,"is_disabled":false,"rental_uris":{"android":"levelo://app?vid=85782696-36f2-4c33-98b6-2d88f8670e2c","ios":"levelo://app?vid=85782696-36f2-4c33-98b6-2d88f8670e2c"},"vehicle_type_id":"4","last_reported":1732014505,"current_range_meters":36400,"station_id":"ce4bhp92rcd13ifvqhag","pricing_plan_id":"cebpf4jnsgd1na2vs0mg"},{"bike_id":"657956dc-3143-4f38-b310-9b63040564db","system_id":"levelo_inurba_marseille","lat":43.2936,"lon":5.37834,"is_reserved":false,"is_disabled":false,"rental_uris":{"android":"levelo://app?vid=657956dc-3143-4f38-b310-9b63040564db","ios":"levelo://app?vid=657956dc-3143-4f38-b310-9b63040564db"},"vehicle_type_id":"4","last_reported":1732014505,"current_range_meters":28800,"station_id":"ce4bgjh2rcd13ifvqbf0","pricing_plan_id":"cebpf4jnsgd1na2vs0mg"},{"bike_id":"18f1a81c-38c9-467c-8e10-5388323ab731","system_id":"levelo_inurba_marseille","lat":43.29012,"lon":5.3561,"is_reserved":false,"is_disabled":false,"rental_uris":{"android":"levelo://app?vid=18f1a81c-38c9-467c-8e10-5388323ab731","ios":"levelo://app?vid=18f1a81c-38c9-467c-8e10-5388323ab731"},"vehicle_type_id":"4","last_reported":1732014505,"current_range_meters":36800,"station_id":"ce4bhb92rcd13ifvqen0","pricing_plan_id":"cebpf4jnsgd1na2vs0mg"},{"bike_id":"ed93d17a-07c6-460b-bbb4-ef41bd1d2554","system_id":"levelo_inurba_marseille","lat":43.29798,"lon":5.40403,"is_reserved":false,"is_disabled":false,"rental_uris":{"android":"levelo://app?vid=ed93d17a-07c6-460b-bbb4-ef41bd1d2554","ios":"levelo://app?vid=ed93d17a-07c6-460b-bbb4-ef41bd1d2554"},"vehicle_type_id":"4","last_reported":1732014505,"current_range_meters":37600,"station_id":"ce4bh112rcd13ifvqd90","pricing_plan_id":"cebpf4jnsgd1na2vs0mg"},{"bike_id":"7a1d8a89-2a7e-4939-ab1a-d9cdb7e81301","system_id":"levelo_inurba_marseille","lat":43.2986,"lon":5.36726,"is_reserved":false,"is_disabled":true,"rental_uris":{"android":"levelo://app?vid=7a1d8a89-2a7e-4939-ab1a-d9cdb7e81301","ios":"levelo://app?vid=7a1d8a89-2a7e-4939-ab1a-d9cdb7e81301"},"vehicle_type_id":"4","last_reported":1732014505,"current_range_meters":0,"station_id":"","pricing_plan_id":"cebpf4jnsgd1na2vs0mg"},{"bike_id":"c46435fb-ac45-4251-8f82-c93eda02ef2f","system_id":"levelo_inurba_marseille","lat":43.31077,"lon":5.42432,"is_reserved":false,"is_disabled":false,"rental_uris":{"android":"levelo://app?vid=c46435fb-ac45-4251-8f82-c93eda02ef2f","ios":"levelo://app?vid=c46435fb-ac45-4251-8f82-c93eda02ef2f"},"vehicle_type_id":"4","last_reported":1732014505,"current_range_meters":3200,"station_id":"ce4bhp92rcd13ifvqhag","pricing_plan_id":"cebpf4jnsgd1na2vs0mg"},{"bike_id":"84add0bd-cb10-4dcb-82e1-3da91d21fda0","system_id":"levelo_inurba_marseille","lat":43.29899,"lon":5.43668,"is_reserved":false,"is_disabled":false,"rental_uris":{"android":"levelo://app?vid=84add0bd-cb10-4dcb-82e1-3da91d21fda0","ios":"levelo://app?vid=84add0bd-cb10-4dcb-82e1-3da91d21fda0"},"vehicle_type_id":"4","last_reported":1732014505,"current_range_meters":36800,"station_id":"ce4bhpp2rcd13ifvqhfg","pricing_plan_id":"cebpf4jnsgd1na2vs0mg"},{"bike_id":"201eb862-80c5-4007-aa4f-fb5b61e0031e","system_id":"levelo_inurba_marseille","lat":43.29038,"lon":5.39991,"is_reserved":false,"is_disabled":true,"rental_uris":{"android":"levelo://app?vid=201eb862-80c5-4007-aa4f-fb5b61e0031e","ios":"levelo://app?vid=201eb862-80c5-4007-aa4f-fb5b61e0031e"},"vehicle_type_id":"4","last_reported":1732014505,"current_range_meters":0,"station_id":"ce4bh392rcd13ifvqdm0","pricing_plan_id":"cebpf4jnsgd1na2vs0mg"},{"bike_id":"ac9d2f49-8491-4f64-8df3-f15847cdf648","system_id":"levelo_inurba_marseille","lat":43.29897,"lon":5.3813,"is_reserved":false,"is_disabled":false,"rental_uris":{"android":"levelo://app?vid=ac9d2f49-8491-4f64-8df3-f15847cdf648","ios":"levelo://app?vid=ac9d2f49-8491-4f64-8df3-f15847cdf648"},"vehicle_type_id":"4","last_reported":1732014505,"current_range_meters":38800,"station_id":"ce4bgj12rcd13ifvqbc0","pricing_plan_id":"cebpf4jnsgd1na2vs0mg"},{"bike_id":"7e35deb2-0950-494e-a5fc-48886e723f0a","system_id":"levelo_inurba_marseille","lat":43.290368,"lon":5.37561,"is_reserved":false,"is_disabled":true,"rental_uris":{"android":"levelo://app?vid=7e35deb2-0950-494e-a5fc-48886e723f0a","ios":"levelo://app?vid=7e35deb2-0950-494e-a5fc-48886e723f0a"},"vehicle_type_id":"4","last_reported":1732014505,"current_range_meters":9600,"station_id":"ce4bh692rcd13ifvqe90","pricing_plan_id":"cebpf4jnsgd1na2vs0mg"},{"bike_id":"d482b473-8011-43d1-9203-ef428f8af553","system_id":"levelo_inurba_marseille","lat":43.2955,"lon":5.42285,"is_reserved":false,"is_disabled":false,"rental_uris":{"android":"levelo://app?vid=d482b473-8011-43d1-9203-ef428f8af553","ios":"levelo://app?vid=d482b473-8011-43d1-9203-ef428f8af553"},"vehicle_type_id":"4","last_reported":1732014505,"current_range_meters":26000,"station_id":"ce4bhph2rcd13ifvqhdg","pricing_plan_id":"cebpf4jnsgd1na2vs0mg"},{"bike_id":"39fe7f4c-753f-4ff2-8898-a7e615c9b6d8","system_id":"levelo_inurba_marseille","lat":43.28615,"lon":5.35107,"is_reserved":false,"is_disabled":false,"rental_uris":{"android":"levelo://app?vid=39fe7f4c-753f-4ff2-8898-a7e615c9b6d8","ios":"levelo://app?vid=39fe7f4c-753f-4ff2-8898-a7e615c9b6d8"},"vehicle_type_id":"4","last_reported":1732014505,"current_range_meters":7200,"station_id":"ce4bhch2rcd13ifvqeug","pricing_plan_id":"cebpf4jnsgd1na2vs0mg"},{"bike_id":"cde5eb04-35f5-4971-aec4-8004f9b2dcd9","system_id":"levelo_inurba_marseille","lat":43.28269,"lon":5.35058,"is_reserved":false,"is_disabled":true,"rental_uris":{"android":"levelo://app?vid=cde5eb04-35f5-4971-aec4-8004f9b2dcd9","ios":"levelo://app?vid=cde5eb04-35f5-4971-aec4-8004f9b2dcd9"},"vehicle_type_id":"4","last_reported":1732014505,"current_range_meters":34000,"station_id":"ce4bhbp2rcd13ifvqerg","pricing_plan_id":"cebpf4jnsgd1na2vs0mg"},{"bike_id":"64290b34-f2ad-42f6-b624-e12139fc27c6","system_id":"levelo_inurba_marseille","lat":43.29675,"lon":5.37277,"is_reserved":false,"is_disabled":false,"rental_uris":{"android":"levelo://app?vid=64290b34-f2ad-42f6-b624-e12139fc27c6","ios":"levelo://app?vid=64290b34-f2ad-42f6-b624-e12139fc27c6"},"vehicle_type_id":"4","last_reported":1732014505,"current_range_meters":28800,"station_id":"ce4bgk12rcd13ifvqbj0","pricing_plan_id":"cebpf4jnsgd1na2vs0mg"},{"bike_id":"c285c11f-9b36-4bc2-b2d9-efcee1febd1b","system_id":"levelo_inurba_marseille","lat":43.34144,"lon":5.40903,"is_reserved":false,"is_disabled":false,"rental_uris":{"android":"levelo://app?vid=c285c11f-9b36-4bc2-b2d9-efcee1febd1b","ios":"levelo://app?vid=c285c11f-9b36-4bc2-b2d9-efcee1febd1b"},"vehicle_type_id":"4","last_reported":1732014505,"current_range_meters":16000,"station_id":"ce4bhqh2rcd13ifvqhlg","pricing_plan_id":"cebpf4jnsgd1na2vs0mg"},{"bike_id":"e254c00b-724e-40cd-bead-6b2d4a0bb02b","system_id":"levelo_inurba_marseille","lat":43.24165,"lon":5.36395,"is_reserved":false,"is_disabled":false,"rental_uris":{"android":"levelo://app?vid=e254c00b-724e-40cd-bead-6b2d4a0bb02b","ios":"levelo://app?vid=e254c00b-724e-40cd-bead-6b2d4a0bb02b"},"vehicle_type_id":"4","last_reported":1732014505,"current_range_meters":24400,"station_id":"cpo36qri1sfpv3e86is0","pricing_plan_id":"cebpf4jnsgd1na2vs0mg"},{"bike_id":"2efe941b-376f-4077-b980-9a2d2f1ab422","system_id":"levelo_inurba_marseille","lat":43.30536,"lon":5.36711,"is_reserved":false,"is_disabled":false,"rental_uris":{"android":"levelo://app?vid=2efe941b-376f-4077-b980-9a2d2f1ab422","ios":"levelo://app?vid=2efe941b-376f-4077-b980-9a2d2f1ab422"},"vehicle_type_id":"4","last_reported":1732014505,"current_range_meters":34000,"station_id":"ce4bgrp2rcd13ifvqc9g","pricing_plan_id":"cebpf4jnsgd1na2vs0mg"},{"bike_id":"0e2bbe61-8f31-47ba-b582-6a82d0b052e0","system_id":"levelo_inurba_marseille","lat":43.29019,"lon":5.38344,"is_reserved":false,"is_disabled":false,"rental_uris":{"android":"levelo://app?vid=0e2bbe61-8f31-47ba-b582-6a82d0b052e0","ios":"levelo://app?vid=0e2bbe61-8f31-47ba-b582-6a82d0b052e0"},"vehicle_type_id":"4","last_reported":1732014505,"current_range_meters":28800,"station_id":"ce4bgip2rcd13ifvqbb0","pricing_plan_id":"cebpf4jnsgd1na2vs0mg"},{"bike_id":"c3bc0f64-f384-48a7-9517-04f95522a7e3","system_id":"levelo_inurba_marseille","lat":43.318242,"lon":5.37611,"is_reserved":false,"is_disabled":true,"rental_uris":{"android":"levelo://app?vid=c3bc0f64-f384-48a7-9517-04f95522a7e3","ios":"levelo://app?vid=c3bc0f64-f384-48a7-9517-04f95522a7e3"},"vehicle_type_id":"4","last_reported":1732014505,"current_range_meters":16000,"station_id":"","pricing_plan_id":"cebpf4jnsgd1na2vs0mg"},{"bike_id":"813b0d89-ebe5-4e5a-ab64-cd8bbd90d7fe","system_id":"levelo_inurba_marseille","lat":43.29632,"lon":5.40461,"is_reserved":false,"is_disabled":false,"rental_uris":{"android":"levelo://app?vid=813b0d89-ebe5-4e5a-ab64-cd8bbd90d7fe","ios":"levelo://app?vid=813b0d89-ebe5-4e5a-ab64-cd8bbd90d7fe"},"vehicle_type_id":"4","last_reported":1732014505,"current_range_meters":24400,"station_id":"ce4bh0h2rcd13ifvqd60","pricing_plan_id":"cebpf4jnsgd1na2vs0mg"},{"bike_id":"c3adda95-8823-44a7-ab6f-ce72306eabe1","system_id":"levelo_inurba_marseille","lat":43.27418,"lon":5.39402,"is_reserved":false,"is_disabled":true,"rental_uris":{"android":"levelo://app?vid=c3adda95-8823-44a7-ab6f-ce72306eabe1","ios":"levelo://app?vid=c3adda95-8823-44a7-ab6f-ce72306eabe1"},"vehicle_type_id":"4","last_reported":1732014505,"current_range_meters":37600,"station_id":"ce4bhdp2rcd13ifvqf20","pricing_plan_id":"cebpf4jnsgd1na2vs0mg"},{"bike_id":"0f7d3f82-6b41-4aca-b79e-c6aaeac6d97f","system_id":"levelo_inurba_marseille","lat":43.30545,"lon":5.36689,"is_reserved":false,"is_disabled":true,"rental_uris":{"android":"levelo://app?vid=0f7d3f82-6b41-4aca-b79e-c6aaeac6d97f","ios":"levelo://app?vid=0f7d3f82-6b41-4aca-b79e-c6aaeac6d97f"},"vehicle_type_id":"4","last_reported":1732014505,"current_range_meters":38800,"station_id":"ce4bgrp2rcd13ifvqc9g","pricing_plan_id":"cebpf4jnsgd1na2vs0mg"},{"bike_id":"7e9220d9-e2d6-4886-aaac-9b9710a81880","system_id":"levelo_inurba_marseille","lat":43.29527,"lon":5.37497,"is_reserved":false,"is_disabled":false,"rental_uris":{"android":"levelo://app?vid=7e9220d9-e2d6-4886-aaac-9b9710a81880","ios":"levelo://app?vid=7e9220d9-e2d6-4886-aaac-9b9710a81880"},"vehicle_type_id":"4","last_reported":1732014505,"current_range_meters":22800,"station_id":"ce4bgkp2rcd13ifvqbmg","pricing_plan_id":"cebpf4jnsgd1na2vs0mg"},{"bike_id":"76d06047-6022-43bd-b1fc-c4ae5ef0c8b9","system_id":"levelo_inurba_marseille","lat":43.30273,"lon":5.37694,"is_reserved":false,"is_disabled":false,"rental_uris":{"android":"levelo://app?vid=76d06047-6022-43bd-b1fc-c4ae5ef0c8b9","ios":"levelo://app?vid=76d06047-6022-43bd-b1fc-c4ae5ef0c8b9"},"vehicle_type_id":"4","last_reported":1732014505,"current_range_meters":37600,"station_id":"ce4bguh2rcd13ifvqcj0","pricing_plan_id":"cebpf4jnsgd1na2vs0mg"},{"bike_id":"a696b538-ae22-4c1b-bf38-24206f591d4b","system_id":"levelo_inurba_marseille","lat":43.30091,"lon":5.39067,"is_reserved":false,"is_disabled":false,"rental_uris":{"android":"levelo://app?vid=a696b538-ae22-4c1b-bf38-24206f591d4b","ios":"levelo://app?vid=a696b538-ae22-4c1b-bf38-24206f591d4b"},"vehicle_type_id":"4","last_reported":1732014505,"current_range_meters":39200,"station_id":"ce4bh192rcd13ifvqdb0","pricing_plan_id":"cebpf4jnsgd1na2vs0mg"},{"bike_id":"729f081d-5184-4f31-801f-2b41f23e3a17","system_id":"levelo_inurba_marseille","lat":43.33112,"lon":5.3821,"is_reserved":false,"is_disabled":true,"rental_uris":{"android":"levelo://app?vid=729f081d-5184-4f31-801f-2b41f23e3a17","ios":"levelo://app?vid=729f081d-5184-4f31-801f-2b41f23e3a17"},"vehicle_type_id":"4","last_reported":1732014505,"current_range_meters":34800,"station_id":"","pricing_plan_id":"cebpf4jnsgd1na2vs0mg"},{"bike_id":"638f8d00-ceb3-4062-9f5f-ca647d7df496","system_id":"levelo_inurba_marseille","lat":43.27422,"lon":5.3941,"is_reserved":false,"is_disabled":true,"rental_uris":{"android":"levelo://app?vid=638f8d00-ceb3-4062-9f5f-ca647d7df496","ios":"levelo://app?vid=638f8d00-ceb3-4062-9f5f-ca647d7df496"},"vehicle_type_id":"4","last_reported":1732014505,"current_range_meters":28000,"station_id":"ce4bhdp2rcd13ifvqf20","pricing_plan_id":"cebpf4jnsgd1na2vs0mg"},{"bike_id":"25d784e2-bad5-4648-8abc-849445b4c4c8","system_id":"levelo_inurba_marseille","lat":43.24082,"lon":5.377415,"is_reserved":false,"is_disabled":false,"rental_uris":{"android":"levelo://app?vid=25d784e2-bad5-4648-8abc-849445b4c4c8","ios":"levelo://app?vid=25d784e2-bad5-4648-8abc-849445b4c4c8"},"vehicle_type_id":"4","last_reported":1732014505,"current_range_meters":38800,"station_id":"ce4bhnp2rcd13ifvqgvg","pricing_plan_id":"cebpf4jnsgd1na2vs0mg"},{"bike_id":"4a4eab77-725b-412c-9743-c096390a45fd","system_id":"levelo_inurba_marseille","lat":43.280321,"lon":5.369533,"is_reserved":false,"is_disabled":false,"rental_uris":{"android":"levelo://app?vid=4a4eab77-725b-412c-9743-c096390a45fd","ios":"levelo://app?vid=4a4eab77-725b-412c-9743-c096390a45fd"},"vehicle_type_id":"4","last_reported":1732014505,"current_range_meters":37600,"station_id":"ce4bha12rcd13ifvqef0","pricing_plan_id":"cebpf4jnsgd1na2vs0mg"},{"bike_id":"fc86b385-912d-4c41-84c7-adb8e8df3dc0","system_id":"levelo_inurba_marseille","lat":43.29557,"lon":5.42286,"is_reserved":false,"is_disabled":false,"rental_uris":{"android":"levelo://app?vid=fc86b385-912d-4c41-84c7-adb8e8df3dc0","ios":"levelo://app?vid=fc86b385-912d-4c41-84c7-adb8e8df3dc0"},"vehicle_type_id":"4","last_reported":1732014505,"current_range_meters":18000,"station_id":"ce4bhph2rcd13ifvqhdg","pricing_plan_id":"cebpf4jnsgd1na2vs0mg"},{"bike_id":"fe329a77-e269-4bcf-a39a-93ffd701de4f","system_id":"levelo_inurba_marseille","lat":43.31227,"lon":5.36849,"is_reserved":false,"is_disabled":false,"rental_uris":{"android":"levelo://app?vid=fe329a77-e269-4bcf-a39a-93ffd701de4f","ios":"levelo://app?vid=fe329a77-e269-4bcf-a39a-93ffd701de4f"},"vehicle_type_id":"4","last_reported":1732014505,"current_range_meters":16800,"station_id":"ce4bgl92rcd13ifvqbq0","pricing_plan_id":"cebpf4jnsgd1na2vs0mg"},{"bike_id":"f9f9dba0-efee-416d-9533-78f43fc97c56","system_id":"levelo_inurba_marseille","lat":43.30313,"lon":5.36905,"is_reserved":false,"is_disabled":false,"rental_uris":{"android":"levelo://app?vid=f9f9dba0-efee-416d-9533-78f43fc97c56","ios":"levelo://app?vid=f9f9dba0-efee-416d-9533-78f43fc97c56"},"vehicle_type_id":"4","last_reported":1732014505,"current_range_meters":32800,"station_id":"ce4bgqh2rcd13ifvqc5g","pricing_plan_id":"cebpf4jnsgd1na2vs0mg"},{"bike_id":"3d25d818-80cf-415a-996a-afc2d01ce97b","system_id":"levelo_inurba_marseille","lat":43.27792,"lon":5.40721,"is_reserved":false,"is_disabled":false,"rental_uris":{"android":"levelo://app?vid=3d25d818-80cf-415a-996a-afc2d01ce97b","ios":"levelo://app?vid=3d25d818-80cf-415a-996a-afc2d01ce97b"},"vehicle_type_id":"4","last_reported":1732014505,"current_range_meters":16400,"station_id":"ce4bhnh2rcd13ifvqgtg","pricing_plan_id":"cebpf4jnsgd1na2vs0mg"},{"bike_id":"dedebdd2-49f9-4684-8717-873da2e93054","system_id":"levelo_inurba_marseille","lat":43.23152,"lon":5.43718,"is_reserved":false,"is_disabled":false,"rental_uris":{"android":"levelo://app?vid=dedebdd2-49f9-4684-8717-873da2e93054","ios":"levelo://app?vid=dedebdd2-49f9-4684-8717-873da2e93054"},"vehicle_type_id":"4","last_reported":1732014505,"current_range_meters":22400,"station_id":"ce4bhmp2rcd13ifvqgog","pricing_plan_id":"cebpf4jnsgd1na2vs0mg"},{"bike_id":"64ed23a0-3533-4dca-8fb9-650aaf2586c1","system_id":"levelo_inurba_marseille","lat":43.31721,"lon":5.42406,"is_reserved":false,"is_disabled":false,"rental_uris":{"android":"levelo://app?vid=64ed23a0-3533-4dca-8fb9-650aaf2586c1","ios":"levelo://app?vid=64ed23a0-3533-4dca-8fb9-650aaf2586c1"},"vehicle_type_id":"4","last_reported":1732014505,"current_range_meters":38800,"station_id":"ce4bhp92rcd13ifvqhbg","pricing_plan_id":"cebpf4jnsgd1na2vs0mg"},{"bike_id":"af2da3a5-6965-4165-bd28-0df0136df526","system_id":"levelo_inurba_marseille","lat":43.26198,"lon":5.37926,"is_reserved":false,"is_disabled":false,"rental_uris":{"android":"levelo://app?vid=af2da3a5-6965-4165-bd28-0df0136df526","ios":"levelo://app?vid=af2da3a5-6965-4165-bd28-0df0136df526"},"vehicle_type_id":"4","last_reported":1732014505,"current_range_meters":14000,"station_id":"ce4bhjp2rcd13ifvqg90","pricing_plan_id":"cebpf4jnsgd1na2vs0mg"},{"bike_id":"5fbaf450-90c7-416c-a9b6-8e3b3003c75c","system_id":"levelo_inurba_marseille","lat":43.32481,"lon":5.36574,"is_reserved":false,"is_disabled":false,"rental_uris":{"android":"levelo://app?vid=5fbaf450-90c7-416c-a9b6-8e3b3003c75c","ios":"levelo://app?vid=5fbaf450-90c7-416c-a9b6-8e3b3003c75c"},"vehicle_type_id":"4","last_reported":1732014505,"current_range_meters":39200,"station_id":"ce4bhs12rcd13ifvqhvg","pricing_plan_id":"cebpf4jnsgd1na2vs0mg"},{"bike_id":"f43a8b99-5b07-49f5-a70f-a74da4f8ce4f","system_id":"levelo_inurba_marseille","lat":43.29899,"lon":5.43657,"is_reserved":false,"is_disabled":false,"rental_uris":{"android":"levelo://app?vid=f43a8b99-5b07-49f5-a70f-a74da4f8ce4f","ios":"levelo://app?vid=f43a8b99-5b07-49f5-a70f-a74da4f8ce4f"},"vehicle_type_id":"4","last_reported":1732014505,"current_range_meters":38800,"station_id":"ce4bhpp2rcd13ifvqhfg","pricing_plan_id":"cebpf4jnsgd1na2vs0mg"},{"bike_id":"bc8c853c-1c3a-42b9-baf4-b3ad23c53ea7","system_id":"levelo_inurba_marseille","lat":43.30878,"lon":5.39661,"is_reserved":false,"is_disabled":false,"rental_uris":{"android":"levelo://app?vid=bc8c853c-1c3a-42b9-baf4-b3ad23c53ea7","ios":"levelo://app?vid=bc8c853c-1c3a-42b9-baf4-b3ad23c53ea7"},"vehicle_type_id":"4","last_reported":1732014505,"current_range_meters":30800,"station_id":"ce4bh012rcd13ifvqcv0","pricing_plan_id":"cebpf4jnsgd1na2vs0mg"},{"bike_id":"d1018e3f-f587-4bfe-b612-35d708724ba4","system_id":"levelo_inurba_marseille","lat":43.29526,"lon":5.38534,"is_reserved":false,"is_disabled":false,"rental_uris":{"android":"levelo://app?vid=d1018e3f-f587-4bfe-b612-35d708724ba4","ios":"levelo://app?vid=d1018e3f-f587-4bfe-b612-35d708724ba4"},"vehicle_type_id":"4","last_reported":1732014505,"current_range_meters":16400,"station_id":"ce4bgih2rcd13ifvqba0","pricing_plan_id":"cebpf4jnsgd1na2vs0mg"},{"bike_id":"4df36341-8ff6-4bdc-a7b7-2ed3f961e0f1","system_id":"levelo_inurba_marseille","lat":43.2973,"lon":5.37682,"is_reserved":false,"is_disabled":false,"rental_uris":{"android":"levelo://app?vid=4df36341-8ff6-4bdc-a7b7-2ed3f961e0f1","ios":"levelo://app?vid=4df36341-8ff6-4bdc-a7b7-2ed3f961e0f1"},"vehicle_type_id":"4","last_reported":1732014505,"current_range_meters":32800,"station_id":"ce4bgkh2rcd13ifvqbl0","pricing_plan_id":"cebpf4jnsgd1na2vs0mg"},{"bike_id":"6fad3aed-55cd-4c54-b4c1-f7ce9c631195","system_id":"levelo_inurba_marseille","lat":43.29786,"lon":5.38115,"is_reserved":false,"is_disabled":true,"rental_uris":{"android":"levelo://app?vid=6fad3aed-55cd-4c54-b4c1-f7ce9c631195","ios":"levelo://app?vid=6fad3aed-55cd-4c54-b4c1-f7ce9c631195"},"vehicle_type_id":"4","last_reported":1732014505,"current_range_meters":32800,"station_id":"ce4bgip2rcd13ifvqbb0","pricing_plan_id":"cebpf4jnsgd1na2vs0mg"},{"bike_id":"39f331e2-b8f7-4352-bff3-214d7fcd5695","system_id":"levelo_inurba_marseille","lat":43.23146,"lon":5.43714,"is_reserved":false,"is_disabled":false,"rental_uris":{"android":"levelo://app?vid=39f331e2-b8f7-4352-bff3-214d7fcd5695","ios":"levelo://app?vid=39f331e2-b8f7-4352-bff3-214d7fcd5695"},"vehicle_type_id":"4","last_reported":1732014505,"current_range_meters":38800,"station_id":"ce4bhmp2rcd13ifvqgog","pricing_plan_id":"cebpf4jnsgd1na2vs0mg"},{"bike_id":"3f67ff4f-5fd7-41fb-9a29-97a242097083","system_id":"levelo_inurba_marseille","lat":43.26675,"lon":5.38265,"is_reserved":false,"is_disabled":false,"rental_uris":{"android":"levelo://app?vid=3f67ff4f-5fd7-41fb-9a29-97a242097083","ios":"levelo://app?vid=3f67ff4f-5fd7-41fb-9a29-97a242097083"},"vehicle_type_id":"4","last_reported":1732014505,"current_range_meters":38400,"station_id":"ce4bhg92rcd13ifvqf90","pricing_plan_id":"cebpf4jnsgd1na2vs0mg"},{"bike_id":"2ea339fe-ce20-42e8-816a-6f6a7767c297","system_id":"levelo_inurba_marseille","lat":43.24085,"lon":5.37751,"is_reserved":false,"is_disabled":false,"rental_uris":{"android":"levelo://app?vid=2ea339fe-ce20-42e8-816a-6f6a7767c297","ios":"levelo://app?vid=2ea339fe-ce20-42e8-816a-6f6a7767c297"},"vehicle_type_id":"4","last_reported":1732014505,"current_range_meters":26000,"station_id":"ce4bhnp2rcd13ifvqgvg","pricing_plan_id":"cebpf4jnsgd1na2vs0mg"},{"bike_id":"ea209b13-e22c-4edc-a09d-f7acc6f816d5","system_id":"levelo_inurba_marseille","lat":43.26803,"lon":5.40255,"is_reserved":false,"is_disabled":false,"rental_uris":{"android":"levelo://app?vid=ea209b13-e22c-4edc-a09d-f7acc6f816d5","ios":"levelo://app?vid=ea209b13-e22c-4edc-a09d-f7acc6f816d5"},"vehicle_type_id":"4","last_reported":1732014505,"current_range_meters":18800,"station_id":"ce501612rcd8frsf0b60","pricing_plan_id":"cebpf4jnsgd1na2vs0mg"},{"bike_id":"5255b814-bb69-4973-8e8d-1bec79b72549","system_id":"levelo_inurba_marseille","lat":43.29869,"lon":5.39743,"is_reserved":false,"is_disabled":false,"rental_uris":{"android":"levelo://app?vid=5255b814-bb69-4973-8e8d-1bec79b72549","ios":"levelo://app?vid=5255b814-bb69-4973-8e8d-1bec79b72549"},"vehicle_type_id":"4","last_reported":1732014505,"current_range_meters":32000,"station_id":"ce4bh0h2rcd13ifvqd50","pricing_plan_id":"cebpf4jnsgd1na2vs0mg"},{"bike_id":"388eebb2-2bb5-4f37-a474-814327f853aa","system_id":"levelo_inurba_marseille","lat":43.28705,"lon":5.39995,"is_reserved":false,"is_disabled":false,"rental_uris":{"android":"levelo://app?vid=388eebb2-2bb5-4f37-a474-814327f853aa","ios":"levelo://app?vid=388eebb2-2bb5-4f37-a474-814327f853aa"},"vehicle_type_id":"4","last_reported":1732014505,"current_range_meters":19600,"station_id":"ce4bho92rcd13ifvqh3g","pricing_plan_id":"cebpf4jnsgd1na2vs0mg"},{"bike_id":"121f8c61-7b63-45b5-9f2b-ef4e82809c10","system_id":"levelo_inurba_marseille","lat":43.30119,"lon":5.38039,"is_reserved":false,"is_disabled":false,"rental_uris":{"android":"levelo://app?vid=121f8c61-7b63-45b5-9f2b-ef4e82809c10","ios":"levelo://app?vid=121f8c61-7b63-45b5-9f2b-ef4e82809c10"},"vehicle_type_id":"4","last_reported":1732014505,"current_range_meters":37600,"station_id":"ce4bgjp2rcd13ifvqbh0","pricing_plan_id":"cebpf4jnsgd1na2vs0mg"},{"bike_id":"9044f75c-15b5-4f34-bbd2-226c9f41adac","system_id":"levelo_inurba_marseille","lat":43.27609,"lon":5.36116,"is_reserved":false,"is_disabled":true,"rental_uris":{"android":"levelo://app?vid=9044f75c-15b5-4f34-bbd2-226c9f41adac","ios":"levelo://app?vid=9044f75c-15b5-4f34-bbd2-226c9f41adac"},"vehicle_type_id":"4","last_reported":1732014505,"current_range_meters":34000,"station_id":"ce4bgj92rcd13ifvqbe0","pricing_plan_id":"cebpf4jnsgd1na2vs0mg"},{"bike_id":"20fd208c-e648-4ab9-a9f7-6ef6345b465e","system_id":"levelo_inurba_marseille","lat":43.29847,"lon":5.36284,"is_reserved":false,"is_disabled":false,"rental_uris":{"android":"levelo://app?vid=20fd208c-e648-4ab9-a9f7-6ef6345b465e","ios":"levelo://app?vid=20fd208c-e648-4ab9-a9f7-6ef6345b465e"},"vehicle_type_id":"4","last_reported":1732014505,"current_range_meters":8000,"station_id":"ce4bgpp2rcd13ifvqc3g","pricing_plan_id":"cebpf4jnsgd1na2vs0mg"},{"bike_id":"e03a06b6-df6d-487f-8834-4cdb03f56f47","system_id":"levelo_inurba_marseille","lat":43.28126,"lon":5.44069,"is_reserved":false,"is_disabled":true,"rental_uris":{"android":"levelo://app?vid=e03a06b6-df6d-487f-8834-4cdb03f56f47","ios":"levelo://app?vid=e03a06b6-df6d-487f-8834-4cdb03f56f47"},"vehicle_type_id":"4","last_reported":1732014505,"current_range_meters":0,"station_id":"","pricing_plan_id":"cebpf4jnsgd1na2vs0mg"},{"bike_id":"f5557847-0cf1-4ada-bcd6-c7726194655d","system_id":"levelo_inurba_marseille","lat":43.33758,"lon":5.37425,"is_reserved":false,"is_disabled":false,"rental_uris":{"android":"levelo://app?vid=f5557847-0cf1-4ada-bcd6-c7726194655d","ios":"levelo://app?vid=f5557847-0cf1-4ada-bcd6-c7726194655d"},"vehicle_type_id":"4","last_reported":1732014505,"current_range_meters":38400,"station_id":"","pricing_plan_id":"cebpf4jnsgd1na2vs0mg"},{"bike_id":"68261e42-7700-4884-8254-47d633b32523","system_id":"levelo_inurba_marseille","lat":43.29574,"lon":5.37505,"is_reserved":false,"is_disabled":false,"rental_uris":{"android":"levelo://app?vid=68261e42-7700-4884-8254-47d633b32523","ios":"levelo://app?vid=68261e42-7700-4884-8254-47d633b32523"},"vehicle_type_id":"4","last_reported":1732014505,"current_range_meters":39200,"station_id":"ce4bgh92rcd13ifvqb50","pricing_plan_id":"cebpf4jnsgd1na2vs0mg"},{"bike_id":"46b1918d-a4a0-4410-8bba-1bb0c06139d1","system_id":"levelo_inurba_marseille","lat":43.30542,"lon":5.3669,"is_reserved":false,"is_disabled":false,"rental_uris":{"android":"levelo://app?vid=46b1918d-a4a0-4410-8bba-1bb0c06139d1","ios":"levelo://app?vid=46b1918d-a4a0-4410-8bba-1bb0c06139d1"},"vehicle_type_id":"4","last_reported":1732014505,"current_range_meters":19200,"station_id":"ce4bgrp2rcd13ifvqc9g","pricing_plan_id":"cebpf4jnsgd1na2vs0mg"},{"bike_id":"87a1679d-aa59-41b4-bd56-bc5165abd16a","system_id":"levelo_inurba_marseille","lat":43.27901,"lon":5.38006,"is_reserved":false,"is_disabled":true,"rental_uris":{"android":"levelo://app?vid=87a1679d-aa59-41b4-bd56-bc5165abd16a","ios":"levelo://app?vid=87a1679d-aa59-41b4-bd56-bc5165abd16a"},"vehicle_type_id":"4","last_reported":1732014505,"current_range_meters":0,"station_id":"","pricing_plan_id":"cebpf4jnsgd1na2vs0mg"},{"bike_id":"490c535f-e8e9-44f4-be3f-8be780eb027a","system_id":"levelo_inurba_marseille","lat":43.27949,"lon":5.41043,"is_reserved":false,"is_disabled":false,"rental_uris":{"android":"levelo://app?vid=490c535f-e8e9-44f4-be3f-8be780eb027a","ios":"levelo://app?vid=490c535f-e8e9-44f4-be3f-8be780eb027a"},