{"last_updated":1740586331,"ttl":60,"version":"2.2","data":{"bikes":[{"bike_id":"5be1b761-3a66-4755-9809-db36bf627fd5","system_id":"levelo_inurba_marseille","lat":43.29977,"lon":5.38494,"is_reserved":false,"is_disabled":false,"rental_uris":{"android":"levelo://app?vid=5be1b761-3a66-4755-9809-db36bf627fd5","ios":"levelo://app?vid=5be1b761-3a66-4755-9809-db36bf627fd5"},"vehicle_type_id":"4","last_reported":1740586331,"current_range_meters":2800,"station_id":"ce4bgj92rcd13ifvqbd0","pricing_plan_id":"cebpf4jnsgd1na2vs0mg"},{"bike_id":"8af2705b-c60b-4eee-b9e5-8fb442a06131","system_id":"levelo_inurba_marseille","lat":43.30435,"lon":5.38893,"is_reserved":false,"is_disabled":false,"rental_uris":{"android":"levelo://app?vid=8af2705b-c60b-4eee-b9e5-8fb442a06131","ios":"levelo://app?vid=8af2705b-c60b-4eee-b9e5-8fb442a06131"},"vehicle_type_id":"4","last_reported":1740586331,"current_range_meters":2000,"station_id":"ce4bgk12rcd13ifvqbi0","pricing_plan_id":"cebpf4jnsgd1na2vs0mg"},{"bike_id":"8fb42d55-ce42-48d8-ae7f-5b20b0348403","system_id":"levelo_inurba_marseille","lat":43.27619,"lon":5.36119,"is_reserved":false,"is_disabled":false,"rental_uris":{"android":"levelo://app?vid=8fb42d55-ce42-48d8-ae7f-5b20b0348403","ios":"levelo://app?vid=8fb42d55-ce42-48d8-ae7f-5b20b0348403"},"vehicle_type_id":"4","last_reported":1740586331,"current_range_meters":2800,"station_id":"ce4bgj92rcd13ifvqbe0","pricing_plan_id":"cebpf4jnsgd1na2vs0mg"},{"bike_id":"8e3e39cb-b229-40ed-9e69-1b7ae8d7dd12","system_id":"levelo_inurba_marseille","lat":43.29867,"lon":5.39738,"is_reserved":false,"is_disabled":false,"rental_uris":{"android":"levelo://app?vid=8e3e39cb-b229-40ed-9e69-1b7ae8d7dd12","ios":"levelo://app?vid=8e3e39cb-b229-40ed-9e69-1b7ae8d7dd12"},"vehicle_type_id":"4","last_reported":1740586331,"current_range_meters":2000,"station_id":"ce4bh0h2rcd13ifvqd50","pricing_plan_id":"cebpf4jnsgd1na2vs0mg"},{"bike_id":"662e32d2-2242-4f3e-b467-f2f3ee803384","system_id":"levelo_inurba_marseille","lat":43.29575,"lon":5.3999,"is_reserved":false,"is_disabled":false,"rental_uris":{"android":"levelo://app?vid=662e32d2-2242-4f3e-b467-f2f3ee803384","ios":"levelo://app?vid=662e32d2-2242-4f3e-b467-f2f3ee803384"},"vehicle_type_id":"4","last_reported":1740586331,"current_range_meters":3200,"station_id":"ce4bh312rcd13ifvqdj0","pricing_plan_id":"cebpf4jnsgd1na2vs0mg"},{"bike_id":"b1390c52-917d-4eb2-9a5a-de5ed9ba5ddc","system_id":"levelo_inurba_marseille","lat":43.298963,"lon":5.436643,"is_reserved":false,"is_disabled":false,"rental_uris":{"android":"levelo://app?vid=b1390c52-917d-4eb2-9a5a-de5ed9ba5ddc","ios":"levelo://app?vid=b1390c52-917d-4eb2-9a5a-de5ed9ba5ddc"},"vehicle_type_id":"4","last_reported":1740586331,"current_range_meters":3200,"station_id":"ce4bhpp2rcd13ifvqhfg","pricing_plan_id":"cebpf4jnsgd1na2vs0mg"},{"bike_id":"37772d0a-30df-46d9-9637-49d77908e3b0","system_id":"levelo_inurba_marseille","lat":43.29422,"lon":5.3863,"is_reserved":false,"is_disabled":false,"rental_uris":{"android":"levelo://app?vid=37772d0a-30df-46d9-9637-49d77908e3b0","ios":"levelo://app?vid=37772d0a-30df-46d9-9637-49d77908e3b0"},"vehicle_type_id":"4","last_reported":1740586331,"current_range_meters":4000,"station_id":"ce4bh2h2rcd13ifvqdh0","pricing_plan_id":"cebpf4jnsgd1na2vs0mg"},{"bike_id":"9dddb1e0-e67e-4e90-b84a-eeafc6eee4ce","system_id":"levelo_inurba_marseille","lat":43.25578,"lon":5.38247,"is_reserved":false,"is_disabled":false,"rental_uris":{"android":"levelo://app?vid=9dddb1e0-e67e-4e90-b84a-eeafc6eee4ce","ios":"levelo://app?vid=9dddb1e0-e67e-4e90-b84a-eeafc6eee4ce"},"vehicle_type_id":"4","last_reported":1740586331,"current_range_meters":4000,"station_id":"ce4bhih2rcd13ifvqfs0","pricing_plan_id":"cebpf4jnsgd1na2vs0mg"},{"bike_id":"05dd6ac9-ddce-40b1-8f47-5e548a66fa62","system_id":"levelo_inurba_marseille","lat":43.28679,"lon":5.38666,"is_reserved":false,"is_disabled":false,"rental_uris":{"android":"levelo://app?vid=05dd6ac9-ddce-40b1-8f47-5e548a66fa62","ios":"levelo://app?vid=05dd6ac9-ddce-40b1-8f47-5e548a66fa62"},"vehicle_type_id":"4","last_reported":1740586331,"current_range_meters":3200,"station_id":"ce4bh492rcd13ifvqdug","pricing_plan_id":"cebpf4jnsgd1na2vs0mg"},{"bike_id":"e8a89265-ca27-4266-a7a5-c50d6d8cdd5f","system_id":"levelo_inurba_marseille","lat":43.26554,"lon":5.37288,"is_reserved":false,"is_disabled":false,"rental_uris":{"android":"levelo://app?vid=e8a89265-ca27-4266-a7a5-c50d6d8cdd5f","ios":"levelo://app?vid=e8a89265-ca27-4266-a7a5-c50d6d8cdd5f"},"vehicle_type_id":"4","last_reported":1740586331,"current_range_meters":4400,"station_id":"ce4bhg12rcd13ifvqf70","pricing_plan_id":"cebpf4jnsgd1na2vs0mg"},{"bike_id":"76130f8f-ddbd-403e-ad7f-80397995e3bc","system_id":"levelo_inurba_marseille","lat":43.31762,"lon":5.39014,"is_reserved":false,"is_disabled":false,"rental_uris":{"android":"levelo://app?vid=76130f8f-ddbd-403e-ad7f-80397995e3bc","ios":"levelo://app?vid=76130f8f-ddbd-403e-ad7f-80397995e3bc"},"vehicle_type_id":"4","last_reported":1740586331,"current_range_meters":4400,"station_id":"ce4bhqp2rcd13ifvqhng","pricing_plan_id":"cebpf4jnsgd1na2vs0mg"},{"bike_id":"d781153a-e0bd-4f05-85a8-8589fd9aa21a","system_id":"levelo_inurba_marseille","lat":43.32103,"lon":5.36787,"is_reserved":false,"is_disabled":false,"rental_uris":{"android":"levelo://app?vid=d781153a-e0bd-4f05-85a8-8589fd9aa21a","ios":"levelo://app?vid=d781153a-e0bd-4f05-85a8-8589fd9aa21a"},"vehicle_type_id":"4","last_reported":1740586331,"current_range_meters":4400,"station_id":"ce4bhrh2rcd13ifvqhug","pricing_plan_id":"cebpf4jnsgd1na2vs0mg"},{"bike_id":"7233282c-a615-4355-8e9c-c284d722732e","system_id":"levelo_inurba_marseille","lat":43.29843,"lon":5.36276,"is_reserved":false,"is_disabled":false,"rental_uris":{"android":"levelo://app?vid=7233282c-a615-4355-8e9c-c284d722732e","ios":"levelo://app?vid=7233282c-a615-4355-8e9c-c284d722732e"},"vehicle_type_id":"4","last_reported":1740586331,"current_range_meters":5600,"station_id":"ce4bgpp2rcd13ifvqc3g","pricing_plan_id":"cebpf4jnsgd1na2vs0mg"},{"bike_id":"3ef40e55-4ddf-4482-bed5-92321bad917e","system_id":"levelo_inurba_marseille","lat":43.2872,"lon":5.39957,"is_reserved":false,"is_disabled":false,"rental_uris":{"android":"levelo://app?vid=3ef40e55-4ddf-4482-bed5-92321bad917e","ios":"levelo://app?vid=3ef40e55-4ddf-4482-bed5-92321bad917e"},"vehicle_type_id":"4","last_reported":1740586331,"current_range_meters":5600,"station_id":"ce4bho92rcd13ifvqh3g","pricing_plan_id":"cebpf4jnsgd1na2vs0mg"},{"bike_id":"2aeedb14-4438-49e1-9f3e-99e21c5f7932","system_id":"levelo_inurba_marseille","lat":43.29973,"lon":5.37175,"is_reserved":false,"is_disabled":false,"rental_uris":{"android":"levelo://app?vid=2aeedb14-4438-49e1-9f3e-99e21c5f7932","ios":"levelo://app?vid=2aeedb14-4438-49e1-9f3e-99e21c5f7932"},"vehicle_type_id":"4","last_reported":1740586331,"current_range_meters":6000,"station_id":"ce4bgr92rcd13ifvqc7g","pricing_plan_id":"cebpf4jnsgd1na2vs0mg"},{"bike_id":"02cecdf5-e0d8-4cc2-bf21-45c95bf9cc80","system_id":"levelo_inurba_marseille","lat":43.27903,"lon":5.3961,"is_reserved":false,"is_disabled":false,"rental_uris":{"android":"levelo://app?vid=02cecdf5-e0d8-4cc2-bf21-45c95bf9cc80","ios":"levelo://app?vid=02cecdf5-e0d8-4cc2-bf21-45c95bf9cc80"},"vehicle_type_id":"4","last_reported":1740586331,"current_range_meters":6000,"station_id":"ce4bhf92rcd13ifvqf40","pricing_plan_id":"cebpf4jnsgd1na2vs0mg"},{"bike_id":"4242ac5b-27c1-4aec-9f82-2fac9f8c98d2","system_id":"levelo_inurba_marseille","lat":43.28715,"lon":5.37387,"is_reserved":false,"is_disabled":false,"rental_uris":{"android":"levelo://app?vid=4242ac5b-27c1-4aec-9f82-2fac9f8c98d2","ios":"levelo://app?vid=4242ac5b-27c1-4aec-9f82-2fac9f8c98d2"},"vehicle_type_id":"4","last_reported":1740586331,"current_range_meters":3600,"station_id":"ce4bh3p2rcd13ifvqdq0","pricing_plan_id":"cebpf4jnsgd1na2vs0mg"},{"bike_id":"1f369cdd-8cca-4341-8813-01dfbcd6f804","system_id":"levelo_inurba_marseille","lat":43.270698,"lon":5.422752,"is_reserved":false,"is_disabled":false,"rental_uris":{"android":"levelo://app?vid=1f369cdd-8cca-4341-8813-01dfbcd6f804","ios":"levelo://app?vid=1f369cdd-8cca-4341-8813-01dfbcd6f804"},"vehicle_type_id":"4","last_reported":1740586331,"current_range_meters":6400,"station_id":"ce4bhk92rcd13ifvqgb0","pricing_plan_id":"cebpf4jnsgd1na2vs0mg"},{"bike_id":"e5c275a2-a964-47d8-9489-ed1126cf4cef","system_id":"levelo_inurba_marseille","lat":43.29614,"lon":5.37906,"is_reserved":false,"is_disabled":false,"rental_uris":{"android":"levelo://app?vid=e5c275a2-a964-47d8-9489-ed1126cf4cef","ios":"levelo://app?vid=e5c275a2-a964-47d8-9489-ed1126cf4cef"},"vehicle_type_id":"4","last_reported":1740586331,"current_range_meters":6400,"station_id":"","pricing_plan_id":"cebpf4jnsgd1na2vs0mg"},{"bike_id":"24a8cee3-b60a-461d-954c-54ff092724df","system_id":"levelo_inurba_marseille","lat":43.2319,"lon":5.35563,"is_reserved":false,"is_disabled":false,"rental_uris":{"android":"levelo://app?vid=24a8cee3-b60a-461d-954c-54ff092724df","ios":"levelo://app?vid=24a8cee3-b60a-461d-954c-54ff092724df"},"vehicle_type_id":"4","last_reported":1740586331,"current_range_meters":6400,"station_id":"ce4bhu92rcd13ifvqi70","pricing_plan_id":"cebpf4jnsgd1na2vs0mg"},{"bike_id":"a5c2538e-12fb-48e2-b6c1-42d786af3c60","system_id":"levelo_inurba_marseille","lat":43.31483,"lon":5.3731,"is_reserved":false,"is_disabled":false,"rental_uris":{"android":"levelo://app?vid=a5c2538e-12fb-48e2-b6c1-42d786af3c60","ios":"levelo://app?vid=a5c2538e-12fb-48e2-b6c1-42d786af3c60"},"vehicle_type_id":"4","last_reported":1740586331,"current_range_meters":6400,"station_id":"ce4bgt12rcd13ifvqcd0","pricing_plan_id":"cebpf4jnsgd1na2vs0mg"},{"bike_id":"7bfe7e77-dd01-4511-aebe-fcccf67177dc","system_id":"levelo_inurba_marseille","lat":43.26197,"lon":5.37453,"is_reserved":false,"is_disabled":false,"rental_uris":{"android":"levelo://app?vid=7bfe7e77-dd01-4511-aebe-fcccf67177dc","ios":"levelo://app?vid=7bfe7e77-dd01-4511-aebe-fcccf67177dc"},"vehicle_type_id":"4","last_reported":1740586331,"current_range_meters":3200,"station_id":"ce4bhgp2rcd13ifvqfc0","pricing_plan_id":"cebpf4jnsgd1na2vs0mg"},{"bike_id":"988ca7fe-fc24-4451-ad3a-321c86962fd9","system_id":"levelo_inurba_marseille","lat":43.26562,"lon":5.39015,"is_reserved":false,"is_disabled":false,"rental_uris":{"android":"levelo://app?vid=988ca7fe-fc24-4451-ad3a-321c86962fd9","ios":"levelo://app?vid=988ca7fe-fc24-4451-ad3a-321c86962fd9"},"vehicle_type_id":"4","last_reported":1740586331,"current_range_meters":6800,"station_id":"ce4bhe12rcd13ifvqf30","pricing_plan_id":"cebpf4jnsgd1na2vs0mg"},{"bike_id":"77d72656-ec37-44f1-ab2b-c05ee9e3e3e9","system_id":"levelo_inurba_marseille","lat":43.29272,"lon":5.37568,"is_reserved":false,"is_disabled":false,"rental_uris":{"android":"levelo://app?vid=77d72656-ec37-44f1-ab2b-c05ee9e3e3e9","ios":"levelo://app?vid=77d72656-ec37-44f1-ab2b-c05ee9e3e3e9"},"vehicle_type_id":"4","last_reported":1740586331,"current_range_meters":6800,"station_id":"","pricing_plan_id":"cebpf4jnsgd1na2vs0mg"},{"bike_id":"411b5315-e03f-43f4-b5cd-9f0caf8d3081","system_id":"levelo_inurba_marseille","lat":43.23188,"lon":5.39996,"is_reserved":false,"is_disabled":false,"rental_uris":{"android":"levelo://app?vid=411b5315-e03f-43f4-b5cd-9f0caf8d3081","ios":"levelo://app?vid=411b5315-e03f-43f4-b5cd-9f0caf8d3081"},"vehicle_type_id":"4","last_reported":1740586331,"current_range_meters":6800,"station_id":"ce4bhn12rcd13ifvqgqg","pricing_plan_id":"cebpf4jnsgd1na2vs0mg"},{"bike_id":"17008e6c-b799-4e0b-b0dd-57c670b095f9","system_id":"levelo_inurba_marseille","lat":43.31484,"lon":5.3731,"is_reserved":false,"is_disabled":false,"rental_uris":{"android":"levelo://app?vid=17008e6c-b799-4e0b-b0dd-57c670b095f9","ios":"levelo://app?vid=17008e6c-b799-4e0b-b0dd-57c670b095f9"},"vehicle_type_id":"4","last_reported":1740586331,"current_range_meters":4000,"station_id":"ce4bgt12rcd13ifvqcd0","pricing_plan_id":"cebpf4jnsgd1na2vs0mg"},{"bike_id":"2a1b034e-b4d2-4289-9eb1-73581b16fd3a","system_id":"levelo_inurba_marseille","lat":43.29845,"lon":5.36279,"is_reserved":false,"is_disabled":false,"rental_uris":{"android":"levelo://app?vid=2a1b034e-b4d2-4289-9eb1-73581b16fd3a","ios":"levelo://app?vid=2a1b034e-b4d2-4289-9eb1-73581b16fd3a"},"vehicle_type_id":"4","last_reported":1740586331,"current_range_meters":6800,"station_id":"ce4bgpp2rcd13ifvqc3g","pricing_plan_id":"cebpf4jnsgd1na2vs0mg"},{"bike_id":"a3c26c41-157d-47b4-a13f-8ae038889d47","system_id":"levelo_inurba_marseille","lat":43.28147,"lon":5.42647,"is_reserved":false,"is_disabled":false,"rental_uris":{"android":"levelo://app?vid=a3c26c41-157d-47b4-a13f-8ae038889d47","ios":"levelo://app?vid=a3c26c41-157d-47b4-a13f-8ae038889d47"},"vehicle_type_id":"4","last_reported":1740586331,"current_range_meters":6800,"station_id":"ce4bhnh2rcd13ifvqgug","pricing_plan_id":"cebpf4jnsgd1na2vs0mg"},{"bike_id":"d195c036-1441-4910-bcb8-60d709890867","system_id":"levelo_inurba_marseille","lat":43.24166,"lon":5.36384,"is_reserved":false,"is_disabled":false,"rental_uris":{"android":"levelo://app?vid=d195c036-1441-4910-bcb8-60d709890867","ios":"levelo://app?vid=d195c036-1441-4910-bcb8-60d709890867"},"vehicle_type_id":"4","last_reported":1740586331,"current_range_meters":7200,"station_id":"cpo36qri1sfpv3e86is0","pricing_plan_id":"cebpf4jnsgd1na2vs0mg"},{"bike_id":"eb81337e-5d73-4ad6-befb-57cfe32584c7","system_id":"levelo_inurba_marseille","lat":43.25841,"lon":5.39425,"is_reserved":false,"is_disabled":false,"rental_uris":{"android":"levelo://app?vid=eb81337e-5d73-4ad6-befb-57cfe32584c7","ios":"levelo://app?vid=eb81337e-5d73-4ad6-befb-57cfe32584c7"},"vehicle_type_id":"4","last_reported":1740586331,"current_range_meters":7200,"station_id":"ce4bhip2rcd13ifvqft0","pricing_plan_id":"cebpf4jnsgd1na2vs0mg"},{"bike_id":"ef1e57e6-2da8-4e63-8299-55a6faf4e4b9","system_id":"levelo_inurba_marseille","lat":43.28691,"lon":5.38655,"is_reserved":false,"is_disabled":false,"rental_uris":{"android":"levelo://app?vid=ef1e57e6-2da8-4e63-8299-55a6faf4e4b9","ios":"levelo://app?vid=ef1e57e6-2da8-4e63-8299-55a6faf4e4b9"},"vehicle_type_id":"4","last_reported":1740586331,"current_range_meters":7200,"station_id":"ce4bh492rcd13ifvqdug","pricing_plan_id":"cebpf4jnsgd1na2vs0mg"},{"bike_id":"60563ad7-422d-49af-af20-ae1986ecd328","system_id":"levelo_inurba_marseille","lat":43.31116,"lon":5.37759,"is_reserved":false,"is_disabled":false,"rental_uris":{"android":"levelo://app?vid=60563ad7-422d-49af-af20-ae1986ecd328","ios":"levelo://app?vid=60563ad7-422d-49af-af20-ae1986ecd328"},"vehicle_type_id":"4","last_reported":1740586331,"current_range_meters":8000,"station_id":"ce4bgt92rcd13ifvqcg0","pricing_plan_id":"cebpf4jnsgd1na2vs0mg"},{"bike_id":"0a3f5ff5-949d-4cf4-a30b-f6d782a87c75","system_id":"levelo_inurba_marseille","lat":43.25582,"lon":5.38237,"is_reserved":false,"is_disabled":false,"rental_uris":{"android":"levelo://app?vid=0a3f5ff5-949d-4cf4-a30b-f6d782a87c75","ios":"levelo://app?vid=0a3f5ff5-949d-4cf4-a30b-f6d782a87c75"},"vehicle_type_id":"4","last_reported":1740586331,"current_range_meters":8000,"station_id":"ce4bhih2rcd13ifvqfs0","pricing_plan_id":"cebpf4jnsgd1na2vs0mg"},{"bike_id":"52432d5b-8d3d-4821-9091-bb94195ed0dc","system_id":"levelo_inurba_marseille","lat":43.26214,"lon":5.37445,"is_reserved":false,"is_disabled":false,"rental_uris":{"android":"levelo://app?vid=52432d5b-8d3d-4821-9091-bb94195ed0dc","ios":"levelo://app?vid=52432d5b-8d3d-4821-9091-bb94195ed0dc"},"vehicle_type_id":"4","last_reported":1740586331,"current_range_meters":8000,"station_id":"ce4bhgp2rcd13ifvqfc0","pricing_plan_id":"cebpf4jnsgd1na2vs0mg"},{"bike_id":"ef121cff-22e2-4db1-9e84-8151089274f2","system_id":"levelo_inurba_marseille","lat":43.28474,"lon":5.38433,"is_reserved":false,"is_disabled":true,"rental_uris":{"android":"levelo://app?vid=ef121cff-22e2-4db1-9e84-8151089274f2","ios":"levelo://app?vid=ef121cff-22e2-4db1-9e84-8151089274f2"},"vehicle_type_id":"4","last_reported":1740586331,"current_range_meters":8000,"station_id":"ce4bh512rcd13ifvqe3g","pricing_plan_id":"cebpf4jnsgd1na2vs0mg"},{"bike_id":"05f51bd6-bf8c-4b6c-ba2f-d7bf7cec3006","system_id":"levelo_inurba_marseille","lat":43.23191,"lon":5.35563,"is_reserved":false,"is_disabled":false,"rental_uris":{"android":"levelo://app?vid=05f51bd6-bf8c-4b6c-ba2f-d7bf7cec3006","ios":"levelo://app?vid=05f51bd6-bf8c-4b6c-ba2f-d7bf7cec3006"},"vehicle_type_id":"4","last_reported":1740586331,"current_range_meters":8000,"station_id":"ce4bhu92rcd13ifvqi70","pricing_plan_id":"cebpf4jnsgd1na2vs0mg"},{"bike_id":"5576c72d-14a1-4303-9add-0e4c3a78570d","system_id":"levelo_inurba_marseille","lat":43.26777,"lon":5.39421,"is_reserved":false,"is_disabled":false,"rental_uris":{"android":"levelo://app?vid=5576c72d-14a1-4303-9add-0e4c3a78570d","ios":"levelo://app?vid=5576c72d-14a1-4303-9add-0e4c3a78570d"},"vehicle_type_id":"4","last_reported":1740586331,"current_range_meters":8000,"station_id":"ce4bhh12rcd13ifvqfg0","pricing_plan_id":"cebpf4jnsgd1na2vs0mg"},{"bike_id":"bd0684ad-50aa-46b2-95a6-fa88a56d4b93","system_id":"levelo_inurba_marseille","lat":43.28155,"lon":5.42645,"is_reserved":false,"is_disabled":false,"rental_uris":{"android":"levelo://app?vid=bd0684ad-50aa-46b2-95a6-fa88a56d4b93","ios":"levelo://app?vid=bd0684ad-50aa-46b2-95a6-fa88a56d4b93"},"vehicle_type_id":"4","last_reported":1740586331,"current_range_meters":8000,"station_id":"ce4bhnh2rcd13ifvqgug","pricing_plan_id":"cebpf4jnsgd1na2vs0mg"},{"bike_id":"68db716c-6572-40ea-b079-987ee4623b4d","system_id":"levelo_inurba_marseille","lat":43.26856,"lon":5.40949,"is_reserved":false,"is_disabled":false,"rental_uris":{"android":"levelo://app?vid=68db716c-6572-40ea-b079-987ee4623b4d","ios":"levelo://app?vid=68db716c-6572-40ea-b079-987ee4623b4d"},"vehicle_type_id":"4","last_reported":1740586331,"current_range_meters":8000,"station_id":"","pricing_plan_id":"cebpf4jnsgd1na2vs0mg"},{"bike_id":"9c24a9e2-7378-4601-93d3-5ed31818cd93","system_id":"levelo_inurba_marseille","lat":43.23198,"lon":5.35558,"is_reserved":false,"is_disabled":false,"rental_uris":{"android":"levelo://app?vid=9c24a9e2-7378-4601-93d3-5ed31818cd93","ios":"levelo://app?vid=9c24a9e2-7378-4601-93d3-5ed31818cd93"},"vehicle_type_id":"4","last_reported":1740586331,"current_range_meters":8000,"station_id":"ce4bhu92rcd13ifvqi70","pricing_plan_id":"cebpf4jnsgd1na2vs0mg"},{"bike_id":"565f3f1c-7473-4431-9bfb-9cd3cde5b1d3","system_id":"levelo_inurba_marseille","lat":43.29972,"lon":5.3851,"is_reserved":false,"is_disabled":false,"rental_uris":{"android":"levelo://app?vid=565f3f1c-7473-4431-9bfb-9cd3cde5b1d3","ios":"levelo://app?vid=565f3f1c-7473-4431-9bfb-9cd3cde5b1d3"},"vehicle_type_id":"4","last_reported":1740586331,"current_range_meters":8000,"station_id":"ce4bgj92rcd13ifvqbd0","pricing_plan_id":"cebpf4jnsgd1na2vs0mg"},{"bike_id":"0469e089-e81e-4b8a-ada2-b67651ede74f","system_id":"levelo_inurba_marseille","lat":43.28927,"lon":5.38396,"is_reserved":false,"is_disabled":false,"rental_uris":{"android":"levelo://app?vid=0469e089-e81e-4b8a-ada2-b67651ede74f","ios":"levelo://app?vid=0469e089-e81e-4b8a-ada2-b67651ede74f"},"vehicle_type_id":"4","last_reported":1740586331,"current_range_meters":8400,"station_id":"ce4bh612rcd13ifvqe6g","pricing_plan_id":"cebpf4jnsgd1na2vs0mg"},{"bike_id":"514c387f-8859-4673-a69b-d26798f680b6","system_id":"levelo_inurba_marseille","lat":43.28983,"lon":5.37837,"is_reserved":false,"is_disabled":false,"rental_uris":{"android":"levelo://app?vid=514c387f-8859-4673-a69b-d26798f680b6","ios":"levelo://app?vid=514c387f-8859-4673-a69b-d26798f680b6"},"vehicle_type_id":"4","last_reported":1740586331,"current_range_meters":8400,"station_id":"ce4bh9p2rcd13ifvqed0","pricing_plan_id":"cebpf4jnsgd1na2vs0mg"},{"bike_id":"1b4cb9d4-732c-4d1e-b068-6d0481f44414","system_id":"levelo_inurba_marseille","lat":43.23966,"lon":5.36631,"is_reserved":false,"is_disabled":false,"rental_uris":{"android":"levelo://app?vid=1b4cb9d4-732c-4d1e-b068-6d0481f44414","ios":"levelo://app?vid=1b4cb9d4-732c-4d1e-b068-6d0481f44414"},"vehicle_type_id":"4","last_reported":1740586331,"current_range_meters":8400,"station_id":"ce4bhi12rcd13ifvqfp0","pricing_plan_id":"cebpf4jnsgd1na2vs0mg"},{"bike_id":"d615c647-d18c-4cbf-a945-c8b749d477bd","system_id":"levelo_inurba_marseille","lat":43.31381,"lon":5.3849,"is_reserved":false,"is_disabled":false,"rental_uris":{"android":"levelo://app?vid=d615c647-d18c-4cbf-a945-c8b749d477bd","ios":"levelo://app?vid=d615c647-d18c-4cbf-a945-c8b749d477bd"},"vehicle_type_id":"4","last_reported":1740586331,"current_range_meters":8400,"station_id":"ce4bgt92rcd13ifvqcf0","pricing_plan_id":"cebpf4jnsgd1na2vs0mg"},{"bike_id":"e278aacb-539f-4f85-8f4a-8bf82e73d71c","system_id":"levelo_inurba_marseille","lat":43.29849,"lon":5.36283,"is_reserved":false,"is_disabled":false,"rental_uris":{"android":"levelo://app?vid=e278aacb-539f-4f85-8f4a-8bf82e73d71c","ios":"levelo://app?vid=e278aacb-539f-4f85-8f4a-8bf82e73d71c"},"vehicle_type_id":"4","last_reported":1740586331,"current_range_meters":8400,"station_id":"ce4bgpp2rcd13ifvqc3g","pricing_plan_id":"cebpf4jnsgd1na2vs0mg"},{"bike_id":"b45c751e-8f9d-49f5-aad3-4ec6ac1cf575","system_id":"levelo_inurba_marseille","lat":43.292675,"lon":5.384328,"is_reserved":false,"is_disabled":false,"rental_uris":{"android":"levelo://app?vid=b45c751e-8f9d-49f5-aad3-4ec6ac1cf575","ios":"levelo://app?vid=b45c751e-8f9d-49f5-aad3-4ec6ac1cf575"},"vehicle_type_id":"4","last_reported":1740586331,"current_range_meters":8000,"station_id":"ce4bh5p2rcd13ifvqe4g","pricing_plan_id":"cebpf4jnsgd1na2vs0mg"},{"bike_id":"dbc8f7b4-0717-4dd1-b8c8-259a7be32b08","system_id":"levelo_inurba_marseille","lat":43.29535,"lon":5.42292,"is_reserved":false,"is_disabled":false,"rental_uris":{"android":"levelo://app?vid=dbc8f7b4-0717-4dd1-b8c8-259a7be32b08","ios":"levelo://app?vid=dbc8f7b4-0717-4dd1-b8c8-259a7be32b08"},"vehicle_type_id":"4","last_reported":1740586331,"current_range_meters":8400,"station_id":"ce4bhph2rcd13ifvqhdg","pricing_plan_id":"cebpf4jnsgd1na2vs0mg"},{"bike_id":"128d9f19-560e-4907-b2b5-99db2fe70c71","system_id":"levelo_inurba_marseille","lat":43.30291,"lon":5.39699,"is_reserved":false,"is_disabled":false,"rental_uris":{"android":"levelo://app?vid=128d9f19-560e-4907-b2b5-99db2fe70c71","ios":"levelo://app?vid=128d9f19-560e-4907-b2b5-99db2fe70c71"},"vehicle_type_id":"4","last_reported":1740586331,"current_range_meters":9200,"station_id":"ce4bh112rcd13ifvqda0","pricing_plan_id":"cebpf4jnsgd1na2vs0mg"},{"bike_id":"1b3133c9-e82e-4f29-99b4-5bcd3291984f","system_id":"levelo_inurba_marseille","lat":43.28936,"lon":5.36634,"is_reserved":false,"is_disabled":false,"rental_uris":{"android":"levelo://app?vid=1b3133c9-e82e-4f29-99b4-5bcd3291984f","ios":"levelo://app?vid=1b3133c9-e82e-4f29-99b4-5bcd3291984f"},"vehicle_type_id":"4","last_reported":1740586331,"current_range_meters":8800,"station_id":"ce4bhap2rcd13ifvqek0","pricing_plan_id":"cebpf4jnsgd1na2vs0mg"},{"bike_id":"c7340f53-f7a9-4784-8a5c-c3fb70fc661f","system_id":"levelo_inurba_marseille","lat":43.29924,"lon":5.36582,"is_reserved":false,"is_disabled":false,"rental_uris":{"android":"levelo://app?vid=c7340f53-f7a9-4784-8a5c-c3fb70fc661f","ios":"levelo://app?vid=c7340f53-f7a9-4784-8a5c-c3fb70fc661f"},"vehicle_type_id":"4","last_reported":1740586331,"current_range_meters":8800,"station_id":"ce4bgm92rcd13ifvqbr0","pricing_plan_id":"cebpf4jnsgd1na2vs0mg"},{"bike_id":"b16d576b-eaa7-497a-9cea-164591b0233b","system_id":"levelo_inurba_marseille","lat":43.29282,"lon":5.36843,"is_reserved":false,"is_disabled":false,"rental_uris":{"android":"levelo://app?vid=b16d576b-eaa7-497a-9cea-164591b0233b","ios":"levelo://app?vid=b16d576b-eaa7-497a-9cea-164591b0233b"},"vehicle_type_id":"4","last_reported":1740586331,"current_range_meters":8800,"station_id":"ce4bhbp2rcd13ifvqesg","pricing_plan_id":"cebpf4jnsgd1na2vs0mg"},{"bike_id":"e311dabe-58e7-4007-bba5-11411ff72264","system_id":"levelo_inurba_marseille","lat":43.2953,"lon":5.3905,"is_reserved":false,"is_disabled":false,"rental_uris":{"android":"levelo://app?vid=e311dabe-58e7-4007-bba5-11411ff72264","ios":"levelo://app?vid=e311dabe-58e7-4007-bba5-11411ff72264"},"vehicle_type_id":"4","last_reported":1740586331,"current_range_meters":8000,"station_id":"ce4bh3p2rcd13ifvqdp0","pricing_plan_id":"cebpf4jnsgd1na2vs0mg"},{"bike_id":"a1770b52-6862-4015-9cf1-8a27b1eaf08a","system_id":"levelo_inurba_marseille","lat":43.30464,"lon":5.37909,"is_reserved":false,"is_disabled":false,"rental_uris":{"android":"levelo://app?vid=a1770b52-6862-4015-9cf1-8a27b1eaf08a","ios":"levelo://app?vid=a1770b52-6862-4015-9cf1-8a27b1eaf08a"},"vehicle_type_id":"4","last_reported":1740586331,"current_range_meters":10000,"station_id":"ce4bgup2rcd13ifvqcn0","pricing_plan_id":"cebpf4jnsgd1na2vs0mg"},{"bike_id":"8f4f5c61-91cc-4fd5-85ad-d5b23eff483d","system_id":"levelo_inurba_marseille","lat":43.29247,"lon":5.36177,"is_reserved":false,"is_disabled":false,"rental_uris":{"android":"levelo://app?vid=8f4f5c61-91cc-4fd5-85ad-d5b23eff483d","ios":"levelo://app?vid=8f4f5c61-91cc-4fd5-85ad-d5b23eff483d"},"vehicle_type_id":"4","last_reported":1740586331,"current_range_meters":8800,"station_id":"","pricing_plan_id":"cebpf4jnsgd1na2vs0mg"},{"bike_id":"a3d9602c-161f-46cd-ad29-4a7cfa7846a2","system_id":"levelo_inurba_marseille","lat":43.31085,"lon":5.42431,"is_reserved":false,"is_disabled":false,"rental_uris":{"android":"levelo://app?vid=a3d9602c-161f-46cd-ad29-4a7cfa7846a2","ios":"levelo://app?vid=a3d9602c-161f-46cd-ad29-4a7cfa7846a2"},"vehicle_type_id":"4","last_reported":1740586331,"current_range_meters":9200,"station_id":"ce4bhp92rcd13ifvqhag","pricing_plan_id":"cebpf4jnsgd1na2vs0mg"},{"bike_id":"fd205c1a-6451-41d8-bfd3-928e15ee4d34","system_id":"levelo_inurba_marseille","lat":43.30142,"lon":5.3878,"is_reserved":false,"is_disabled":false,"rental_uris":{"android":"levelo://app?vid=fd205c1a-6451-41d8-bfd3-928e15ee4d34","ios":"levelo://app?vid=fd205c1a-6451-41d8-bfd3-928e15ee4d34"},"vehicle_type_id":"4","last_reported":1740586331,"current_range_meters":9200,"station_id":"ce4bghh2rcd13ifvqb60","pricing_plan_id":"cebpf4jnsgd1na2vs0mg"},{"bike_id":"050beed1-07d1-4246-bcf0-7e296b54a4e3","system_id":"levelo_inurba_marseille","lat":43.30654,"lon":5.40097,"is_reserved":false,"is_disabled":false,"rental_uris":{"android":"levelo://app?vid=050beed1-07d1-4246-bcf0-7e296b54a4e3","ios":"levelo://app?vid=050beed1-07d1-4246-bcf0-7e296b54a4e3"},"vehicle_type_id":"4","last_reported":1740586331,"current_range_meters":8800,"station_id":"ce4bh112rcd13ifvqda0","pricing_plan_id":"cebpf4jnsgd1na2vs0mg"},{"bike_id":"6b286004-f086-4023-9675-02a95f8e917b","system_id":"levelo_inurba_marseille","lat":43.30956,"lon":5.39037,"is_reserved":false,"is_disabled":true,"rental_uris":{"android":"levelo://app?vid=6b286004-f086-4023-9675-02a95f8e917b","ios":"levelo://app?vid=6b286004-f086-4023-9675-02a95f8e917b"},"vehicle_type_id":"4","last_reported":1740586331,"current_range_meters":9200,"station_id":"ce4bgup2rcd13ifvqco0","pricing_plan_id":"cebpf4jnsgd1na2vs0mg"},{"bike_id":"b007f058-4163-4bbe-ba13-50835769bd43","system_id":"levelo_inurba_marseille","lat":43.31707,"lon":5.43713,"is_reserved":false,"is_disabled":false,"rental_uris":{"android":"levelo://app?vid=b007f058-4163-4bbe-ba13-50835769bd43","ios":"levelo://app?vid=b007f058-4163-4bbe-ba13-50835769bd43"},"vehicle_type_id":"4","last_reported":1740586331,"current_range_meters":9200,"station_id":"ce4bhp92rcd13ifvqhcg","pricing_plan_id":"cebpf4jnsgd1na2vs0mg"},{"bike_id":"3981c2f3-40e8-471d-a192-7602b689bb79","system_id":"levelo_inurba_marseille","lat":43.28078,"lon":5.35246,"is_reserved":false,"is_disabled":false,"rental_uris":{"android":"levelo://app?vid=3981c2f3-40e8-471d-a192-7602b689bb79","ios":"levelo://app?vid=3981c2f3-40e8-471d-a192-7602b689bb79"},"vehicle_type_id":"4","last_reported":1740586331,"current_range_meters":9200,"station_id":"ce4bho92rcd13ifvqh3g","pricing_plan_id":"cebpf4jnsgd1na2vs0mg"},{"bike_id":"a18d2462-6430-4fa5-8ce7-637ac348b4cd","system_id":"levelo_inurba_marseille","lat":43.27939,"lon":5.41051,"is_reserved":false,"is_disabled":false,"rental_uris":{"android":"levelo://app?vid=a18d2462-6430-4fa5-8ce7-637ac348b4cd","ios":"levelo://app?vid=a18d2462-6430-4fa5-8ce7-637ac348b4cd"},"vehicle_type_id":"4","last_reported":1740586331,"current_range_meters":9200,"station_id":"ce4bhnp2rcd13ifvqh0g","pricing_plan_id":"cebpf4jnsgd1na2vs0mg"},{"bike_id":"d0801915-0de0-4f9d-9726-750b42c06614","system_id":"levelo_inurba_marseille","lat":43.32108,"lon":5.36786,"is_reserved":false,"is_disabled":false,"rental_uris":{"android":"levelo://app?vid=d0801915-0de0-4f9d-9726-750b42c06614","ios":"levelo://app?vid=d0801915-0de0-4f9d-9726-750b42c06614"},"vehicle_type_id":"4","last_reported":1740586331,"current_range_meters":9200,"station_id":"ce4bhrh2rcd13ifvqhug","pricing_plan_id":"cebpf4jnsgd1na2vs0mg"},{"bike_id":"53f6206c-2750-42e7-a8f3-9533b6f35c4a","system_id":"levelo_inurba_marseille","lat":43.28604,"lon":5.35111,"is_reserved":false,"is_disabled":false,"rental_uris":{"android":"levelo://app?vid=53f6206c-2750-42e7-a8f3-9533b6f35c4a","ios":"levelo://app?vid=53f6206c-2750-42e7-a8f3-9533b6f35c4a"},"vehicle_type_id":"4","last_reported":1740586331,"current_range_meters":9200,"station_id":"ce4bhch2rcd13ifvqeug","pricing_plan_id":"cebpf4jnsgd1na2vs0mg"},{"bike_id":"8c4fdd3d-4c9b-4feb-b0ac-c30eccbc0c97","system_id":"levelo_inurba_marseille","lat":43.28851,"lon":5.35846,"is_reserved":false,"is_disabled":false,"rental_uris":{"android":"levelo://app?vid=8c4fdd3d-4c9b-4feb-b0ac-c30eccbc0c97","ios":"levelo://app?vid=8c4fdd3d-4c9b-4feb-b0ac-c30eccbc0c97"},"vehicle_type_id":"4","last_reported":1740586331,"current_range_meters":9600,"station_id":"ce4bhb12rcd13ifvqem0","pricing_plan_id":"cebpf4jnsgd1na2vs0mg"},{"bike_id":"261556eb-c6ed-4781-a967-bc98c917e52c","system_id":"levelo_inurba_marseille","lat":43.24177,"lon":5.39731,"is_reserved":false,"is_disabled":false,"rental_uris":{"android":"levelo://app?vid=261556eb-c6ed-4781-a967-bc98c917e52c","ios":"levelo://app?vid=261556eb-c6ed-4781-a967-bc98c917e52c"},"vehicle_type_id":"4","last_reported":1740586331,"current_range_meters":9600,"station_id":"ce4bhn12rcd13ifvqgpg","pricing_plan_id":"cebpf4jnsgd1na2vs0mg"},{"bike_id":"24ffca99-e2d2-4c79-9689-029e204b116d","system_id":"levelo_inurba_marseille","lat":43.32336,"lon":5.40614,"is_reserved":false,"is_disabled":false,"rental_uris":{"android":"levelo://app?vid=24ffca99-e2d2-4c79-9689-029e204b116d","ios":"levelo://app?vid=24ffca99-e2d2-4c79-9689-029e204b116d"},"vehicle_type_id":"4","last_reported":1740586331,"current_range_meters":9600,"station_id":"ce4bhq92rcd13ifvqhjg","pricing_plan_id":"cebpf4jnsgd1na2vs0mg"},{"bike_id":"39e12f4a-6a20-4640-b12f-56dcaf38d52d","system_id":"levelo_inurba_marseille","lat":43.31364,"lon":5.38499,"is_reserved":false,"is_disabled":false,"rental_uris":{"android":"levelo://app?vid=39e12f4a-6a20-4640-b12f-56dcaf38d52d","ios":"levelo://app?vid=39e12f4a-6a20-4640-b12f-56dcaf38d52d"},"vehicle_type_id":"4","last_reported":1740586331,"current_range_meters":9600,"station_id":"ce4bgt92rcd13ifvqcf0","pricing_plan_id":"cebpf4jnsgd1na2vs0mg"},{"bike_id":"ea630c8a-0ecd-4bee-b693-0df46eb3303f","system_id":"levelo_inurba_marseille","lat":43.30924,"lon":5.4015,"is_reserved":false,"is_disabled":false,"rental_uris":{"android":"levelo://app?vid=ea630c8a-0ecd-4bee-b693-0df46eb3303f","ios":"levelo://app?vid=ea630c8a-0ecd-4bee-b693-0df46eb3303f"},"vehicle_type_id":"4","last_reported":1740586331,"current_range_meters":10000,"station_id":"ce4bgvp2rcd13ifvqct0","pricing_plan_id":"cebpf4jnsgd1na2vs0mg"},{"bike_id":"a69bcfb1-a0d1-4739-aed8-7e8419450103","system_id":"levelo_inurba_marseille","lat":43.25722,"lon":5.41121,"is_reserved":false,"is_disabled":false,"rental_uris":{"android":"levelo://app?vid=a69bcfb1-a0d1-4739-aed8-7e8419450103","ios":"levelo://app?vid=a69bcfb1-a0d1-4739-aed8-7e8419450103"},"vehicle_type_id":"4","last_reported":1740586331,"current_range_meters":10000,"station_id":"ce4bhkp2rcd13ifvqgd0","pricing_plan_id":"cebpf4jnsgd1na2vs0mg"},{"bike_id":"e1656a45-7507-49b1-b6ec-2d78f35c21a8","system_id":"levelo_inurba_marseille","lat":43.27919,"lon":5.39585,"is_reserved":false,"is_disabled":false,"rental_uris":{"android":"levelo://app?vid=e1656a45-7507-49b1-b6ec-2d78f35c21a8","ios":"levelo://app?vid=e1656a45-7507-49b1-b6ec-2d78f35c21a8"},"vehicle_type_id":"4","last_reported":1740586331,"current_range_meters":10000,"station_id":"ce4bhf92rcd13ifvqf40","pricing_plan_id":"cebpf4jnsgd1na2vs0mg"},{"bike_id":"c38518e4-dee8-4f2a-a5a0-8e7730d73a3e","system_id":"levelo_inurba_marseille","lat":43.286817,"lon":5.386637,"is_reserved":false,"is_disabled":false,"rental_uris":{"android":"levelo://app?vid=c38518e4-dee8-4f2a-a5a0-8e7730d73a3e","ios":"levelo://app?vid=c38518e4-dee8-4f2a-a5a0-8e7730d73a3e"},"vehicle_type_id":"4","last_reported":1740586331,"current_range_meters":10000,"station_id":"ce4bh492rcd13ifvqdug","pricing_plan_id":"cebpf4jnsgd1na2vs0mg"},{"bike_id":"877c8a18-a7f8-4764-bcb8-657c95464423","system_id":"levelo_inurba_marseille","lat":43.28946,"lon":5.36407,"is_reserved":false,"is_disabled":false,"rental_uris":{"android":"levelo://app?vid=877c8a18-a7f8-4764-bcb8-657c95464423","ios":"levelo://app?vid=877c8a18-a7f8-4764-bcb8-657c95464423"},"vehicle_type_id":"4","last_reported":1740586331,"current_range_meters":9600,"station_id":"ce4bhc92rcd13ifvqetg","pricing_plan_id":"cebpf4jnsgd1na2vs0mg"},{"bike_id":"892ec2a1-329c-4584-aeed-ad1895bfe3e4","system_id":"levelo_inurba_marseille","lat":43.265542,"lon":5.372904,"is_reserved":false,"is_disabled":false,"rental_uris":{"android":"levelo://app?vid=892ec2a1-329c-4584-aeed-ad1895bfe3e4","ios":"levelo://app?vid=892ec2a1-329c-4584-aeed-ad1895bfe3e4"},"vehicle_type_id":"4","last_reported":1740586331,"current_range_meters":10800,"station_id":"ce4bhg12rcd13ifvqf70","pricing_plan_id":"cebpf4jnsgd1na2vs0mg"},{"bike_id":"164567f0-029d-4cfc-b98c-1ac0d0856cf1","system_id":"levelo_inurba_marseille","lat":43.29917,"lon":5.38161,"is_reserved":false,"is_disabled":false,"rental_uris":{"android":"levelo://app?vid=164567f0-029d-4cfc-b98c-1ac0d0856cf1","ios":"levelo://app?vid=164567f0-029d-4cfc-b98c-1ac0d0856cf1"},"vehicle_type_id":"4","last_reported":1740586331,"current_range_meters":8000,"station_id":"ce4bgj12rcd13ifvqbc0","pricing_plan_id":"cebpf4jnsgd1na2vs0mg"},{"bike_id":"1e37517c-7c13-497e-93a6-2c0209fd3d04","system_id":"levelo_inurba_marseille","lat":43.286131,"lon":5.351073,"is_reserved":false,"is_disabled":false,"rental_uris":{"android":"levelo://app?vid=1e37517c-7c13-497e-93a6-2c0209fd3d04","ios":"levelo://app?vid=1e37517c-7c13-497e-93a6-2c0209fd3d04"},"vehicle_type_id":"4","last_reported":1740586331,"current_range_meters":10800,"station_id":"ce4bhch2rcd13ifvqeug","pricing_plan_id":"cebpf4jnsgd1na2vs0mg"},{"bike_id":"1d70c622-10e8-4a33-8612-a7dc67991c51","system_id":"levelo_inurba_marseille","lat":43.31696,"lon":5.3777,"is_reserved":false,"is_disabled":false,"rental_uris":{"android":"levelo://app?vid=1d70c622-10e8-4a33-8612-a7dc67991c51","ios":"levelo://app?vid=1d70c622-10e8-4a33-8612-a7dc67991c51"},"vehicle_type_id":"4","last_reported":1740586331,"current_range_meters":10800,"station_id":"ce4bgth2rcd13ifvqch0","pricing_plan_id":"cebpf4jnsgd1na2vs0mg"},{"bike_id":"193f04b0-07b1-4f3e-b609-5fd028a89805","system_id":"levelo_inurba_marseille","lat":43.27371,"lon":5.36252,"is_reserved":false,"is_disabled":false,"rental_uris":{"android":"levelo://app?vid=193f04b0-07b1-4f3e-b609-5fd028a89805","ios":"levelo://app?vid=193f04b0-07b1-4f3e-b609-5fd028a89805"},"vehicle_type_id":"4","last_reported":1740586331,"current_range_meters":10800,"station_id":"ce4bhbh2rcd13ifvqeo0","pricing_plan_id":"cebpf4jnsgd1na2vs0mg"},{"bike_id":"52a02ec7-8e0c-4781-ae9b-a63b7edaabaf","system_id":"levelo_inurba_marseille","lat":43.28268,"lon":5.35055,"is_reserved":false,"is_disabled":false,"rental_uris":{"android":"levelo://app?vid=52a02ec7-8e0c-4781-ae9b-a63b7edaabaf","ios":"levelo://app?vid=52a02ec7-8e0c-4781-ae9b-a63b7edaabaf"},"vehicle_type_id":"4","last_reported":1740586331,"current_range_meters":10800,"station_id":"ce4bhbp2rcd13ifvqerg","pricing_plan_id":"cebpf4jnsgd1na2vs0mg"},{"bike_id":"52832f17-343d-4a4b-8f6f-f4e9f87b0780","system_id":"levelo_inurba_marseille","lat":43.30422,"lon":5.41275,"is_reserved":false,"is_disabled":false,"rental_uris":{"android":"levelo://app?vid=52832f17-343d-4a4b-8f6f-f4e9f87b0780","ios":"levelo://app?vid=52832f17-343d-4a4b-8f6f-f4e9f87b0780"},"vehicle_type_id":"4","last_reported":1740586331,"current_range_meters":10800,"station_id":"ce4bhop2rcd13ifvqh8g","pricing_plan_id":"cebpf4jnsgd1na2vs0mg"},{"bike_id":"1d509308-2727-480d-8854-19434b27e858","system_id":"levelo_inurba_marseille","lat":43.292053,"lon":5.358779,"is_reserved":false,"is_disabled":false,"rental_uris":{"android":"levelo://app?vid=1d509308-2727-480d-8854-19434b27e858","ios":"levelo://app?vid=1d509308-2727-480d-8854-19434b27e858"},"vehicle_type_id":"4","last_reported":1740586331,"current_range_meters":10800,"station_id":"ce4bh0p2rcd13ifvqd70","pricing_plan_id":"cebpf4jnsgd1na2vs0mg"},{"bike_id":"1690cf1f-489e-42fe-b2b4-7448c418d56d","system_id":"levelo_inurba_marseille","lat":43.31996,"lon":5.38144,"is_reserved":false,"is_disabled":false,"rental_uris":{"android":"levelo://app?vid=1690cf1f-489e-42fe-b2b4-7448c418d56d","ios":"levelo://app?vid=1690cf1f-489e-42fe-b2b4-7448c418d56d"},"vehicle_type_id":"4","last_reported":1740586331,"current_range_meters":10000,"station_id":"ce4bhr12rcd13ifvqhpg","pricing_plan_id":"cebpf4jnsgd1na2vs0mg"},{"bike_id":"a575f4dc-276f-4f6f-bc4c-8972fb7f85cb","system_id":"levelo_inurba_marseille","lat":43.25821,"lon":5.39431,"is_reserved":false,"is_disabled":false,"rental_uris":{"android":"levelo://app?vid=a575f4dc-276f-4f6f-bc4c-8972fb7f85cb","ios":"levelo://app?vid=a575f4dc-276f-4f6f-bc4c-8972fb7f85cb"},"vehicle_type_id":"4","last_reported":1740586331,"current_range_meters":11200,"station_id":"ce4bhip2rcd13ifvqft0","pricing_plan_id":"cebpf4jnsgd1na2vs0mg"},{"bike_id":"9ec75b96-e397-4b90-a9a0-62864a1aca45","system_id":"levelo_inurba_marseille","lat":43.28105,"lon":5.37842,"is_reserved":false,"is_disabled":false,"rental_uris":{"android":"levelo://app?vid=9ec75b96-e397-4b90-a9a0-62864a1aca45","ios":"levelo://app?vid=9ec75b96-e397-4b90-a9a0-62864a1aca45"},"vehicle_type_id":"4","last_reported":1740586331,"current_range_meters":11200,"station_id":"ce4bha12rcd13ifvqee0","pricing_plan_id":"cebpf4jnsgd1na2vs0mg"},{"bike_id":"cde4e5b0-1e7b-4b6b-be5c-714a17d87fa2","system_id":"levelo_inurba_marseille","lat":43.304267,"lon":5.388922,"is_reserved":false,"is_disabled":false,"rental_uris":{"android":"levelo://app?vid=cde4e5b0-1e7b-4b6b-be5c-714a17d87fa2","ios":"levelo://app?vid=cde4e5b0-1e7b-4b6b-be5c-714a17d87fa2"},"vehicle_type_id":"4","last_reported":1740586331,"current_range_meters":10800,"station_id":"ce4bgk12rcd13ifvqbi0","pricing_plan_id":"cebpf4jnsgd1na2vs0mg"},{"bike_id":"e9e97d11-e171-4168-9c97-41e4a6deb46d","system_id":"levelo_inurba_marseille","lat":43.25104,"lon":5.40323,"is_reserved":false,"is_disabled":false,"rental_uris":{"android":"levelo://app?vid=e9e97d11-e171-4168-9c97-41e4a6deb46d","ios":"levelo://app?vid=e9e97d11-e171-4168-9c97-41e4a6deb46d"},"vehicle_type_id":"4","last_reported":1740586331,"current_range_meters":10800,"station_id":"ce4bhlh2rcd13ifvqgig","pricing_plan_id":"cebpf4jnsgd1na2vs0mg"},{"bike_id":"df2b6808-8c0d-4f30-9be3-8afa5e31f82f","system_id":"levelo_inurba_marseille","lat":43.30889,"lon":5.39632,"is_reserved":false,"is_disabled":false,"rental_uris":{"android":"levelo://app?vid=df2b6808-8c0d-4f30-9be3-8afa5e31f82f","ios":"levelo://app?vid=df2b6808-8c0d-4f30-9be3-8afa5e31f82f"},"vehicle_type_id":"4","last_reported":1740586331,"current_range_meters":11200,"station_id":"ce4bh012rcd13ifvqcv0","pricing_plan_id":"cebpf4jnsgd1na2vs0mg"},{"bike_id":"f9eed1e4-1895-44e2-8624-cc9551693ed5","system_id":"levelo_inurba_marseille","lat":43.2986,"lon":5.36293,"is_reserved":false,"is_disabled":false,"rental_uris":{"android":"levelo://app?vid=f9eed1e4-1895-44e2-8624-cc9551693ed5","ios":"levelo://app?vid=f9eed1e4-1895-44e2-8624-cc9551693ed5"},"vehicle_type_id":"4","last_reported":1740586331,"current_range_meters":11600,"station_id":"ce4bgpp2rcd13ifvqc3g","pricing_plan_id":"cebpf4jnsgd1na2vs0mg"},{"bike_id":"763b0198-834c-4f4a-902d-698b7b01f999","system_id":"levelo_inurba_marseille","lat":43.30873,"lon":5.39653,"is_reserved":false,"is_disabled":false,"rental_uris":{"android":"levelo://app?vid=763b0198-834c-4f4a-902d-698b7b01f999","ios":"levelo://app?vid=763b0198-834c-4f4a-902d-698b7b01f999"},"vehicle_type_id":"4","last_reported":1740586331,"current_range_meters":11600,"station_id":"ce4bh012rcd13ifvqcv0","pricing_plan_id":"cebpf4jnsgd1na2vs0mg"},{"bike_id":"58310fee-5b39-447f-b0bb-ad218ac58e35","system_id":"levelo_inurba_marseille","lat":43.29262,"lon":5.409,"is_reserved":false,"is_disabled":false,"rental_uris":{"android":"levelo://app?vid=58310fee-5b39-447f-b0bb-ad218ac58e35","ios":"levelo://app?vid=58310fee-5b39-447f-b0bb-ad218ac58e35"},"vehicle_type_id":"4","last_reported":1740586331,"current_range_meters":11600,"station_id":"ce4bh192rcd13ifvqdc0","pricing_plan_id":"cebpf4jnsgd1na2vs0mg"},{"bike_id":"65e8f8dd-53e2-4729-b441-c5d9a0776539","system_id":"levelo_inurba_marseille","lat":43.31449,"lon":5.3739,"is_reserved":false,"is_disabled":false,"rental_uris":{"android":"levelo://app?vid=65e8f8dd-53e2-4729-b441-c5d9a0776539","ios":"levelo://app?vid=65e8f8dd-53e2-4729-b441-c5d9a0776539"},"vehicle_type_id":"4","last_reported":1740586331,"current_range_meters":11600,"station_id":"","pricing_plan_id":"cebpf4jnsgd1na2vs0mg"},{"bike_id":"a91e52c1-cd87-48de-a422-de085bb970f2","system_id":"levelo_inurba_marseille","lat":43.33022,"lon":5.3904,"is_reserved":false,"is_disabled":false,"rental_uris":{"android":"levelo://app?vid=a91e52c1-cd87-48de-a422-de085bb970f2","ios":"levelo://app?vid=a91e52c1-cd87-48de-a422-de085bb970f2"},"vehicle_type_id":"4","last_reported":1740586331,"current_range_meters":11600,"station_id":"ce4bhr92rcd13ifvqhrg","pricing_plan_id":"cebpf4jnsgd1na2vs0mg"},{"bike_id":"3750f913-32fb-484a-9a13-6c7c2fa3721c","system_id":"levelo_inurba_marseille","lat":43.2904,"lon":5.35913,"is_reserved":false,"is_disabled":false,"rental_uris":{"android":"levelo://app?vid=3750f913-32fb-484a-9a13-6c7c2fa3721c","ios":"levelo://app?vid=3750f913-32fb-484a-9a13-6c7c2fa3721c"},"vehicle_type_id":"4","last_reported":1740586331,"current_range_meters":11200,"station_id":"ce4bha92rcd13ifvqeg0","pricing_plan_id":"cebpf4jnsgd1na2vs0mg"},{"bike_id":"e47fdc11-0c86-4e0d-86ce-22618637b918","system_id":"levelo_inurba_marseille","lat":43.27812,"lon":5.40723,"is_reserved":false,"is_disabled":false,"rental_uris":{"android":"levelo://app?vid=e47fdc11-0c86-4e0d-86ce-22618637b918","ios":"levelo://app?vid=e47fdc11-0c86-4e0d-86ce-22618637b918"},"vehicle_type_id":"4","last_reported":1740586331,"current_range_meters":11600,"station_id":"ce4bhnh2rcd13ifvqgtg","pricing_plan_id":"cebpf4jnsgd1na2vs0mg"},{"bike_id":"639d8c64-b357-42fd-b57e-6cac8ee11358","system_id":"levelo_inurba_marseille","lat":43.24085,"lon":5.37752,"is_reserved":false,"is_disabled":false,"rental_uris":{"android":"levelo://app?vid=639d8c64-b357-42fd-b57e-6cac8ee11358","ios":"levelo://app?vid=639d8c64-b357-42fd-b57e-6cac8ee11358"},"vehicle_type_id":"4","last_reported":1740586331,"current_range_meters":11200,"station_id":"ce4bhnp2rcd13ifvqgvg","pricing_plan_id":"cebpf4jnsgd1na2vs0mg"},{"bike_id":"0e6a8a6a-b776-437f-b151-2bddd70d2442","system_id":"levelo_inurba_marseille","lat":43.29446,"lon":5.39756,"is_reserved":false,"is_disabled":false,"rental_uris":{"android":"levelo://app?vid=0e6a8a6a-b776-437f-b151-2bddd70d2442","ios":"levelo://app?vid=0e6a8a6a-b776-437f-b151-2bddd70d2442"},"vehicle_type_id":"4","last_reported":1740586331,"current_range_meters":11600,"station_id":"ce4bh3h2rcd13ifvqdo0","pricing_plan_id":"cebpf4jnsgd1na2vs0mg"},{"bike_id":"0f6fc01f-ccb5-4e68-9e48-47ab104d6823","system_id":"levelo_inurba_marseille","lat":43.312297,"lon":5.368603,"is_reserved":false,"is_disabled":false,"rental_uris":{"android":"levelo://app?vid=0f6fc01f-ccb5-4e68-9e48-47ab104d6823","ios":"levelo://app?vid=0f6fc01f-ccb5-4e68-9e48-47ab104d6823"},"vehicle_type_id":"4","last_reported":1740586331,"current_range_meters":12000,"station_id":"ce4bgl92rcd13ifvqbq0","pricing_plan_id":"cebpf4jnsgd1na2vs0mg"},{"bike_id":"e1b9b2d7-1dac-4c61-95d3-32a81de29d5a","system_id":"levelo_inurba_marseille","lat":43.25866,"lon":5.39898,"is_reserved":false,"is_disabled":false,"rental_uris":{"android":"levelo://app?vid=e1b9b2d7-1dac-4c61-95d3-32a81de29d5a","ios":"levelo://app?vid=e1b9b2d7-1dac-4c61-95d3-32a81de29d5a"},"vehicle_type_id":"4","last_reported":1740586331,"current_range_meters":12000,"station_id":"ce4bhl92rcd13ifvqghg","pricing_plan_id":"cebpf4jnsgd1na2vs0mg"},{"bike_id":"6d3f4a37-2164-42fa-9b3c-97256bf280d0","system_id":"levelo_inurba_marseille","lat":43.29495,"lon":5.37486,"is_reserved":false,"is_disabled":false,"rental_uris":{"android":"levelo://app?vid=6d3f4a37-2164-42fa-9b3c-97256bf280d0","ios":"levelo://app?vid=6d3f4a37-2164-42fa-9b3c-97256bf280d0"},"vehicle_type_id":"4","last_reported":1740586331,"current_range_meters":12000,"station_id":"ce4bgkp2rcd13ifvqbmg","pricing_plan_id":"cebpf4jnsgd1na2vs0mg"},{"bike_id":"034e909b-6d4a-4a74-addc-217452f2e143","system_id":"levelo_inurba_marseille","lat":43.279425,"lon":5.410482,"is_reserved":false,"is_disabled":false,"rental_uris":{"android":"levelo://app?vid=034e909b-6d4a-4a74-addc-217452f2e143","ios":"levelo://app?vid=034e909b-6d4a-4a74-addc-217452f2e143"},"vehicle_type_id":"4","last_reported":1740586331,"current_range_meters":12000,"station_id":"ce4bhnp2rcd13ifvqh0g","pricing_plan_id":"cebpf4jnsgd1na2vs0mg"},{"bike_id":"76c46d62-4612-4962-8aa5-991fbceec823","system_id":"levelo_inurba_marseille","lat":43.29845,"lon":5.39752,"is_reserved":false,"is_disabled":false,"rental_uris":{"android":"levelo://app?vid=76c46d62-4612-4962-8aa5-991fbceec823","ios":"levelo://app?vid=76c46d62-4612-4962-8aa5-991fbceec823"},"vehicle_type_id":"4","last_reported":1740586331,"current_range_meters":10800,"station_id":"ce4bh0h2rcd13ifvqd50","pricing_plan_id":"cebpf4jnsgd1na2vs0mg"},{"bike_id":"511df7e7-1330-4159-bb5d-325216084662","system_id":"levelo_inurba_marseille","lat":43.26557,"lon":5.37294,"is_reserved":false,"is_disabled":false,"rental_uris":{"android":"levelo://app?vid=511df7e7-1330-4159-bb5d-325216084662","ios":"levelo://app?vid=511df7e7-1330-4159-bb5d-325216084662"},"vehicle_type_id":"4","last_reported":1740586331,"current_range_meters":12400,"station_id":"ce4bhg12rcd13ifvqf70","pricing_plan_id":"cebpf4jnsgd1na2vs0mg"},{"bike_id":"916db933-e3bb-4a39-a02a-8aa6dbd1cd9f","system_id":"levelo_inurba_marseille","lat":43.29005,"lon":5.3561,"is_reserved":false,"is_disabled":false,"rental_uris":{"android":"levelo://app?vid=916db933-e3bb-4a39-a02a-8aa6dbd1cd9f","ios":"levelo://app?vid=916db933-e3bb-4a39-a02a-8aa6dbd1cd9f"},"vehicle_type_id":"4","last_reported":1740586331,"current_range_meters":12800,"station_id":"ce4bhb92rcd13ifvqen0","pricing_plan_id":"cebpf4jnsgd1na2vs0mg"},{"bike_id":"9a6f21ab-00ab-4659-a64f-a05d55d80f27","system_id":"levelo_inurba_marseille","lat":43.23154,"lon":5.43703,"is_reserved":false,"is_disabled":false,"rental_uris":{"android":"levelo://app?vid=9a6f21ab-00ab-4659-a64f-a05d55d80f27","ios":"levelo://app?vid=9a6f21ab-00ab-4659-a64f-a05d55d80f27"},"vehicle_type_id":"4","last_reported":1740586331,"current_range_meters":12800,"station_id":"ce4bhmp2rcd13ifvqgog","pricing_plan_id":"cebpf4jnsgd1na2vs0mg"},{"bike_id":"0433191a-0b6b-44c4-a359-306fdae91677","system_id":"levelo_inurba_marseille","lat":43.30607,"lon":5.372265,"is_reserved":false,"is_disabled":false,"rental_uris":{"android":"levelo://app?vid=0433191a-0b6b-44c4-a359-306fdae91677","ios":"levelo://app?vid=0433191a-0b6b-44c4-a359-306fdae91677"},"vehicle_type_id":"4","last_reported":1740586331,"current_range_meters":12800,"station_id":"ce4bgqh2rcd13ifvqc4g","pricing_plan_id":"cebpf4jnsgd1na2vs0mg"},{"bike_id":"c1e1cfc9-4e56-4f7a-94a9-2d01d9bb2a93","system_id":"levelo_inurba_marseille","lat":43.24806,"lon":5.3745,"is_reserved":false,"is_disabled":false,"rental_uris":{"android":"levelo://app?vid=c1e1cfc9-4e56-4f7a-94a9-2d01d9bb2a93","ios":"levelo://app?vid=c1e1cfc9-4e56-4f7a-94a9-2d01d9bb2a93"},"vehicle_type_id":"4","last_reported":1740586331,"current_range_meters":12800,"station_id":"ce4bhgh2rcd13ifvqfb0","pricing_plan_id":"cebpf4jnsgd1na2vs0mg"},{"bike_id":"ad9571bc-5194-4f71-90ef-f1cb0835f36e","system_id":"levelo_inurba_marseille","lat":43.25503,"lon":5.37662,"is_reserved":false,"is_disabled":false,"rental_uris":{"android":"levelo://app?vid=ad9571bc-5194-4f71-90ef-f1cb0835f36e","ios":"levelo://app?vid=ad9571bc-5194-4f71-90ef-f1cb0835f36e"},"vehicle_type_id":"4","last_reported":1740586331,"current_range_meters":12800,"station_id":"ce4bhh12rcd13ifvqff0","pricing_plan_id":"cebpf4jnsgd1na2vs0mg"},{"bike_id":"24251a27-4099-49e1-ae91-825152306e43","system_id":"levelo_inurba_marseille","lat":43.27846,"lon":5.39221,"is_reserved":false,"is_disabled":false,"rental_uris":{"android":"levelo://app?vid=24251a27-4099-49e1-ae91-825152306e43","ios":"levelo://app?vid=24251a27-4099-49e1-ae91-825152306e43"},"vehicle_type_id":"4","last_reported":1740586331,"current_range_meters":12400,"station_id":"ce4bhjp2rcd13ifvqga0","pricing_plan_id":"cebpf4jnsgd1na2vs0mg"},{"bike_id":"1ca5b1d5-5a53-46dd-b1b2-e83fd71df428","system_id":"levelo_inurba_marseille","lat":43.279526,"lon":5.410484,"is_reserved":false,"is_disabled":false,"rental_uris":{"android":"levelo://app?vid=1ca5b1d5-5a53-46dd-b1b2-e83fd71df428","ios":"levelo://app?vid=1ca5b1d5-5a53-46dd-b1b2-e83fd71df428"},"vehicle_type_id":"4","last_reported":1740586331,"current_range_meters":13600,"station_id":"ce4bhnp2rcd13ifvqh0g","pricing_plan_id":"cebpf4jnsgd1na2vs0mg"},{"bike_id":"b6c5a5ec-eab5-46f5-b1ac-f8fb5e8bbc6f","system_id":"levelo_inurba_marseille","lat":43.24655,"lon":5.38167,"is_reserved":false,"is_disabled":false,"rental_uris":{"android":"levelo://app?vid=b6c5a5ec-eab5-46f5-b1ac-f8fb5e8bbc6f","ios":"levelo://app?vid=b6c5a5ec-eab5-46f5-b1ac-f8fb5e8bbc6f"},"vehicle_type_id":"4","last_reported":1740586331,"current_range_meters":13600,"station_id":"ce4bhih2rcd13ifvqfr0","pricing_plan_id":"cebpf4jnsgd1na2vs0mg"},{"bike_id":"8a6c2aa2-b053-4956-a195-aebfa88842c8","system_id":"levelo_inurba_marseille","lat":43.2919,"lon":5.39316,"is_reserved":false,"is_disabled":false,"rental_uris":{"android":"levelo://app?vid=8a6c2aa2-b053-4956-a195-aebfa88842c8","ios":"levelo://app?vid=8a6c2aa2-b053-4956-a195-aebfa88842c8"},"vehicle_type_id":"4","last_reported":1740586331,"current_range_meters":12800,"station_id":"ce4bh192rcd13ifvqdd0","pricing_plan_id":"cebpf4jnsgd1na2vs0mg"},{"bike_id":"f66913d8-adc8-4497-b81a-8613461ae8a9","system_id":"levelo_inurba_marseille","lat":43.28419,"lon":5.34993,"is_reserved":false,"is_disabled":false,"rental_uris":{"android":"levelo://app?vid=f66913d8-adc8-4497-b81a-8613461ae8a9","ios":"levelo://app?vid=f66913d8-adc8-4497-b81a-8613461ae8a9"},"vehicle_type_id":"4","last_reported":1740586331,"current_range_meters":13600,"station_id":"ce4bhbh2rcd13ifvqepg","pricing_plan_id":"cebpf4jnsgd1na2vs0mg"},{"bike_id":"c2fdae17-965c-492e-a65a-f41a264b4794","system_id":"levelo_inurba_marseille","lat":43.29294,"lon":5.3746,"is_reserved":false,"is_disabled":false,"rental_uris":{"android":"levelo://app?vid=c2fdae17-965c-492e-a65a-f41a264b4794","ios":"levelo://app?vid=c2fdae17-965c-492e-a65a-f41a264b4794"},"vehicle_type_id":"4","last_reported":1740586331,"current_range_meters":13600,"station_id":"ce4bgi12rcd13ifvqb70","pricing_plan_id":"cebpf4jnsgd1na2vs0mg"},{"bike_id":"620faf8f-9860-4e84-b6cd-4559a0b9a89c","system_id":"levelo_inurba_marseille","lat":43.3248,"lon":5.36537,"is_reserved":false,"is_disabled":false,"rental_uris":{"android":"levelo://app?vid=620faf8f-9860-4e84-b6cd-4559a0b9a89c","ios":"levelo://app?vid=620faf8f-9860-4e84-b6cd-4559a0b9a89c"},"vehicle_type_id":"4","last_reported":1740586331,"current_range_meters":13600,"station_id":"ce4bhs12rcd13ifvqhvg","pricing_plan_id":"cebpf4jnsgd1na2vs0mg"},{"bike_id":"57772caa-8ab8-4428-afea-3c045597a429","system_id":"levelo_inurba_marseille","lat":43.30543,"lon":5.38429,"is_reserved":false,"is_disabled":true,"rental_uris":{"android":"levelo://app?vid=57772caa-8ab8-4428-afea-3c045597a429","ios":"levelo://app?vid=57772caa-8ab8-4428-afea-3c045597a429"},"vehicle_type_id":"4","last_reported":1740586331,"current_range_meters":13600,"station_id":"ce4bgg92rcd13ifvqb30","pricing_plan_id":"cebpf4jnsgd1na2vs0mg"},{"bike_id":"7266af47-e9f0-4e43-bba1-095ebf3818bf","system_id":"levelo_inurba_marseille","lat":43.25073,"lon":5.39533,"is_reserved":false,"is_disabled":false,"rental_uris":{"android":"levelo://app?vid=7266af47-e9f0-4e43-bba1-095ebf3818bf","ios":"levelo://app?vid=7266af47-e9f0-4e43-bba1-095ebf3818bf"},"vehicle_type_id":"4","last_reported":1740586331,"current_range_meters":13600,"station_id":"ce4bhm12rcd13ifvqgkg","pricing_plan_id":"cebpf4jnsgd1na2vs0mg"},{"bike_id":"98b238a9-4025-493e-bfff-4f030bc1db49","system_id":"levelo_inurba_marseille","lat":43.30873,"lon":5.39638,"is_reserved":false,"is_disabled":false,"rental_uris":{"android":"levelo://app?vid=98b238a9-4025-493e-bfff-4f030bc1db49","ios":"levelo://app?vid=98b238a9-4025-493e-bfff-4f030bc1db49"},"vehicle_type_id":"4","last_reported":1740586331,"current_range_meters":13600,"station_id":"ce4bh012rcd13ifvqcv0","pricing_plan_id":"cebpf4jnsgd1na2vs0mg"},{"bike_id":"2215d5e4-8798-4621-81ec-24430288d53b","system_id":"levelo_inurba_marseille","lat":43.31991,"lon":5.38156,"is_reserved":false,"is_disabled":false,"rental_uris":{"android":"levelo://app?vid=2215d5e4-8798-4621-81ec-24430288d53b","ios":"levelo://app?vid=2215d5e4-8798-4621-81ec-24430288d53b"},"vehicle_type_id":"4","last_reported":1740586331,"current_range_meters":14000,"station_id":"ce4bhr12rcd13ifvqhpg","pricing_plan_id":"cebpf4jnsgd1na2vs0mg"},{"bike_id":"c5831f83-617a-4c44-b01b-5e23dfdc9298","system_id":"levelo_inurba_marseille","lat":43.2679,"lon":5.39415,"is_reserved":false,"is_disabled":false,"rental_uris":{"android":"levelo://app?vid=c5831f83-617a-4c44-b01b-5e23dfdc9298","ios":"levelo://app?vid=c5831f83-617a-4c44-b01b-5e23dfdc9298"},"vehicle_type_id":"4","last_reported":1740586331,"current_range_meters":14400,"station_id":"ce4bhh12rcd13ifvqfg0","pricing_plan_id":"cebpf4jnsgd1na2vs0mg"},{"bike_id":"556f960b-c033-4485-a59d-87e7e7ecb70b","system_id":"levelo_inurba_marseille","lat":43.31122,"lon":5.37767,"is_reserved":false,"is_disabled":false,"rental_uris":{"android":"levelo://app?vid=556f960b-c033-4485-a59d-87e7e7ecb70b","ios":"levelo://app?vid=556f960b-c033-4485-a59d-87e7e7ecb70b"},"vehicle_type_id":"4","last_reported":1740586331,"current_range_meters":14000,"station_id":"ce4bgt92rcd13ifvqcg0","pricing_plan_id":"cebpf4jnsgd1na2vs0mg"},{"bike_id":"19e4983d-b74d-4524-9c14-80fb6905f947","system_id":"levelo_inurba_marseille","lat":43.32101,"lon":5.36793,"is_reserved":false,"is_disabled":false,"rental_uris":{"android":"levelo://app?vid=19e4983d-b74d-4524-9c14-80fb6905f947","ios":"levelo://app?vid=19e4983d-b74d-4524-9c14-80fb6905f947"},"vehicle_type_id":"4","last_reported":1740586331,"current_range_meters":14000,"station_id":"ce4bhrh2rcd13ifvqhug","pricing_plan_id":"cebpf4jnsgd1na2vs0mg"},{"bike_id":"a29c9bb4-893c-4806-a38d-fe3bd2f5a3e1","system_id":"levelo_inurba_marseille","lat":43.30792,"lon":5.37652,"is_reserved":false,"is_disabled":false,"rental_uris":{"android":"levelo://app?vid=a29c9bb4-893c-4806-a38d-fe3bd2f5a3e1","ios":"levelo://app?vid=a29c9bb4-893c-4806-a38d-fe3bd2f5a3e1"},"vehicle_type_id":"4","last_reported":1740586331,"current_range_meters":14400,"station_id":"ce4bgv92rcd13ifvqcq0","pricing_plan_id":"cebpf4jnsgd1na2vs0mg"},{"bike_id":"4751e6ac-9391-4c19-9ee7-b950c613de07","system_id":"levelo_inurba_marseille","lat":43.30436,"lon":5.38904,"is_reserved":false,"is_disabled":false,"rental_uris":{"android":"levelo://app?vid=4751e6ac-9391-4c19-9ee7-b950c613de07","ios":"levelo://app?vid=4751e6ac-9391-4c19-9ee7-b950c613de07"},"vehicle_type_id":"4","last_reported":1740586331,"current_range_meters":14000,"station_id":"ce4bgk12rcd13ifvqbi0","pricing_plan_id":"cebpf4jnsgd1na2vs0mg"},{"bike_id":"9dc7e2d5-119c-4c57-96cd-7fcca21c9c6c","system_id":"levelo_inurba_marseille","lat":43.32472,"lon":5.36583,"is_reserved":false,"is_disabled":false,"rental_uris":{"android":"levelo://app?vid=9dc7e2d5-119c-4c57-96cd-7fcca21c9c6c","ios":"levelo://app?vid=9dc7e2d5-119c-4c57-96cd-7fcca21c9c6c"},"vehicle_type_id":"4","last_reported":1740586331,"current_range_meters":14400,"station_id":"ce4bhs12rcd13ifvqhvg","pricing_plan_id":"cebpf4jnsgd1na2vs0mg"},{"bike_id":"6a9e3cbe-ab13-49a5-a1cc-42704f22041f","system_id":"levelo_inurba_marseille","lat":43.29785,"lon":5.38089,"is_reserved":false,"is_disabled":false,"rental_uris":{"android":"levelo://app?vid=6a9e3cbe-ab13-49a5-a1cc-42704f22041f","ios":"levelo://app?vid=6a9e3cbe-ab13-49a5-a1cc-42704f22041f"},"vehicle_type_id":"4","last_reported":1740586331,"current_range_meters":14800,"station_id":"ce4bgip2rcd13ifvqbb0","pricing_plan_id":"cebpf4jnsgd1na2vs0mg"},{"bike_id":"27ee8949-f23e-45ac-9591-cf4123348827","system_id":"levelo_inurba_marseille","lat":43.301349,"lon":5.398433,"is_reserved":false,"is_disabled":false,"rental_uris":{"android":"levelo://app?vid=27ee8949-f23e-45ac-9591-cf4123348827","ios":"levelo://app?vid=27ee8949-f23e-45ac-9591-cf4123348827"},"vehicle_type_id":"4","last_reported":1740586331,"current_range_meters":14400,"station_id":"ce4bh0h2rcd13ifvqd40","pricing_plan_id":"cebpf4jnsgd1na2vs0mg"},{"bike_id":"26beaa03-4b78-4656-b0ab-8f85a8667980","system_id":"levelo_inurba_marseille","lat":43.30407,"lon":5.3891,"is_reserved":false,"is_disabled":false,"rental_uris":{"android":"levelo://app?vid=26beaa03-4b78-4656-b0ab-8f85a8667980","ios":"levelo://app?vid=26beaa03-4b78-4656-b0ab-8f85a8667980"},"vehicle_type_id":"4","last_reported":1740586331,"current_range_meters":14400,"station_id":"ce4bgk12rcd13ifvqbi0","pricing_plan_id":"cebpf4jnsgd1na2vs0mg"},{"bike_id":"3327c6e8-2bee-4c67-a399-a15fec797e71","system_id":"levelo_inurba_marseille","lat":43.28863,"lon":5.35842,"is_reserved":false,"is_disabled":false,"rental_uris":{"android":"levelo://app?vid=3327c6e8-2bee-4c67-a399-a15fec797e71","ios":"levelo://app?vid=3327c6e8-2bee-4c67-a399-a15fec797e71"},"vehicle_type_id":"4","last_reported":1740586331,"current_range_meters":12000,"station_id":"ce4bhb12rcd13ifvqem0","pricing_plan_id":"cebpf4jnsgd1na2vs0mg"},{"bike_id":"1d603e55-5939-499f-95ae-55d30c9c2364","system_id":"levelo_inurba_marseille","lat":43.28154,"lon":5.42649,"is_reserved":false,"is_disabled":false,"rental_uris":{"android":"levelo://app?vid=1d603e55-5939-499f-95ae-55d30c9c2364","ios":"levelo://app?vid=1d603e55-5939-499f-95ae-55d30c9c2364"},"vehicle_type_id":"4","last_reported":1740586331,"current_range_meters":14800,"station_id":"ce4bhnh2rcd13ifvqgug","pricing_plan_id":"cebpf4jnsgd1na2vs0mg"},{"bike_id":"17973595-0627-4cbe-be09-6d52168568c1","system_id":"levelo_inurba_marseille","lat":43.27815,"lon":5.40728,"is_reserved":false,"is_disabled":false,"rental_uris":{"android":"levelo://app?vid=17973595-0627-4cbe-be09-6d52168568c1","ios":"levelo://app?vid=17973595-0627-4cbe-be09-6d52168568c1"},"vehicle_type_id":"4","last_reported":1740586331,"current_range_meters":14800,"station_id":"ce4bhnh2rcd13ifvqgtg","pricing_plan_id":"cebpf4jnsgd1na2vs0mg"},{"bike_id":"c1f5384a-71a2-4dad-80de-d395c09980f5","system_id":"levelo_inurba_marseille","lat":43.31365,"lon":5.36737,"is_reserved":false,"is_disabled":false,"rental_uris":{"android":"levelo://app?vid=c1f5384a-71a2-4dad-80de-d395c09980f5","ios":"levelo://app?vid=c1f5384a-71a2-4dad-80de-d395c09980f5"},"vehicle_type_id":"4","last_reported":1740586331,"current_range_meters":15200,"station_id":"ce4bgr92rcd13ifvqc6g","pricing_plan_id":"cebpf4jnsgd1na2vs0mg"},{"bike_id":"40183865-f54c-4ce0-8958-f7bfe6675ef6","system_id":"levelo_inurba_marseille","lat":43.3189,"lon":5.40747,"is_reserved":false,"is_disabled":false,"rental_uris":{"android":"levelo://app?vid=40183865-f54c-4ce0-8958-f7bfe6675ef6","ios":"levelo://app?vid=40183865-f54c-4ce0-8958-f7bfe6675ef6"},"vehicle_type_id":"4","last_reported":1740586331,"current_range_meters":16800,"station_id":"ce4bhq12rcd13ifvqhig","pricing_plan_id":"cebpf4jnsgd1na2vs0mg"},{"bike_id":"10662690-b91b-4fbe-9cf1-e2f63c03ba13","system_id":"levelo_inurba_marseille","lat":43.27372,"lon":5.36254,"is_reserved":false,"is_disabled":false,"rental_uris":{"android":"levelo://app?vid=10662690-b91b-4fbe-9cf1-e2f63c03ba13","ios":"levelo://app?vid=10662690-b91b-4fbe-9cf1-e2f63c03ba13"},"vehicle_type_id":"4","last_reported":1740586331,"current_range_meters":14800,"station_id":"ce4bhbh2rcd13ifvqeo0","pricing_plan_id":"cebpf4jnsgd1na2vs0mg"},{"bike_id":"e5c99616-e440-4064-8792-f8982af68663","system_id":"levelo_inurba_marseille","lat":43.302494,"lon":5.400841,"is_reserved":false,"is_disabled":false,"rental_uris":{"android":"levelo://app?vid=e5c99616-e440-4064-8792-f8982af68663","ios":"levelo://app?vid=e5c99616-e440-4064-8792-f8982af68663"},"vehicle_type_id":"4","last_reported":1740586331,"current_range_meters":10000,"station_id":"ce4bgj92rcd13ifvqbd0","pricing_plan_id":"cebpf4jnsgd1na2vs0mg"},{"bike_id":"d0eed576-967a-4a22-90f0-1b8c0372f57a","system_id":"levelo_inurba_marseille","lat":43.250154,"lon":5.389151,"is_reserved":false,"is_disabled":false,"rental_uris":{"android":"levelo://app?vid=d0eed576-967a-4a22-90f0-1b8c0372f57a","ios":"levelo://app?vid=d0eed576-967a-4a22-90f0-1b8c0372f57a"},"vehicle_type_id":"4","last_reported":1740586331,"current_range_meters":16000,"station_id":"ce4bhgp2rcd13ifvqfd0","pricing_plan_id":"cebpf4jnsgd1na2vs0mg"},{"bike_id":"fa0aafd3-f7a1-4527-84ca-88eacb12cc96","system_id":"levelo_inurba_marseille","lat":43.30305,"lon":5.39209,"is_reserved":false,"is_disabled":false,"rental_uris":{"android":"levelo://app?vid=fa0aafd3-f7a1-4527-84ca-88eacb12cc96","ios":"levelo://app?vid=fa0aafd3-f7a1-4527-84ca-88eacb12cc96"},"vehicle_type_id":"4","last_reported":1740586331,"current_range_meters":16000,"station_id":"ce4bgkh2rcd13ifvqbk0","pricing_plan_id":"cebpf4jnsgd1na2vs0mg"},{"bike_id":"17f4d80a-1474-40a7-8fb0-00bdaf513420","system_id":"levelo_inurba_marseille","lat":43.28106,"lon":5.37841,"is_reserved":false,"is_disabled":false,"rental_uris":{"android":"levelo://app?vid=17f4d80a-1474-40a7-8fb0-00bdaf513420","ios":"levelo://app?vid=17f4d80a-1474-40a7-8fb0-00bdaf513420"},"vehicle_type_id":"4","last_reported":1740586331,"current_range_meters":16000,"station_id":"ce4bha12rcd13ifvqee0","pricing_plan_id":"cebpf4jnsgd1na2vs0mg"},{"bike_id":"32b06090-547a-420f-bb9a-f4d552b80295","system_id":"levelo_inurba_marseille","lat":43.27057,"lon":5.40265,"is_reserved":false,"is_disabled":false,"rental_uris":{"android":"levelo://app?vid=32b06090-547a-420f-bb9a-f4d552b80295","ios":"levelo://app?vid=32b06090-547a-420f-bb9a-f4d552b80295"},"vehicle_type_id":"4","last_reported":1740586331,"current_range_meters":16000,"station_id":"ce4bhk92rcd13ifvqgc0","pricing_plan_id":"cebpf4jnsgd1na2vs0mg"},{"bike_id":"b9579f56-f335-4edb-af0d-ce0160b0d3e0","system_id":"levelo_inurba_marseille","lat":43.29419,"lon":5.38623,"is_reserved":false,"is_disabled":false,"rental_uris":{"android":"levelo://app?vid=b9579f56-f335-4edb-af0d-ce0160b0d3e0","ios":"levelo://app?vid=b9579f56-f335-4edb-af0d-ce0160b0d3e0"},"vehicle_type_id":"4","last_reported":1740586331,"current_range_meters":18000,"station_id":"ce4bh2h2rcd13ifvqdh0","pricing_plan_id":"cebpf4jnsgd1na2vs0mg"},{"bike_id":"92ef393e-531d-473a-be26-fa92b6713f16","system_id":"levelo_inurba_marseille","lat":43.23146,"lon":5.43713,"is_reserved":false,"is_disabled":false,"rental_uris":{"android":"levelo://app?vid=92ef393e-531d-473a-be26-fa92b6713f16","ios":"levelo://app?vid=92ef393e-531d-473a-be26-fa92b6713f16"},"vehicle_type_id":"4","last_reported":1740586331,"current_range_meters":16000,"station_id":"ce4bhmp2rcd13ifvqgog","pricing_plan_id":"cebpf4jnsgd1na2vs0mg"},{"bike_id":"9d5f68f4-bdcd-445a-978e-0d8a8bf45ae0","system_id":"levelo_inurba_marseille","lat":43.29286,"lon":5.36846,"is_reserved":false,"is_disabled":false,"rental_uris":{"android":"levelo://app?vid=9d5f68f4-bdcd-445a-978e-0d8a8bf45ae0","ios":"levelo://app?vid=9d5f68f4-bdcd-445a-978e-0d8a8bf45ae0"},"vehicle_type_id":"4","last_reported":1740586331,"current_range_meters":16000,"station_id":"ce4bhbp2rcd13ifvqesg","pricing_plan_id":"cebpf4jnsgd1na2vs0mg"},{"bike_id":"5f4f2b18-2796-42e5-9296-a8485121d51e","system_id":"levelo_inurba_marseille","lat":43.25727,"lon":5.41107,"is_reserved":false,"is_disabled":false,"rental_uris":{"android":"levelo://app?vid=5f4f2b18-2796-42e5-9296-a8485121d51e","ios":"levelo://app?vid=5f4f2b18-2796-42e5-9296-a8485121d51e"},"vehicle_type_id":"4","last_reported":1740586331,"current_range_meters":16000,"station_id":"ce4bhkp2rcd13ifvqgd0","pricing_plan_id":"cebpf4jnsgd1na2vs0mg"},{"bike_id":"32022f30-217e-4459-b186-dd7b6ca601cd","system_id":"levelo_inurba_marseille","lat":43.278155,"lon":5.407178,"is_reserved":false,"is_disabled":false,"rental_uris":{"android":"levelo://app?vid=32022f30-217e-4459-b186-dd7b6ca601cd","ios":"levelo://app?vid=32022f30-217e-4459-b186-dd7b6ca601cd"},"vehicle_type_id":"4","last_reported":1740586331,"current_range_meters":16800,"station_id":"ce4bhnh2rcd13ifvqgtg","pricing_plan_id":"cebpf4jnsgd1na2vs0mg"},{"bike_id":"2d49e7ba-30a6-421d-b97b-c087078e2ba7","system_id":"levelo_inurba_marseille","lat":43.23187,"lon":5.39987,"is_reserved":false,"is_disabled":false,"rental_uris":{"android":"levelo://app?vid=2d49e7ba-30a6-421d-b97b-c087078e2ba7","ios":"levelo://app?vid=2d49e7ba-30a6-421d-b97b-c087078e2ba7"},"vehicle_type_id":"4","last_reported":1740586331,"current_range_meters":16400,"station_id":"ce4bhn12rcd13ifvqgqg","pricing_plan_id":"cebpf4jnsgd1na2vs0mg"},{"bike_id":"072059ca-b533-4201-a9d8-cc256662ae7d","system_id":"levelo_inurba_marseille","lat":43.23144,"lon":5.43718,"is_reserved":false,"is_disabled":false,"rental_uris":{"android":"levelo://app?vid=072059ca-b533-4201-a9d8-cc256662ae7d","ios":"levelo://app?vid=072059ca-b533-4201-a9d8-cc256662ae7d"},"vehicle_type_id":"4","last_reported":1740586331,"current_range_meters":16400,"station_id":"ce4bhmp2rcd13ifvqgog","pricing_plan_id":"cebpf4jnsgd1na2vs0mg"},{"bike_id":"dc1deb5f-be60-47dd-a397-2458bf714b12","system_id":"levelo_inurba_marseille","lat":43.23058,"lon":5.35501,"is_reserved":false,"is_disabled":false,"rental_uris":{"android":"levelo://app?vid=dc1deb5f-be60-47dd-a397-2458bf714b12","ios":"levelo://app?vid=dc1deb5f-be60-47dd-a397-2458bf714b12"},"vehicle_type_id":"4","last_reported":1740586331,"current_range_meters":16400,"station_id":"cpo3342slgdg3j2ifvpg","pricing_plan_id":"cebpf4jnsgd1na2vs0mg"},{"bike_id":"bfa6f7d2-c3a6-4c76-b5b5-4810d3f504bd","system_id":"levelo_inurba_marseille","lat":43.27061,"lon":5.40256,"is_reserved":false,"is_disabled":false,"rental_uris":{"android":"levelo://app?vid=bfa6f7d2-c3a6-4c76-b5b5-4810d3f504bd","ios":"levelo://app?vid=bfa6f7d2-c3a6-4c76-b5b5-4810d3f504bd"},"vehicle_type_id":"4","last_reported":1740586331,"current_range_meters":16400,"station_id":"ce4bhk92rcd13ifvqgc0","pricing_plan_id":"cebpf4jnsgd1na2vs0mg"},{"bike_id":"5a620d71-ba06-48c0-9e5f-9c82c4bf1584","system_id":"levelo_inurba_marseille","lat":43.30303,"lon":5.39218,"is_reserved":false,"is_disabled":false,"rental_uris":{"android":"levelo://app?vid=5a620d71-ba06-48c0-9e5f-9c82c4bf1584","ios":"levelo://app?vid=5a620d71-ba06-48c0-9e5f-9c82c4bf1584"},"vehicle_type_id":"4","last_reported":1740586331,"current_range_meters":16400,"station_id":"ce4bgkh2rcd13ifvqbk0","pricing_plan_id":"cebpf4jnsgd1na2vs0mg"},{"bike_id":"43d81013-37ec-449e-94e2-2a31899c4279","system_id":"levelo_inurba_marseille","lat":43.27997,"lon":5.38692,"is_reserved":false,"is_disabled":false,"rental_uris":{"android":"levelo://app?vid=43d81013-37ec-449e-94e2-2a31899c4279","ios":"levelo://app?vid=43d81013-37ec-449e-94e2-2a31899c4279"},"vehicle_type_id":"4","last_reported":1740586331,"current_range_meters":16400,"station_id":"ce4bhg12rcd13ifvqf80","pricing_plan_id":"cebpf4jnsgd1na2vs0mg"},{"bike_id":"03b5c3b0-159f-4ee9-945f-c6a64af3eb2e","system_id":"levelo_inurba_marseille","lat":43.28446,"lon":5.37515,"is_reserved":false,"is_disabled":false,"rental_uris":{"android":"levelo://app?vid=03b5c3b0-159f-4ee9-945f-c6a64af3eb2e","ios":"levelo://app?vid=03b5c3b0-159f-4ee9-945f-c6a64af3eb2e"},"vehicle_type_id":"4","last_reported":1740586331,"current_range_meters":16400,"station_id":"","pricing_plan_id":"cebpf4jnsgd1na2vs0mg"},{"bike_id":"c6470c53-043b-4e9b-a484-892fc4410278","system_id":"levelo_inurba_marseille","lat":43.29624,"lon":5.37175,"is_reserved":false,"is_disabled":false,"rental_uris":{"android":"levelo://app?vid=c6470c53-043b-4e9b-a484-892fc4410278","ios":"levelo://app?vid=c6470c53-043b-4e9b-a484-892fc4410278"},"vehicle_type_id":"4","last_reported":1740586331,"current_range_meters":16400,"station_id":"ce4bgnh2rcd13ifvqc0g","pricing_plan_id":"cebpf4jnsgd1na2vs0mg"},{"bike_id":"a2bc9785-fe24-4d76-9dfb-8ce583b8eb43","system_id":"levelo_inurba_marseille","lat":43.29247,"lon":5.40939,"is_reserved":false,"is_disabled":false,"rental_uris":{"android":"levelo://app?vid=a2bc9785-fe24-4d76-9dfb-8ce583b8eb43","ios":"levelo://app?vid=a2bc9785-fe24-4d76-9dfb-8ce583b8eb43"},"vehicle_type_id":"4","last_reported":1740586331,"current_range_meters":16400,"station_id":"ce4bh192rcd13ifvqdc0","pricing_plan_id":"cebpf4jnsgd1na2vs0mg"},{"bike_id":"cdfdaa3b-203c-4a1b-92a5-c9dd0546d2af","system_id":"levelo_inurba_marseille","lat":43.26551,"lon":5.37288,"is_reserved":false,"is_disabled":false,"rental_uris":{"android":"levelo://app?vid=cdfdaa3b-203c-4a1b-92a5-c9dd0546d2af","ios":"levelo://app?vid=cdfdaa3b-203c-4a1b-92a5-c9dd0546d2af"},"vehicle_type_id":"4","last_reported":1740586331,"current_range_meters":16800,"station_id":"ce4bhg12rcd13ifvqf70","pricing_plan_id":"cebpf4jnsgd1na2vs0mg"},{"bike_id":"6202b189-9ebb-4798-abff-1e28411d61ad","system_id":"levelo_inurba_marseille","lat":43.2315,"lon":5.4371,"is_reserved":false,"is_disabled":false,"rental_uris":{"android":"levelo://app?vid=6202b189-9ebb-4798-abff-1e28411d61ad","ios":"levelo://app?vid=6202b189-9ebb-4798-abff-1e28411d61ad"},"vehicle_type_id":"4","last_reported":1740586331,"current_range_meters":16800,"station_id":"ce4bhmp2rcd13ifvqgog","pricing_plan_id":"cebpf4jnsgd1na2vs0mg"},{"bike_id":"7719010b-43e0-47b2-9f39-4773b948eac1","system_id":"levelo_inurba_marseille","lat":43.30789,"lon":5.37663,"is_reserved":false,"is_disabled":false,"rental_uris":{"android":"levelo://app?vid=7719010b-43e0-47b2-9f39-4773b948eac1","ios":"levelo://app?vid=7719010b-43e0-47b2-9f39-4773b948eac1"},"vehicle_type_id":"4","last_reported":1740586331,"current_range_meters":17600,"station_id":"ce4bgv92rcd13ifvqcq0","pricing_plan_id":"cebpf4jnsgd1na2vs0mg"},{"bike_id":"bc679af8-b2d8-495d-8f01-39de79e9748b","system_id":"levelo_inurba_marseille","lat":43.29585,"lon":5.36737,"is_reserved":false,"is_disabled":false,"rental_uris":{"android":"levelo://app?vid=bc679af8-b2d8-495d-8f01-39de79e9748b","ios":"levelo://app?vid=bc679af8-b2d8-495d-8f01-39de79e9748b"},"vehicle_type_id":"4","last_reported":1740586331,"current_range_meters":17200,"station_id":"ce4bgph2rcd13ifvqc2g","pricing_plan_id":"cebpf4jnsgd1na2vs0mg"},{"bike_id":"970aedd1-7d94-4325-b9ae-ce0b906cfa8f","system_id":"levelo_inurba_marseille","lat":43.30431,"lon":5.38893,"is_reserved":false,"is_disabled":false,"rental_uris":{"android":"levelo://app?vid=970aedd1-7d94-4325-b9ae-ce0b906cfa8f","ios":"levelo://app?vid=970aedd1-7d94-4325-b9ae-ce0b906cfa8f"},"vehicle_type_id":"4","last_reported":1740586331,"current_range_meters":17200,"station_id":"ce4bgk12rcd13ifvqbi0","pricing_plan_id":"cebpf4jnsgd1na2vs0mg"},{"bike_id":"c8cf8366-0c44-45bd-9143-3b5fae02e2ac","system_id":"levelo_inurba_marseille","lat":43.28156,"lon":5.42653,"is_reserved":false,"is_disabled":false,"rental_uris":{"android":"levelo://app?vid=c8cf8366-0c44-45bd-9143-3b5fae02e2ac","ios":"levelo://app?vid=c8cf8366-0c44-45bd-9143-3b5fae02e2ac"},"vehicle_type_id":"4","last_reported":1740586331,"current_range_meters":17200,"station_id":"ce4bhnh2rcd13ifvqgug","pricing_plan_id":"cebpf4jnsgd1na2vs0mg"},{"bike_id":"64d18092-705d-469f-aaac-4b8a0499b456","system_id":"levelo_inurba_marseille","lat":43.31081,"lon":5.38347,"is_reserved":false,"is_disabled":false,"rental_uris":{"android":"levelo://app?vid=64d18092-705d-469f-aaac-4b8a0499b456","ios":"levelo://app?vid=64d18092-705d-469f-aaac-4b8a0499b456"},"vehicle_type_id":"4","last_reported":1740586331,"current_range_meters":17200,"station_id":"ce4bgv92rcd13ifvqcr0","pricing_plan_id":"cebpf4jnsgd1na2vs0mg"},{"bike_id":"8fccdb2e-af62-4a29-98c4-9bc5f39cc629","system_id":"levelo_inurba_marseille","lat":43.28,"lon":5.40009,"is_reserved":false,"is_disabled":false,"rental_uris":{"android":"levelo://app?vid=8fccdb2e-af62-4a29-98c4-9bc5f39cc629","ios":"levelo://app?vid=8fccdb2e-af62-4a29-98c4-9bc5f39cc629"},"vehicle_type_id":"4","last_reported":1740586331,"current_range_meters":17200,"station_id":"ce4bho92rcd13ifvqh4g","pricing_plan_id":"cebpf4jnsgd1na2vs0mg"},{"bike_id":"19e09a69-c57f-482a-b847-7f66783bd645","system_id":"levelo_inurba_marseille","lat":43.27815,"lon":5.40701,"is_reserved":false,"is_disabled":false,"rental_uris":{"android":"levelo://app?vid=19e09a69-c57f-482a-b847-7f66783bd645","ios":"levelo://app?vid=19e09a69-c57f-482a-b847-7f66783bd645"},"vehicle_type_id":"4","last_reported":1740586331,"current_range_meters":17200,"station_id":"ce4bhnh2rcd13ifvqgtg","pricing_plan_id":"cebpf4jnsgd1na2vs0mg"},{"bike_id":"1c5d384c-e58e-4bf8-a4a8-9b67f2ad8067","system_id":"levelo_inurba_marseille","lat":43.28146,"lon":5.42647,"is_reserved":false,"is_disabled":false,"rental_uris":{"android":"levelo://app?vid=1c5d384c-e58e-4bf8-a4a8-9b67f2ad8067","ios":"levelo://app?vid=1c5d384c-e58e-4bf8-a4a8-9b67f2ad8067"},"vehicle_type_id":"4","last_reported":1740586331,"current_range_meters":17200,"station_id":"ce4bhnh2rcd13ifvqgug","pricing_plan_id":"cebpf4jnsgd1na2vs0mg"},{"bike_id":"538172b0-542e-47c1-a61f-752812f25391","system_id":"levelo_inurba_marseille","lat":43.27052,"lon":5.40269,"is_reserved":false,"is_disabled":false,"rental_uris":{"android":"levelo://app?vid=538172b0-542e-47c1-a61f-752812f25391","ios":"levelo://app?vid=538172b0-542e-47c1-a61f-752812f25391"},"vehicle_type_id":"4","last_reported":1740586331,"current_range_meters":17600,"station_id":"ce4bhk92rcd13ifvqgc0","pricing_plan_id":"cebpf4jnsgd1na2vs0mg"},{"bike_id":"0ed72788-312f-4398-811f-dc2e05b88741","system_id":"levelo_inurba_marseille","lat":43.28949,"lon":5.36397,"is_reserved":false,"is_disabled":false,"rental_uris":{"android":"levelo://app?vid=0ed72788-312f-4398-811f-dc2e05b88741","ios":"levelo://app?vid=0ed72788-312f-4398-811f-dc2e05b88741"},"vehicle_type_id":"4","last_reported":1740586331,"current_range_meters":17600,"station_id":"ce4bhc92rcd13ifvqetg","pricing_plan_id":"cebpf4jnsgd1na2vs0mg"},{"bike_id":"e8facc08-88ac-47df-998d-5092ebbf71c6","system_id":"levelo_inurba_marseille","lat":43.2408,"lon":5.37758,"is_reserved":false,"is_disabled":false,"rental_uris":{"android":"levelo://app?vid=e8facc08-88ac-47df-998d-5092ebbf71c6","ios":"levelo://app?vid=e8facc08-88ac-47df-998d-5092ebbf71c6"},"vehicle_type_id":"4","last_reported":1740586331,"current_range_meters":17600,"station_id":"ce4bhnp2rcd13ifvqgvg","pricing_plan_id":"cebpf4jnsgd1na2vs0mg"},{"bike_id":"43060123-5b35-49fe-a797-de2d0a07ced2","system_id":"levelo_inurba_marseille","lat":43.29624,"lon":5.3717,"is_reserved":false,"is_disabled":false,"rental_uris":{"android":"levelo://app?vid=43060123-5b35-49fe-a797-de2d0a07ced2","ios":"levelo://app?vid=43060123-5b35-49fe-a797-de2d0a07ced2"},"vehicle_type_id":"4","last_reported":1740586331,"current_range_meters":17600,"station_id":"ce4bgnh2rcd13ifvqc0g","pricing_plan_id":"cebpf4jnsgd1na2vs0mg"},{"bike_id":"a8dac662-04f9-46b7-b335-a013d510eb4a","system_id":"levelo_inurba_marseille","lat":43.3088,"lon":5.39651,"is_reserved":false,"is_disabled":false,"rental_uris":{"android":"levelo://app?vid=a8dac662-04f9-46b7-b335-a013d510eb4a","ios":"levelo://app?vid=a8dac662-04f9-46b7-b335-a013d510eb4a"},"vehicle_type_id":"4","last_reported":1740586331,"current_range_meters":18000,"station_id":"ce4bh012rcd13ifvqcv0","pricing_plan_id":"cebpf4jnsgd1na2vs0mg"},{"bike_id":"b32c933f-f1f6-498d-b428-176f5cc6d4d8","system_id":"levelo_inurba_marseille","lat":43.28683,"lon":5.38665,"is_reserved":false,"is_disabled":false,"rental_uris":{"android":"levelo://app?vid=b32c933f-f1f6-498d-b428-176f5cc6d4d8","ios":"levelo://app?vid=b32c933f-f1f6-498d-b428-176f5cc6d4d8"},"vehicle_type_id":"4","last_reported":1740586331,"current_range_meters":17600,"station_id":"ce4bh492rcd13ifvqdug","pricing_plan_id":"cebpf4jnsgd1na2vs0mg"},{"bike_id":"8bb67fcf-d51e-4fb4-b020-ab7986083322","system_id":"levelo_inurba_marseille","lat":43.299804,"lon":5.384203,"is_reserved":false,"is_disabled":false,"rental_uris":{"android":"levelo://app?vid=8bb67fcf-d51e-4fb4-b020-ab7986083322","ios":"levelo://app?vid=8bb67fcf-d51e-4fb4-b020-ab7986083322"},"vehicle_type_id":"4","last_reported":1740586331,"current_range_meters":17600,"station_id":"ce4bh292rcd13ifvqdf0","pricing_plan_id":"cebpf4jnsgd1na2vs0mg"},{"bike_id":"201ea875-dcfb-46bc-8b15-e3348accddfb","system_id":"levelo_inurba_marseille","lat":43.2842,"lon":5.34984,"is_reserved":false,"is_disabled":false,"rental_uris":{"android":"levelo://app?vid=201ea875-dcfb-46bc-8b15-e3348accddfb","ios":"levelo://app?vid=201ea875-dcfb-46bc-8b15-e3348accddfb"},"vehicle_type_id":"4","last_reported":1740586331,"current_range_meters":17600,"station_id":"ce4bhbh2rcd13ifvqepg","pricing_plan_id":"cebpf4jnsgd1na2vs0mg"},{"bike_id":"f873cc6f-a3df-41db-8b8e-d27fb9ded171","system_id":"levelo_inurba_marseille","lat":43.27938,"lon":5.41053,"is_reserved":false,"is_disabled":false,"rental_uris":{"android":"levelo://app?vid=f873cc6f-a3df-41db-8b8e-d27fb9ded171","ios":"levelo://app?vid=f873cc6f-a3df-41db-8b8e-d27fb9ded171"},"vehicle_type_id":"4","last_reported":1740586331,"current_range_meters":18000,"station_id":"ce4bhnp2rcd13ifvqh0g","pricing_plan_id":"cebpf4jnsgd1na2vs0mg"},{"bike_id":"8e3ca8c1-682d-42df-869d-550b4308d578","system_id":"levelo_inurba_marseille","lat":43.29615,"lon":5.37172,"is_reserved":false,"is_disabled":false,"rental_uris":{"android":"levelo://app?vid=8e3ca8c1-682d-42df-869d-550b4308d578","ios":"levelo://app?vid=8e3ca8c1-682d-42df-869d-550b4308d578"},"vehicle_type_id":"4","last_reported":1740586331,"current_range_meters":18000,"station_id":"ce4bgnh2rcd13ifvqc0g","pricing_plan_id":"cebpf4jnsgd1na2vs0mg"},{"bike_id":"451bde95-d50a-4ae4-9f07-3d2475af7250","system_id":"levelo_inurba_marseille","lat":43.23142,"lon":5.43697,"is_reserved":false,"is_disabled":false,"rental_uris":{"android":"levelo://app?vid=451bde95-d50a-4ae4-9f07-3d2475af7250","ios":"levelo://app?vid=451bde95-d50a-4ae4-9f07-3d2475af7250"},"vehicle_type_id":"4","last_reported":1740586331,"current_range_meters":18800,"station_id":"ce4bhmp2rcd13ifvqgog","pricing_plan_id":"cebpf4jnsgd1na2vs0mg"},{"bike_id":"8e7ca1de-f2e1-45da-a0a6-c0442942ed30","system_id":"levelo_inurba_marseille","lat":43.25501,"lon":5.37649,"is_reserved":false,"is_disabled":false,"rental_uris":{"android":"levelo://app?vid=8e7ca1de-f2e1-45da-a0a6-c0442942ed30","ios":"levelo://app?vid=8e7ca1de-f2e1-45da-a0a6-c0442942ed30"},"vehicle_type_id":"4","last_reported":1740586331,"current_range_meters":18000,"station_id":"ce4bhh12rcd13ifvqff0","pricing_plan_id":"cebpf4jnsgd1na2vs0mg"},{"bike_id":"921cfc99-7d9d-4b50-a06d-ce45c291ac88","system_id":"levelo_inurba_marseille","lat":43.248031,"lon":5.374559,"is_reserved":false,"is_disabled":false,"rental_uris":{"android":"levelo://app?vid=921cfc99-7d9d-4b50-a06d-ce45c291ac88","ios":"levelo://app?vid=921cfc99-7d9d-4b50-a06d-ce45c291ac88"},"vehicle_type_id":"4","last_reported":1740586331,"current_range_meters":18000,"station_id":"ce4bhhh2rcd13ifvqfk0","pricing_plan_id":"cebpf4jnsgd1na2vs0mg"},{"bike_id":"f5900fd7-5ebc-4e9b-ae58-1b8e740df4a2","system_id":"levelo_inurba_marseille","lat":43.2781,"lon":5.40713,"is_reserved":false,"is_disabled":false,"rental_uris":{"android":"levelo://app?vid=f5900fd7-5ebc-4e9b-ae58-1b8e740df4a2","ios":"levelo://app?vid=f5900fd7-5ebc-4e9b-ae58-1b8e740df4a2"},"vehicle_type_id":"4","last_reported":1740586331,"current_range_meters":18000,"station_id":"ce4bhnh2rcd13ifvqgtg","pricing_plan_id":"cebpf4jnsgd1na2vs0mg"},{"bike_id":"3de9aeda-1f9a-4bbc-8b90-e02a49e56ca9","system_id":"levelo_inurba_marseille","lat":43.2319,"lon":5.35556,"is_reserved":false,"is_disabled":false,"rental_uris":{"android":"levelo://app?vid=3de9aeda-1f9a-4bbc-8b90-e02a49e56ca9","ios":"levelo://app?vid=3de9aeda-1f9a-4bbc-8b90-e02a49e56ca9"},"vehicle_type_id":"4","last_reported":1740586331,"current_range_meters":18000,"station_id":"ce4bhu92rcd13ifvqi70","pricing_plan_id":"cebpf4jnsgd1na2vs0mg"},{"bike_id":"ddcb9f31-9c71-4884-86fe-ffa2612dc16f","system_id":"levelo_inurba_marseille","lat":43.30141,"lon":5.38781,"is_reserved":false,"is_disabled":false,"rental_uris":{"android":"levelo://app?vid=ddcb9f31-9c71-4884-86fe-ffa2612dc16f","ios":"levelo://app?vid=ddcb9f31-9c71-4884-86fe-ffa2612dc16f"},"vehicle_type_id":"4","last_reported":1740586331,"current_range_meters":17600,"station_id":"ce4bghh2rcd13ifvqb60","pricing_plan_id":"cebpf4jnsgd1na2vs0mg"},{"bike_id":"fef4edc8-567f-4ed8-bb6e-c39792d20537","system_id":"levelo_inurba_marseille","lat":43.30143,"lon":5.39843,"is_reserved":false,"is_disabled":false,"rental_uris":{"android":"levelo://app?vid=fef4edc8-567f-4ed8-bb6e-c39792d20537","ios":"levelo://app?vid=fef4edc8-567f-4ed8-bb6e-c39792d20537"},"vehicle_type_id":"4","last_reported":1740586331,"current_range_meters":18800,"station_id":"ce4bh0h2rcd13ifvqd40","pricing_plan_id":"cebpf4jnsgd1na2vs0mg"},{"bike_id":"896fa85b-e6c2-4284-b540-4f908ecc715f","system_id":"levelo_inurba_marseille","lat":43.29301,"lon":5.3716,"is_reserved":false,"is_disabled":false,"rental_uris":{"android":"levelo://app?vid=896fa85b-e6c2-4284-b540-4f908ecc715f","ios":"levelo://app?vid=896fa85b-e6c2-4284-b540-4f908ecc715f"},"vehicle_type_id":"4","last_reported":1740586331,"current_range_meters":19200,"station_id":"ce4bgh92rcd13ifvqb40","pricing_plan_id":"cebpf4jnsgd1na2vs0mg"},{"bike_id":"7c6f2e19-e14e-482e-81a7-645fe762ee86","system_id":"levelo_inurba_marseille","lat":43.29587,"lon":5.36747,"is_reserved":false,"is_disabled":false,"rental_uris":{"android":"levelo://app?vid=7c6f2e19-e14e-482e-81a7-645fe762ee86","ios":"levelo://app?vid=7c6f2e19-e14e-482e-81a7-645fe762ee86"},"vehicle_type_id":"4","last_reported":1740586331,"current_range_meters":18800,"station_id":"ce4bgph2rcd13ifvqc2g","pricing_plan_id":"cebpf4jnsgd1na2vs0mg"},{"bike_id":"40e25f70-02b5-4811-add6-6e8dbc26a035","system_id":"levelo_inurba_marseille","lat":43.28423,"lon":5.35001,"is_reserved":false,"is_disabled":false,"rental_uris":{"android":"levelo://app?vid=40e25f70-02b5-4811-add6-6e8dbc26a035","ios":"levelo://app?vid=40e25f70-02b5-4811-add6-6e8dbc26a035"},"vehicle_type_id":"4","last_reported":1740586331,"current_range_meters":19200,"station_id":"ce4bhbh2rcd13ifvqepg","pricing_plan_id":"cebpf4jnsgd1na2vs0mg"},{"bike_id":"2b4740fa-fc94-4961-a9b4-908c2d923a76","system_id":"levelo_inurba_marseille","lat":43.30785,"lon":5.37655,"is_reserved":false,"is_disabled":false,"rental_uris":{"android":"levelo://app?vid=2b4740fa-fc94-4961-a9b4-908c2d923a76","ios":"levelo://app?vid=2b4740fa-fc94-4961-a9b4-908c2d923a76"},"vehicle_type_id":"4","last_reported":1740586331,"current_range_meters":19200,"station_id":"ce4bgv92rcd13ifvqcq0","pricing_plan_id":"cebpf4jnsgd1na2vs0mg"},{"bike_id":"201b43e1-9166-4b93-9ecb-211bb1985890","system_id":"levelo_inurba_marseille","lat":43.32364,"lon":5.36762,"is_reserved":false,"is_disabled":false,"rental_uris":{"android":"levelo://app?vid=201b43e1-9166-4b93-9ecb-211bb1985890","ios":"levelo://app?vid=201b43e1-9166-4b93-9ecb-211bb1985890"},"vehicle_type_id":"4","last_reported":1740586331,"current_range_meters":18800,"station_id":"ce4bhsh2rcd13ifvqi2g","pricing_plan_id":"cebpf4jnsgd1na2vs0mg"},{"bike_id":"6b45fbcf-96a3-485c-9229-30115492a073","system_id":"levelo_inurba_marseille","lat":43.26198,"lon":5.37935,"is_reserved":false,"is_disabled":false,"rental_uris":{"android":"levelo://app?vid=6b45fbcf-96a3-485c-9229-30115492a073","ios":"levelo://app?vid=6b45fbcf-96a3-485c-9229-30115492a073"},"vehicle_type_id":"4","last_reported":1740586331,"current_range_meters":18800,"station_id":"ce4bhjp2rcd13ifvqg90","pricing_plan_id":"cebpf4jnsgd1na2vs0mg"},{"bike_id":"f2652af0-7f89-4f32-835a-da4ab8b102ce","system_id":"levelo_inurba_marseille","lat":43.28417,"lon":5.34986,"is_reserved":false,"is_disabled":false,"rental_uris":{"android":"levelo://app?vid=f2652af0-7f89-4f32-835a-da4ab8b102ce","ios":"levelo://app?vid=f2652af0-7f89-4f32-835a-da4ab8b102ce"},"vehicle_type_id":"4","last_reported":1740586331,"current_range_meters":19200,"station_id":"ce4bhbh2rcd13ifvqepg","pricing_plan_id":"cebpf4jnsgd1na2vs0mg"},{"bike_id":"71fd5501-4551-412c-a109-38a6c1435d6c","system_id":"levelo_inurba_marseille","lat":43.30295,"lon":5.39199,"is_reserved":false,"is_disabled":false,"rental_uris":{"android":"levelo://app?vid=71fd5501-4551-412c-a109-38a6c1435d6c","ios":"levelo://app?vid=71fd5501-4551-412c-a109-38a6c1435d6c"},"vehicle_type_id":"4","last_reported":1740586331,"current_range_meters":19200,"station_id":"ce4bgkh2rcd13ifvqbk0","pricing_plan_id":"cebpf4jnsgd1na2vs0mg"},{"bike_id":"37d3ac00-0646-49af-b587-1b2558010612","system_id":"levelo_inurba_marseille","lat":43.23203,"lon":5.35555,"is_reserved":false,"is_disabled":false,"rental_uris":{"android":"levelo://app?vid=37d3ac00-0646-49af-b587-1b2558010612","ios":"levelo://app?vid=37d3ac00-0646-49af-b587-1b2558010612"},"vehicle_type_id":"4","last_reported":1740586331,"current_range_meters":19200,"station_id":"ce4bhu92rcd13ifvqi70","pricing_plan_id":"cebpf4jnsgd1na2vs0mg"},{"bike_id":"becd69f1-4be2-4ce6-b06e-018aade1ed6f","system_id":"levelo_inurba_marseille","lat":43.29001,"lon":5.356,"is_reserved":false,"is_disabled":false,"rental_uris":{"android":"levelo://app?vid=becd69f1-4be2-4ce6-b06e-018aade1ed6f","ios":"levelo://app?vid=becd69f1-4be2-4ce6-b06e-018aade1ed6f"},"vehicle_type_id":"4","last_reported":1740586331,"current_range_meters":18800,"station_id":"ce4bhb92rcd13ifvqen0","pricing_plan_id":"cebpf4jnsgd1na2vs0mg"},{"bike_id":"7fdc2ff6-920c-4cab-b6d4-2b1341a43045","system_id":"levelo_inurba_marseille","lat":43.28916,"lon":5.38406,"is_reserved":false,"is_disabled":false,"rental_uris":{"android":"levelo://app?vid=7fdc2ff6-920c-4cab-b6d4-2b1341a43045","ios":"levelo://app?vid=7fdc2ff6-920c-4cab-b6d4-2b1341a43045"},"vehicle_type_id":"4","last_reported":1740586331,"current_range_meters":18000,"station_id":"ce4bh612rcd13ifvqe6g","pricing_plan_id":"cebpf4jnsgd1na2vs0mg"},{"bike_id":"cef979dc-ab08-4410-acc0-3195eab667a3","system_id":"levelo_inurba_marseille","lat":43.30431,"lon":5.38887,"is_reserved":false,"is_disabled":false,"rental_uris":{"android":"levelo://app?vid=cef979dc-ab08-4410-acc0-3195eab667a3","ios":"levelo://app?vid=cef979dc-ab08-4410-acc0-3195eab667a3"},"vehicle_type_id":"4","last_reported":1740586331,"current_range_meters":19200,"station_id":"ce4bgk12rcd13ifvqbi0","pricing_plan_id":"cebpf4jnsgd1na2vs0mg"},{"bike_id":"d337cc62-b29d-4e4a-bd4f-e767bd643d41","system_id":"levelo_inurba_marseille","lat":43.32098,"lon":5.36796,"is_reserved":false,"is_disabled":false,"rental_uris":{"android":"levelo://app?vid=d337cc62-b29d-4e4a-bd4f-e767bd643d41","ios":"levelo://app?vid=d337cc62-b29d-4e4a-bd4f-e767bd643d41"},"vehicle_type_id":"4","last_reported":1740586331,"current_range_meters":19200,"station_id":"ce4bhrh2rcd13ifvqhug","pricing_plan_id":"cebpf4jnsgd1na2vs0mg"},{"bike_id":"0ffceea9-ca7f-496b-b9ee-c18123072cf4","system_id":"levelo_inurba_marseille","lat":43.30111,"lon":5.39841,"is_reserved":false,"is_disabled":false,"rental_uris":{"android":"levelo://app?vid=0ffceea9-ca7f-496b-b9ee-c18123072cf4","ios":"levelo://app?vid=0ffceea9-ca7f-496b-b9ee-c18123072cf4"},"vehicle_type_id":"4","last_reported":1740586331,"current_range_meters":20000,"station_id":"ce4bh0h2rcd13ifvqd40","pricing_plan_id":"cebpf4jnsgd1na2vs0mg"},{"bike_id":"7ec9cdb5-b653-4bb0-b9f0-7d3bc84777b3","system_id":"levelo_inurba_marseille","lat":43.267822,"lon":5.394163,"is_reserved":false,"is_disabled":false,"rental_uris":{"android":"levelo://app?vid=7ec9cdb5-b653-4bb0-b9f0-7d3bc84777b3","ios":"levelo://app?vid=7ec9cdb5-b653-4bb0-b9f0-7d3bc84777b3"},"vehicle_type_id":"4","last_reported":1740586331,"current_range_meters":18800,"station_id":"ce4bh5p2rcd13ifvqe4g","pricing_plan_id":"cebpf4jnsgd1na2vs0mg"},{"bike_id":"6719687d-cbd8-4848-961c-fcb2135a434c","system_id":"levelo_inurba_marseille","lat":43.30451,"lon":5.38899,"is_reserved":false,"is_disabled":false,"rental_uris":{"android":"levelo://app?vid=6719687d-cbd8-4848-961c-fcb2135a434c","ios":"levelo://app?vid=6719687d-cbd8-4848-961c-fcb2135a434c"},"vehicle_type_id":"4","last_reported":1740586331,"current_range_meters":19600,"station_id":"ce4bgk12rcd13ifvqbi0","pricing_plan_id":"cebpf4jnsgd1na2vs0mg"},{"bike_id":"7a6dbf21-59d5-416b-8111-14096a5b395c","system_id":"levelo_inurba_marseille","lat":43.25008,"lon":5.38931,"is_reserved":false,"is_disabled":false,"rental_uris":{"android":"levelo://app?vid=7a6dbf21-59d5-416b-8111-14096a5b395c","ios":"levelo://app?vid=7a6dbf21-59d5-416b-8111-14096a5b395c"},"vehicle_type_id":"4","last_reported":1740586331,"current_range_meters":19200,"station_id":"ce4bhgp2rcd13ifvqfd0","pricing_plan_id":"cebpf4jnsgd1na2vs0mg"},{"bike_id":"00ec3e1c-1d9e-4ac0-a4f6-1a20ef2c2f4b","system_id":"levelo_inurba_marseille","lat":43.30882,"lon":5.3719,"is_reserved":false,"is_disabled":false,"rental_uris":{"android":"levelo://app?vid=00ec3e1c-1d9e-4ac0-a4f6-1a20ef2c2f4b","ios":"levelo://app?vid=00ec3e1c-1d9e-4ac0-a4f6-1a20ef2c2f4b"},"vehicle_type_id":"4","last_reported":1740586331,"current_range_meters":19600,"station_id":"ce4bguh2rcd13ifvqckg","pricing_plan_id":"cebpf4jnsgd1na2vs0mg"},{"bike_id":"abf7f226-4d05-4d79-a900-1f80956b5025","system_id":"levelo_inurba_marseille","lat":43.2319,"lon":5.355605,"is_reserved":false,"is_disabled":false,"rental_uris":{"android":"levelo://app?vid=abf7f226-4d05-4d79-a900-1f80956b5025","ios":"levelo://app?vid=abf7f226-4d05-4d79-a900-1f80956b5025"},"vehicle_type_id":"4","last_reported":1740586331,"current_range_meters":19600,"station_id":"ce4bhu92rcd13ifvqi70","pricing_plan_id":"cebpf4jnsgd1na2vs0mg"},{"bike_id":"a3c46a92-7baa-47e6-ae8f-33889404ee47","system_id":"levelo_inurba_marseille","lat":43.2944,"lon":5.39755,"is_reserved":false,"is_disabled":false,"rental_uris":{"android":"levelo://app?vid=a3c46a92-7baa-47e6-ae8f-33889404ee47","ios":"levelo://app?vid=a3c46a92-7baa-47e6-ae8f-33889404ee47"},"vehicle_type_id":"4","last_reported":1740586331,"current_range_meters":19600,"station_id":"ce4bh3h2rcd13ifvqdo0","pricing_plan_id":"cebpf4jnsgd1na2vs0mg"},{"bike_id":"a54e0bc4-fd7a-415d-8815-9f63b16f30cc","system_id":"levelo_inurba_marseille","lat":43.30621,"lon":5.36744,"is_reserved":false,"is_disabled":false,"rental_uris":{"android":"levelo://app?vid=a54e0bc4-fd7a-415d-8815-9f63b16f30cc","ios":"levelo://app?vid=a54e0bc4-fd7a-415d-8815-9f63b16f30cc"},"vehicle_type_id":"4","last_reported":1740586331,"current_range_meters":19600,"station_id":"","pricing_plan_id":"cebpf4jnsgd1na2vs0mg"},{"bike_id":"c804314b-e40e-43eb-91d9-e684164d9c95","system_id":"levelo_inurba_marseille","lat":43.28367,"lon":5.38603,"is_reserved":false,"is_disabled":false,"rental_uris":{"android":"levelo://app?vid=c804314b-e40e-43eb-91d9-e684164d9c95","ios":"levelo://app?vid=c804314b-e40e-43eb-91d9-e684164d9c95"},"vehicle_type_id":"4","last_reported":1740586331,"current_range_meters":19200,"station_id":"ce4bh492rcd13ifvqdvg","pricing_plan_id":"cebpf4jnsgd1na2vs0mg"},{"bike_id":"ac5eefca-f0ac-4d09-9b8c-7f4c0b7c035c","system_id":"levelo_inurba_marseille","lat":43.278103,"lon":5.407105,"is_reserved":false,"is_disabled":false,"rental_uris":{"android":"levelo://app?vid=ac5eefca-f0ac-4d09-9b8c-7f4c0b7c035c","ios":"levelo://app?vid=ac5eefca-f0ac-4d09-9b8c-7f4c0b7c035c"},"vehicle_type_id":"4","last_reported":1740586331,"current_range_meters":20000,"station_id":"ce4bhnh2rcd13ifvqgtg","pricing_plan_id":"cebpf4jnsgd1na2vs0mg"},{"bike_id":"5c453c66-76ed-44b7-a8cf-5d455b743d4b","system_id":"levelo_inurba_marseille","lat":43.29781,"lon":5.37092,"is_reserved":false,"is_disabled":false,"rental_uris":{"android":"levelo://app?vid=5c453c66-76ed-44b7-a8cf-5d455b743d4b","ios":"levelo://app?vid=5c453c66-76ed-44b7-a8cf-5d455b743d4b"},"vehicle_type_id":"4","last_reported":1740586331,"current_range_meters":19600,"station_id":"ce4bgop2rcd13ifvqc1g","pricing_plan_id":"cebpf4jnsgd1na2vs0mg"},{"bike_id":"ef77bf7f-5b88-41c9-8d3b-c8c9c0447dd9","system_id":"levelo_inurba_marseille","lat":43.28072,"lon":5.3502,"is_reserved":false,"is_disabled":false,"rental_uris":{"android":"levelo://app?vid=ef77bf7f-5b88-41c9-8d3b-c8c9c0447dd9","ios":"levelo://app?vid=ef77bf7f-5b88-41c9-8d3b-c8c9c0447dd9"},"vehicle_type_id":"4","last_reported":1740586331,"current_range_meters":20000,"station_id":"","pricing_plan_id":"cebpf4jnsgd1na2vs0mg"},{"bike_id":"5eef362a-38fa-429c-a562-a34cf14d0e41","system_id":"levelo_inurba_marseille","lat":43.31715,"lon":5.43711,"is_reserved":false,"is_disabled":false,"rental_uris":{"android":"levelo://app?vid=5eef362a-38fa-429c-a562-a34cf14d0e41","ios":"levelo://app?vid=5eef362a-38fa-429c-a562-a34cf14d0e41"},"vehicle_type_id":"4","last_reported":1740586331,"current_range_meters":19600,"station_id":"ce4bhp92rcd13ifvqhcg","pricing_plan_id":"cebpf4jnsgd1na2vs0mg"},{"bike_id":"25025c82-1ea2-4ef0-9b38-0071a46a1cc8","system_id":"levelo_inurba_marseille","lat":43.29708,"lon":5.37317,"is_reserved":false,"is_disabled":false,"rental_uris":{"android":"levelo://app?vid=25025c82-1ea2-4ef0-9b38-0071a46a1cc8","ios":"levelo://app?vid=25025c82-1ea2-4ef0-9b38-0071a46a1cc8"},"vehicle_type_id":"4","last_reported":1740586331,"current_range_meters":19600,"station_id":"ce4bgk12rcd13ifvqbj0","pricing_plan_id":"cebpf4jnsgd1na2vs0mg"},{"bike_id":"7104360a-da4e-4856-93d3-149b4a25797b","system_id":"levelo_inurba_marseille","lat":43.33024,"lon":5.39036,"is_reserved":false,"is_disabled":false,"rental_uris":{"android":"levelo://app?vid=7104360a-da4e-4856-93d3-149b4a25797b","ios":"levelo://app?vid=7104360a-da4e-4856-93d3-149b4a25797b"},"vehicle_type_id":"4","last_reported":1740586331,"current_range_meters":19600,"station_id":"ce4bhr92rcd13ifvqhrg","pricing_plan_id":"cebpf4jnsgd1na2vs0mg"},{"bike_id":"33e2c9d8-80f1-492f-95d2-d20975446acd","system_id":"levelo_inurba_marseille","lat":43.2887,"lon":5.35827,"is_reserved":false,"is_disabled":false,"rental_uris":{"android":"levelo://app?vid=33e2c9d8-80f1-492f-95d2-d20975446acd","ios":"levelo://app?vid=33e2c9d8-80f1-492f-95d2-d20975446acd"},"vehicle_type_id":"4","last_reported":1740586331,"current_range_meters":20000,"station_id":"ce4bhb12rcd13ifvqem0","pricing_plan_id":"cebpf4jnsgd1na2vs0mg"},{"bike_id":"8b807f5e-ab7b-43b2-98a3-228a2d408de7","system_id":"levelo_inurba_marseille","lat":43.27813,"lon":5.40709,"is_reserved":false,"is_disabled":false,"rental_uris":{"android":"levelo://app?vid=8b807f5e-ab7b-43b2-98a3-228a2d408de7","ios":"levelo://app?vid=8b807f5e-ab7b-43b2-98a3-228a2d408de7"},"vehicle_type_id":"4","last_reported":1740586331,"current_range_meters":20000,"station_id":"ce4bhnh2rcd13ifvqgtg","pricing_plan_id":"cebpf4jnsgd1na2vs0mg"},{"bike_id":"4aa8310a-e35f-4787-b88f-52fd678acb32","system_id":"levelo_inurba_marseille","lat":43.30882,"lon":5.39637,"is_reserved":false,"is_disabled":false,"rental_uris":{"android":"levelo://app?vid=4aa8310a-e35f-4787-b88f-52fd678acb32","ios":"levelo://app?vid=4aa8310a-e35f-4787-b88f-52fd678acb32"},"vehicle_type_id":"4","last_reported":1740586331,"current_range_meters":20000,"station_id":"ce4bh012rcd13ifvqcv0","pricing_plan_id":"cebpf4jnsgd1na2vs0mg"},{"bike_id":"12665c70-9f2f-4c18-86e5-d25f1f02999b","system_id":"levelo_inurba_marseille","lat":43.31268,"lon":5.36821,"is_reserved":false,"is_disabled":false,"rental_uris":{"android":"levelo://app?vid=12665c70-9f2f-4c18-86e5-d25f1f02999b","ios":"levelo://app?vid=12665c70-9f2f-4c18-86e5-d25f1f02999b"},"vehicle_type_id":"4","last_reported":1740586331,"current_range_meters":20000,"station_id":"ce4bgl92rcd13ifvqbq0","pricing_plan_id":"cebpf4jnsgd1na2vs0mg"},{"bike_id":"0a57236b-22bd-4eb4-9c8d-15a0550997f0","system_id":"levelo_inurba_marseille","lat":43.27572,"lon":5.38421,"is_reserved":false,"is_disabled":false,"rental_uris":{"android":"levelo://app?vid=0a57236b-22bd-4eb4-9c8d-15a0550997f0","ios":"levelo://app?vid=0a57236b-22bd-4eb4-9c8d-15a0550997f0"},"vehicle_type_id":"4","last_reported":1740586331,"current_range_meters":19200,"station_id":"ce4bhh92rcd13ifvqfi0","pricing_plan_id":"cebpf4jnsgd1na2vs0mg"},{"bike_id":"4a6e4dab-77e7-4727-9943-ddb1faa90067","system_id":"levelo_inurba_marseille","lat":43.299,"lon":5.43666,"is_reserved":false,"is_disabled":false,"rental_uris":{"android":"levelo://app?vid=4a6e4dab-77e7-4727-9943-ddb1faa90067","ios":"levelo://app?vid=4a6e4dab-77e7-4727-9943-ddb1faa90067"},"vehicle_type_id":"4","last_reported":1740586331,"current_range_meters":20000,"station_id":"ce4bhpp2rcd13ifvqhfg","pricing_plan_id":"cebpf4jnsgd1na2vs0mg"},{"bike_id":"e1c80231-a274-4501-a9e1-cf0b6768258d","system_id":"levelo_inurba_marseille","lat":43.28686,"lon":5.3868,"is_reserved":false,"is_disabled":false,"rental_uris":{"android":"levelo://app?vid=e1c80231-a274-4501-a9e1-cf0b6768258d","ios":"levelo://app?vid=e1c80231-a274-4501-a9e1-cf0b6768258d"},"vehicle_type_id":"4","last_reported":1740586331,"current_range_meters":20000,"station_id":"ce4bh492rcd13ifvqdug","pricing_plan_id":"cebpf4jnsgd1na2vs0mg"},{"bike_id":"9f99fda2-839d-4f7c-a2e7-bf2872bc518d","system_id":"levelo_inurba_marseille","lat":43.29625,"lon":5.37156,"is_reserved":false,"is_disabled":false,"rental_uris":{"android":"levelo://app?vid=9f99fda2-839d-4f7c-a2e7-bf2872bc518d","ios":"levelo://app?vid=9f99fda2-839d-4f7c-a2e7-bf2872bc518d"},"vehicle_type_id":"4","last_reported":1740586331,"current_range_meters":20000,"station_id":"ce4bgnh2rcd13ifvqc0g","pricing_plan_id":"cebpf4jnsgd1na2vs0mg"},{"bike_id":"8e6795ef-5cc7-4703-bc55-898144eada56","system_id":"levelo_inurba_marseille","lat":43.284085,"lon":5.349868,"is_reserved":false,"is_disabled":false,"rental_uris":{"android":"levelo://app?vid=8e6795ef-5cc7-4703-bc55-898144eada56","ios":"levelo://app?vid=8e6795ef-5cc7-4703-bc55-898144eada56"},"vehicle_type_id":"4","last_reported":1740586331,"current_range_meters":20000,"station_id":"ce4bhch2rcd13ifvqeug","pricing_plan_id":"cebpf4jnsgd1na2vs0mg"},{"bike_id":"a1eae3e3-554e-4dfe-b456-e8fdc8ea0074","system_id":"levelo_inurba_marseille","lat":43.31358,"lon":5.38509,"is_reserved":false,"is_disabled":false,"rental_uris":{"android":"levelo://app?vid=a1eae3e3-554e-4dfe-b456-e8fdc8ea0074","ios":"levelo://app?vid=a1eae3e3-554e-4dfe-b456-e8fdc8ea0074"},"vehicle_type_id":"4","last_reported":1740586331,"current_range_meters":20000,"station_id":"ce4bgt92rcd13ifvqcf0","pricing_plan_id":"cebpf4jnsgd1na2vs0mg"},{"bike_id":"a15d7fa4-2269-42f0-a671-9145475a30a1","system_id":"levelo_inurba_marseille","lat":43.3041,"lon":5.38886,"is_reserved":false,"is_disabled":false,"rental_uris":{"android":"levelo://app?vid=a15d7fa4-2269-42f0-a671-9145475a30a1","ios":"levelo://app?vid=a15d7fa4-2269-42f0-a671-9145475a30a1"},"vehicle_type_id":"4","last_reported":1740586331,"current_range_meters":20000,"station_id":"ce4bgk12rcd13ifvqbi0","pricing_plan_id":"cebpf4jnsgd1na2vs0mg"},{"bike_id":"927c6008-d070-4b81-b1e6-eeb0f31f8fdd","system_id":"levelo_inurba_marseille","lat":43.28089,"lon":5.39641,"is_reserved":false,"is_disabled":false,"rental_uris":{"android":"levelo://app?vid=927c6008-d070-4b81-b1e6-eeb0f31f8fdd","ios":"levelo://app?vid=927c6008-d070-4b81-b1e6-eeb0f31f8fdd"},"vehicle_type_id":"4","last_reported":1740586331,"current_range_meters":20000,"station_id":"ce4bho12rcd13ifvqh2g","pricing_plan_id":"cebpf4jnsgd1na2vs0mg"},