{"last_updated":1770391790,"ttl":60,"version":"2.2","data":{"bikes":[{"bike_id":"b53f497c-0cdf-42a8-ab5a-d6dc45b07b09","system_id":"levelo_inurba_marseille","lat":43.24164,"lon":5.36413,"is_reserved":false,"is_disabled":false,"rental_uris":{"android":"levelo://app?vid=b53f497c-0cdf-42a8-ab5a-d6dc45b07b09","ios":"levelo://app?vid=b53f497c-0cdf-42a8-ab5a-d6dc45b07b09"},"vehicle_type_id":"4","last_reported":1770391790,"current_range_meters":2800,"station_id":"cpo36qri1sfpv3e86is0","pricing_plan_id":"cebpf4jnsgd1na2vs0mg"},{"bike_id":"0db5263f-df2b-4f20-a0cc-dbdb43d27b50","system_id":"levelo_inurba_marseille","lat":43.28708,"lon":5.3998,"is_reserved":false,"is_disabled":false,"rental_uris":{"android":"levelo://app?vid=0db5263f-df2b-4f20-a0cc-dbdb43d27b50","ios":"levelo://app?vid=0db5263f-df2b-4f20-a0cc-dbdb43d27b50"},"vehicle_type_id":"4","last_reported":1770391790,"current_range_meters":2800,"station_id":"ce4bho92rcd13ifvqh3g","pricing_plan_id":"cebpf4jnsgd1na2vs0mg"},{"bike_id":"abb47477-5cb2-4dbc-a968-74e33660b0a9","system_id":"levelo_inurba_marseille","lat":43.28666,"lon":5.38686,"is_reserved":false,"is_disabled":false,"rental_uris":{"android":"levelo://app?vid=abb47477-5cb2-4dbc-a968-74e33660b0a9","ios":"levelo://app?vid=abb47477-5cb2-4dbc-a968-74e33660b0a9"},"vehicle_type_id":"4","last_reported":1770391790,"current_range_meters":2800,"station_id":"ce4bh492rcd13ifvqdug","pricing_plan_id":"cebpf4jnsgd1na2vs0mg"},{"bike_id":"3fe9d7b3-7610-4763-865c-7440b55b0ef0","system_id":"levelo_inurba_marseille","lat":43.26682,"lon":5.38268,"is_reserved":false,"is_disabled":false,"rental_uris":{"android":"levelo://app?vid=3fe9d7b3-7610-4763-865c-7440b55b0ef0","ios":"levelo://app?vid=3fe9d7b3-7610-4763-865c-7440b55b0ef0"},"vehicle_type_id":"4","last_reported":1770391790,"current_range_meters":2800,"station_id":"ce4bhg92rcd13ifvqf90","pricing_plan_id":"cebpf4jnsgd1na2vs0mg"},{"bike_id":"5731eda3-804e-4777-9774-a31ab0efc81a","system_id":"levelo_inurba_marseille","lat":43.24678,"lon":5.38155,"is_reserved":false,"is_disabled":false,"rental_uris":{"android":"levelo://app?vid=5731eda3-804e-4777-9774-a31ab0efc81a","ios":"levelo://app?vid=5731eda3-804e-4777-9774-a31ab0efc81a"},"vehicle_type_id":"4","last_reported":1770391790,"current_range_meters":2800,"station_id":"ce4bhih2rcd13ifvqfr0","pricing_plan_id":"cebpf4jnsgd1na2vs0mg"},{"bike_id":"de41a083-c916-4606-b1aa-1117312b0121","system_id":"levelo_inurba_marseille","lat":43.28117,"lon":5.37837,"is_reserved":false,"is_disabled":false,"rental_uris":{"android":"levelo://app?vid=de41a083-c916-4606-b1aa-1117312b0121","ios":"levelo://app?vid=de41a083-c916-4606-b1aa-1117312b0121"},"vehicle_type_id":"4","last_reported":1770391790,"current_range_meters":2800,"station_id":"ce4bha12rcd13ifvqee0","pricing_plan_id":"cebpf4jnsgd1na2vs0mg"},{"bike_id":"c3f43aa2-1ae1-41b3-a072-0f15c8d488c0","system_id":"levelo_inurba_marseille","lat":43.284688,"lon":5.437249,"is_reserved":false,"is_disabled":false,"rental_uris":{"android":"levelo://app?vid=c3f43aa2-1ae1-41b3-a072-0f15c8d488c0","ios":"levelo://app?vid=c3f43aa2-1ae1-41b3-a072-0f15c8d488c0"},"vehicle_type_id":"4","last_reported":1770391790,"current_range_meters":2800,"station_id":"","pricing_plan_id":"cebpf4jnsgd1na2vs0mg"},{"bike_id":"34c50a61-22ac-4ed2-981f-46c8654fa2b9","system_id":"levelo_inurba_marseille","lat":43.3354,"lon":5.37473,"is_reserved":false,"is_disabled":false,"rental_uris":{"android":"levelo://app?vid=34c50a61-22ac-4ed2-981f-46c8654fa2b9","ios":"levelo://app?vid=34c50a61-22ac-4ed2-981f-46c8654fa2b9"},"vehicle_type_id":"4","last_reported":1770391790,"current_range_meters":2800,"station_id":"","pricing_plan_id":"cebpf4jnsgd1na2vs0mg"},{"bike_id":"c59be42f-0772-451e-a452-b56e08719067","system_id":"levelo_inurba_marseille","lat":43.23969,"lon":5.36598,"is_reserved":false,"is_disabled":false,"rental_uris":{"android":"levelo://app?vid=c59be42f-0772-451e-a452-b56e08719067","ios":"levelo://app?vid=c59be42f-0772-451e-a452-b56e08719067"},"vehicle_type_id":"4","last_reported":1770391790,"current_range_meters":2800,"station_id":"ce4bhi12rcd13ifvqfp0","pricing_plan_id":"cebpf4jnsgd1na2vs0mg"},{"bike_id":"f5564683-78de-4568-b070-acbac9749ab2","system_id":"levelo_inurba_marseille","lat":43.26214,"lon":5.37443,"is_reserved":false,"is_disabled":false,"rental_uris":{"android":"levelo://app?vid=f5564683-78de-4568-b070-acbac9749ab2","ios":"levelo://app?vid=f5564683-78de-4568-b070-acbac9749ab2"},"vehicle_type_id":"4","last_reported":1770391790,"current_range_meters":2800,"station_id":"ce4bhgp2rcd13ifvqfc0","pricing_plan_id":"cebpf4jnsgd1na2vs0mg"},{"bike_id":"5c553f9c-fd85-46cd-b3d7-a48feccd8924","system_id":"levelo_inurba_marseille","lat":43.24652,"lon":5.38898,"is_reserved":false,"is_disabled":false,"rental_uris":{"android":"levelo://app?vid=5c553f9c-fd85-46cd-b3d7-a48feccd8924","ios":"levelo://app?vid=5c553f9c-fd85-46cd-b3d7-a48feccd8924"},"vehicle_type_id":"4","last_reported":1770391790,"current_range_meters":2800,"station_id":"ce4bhg12rcd13ifvqf60","pricing_plan_id":"cebpf4jnsgd1na2vs0mg"},{"bike_id":"d72ec66a-db3f-41c7-8ed5-45387a7e4906","system_id":"levelo_inurba_marseille","lat":43.31725,"lon":5.42395,"is_reserved":false,"is_disabled":false,"rental_uris":{"android":"levelo://app?vid=d72ec66a-db3f-41c7-8ed5-45387a7e4906","ios":"levelo://app?vid=d72ec66a-db3f-41c7-8ed5-45387a7e4906"},"vehicle_type_id":"4","last_reported":1770391790,"current_range_meters":3200,"station_id":"ce4bhp92rcd13ifvqhbg","pricing_plan_id":"cebpf4jnsgd1na2vs0mg"},{"bike_id":"49bc0ac4-ec4c-46b4-bcba-c5b87d948aa1","system_id":"levelo_inurba_marseille","lat":43.23989,"lon":5.36613,"is_reserved":false,"is_disabled":false,"rental_uris":{"android":"levelo://app?vid=49bc0ac4-ec4c-46b4-bcba-c5b87d948aa1","ios":"levelo://app?vid=49bc0ac4-ec4c-46b4-bcba-c5b87d948aa1"},"vehicle_type_id":"4","last_reported":1770391790,"current_range_meters":3200,"station_id":"ce4bhi12rcd13ifvqfp0","pricing_plan_id":"cebpf4jnsgd1na2vs0mg"},{"bike_id":"44894d87-13da-4f8f-8736-2c6821db0914","system_id":"levelo_inurba_marseille","lat":43.28268,"lon":5.35063,"is_reserved":false,"is_disabled":false,"rental_uris":{"android":"levelo://app?vid=44894d87-13da-4f8f-8736-2c6821db0914","ios":"levelo://app?vid=44894d87-13da-4f8f-8736-2c6821db0914"},"vehicle_type_id":"4","last_reported":1770391790,"current_range_meters":3200,"station_id":"ce4bhbp2rcd13ifvqerg","pricing_plan_id":"cebpf4jnsgd1na2vs0mg"},{"bike_id":"8f4d5a26-f1fe-4139-a749-f4668f7bf478","system_id":"levelo_inurba_marseille","lat":43.22541,"lon":5.34816,"is_reserved":false,"is_disabled":false,"rental_uris":{"android":"levelo://app?vid=8f4d5a26-f1fe-4139-a749-f4668f7bf478","ios":"levelo://app?vid=8f4d5a26-f1fe-4139-a749-f4668f7bf478"},"vehicle_type_id":"4","last_reported":1770391790,"current_range_meters":3200,"station_id":"","pricing_plan_id":"cebpf4jnsgd1na2vs0mg"},{"bike_id":"15250344-db40-4db8-b0c9-19733389e808","system_id":"levelo_inurba_marseille","lat":43.27372,"lon":5.36253,"is_reserved":false,"is_disabled":false,"rental_uris":{"android":"levelo://app?vid=15250344-db40-4db8-b0c9-19733389e808","ios":"levelo://app?vid=15250344-db40-4db8-b0c9-19733389e808"},"vehicle_type_id":"4","last_reported":1770391790,"current_range_meters":3200,"station_id":"ce4bhbh2rcd13ifvqeo0","pricing_plan_id":"cebpf4jnsgd1na2vs0mg"},{"bike_id":"0020e875-e003-4c32-93ab-04ab8b25fedf","system_id":"levelo_inurba_marseille","lat":43.30545,"lon":5.3671,"is_reserved":false,"is_disabled":false,"rental_uris":{"android":"levelo://app?vid=0020e875-e003-4c32-93ab-04ab8b25fedf","ios":"levelo://app?vid=0020e875-e003-4c32-93ab-04ab8b25fedf"},"vehicle_type_id":"4","last_reported":1770391790,"current_range_meters":3200,"station_id":"ce4bgrp2rcd13ifvqc9g","pricing_plan_id":"cebpf4jnsgd1na2vs0mg"},{"bike_id":"c64f1078-b496-4d63-b230-fc8b7996f1c0","system_id":"levelo_inurba_marseille","lat":43.26583,"lon":5.37285,"is_reserved":false,"is_disabled":false,"rental_uris":{"android":"levelo://app?vid=c64f1078-b496-4d63-b230-fc8b7996f1c0","ios":"levelo://app?vid=c64f1078-b496-4d63-b230-fc8b7996f1c0"},"vehicle_type_id":"4","last_reported":1770391790,"current_range_meters":3600,"station_id":"ce4bhg12rcd13ifvqf70","pricing_plan_id":"cebpf4jnsgd1na2vs0mg"},{"bike_id":"40819fca-9f18-4e89-b31c-5ad4505052c8","system_id":"levelo_inurba_marseille","lat":43.23197,"lon":5.35553,"is_reserved":false,"is_disabled":false,"rental_uris":{"android":"levelo://app?vid=40819fca-9f18-4e89-b31c-5ad4505052c8","ios":"levelo://app?vid=40819fca-9f18-4e89-b31c-5ad4505052c8"},"vehicle_type_id":"4","last_reported":1770391790,"current_range_meters":3600,"station_id":"ce4bhu92rcd13ifvqi70","pricing_plan_id":"cebpf4jnsgd1na2vs0mg"},{"bike_id":"da76f900-b17d-4248-b9ba-2a8067b473bd","system_id":"levelo_inurba_marseille","lat":43.31722,"lon":5.42397,"is_reserved":false,"is_disabled":false,"rental_uris":{"android":"levelo://app?vid=da76f900-b17d-4248-b9ba-2a8067b473bd","ios":"levelo://app?vid=da76f900-b17d-4248-b9ba-2a8067b473bd"},"vehicle_type_id":"4","last_reported":1770391790,"current_range_meters":3600,"station_id":"ce4bhp92rcd13ifvqhbg","pricing_plan_id":"cebpf4jnsgd1na2vs0mg"},{"bike_id":"2d0f8c41-31b1-402c-bf19-2941f046c32a","system_id":"levelo_inurba_marseille","lat":43.23151,"lon":5.43718,"is_reserved":false,"is_disabled":false,"rental_uris":{"android":"levelo://app?vid=2d0f8c41-31b1-402c-bf19-2941f046c32a","ios":"levelo://app?vid=2d0f8c41-31b1-402c-bf19-2941f046c32a"},"vehicle_type_id":"4","last_reported":1770391790,"current_range_meters":3600,"station_id":"ce4bhmp2rcd13ifvqgog","pricing_plan_id":"cebpf4jnsgd1na2vs0mg"},{"bike_id":"f19552e5-b8be-4ac0-bab3-b1e24771cb0c","system_id":"levelo_inurba_marseille","lat":43.32106,"lon":5.36782,"is_reserved":false,"is_disabled":false,"rental_uris":{"android":"levelo://app?vid=f19552e5-b8be-4ac0-bab3-b1e24771cb0c","ios":"levelo://app?vid=f19552e5-b8be-4ac0-bab3-b1e24771cb0c"},"vehicle_type_id":"4","last_reported":1770391790,"current_range_meters":3600,"station_id":"ce4bhrh2rcd13ifvqhug","pricing_plan_id":"cebpf4jnsgd1na2vs0mg"},{"bike_id":"b53a7d14-2e51-421a-988d-b8ea59b98909","system_id":"levelo_inurba_marseille","lat":43.27377,"lon":5.3626,"is_reserved":false,"is_disabled":false,"rental_uris":{"android":"levelo://app?vid=b53a7d14-2e51-421a-988d-b8ea59b98909","ios":"levelo://app?vid=b53a7d14-2e51-421a-988d-b8ea59b98909"},"vehicle_type_id":"4","last_reported":1770391790,"current_range_meters":3600,"station_id":"ce4bhbh2rcd13ifvqeo0","pricing_plan_id":"cebpf4jnsgd1na2vs0mg"},{"bike_id":"ac96778b-83ee-46e4-b60a-91f9f54c3685","system_id":"levelo_inurba_marseille","lat":43.263757,"lon":5.410725,"is_reserved":false,"is_disabled":false,"rental_uris":{"android":"levelo://app?vid=ac96778b-83ee-46e4-b60a-91f9f54c3685","ios":"levelo://app?vid=ac96778b-83ee-46e4-b60a-91f9f54c3685"},"vehicle_type_id":"4","last_reported":1770391790,"current_range_meters":3600,"station_id":"st_d4e5ca6na9uc73bfl5fg","pricing_plan_id":"cebpf4jnsgd1na2vs0mg"},{"bike_id":"6ecf4a13-7173-4f5e-97f4-0d37f7390da6","system_id":"levelo_inurba_marseille","lat":43.28003,"lon":5.41662,"is_reserved":false,"is_disabled":false,"rental_uris":{"android":"levelo://app?vid=6ecf4a13-7173-4f5e-97f4-0d37f7390da6","ios":"levelo://app?vid=6ecf4a13-7173-4f5e-97f4-0d37f7390da6"},"vehicle_type_id":"4","last_reported":1770391790,"current_range_meters":3600,"station_id":"ce4bho12rcd13ifvqh1g","pricing_plan_id":"cebpf4jnsgd1na2vs0mg"},{"bike_id":"97d71dfd-f94f-449c-9370-a6fa1d97a35c","system_id":"levelo_inurba_marseille","lat":43.2738,"lon":5.36257,"is_reserved":false,"is_disabled":false,"rental_uris":{"android":"levelo://app?vid=97d71dfd-f94f-449c-9370-a6fa1d97a35c","ios":"levelo://app?vid=97d71dfd-f94f-449c-9370-a6fa1d97a35c"},"vehicle_type_id":"4","last_reported":1770391790,"current_range_meters":3600,"station_id":"ce4bhbh2rcd13ifvqeo0","pricing_plan_id":"cebpf4jnsgd1na2vs0mg"},{"bike_id":"5309610c-bf76-4542-a232-389bbf17cbff","system_id":"levelo_inurba_marseille","lat":43.33541,"lon":5.37468,"is_reserved":false,"is_disabled":false,"rental_uris":{"android":"levelo://app?vid=5309610c-bf76-4542-a232-389bbf17cbff","ios":"levelo://app?vid=5309610c-bf76-4542-a232-389bbf17cbff"},"vehicle_type_id":"4","last_reported":1770391790,"current_range_meters":4000,"station_id":"st_d46tts09ee8s73dlu43g","pricing_plan_id":"cebpf4jnsgd1na2vs0mg"},{"bike_id":"08bbc165-daaf-4f28-893c-80b85d926942","system_id":"levelo_inurba_marseille","lat":43.27801,"lon":5.4071,"is_reserved":false,"is_disabled":false,"rental_uris":{"android":"levelo://app?vid=08bbc165-daaf-4f28-893c-80b85d926942","ios":"levelo://app?vid=08bbc165-daaf-4f28-893c-80b85d926942"},"vehicle_type_id":"4","last_reported":1770391790,"current_range_meters":4000,"station_id":"ce4bhnh2rcd13ifvqgtg","pricing_plan_id":"cebpf4jnsgd1na2vs0mg"},{"bike_id":"0f89d917-71ef-437b-ba7e-068f36a3eb29","system_id":"levelo_inurba_marseille","lat":43.26597,"lon":5.37272,"is_reserved":false,"is_disabled":false,"rental_uris":{"android":"levelo://app?vid=0f89d917-71ef-437b-ba7e-068f36a3eb29","ios":"levelo://app?vid=0f89d917-71ef-437b-ba7e-068f36a3eb29"},"vehicle_type_id":"4","last_reported":1770391790,"current_range_meters":4000,"station_id":"ce4bhg12rcd13ifvqf70","pricing_plan_id":"cebpf4jnsgd1na2vs0mg"},{"bike_id":"f69cc029-bbb9-4b64-a98c-7044a350dd65","system_id":"levelo_inurba_marseille","lat":43.255756,"lon":5.38226,"is_reserved":false,"is_disabled":false,"rental_uris":{"android":"levelo://app?vid=f69cc029-bbb9-4b64-a98c-7044a350dd65","ios":"levelo://app?vid=f69cc029-bbb9-4b64-a98c-7044a350dd65"},"vehicle_type_id":"4","last_reported":1770391790,"current_range_meters":4000,"station_id":"ce4bhih2rcd13ifvqfs0","pricing_plan_id":"cebpf4jnsgd1na2vs0mg"},{"bike_id":"3c4f3167-1af2-4a01-9b6e-0a28ca49d13d","system_id":"levelo_inurba_marseille","lat":43.267896,"lon":5.394176,"is_reserved":false,"is_disabled":false,"rental_uris":{"android":"levelo://app?vid=3c4f3167-1af2-4a01-9b6e-0a28ca49d13d","ios":"levelo://app?vid=3c4f3167-1af2-4a01-9b6e-0a28ca49d13d"},"vehicle_type_id":"4","last_reported":1770391790,"current_range_meters":4000,"station_id":"ce4bhh12rcd13ifvqfg0","pricing_plan_id":"cebpf4jnsgd1na2vs0mg"},{"bike_id":"fc2c90cf-2964-4375-8969-fcfe5234c035","system_id":"levelo_inurba_marseille","lat":43.27673,"lon":5.38894,"is_reserved":false,"is_disabled":false,"rental_uris":{"android":"levelo://app?vid=fc2c90cf-2964-4375-8969-fcfe5234c035","ios":"levelo://app?vid=fc2c90cf-2964-4375-8969-fcfe5234c035"},"vehicle_type_id":"4","last_reported":1770391790,"current_range_meters":4000,"station_id":"ce4bhi12rcd13ifvqfo0","pricing_plan_id":"cebpf4jnsgd1na2vs0mg"},{"bike_id":"fee0750a-8d27-43e0-94f7-17675fd554cc","system_id":"levelo_inurba_marseille","lat":43.23194,"lon":5.35551,"is_reserved":false,"is_disabled":false,"rental_uris":{"android":"levelo://app?vid=fee0750a-8d27-43e0-94f7-17675fd554cc","ios":"levelo://app?vid=fee0750a-8d27-43e0-94f7-17675fd554cc"},"vehicle_type_id":"4","last_reported":1770391790,"current_range_meters":4000,"station_id":"ce4bhu92rcd13ifvqi70","pricing_plan_id":"cebpf4jnsgd1na2vs0mg"},{"bike_id":"e92c52a2-6b35-4ea9-9829-1eb9501c85fc","system_id":"levelo_inurba_marseille","lat":43.31165,"lon":5.39358,"is_reserved":false,"is_disabled":false,"rental_uris":{"android":"levelo://app?vid=e92c52a2-6b35-4ea9-9829-1eb9501c85fc","ios":"levelo://app?vid=e92c52a2-6b35-4ea9-9829-1eb9501c85fc"},"vehicle_type_id":"4","last_reported":1770391790,"current_range_meters":4000,"station_id":"","pricing_plan_id":"cebpf4jnsgd1na2vs0mg"},{"bike_id":"b175d1ec-b576-4cf1-99a2-acb3b6a624ed","system_id":"levelo_inurba_marseille","lat":43.26544,"lon":5.37288,"is_reserved":false,"is_disabled":false,"rental_uris":{"android":"levelo://app?vid=b175d1ec-b576-4cf1-99a2-acb3b6a624ed","ios":"levelo://app?vid=b175d1ec-b576-4cf1-99a2-acb3b6a624ed"},"vehicle_type_id":"4","last_reported":1770391790,"current_range_meters":4000,"station_id":"ce4bhg12rcd13ifvqf70","pricing_plan_id":"cebpf4jnsgd1na2vs0mg"},{"bike_id":"4e6fc2e6-8f63-4a60-ae85-528ed569ed47","system_id":"levelo_inurba_marseille","lat":43.30792,"lon":5.38167,"is_reserved":false,"is_disabled":false,"rental_uris":{"android":"levelo://app?vid=4e6fc2e6-8f63-4a60-ae85-528ed569ed47","ios":"levelo://app?vid=4e6fc2e6-8f63-4a60-ae85-528ed569ed47"},"vehicle_type_id":"4","last_reported":1770391790,"current_range_meters":4000,"station_id":"ce4bgt12rcd13ifvqce0","pricing_plan_id":"cebpf4jnsgd1na2vs0mg"},{"bike_id":"d90ad92a-480c-45ba-91af-83ba1be4179d","system_id":"levelo_inurba_marseille","lat":43.3119,"lon":5.3686,"is_reserved":false,"is_disabled":false,"rental_uris":{"android":"levelo://app?vid=d90ad92a-480c-45ba-91af-83ba1be4179d","ios":"levelo://app?vid=d90ad92a-480c-45ba-91af-83ba1be4179d"},"vehicle_type_id":"4","last_reported":1770391790,"current_range_meters":4000,"station_id":"ce4bgl92rcd13ifvqbq0","pricing_plan_id":"cebpf4jnsgd1na2vs0mg"},{"bike_id":"bf716aa5-5db6-4f44-aa24-9167a51e58ca","system_id":"levelo_inurba_marseille","lat":43.31728,"lon":5.42394,"is_reserved":false,"is_disabled":false,"rental_uris":{"android":"levelo://app?vid=bf716aa5-5db6-4f44-aa24-9167a51e58ca","ios":"levelo://app?vid=bf716aa5-5db6-4f44-aa24-9167a51e58ca"},"vehicle_type_id":"4","last_reported":1770391790,"current_range_meters":4400,"station_id":"ce4bhp92rcd13ifvqhbg","pricing_plan_id":"cebpf4jnsgd1na2vs0mg"},{"bike_id":"7a9437dc-9620-4e4d-ac55-f97780f81760","system_id":"levelo_inurba_marseille","lat":43.24822,"lon":5.37456,"is_reserved":false,"is_disabled":false,"rental_uris":{"android":"levelo://app?vid=7a9437dc-9620-4e4d-ac55-f97780f81760","ios":"levelo://app?vid=7a9437dc-9620-4e4d-ac55-f97780f81760"},"vehicle_type_id":"4","last_reported":1770391790,"current_range_meters":4400,"station_id":"ce4bhgh2rcd13ifvqfb0","pricing_plan_id":"cebpf4jnsgd1na2vs0mg"},{"bike_id":"ae0eb4a0-49ee-4a02-b7ab-da66be7d9573","system_id":"levelo_inurba_marseille","lat":43.2623,"lon":5.40446,"is_reserved":false,"is_disabled":false,"rental_uris":{"android":"levelo://app?vid=ae0eb4a0-49ee-4a02-b7ab-da66be7d9573","ios":"levelo://app?vid=ae0eb4a0-49ee-4a02-b7ab-da66be7d9573"},"vehicle_type_id":"4","last_reported":1770391790,"current_range_meters":4400,"station_id":"ce4bhmh2rcd13ifvqgmg","pricing_plan_id":"cebpf4jnsgd1na2vs0mg"},{"bike_id":"a4099e4d-58a3-4383-9340-f7bc4f20b158","system_id":"levelo_inurba_marseille","lat":43.29624,"lon":5.38107,"is_reserved":false,"is_disabled":false,"rental_uris":{"android":"levelo://app?vid=a4099e4d-58a3-4383-9340-f7bc4f20b158","ios":"levelo://app?vid=a4099e4d-58a3-4383-9340-f7bc4f20b158"},"vehicle_type_id":"4","last_reported":1770391790,"current_range_meters":4400,"station_id":"ce4bgl12rcd13ifvqbo0","pricing_plan_id":"cebpf4jnsgd1na2vs0mg"},{"bike_id":"c1141524-5343-4555-9ca5-2692a3456421","system_id":"levelo_inurba_marseille","lat":43.22934,"lon":5.35373,"is_reserved":false,"is_disabled":false,"rental_uris":{"android":"levelo://app?vid=c1141524-5343-4555-9ca5-2692a3456421","ios":"levelo://app?vid=c1141524-5343-4555-9ca5-2692a3456421"},"vehicle_type_id":"4","last_reported":1770391790,"current_range_meters":4400,"station_id":"cpo3532slgdg3j2ikp40","pricing_plan_id":"cebpf4jnsgd1na2vs0mg"},{"bike_id":"66843164-e6dd-46fc-8743-26489dd47f53","system_id":"levelo_inurba_marseille","lat":43.31532,"lon":5.36563,"is_reserved":false,"is_disabled":false,"rental_uris":{"android":"levelo://app?vid=66843164-e6dd-46fc-8743-26489dd47f53","ios":"levelo://app?vid=66843164-e6dd-46fc-8743-26489dd47f53"},"vehicle_type_id":"4","last_reported":1770391790,"current_range_meters":4400,"station_id":"ce4bgr92rcd13ifvqc6g","pricing_plan_id":"cebpf4jnsgd1na2vs0mg"},{"bike_id":"412b9b41-8def-4e3c-8564-2b4f012a01c6","system_id":"levelo_inurba_marseille","lat":43.31169,"lon":5.38714,"is_reserved":false,"is_disabled":false,"rental_uris":{"android":"levelo://app?vid=412b9b41-8def-4e3c-8564-2b4f012a01c6","ios":"levelo://app?vid=412b9b41-8def-4e3c-8564-2b4f012a01c6"},"vehicle_type_id":"4","last_reported":1770391790,"current_range_meters":4400,"station_id":"ce4bgv12rcd13ifvqcp0","pricing_plan_id":"cebpf4jnsgd1na2vs0mg"},{"bike_id":"b49b4216-4eb9-404f-8a9b-f497315b3360","system_id":"levelo_inurba_marseille","lat":43.33555,"lon":5.37463,"is_reserved":false,"is_disabled":false,"rental_uris":{"android":"levelo://app?vid=b49b4216-4eb9-404f-8a9b-f497315b3360","ios":"levelo://app?vid=b49b4216-4eb9-404f-8a9b-f497315b3360"},"vehicle_type_id":"4","last_reported":1770391790,"current_range_meters":4400,"station_id":"st_d46tts09ee8s73dlu43g","pricing_plan_id":"cebpf4jnsgd1na2vs0mg"},{"bike_id":"0b2baa03-2ce0-4c02-92f5-06530408048b","system_id":"levelo_inurba_marseille","lat":43.29785,"lon":5.38096,"is_reserved":false,"is_disabled":false,"rental_uris":{"android":"levelo://app?vid=0b2baa03-2ce0-4c02-92f5-06530408048b","ios":"levelo://app?vid=0b2baa03-2ce0-4c02-92f5-06530408048b"},"vehicle_type_id":"4","last_reported":1770391790,"current_range_meters":4400,"station_id":"ce4bgip2rcd13ifvqbb0","pricing_plan_id":"cebpf4jnsgd1na2vs0mg"},{"bike_id":"666ae4b0-78b8-4bfd-8d57-b1fb492c689f","system_id":"levelo_inurba_marseille","lat":43.28252,"lon":5.35071,"is_reserved":false,"is_disabled":false,"rental_uris":{"android":"levelo://app?vid=666ae4b0-78b8-4bfd-8d57-b1fb492c689f","ios":"levelo://app?vid=666ae4b0-78b8-4bfd-8d57-b1fb492c689f"},"vehicle_type_id":"4","last_reported":1770391790,"current_range_meters":4800,"station_id":"ce4bhbp2rcd13ifvqerg","pricing_plan_id":"cebpf4jnsgd1na2vs0mg"},{"bike_id":"6c706595-1835-4ddf-8d94-5e35d4a0f5cb","system_id":"levelo_inurba_marseille","lat":43.31217,"lon":5.3685,"is_reserved":false,"is_disabled":false,"rental_uris":{"android":"levelo://app?vid=6c706595-1835-4ddf-8d94-5e35d4a0f5cb","ios":"levelo://app?vid=6c706595-1835-4ddf-8d94-5e35d4a0f5cb"},"vehicle_type_id":"4","last_reported":1770391790,"current_range_meters":4800,"station_id":"ce4bgl92rcd13ifvqbq0","pricing_plan_id":"cebpf4jnsgd1na2vs0mg"},{"bike_id":"b3da51f1-3959-4461-a2db-5ccced52aa40","system_id":"levelo_inurba_marseille","lat":43.29039,"lon":5.35926,"is_reserved":false,"is_disabled":false,"rental_uris":{"android":"levelo://app?vid=b3da51f1-3959-4461-a2db-5ccced52aa40","ios":"levelo://app?vid=b3da51f1-3959-4461-a2db-5ccced52aa40"},"vehicle_type_id":"4","last_reported":1770391790,"current_range_meters":4800,"station_id":"ce4bha92rcd13ifvqeg0","pricing_plan_id":"cebpf4jnsgd1na2vs0mg"},{"bike_id":"169b24c6-5ba8-4ff4-af37-10256070a2f6","system_id":"levelo_inurba_marseille","lat":43.28431,"lon":5.34981,"is_reserved":false,"is_disabled":false,"rental_uris":{"android":"levelo://app?vid=169b24c6-5ba8-4ff4-af37-10256070a2f6","ios":"levelo://app?vid=169b24c6-5ba8-4ff4-af37-10256070a2f6"},"vehicle_type_id":"4","last_reported":1770391790,"current_range_meters":4800,"station_id":"ce4bhbh2rcd13ifvqepg","pricing_plan_id":"cebpf4jnsgd1na2vs0mg"},{"bike_id":"17063f6b-9abb-4aa9-a5ba-517dc9c7b96b","system_id":"levelo_inurba_marseille","lat":43.308997,"lon":5.396626,"is_reserved":false,"is_disabled":false,"rental_uris":{"android":"levelo://app?vid=17063f6b-9abb-4aa9-a5ba-517dc9c7b96b","ios":"levelo://app?vid=17063f6b-9abb-4aa9-a5ba-517dc9c7b96b"},"vehicle_type_id":"4","last_reported":1770391790,"current_range_meters":4800,"station_id":"ce4bh012rcd13ifvqcv0","pricing_plan_id":"cebpf4jnsgd1na2vs0mg"},{"bike_id":"f1bff026-bd99-4af5-9efa-17efa0f261ab","system_id":"levelo_inurba_marseille","lat":43.305389,"lon":5.365546,"is_reserved":false,"is_disabled":false,"rental_uris":{"android":"levelo://app?vid=f1bff026-bd99-4af5-9efa-17efa0f261ab","ios":"levelo://app?vid=f1bff026-bd99-4af5-9efa-17efa0f261ab"},"vehicle_type_id":"4","last_reported":1770391790,"current_range_meters":4800,"station_id":"ce4bgs12rcd13ifvqcag","pricing_plan_id":"cebpf4jnsgd1na2vs0mg"},{"bike_id":"ed0b7b07-9c38-4fb9-bc30-93ba90939795","system_id":"levelo_inurba_marseille","lat":43.331566,"lon":5.376944,"is_reserved":false,"is_disabled":false,"rental_uris":{"android":"levelo://app?vid=ed0b7b07-9c38-4fb9-bc30-93ba90939795","ios":"levelo://app?vid=ed0b7b07-9c38-4fb9-bc30-93ba90939795"},"vehicle_type_id":"4","last_reported":1770391790,"current_range_meters":4800,"station_id":"st_d46cu089ee8s73dldbu0","pricing_plan_id":"cebpf4jnsgd1na2vs0mg"},{"bike_id":"1ced956b-5275-4fae-8851-841c41a06120","system_id":"levelo_inurba_marseille","lat":43.308905,"lon":5.372006,"is_reserved":false,"is_disabled":false,"rental_uris":{"android":"levelo://app?vid=1ced956b-5275-4fae-8851-841c41a06120","ios":"levelo://app?vid=1ced956b-5275-4fae-8851-841c41a06120"},"vehicle_type_id":"4","last_reported":1770391790,"current_range_meters":4800,"station_id":"ce4bguh2rcd13ifvqckg","pricing_plan_id":"cebpf4jnsgd1na2vs0mg"},{"bike_id":"b99792a6-e5f6-4d02-b57c-f1188982040f","system_id":"levelo_inurba_marseille","lat":43.28939,"lon":5.39628,"is_reserved":false,"is_disabled":false,"rental_uris":{"android":"levelo://app?vid=b99792a6-e5f6-4d02-b57c-f1188982040f","ios":"levelo://app?vid=b99792a6-e5f6-4d02-b57c-f1188982040f"},"vehicle_type_id":"4","last_reported":1770391790,"current_range_meters":4800,"station_id":"ce4bh3h2rcd13ifvqdn0","pricing_plan_id":"cebpf4jnsgd1na2vs0mg"},{"bike_id":"0ff7d1fc-c942-4e04-bb24-6b30b880d197","system_id":"levelo_inurba_marseille","lat":43.315341,"lon":5.368761,"is_reserved":false,"is_disabled":false,"rental_uris":{"android":"levelo://app?vid=0ff7d1fc-c942-4e04-bb24-6b30b880d197","ios":"levelo://app?vid=0ff7d1fc-c942-4e04-bb24-6b30b880d197"},"vehicle_type_id":"4","last_reported":1770391790,"current_range_meters":4800,"station_id":"","pricing_plan_id":"cebpf4jnsgd1na2vs0mg"},{"bike_id":"fbab9589-eea8-4832-bb1f-41096b1f1609","system_id":"levelo_inurba_marseille","lat":43.28612,"lon":5.37063,"is_reserved":false,"is_disabled":false,"rental_uris":{"android":"levelo://app?vid=fbab9589-eea8-4832-bb1f-41096b1f1609","ios":"levelo://app?vid=fbab9589-eea8-4832-bb1f-41096b1f1609"},"vehicle_type_id":"4","last_reported":1770391790,"current_range_meters":4800,"station_id":"ce4bht12rcd13ifvqi60","pricing_plan_id":"cebpf4jnsgd1na2vs0mg"},{"bike_id":"3c746219-32d4-4058-9d3c-a71a92b78584","system_id":"levelo_inurba_marseille","lat":43.24812,"lon":5.37461,"is_reserved":false,"is_disabled":false,"rental_uris":{"android":"levelo://app?vid=3c746219-32d4-4058-9d3c-a71a92b78584","ios":"levelo://app?vid=3c746219-32d4-4058-9d3c-a71a92b78584"},"vehicle_type_id":"4","last_reported":1770391790,"current_range_meters":5600,"station_id":"ce4bhgh2rcd13ifvqfb0","pricing_plan_id":"cebpf4jnsgd1na2vs0mg"},{"bike_id":"7df2cb37-e568-4ec5-b8c6-70f5c5be72f0","system_id":"levelo_inurba_marseille","lat":43.28696,"lon":5.37938,"is_reserved":false,"is_disabled":false,"rental_uris":{"android":"levelo://app?vid=7df2cb37-e568-4ec5-b8c6-70f5c5be72f0","ios":"levelo://app?vid=7df2cb37-e568-4ec5-b8c6-70f5c5be72f0"},"vehicle_type_id":"4","last_reported":1770391790,"current_range_meters":5600,"station_id":"ce4bh9p2rcd13ifvqec0","pricing_plan_id":"cebpf4jnsgd1na2vs0mg"},{"bike_id":"81105a24-281c-41d4-9cb4-6f41e46300e9","system_id":"levelo_inurba_marseille","lat":43.29819,"lon":5.38031,"is_reserved":false,"is_disabled":false,"rental_uris":{"android":"levelo://app?vid=81105a24-281c-41d4-9cb4-6f41e46300e9","ios":"levelo://app?vid=81105a24-281c-41d4-9cb4-6f41e46300e9"},"vehicle_type_id":"4","last_reported":1770391790,"current_range_meters":5600,"station_id":"","pricing_plan_id":"cebpf4jnsgd1na2vs0mg"},{"bike_id":"1b919ba1-7a4e-44ca-b3c2-beff6878e164","system_id":"levelo_inurba_marseille","lat":43.29034,"lon":5.38656,"is_reserved":false,"is_disabled":false,"rental_uris":{"android":"levelo://app?vid=1b919ba1-7a4e-44ca-b3c2-beff6878e164","ios":"levelo://app?vid=1b919ba1-7a4e-44ca-b3c2-beff6878e164"},"vehicle_type_id":"4","last_reported":1770391790,"current_range_meters":5600,"station_id":"ce4bh4p2rcd13ifvqe0g","pricing_plan_id":"cebpf4jnsgd1na2vs0mg"},{"bike_id":"6e841bf6-5397-4553-8cf2-e04c1ae59db0","system_id":"levelo_inurba_marseille","lat":43.28994,"lon":5.35617,"is_reserved":false,"is_disabled":true,"rental_uris":{"android":"levelo://app?vid=6e841bf6-5397-4553-8cf2-e04c1ae59db0","ios":"levelo://app?vid=6e841bf6-5397-4553-8cf2-e04c1ae59db0"},"vehicle_type_id":"4","last_reported":1770391790,"current_range_meters":5600,"station_id":"ce4bhb92rcd13ifvqen0","pricing_plan_id":"cebpf4jnsgd1na2vs0mg"},{"bike_id":"c0bcc2b4-0c21-4712-82e8-d7d1de58590b","system_id":"levelo_inurba_marseille","lat":43.263786,"lon":5.410697,"is_reserved":false,"is_disabled":true,"rental_uris":{"android":"levelo://app?vid=c0bcc2b4-0c21-4712-82e8-d7d1de58590b","ios":"levelo://app?vid=c0bcc2b4-0c21-4712-82e8-d7d1de58590b"},"vehicle_type_id":"4","last_reported":1770391790,"current_range_meters":5600,"station_id":"","pricing_plan_id":"cebpf4jnsgd1na2vs0mg"},{"bike_id":"7ce3271c-9e28-4d5e-b3b1-77311e5df5d7","system_id":"levelo_inurba_marseille","lat":43.31488,"lon":5.38089,"is_reserved":false,"is_disabled":false,"rental_uris":{"android":"levelo://app?vid=7ce3271c-9e28-4d5e-b3b1-77311e5df5d7","ios":"levelo://app?vid=7ce3271c-9e28-4d5e-b3b1-77311e5df5d7"},"vehicle_type_id":"4","last_reported":1770391790,"current_range_meters":5600,"station_id":"","pricing_plan_id":"cebpf4jnsgd1na2vs0mg"},{"bike_id":"401267ee-c62b-44e0-81b2-f782b88a62dc","system_id":"levelo_inurba_marseille","lat":43.29077,"lon":5.39977,"is_reserved":false,"is_disabled":false,"rental_uris":{"android":"levelo://app?vid=401267ee-c62b-44e0-81b2-f782b88a62dc","ios":"levelo://app?vid=401267ee-c62b-44e0-81b2-f782b88a62dc"},"vehicle_type_id":"4","last_reported":1770391790,"current_range_meters":5600,"station_id":"ce4bh392rcd13ifvqdm0","pricing_plan_id":"cebpf4jnsgd1na2vs0mg"},{"bike_id":"ac551100-dc22-4913-9a52-4829a5f95f35","system_id":"levelo_inurba_marseille","lat":43.28619,"lon":5.39884,"is_reserved":false,"is_disabled":true,"rental_uris":{"android":"levelo://app?vid=ac551100-dc22-4913-9a52-4829a5f95f35","ios":"levelo://app?vid=ac551100-dc22-4913-9a52-4829a5f95f35"},"vehicle_type_id":"4","last_reported":1770391790,"current_range_meters":5600,"station_id":"st_d4a7ka997mjs738ck50g","pricing_plan_id":"cebpf4jnsgd1na2vs0mg"},{"bike_id":"c3c5aaa7-cf8c-4020-af5a-ac3f63fe9c89","system_id":"levelo_inurba_marseille","lat":43.26553,"lon":5.37279,"is_reserved":false,"is_disabled":false,"rental_uris":{"android":"levelo://app?vid=c3c5aaa7-cf8c-4020-af5a-ac3f63fe9c89","ios":"levelo://app?vid=c3c5aaa7-cf8c-4020-af5a-ac3f63fe9c89"},"vehicle_type_id":"4","last_reported":1770391790,"current_range_meters":6000,"station_id":"ce4bhg12rcd13ifvqf70","pricing_plan_id":"cebpf4jnsgd1na2vs0mg"},{"bike_id":"8ac864bf-49b5-4ef2-bd0c-e2ca684e782b","system_id":"levelo_inurba_marseille","lat":43.28151,"lon":5.42643,"is_reserved":false,"is_disabled":false,"rental_uris":{"android":"levelo://app?vid=8ac864bf-49b5-4ef2-bd0c-e2ca684e782b","ios":"levelo://app?vid=8ac864bf-49b5-4ef2-bd0c-e2ca684e782b"},"vehicle_type_id":"4","last_reported":1770391790,"current_range_meters":6000,"station_id":"ce4bhnh2rcd13ifvqgug","pricing_plan_id":"cebpf4jnsgd1na2vs0mg"},{"bike_id":"a30c0cb7-1441-4c86-b4f0-2bfb625b082f","system_id":"levelo_inurba_marseille","lat":43.33601,"lon":5.41033,"is_reserved":false,"is_disabled":false,"rental_uris":{"android":"levelo://app?vid=a30c0cb7-1441-4c86-b4f0-2bfb625b082f","ios":"levelo://app?vid=a30c0cb7-1441-4c86-b4f0-2bfb625b082f"},"vehicle_type_id":"4","last_reported":1770391790,"current_range_meters":6000,"station_id":"ce4bhqh2rcd13ifvqhmg","pricing_plan_id":"cebpf4jnsgd1na2vs0mg"},{"bike_id":"63b5e7ff-784a-44cb-b53d-dd43a84f5930","system_id":"levelo_inurba_marseille","lat":43.24166,"lon":5.36393,"is_reserved":false,"is_disabled":false,"rental_uris":{"android":"levelo://app?vid=63b5e7ff-784a-44cb-b53d-dd43a84f5930","ios":"levelo://app?vid=63b5e7ff-784a-44cb-b53d-dd43a84f5930"},"vehicle_type_id":"4","last_reported":1770391790,"current_range_meters":6000,"station_id":"cpo36qri1sfpv3e86is0","pricing_plan_id":"cebpf4jnsgd1na2vs0mg"},{"bike_id":"b271be56-a7ae-40dc-895b-1b2342869677","system_id":"levelo_inurba_marseille","lat":43.286675,"lon":5.36348,"is_reserved":false,"is_disabled":false,"rental_uris":{"android":"levelo://app?vid=b271be56-a7ae-40dc-895b-1b2342869677","ios":"levelo://app?vid=b271be56-a7ae-40dc-895b-1b2342869677"},"vehicle_type_id":"4","last_reported":1770391790,"current_range_meters":6000,"station_id":"ce4bhah2rcd13ifvqej0","pricing_plan_id":"cebpf4jnsgd1na2vs0mg"},{"bike_id":"0c0204e9-2e2c-4854-9498-c261c0135345","system_id":"levelo_inurba_marseille","lat":43.23784,"lon":5.36638,"is_reserved":false,"is_disabled":false,"rental_uris":{"android":"levelo://app?vid=0c0204e9-2e2c-4854-9498-c261c0135345","ios":"levelo://app?vid=0c0204e9-2e2c-4854-9498-c261c0135345"},"vehicle_type_id":"4","last_reported":1770391790,"current_range_meters":6000,"station_id":"st_d3nk18o9ro0c73en2l3g","pricing_plan_id":"cebpf4jnsgd1na2vs0mg"},{"bike_id":"9348a908-aec0-4119-8774-48db105c0d12","system_id":"levelo_inurba_marseille","lat":43.290039,"lon":5.356138,"is_reserved":false,"is_disabled":false,"rental_uris":{"android":"levelo://app?vid=9348a908-aec0-4119-8774-48db105c0d12","ios":"levelo://app?vid=9348a908-aec0-4119-8774-48db105c0d12"},"vehicle_type_id":"4","last_reported":1770391790,"current_range_meters":6000,"station_id":"ce4bhb92rcd13ifvqen0","pricing_plan_id":"cebpf4jnsgd1na2vs0mg"},{"bike_id":"728b8739-abf6-4ecd-b814-bff7af063d91","system_id":"levelo_inurba_marseille","lat":43.3011,"lon":5.39095,"is_reserved":false,"is_disabled":false,"rental_uris":{"android":"levelo://app?vid=728b8739-abf6-4ecd-b814-bff7af063d91","ios":"levelo://app?vid=728b8739-abf6-4ecd-b814-bff7af063d91"},"vehicle_type_id":"4","last_reported":1770391790,"current_range_meters":6000,"station_id":"ce4bh192rcd13ifvqdb0","pricing_plan_id":"cebpf4jnsgd1na2vs0mg"},{"bike_id":"3b5364ee-bb51-463a-bdaf-2cdff4206eea","system_id":"levelo_inurba_marseille","lat":43.28263,"lon":5.3507,"is_reserved":false,"is_disabled":false,"rental_uris":{"android":"levelo://app?vid=3b5364ee-bb51-463a-bdaf-2cdff4206eea","ios":"levelo://app?vid=3b5364ee-bb51-463a-bdaf-2cdff4206eea"},"vehicle_type_id":"4","last_reported":1770391790,"current_range_meters":6000,"station_id":"ce4bhbp2rcd13ifvqerg","pricing_plan_id":"cebpf4jnsgd1na2vs0mg"},{"bike_id":"ff4ea7e2-7381-432f-8f1f-c9fc273428a9","system_id":"levelo_inurba_marseille","lat":43.290017,"lon":5.356185,"is_reserved":false,"is_disabled":false,"rental_uris":{"android":"levelo://app?vid=ff4ea7e2-7381-432f-8f1f-c9fc273428a9","ios":"levelo://app?vid=ff4ea7e2-7381-432f-8f1f-c9fc273428a9"},"vehicle_type_id":"4","last_reported":1770391790,"current_range_meters":6000,"station_id":"ce4bhb92rcd13ifvqen0","pricing_plan_id":"cebpf4jnsgd1na2vs0mg"},{"bike_id":"de6536c6-12b6-4b78-9e49-9ee04df7bc19","system_id":"levelo_inurba_marseille","lat":43.217452,"lon":5.346053,"is_reserved":false,"is_disabled":false,"rental_uris":{"android":"levelo://app?vid=de6536c6-12b6-4b78-9e49-9ee04df7bc19","ios":"levelo://app?vid=de6536c6-12b6-4b78-9e49-9ee04df7bc19"},"vehicle_type_id":"4","last_reported":1770391790,"current_range_meters":6000,"station_id":"st_cvj6r9ubvosntc0bgbag","pricing_plan_id":"cebpf4jnsgd1na2vs0mg"},{"bike_id":"78bac84c-3f47-43c3-aab0-e664f498eff3","system_id":"levelo_inurba_marseille","lat":43.29375,"lon":5.37849,"is_reserved":false,"is_disabled":false,"rental_uris":{"android":"levelo://app?vid=78bac84c-3f47-43c3-aab0-e664f498eff3","ios":"levelo://app?vid=78bac84c-3f47-43c3-aab0-e664f498eff3"},"vehicle_type_id":"4","last_reported":1770391790,"current_range_meters":6000,"station_id":"ce4bgjh2rcd13ifvqbf0","pricing_plan_id":"cebpf4jnsgd1na2vs0mg"},{"bike_id":"0388f24a-b566-45b1-a38a-12fb5d338f89","system_id":"levelo_inurba_marseille","lat":43.31652,"lon":5.37647,"is_reserved":false,"is_disabled":false,"rental_uris":{"android":"levelo://app?vid=0388f24a-b566-45b1-a38a-12fb5d338f89","ios":"levelo://app?vid=0388f24a-b566-45b1-a38a-12fb5d338f89"},"vehicle_type_id":"4","last_reported":1770391790,"current_range_meters":6000,"station_id":"","pricing_plan_id":"cebpf4jnsgd1na2vs0mg"},{"bike_id":"375e9bcb-b945-4768-82d3-b05471dcf5fd","system_id":"levelo_inurba_marseille","lat":43.28927,"lon":5.46035,"is_reserved":false,"is_disabled":false,"rental_uris":{"android":"levelo://app?vid=375e9bcb-b945-4768-82d3-b05471dcf5fd","ios":"levelo://app?vid=375e9bcb-b945-4768-82d3-b05471dcf5fd"},"vehicle_type_id":"4","last_reported":1770391790,"current_range_meters":6400,"station_id":"","pricing_plan_id":"cebpf4jnsgd1na2vs0mg"},{"bike_id":"86ef6d29-a1ae-4ad3-85ee-72ede19038e6","system_id":"levelo_inurba_marseille","lat":43.321053,"lon":5.367727,"is_reserved":false,"is_disabled":false,"rental_uris":{"android":"levelo://app?vid=86ef6d29-a1ae-4ad3-85ee-72ede19038e6","ios":"levelo://app?vid=86ef6d29-a1ae-4ad3-85ee-72ede19038e6"},"vehicle_type_id":"4","last_reported":1770391790,"current_range_meters":6400,"station_id":"ce4bhrh2rcd13ifvqhug","pricing_plan_id":"cebpf4jnsgd1na2vs0mg"},{"bike_id":"6e866478-bb02-4bbe-920b-4ea9680c0797","system_id":"levelo_inurba_marseille","lat":43.27983,"lon":5.40002,"is_reserved":false,"is_disabled":false,"rental_uris":{"android":"levelo://app?vid=6e866478-bb02-4bbe-920b-4ea9680c0797","ios":"levelo://app?vid=6e866478-bb02-4bbe-920b-4ea9680c0797"},"vehicle_type_id":"4","last_reported":1770391790,"current_range_meters":6400,"station_id":"ce4bho92rcd13ifvqh4g","pricing_plan_id":"cebpf4jnsgd1na2vs0mg"},{"bike_id":"ef79007e-ef6d-4e7f-a3ae-3ed5ead69e87","system_id":"levelo_inurba_marseille","lat":43.23195,"lon":5.35543,"is_reserved":false,"is_disabled":false,"rental_uris":{"android":"levelo://app?vid=ef79007e-ef6d-4e7f-a3ae-3ed5ead69e87","ios":"levelo://app?vid=ef79007e-ef6d-4e7f-a3ae-3ed5ead69e87"},"vehicle_type_id":"4","last_reported":1770391790,"current_range_meters":6400,"station_id":"ce4bhu92rcd13ifvqi70","pricing_plan_id":"cebpf4jnsgd1na2vs0mg"},{"bike_id":"ce42e7f7-46f5-4db3-9bac-ce86f1010cc5","system_id":"levelo_inurba_marseille","lat":43.23385,"lon":5.41227,"is_reserved":false,"is_disabled":false,"rental_uris":{"android":"levelo://app?vid=ce42e7f7-46f5-4db3-9bac-ce86f1010cc5","ios":"levelo://app?vid=ce42e7f7-46f5-4db3-9bac-ce86f1010cc5"},"vehicle_type_id":"4","last_reported":1770391790,"current_range_meters":6400,"station_id":"","pricing_plan_id":"cebpf4jnsgd1na2vs0mg"},{"bike_id":"90e59ac1-cd46-446b-b3a8-2b22481380d2","system_id":"levelo_inurba_marseille","lat":43.30887,"lon":5.37193,"is_reserved":false,"is_disabled":false,"rental_uris":{"android":"levelo://app?vid=90e59ac1-cd46-446b-b3a8-2b22481380d2","ios":"levelo://app?vid=90e59ac1-cd46-446b-b3a8-2b22481380d2"},"vehicle_type_id":"4","last_reported":1770391790,"current_range_meters":6400,"station_id":"ce4bguh2rcd13ifvqckg","pricing_plan_id":"cebpf4jnsgd1na2vs0mg"},{"bike_id":"935f3bdb-0f5b-4895-ac38-38e1ad348d15","system_id":"levelo_inurba_marseille","lat":43.3047,"lon":5.37906,"is_reserved":false,"is_disabled":false,"rental_uris":{"android":"levelo://app?vid=935f3bdb-0f5b-4895-ac38-38e1ad348d15","ios":"levelo://app?vid=935f3bdb-0f5b-4895-ac38-38e1ad348d15"},"vehicle_type_id":"4","last_reported":1770391790,"current_range_meters":6400,"station_id":"ce4bgup2rcd13ifvqcn0","pricing_plan_id":"cebpf4jnsgd1na2vs0mg"},{"bike_id":"03092f8d-73b7-4cd5-95f7-3d1318945596","system_id":"levelo_inurba_marseille","lat":43.21751,"lon":5.3461,"is_reserved":false,"is_disabled":false,"rental_uris":{"android":"levelo://app?vid=03092f8d-73b7-4cd5-95f7-3d1318945596","ios":"levelo://app?vid=03092f8d-73b7-4cd5-95f7-3d1318945596"},"vehicle_type_id":"4","last_reported":1770391790,"current_range_meters":6400,"station_id":"st_cvj6r9ubvosntc0bgbag","pricing_plan_id":"cebpf4jnsgd1na2vs0mg"},{"bike_id":"c8aff1fe-5f04-4fd7-864c-64d4b266f9d6","system_id":"levelo_inurba_marseille","lat":43.302065,"lon":5.36618,"is_reserved":false,"is_disabled":false,"rental_uris":{"android":"levelo://app?vid=c8aff1fe-5f04-4fd7-864c-64d4b266f9d6","ios":"levelo://app?vid=c8aff1fe-5f04-4fd7-864c-64d4b266f9d6"},"vehicle_type_id":"4","last_reported":1770391790,"current_range_meters":6400,"station_id":"ce4bgrh2rcd13ifvqc8g","pricing_plan_id":"cebpf4jnsgd1na2vs0mg"},{"bike_id":"7ac831d0-c233-423c-a19f-b6dd1aae8bbf","system_id":"levelo_inurba_marseille","lat":43.2737,"lon":5.36264,"is_reserved":false,"is_disabled":false,"rental_uris":{"android":"levelo://app?vid=7ac831d0-c233-423c-a19f-b6dd1aae8bbf","ios":"levelo://app?vid=7ac831d0-c233-423c-a19f-b6dd1aae8bbf"},"vehicle_type_id":"4","last_reported":1770391790,"current_range_meters":6400,"station_id":"ce4bhbh2rcd13ifvqeo0","pricing_plan_id":"cebpf4jnsgd1na2vs0mg"},{"bike_id":"e272fc61-be2c-4061-af7b-5d829be2e855","system_id":"levelo_inurba_marseille","lat":43.26375,"lon":5.41061,"is_reserved":false,"is_disabled":false,"rental_uris":{"android":"levelo://app?vid=e272fc61-be2c-4061-af7b-5d829be2e855","ios":"levelo://app?vid=e272fc61-be2c-4061-af7b-5d829be2e855"},"vehicle_type_id":"4","last_reported":1770391790,"current_range_meters":6400,"station_id":"st_d4e5ca6na9uc73bfl5fg","pricing_plan_id":"cebpf4jnsgd1na2vs0mg"},{"bike_id":"b0cec839-9044-416d-92eb-61b8dee05fdc","system_id":"levelo_inurba_marseille","lat":43.2805,"lon":5.36963,"is_reserved":false,"is_disabled":false,"rental_uris":{"android":"levelo://app?vid=b0cec839-9044-416d-92eb-61b8dee05fdc","ios":"levelo://app?vid=b0cec839-9044-416d-92eb-61b8dee05fdc"},"vehicle_type_id":"4","last_reported":1770391790,"current_range_meters":6400,"station_id":"ce4bha12rcd13ifvqef0","pricing_plan_id":"cebpf4jnsgd1na2vs0mg"},{"bike_id":"247ec918-3162-46ca-a226-13c6e92fca5d","system_id":"levelo_inurba_marseille","lat":43.23152,"lon":5.43728,"is_reserved":false,"is_disabled":false,"rental_uris":{"android":"levelo://app?vid=247ec918-3162-46ca-a226-13c6e92fca5d","ios":"levelo://app?vid=247ec918-3162-46ca-a226-13c6e92fca5d"},"vehicle_type_id":"4","last_reported":1770391790,"current_range_meters":6400,"station_id":"ce4bhmp2rcd13ifvqgog","pricing_plan_id":"cebpf4jnsgd1na2vs0mg"},{"bike_id":"7913ecf5-95cc-46db-ad1a-05494005e5b1","system_id":"levelo_inurba_marseille","lat":43.256408,"lon":5.419434,"is_reserved":false,"is_disabled":false,"rental_uris":{"android":"levelo://app?vid=7913ecf5-95cc-46db-ad1a-05494005e5b1","ios":"levelo://app?vid=7913ecf5-95cc-46db-ad1a-05494005e5b1"},"vehicle_type_id":"4","last_reported":1770391790,"current_range_meters":6400,"station_id":"","pricing_plan_id":"cebpf4jnsgd1na2vs0mg"},{"bike_id":"711c2daf-3fb1-422b-aa3c-f34a01f9ab2a","system_id":"levelo_inurba_marseille","lat":43.23146,"lon":5.43722,"is_reserved":false,"is_disabled":false,"rental_uris":{"android":"levelo://app?vid=711c2daf-3fb1-422b-aa3c-f34a01f9ab2a","ios":"levelo://app?vid=711c2daf-3fb1-422b-aa3c-f34a01f9ab2a"},"vehicle_type_id":"4","last_reported":1770391790,"current_range_meters":6400,"station_id":"ce4bhmp2rcd13ifvqgog","pricing_plan_id":"cebpf4jnsgd1na2vs0mg"},{"bike_id":"5638c18f-ee6c-4ee5-b21a-789fc9850573","system_id":"levelo_inurba_marseille","lat":43.31285,"lon":5.40176,"is_reserved":false,"is_disabled":false,"rental_uris":{"android":"levelo://app?vid=5638c18f-ee6c-4ee5-b21a-789fc9850573","ios":"levelo://app?vid=5638c18f-ee6c-4ee5-b21a-789fc9850573"},"vehicle_type_id":"4","last_reported":1770391790,"current_range_meters":6800,"station_id":"ce4bh092rcd13ifvqd30","pricing_plan_id":"cebpf4jnsgd1na2vs0mg"},{"bike_id":"f2251f8f-476c-490a-a2da-0d724c30184f","system_id":"levelo_inurba_marseille","lat":43.31268,"lon":5.36888,"is_reserved":false,"is_disabled":false,"rental_uris":{"android":"levelo://app?vid=f2251f8f-476c-490a-a2da-0d724c30184f","ios":"levelo://app?vid=f2251f8f-476c-490a-a2da-0d724c30184f"},"vehicle_type_id":"4","last_reported":1770391790,"current_range_meters":6800,"station_id":"","pricing_plan_id":"cebpf4jnsgd1na2vs0mg"},{"bike_id":"4fb6aea1-2b17-4cfc-9731-d03fa2453842","system_id":"levelo_inurba_marseille","lat":43.29042,"lon":5.39977,"is_reserved":false,"is_disabled":false,"rental_uris":{"android":"levelo://app?vid=4fb6aea1-2b17-4cfc-9731-d03fa2453842","ios":"levelo://app?vid=4fb6aea1-2b17-4cfc-9731-d03fa2453842"},"vehicle_type_id":"4","last_reported":1770391790,"current_range_meters":6800,"station_id":"ce4bh392rcd13ifvqdm0","pricing_plan_id":"cebpf4jnsgd1na2vs0mg"},{"bike_id":"d1c18459-8912-48b2-9ab2-628926a6221e","system_id":"levelo_inurba_marseille","lat":43.298,"lon":5.39347,"is_reserved":false,"is_disabled":false,"rental_uris":{"android":"levelo://app?vid=d1c18459-8912-48b2-9ab2-628926a6221e","ios":"levelo://app?vid=d1c18459-8912-48b2-9ab2-628926a6221e"},"vehicle_type_id":"4","last_reported":1770391790,"current_range_meters":6800,"station_id":"chh1huq6cuj3fo74tm60","pricing_plan_id":"cebpf4jnsgd1na2vs0mg"},{"bike_id":"7b04aefe-7f7f-4d81-b8fd-b782b6e85a7a","system_id":"levelo_inurba_marseille","lat":43.28723,"lon":5.37939,"is_reserved":false,"is_disabled":false,"rental_uris":{"android":"levelo://app?vid=7b04aefe-7f7f-4d81-b8fd-b782b6e85a7a","ios":"levelo://app?vid=7b04aefe-7f7f-4d81-b8fd-b782b6e85a7a"},"vehicle_type_id":"4","last_reported":1770391790,"current_range_meters":6800,"station_id":"ce4bh9p2rcd13ifvqec0","pricing_plan_id":"cebpf4jnsgd1na2vs0mg"},{"bike_id":"94b44417-a21a-4d69-bb88-2cb88dfc3dca","system_id":"levelo_inurba_marseille","lat":43.30133,"lon":5.43118,"is_reserved":false,"is_disabled":false,"rental_uris":{"android":"levelo://app?vid=94b44417-a21a-4d69-bb88-2cb88dfc3dca","ios":"levelo://app?vid=94b44417-a21a-4d69-bb88-2cb88dfc3dca"},"vehicle_type_id":"4","last_reported":1770391790,"current_range_meters":6800,"station_id":"st_d3js3co5814s73ftftug","pricing_plan_id":"cebpf4jnsgd1na2vs0mg"},{"bike_id":"ea394ce4-561e-40c3-b5d8-13958e8a40d6","system_id":"levelo_inurba_marseille","lat":43.2319,"lon":5.35556,"is_reserved":false,"is_disabled":false,"rental_uris":{"android":"levelo://app?vid=ea394ce4-561e-40c3-b5d8-13958e8a40d6","ios":"levelo://app?vid=ea394ce4-561e-40c3-b5d8-13958e8a40d6"},"vehicle_type_id":"4","last_reported":1770391790,"current_range_meters":6800,"station_id":"ce4bhu92rcd13ifvqi70","pricing_plan_id":"cebpf4jnsgd1na2vs0mg"},{"bike_id":"4179f537-2cfc-410e-a7a4-8df3db3202ca","system_id":"levelo_inurba_marseille","lat":43.2841,"lon":5.34988,"is_reserved":false,"is_disabled":false,"rental_uris":{"android":"levelo://app?vid=4179f537-2cfc-410e-a7a4-8df3db3202ca","ios":"levelo://app?vid=4179f537-2cfc-410e-a7a4-8df3db3202ca"},"vehicle_type_id":"4","last_reported":1770391790,"current_range_meters":6800,"station_id":"ce4bhbh2rcd13ifvqepg","pricing_plan_id":"cebpf4jnsgd1na2vs0mg"},{"bike_id":"651a1f03-9041-47f3-9a0b-971a8399b544","system_id":"levelo_inurba_marseille","lat":43.31188,"lon":5.38719,"is_reserved":false,"is_disabled":true,"rental_uris":{"android":"levelo://app?vid=651a1f03-9041-47f3-9a0b-971a8399b544","ios":"levelo://app?vid=651a1f03-9041-47f3-9a0b-971a8399b544"},"vehicle_type_id":"4","last_reported":1770391790,"current_range_meters":6800,"station_id":"ce4bgv12rcd13ifvqcp0","pricing_plan_id":"cebpf4jnsgd1na2vs0mg"},{"bike_id":"b02fbb60-e23e-4658-8f76-7a7c1172a579","system_id":"levelo_inurba_marseille","lat":43.26554,"lon":5.37292,"is_reserved":false,"is_disabled":false,"rental_uris":{"android":"levelo://app?vid=b02fbb60-e23e-4658-8f76-7a7c1172a579","ios":"levelo://app?vid=b02fbb60-e23e-4658-8f76-7a7c1172a579"},"vehicle_type_id":"4","last_reported":1770391790,"current_range_meters":6800,"station_id":"ce4bhg12rcd13ifvqf70","pricing_plan_id":"cebpf4jnsgd1na2vs0mg"},{"bike_id":"36af6b9c-3b6f-432b-8541-51b5e2f4a92f","system_id":"levelo_inurba_marseille","lat":43.25006,"lon":5.38916,"is_reserved":false,"is_disabled":false,"rental_uris":{"android":"levelo://app?vid=36af6b9c-3b6f-432b-8541-51b5e2f4a92f","ios":"levelo://app?vid=36af6b9c-3b6f-432b-8541-51b5e2f4a92f"},"vehicle_type_id":"4","last_reported":1770391790,"current_range_meters":6800,"station_id":"ce4bhgp2rcd13ifvqfd0","pricing_plan_id":"cebpf4jnsgd1na2vs0mg"},{"bike_id":"5f182a32-85ec-4eca-8ee7-ebbed161cae2","system_id":"levelo_inurba_marseille","lat":43.2621,"lon":5.37445,"is_reserved":false,"is_disabled":false,"rental_uris":{"android":"levelo://app?vid=5f182a32-85ec-4eca-8ee7-ebbed161cae2","ios":"levelo://app?vid=5f182a32-85ec-4eca-8ee7-ebbed161cae2"},"vehicle_type_id":"4","last_reported":1770391790,"current_range_meters":6800,"station_id":"ce4bhgp2rcd13ifvqfc0","pricing_plan_id":"cebpf4jnsgd1na2vs0mg"},{"bike_id":"d21bcbc7-d160-4be5-b2b3-d9f171ceee29","system_id":"levelo_inurba_marseille","lat":43.3054,"lon":5.36551,"is_reserved":false,"is_disabled":false,"rental_uris":{"android":"levelo://app?vid=d21bcbc7-d160-4be5-b2b3-d9f171ceee29","ios":"levelo://app?vid=d21bcbc7-d160-4be5-b2b3-d9f171ceee29"},"vehicle_type_id":"4","last_reported":1770391790,"current_range_meters":6800,"station_id":"ce4bgs12rcd13ifvqcag","pricing_plan_id":"cebpf4jnsgd1na2vs0mg"},{"bike_id":"3b986d99-7b42-471f-993a-11fde28f3c51","system_id":"levelo_inurba_marseille","lat":43.22582,"lon":5.41638,"is_reserved":false,"is_disabled":false,"rental_uris":{"android":"levelo://app?vid=3b986d99-7b42-471f-993a-11fde28f3c51","ios":"levelo://app?vid=3b986d99-7b42-471f-993a-11fde28f3c51"},"vehicle_type_id":"4","last_reported":1770391790,"current_range_meters":6800,"station_id":"st_d2o4gvlbi1j2169b742g","pricing_plan_id":"cebpf4jnsgd1na2vs0mg"},{"bike_id":"5c2eaafc-57a9-4ea0-bfc9-9fa8ad5634c6","system_id":"levelo_inurba_marseille","lat":43.26533,"lon":5.37311,"is_reserved":false,"is_disabled":false,"rental_uris":{"android":"levelo://app?vid=5c2eaafc-57a9-4ea0-bfc9-9fa8ad5634c6","ios":"levelo://app?vid=5c2eaafc-57a9-4ea0-bfc9-9fa8ad5634c6"},"vehicle_type_id":"4","last_reported":1770391790,"current_range_meters":6800,"station_id":"ce4bhg12rcd13ifvqf70","pricing_plan_id":"cebpf4jnsgd1na2vs0mg"},{"bike_id":"19d0c248-c1a6-4158-bc69-00a3796293a6","system_id":"levelo_inurba_marseille","lat":43.28274,"lon":5.35062,"is_reserved":false,"is_disabled":false,"rental_uris":{"android":"levelo://app?vid=19d0c248-c1a6-4158-bc69-00a3796293a6","ios":"levelo://app?vid=19d0c248-c1a6-4158-bc69-00a3796293a6"},"vehicle_type_id":"4","last_reported":1770391790,"current_range_meters":6800,"station_id":"ce4bhbp2rcd13ifvqerg","pricing_plan_id":"cebpf4jnsgd1na2vs0mg"},{"bike_id":"2b358923-c030-4481-a0eb-830aa62ff249","system_id":"levelo_inurba_marseille","lat":43.27403,"lon":5.36252,"is_reserved":false,"is_disabled":false,"rental_uris":{"android":"levelo://app?vid=2b358923-c030-4481-a0eb-830aa62ff249","ios":"levelo://app?vid=2b358923-c030-4481-a0eb-830aa62ff249"},"vehicle_type_id":"4","last_reported":1770391790,"current_range_meters":6800,"station_id":"ce4bhbh2rcd13ifvqeo0","pricing_plan_id":"cebpf4jnsgd1na2vs0mg"},{"bike_id":"1aa6d23a-50bd-4e6d-826d-3b933211fd4d","system_id":"levelo_inurba_marseille","lat":43.299593,"lon":5.365098,"is_reserved":false,"is_disabled":false,"rental_uris":{"android":"levelo://app?vid=1aa6d23a-50bd-4e6d-826d-3b933211fd4d","ios":"levelo://app?vid=1aa6d23a-50bd-4e6d-826d-3b933211fd4d"},"vehicle_type_id":"4","last_reported":1770391790,"current_range_meters":6800,"station_id":"ce4bh3p2rcd13ifvqdq0","pricing_plan_id":"cebpf4jnsgd1na2vs0mg"},{"bike_id":"29568cb5-48e1-4afd-96a8-69d8393592fe","system_id":"levelo_inurba_marseille","lat":43.28478,"lon":5.48398,"is_reserved":false,"is_disabled":false,"rental_uris":{"android":"levelo://app?vid=29568cb5-48e1-4afd-96a8-69d8393592fe","ios":"levelo://app?vid=29568cb5-48e1-4afd-96a8-69d8393592fe"},"vehicle_type_id":"4","last_reported":1770391790,"current_range_meters":6800,"station_id":"","pricing_plan_id":"cebpf4jnsgd1na2vs0mg"},{"bike_id":"5dea93d7-2b00-4423-81b5-9e768d42cacb","system_id":"levelo_inurba_marseille","lat":43.29031,"lon":5.38653,"is_reserved":false,"is_disabled":true,"rental_uris":{"android":"levelo://app?vid=5dea93d7-2b00-4423-81b5-9e768d42cacb","ios":"levelo://app?vid=5dea93d7-2b00-4423-81b5-9e768d42cacb"},"vehicle_type_id":"4","last_reported":1770391790,"current_range_meters":7200,"station_id":"ce4bh4p2rcd13ifvqe0g","pricing_plan_id":"cebpf4jnsgd1na2vs0mg"},{"bike_id":"64c18d50-e980-47cd-a06c-fa4be617811e","system_id":"levelo_inurba_marseille","lat":43.28466,"lon":5.35884,"is_reserved":false,"is_disabled":false,"rental_uris":{"android":"levelo://app?vid=64c18d50-e980-47cd-a06c-fa4be617811e","ios":"levelo://app?vid=64c18d50-e980-47cd-a06c-fa4be617811e"},"vehicle_type_id":"4","last_reported":1770391790,"current_range_meters":7200,"station_id":"ce4bhah2rcd13ifvqei0","pricing_plan_id":"cebpf4jnsgd1na2vs0mg"},{"bike_id":"536c9e4a-3907-4932-a8c0-d41c008bc3c2","system_id":"levelo_inurba_marseille","lat":43.28719,"lon":5.39949,"is_reserved":false,"is_disabled":false,"rental_uris":{"android":"levelo://app?vid=536c9e4a-3907-4932-a8c0-d41c008bc3c2","ios":"levelo://app?vid=536c9e4a-3907-4932-a8c0-d41c008bc3c2"},"vehicle_type_id":"4","last_reported":1770391790,"current_range_meters":7200,"station_id":"ce4bho92rcd13ifvqh3g","pricing_plan_id":"cebpf4jnsgd1na2vs0mg"},{"bike_id":"c8bb3926-66d4-481d-aab3-23b94c169d29","system_id":"levelo_inurba_marseille","lat":43.279656,"lon":5.387502,"is_reserved":false,"is_disabled":false,"rental_uris":{"android":"levelo://app?vid=c8bb3926-66d4-481d-aab3-23b94c169d29","ios":"levelo://app?vid=c8bb3926-66d4-481d-aab3-23b94c169d29"},"vehicle_type_id":"4","last_reported":1770391790,"current_range_meters":7200,"station_id":"ce4bhg12rcd13ifvqf80","pricing_plan_id":"cebpf4jnsgd1na2vs0mg"},{"bike_id":"c6782d87-e485-4a2c-b62b-9a52105fb0ef","system_id":"levelo_inurba_marseille","lat":43.25021,"lon":5.38913,"is_reserved":false,"is_disabled":false,"rental_uris":{"android":"levelo://app?vid=c6782d87-e485-4a2c-b62b-9a52105fb0ef","ios":"levelo://app?vid=c6782d87-e485-4a2c-b62b-9a52105fb0ef"},"vehicle_type_id":"4","last_reported":1770391790,"current_range_meters":7200,"station_id":"ce4bhgp2rcd13ifvqfd0","pricing_plan_id":"cebpf4jnsgd1na2vs0mg"},{"bike_id":"88de999f-78fd-498c-86b8-c0b83e9a1087","system_id":"levelo_inurba_marseille","lat":43.25943,"lon":5.40899,"is_reserved":false,"is_disabled":false,"rental_uris":{"android":"levelo://app?vid=88de999f-78fd-498c-86b8-c0b83e9a1087","ios":"levelo://app?vid=88de999f-78fd-498c-86b8-c0b83e9a1087"},"vehicle_type_id":"4","last_reported":1770391790,"current_range_meters":7200,"station_id":"ce4bhm92rcd13ifvqglg","pricing_plan_id":"cebpf4jnsgd1na2vs0mg"},{"bike_id":"cab89778-1c73-4ce9-acab-38ddbbce1877","system_id":"levelo_inurba_marseille","lat":43.29917,"lon":5.37458,"is_reserved":false,"is_disabled":false,"rental_uris":{"android":"levelo://app?vid=cab89778-1c73-4ce9-acab-38ddbbce1877","ios":"levelo://app?vid=cab89778-1c73-4ce9-acab-38ddbbce1877"},"vehicle_type_id":"4","last_reported":1770391790,"current_range_meters":7200,"station_id":"ce4bgjh2rcd13ifvqbg0","pricing_plan_id":"cebpf4jnsgd1na2vs0mg"},{"bike_id":"79689dc5-5daf-4389-8bcf-8daa2e94ffdd","system_id":"levelo_inurba_marseille","lat":43.28668,"lon":5.36344,"is_reserved":false,"is_disabled":false,"rental_uris":{"android":"levelo://app?vid=79689dc5-5daf-4389-8bcf-8daa2e94ffdd","ios":"levelo://app?vid=79689dc5-5daf-4389-8bcf-8daa2e94ffdd"},"vehicle_type_id":"4","last_reported":1770391790,"current_range_meters":7200,"station_id":"ce4bhah2rcd13ifvqej0","pricing_plan_id":"cebpf4jnsgd1na2vs0mg"},{"bike_id":"968a1130-5ab4-497c-b27f-cb61b0d6cd96","system_id":"levelo_inurba_marseille","lat":43.30235,"lon":5.37729,"is_reserved":false,"is_disabled":false,"rental_uris":{"android":"levelo://app?vid=968a1130-5ab4-497c-b27f-cb61b0d6cd96","ios":"levelo://app?vid=968a1130-5ab4-497c-b27f-cb61b0d6cd96"},"vehicle_type_id":"4","last_reported":1770391790,"current_range_meters":7200,"station_id":"ce4bguh2rcd13ifvqcj0","pricing_plan_id":"cebpf4jnsgd1na2vs0mg"},{"bike_id":"d04efdcd-8afa-4eef-b723-4e576e8cb4d8","system_id":"levelo_inurba_marseille","lat":43.302834,"lon":5.377114,"is_reserved":false,"is_disabled":false,"rental_uris":{"android":"levelo://app?vid=d04efdcd-8afa-4eef-b723-4e576e8cb4d8","ios":"levelo://app?vid=d04efdcd-8afa-4eef-b723-4e576e8cb4d8"},"vehicle_type_id":"4","last_reported":1770391790,"current_range_meters":8000,"station_id":"ce4bguh2rcd13ifvqcj0","pricing_plan_id":"cebpf4jnsgd1na2vs0mg"},{"bike_id":"251429a0-5225-404e-a2c3-13f499b83151","system_id":"levelo_inurba_marseille","lat":43.304669,"lon":5.379091,"is_reserved":false,"is_disabled":false,"rental_uris":{"android":"levelo://app?vid=251429a0-5225-404e-a2c3-13f499b83151","ios":"levelo://app?vid=251429a0-5225-404e-a2c3-13f499b83151"},"vehicle_type_id":"4","last_reported":1770391790,"current_range_meters":8000,"station_id":"ce4bgup2rcd13ifvqcn0","pricing_plan_id":"cebpf4jnsgd1na2vs0mg"},{"bike_id":"8012b1d4-398e-45b0-983e-ffcc1844ad1c","system_id":"levelo_inurba_marseille","lat":43.29579,"lon":5.3753,"is_reserved":false,"is_disabled":false,"rental_uris":{"android":"levelo://app?vid=8012b1d4-398e-45b0-983e-ffcc1844ad1c","ios":"levelo://app?vid=8012b1d4-398e-45b0-983e-ffcc1844ad1c"},"vehicle_type_id":"4","last_reported":1770391790,"current_range_meters":8000,"station_id":"ce4bgh92rcd13ifvqb50","pricing_plan_id":"cebpf4jnsgd1na2vs0mg"},{"bike_id":"3d84fed5-838b-48d2-8748-2602c6a0034f","system_id":"levelo_inurba_marseille","lat":43.28589,"lon":5.35134,"is_reserved":false,"is_disabled":false,"rental_uris":{"android":"levelo://app?vid=3d84fed5-838b-48d2-8748-2602c6a0034f","ios":"levelo://app?vid=3d84fed5-838b-48d2-8748-2602c6a0034f"},"vehicle_type_id":"4","last_reported":1770391790,"current_range_meters":8000,"station_id":"ce4bhch2rcd13ifvqeug","pricing_plan_id":"cebpf4jnsgd1na2vs0mg"},{"bike_id":"b50718b1-4f47-4866-8738-5a2978ca6909","system_id":"levelo_inurba_marseille","lat":43.31373,"lon":5.36696,"is_reserved":false,"is_disabled":false,"rental_uris":{"android":"levelo://app?vid=b50718b1-4f47-4866-8738-5a2978ca6909","ios":"levelo://app?vid=b50718b1-4f47-4866-8738-5a2978ca6909"},"vehicle_type_id":"4","last_reported":1770391790,"current_range_meters":8000,"station_id":"ce4bgr92rcd13ifvqc6g","pricing_plan_id":"cebpf4jnsgd1na2vs0mg"},{"bike_id":"b6e4d17e-b5d5-4273-8f27-b03ed46e58d1","system_id":"levelo_inurba_marseille","lat":43.22928,"lon":5.35376,"is_reserved":false,"is_disabled":false,"rental_uris":{"android":"levelo://app?vid=b6e4d17e-b5d5-4273-8f27-b03ed46e58d1","ios":"levelo://app?vid=b6e4d17e-b5d5-4273-8f27-b03ed46e58d1"},"vehicle_type_id":"4","last_reported":1770391790,"current_range_meters":8000,"station_id":"cpo3532slgdg3j2ikp40","pricing_plan_id":"cebpf4jnsgd1na2vs0mg"},{"bike_id":"14a0bfe2-9ad8-41a2-8100-306572082be4","system_id":"levelo_inurba_marseille","lat":43.24657,"lon":5.3889,"is_reserved":false,"is_disabled":false,"rental_uris":{"android":"levelo://app?vid=14a0bfe2-9ad8-41a2-8100-306572082be4","ios":"levelo://app?vid=14a0bfe2-9ad8-41a2-8100-306572082be4"},"vehicle_type_id":"4","last_reported":1770391790,"current_range_meters":8000,"station_id":"ce4bhg12rcd13ifvqf60","pricing_plan_id":"cebpf4jnsgd1na2vs0mg"},{"bike_id":"2b7bfcce-d9c6-46bc-aa8f-a62e6699a9aa","system_id":"levelo_inurba_marseille","lat":43.30212,"lon":5.39487,"is_reserved":false,"is_disabled":false,"rental_uris":{"android":"levelo://app?vid=2b7bfcce-d9c6-46bc-aa8f-a62e6699a9aa","ios":"levelo://app?vid=2b7bfcce-d9c6-46bc-aa8f-a62e6699a9aa"},"vehicle_type_id":"4","last_reported":1770391790,"current_range_meters":8000,"station_id":"ce4bh0p2rcd13ifvqd70","pricing_plan_id":"cebpf4jnsgd1na2vs0mg"},{"bike_id":"142a21c2-9a29-466a-92f6-5ab3ecc5b60d","system_id":"levelo_inurba_marseille","lat":43.23846,"lon":5.36539,"is_reserved":false,"is_disabled":false,"rental_uris":{"android":"levelo://app?vid=142a21c2-9a29-466a-92f6-5ab3ecc5b60d","ios":"levelo://app?vid=142a21c2-9a29-466a-92f6-5ab3ecc5b60d"},"vehicle_type_id":"4","last_reported":1770391790,"current_range_meters":8000,"station_id":"","pricing_plan_id":"cebpf4jnsgd1na2vs0mg"},{"bike_id":"12b35776-086b-4d2e-90fa-39231536c420","system_id":"levelo_inurba_marseille","lat":43.28383,"lon":5.38643,"is_reserved":false,"is_disabled":false,"rental_uris":{"android":"levelo://app?vid=12b35776-086b-4d2e-90fa-39231536c420","ios":"levelo://app?vid=12b35776-086b-4d2e-90fa-39231536c420"},"vehicle_type_id":"4","last_reported":1770391790,"current_range_meters":8000,"station_id":"ce4bh492rcd13ifvqdvg","pricing_plan_id":"cebpf4jnsgd1na2vs0mg"},{"bike_id":"dd437957-0aff-4547-95a7-4714be39c933","system_id":"levelo_inurba_marseille","lat":43.28814,"lon":5.38927,"is_reserved":false,"is_disabled":false,"rental_uris":{"android":"levelo://app?vid=dd437957-0aff-4547-95a7-4714be39c933","ios":"levelo://app?vid=dd437957-0aff-4547-95a7-4714be39c933"},"vehicle_type_id":"4","last_reported":1770391790,"current_range_meters":8000,"station_id":"ce4bho92rcd13ifvqh4g","pricing_plan_id":"cebpf4jnsgd1na2vs0mg"},{"bike_id":"bd830301-856a-4947-bbd9-0c9aae46f8c5","system_id":"levelo_inurba_marseille","lat":43.2888,"lon":5.42517,"is_reserved":false,"is_disabled":false,"rental_uris":{"android":"levelo://app?vid=bd830301-856a-4947-bbd9-0c9aae46f8c5","ios":"levelo://app?vid=bd830301-856a-4947-bbd9-0c9aae46f8c5"},"vehicle_type_id":"4","last_reported":1770391790,"current_range_meters":8000,"station_id":"st_d3b462108ojc7389ooeg","pricing_plan_id":"cebpf4jnsgd1na2vs0mg"},{"bike_id":"6809d87e-7242-4772-8526-bd1f9e441f49","system_id":"levelo_inurba_marseille","lat":43.33689,"lon":5.39289,"is_reserved":false,"is_disabled":false,"rental_uris":{"android":"levelo://app?vid=6809d87e-7242-4772-8526-bd1f9e441f49","ios":"levelo://app?vid=6809d87e-7242-4772-8526-bd1f9e441f49"},"vehicle_type_id":"4","last_reported":1770391790,"current_range_meters":8000,"station_id":"","pricing_plan_id":"cebpf4jnsgd1na2vs0mg"},{"bike_id":"f5da9401-db7e-426f-9a0f-2330a30b8658","system_id":"levelo_inurba_marseille","lat":43.24385,"lon":5.37076,"is_reserved":false,"is_disabled":true,"rental_uris":{"android":"levelo://app?vid=f5da9401-db7e-426f-9a0f-2330a30b8658","ios":"levelo://app?vid=f5da9401-db7e-426f-9a0f-2330a30b8658"},"vehicle_type_id":"4","last_reported":1770391790,"current_range_meters":8000,"station_id":"ce4bhhh2rcd13ifvqfk0","pricing_plan_id":"cebpf4jnsgd1na2vs0mg"},{"bike_id":"1937492d-117f-487c-8c08-5e82e3f3720b","system_id":"levelo_inurba_marseille","lat":43.31352,"lon":5.36756,"is_reserved":false,"is_disabled":false,"rental_uris":{"android":"levelo://app?vid=1937492d-117f-487c-8c08-5e82e3f3720b","ios":"levelo://app?vid=1937492d-117f-487c-8c08-5e82e3f3720b"},"vehicle_type_id":"4","last_reported":1770391790,"current_range_meters":8000,"station_id":"ce4bgr92rcd13ifvqc6g","pricing_plan_id":"cebpf4jnsgd1na2vs0mg"},{"bike_id":"5b51c4ea-ebad-4648-a4a1-56b9e8ab1de9","system_id":"levelo_inurba_marseille","lat":43.284831,"lon":5.483952,"is_reserved":false,"is_disabled":false,"rental_uris":{"android":"levelo://app?vid=5b51c4ea-ebad-4648-a4a1-56b9e8ab1de9","ios":"levelo://app?vid=5b51c4ea-ebad-4648-a4a1-56b9e8ab1de9"},"vehicle_type_id":"4","last_reported":1770391790,"current_range_meters":8000,"station_id":"st_d3svhcjqgbts73a3dn0g","pricing_plan_id":"cebpf4jnsgd1na2vs0mg"},{"bike_id":"855fc5fe-6c5f-46e5-afd9-e53782d8eed3","system_id":"levelo_inurba_marseille","lat":43.24393,"lon":5.370688,"is_reserved":false,"is_disabled":false,"rental_uris":{"android":"levelo://app?vid=855fc5fe-6c5f-46e5-afd9-e53782d8eed3","ios":"levelo://app?vid=855fc5fe-6c5f-46e5-afd9-e53782d8eed3"},"vehicle_type_id":"4","last_reported":1770391790,"current_range_meters":8000,"station_id":"ce4bhhh2rcd13ifvqfk0","pricing_plan_id":"cebpf4jnsgd1na2vs0mg"},{"bike_id":"7e577fea-e293-4d2b-8126-9a230186eabb","system_id":"levelo_inurba_marseille","lat":43.27375,"lon":5.36253,"is_reserved":false,"is_disabled":false,"rental_uris":{"android":"levelo://app?vid=7e577fea-e293-4d2b-8126-9a230186eabb","ios":"levelo://app?vid=7e577fea-e293-4d2b-8126-9a230186eabb"},"vehicle_type_id":"4","last_reported":1770391790,"current_range_meters":8000,"station_id":"ce4bhbh2rcd13ifvqeo0","pricing_plan_id":"cebpf4jnsgd1na2vs0mg"},{"bike_id":"596e8b7d-7cb7-4bce-bed5-c069c5df7df0","system_id":"levelo_inurba_marseille","lat":43.24172,"lon":5.36398,"is_reserved":false,"is_disabled":false,"rental_uris":{"android":"levelo://app?vid=596e8b7d-7cb7-4bce-bed5-c069c5df7df0","ios":"levelo://app?vid=596e8b7d-7cb7-4bce-bed5-c069c5df7df0"},"vehicle_type_id":"4","last_reported":1770391790,"current_range_meters":8000,"station_id":"cpo36qri1sfpv3e86is0","pricing_plan_id":"cebpf4jnsgd1na2vs0mg"},{"bike_id":"3cc677a1-c9b7-4840-8c17-491c0543069e","system_id":"levelo_inurba_marseille","lat":43.24805,"lon":5.37456,"is_reserved":false,"is_disabled":false,"rental_uris":{"android":"levelo://app?vid=3cc677a1-c9b7-4840-8c17-491c0543069e","ios":"levelo://app?vid=3cc677a1-c9b7-4840-8c17-491c0543069e"},"vehicle_type_id":"4","last_reported":1770391790,"current_range_meters":8000,"station_id":"ce4bhgh2rcd13ifvqfb0","pricing_plan_id":"cebpf4jnsgd1na2vs0mg"},{"bike_id":"28e49d7b-8148-4eab-af59-78525bc84683","system_id":"levelo_inurba_marseille","lat":43.29007,"lon":5.3561,"is_reserved":false,"is_disabled":false,"rental_uris":{"android":"levelo://app?vid=28e49d7b-8148-4eab-af59-78525bc84683","ios":"levelo://app?vid=28e49d7b-8148-4eab-af59-78525bc84683"},"vehicle_type_id":"4","last_reported":1770391790,"current_range_meters":8000,"station_id":"ce4bhb92rcd13ifvqen0","pricing_plan_id":"cebpf4jnsgd1na2vs0mg"},{"bike_id":"3f0dadf8-75b7-4b35-922a-51106db494c8","system_id":"levelo_inurba_marseille","lat":43.2804,"lon":5.36956,"is_reserved":false,"is_disabled":false,"rental_uris":{"android":"levelo://app?vid=3f0dadf8-75b7-4b35-922a-51106db494c8","ios":"levelo://app?vid=3f0dadf8-75b7-4b35-922a-51106db494c8"},"vehicle_type_id":"4","last_reported":1770391790,"current_range_meters":8000,"station_id":"ce4bha12rcd13ifvqef0","pricing_plan_id":"cebpf4jnsgd1na2vs0mg"},{"bike_id":"2a48b87f-e9ad-411e-ac96-e3a6fe46d4be","system_id":"levelo_inurba_marseille","lat":43.27233,"lon":5.39161,"is_reserved":false,"is_disabled":false,"rental_uris":{"android":"levelo://app?vid=2a48b87f-e9ad-411e-ac96-e3a6fe46d4be","ios":"levelo://app?vid=2a48b87f-e9ad-411e-ac96-e3a6fe46d4be"},"vehicle_type_id":"4","last_reported":1770391790,"current_range_meters":8000,"station_id":"ce4bhhp2rcd13ifvqfm0","pricing_plan_id":"cebpf4jnsgd1na2vs0mg"},{"bike_id":"5b4d62f4-2f16-4811-98c3-e55e4eab8cb2","system_id":"levelo_inurba_marseille","lat":43.30143,"lon":5.38073,"is_reserved":false,"is_disabled":false,"rental_uris":{"android":"levelo://app?vid=5b4d62f4-2f16-4811-98c3-e55e4eab8cb2","ios":"levelo://app?vid=5b4d62f4-2f16-4811-98c3-e55e4eab8cb2"},"vehicle_type_id":"4","last_reported":1770391790,"current_range_meters":8000,"station_id":"ce4bgjp2rcd13ifvqbh0","pricing_plan_id":"cebpf4jnsgd1na2vs0mg"},{"bike_id":"89be06b2-3c98-4b8b-a348-cc5808ba4c19","system_id":"levelo_inurba_marseille","lat":43.21737,"lon":5.34593,"is_reserved":false,"is_disabled":false,"rental_uris":{"android":"levelo://app?vid=89be06b2-3c98-4b8b-a348-cc5808ba4c19","ios":"levelo://app?vid=89be06b2-3c98-4b8b-a348-cc5808ba4c19"},"vehicle_type_id":"4","last_reported":1770391790,"current_range_meters":8000,"station_id":"st_cvj6r9ubvosntc0bgbag","pricing_plan_id":"cebpf4jnsgd1na2vs0mg"},{"bike_id":"29285ebb-15fa-4ecb-859a-3db8c182b71d","system_id":"levelo_inurba_marseille","lat":43.30602,"lon":5.37237,"is_reserved":false,"is_disabled":false,"rental_uris":{"android":"levelo://app?vid=29285ebb-15fa-4ecb-859a-3db8c182b71d","ios":"levelo://app?vid=29285ebb-15fa-4ecb-859a-3db8c182b71d"},"vehicle_type_id":"4","last_reported":1770391790,"current_range_meters":8400,"station_id":"ce4bgqh2rcd13ifvqc4g","pricing_plan_id":"cebpf4jnsgd1na2vs0mg"},{"bike_id":"4a0c6056-b345-46c7-a367-e45307a0dcbe","system_id":"levelo_inurba_marseille","lat":43.29533,"lon":5.38541,"is_reserved":false,"is_disabled":false,"rental_uris":{"android":"levelo://app?vid=4a0c6056-b345-46c7-a367-e45307a0dcbe","ios":"levelo://app?vid=4a0c6056-b345-46c7-a367-e45307a0dcbe"},"vehicle_type_id":"4","last_reported":1770391790,"current_range_meters":8400,"station_id":"ce4bgih2rcd13ifvqba0","pricing_plan_id":"cebpf4jnsgd1na2vs0mg"},{"bike_id":"379685d2-9e90-4f9b-bb24-a80a4545550e","system_id":"levelo_inurba_marseille","lat":43.29814,"lon":5.44071,"is_reserved":false,"is_disabled":false,"rental_uris":{"android":"levelo://app?vid=379685d2-9e90-4f9b-bb24-a80a4545550e","ios":"levelo://app?vid=379685d2-9e90-4f9b-bb24-a80a4545550e"},"vehicle_type_id":"4","last_reported":1770391790,"current_range_meters":8400,"station_id":"st_d3jp68qikq2c7381ktn0","pricing_plan_id":"cebpf4jnsgd1na2vs0mg"},{"bike_id":"6c826141-83c8-450c-bb51-8b69baba0bf3","system_id":"levelo_inurba_marseille","lat":43.26686,"lon":5.408,"is_reserved":false,"is_disabled":false,"rental_uris":{"android":"levelo://app?vid=6c826141-83c8-450c-bb51-8b69baba0bf3","ios":"levelo://app?vid=6c826141-83c8-450c-bb51-8b69baba0bf3"},"vehicle_type_id":"4","last_reported":1770391790,"current_range_meters":8400,"station_id":"","pricing_plan_id":"cebpf4jnsgd1na2vs0mg"},{"bike_id":"5514686a-b854-4db2-9779-3506b95972b1","system_id":"levelo_inurba_marseille","lat":43.23155,"lon":5.43719,"is_reserved":false,"is_disabled":false,"rental_uris":{"android":"levelo://app?vid=5514686a-b854-4db2-9779-3506b95972b1","ios":"levelo://app?vid=5514686a-b854-4db2-9779-3506b95972b1"},"vehicle_type_id":"4","last_reported":1770391790,"current_range_meters":8400,"station_id":"ce4bhmp2rcd13ifvqgog","pricing_plan_id":"cebpf4jnsgd1na2vs0mg"},{"bike_id":"675ec433-caf3-4517-83f9-75769cd57605","system_id":"levelo_inurba_marseille","lat":43.32091,"lon":5.36787,"is_reserved":false,"is_disabled":false,"rental_uris":{"android":"levelo://app?vid=675ec433-caf3-4517-83f9-75769cd57605","ios":"levelo://app?vid=675ec433-caf3-4517-83f9-75769cd57605"},"vehicle_type_id":"4","last_reported":1770391790,"current_range_meters":8400,"station_id":"ce4bhrh2rcd13ifvqhug","pricing_plan_id":"cebpf4jnsgd1na2vs0mg"},{"bike_id":"723bf88e-8128-4028-a2c1-eeb668d835e0","system_id":"levelo_inurba_marseille","lat":43.21203,"lon":5.35041,"is_reserved":false,"is_disabled":false,"rental_uris":{"android":"levelo://app?vid=723bf88e-8128-4028-a2c1-eeb668d835e0","ios":"levelo://app?vid=723bf88e-8128-4028-a2c1-eeb668d835e0"},"vehicle_type_id":"4","last_reported":1770391790,"current_range_meters":8400,"station_id":"st_cvj6sg6p6f1abm77japg","pricing_plan_id":"cebpf4jnsgd1na2vs0mg"},{"bike_id":"b8930ff7-8ce5-4f8d-9e8d-e85cd2415d7d","system_id":"levelo_inurba_marseille","lat":43.31359,"lon":5.36691,"is_reserved":false,"is_disabled":false,"rental_uris":{"android":"levelo://app?vid=b8930ff7-8ce5-4f8d-9e8d-e85cd2415d7d","ios":"levelo://app?vid=b8930ff7-8ce5-4f8d-9e8d-e85cd2415d7d"},"vehicle_type_id":"4","last_reported":1770391790,"current_range_meters":8400,"station_id":"ce4bgr92rcd13ifvqc6g","pricing_plan_id":"cebpf4jnsgd1na2vs0mg"},{"bike_id":"98b89a63-b3c9-4748-8f93-0ccb5ab9560d","system_id":"levelo_inurba_marseille","lat":43.26539,"lon":5.37297,"is_reserved":false,"is_disabled":false,"rental_uris":{"android":"levelo://app?vid=98b89a63-b3c9-4748-8f93-0ccb5ab9560d","ios":"levelo://app?vid=98b89a63-b3c9-4748-8f93-0ccb5ab9560d"},"vehicle_type_id":"4","last_reported":1770391790,"current_range_meters":8400,"station_id":"ce4bhg12rcd13ifvqf70","pricing_plan_id":"cebpf4jnsgd1na2vs0mg"},{"bike_id":"028226ff-bce8-438c-8810-eecc2ee42942","system_id":"levelo_inurba_marseille","lat":43.23201,"lon":5.35564,"is_reserved":false,"is_disabled":false,"rental_uris":{"android":"levelo://app?vid=028226ff-bce8-438c-8810-eecc2ee42942","ios":"levelo://app?vid=028226ff-bce8-438c-8810-eecc2ee42942"},"vehicle_type_id":"4","last_reported":1770391790,"current_range_meters":8400,"station_id":"ce4bhu92rcd13ifvqi70","pricing_plan_id":"cebpf4jnsgd1na2vs0mg"},{"bike_id":"0ab4f004-f484-446d-a171-6cd9b2473554","system_id":"levelo_inurba_marseille","lat":43.25091,"lon":5.39515,"is_reserved":false,"is_disabled":false,"rental_uris":{"android":"levelo://app?vid=0ab4f004-f484-446d-a171-6cd9b2473554","ios":"levelo://app?vid=0ab4f004-f484-446d-a171-6cd9b2473554"},"vehicle_type_id":"4","last_reported":1770391790,"current_range_meters":8400,"station_id":"ce4bhm12rcd13ifvqgkg","pricing_plan_id":"cebpf4jnsgd1na2vs0mg"},{"bike_id":"820a0e95-f39d-409b-bde4-b2deb7dbbbdf","system_id":"levelo_inurba_marseille","lat":43.252104,"lon":5.399808,"is_reserved":false,"is_disabled":false,"rental_uris":{"android":"levelo://app?vid=820a0e95-f39d-409b-bde4-b2deb7dbbbdf","ios":"levelo://app?vid=820a0e95-f39d-409b-bde4-b2deb7dbbbdf"},"vehicle_type_id":"4","last_reported":1770391790,"current_range_meters":8400,"station_id":"ce4bhm12rcd13ifvqgkg","pricing_plan_id":"cebpf4jnsgd1na2vs0mg"},{"bike_id":"0c612691-dc2e-4b8c-a828-2dec429e0473","system_id":"levelo_inurba_marseille","lat":43.22938,"lon":5.35382,"is_reserved":false,"is_disabled":false,"rental_uris":{"android":"levelo://app?vid=0c612691-dc2e-4b8c-a828-2dec429e0473","ios":"levelo://app?vid=0c612691-dc2e-4b8c-a828-2dec429e0473"},"vehicle_type_id":"4","last_reported":1770391790,"current_range_meters":8400,"station_id":"cpo3532slgdg3j2ikp40","pricing_plan_id":"cebpf4jnsgd1na2vs0mg"},{"bike_id":"40b8d3c1-47aa-40ec-b765-34615286f3a1","system_id":"levelo_inurba_marseille","lat":43.2439,"lon":5.37065,"is_reserved":false,"is_disabled":false,"rental_uris":{"android":"levelo://app?vid=40b8d3c1-47aa-40ec-b765-34615286f3a1","ios":"levelo://app?vid=40b8d3c1-47aa-40ec-b765-34615286f3a1"},"vehicle_type_id":"4","last_reported":1770391790,"current_range_meters":8400,"station_id":"ce4bhhh2rcd13ifvqfk0","pricing_plan_id":"cebpf4jnsgd1na2vs0mg"},{"bike_id":"33e6b01d-cadc-4668-ba29-d6b917e280b4","system_id":"levelo_inurba_marseille","lat":43.2439,"lon":5.37067,"is_reserved":false,"is_disabled":false,"rental_uris":{"android":"levelo://app?vid=33e6b01d-cadc-4668-ba29-d6b917e280b4","ios":"levelo://app?vid=33e6b01d-cadc-4668-ba29-d6b917e280b4"},"vehicle_type_id":"4","last_reported":1770391790,"current_range_meters":8400,"station_id":"ce4bhhh2rcd13ifvqfk0","pricing_plan_id":"cebpf4jnsgd1na2vs0mg"},{"bike_id":"29554745-e0e5-4276-b587-71d331cae345","system_id":"levelo_inurba_marseille","lat":43.2953,"lon":5.39044,"is_reserved":false,"is_disabled":true,"rental_uris":{"android":"levelo://app?vid=29554745-e0e5-4276-b587-71d331cae345","ios":"levelo://app?vid=29554745-e0e5-4276-b587-71d331cae345"},"vehicle_type_id":"4","last_reported":1770391790,"current_range_meters":8400,"station_id":"ce4bh3p2rcd13ifvqdp0","pricing_plan_id":"cebpf4jnsgd1na2vs0mg"},{"bike_id":"66ac484a-7a0c-4d64-bcea-4a863811aeba","system_id":"levelo_inurba_marseille","lat":43.29911,"lon":5.43671,"is_reserved":false,"is_disabled":true,"rental_uris":{"android":"levelo://app?vid=66ac484a-7a0c-4d64-bcea-4a863811aeba","ios":"levelo://app?vid=66ac484a-7a0c-4d64-bcea-4a863811aeba"},"vehicle_type_id":"4","last_reported":1770391790,"current_range_meters":8400,"station_id":"ce4bhpp2rcd13ifvqhfg","pricing_plan_id":"cebpf4jnsgd1na2vs0mg"},{"bike_id":"5cd91ded-f3fd-4f4f-8819-000d79fc4194","system_id":"levelo_inurba_marseille","lat":43.24412,"lon":5.37041,"is_reserved":false,"is_disabled":false,"rental_uris":{"android":"levelo://app?vid=5cd91ded-f3fd-4f4f-8819-000d79fc4194","ios":"levelo://app?vid=5cd91ded-f3fd-4f4f-8819-000d79fc4194"},"vehicle_type_id":"4","last_reported":1770391790,"current_range_meters":8400,"station_id":"ce4bhhh2rcd13ifvqfk0","pricing_plan_id":"cebpf4jnsgd1na2vs0mg"},{"bike_id":"0c0fd3ad-91a1-4be6-8355-66d12c28258f","system_id":"levelo_inurba_marseille","lat":43.31192,"lon":5.36866,"is_reserved":false,"is_disabled":false,"rental_uris":{"android":"levelo://app?vid=0c0fd3ad-91a1-4be6-8355-66d12c28258f","ios":"levelo://app?vid=0c0fd3ad-91a1-4be6-8355-66d12c28258f"},"vehicle_type_id":"4","last_reported":1770391790,"current_range_meters":8400,"station_id":"ce4bgl92rcd13ifvqbq0","pricing_plan_id":"cebpf4jnsgd1na2vs0mg"},{"bike_id":"efbe792f-1198-41b4-852b-4a2323f0ee78","system_id":"levelo_inurba_marseille","lat":43.25014,"lon":5.3895,"is_reserved":false,"is_disabled":false,"rental_uris":{"android":"levelo://app?vid=efbe792f-1198-41b4-852b-4a2323f0ee78","ios":"levelo://app?vid=efbe792f-1198-41b4-852b-4a2323f0ee78"},"vehicle_type_id":"4","last_reported":1770391790,"current_range_meters":8400,"station_id":"ce4bhgp2rcd13ifvqfd0","pricing_plan_id":"cebpf4jnsgd1na2vs0mg"},{"bike_id":"346787f4-b208-43b3-a13c-6d535139ef57","system_id":"levelo_inurba_marseille","lat":43.29907,"lon":5.43667,"is_reserved":false,"is_disabled":false,"rental_uris":{"android":"levelo://app?vid=346787f4-b208-43b3-a13c-6d535139ef57","ios":"levelo://app?vid=346787f4-b208-43b3-a13c-6d535139ef57"},"vehicle_type_id":"4","last_reported":1770391790,"current_range_meters":8800,"station_id":"ce4bhpp2rcd13ifvqhfg","pricing_plan_id":"cebpf4jnsgd1na2vs0mg"},{"bike_id":"e85b38ce-4853-4813-a622-f1f96f77680d","system_id":"levelo_inurba_marseille","lat":43.21741,"lon":5.3461,"is_reserved":false,"is_disabled":false,"rental_uris":{"android":"levelo://app?vid=e85b38ce-4853-4813-a622-f1f96f77680d","ios":"levelo://app?vid=e85b38ce-4853-4813-a622-f1f96f77680d"},"vehicle_type_id":"4","last_reported":1770391790,"current_range_meters":8800,"station_id":"st_cvj6r9ubvosntc0bgbag","pricing_plan_id":"cebpf4jnsgd1na2vs0mg"},{"bike_id":"6ebe0a22-3110-41de-af8c-3cc2431badbf","system_id":"levelo_inurba_marseille","lat":43.29695,"lon":5.37354,"is_reserved":false,"is_disabled":true,"rental_uris":{"android":"levelo://app?vid=6ebe0a22-3110-41de-af8c-3cc2431badbf","ios":"levelo://app?vid=6ebe0a22-3110-41de-af8c-3cc2431badbf"},"vehicle_type_id":"4","last_reported":1770391790,"current_range_meters":8800,"station_id":"","pricing_plan_id":"cebpf4jnsgd1na2vs0mg"},{"bike_id":"071937d3-6d39-428f-88a6-e135b0e61119","system_id":"levelo_inurba_marseille","lat":43.31068,"lon":5.37185,"is_reserved":false,"is_disabled":false,"rental_uris":{"android":"levelo://app?vid=071937d3-6d39-428f-88a6-e135b0e61119","ios":"levelo://app?vid=071937d3-6d39-428f-88a6-e135b0e61119"},"vehicle_type_id":"4","last_reported":1770391790,"current_range_meters":8800,"station_id":"st_d4kl2rp97mjs73e7tdfg","pricing_plan_id":"cebpf4jnsgd1na2vs0mg"},{"bike_id":"15a3e00a-e415-4bc9-8ff7-ed96b5a8614d","system_id":"levelo_inurba_marseille","lat":43.30211,"lon":5.38252,"is_reserved":false,"is_disabled":false,"rental_uris":{"android":"levelo://app?vid=15a3e00a-e415-4bc9-8ff7-ed96b5a8614d","ios":"levelo://app?vid=15a3e00a-e415-4bc9-8ff7-ed96b5a8614d"},"vehicle_type_id":"4","last_reported":1770391790,"current_range_meters":8800,"station_id":"","pricing_plan_id":"cebpf4jnsgd1na2vs0mg"},{"bike_id":"5e9d7b89-ee8f-42bc-87df-a5a05a1d1db8","system_id":"levelo_inurba_marseille","lat":43.24274,"lon":5.39665,"is_reserved":false,"is_disabled":false,"rental_uris":{"android":"levelo://app?vid=5e9d7b89-ee8f-42bc-87df-a5a05a1d1db8","ios":"levelo://app?vid=5e9d7b89-ee8f-42bc-87df-a5a05a1d1db8"},"vehicle_type_id":"4","last_reported":1770391790,"current_range_meters":8800,"station_id":"","pricing_plan_id":"cebpf4jnsgd1na2vs0mg"},{"bike_id":"357e0761-0001-4df4-9647-5ddac10b57dd","system_id":"levelo_inurba_marseille","lat":43.32494,"lon":5.38314,"is_reserved":false,"is_disabled":false,"rental_uris":{"android":"levelo://app?vid=357e0761-0001-4df4-9647-5ddac10b57dd","ios":"levelo://app?vid=357e0761-0001-4df4-9647-5ddac10b57dd"},"vehicle_type_id":"4","last_reported":1770391790,"current_range_meters":8800,"station_id":"st_d4asgbiv49dc73anf9m0","pricing_plan_id":"cebpf4jnsgd1na2vs0mg"},{"bike_id":"c6e25874-c646-4223-9fb1-4a2c71cb2059","system_id":"levelo_inurba_marseille","lat":43.31236,"lon":5.36913,"is_reserved":false,"is_disabled":false,"rental_uris":{"android":"levelo://app?vid=c6e25874-c646-4223-9fb1-4a2c71cb2059","ios":"levelo://app?vid=c6e25874-c646-4223-9fb1-4a2c71cb2059"},"vehicle_type_id":"4","last_reported":1770391790,"current_range_meters":8800,"station_id":"ce4bgl92rcd13ifvqbq0","pricing_plan_id":"cebpf4jnsgd1na2vs0mg"},{"bike_id":"1d0ef12e-4bb8-4d8d-9509-0260b1aa5347","system_id":"levelo_inurba_marseille","lat":43.24391,"lon":5.37063,"is_reserved":false,"is_disabled":false,"rental_uris":{"android":"levelo://app?vid=1d0ef12e-4bb8-4d8d-9509-0260b1aa5347","ios":"levelo://app?vid=1d0ef12e-4bb8-4d8d-9509-0260b1aa5347"},"vehicle_type_id":"4","last_reported":1770391790,"current_range_meters":8800,"station_id":"ce4bhhh2rcd13ifvqfk0","pricing_plan_id":"cebpf4jnsgd1na2vs0mg"},{"bike_id":"8337b65d-17c0-4b57-8442-e6d360aa1c7d","system_id":"levelo_inurba_marseille","lat":43.23349,"lon":5.412,"is_reserved":false,"is_disabled":false,"rental_uris":{"android":"levelo://app?vid=8337b65d-17c0-4b57-8442-e6d360aa1c7d","ios":"levelo://app?vid=8337b65d-17c0-4b57-8442-e6d360aa1c7d"},"vehicle_type_id":"4","last_reported":1770391790,"current_range_meters":8800,"station_id":"","pricing_plan_id":"cebpf4jnsgd1na2vs0mg"},{"bike_id":"3e37ba19-4bbf-4b7e-96b9-e1f0c5b9d0b4","system_id":"levelo_inurba_marseille","lat":43.29007,"lon":5.35611,"is_reserved":false,"is_disabled":false,"rental_uris":{"android":"levelo://app?vid=3e37ba19-4bbf-4b7e-96b9-e1f0c5b9d0b4","ios":"levelo://app?vid=3e37ba19-4bbf-4b7e-96b9-e1f0c5b9d0b4"},"vehicle_type_id":"4","last_reported":1770391790,"current_range_meters":8800,"station_id":"ce4bhb92rcd13ifvqen0","pricing_plan_id":"cebpf4jnsgd1na2vs0mg"},{"bike_id":"1e4df930-d044-402b-87ab-bcfcaeb07abf","system_id":"levelo_inurba_marseille","lat":43.299606,"lon":5.413234,"is_reserved":false,"is_disabled":false,"rental_uris":{"android":"levelo://app?vid=1e4df930-d044-402b-87ab-bcfcaeb07abf","ios":"levelo://app?vid=1e4df930-d044-402b-87ab-bcfcaeb07abf"},"vehicle_type_id":"4","last_reported":1770391790,"current_range_meters":8800,"station_id":"ce4bhp12rcd13ifvqh9g","pricing_plan_id":"cebpf4jnsgd1na2vs0mg"},{"bike_id":"9d9ada7e-8bfb-4948-82e1-5314689a8b39","system_id":"levelo_inurba_marseille","lat":43.335436,"lon":5.374674,"is_reserved":false,"is_disabled":false,"rental_uris":{"android":"levelo://app?vid=9d9ada7e-8bfb-4948-82e1-5314689a8b39","ios":"levelo://app?vid=9d9ada7e-8bfb-4948-82e1-5314689a8b39"},"vehicle_type_id":"4","last_reported":1770391790,"current_range_meters":8800,"station_id":"st_d46tts09ee8s73dlu43g","pricing_plan_id":"cebpf4jnsgd1na2vs0mg"},{"bike_id":"ddcc3d35-6882-40cf-a82b-9ad23d78eefc","system_id":"levelo_inurba_marseille","lat":43.28679,"lon":5.38671,"is_reserved":false,"is_disabled":false,"rental_uris":{"android":"levelo://app?vid=ddcc3d35-6882-40cf-a82b-9ad23d78eefc","ios":"levelo://app?vid=ddcc3d35-6882-40cf-a82b-9ad23d78eefc"},"vehicle_type_id":"4","last_reported":1770391790,"current_range_meters":8800,"station_id":"ce4bh492rcd13ifvqdug","pricing_plan_id":"cebpf4jnsgd1na2vs0mg"},{"bike_id":"11d4fc98-b1e1-4ce2-a0d6-e5f916889f2b","system_id":"levelo_inurba_marseille","lat":43.28458,"lon":5.35881,"is_reserved":false,"is_disabled":false,"rental_uris":{"android":"levelo://app?vid=11d4fc98-b1e1-4ce2-a0d6-e5f916889f2b","ios":"levelo://app?vid=11d4fc98-b1e1-4ce2-a0d6-e5f916889f2b"},"vehicle_type_id":"4","last_reported":1770391790,"current_range_meters":8800,"station_id":"ce4bhah2rcd13ifvqei0","pricing_plan_id":"cebpf4jnsgd1na2vs0mg"},{"bike_id":"a5faf7a6-7f2f-419a-b628-e8f939b70083","system_id":"levelo_inurba_marseille","lat":43.28541,"lon":5.44082,"is_reserved":false,"is_disabled":false,"rental_uris":{"android":"levelo://app?vid=a5faf7a6-7f2f-419a-b628-e8f939b70083","ios":"levelo://app?vid=a5faf7a6-7f2f-419a-b628-e8f939b70083"},"vehicle_type_id":"4","last_reported":1770391790,"current_range_meters":8800,"station_id":"st_d3j3df2ikq2c7380ej80","pricing_plan_id":"cebpf4jnsgd1na2vs0mg"},{"bike_id":"731447a5-bd31-4208-aa2f-c0645944403a","system_id":"levelo_inurba_marseille","lat":43.246296,"lon":5.431511,"is_reserved":false,"is_disabled":false,"rental_uris":{"android":"levelo://app?vid=731447a5-bd31-4208-aa2f-c0645944403a","ios":"levelo://app?vid=731447a5-bd31-4208-aa2f-c0645944403a"},"vehicle_type_id":"4","last_reported":1770391790,"current_range_meters":8800,"station_id":"st_d2m6c4gdas8pm72e190g","pricing_plan_id":"cebpf4jnsgd1na2vs0mg"},{"bike_id":"b0c3d441-fa9a-4312-858a-e0f5eaf46fd5","system_id":"levelo_inurba_marseille","lat":43.32124,"lon":5.3677,"is_reserved":false,"is_disabled":false,"rental_uris":{"android":"levelo://app?vid=b0c3d441-fa9a-4312-858a-e0f5eaf46fd5","ios":"levelo://app?vid=b0c3d441-fa9a-4312-858a-e0f5eaf46fd5"},"vehicle_type_id":"4","last_reported":1770391790,"current_range_meters":8800,"station_id":"ce4bhrh2rcd13ifvqhug","pricing_plan_id":"cebpf4jnsgd1na2vs0mg"},{"bike_id":"8cccb2d9-7e2b-4833-80fb-d487f9130203","system_id":"levelo_inurba_marseille","lat":43.26788,"lon":5.39423,"is_reserved":false,"is_disabled":false,"rental_uris":{"android":"levelo://app?vid=8cccb2d9-7e2b-4833-80fb-d487f9130203","ios":"levelo://app?vid=8cccb2d9-7e2b-4833-80fb-d487f9130203"},"vehicle_type_id":"4","last_reported":1770391790,"current_range_meters":8800,"station_id":"ce4bhh12rcd13ifvqfg0","pricing_plan_id":"cebpf4jnsgd1na2vs0mg"},{"bike_id":"8a63d81c-5928-427f-9d16-96e33ab91085","system_id":"levelo_inurba_marseille","lat":43.29626,"lon":5.37743,"is_reserved":false,"is_disabled":false,"rental_uris":{"android":"levelo://app?vid=8a63d81c-5928-427f-9d16-96e33ab91085","ios":"levelo://app?vid=8a63d81c-5928-427f-9d16-96e33ab91085"},"vehicle_type_id":"4","last_reported":1770391790,"current_range_meters":8800,"station_id":"ce4bgi92rcd13ifvqb90","pricing_plan_id":"cebpf4jnsgd1na2vs0mg"},{"bike_id":"b15d7ecd-41f5-4212-ad23-e288c11fd329","system_id":"levelo_inurba_marseille","lat":43.31119,"lon":5.37742,"is_reserved":false,"is_disabled":false,"rental_uris":{"android":"levelo://app?vid=b15d7ecd-41f5-4212-ad23-e288c11fd329","ios":"levelo://app?vid=b15d7ecd-41f5-4212-ad23-e288c11fd329"},"vehicle_type_id":"4","last_reported":1770391790,"current_range_meters":8800,"station_id":"ce4bgt92rcd13ifvqcg0","pricing_plan_id":"cebpf4jnsgd1na2vs0mg"},{"bike_id":"695a138c-9117-4798-9030-e462ffee3fe5","system_id":"levelo_inurba_marseille","lat":43.24809,"lon":5.37443,"is_reserved":false,"is_disabled":false,"rental_uris":{"android":"levelo://app?vid=695a138c-9117-4798-9030-e462ffee3fe5","ios":"levelo://app?vid=695a138c-9117-4798-9030-e462ffee3fe5"},"vehicle_type_id":"4","last_reported":1770391790,"current_range_meters":8800,"station_id":"ce4bhgh2rcd13ifvqfb0","pricing_plan_id":"cebpf4jnsgd1na2vs0mg"},{"bike_id":"173f8bdb-f09c-4b51-b8e6-62f6d65e0224","system_id":"levelo_inurba_marseille","lat":43.289769,"lon":5.378323,"is_reserved":false,"is_disabled":false,"rental_uris":{"android":"levelo://app?vid=173f8bdb-f09c-4b51-b8e6-62f6d65e0224","ios":"levelo://app?vid=173f8bdb-f09c-4b51-b8e6-62f6d65e0224"},"vehicle_type_id":"4","last_reported":1770391790,"current_range_meters":8800,"station_id":"ce4bh9p2rcd13ifvqed0","pricing_plan_id":"cebpf4jnsgd1na2vs0mg"},{"bike_id":"88e08699-5487-44b2-af39-249133d81916","system_id":"levelo_inurba_marseille","lat":43.25848,"lon":5.394037,"is_reserved":false,"is_disabled":false,"rental_uris":{"android":"levelo://app?vid=88e08699-5487-44b2-af39-249133d81916","ios":"levelo://app?vid=88e08699-5487-44b2-af39-249133d81916"},"vehicle_type_id":"4","last_reported":1770391790,"current_range_meters":8800,"station_id":"ce4bhip2rcd13ifvqft0","pricing_plan_id":"cebpf4jnsgd1na2vs0mg"},{"bike_id":"d8e28b26-19e5-40a3-8c78-e5a4b56ee005","system_id":"levelo_inurba_marseille","lat":43.29032,"lon":5.38637,"is_reserved":false,"is_disabled":false,"rental_uris":{"android":"levelo://app?vid=d8e28b26-19e5-40a3-8c78-e5a4b56ee005","ios":"levelo://app?vid=d8e28b26-19e5-40a3-8c78-e5a4b56ee005"},"vehicle_type_id":"4","last_reported":1770391790,"current_range_meters":8800,"station_id":"ce4bh4p2rcd13ifvqe0g","pricing_plan_id":"cebpf4jnsgd1na2vs0mg"},{"bike_id":"90e746c4-3c68-4b0d-b714-80cbcf9e7ffe","system_id":"levelo_inurba_marseille","lat":43.25573,"lon":5.38221,"is_reserved":false,"is_disabled":false,"rental_uris":{"android":"levelo://app?vid=90e746c4-3c68-4b0d-b714-80cbcf9e7ffe","ios":"levelo://app?vid=90e746c4-3c68-4b0d-b714-80cbcf9e7ffe"},"vehicle_type_id":"4","last_reported":1770391790,"current_range_meters":8800,"station_id":"ce4bhih2rcd13ifvqfs0","pricing_plan_id":"cebpf4jnsgd1na2vs0mg"},{"bike_id":"041b55eb-1955-4acc-9086-a670f7f43fe1","system_id":"levelo_inurba_marseille","lat":43.30547,"lon":5.36574,"is_reserved":false,"is_disabled":false,"rental_uris":{"android":"levelo://app?vid=041b55eb-1955-4acc-9086-a670f7f43fe1","ios":"levelo://app?vid=041b55eb-1955-4acc-9086-a670f7f43fe1"},"vehicle_type_id":"4","last_reported":1770391790,"current_range_meters":8800,"station_id":"ce4bgs12rcd13ifvqcag","pricing_plan_id":"cebpf4jnsgd1na2vs0mg"},{"bike_id":"a998fcf8-2445-495a-b709-f87f82f80d91","system_id":"levelo_inurba_marseille","lat":43.2455,"lon":5.39525,"is_reserved":false,"is_disabled":false,"rental_uris":{"android":"levelo://app?vid=a998fcf8-2445-495a-b709-f87f82f80d91","ios":"levelo://app?vid=a998fcf8-2445-495a-b709-f87f82f80d91"},"vehicle_type_id":"4","last_reported":1770391790,"current_range_meters":8800,"station_id":"ce4bhlp2rcd13ifvqgjg","pricing_plan_id":"cebpf4jnsgd1na2vs0mg"},{"bike_id":"bc15bbad-dce3-4964-b685-6f2fbc719178","system_id":"levelo_inurba_marseille","lat":43.31116,"lon":5.37765,"is_reserved":false,"is_disabled":false,"rental_uris":{"android":"levelo://app?vid=bc15bbad-dce3-4964-b685-6f2fbc719178","ios":"levelo://app?vid=bc15bbad-dce3-4964-b685-6f2fbc719178"},"vehicle_type_id":"4","last_reported":1770391790,"current_range_meters":9200,"station_id":"ce4bgt92rcd13ifvqcg0","pricing_plan_id":"cebpf4jnsgd1na2vs0mg"},{"bike_id":"ac764263-5e38-4caa-9162-389d1fa0c124","system_id":"levelo_inurba_marseille","lat":43.29536,"lon":5.39056,"is_reserved":false,"is_disabled":false,"rental_uris":{"android":"levelo://app?vid=ac764263-5e38-4caa-9162-389d1fa0c124","ios":"levelo://app?vid=ac764263-5e38-4caa-9162-389d1fa0c124"},"vehicle_type_id":"4","last_reported":1770391790,"current_range_meters":9200,"station_id":"ce4bh3p2rcd13ifvqdp0","pricing_plan_id":"cebpf4jnsgd1na2vs0mg"},{"bike_id":"b1b22b0e-30dd-44de-8832-72f7070354f6","system_id":"levelo_inurba_marseille","lat":43.30424,"lon":5.4129,"is_reserved":false,"is_disabled":false,"rental_uris":{"android":"levelo://app?vid=b1b22b0e-30dd-44de-8832-72f7070354f6","ios":"levelo://app?vid=b1b22b0e-30dd-44de-8832-72f7070354f6"},"vehicle_type_id":"4","last_reported":1770391790,"current_range_meters":9200,"station_id":"ce4bhop2rcd13ifvqh8g","pricing_plan_id":"cebpf4jnsgd1na2vs0mg"},{"bike_id":"4553b9ae-95be-4d03-9d86-2a4c79a4ffcc","system_id":"levelo_inurba_marseille","lat":43.28911,"lon":5.39844,"is_reserved":false,"is_disabled":false,"rental_uris":{"android":"levelo://app?vid=4553b9ae-95be-4d03-9d86-2a4c79a4ffcc","ios":"levelo://app?vid=4553b9ae-95be-4d03-9d86-2a4c79a4ffcc"},"vehicle_type_id":"4","last_reported":1770391790,"current_range_meters":9200,"station_id":"","pricing_plan_id":"cebpf4jnsgd1na2vs0mg"},{"bike_id":"de7dcaa3-061f-49c0-a611-98b8d07167bf","system_id":"levelo_inurba_marseille","lat":43.29009,"lon":5.35624,"is_reserved":false,"is_disabled":false,"rental_uris":{"android":"levelo://app?vid=de7dcaa3-061f-49c0-a611-98b8d07167bf","ios":"levelo://app?vid=de7dcaa3-061f-49c0-a611-98b8d07167bf"},"vehicle_type_id":"4","last_reported":1770391790,"current_range_meters":9200,"station_id":"ce4bhb92rcd13ifvqen0","pricing_plan_id":"cebpf4jnsgd1na2vs0mg"},{"bike_id":"267944d0-d05c-456f-8ad2-ebb14c986ebb","system_id":"levelo_inurba_marseille","lat":43.23139,"lon":5.43705,"is_reserved":false,"is_disabled":false,"rental_uris":{"android":"levelo://app?vid=267944d0-d05c-456f-8ad2-ebb14c986ebb","ios":"levelo://app?vid=267944d0-d05c-456f-8ad2-ebb14c986ebb"},"vehicle_type_id":"4","last_reported":1770391790,"current_range_meters":9200,"station_id":"ce4bhmp2rcd13ifvqgog","pricing_plan_id":"cebpf4jnsgd1na2vs0mg"},{"bike_id":"a154aa4d-f770-4b03-80cb-82928a08d283","system_id":"levelo_inurba_marseille","lat":43.26226,"lon":5.40425,"is_reserved":false,"is_disabled":false,"rental_uris":{"android":"levelo://app?vid=a154aa4d-f770-4b03-80cb-82928a08d283","ios":"levelo://app?vid=a154aa4d-f770-4b03-80cb-82928a08d283"},"vehicle_type_id":"4","last_reported":1770391790,"current_range_meters":9200,"station_id":"ce4bhmh2rcd13ifvqgmg","pricing_plan_id":"cebpf4jnsgd1na2vs0mg"},{"bike_id":"762d17af-af27-45ae-8011-3c290ff80fd9","system_id":"levelo_inurba_marseille","lat":43.24192,"lon":5.36357,"is_reserved":false,"is_disabled":false,"rental_uris":{"android":"levelo://app?vid=762d17af-af27-45ae-8011-3c290ff80fd9","ios":"levelo://app?vid=762d17af-af27-45ae-8011-3c290ff80fd9"},"vehicle_type_id":"4","last_reported":1770391790,"current_range_meters":9200,"station_id":"cpo36qri1sfpv3e86is0","pricing_plan_id":"cebpf4jnsgd1na2vs0mg"},{"bike_id":"5c9543f3-fcf9-47ce-8543-fff44a78b799","system_id":"levelo_inurba_marseille","lat":43.28111,"lon":5.3783,"is_reserved":false,"is_disabled":false,"rental_uris":{"android":"levelo://app?vid=5c9543f3-fcf9-47ce-8543-fff44a78b799","ios":"levelo://app?vid=5c9543f3-fcf9-47ce-8543-fff44a78b799"},"vehicle_type_id":"4","last_reported":1770391790,"current_range_meters":9200,"station_id":"ce4bha12rcd13ifvqee0","pricing_plan_id":"cebpf4jnsgd1na2vs0mg"},{"bike_id":"1408b001-1445-42b5-9d40-15cee5ca8b1d","system_id":"levelo_inurba_marseille","lat":43.27621,"lon":5.36116,"is_reserved":false,"is_disabled":false,"rental_uris":{"android":"levelo://app?vid=1408b001-1445-42b5-9d40-15cee5ca8b1d","ios":"levelo://app?vid=1408b001-1445-42b5-9d40-15cee5ca8b1d"},"vehicle_type_id":"4","last_reported":1770391790,"current_range_meters":9200,"station_id":"ce4bgj92rcd13ifvqbe0","pricing_plan_id":"cebpf4jnsgd1na2vs0mg"},{"bike_id":"7ce9f68c-df3f-4c06-90bc-5b722c547725","system_id":"levelo_inurba_marseille","lat":43.314929,"lon":5.372988,"is_reserved":false,"is_disabled":false,"rental_uris":{"android":"levelo://app?vid=7ce9f68c-df3f-4c06-90bc-5b722c547725","ios":"levelo://app?vid=7ce9f68c-df3f-4c06-90bc-5b722c547725"},"vehicle_type_id":"4","last_reported":1770391790,"current_range_meters":9600,"station_id":"ce4bgt12rcd13ifvqcd0","pricing_plan_id":"cebpf4jnsgd1na2vs0mg"},{"bike_id":"edc41efc-4922-43df-8e12-5c9cda2b10c4","system_id":"levelo_inurba_marseille","lat":43.28561,"lon":5.39524,"is_reserved":false,"is_disabled":false,"rental_uris":{"android":"levelo://app?vid=edc41efc-4922-43df-8e12-5c9cda2b10c4","ios":"levelo://app?vid=edc41efc-4922-43df-8e12-5c9cda2b10c4"},"vehicle_type_id":"4","last_reported":1770391790,"current_range_meters":9600,"station_id":"ce4bh292rcd13ifvqdg0","pricing_plan_id":"cebpf4jnsgd1na2vs0mg"},{"bike_id":"460c9c1e-514b-4ed9-a1a5-220c95d4e7af","system_id":"levelo_inurba_marseille","lat":43.29584,"lon":5.37514,"is_reserved":false,"is_disabled":false,"rental_uris":{"android":"levelo://app?vid=460c9c1e-514b-4ed9-a1a5-220c95d4e7af","ios":"levelo://app?vid=460c9c1e-514b-4ed9-a1a5-220c95d4e7af"},"vehicle_type_id":"4","last_reported":1770391790,"current_range_meters":9600,"station_id":"ce4bgh92rcd13ifvqb50","pricing_plan_id":"cebpf4jnsgd1na2vs0mg"},{"bike_id":"cfc89717-ab95-4bfb-ba46-7afc35430bf1","system_id":"levelo_inurba_marseille","lat":43.24817,"lon":5.3745,"is_reserved":false,"is_disabled":false,"rental_uris":{"android":"levelo://app?vid=cfc89717-ab95-4bfb-ba46-7afc35430bf1","ios":"levelo://app?vid=cfc89717-ab95-4bfb-ba46-7afc35430bf1"},"vehicle_type_id":"4","last_reported":1770391790,"current_range_meters":9600,"station_id":"ce4bhgh2rcd13ifvqfb0","pricing_plan_id":"cebpf4jnsgd1na2vs0mg"},{"bike_id":"c6f3c761-de0f-456d-aad1-843601547135","system_id":"levelo_inurba_marseille","lat":43.28416,"lon":5.34983,"is_reserved":false,"is_disabled":false,"rental_uris":{"android":"levelo://app?vid=c6f3c761-de0f-456d-aad1-843601547135","ios":"levelo://app?vid=c6f3c761-de0f-456d-aad1-843601547135"},"vehicle_type_id":"4","last_reported":1770391790,"current_range_meters":9600,"station_id":"ce4bhbh2rcd13ifvqepg","pricing_plan_id":"cebpf4jnsgd1na2vs0mg"},{"bike_id":"a0e10030-4a5f-405d-ad44-363424df6217","system_id":"levelo_inurba_marseille","lat":43.27063,"lon":5.40255,"is_reserved":false,"is_disabled":false,"rental_uris":{"android":"levelo://app?vid=a0e10030-4a5f-405d-ad44-363424df6217","ios":"levelo://app?vid=a0e10030-4a5f-405d-ad44-363424df6217"},"vehicle_type_id":"4","last_reported":1770391790,"current_range_meters":9600,"station_id":"ce4bhk92rcd13ifvqgc0","pricing_plan_id":"cebpf4jnsgd1na2vs0mg"},{"bike_id":"a3d8f230-fabf-4853-b4e7-30c4e012aa5e","system_id":"levelo_inurba_marseille","lat":43.25972,"lon":5.40928,"is_reserved":false,"is_disabled":false,"rental_uris":{"android":"levelo://app?vid=a3d8f230-fabf-4853-b4e7-30c4e012aa5e","ios":"levelo://app?vid=a3d8f230-fabf-4853-b4e7-30c4e012aa5e"},"vehicle_type_id":"4","last_reported":1770391790,"current_range_meters":9600,"station_id":"ce4bhm92rcd13ifvqglg","pricing_plan_id":"cebpf4jnsgd1na2vs0mg"},{"bike_id":"0eb2dbff-2354-4611-a83f-eada1840f63a","system_id":"levelo_inurba_marseille","lat":43.29202,"lon":5.35804,"is_reserved":false,"is_disabled":false,"rental_uris":{"android":"levelo://app?vid=0eb2dbff-2354-4611-a83f-eada1840f63a","ios":"levelo://app?vid=0eb2dbff-2354-4611-a83f-eada1840f63a"},"vehicle_type_id":"4","last_reported":1770391790,"current_range_meters":9600,"station_id":"ce4bhb12rcd13ifvqel0","pricing_plan_id":"cebpf4jnsgd1na2vs0mg"},{"bike_id":"222bad96-b12e-4dd0-a7f8-28c766b24b5c","system_id":"levelo_inurba_marseille","lat":43.26682,"lon":5.38269,"is_reserved":false,"is_disabled":false,"rental_uris":{"android":"levelo://app?vid=222bad96-b12e-4dd0-a7f8-28c766b24b5c","ios":"levelo://app?vid=222bad96-b12e-4dd0-a7f8-28c766b24b5c"},"vehicle_type_id":"4","last_reported":1770391790,"current_range_meters":9600,"station_id":"ce4bhg92rcd13ifvqf90","pricing_plan_id":"cebpf4jnsgd1na2vs0mg"},{"bike_id":"ca56e68f-7e24-4681-a422-a463b8716c7e","system_id":"levelo_inurba_marseille","lat":43.28604,"lon":5.37059,"is_reserved":false,"is_disabled":false,"rental_uris":{"android":"levelo://app?vid=ca56e68f-7e24-4681-a422-a463b8716c7e","ios":"levelo://app?vid=ca56e68f-7e24-4681-a422-a463b8716c7e"},"vehicle_type_id":"4","last_reported":1770391790,"current_range_meters":9600,"station_id":"ce4bht12rcd13ifvqi60","pricing_plan_id":"cebpf4jnsgd1na2vs0mg"},{"bike_id":"f03e6b25-e7f3-4f2b-a805-6821fd5164b7","system_id":"levelo_inurba_marseille","lat":43.28479,"lon":5.38432,"is_reserved":false,"is_disabled":true,"rental_uris":{"android":"levelo://app?vid=f03e6b25-e7f3-4f2b-a805-6821fd5164b7","ios":"levelo://app?vid=f03e6b25-e7f3-4f2b-a805-6821fd5164b7"},"vehicle_type_id":"4","last_reported":1770391790,"current_range_meters":9600,"station_id":"ce4bh512rcd13ifvqe3g","pricing_plan_id":"cebpf4jnsgd1na2vs0mg"},{"bike_id":"1d080f2f-66bb-4fea-8e4a-a106fa5567fa","system_id":"levelo_inurba_marseille","lat":43.24166,"lon":5.39693,"is_reserved":false,"is_disabled":false,"rental_uris":{"android":"levelo://app?vid=1d080f2f-66bb-4fea-8e4a-a106fa5567fa","ios":"levelo://app?vid=1d080f2f-66bb-4fea-8e4a-a106fa5567fa"},"vehicle_type_id":"4","last_reported":1770391790,"current_range_meters":10000,"station_id":"ce4bhn12rcd13ifvqgpg","pricing_plan_id":"cebpf4jnsgd1na2vs0mg"},{"bike_id":"a9af439e-1815-4d1b-bffc-a4c45dd4fa11","system_id":"levelo_inurba_marseille","lat":43.31359,"lon":5.38508,"is_reserved":false,"is_disabled":false,"rental_uris":{"android":"levelo://app?vid=a9af439e-1815-4d1b-bffc-a4c45dd4fa11","ios":"levelo://app?vid=a9af439e-1815-4d1b-bffc-a4c45dd4fa11"},"vehicle_type_id":"4","last_reported":1770391790,"current_range_meters":10000,"station_id":"ce4bgt92rcd13ifvqcf0","pricing_plan_id":"cebpf4jnsgd1na2vs0mg"},{"bike_id":"852f78ad-93a5-4d2f-8a0b-832f5bbdbd7f","system_id":"levelo_inurba_marseille","lat":43.23157,"lon":5.43716,"is_reserved":false,"is_disabled":false,"rental_uris":{"android":"levelo://app?vid=852f78ad-93a5-4d2f-8a0b-832f5bbdbd7f","ios":"levelo://app?vid=852f78ad-93a5-4d2f-8a0b-832f5bbdbd7f"},"vehicle_type_id":"4","last_reported":1770391790,"current_range_meters":10000,"station_id":"ce4bhmp2rcd13ifvqgog","pricing_plan_id":"cebpf4jnsgd1na2vs0mg"},{"bike_id":"4940192c-cd9e-43b0-a8dd-fd4c04e7805e","system_id":"levelo_inurba_marseille","lat":43.22558,"lon":5.41631,"is_reserved":false,"is_disabled":false,"rental_uris":{"android":"levelo://app?vid=4940192c-cd9e-43b0-a8dd-fd4c04e7805e","ios":"levelo://app?vid=4940192c-cd9e-43b0-a8dd-fd4c04e7805e"},