{"last_updated":1751400733,"ttl":60,"version":"2.2","data":{"bikes":[{"bike_id":"3da29fb8-fc97-44c6-b9ac-31dd456b2fd4","system_id":"levelo_inurba_marseille","lat":43.33771,"lon":5.37424,"is_reserved":false,"is_disabled":true,"rental_uris":{"android":"levelo://app?vid=3da29fb8-fc97-44c6-b9ac-31dd456b2fd4","ios":"levelo://app?vid=3da29fb8-fc97-44c6-b9ac-31dd456b2fd4"},"vehicle_type_id":"4","last_reported":1751400733,"current_range_meters":0,"station_id":"","pricing_plan_id":"cebpf4jnsgd1na2vs0mg"},{"bike_id":"01861ad8-a8d7-4be6-816e-651927c87584","system_id":"levelo_inurba_marseille","lat":43.33751,"lon":5.37456,"is_reserved":false,"is_disabled":true,"rental_uris":{"android":"levelo://app?vid=01861ad8-a8d7-4be6-816e-651927c87584","ios":"levelo://app?vid=01861ad8-a8d7-4be6-816e-651927c87584"},"vehicle_type_id":"4","last_reported":1751400733,"current_range_meters":0,"station_id":"","pricing_plan_id":"cebpf4jnsgd1na2vs0mg"},{"bike_id":"aacf0286-b8b3-4dcc-99df-3c0d92efa356","system_id":"levelo_inurba_marseille","lat":43.32608,"lon":5.37505,"is_reserved":false,"is_disabled":true,"rental_uris":{"android":"levelo://app?vid=aacf0286-b8b3-4dcc-99df-3c0d92efa356","ios":"levelo://app?vid=aacf0286-b8b3-4dcc-99df-3c0d92efa356"},"vehicle_type_id":"4","last_reported":1751400733,"current_range_meters":0,"station_id":"","pricing_plan_id":"cebpf4jnsgd1na2vs0mg"},{"bike_id":"3168b9fb-97d2-4a0e-b7ee-673bb8cf7525","system_id":"levelo_inurba_marseille","lat":43.2776,"lon":5.35562,"is_reserved":false,"is_disabled":true,"rental_uris":{"android":"levelo://app?vid=3168b9fb-97d2-4a0e-b7ee-673bb8cf7525","ios":"levelo://app?vid=3168b9fb-97d2-4a0e-b7ee-673bb8cf7525"},"vehicle_type_id":"4","last_reported":1751400733,"current_range_meters":0,"station_id":"","pricing_plan_id":"cebpf4jnsgd1na2vs0mg"},{"bike_id":"1d934d30-6a85-4b30-9a35-9bb4ad4cb2ca","system_id":"levelo_inurba_marseille","lat":43.32732,"lon":5.42362,"is_reserved":false,"is_disabled":true,"rental_uris":{"android":"levelo://app?vid=1d934d30-6a85-4b30-9a35-9bb4ad4cb2ca","ios":"levelo://app?vid=1d934d30-6a85-4b30-9a35-9bb4ad4cb2ca"},"vehicle_type_id":"4","last_reported":1751400733,"current_range_meters":0,"station_id":"","pricing_plan_id":"cebpf4jnsgd1na2vs0mg"},{"bike_id":"6fa70ec9-6f0e-4f3b-bdc4-86476675540a","system_id":"levelo_inurba_marseille","lat":43.273823,"lon":5.362491,"is_reserved":false,"is_disabled":true,"rental_uris":{"android":"levelo://app?vid=6fa70ec9-6f0e-4f3b-bdc4-86476675540a","ios":"levelo://app?vid=6fa70ec9-6f0e-4f3b-bdc4-86476675540a"},"vehicle_type_id":"4","last_reported":1751400733,"current_range_meters":0,"station_id":"","pricing_plan_id":"cebpf4jnsgd1na2vs0mg"},{"bike_id":"3378c13c-e4e0-45be-9bfe-f3a4bc2c600e","system_id":"levelo_inurba_marseille","lat":43.29746,"lon":5.45998,"is_reserved":false,"is_disabled":true,"rental_uris":{"android":"levelo://app?vid=3378c13c-e4e0-45be-9bfe-f3a4bc2c600e","ios":"levelo://app?vid=3378c13c-e4e0-45be-9bfe-f3a4bc2c600e"},"vehicle_type_id":"4","last_reported":1751400733,"current_range_meters":0,"station_id":"","pricing_plan_id":"cebpf4jnsgd1na2vs0mg"},{"bike_id":"2ccccc82-c8a9-4c3b-909d-52c0bf697aa3","system_id":"levelo_inurba_marseille","lat":43.276,"lon":5.35866,"is_reserved":false,"is_disabled":true,"rental_uris":{"android":"levelo://app?vid=2ccccc82-c8a9-4c3b-909d-52c0bf697aa3","ios":"levelo://app?vid=2ccccc82-c8a9-4c3b-909d-52c0bf697aa3"},"vehicle_type_id":"4","last_reported":1751400733,"current_range_meters":0,"station_id":"","pricing_plan_id":"cebpf4jnsgd1na2vs0mg"},{"bike_id":"691d0aac-769b-4a6f-932e-76d5cd20a92d","system_id":"levelo_inurba_marseille","lat":43.30306,"lon":5.38486,"is_reserved":false,"is_disabled":true,"rental_uris":{"android":"levelo://app?vid=691d0aac-769b-4a6f-932e-76d5cd20a92d","ios":"levelo://app?vid=691d0aac-769b-4a6f-932e-76d5cd20a92d"},"vehicle_type_id":"4","last_reported":1751400733,"current_range_meters":0,"station_id":"","pricing_plan_id":"cebpf4jnsgd1na2vs0mg"},{"bike_id":"c9700359-7f1e-4ea5-8eb5-d9c4ea1b8ef7","system_id":"levelo_inurba_marseille","lat":43.263191,"lon":5.373939,"is_reserved":false,"is_disabled":true,"rental_uris":{"android":"levelo://app?vid=c9700359-7f1e-4ea5-8eb5-d9c4ea1b8ef7","ios":"levelo://app?vid=c9700359-7f1e-4ea5-8eb5-d9c4ea1b8ef7"},"vehicle_type_id":"4","last_reported":1751400733,"current_range_meters":0,"station_id":"","pricing_plan_id":"cebpf4jnsgd1na2vs0mg"},{"bike_id":"95c69415-2845-4124-9fbc-8e2f89cb3a35","system_id":"levelo_inurba_marseille","lat":43.337444,"lon":5.374475,"is_reserved":false,"is_disabled":true,"rental_uris":{"android":"levelo://app?vid=95c69415-2845-4124-9fbc-8e2f89cb3a35","ios":"levelo://app?vid=95c69415-2845-4124-9fbc-8e2f89cb3a35"},"vehicle_type_id":"4","last_reported":1751400733,"current_range_meters":0,"station_id":"","pricing_plan_id":"cebpf4jnsgd1na2vs0mg"},{"bike_id":"3035be0e-7c3d-4f7d-a1cb-7a1af59e497b","system_id":"levelo_inurba_marseille","lat":43.29684,"lon":5.36014,"is_reserved":false,"is_disabled":true,"rental_uris":{"android":"levelo://app?vid=3035be0e-7c3d-4f7d-a1cb-7a1af59e497b","ios":"levelo://app?vid=3035be0e-7c3d-4f7d-a1cb-7a1af59e497b"},"vehicle_type_id":"4","last_reported":1751400733,"current_range_meters":0,"station_id":"","pricing_plan_id":"cebpf4jnsgd1na2vs0mg"},{"bike_id":"46ed2b9f-1912-466e-b039-bc4b03b9c281","system_id":"levelo_inurba_marseille","lat":43.23771,"lon":5.36168,"is_reserved":false,"is_disabled":true,"rental_uris":{"android":"levelo://app?vid=46ed2b9f-1912-466e-b039-bc4b03b9c281","ios":"levelo://app?vid=46ed2b9f-1912-466e-b039-bc4b03b9c281"},"vehicle_type_id":"4","last_reported":1751400733,"current_range_meters":0,"station_id":"","pricing_plan_id":"cebpf4jnsgd1na2vs0mg"},{"bike_id":"772bfefb-21fb-4d42-8b5d-488444b0e65f","system_id":"levelo_inurba_marseille","lat":43.29569,"lon":5.37522,"is_reserved":false,"is_disabled":true,"rental_uris":{"android":"levelo://app?vid=772bfefb-21fb-4d42-8b5d-488444b0e65f","ios":"levelo://app?vid=772bfefb-21fb-4d42-8b5d-488444b0e65f"},"vehicle_type_id":"4","last_reported":1751400733,"current_range_meters":0,"station_id":"ce4bgh92rcd13ifvqb50","pricing_plan_id":"cebpf4jnsgd1na2vs0mg"},{"bike_id":"bb04745a-b990-4749-9e58-362c38aa945c","system_id":"levelo_inurba_marseille","lat":43.30135,"lon":5.38782,"is_reserved":false,"is_disabled":true,"rental_uris":{"android":"levelo://app?vid=bb04745a-b990-4749-9e58-362c38aa945c","ios":"levelo://app?vid=bb04745a-b990-4749-9e58-362c38aa945c"},"vehicle_type_id":"4","last_reported":1751400733,"current_range_meters":0,"station_id":"ce4bghh2rcd13ifvqb60","pricing_plan_id":"cebpf4jnsgd1na2vs0mg"},{"bike_id":"ea6e6fc5-70e5-49d8-8975-03de47aca090","system_id":"levelo_inurba_marseille","lat":43.30927,"lon":5.40145,"is_reserved":false,"is_disabled":true,"rental_uris":{"android":"levelo://app?vid=ea6e6fc5-70e5-49d8-8975-03de47aca090","ios":"levelo://app?vid=ea6e6fc5-70e5-49d8-8975-03de47aca090"},"vehicle_type_id":"4","last_reported":1751400733,"current_range_meters":0,"station_id":"ce4bgvp2rcd13ifvqct0","pricing_plan_id":"cebpf4jnsgd1na2vs0mg"},{"bike_id":"6926d76d-412f-479d-ac78-dedab99b0a5a","system_id":"levelo_inurba_marseille","lat":43.3065,"lon":5.40092,"is_reserved":false,"is_disabled":true,"rental_uris":{"android":"levelo://app?vid=6926d76d-412f-479d-ac78-dedab99b0a5a","ios":"levelo://app?vid=6926d76d-412f-479d-ac78-dedab99b0a5a"},"vehicle_type_id":"4","last_reported":1751400733,"current_range_meters":0,"station_id":"ce4bh112rcd13ifvqda0","pricing_plan_id":"cebpf4jnsgd1na2vs0mg"},{"bike_id":"5a19097c-d196-4b1a-9cc9-402b3edb59b0","system_id":"levelo_inurba_marseille","lat":43.28574,"lon":5.39498,"is_reserved":false,"is_disabled":true,"rental_uris":{"android":"levelo://app?vid=5a19097c-d196-4b1a-9cc9-402b3edb59b0","ios":"levelo://app?vid=5a19097c-d196-4b1a-9cc9-402b3edb59b0"},"vehicle_type_id":"4","last_reported":1751400733,"current_range_meters":0,"station_id":"ce4bh292rcd13ifvqdg0","pricing_plan_id":"cebpf4jnsgd1na2vs0mg"},{"bike_id":"c8ea1eb8-e74b-4d48-8ec2-e2ece532bb5c","system_id":"levelo_inurba_marseille","lat":43.29277,"lon":5.36837,"is_reserved":false,"is_disabled":true,"rental_uris":{"android":"levelo://app?vid=c8ea1eb8-e74b-4d48-8ec2-e2ece532bb5c","ios":"levelo://app?vid=c8ea1eb8-e74b-4d48-8ec2-e2ece532bb5c"},"vehicle_type_id":"4","last_reported":1751400733,"current_range_meters":0,"station_id":"ce4bhbp2rcd13ifvqesg","pricing_plan_id":"cebpf4jnsgd1na2vs0mg"},{"bike_id":"b80adc8a-da9d-4306-99ff-b0582a6f9a42","system_id":"levelo_inurba_marseille","lat":43.26203,"lon":5.37444,"is_reserved":false,"is_disabled":true,"rental_uris":{"android":"levelo://app?vid=b80adc8a-da9d-4306-99ff-b0582a6f9a42","ios":"levelo://app?vid=b80adc8a-da9d-4306-99ff-b0582a6f9a42"},"vehicle_type_id":"4","last_reported":1751400733,"current_range_meters":0,"station_id":"ce4bhgp2rcd13ifvqfc0","pricing_plan_id":"cebpf4jnsgd1na2vs0mg"},{"bike_id":"4fb5ef5d-c051-429c-ba1f-26b3489d9af5","system_id":"levelo_inurba_marseille","lat":43.27561,"lon":5.38412,"is_reserved":false,"is_disabled":true,"rental_uris":{"android":"levelo://app?vid=4fb5ef5d-c051-429c-ba1f-26b3489d9af5","ios":"levelo://app?vid=4fb5ef5d-c051-429c-ba1f-26b3489d9af5"},"vehicle_type_id":"4","last_reported":1751400733,"current_range_meters":0,"station_id":"ce4bhh92rcd13ifvqfi0","pricing_plan_id":"cebpf4jnsgd1na2vs0mg"},{"bike_id":"a9d18681-d4bf-4cf2-b325-9af2876dc18f","system_id":"levelo_inurba_marseille","lat":43.30884,"lon":5.39649,"is_reserved":false,"is_disabled":true,"rental_uris":{"android":"levelo://app?vid=a9d18681-d4bf-4cf2-b325-9af2876dc18f","ios":"levelo://app?vid=a9d18681-d4bf-4cf2-b325-9af2876dc18f"},"vehicle_type_id":"4","last_reported":1751400733,"current_range_meters":400,"station_id":"ce4bh012rcd13ifvqcv0","pricing_plan_id":"cebpf4jnsgd1na2vs0mg"},{"bike_id":"365e35c2-3f89-4eac-9123-e7b0157ba0c4","system_id":"levelo_inurba_marseille","lat":43.29033,"lon":5.39966,"is_reserved":false,"is_disabled":true,"rental_uris":{"android":"levelo://app?vid=365e35c2-3f89-4eac-9123-e7b0157ba0c4","ios":"levelo://app?vid=365e35c2-3f89-4eac-9123-e7b0157ba0c4"},"vehicle_type_id":"4","last_reported":1751400733,"current_range_meters":400,"station_id":"ce4bh392rcd13ifvqdm0","pricing_plan_id":"cebpf4jnsgd1na2vs0mg"},{"bike_id":"6346854d-967c-470e-9bcf-0ee9cbb31745","system_id":"levelo_inurba_marseille","lat":43.26922,"lon":5.42027,"is_reserved":false,"is_disabled":true,"rental_uris":{"android":"levelo://app?vid=6346854d-967c-470e-9bcf-0ee9cbb31745","ios":"levelo://app?vid=6346854d-967c-470e-9bcf-0ee9cbb31745"},"vehicle_type_id":"4","last_reported":1751400733,"current_range_meters":800,"station_id":"","pricing_plan_id":"cebpf4jnsgd1na2vs0mg"},{"bike_id":"33aee83a-b6a2-4035-8a32-24824f571e37","system_id":"levelo_inurba_marseille","lat":43.30929,"lon":5.40143,"is_reserved":false,"is_disabled":true,"rental_uris":{"android":"levelo://app?vid=33aee83a-b6a2-4035-8a32-24824f571e37","ios":"levelo://app?vid=33aee83a-b6a2-4035-8a32-24824f571e37"},"vehicle_type_id":"4","last_reported":1751400733,"current_range_meters":800,"station_id":"ce4bgvp2rcd13ifvqct0","pricing_plan_id":"cebpf4jnsgd1na2vs0mg"},{"bike_id":"af5bf5d9-8a57-4bbd-8e82-635dc4001c0f","system_id":"levelo_inurba_marseille","lat":43.2943,"lon":5.39755,"is_reserved":false,"is_disabled":true,"rental_uris":{"android":"levelo://app?vid=af5bf5d9-8a57-4bbd-8e82-635dc4001c0f","ios":"levelo://app?vid=af5bf5d9-8a57-4bbd-8e82-635dc4001c0f"},"vehicle_type_id":"4","last_reported":1751400733,"current_range_meters":1200,"station_id":"ce4bh3h2rcd13ifvqdo0","pricing_plan_id":"cebpf4jnsgd1na2vs0mg"},{"bike_id":"853c351e-6e26-4b3d-a958-8b61d333ee8c","system_id":"levelo_inurba_marseille","lat":43.2737,"lon":5.36258,"is_reserved":false,"is_disabled":true,"rental_uris":{"android":"levelo://app?vid=853c351e-6e26-4b3d-a958-8b61d333ee8c","ios":"levelo://app?vid=853c351e-6e26-4b3d-a958-8b61d333ee8c"},"vehicle_type_id":"4","last_reported":1751400733,"current_range_meters":1200,"station_id":"ce4bhbh2rcd13ifvqeo0","pricing_plan_id":"cebpf4jnsgd1na2vs0mg"},{"bike_id":"7547e1e4-2d85-4907-971d-6c8e5c4cb529","system_id":"levelo_inurba_marseille","lat":43.25367,"lon":5.37508,"is_reserved":false,"is_disabled":true,"rental_uris":{"android":"levelo://app?vid=7547e1e4-2d85-4907-971d-6c8e5c4cb529","ios":"levelo://app?vid=7547e1e4-2d85-4907-971d-6c8e5c4cb529"},"vehicle_type_id":"4","last_reported":1751400733,"current_range_meters":1600,"station_id":"","pricing_plan_id":"cebpf4jnsgd1na2vs0mg"},{"bike_id":"bd898605-efe6-4fd3-bd4d-09b26a36210d","system_id":"levelo_inurba_marseille","lat":43.27377,"lon":5.36263,"is_reserved":false,"is_disabled":true,"rental_uris":{"android":"levelo://app?vid=bd898605-efe6-4fd3-bd4d-09b26a36210d","ios":"levelo://app?vid=bd898605-efe6-4fd3-bd4d-09b26a36210d"},"vehicle_type_id":"4","last_reported":1751400733,"current_range_meters":1600,"station_id":"ce4bhbh2rcd13ifvqeo0","pricing_plan_id":"cebpf4jnsgd1na2vs0mg"},{"bike_id":"897cf961-b80d-4642-b6bb-094974cfb42f","system_id":"levelo_inurba_marseille","lat":43.28443,"lon":5.3919,"is_reserved":false,"is_disabled":true,"rental_uris":{"android":"levelo://app?vid=897cf961-b80d-4642-b6bb-094974cfb42f","ios":"levelo://app?vid=897cf961-b80d-4642-b6bb-094974cfb42f"},"vehicle_type_id":"4","last_reported":1751400733,"current_range_meters":1600,"station_id":"ce4bhoh2rcd13ifvqh5g","pricing_plan_id":"cebpf4jnsgd1na2vs0mg"},{"bike_id":"f8dfdb95-9c34-4f99-b6ea-067374e0daf1","system_id":"levelo_inurba_marseille","lat":43.31727,"lon":5.42397,"is_reserved":false,"is_disabled":true,"rental_uris":{"android":"levelo://app?vid=f8dfdb95-9c34-4f99-b6ea-067374e0daf1","ios":"levelo://app?vid=f8dfdb95-9c34-4f99-b6ea-067374e0daf1"},"vehicle_type_id":"4","last_reported":1751400733,"current_range_meters":1600,"station_id":"ce4bhp92rcd13ifvqhbg","pricing_plan_id":"cebpf4jnsgd1na2vs0mg"},{"bike_id":"ffde5753-6801-4d17-9a2a-a496fd083272","system_id":"levelo_inurba_marseille","lat":43.27906,"lon":5.38015,"is_reserved":false,"is_disabled":true,"rental_uris":{"android":"levelo://app?vid=ffde5753-6801-4d17-9a2a-a496fd083272","ios":"levelo://app?vid=ffde5753-6801-4d17-9a2a-a496fd083272"},"vehicle_type_id":"4","last_reported":1751400733,"current_range_meters":2000,"station_id":"ce4bhf92rcd13ifvqf50","pricing_plan_id":"cebpf4jnsgd1na2vs0mg"},{"bike_id":"71b3db48-ec74-495c-bef2-14b483aec94c","system_id":"levelo_inurba_marseille","lat":43.34141,"lon":5.40901,"is_reserved":false,"is_disabled":true,"rental_uris":{"android":"levelo://app?vid=71b3db48-ec74-495c-bef2-14b483aec94c","ios":"levelo://app?vid=71b3db48-ec74-495c-bef2-14b483aec94c"},"vehicle_type_id":"4","last_reported":1751400733,"current_range_meters":2000,"station_id":"ce4bhqh2rcd13ifvqhlg","pricing_plan_id":"cebpf4jnsgd1na2vs0mg"},{"bike_id":"35eaf94b-3848-4edc-b58e-7226640b820d","system_id":"levelo_inurba_marseille","lat":43.28601,"lon":5.3706,"is_reserved":false,"is_disabled":true,"rental_uris":{"android":"levelo://app?vid=35eaf94b-3848-4edc-b58e-7226640b820d","ios":"levelo://app?vid=35eaf94b-3848-4edc-b58e-7226640b820d"},"vehicle_type_id":"4","last_reported":1751400733,"current_range_meters":2000,"station_id":"ce4bht12rcd13ifvqi60","pricing_plan_id":"cebpf4jnsgd1na2vs0mg"},{"bike_id":"bb468528-fffd-42bd-b607-10452ce83063","system_id":"levelo_inurba_marseille","lat":43.323707,"lon":5.406912,"is_reserved":false,"is_disabled":false,"rental_uris":{"android":"levelo://app?vid=bb468528-fffd-42bd-b607-10452ce83063","ios":"levelo://app?vid=bb468528-fffd-42bd-b607-10452ce83063"},"vehicle_type_id":"4","last_reported":1751400733,"current_range_meters":2800,"station_id":"ce4bgih2rcd13ifvqba0","pricing_plan_id":"cebpf4jnsgd1na2vs0mg"},{"bike_id":"00156b82-1869-4ed1-8896-ff56ec28ce3e","system_id":"levelo_inurba_marseille","lat":43.3089,"lon":5.39652,"is_reserved":false,"is_disabled":false,"rental_uris":{"android":"levelo://app?vid=00156b82-1869-4ed1-8896-ff56ec28ce3e","ios":"levelo://app?vid=00156b82-1869-4ed1-8896-ff56ec28ce3e"},"vehicle_type_id":"4","last_reported":1751400733,"current_range_meters":2800,"station_id":"ce4bh012rcd13ifvqcv0","pricing_plan_id":"cebpf4jnsgd1na2vs0mg"},{"bike_id":"3bef9d28-8e65-4339-b9d6-eb432eb9ee64","system_id":"levelo_inurba_marseille","lat":43.280372,"lon":5.369468,"is_reserved":false,"is_disabled":false,"rental_uris":{"android":"levelo://app?vid=3bef9d28-8e65-4339-b9d6-eb432eb9ee64","ios":"levelo://app?vid=3bef9d28-8e65-4339-b9d6-eb432eb9ee64"},"vehicle_type_id":"4","last_reported":1751400733,"current_range_meters":3200,"station_id":"ce4bha12rcd13ifvqef0","pricing_plan_id":"cebpf4jnsgd1na2vs0mg"},{"bike_id":"a200a69c-df18-4153-b235-31ab4ff8fa2e","system_id":"levelo_inurba_marseille","lat":43.29309,"lon":5.3718,"is_reserved":false,"is_disabled":false,"rental_uris":{"android":"levelo://app?vid=a200a69c-df18-4153-b235-31ab4ff8fa2e","ios":"levelo://app?vid=a200a69c-df18-4153-b235-31ab4ff8fa2e"},"vehicle_type_id":"4","last_reported":1751400733,"current_range_meters":3600,"station_id":"ce4bgh92rcd13ifvqb40","pricing_plan_id":"cebpf4jnsgd1na2vs0mg"},{"bike_id":"025a95e3-39e3-47a7-8144-e6ba9ba58e35","system_id":"levelo_inurba_marseille","lat":43.29091,"lon":5.38144,"is_reserved":false,"is_disabled":false,"rental_uris":{"android":"levelo://app?vid=025a95e3-39e3-47a7-8144-e6ba9ba58e35","ios":"levelo://app?vid=025a95e3-39e3-47a7-8144-e6ba9ba58e35"},"vehicle_type_id":"4","last_reported":1751400733,"current_range_meters":3600,"station_id":"ce4bh512rcd13ifvqe2g","pricing_plan_id":"cebpf4jnsgd1na2vs0mg"},{"bike_id":"fd249475-256f-4d53-99bf-ae0152fc7375","system_id":"levelo_inurba_marseille","lat":43.28934,"lon":5.36641,"is_reserved":false,"is_disabled":false,"rental_uris":{"android":"levelo://app?vid=fd249475-256f-4d53-99bf-ae0152fc7375","ios":"levelo://app?vid=fd249475-256f-4d53-99bf-ae0152fc7375"},"vehicle_type_id":"4","last_reported":1751400733,"current_range_meters":3600,"station_id":"ce4bhap2rcd13ifvqek0","pricing_plan_id":"cebpf4jnsgd1na2vs0mg"},{"bike_id":"9fd9b9b3-486d-4356-bf15-3af1b70953cc","system_id":"levelo_inurba_marseille","lat":43.2848,"lon":5.38563,"is_reserved":false,"is_disabled":false,"rental_uris":{"android":"levelo://app?vid=9fd9b9b3-486d-4356-bf15-3af1b70953cc","ios":"levelo://app?vid=9fd9b9b3-486d-4356-bf15-3af1b70953cc"},"vehicle_type_id":"4","last_reported":1751400733,"current_range_meters":4000,"station_id":"ce4bh8p2rcd13ifvqeb0","pricing_plan_id":"cebpf4jnsgd1na2vs0mg"},{"bike_id":"b72c80d1-2411-479c-9f73-214d8794eec8","system_id":"levelo_inurba_marseille","lat":43.28036,"lon":5.36944,"is_reserved":false,"is_disabled":false,"rental_uris":{"android":"levelo://app?vid=b72c80d1-2411-479c-9f73-214d8794eec8","ios":"levelo://app?vid=b72c80d1-2411-479c-9f73-214d8794eec8"},"vehicle_type_id":"4","last_reported":1751400733,"current_range_meters":4000,"station_id":"ce4bha12rcd13ifvqef0","pricing_plan_id":"cebpf4jnsgd1na2vs0mg"},{"bike_id":"fed6d631-d36b-4965-9ef6-ed9bba2fc2fe","system_id":"levelo_inurba_marseille","lat":43.28699,"lon":5.39983,"is_reserved":false,"is_disabled":false,"rental_uris":{"android":"levelo://app?vid=fed6d631-d36b-4965-9ef6-ed9bba2fc2fe","ios":"levelo://app?vid=fed6d631-d36b-4965-9ef6-ed9bba2fc2fe"},"vehicle_type_id":"4","last_reported":1751400733,"current_range_meters":4000,"station_id":"ce4bho92rcd13ifvqh3g","pricing_plan_id":"cebpf4jnsgd1na2vs0mg"},{"bike_id":"b5840568-7346-487b-9c5e-6d4a3ccbc518","system_id":"levelo_inurba_marseille","lat":43.28926,"lon":5.38399,"is_reserved":false,"is_disabled":false,"rental_uris":{"android":"levelo://app?vid=b5840568-7346-487b-9c5e-6d4a3ccbc518","ios":"levelo://app?vid=b5840568-7346-487b-9c5e-6d4a3ccbc518"},"vehicle_type_id":"4","last_reported":1751400733,"current_range_meters":4400,"station_id":"","pricing_plan_id":"cebpf4jnsgd1na2vs0mg"},{"bike_id":"162af4e6-d224-4240-aeac-6cb0ae06de53","system_id":"levelo_inurba_marseille","lat":43.299,"lon":5.37868,"is_reserved":false,"is_disabled":false,"rental_uris":{"android":"levelo://app?vid=162af4e6-d224-4240-aeac-6cb0ae06de53","ios":"levelo://app?vid=162af4e6-d224-4240-aeac-6cb0ae06de53"},"vehicle_type_id":"4","last_reported":1751400733,"current_range_meters":4400,"station_id":"","pricing_plan_id":"cebpf4jnsgd1na2vs0mg"},{"bike_id":"9257f9ff-bec8-4a33-aa91-fe0ddd915033","system_id":"levelo_inurba_marseille","lat":43.246369,"lon":5.388295,"is_reserved":false,"is_disabled":false,"rental_uris":{"android":"levelo://app?vid=9257f9ff-bec8-4a33-aa91-fe0ddd915033","ios":"levelo://app?vid=9257f9ff-bec8-4a33-aa91-fe0ddd915033"},"vehicle_type_id":"4","last_reported":1751400733,"current_range_meters":4400,"station_id":"ce4bhg12rcd13ifvqf60","pricing_plan_id":"cebpf4jnsgd1na2vs0mg"},{"bike_id":"27219169-cd49-43e7-8995-fe321dbb895b","system_id":"levelo_inurba_marseille","lat":43.26209,"lon":5.37443,"is_reserved":false,"is_disabled":false,"rental_uris":{"android":"levelo://app?vid=27219169-cd49-43e7-8995-fe321dbb895b","ios":"levelo://app?vid=27219169-cd49-43e7-8995-fe321dbb895b"},"vehicle_type_id":"4","last_reported":1751400733,"current_range_meters":4800,"station_id":"ce4bhgp2rcd13ifvqfc0","pricing_plan_id":"cebpf4jnsgd1na2vs0mg"},{"bike_id":"dfd578c6-3028-47d8-bab5-a52655cbc8c2","system_id":"levelo_inurba_marseille","lat":43.21765,"lon":5.34592,"is_reserved":false,"is_disabled":false,"rental_uris":{"android":"levelo://app?vid=dfd578c6-3028-47d8-bab5-a52655cbc8c2","ios":"levelo://app?vid=dfd578c6-3028-47d8-bab5-a52655cbc8c2"},"vehicle_type_id":"4","last_reported":1751400733,"current_range_meters":5600,"station_id":"st_cvj6r9ubvosntc0bgbag","pricing_plan_id":"cebpf4jnsgd1na2vs0mg"},{"bike_id":"515796cb-d08f-4772-bd80-df433a51387e","system_id":"levelo_inurba_marseille","lat":43.3136,"lon":5.38486,"is_reserved":false,"is_disabled":false,"rental_uris":{"android":"levelo://app?vid=515796cb-d08f-4772-bd80-df433a51387e","ios":"levelo://app?vid=515796cb-d08f-4772-bd80-df433a51387e"},"vehicle_type_id":"4","last_reported":1751400733,"current_range_meters":6000,"station_id":"ce4bgt92rcd13ifvqcf0","pricing_plan_id":"cebpf4jnsgd1na2vs0mg"},{"bike_id":"e4934567-cad3-40c7-9359-785f2a03b2f0","system_id":"levelo_inurba_marseille","lat":43.32292,"lon":5.38267,"is_reserved":false,"is_disabled":false,"rental_uris":{"android":"levelo://app?vid=e4934567-cad3-40c7-9359-785f2a03b2f0","ios":"levelo://app?vid=e4934567-cad3-40c7-9359-785f2a03b2f0"},"vehicle_type_id":"4","last_reported":1751400733,"current_range_meters":6000,"station_id":"ce4bhr12rcd13ifvqhqg","pricing_plan_id":"cebpf4jnsgd1na2vs0mg"},{"bike_id":"9bbbb3ff-ab23-4bb5-ab4c-2d21cbed926e","system_id":"levelo_inurba_marseille","lat":43.29709,"lon":5.36619,"is_reserved":false,"is_disabled":false,"rental_uris":{"android":"levelo://app?vid=9bbbb3ff-ab23-4bb5-ab4c-2d21cbed926e","ios":"levelo://app?vid=9bbbb3ff-ab23-4bb5-ab4c-2d21cbed926e"},"vehicle_type_id":"4","last_reported":1751400733,"current_range_meters":6400,"station_id":"ce4bgn12rcd13ifvqbt0","pricing_plan_id":"cebpf4jnsgd1na2vs0mg"},{"bike_id":"fd24494a-5e31-4ec2-9603-17f20f2950ba","system_id":"levelo_inurba_marseille","lat":43.29071,"lon":5.37161,"is_reserved":false,"is_disabled":false,"rental_uris":{"android":"levelo://app?vid=fd24494a-5e31-4ec2-9603-17f20f2950ba","ios":"levelo://app?vid=fd24494a-5e31-4ec2-9603-17f20f2950ba"},"vehicle_type_id":"4","last_reported":1751400733,"current_range_meters":6400,"station_id":"ce4bh5p2rcd13ifvqe4g","pricing_plan_id":"cebpf4jnsgd1na2vs0mg"},{"bike_id":"11590693-8f59-403f-8233-36266dcb0ddf","system_id":"levelo_inurba_marseille","lat":43.21746,"lon":5.3462,"is_reserved":false,"is_disabled":false,"rental_uris":{"android":"levelo://app?vid=11590693-8f59-403f-8233-36266dcb0ddf","ios":"levelo://app?vid=11590693-8f59-403f-8233-36266dcb0ddf"},"vehicle_type_id":"4","last_reported":1751400733,"current_range_meters":6400,"station_id":"st_cvj6r9ubvosntc0bgbag","pricing_plan_id":"cebpf4jnsgd1na2vs0mg"},{"bike_id":"43fcb430-53f7-4349-b49c-62f8e6ea8db4","system_id":"levelo_inurba_marseille","lat":43.28462,"lon":5.436913,"is_reserved":false,"is_disabled":false,"rental_uris":{"android":"levelo://app?vid=43fcb430-53f7-4349-b49c-62f8e6ea8db4","ios":"levelo://app?vid=43fcb430-53f7-4349-b49c-62f8e6ea8db4"},"vehicle_type_id":"4","last_reported":1751400733,"current_range_meters":6800,"station_id":"","pricing_plan_id":"cebpf4jnsgd1na2vs0mg"},{"bike_id":"777abcb8-7a02-4155-a3d9-72ca76f39011","system_id":"levelo_inurba_marseille","lat":43.292716,"lon":5.376388,"is_reserved":false,"is_disabled":false,"rental_uris":{"android":"levelo://app?vid=777abcb8-7a02-4155-a3d9-72ca76f39011","ios":"levelo://app?vid=777abcb8-7a02-4155-a3d9-72ca76f39011"},"vehicle_type_id":"4","last_reported":1751400733,"current_range_meters":6800,"station_id":"ce4bgi12rcd13ifvqb70","pricing_plan_id":"cebpf4jnsgd1na2vs0mg"},{"bike_id":"1b811cf9-14e0-495b-9367-624d73bb5465","system_id":"levelo_inurba_marseille","lat":43.2962,"lon":5.37731,"is_reserved":false,"is_disabled":false,"rental_uris":{"android":"levelo://app?vid=1b811cf9-14e0-495b-9367-624d73bb5465","ios":"levelo://app?vid=1b811cf9-14e0-495b-9367-624d73bb5465"},"vehicle_type_id":"4","last_reported":1751400733,"current_range_meters":6800,"station_id":"ce4bgi92rcd13ifvqb90","pricing_plan_id":"cebpf4jnsgd1na2vs0mg"},{"bike_id":"c1df6654-2b66-4efc-8313-1c30f37f6c93","system_id":"levelo_inurba_marseille","lat":43.28412,"lon":5.37515,"is_reserved":false,"is_disabled":false,"rental_uris":{"android":"levelo://app?vid=c1df6654-2b66-4efc-8313-1c30f37f6c93","ios":"levelo://app?vid=c1df6654-2b66-4efc-8313-1c30f37f6c93"},"vehicle_type_id":"4","last_reported":1751400733,"current_range_meters":6800,"station_id":"ce4bh412rcd13ifvqds0","pricing_plan_id":"cebpf4jnsgd1na2vs0mg"},{"bike_id":"a2017121-8342-439c-9853-789b6ff0806f","system_id":"levelo_inurba_marseille","lat":43.21189,"lon":5.35078,"is_reserved":false,"is_disabled":false,"rental_uris":{"android":"levelo://app?vid=a2017121-8342-439c-9853-789b6ff0806f","ios":"levelo://app?vid=a2017121-8342-439c-9853-789b6ff0806f"},"vehicle_type_id":"4","last_reported":1751400733,"current_range_meters":6800,"station_id":"st_cvj6sg6p6f1abm77japg","pricing_plan_id":"cebpf4jnsgd1na2vs0mg"},{"bike_id":"9e7db215-e587-44f1-bb13-8fb52b386007","system_id":"levelo_inurba_marseille","lat":43.29839,"lon":5.36305,"is_reserved":false,"is_disabled":false,"rental_uris":{"android":"levelo://app?vid=9e7db215-e587-44f1-bb13-8fb52b386007","ios":"levelo://app?vid=9e7db215-e587-44f1-bb13-8fb52b386007"},"vehicle_type_id":"4","last_reported":1751400733,"current_range_meters":8000,"station_id":"ce4bgpp2rcd13ifvqc3g","pricing_plan_id":"cebpf4jnsgd1na2vs0mg"},{"bike_id":"20395405-d38f-45a6-9b87-98e31c0c7144","system_id":"levelo_inurba_marseille","lat":43.303123,"lon":5.369016,"is_reserved":false,"is_disabled":false,"rental_uris":{"android":"levelo://app?vid=20395405-d38f-45a6-9b87-98e31c0c7144","ios":"levelo://app?vid=20395405-d38f-45a6-9b87-98e31c0c7144"},"vehicle_type_id":"4","last_reported":1751400733,"current_range_meters":8000,"station_id":"ce4bgqh2rcd13ifvqc5g","pricing_plan_id":"cebpf4jnsgd1na2vs0mg"},{"bike_id":"5683d2b4-d960-4ce6-8162-df1a4f7e1426","system_id":"levelo_inurba_marseille","lat":43.31074,"lon":5.38345,"is_reserved":false,"is_disabled":false,"rental_uris":{"android":"levelo://app?vid=5683d2b4-d960-4ce6-8162-df1a4f7e1426","ios":"levelo://app?vid=5683d2b4-d960-4ce6-8162-df1a4f7e1426"},"vehicle_type_id":"4","last_reported":1751400733,"current_range_meters":8000,"station_id":"ce4bgv92rcd13ifvqcr0","pricing_plan_id":"cebpf4jnsgd1na2vs0mg"},{"bike_id":"4a4bbfaa-1dca-4d6f-8284-b53948d97242","system_id":"levelo_inurba_marseille","lat":43.30132,"lon":5.39859,"is_reserved":false,"is_disabled":false,"rental_uris":{"android":"levelo://app?vid=4a4bbfaa-1dca-4d6f-8284-b53948d97242","ios":"levelo://app?vid=4a4bbfaa-1dca-4d6f-8284-b53948d97242"},"vehicle_type_id":"4","last_reported":1751400733,"current_range_meters":8400,"station_id":"ce4bh0h2rcd13ifvqd40","pricing_plan_id":"cebpf4jnsgd1na2vs0mg"},{"bike_id":"518e6879-eb37-49f2-a210-935009227ab9","system_id":"levelo_inurba_marseille","lat":43.29099,"lon":5.38137,"is_reserved":false,"is_disabled":false,"rental_uris":{"android":"levelo://app?vid=518e6879-eb37-49f2-a210-935009227ab9","ios":"levelo://app?vid=518e6879-eb37-49f2-a210-935009227ab9"},"vehicle_type_id":"4","last_reported":1751400733,"current_range_meters":8400,"station_id":"ce4bh512rcd13ifvqe2g","pricing_plan_id":"cebpf4jnsgd1na2vs0mg"},{"bike_id":"a4f53683-b6f1-4471-8ec9-78a7269601dc","system_id":"levelo_inurba_marseille","lat":43.27964,"lon":5.38713,"is_reserved":false,"is_disabled":false,"rental_uris":{"android":"levelo://app?vid=a4f53683-b6f1-4471-8ec9-78a7269601dc","ios":"levelo://app?vid=a4f53683-b6f1-4471-8ec9-78a7269601dc"},"vehicle_type_id":"4","last_reported":1751400733,"current_range_meters":8400,"station_id":"ce4bhg12rcd13ifvqf80","pricing_plan_id":"cebpf4jnsgd1na2vs0mg"},{"bike_id":"58e8b1e0-da6c-4e3d-a9b0-d1e850a6b512","system_id":"levelo_inurba_marseille","lat":43.32364,"lon":5.38884,"is_reserved":false,"is_disabled":false,"rental_uris":{"android":"levelo://app?vid=58e8b1e0-da6c-4e3d-a9b0-d1e850a6b512","ios":"levelo://app?vid=58e8b1e0-da6c-4e3d-a9b0-d1e850a6b512"},"vehicle_type_id":"4","last_reported":1751400733,"current_range_meters":8400,"station_id":"ce4bhqp2rcd13ifvqhog","pricing_plan_id":"cebpf4jnsgd1na2vs0mg"},{"bike_id":"f7fda700-c9ad-44ec-b7fd-e10d2512b892","system_id":"levelo_inurba_marseille","lat":43.32108,"lon":5.36768,"is_reserved":false,"is_disabled":false,"rental_uris":{"android":"levelo://app?vid=f7fda700-c9ad-44ec-b7fd-e10d2512b892","ios":"levelo://app?vid=f7fda700-c9ad-44ec-b7fd-e10d2512b892"},"vehicle_type_id":"4","last_reported":1751400733,"current_range_meters":8400,"station_id":"ce4bhrh2rcd13ifvqhug","pricing_plan_id":"cebpf4jnsgd1na2vs0mg"},{"bike_id":"8252b44a-d048-4379-9209-2efa2e627825","system_id":"levelo_inurba_marseille","lat":43.29238,"lon":5.40554,"is_reserved":false,"is_disabled":false,"rental_uris":{"android":"levelo://app?vid=8252b44a-d048-4379-9209-2efa2e627825","ios":"levelo://app?vid=8252b44a-d048-4379-9209-2efa2e627825"},"vehicle_type_id":"4","last_reported":1751400733,"current_range_meters":8800,"station_id":"","pricing_plan_id":"cebpf4jnsgd1na2vs0mg"},{"bike_id":"a67e022c-d28f-4063-9e12-730b3efe1f04","system_id":"levelo_inurba_marseille","lat":43.29036,"lon":5.38647,"is_reserved":false,"is_disabled":false,"rental_uris":{"android":"levelo://app?vid=a67e022c-d28f-4063-9e12-730b3efe1f04","ios":"levelo://app?vid=a67e022c-d28f-4063-9e12-730b3efe1f04"},"vehicle_type_id":"4","last_reported":1751400733,"current_range_meters":8800,"station_id":"ce4bh4p2rcd13ifvqe0g","pricing_plan_id":"cebpf4jnsgd1na2vs0mg"},{"bike_id":"927a6915-8946-4594-9a9e-d9f81fcf4fd1","system_id":"levelo_inurba_marseille","lat":43.28856,"lon":5.35836,"is_reserved":false,"is_disabled":false,"rental_uris":{"android":"levelo://app?vid=927a6915-8946-4594-9a9e-d9f81fcf4fd1","ios":"levelo://app?vid=927a6915-8946-4594-9a9e-d9f81fcf4fd1"},"vehicle_type_id":"4","last_reported":1751400733,"current_range_meters":8800,"station_id":"ce4bhb12rcd13ifvqem0","pricing_plan_id":"cebpf4jnsgd1na2vs0mg"},{"bike_id":"059b4a34-a4b0-4d17-b95a-f5ab60644ca0","system_id":"levelo_inurba_marseille","lat":43.2606,"lon":5.39396,"is_reserved":false,"is_disabled":false,"rental_uris":{"android":"levelo://app?vid=059b4a34-a4b0-4d17-b95a-f5ab60644ca0","ios":"levelo://app?vid=059b4a34-a4b0-4d17-b95a-f5ab60644ca0"},"vehicle_type_id":"4","last_reported":1751400733,"current_range_meters":8800,"station_id":"ce4bhh92rcd13ifvqfj0","pricing_plan_id":"cebpf4jnsgd1na2vs0mg"},{"bike_id":"c856a7c0-474e-40db-8de2-de5b1d948146","system_id":"levelo_inurba_marseille","lat":43.31358,"lon":5.38487,"is_reserved":false,"is_disabled":false,"rental_uris":{"android":"levelo://app?vid=c856a7c0-474e-40db-8de2-de5b1d948146","ios":"levelo://app?vid=c856a7c0-474e-40db-8de2-de5b1d948146"},"vehicle_type_id":"4","last_reported":1751400733,"current_range_meters":9200,"station_id":"ce4bgt92rcd13ifvqcf0","pricing_plan_id":"cebpf4jnsgd1na2vs0mg"},{"bike_id":"537240dc-e65c-4699-9f8f-6af93adcfb6c","system_id":"levelo_inurba_marseille","lat":43.24071,"lon":5.37774,"is_reserved":false,"is_disabled":false,"rental_uris":{"android":"levelo://app?vid=537240dc-e65c-4699-9f8f-6af93adcfb6c","ios":"levelo://app?vid=537240dc-e65c-4699-9f8f-6af93adcfb6c"},"vehicle_type_id":"4","last_reported":1751400733,"current_range_meters":9200,"station_id":"ce4bhnp2rcd13ifvqgvg","pricing_plan_id":"cebpf4jnsgd1na2vs0mg"},{"bike_id":"b4731e7a-a1f3-4167-a536-09ee1a0c888e","system_id":"levelo_inurba_marseille","lat":43.33606,"lon":5.41034,"is_reserved":false,"is_disabled":false,"rental_uris":{"android":"levelo://app?vid=b4731e7a-a1f3-4167-a536-09ee1a0c888e","ios":"levelo://app?vid=b4731e7a-a1f3-4167-a536-09ee1a0c888e"},"vehicle_type_id":"4","last_reported":1751400733,"current_range_meters":9200,"station_id":"ce4bhqh2rcd13ifvqhmg","pricing_plan_id":"cebpf4jnsgd1na2vs0mg"},{"bike_id":"306eb33e-8f50-4c2b-8c1d-e3c1d1d6a295","system_id":"levelo_inurba_marseille","lat":43.31537,"lon":5.38028,"is_reserved":false,"is_disabled":false,"rental_uris":{"android":"levelo://app?vid=306eb33e-8f50-4c2b-8c1d-e3c1d1d6a295","ios":"levelo://app?vid=306eb33e-8f50-4c2b-8c1d-e3c1d1d6a295"},"vehicle_type_id":"4","last_reported":1751400733,"current_range_meters":9200,"station_id":"ce4bhsp2rcd13ifvqi50","pricing_plan_id":"cebpf4jnsgd1na2vs0mg"},{"bike_id":"28477ccc-cb48-44f2-8ac3-dc21d395da4f","system_id":"levelo_inurba_marseille","lat":43.22734,"lon":5.36565,"is_reserved":false,"is_disabled":false,"rental_uris":{"android":"levelo://app?vid=28477ccc-cb48-44f2-8ac3-dc21d395da4f","ios":"levelo://app?vid=28477ccc-cb48-44f2-8ac3-dc21d395da4f"},"vehicle_type_id":"4","last_reported":1751400733,"current_range_meters":9600,"station_id":"","pricing_plan_id":"cebpf4jnsgd1na2vs0mg"},{"bike_id":"b5ef3b1c-7bf1-41b8-a68d-0b870c10ac33","system_id":"levelo_inurba_marseille","lat":43.29986,"lon":5.38502,"is_reserved":false,"is_disabled":false,"rental_uris":{"android":"levelo://app?vid=b5ef3b1c-7bf1-41b8-a68d-0b870c10ac33","ios":"levelo://app?vid=b5ef3b1c-7bf1-41b8-a68d-0b870c10ac33"},"vehicle_type_id":"4","last_reported":1751400733,"current_range_meters":9600,"station_id":"ce4bgj92rcd13ifvqbd0","pricing_plan_id":"cebpf4jnsgd1na2vs0mg"},{"bike_id":"30a65773-d55a-4d6c-9332-956a5efd10d4","system_id":"levelo_inurba_marseille","lat":43.30444,"lon":5.38904,"is_reserved":false,"is_disabled":false,"rental_uris":{"android":"levelo://app?vid=30a65773-d55a-4d6c-9332-956a5efd10d4","ios":"levelo://app?vid=30a65773-d55a-4d6c-9332-956a5efd10d4"},"vehicle_type_id":"4","last_reported":1751400733,"current_range_meters":9600,"station_id":"ce4bgk12rcd13ifvqbi0","pricing_plan_id":"cebpf4jnsgd1na2vs0mg"},{"bike_id":"fd658628-a052-4578-ab3d-afa4e524d5dd","system_id":"levelo_inurba_marseille","lat":43.31071,"lon":5.38352,"is_reserved":false,"is_disabled":false,"rental_uris":{"android":"levelo://app?vid=fd658628-a052-4578-ab3d-afa4e524d5dd","ios":"levelo://app?vid=fd658628-a052-4578-ab3d-afa4e524d5dd"},"vehicle_type_id":"4","last_reported":1751400733,"current_range_meters":9600,"station_id":"ce4bgv92rcd13ifvqcr0","pricing_plan_id":"cebpf4jnsgd1na2vs0mg"},{"bike_id":"b2ec7371-4e1a-4f7b-ae6c-60c5a54c237b","system_id":"levelo_inurba_marseille","lat":43.21191,"lon":5.35069,"is_reserved":false,"is_disabled":false,"rental_uris":{"android":"levelo://app?vid=b2ec7371-4e1a-4f7b-ae6c-60c5a54c237b","ios":"levelo://app?vid=b2ec7371-4e1a-4f7b-ae6c-60c5a54c237b"},"vehicle_type_id":"4","last_reported":1751400733,"current_range_meters":9600,"station_id":"st_cvj6sg6p6f1abm77japg","pricing_plan_id":"cebpf4jnsgd1na2vs0mg"},{"bike_id":"8325b499-ad2a-44b3-bc81-291a086bda0a","system_id":"levelo_inurba_marseille","lat":43.297028,"lon":5.376925,"is_reserved":false,"is_disabled":false,"rental_uris":{"android":"levelo://app?vid=8325b499-ad2a-44b3-bc81-291a086bda0a","ios":"levelo://app?vid=8325b499-ad2a-44b3-bc81-291a086bda0a"},"vehicle_type_id":"4","last_reported":1751400733,"current_range_meters":10000,"station_id":"ce4bgip2rcd13ifvqbb0","pricing_plan_id":"cebpf4jnsgd1na2vs0mg"},{"bike_id":"6d2e093b-f09b-47f9-a8bb-522ea0f0b468","system_id":"levelo_inurba_marseille","lat":43.30483,"lon":5.39795,"is_reserved":false,"is_disabled":false,"rental_uris":{"android":"levelo://app?vid=6d2e093b-f09b-47f9-a8bb-522ea0f0b468","ios":"levelo://app?vid=6d2e093b-f09b-47f9-a8bb-522ea0f0b468"},"vehicle_type_id":"4","last_reported":1751400733,"current_range_meters":10000,"station_id":"ce4bh092rcd13ifvqd20","pricing_plan_id":"cebpf4jnsgd1na2vs0mg"},{"bike_id":"2b9f8f8a-e88a-4225-8e4d-bb5c53dd0bb7","system_id":"levelo_inurba_marseille","lat":43.24387,"lon":5.37055,"is_reserved":false,"is_disabled":false,"rental_uris":{"android":"levelo://app?vid=2b9f8f8a-e88a-4225-8e4d-bb5c53dd0bb7","ios":"levelo://app?vid=2b9f8f8a-e88a-4225-8e4d-bb5c53dd0bb7"},"vehicle_type_id":"4","last_reported":1751400733,"current_range_meters":10000,"station_id":"ce4bhhh2rcd13ifvqfk0","pricing_plan_id":"cebpf4jnsgd1na2vs0mg"},{"bike_id":"32fb07a3-d381-42e1-afd4-ccf048a2be6c","system_id":"levelo_inurba_marseille","lat":43.30913,"lon":5.3684,"is_reserved":false,"is_disabled":false,"rental_uris":{"android":"levelo://app?vid=32fb07a3-d381-42e1-afd4-ccf048a2be6c","ios":"levelo://app?vid=32fb07a3-d381-42e1-afd4-ccf048a2be6c"},"vehicle_type_id":"4","last_reported":1751400733,"current_range_meters":10800,"station_id":"ce4bgn92rcd13ifvqbvg","pricing_plan_id":"cebpf4jnsgd1na2vs0mg"},{"bike_id":"26ecc8f5-6ad6-46d2-8641-a9dd5e79d581","system_id":"levelo_inurba_marseille","lat":43.30421,"lon":5.3975,"is_reserved":false,"is_disabled":false,"rental_uris":{"android":"levelo://app?vid=26ecc8f5-6ad6-46d2-8641-a9dd5e79d581","ios":"levelo://app?vid=26ecc8f5-6ad6-46d2-8641-a9dd5e79d581"},"vehicle_type_id":"4","last_reported":1751400733,"current_range_meters":10800,"station_id":"ce4bh092rcd13ifvqd20","pricing_plan_id":"cebpf4jnsgd1na2vs0mg"},{"bike_id":"793105ce-0e1a-4811-969b-c398a13ba69b","system_id":"levelo_inurba_marseille","lat":43.30586,"lon":5.39359,"is_reserved":false,"is_disabled":false,"rental_uris":{"android":"levelo://app?vid=793105ce-0e1a-4811-969b-c398a13ba69b","ios":"levelo://app?vid=793105ce-0e1a-4811-969b-c398a13ba69b"},"vehicle_type_id":"4","last_reported":1751400733,"current_range_meters":10800,"station_id":"ce4bh0p2rcd13ifvqd80","pricing_plan_id":"cebpf4jnsgd1na2vs0mg"},{"bike_id":"2726f14f-8d32-4e17-9b3e-62cc809675e1","system_id":"levelo_inurba_marseille","lat":43.321074,"lon":5.367777,"is_reserved":false,"is_disabled":false,"rental_uris":{"android":"levelo://app?vid=2726f14f-8d32-4e17-9b3e-62cc809675e1","ios":"levelo://app?vid=2726f14f-8d32-4e17-9b3e-62cc809675e1"},"vehicle_type_id":"4","last_reported":1751400733,"current_range_meters":10800,"station_id":"ce4bhrh2rcd13ifvqhug","pricing_plan_id":"cebpf4jnsgd1na2vs0mg"},{"bike_id":"b28aa0a0-791c-4a08-9a16-c7bf6ea0ed5a","system_id":"levelo_inurba_marseille","lat":43.22506,"lon":5.34779,"is_reserved":false,"is_disabled":false,"rental_uris":{"android":"levelo://app?vid=b28aa0a0-791c-4a08-9a16-c7bf6ea0ed5a","ios":"levelo://app?vid=b28aa0a0-791c-4a08-9a16-c7bf6ea0ed5a"},"vehicle_type_id":"4","last_reported":1751400733,"current_range_meters":10800,"station_id":"st_cvj5dfep6f1abm77gieg","pricing_plan_id":"cebpf4jnsgd1na2vs0mg"},{"bike_id":"25ca3ae2-b4c4-49a7-bbe5-ca13bceedd9b","system_id":"levelo_inurba_marseille","lat":43.307976,"lon":5.370174,"is_reserved":false,"is_disabled":false,"rental_uris":{"android":"levelo://app?vid=25ca3ae2-b4c4-49a7-bbe5-ca13bceedd9b","ios":"levelo://app?vid=25ca3ae2-b4c4-49a7-bbe5-ca13bceedd9b"},"vehicle_type_id":"4","last_reported":1751400733,"current_range_meters":11200,"station_id":"","pricing_plan_id":"cebpf4jnsgd1na2vs0mg"},{"bike_id":"2b051b97-cd2b-4c4b-99f1-42c2f572b63e","system_id":"levelo_inurba_marseille","lat":43.27377,"lon":5.36178,"is_reserved":false,"is_disabled":false,"rental_uris":{"android":"levelo://app?vid=2b051b97-cd2b-4c4b-99f1-42c2f572b63e","ios":"levelo://app?vid=2b051b97-cd2b-4c4b-99f1-42c2f572b63e"},"vehicle_type_id":"4","last_reported":1751400733,"current_range_meters":11200,"station_id":"","pricing_plan_id":"cebpf4jnsgd1na2vs0mg"},{"bike_id":"f1e5be12-0cbc-4a54-bc59-09113c03cd84","system_id":"levelo_inurba_marseille","lat":43.30873,"lon":5.36852,"is_reserved":false,"is_disabled":false,"rental_uris":{"android":"levelo://app?vid=f1e5be12-0cbc-4a54-bc59-09113c03cd84","ios":"levelo://app?vid=f1e5be12-0cbc-4a54-bc59-09113c03cd84"},"vehicle_type_id":"4","last_reported":1751400733,"current_range_meters":11200,"station_id":"ce4bgn92rcd13ifvqbvg","pricing_plan_id":"cebpf4jnsgd1na2vs0mg"},{"bike_id":"c2b72fe0-bae6-4c7b-ad48-9e771b203dc8","system_id":"levelo_inurba_marseille","lat":43.313465,"lon":5.384724,"is_reserved":false,"is_disabled":false,"rental_uris":{"android":"levelo://app?vid=c2b72fe0-bae6-4c7b-ad48-9e771b203dc8","ios":"levelo://app?vid=c2b72fe0-bae6-4c7b-ad48-9e771b203dc8"},"vehicle_type_id":"4","last_reported":1751400733,"current_range_meters":11200,"station_id":"ce4bgt92rcd13ifvqcf0","pricing_plan_id":"cebpf4jnsgd1na2vs0mg"},{"bike_id":"974fbe3d-8c91-465e-8b62-f2388a60ae3c","system_id":"levelo_inurba_marseille","lat":43.28411,"lon":5.37507,"is_reserved":false,"is_disabled":false,"rental_uris":{"android":"levelo://app?vid=974fbe3d-8c91-465e-8b62-f2388a60ae3c","ios":"levelo://app?vid=974fbe3d-8c91-465e-8b62-f2388a60ae3c"},"vehicle_type_id":"4","last_reported":1751400733,"current_range_meters":11200,"station_id":"ce4bh412rcd13ifvqds0","pricing_plan_id":"cebpf4jnsgd1na2vs0mg"},{"bike_id":"27e3b2c9-110a-4b9f-ab6b-cabab85b55cf","system_id":"levelo_inurba_marseille","lat":43.27377,"lon":5.36241,"is_reserved":false,"is_disabled":false,"rental_uris":{"android":"levelo://app?vid=27e3b2c9-110a-4b9f-ab6b-cabab85b55cf","ios":"levelo://app?vid=27e3b2c9-110a-4b9f-ab6b-cabab85b55cf"},"vehicle_type_id":"4","last_reported":1751400733,"current_range_meters":11200,"station_id":"ce4bhbh2rcd13ifvqeo0","pricing_plan_id":"cebpf4jnsgd1na2vs0mg"},{"bike_id":"53880846-3e37-43ee-8705-e558b94b2c7f","system_id":"levelo_inurba_marseille","lat":43.23154,"lon":5.43708,"is_reserved":false,"is_disabled":false,"rental_uris":{"android":"levelo://app?vid=53880846-3e37-43ee-8705-e558b94b2c7f","ios":"levelo://app?vid=53880846-3e37-43ee-8705-e558b94b2c7f"},"vehicle_type_id":"4","last_reported":1751400733,"current_range_meters":11200,"station_id":"ce4bhmp2rcd13ifvqgog","pricing_plan_id":"cebpf4jnsgd1na2vs0mg"},{"bike_id":"56e64bcf-f200-44fd-abd2-6708533de3eb","system_id":"levelo_inurba_marseille","lat":43.24082,"lon":5.37751,"is_reserved":false,"is_disabled":false,"rental_uris":{"android":"levelo://app?vid=56e64bcf-f200-44fd-abd2-6708533de3eb","ios":"levelo://app?vid=56e64bcf-f200-44fd-abd2-6708533de3eb"},"vehicle_type_id":"4","last_reported":1751400733,"current_range_meters":11200,"station_id":"ce4bhnp2rcd13ifvqgvg","pricing_plan_id":"cebpf4jnsgd1na2vs0mg"},{"bike_id":"4a8aca72-3c80-4618-9c63-6206f95ba075","system_id":"levelo_inurba_marseille","lat":43.32364,"lon":5.38883,"is_reserved":false,"is_disabled":false,"rental_uris":{"android":"levelo://app?vid=4a8aca72-3c80-4618-9c63-6206f95ba075","ios":"levelo://app?vid=4a8aca72-3c80-4618-9c63-6206f95ba075"},"vehicle_type_id":"4","last_reported":1751400733,"current_range_meters":11200,"station_id":"ce4bhqp2rcd13ifvqhog","pricing_plan_id":"cebpf4jnsgd1na2vs0mg"},{"bike_id":"8f10a9ab-b2d1-48a1-84c5-75424f1b18f7","system_id":"levelo_inurba_marseille","lat":43.21186,"lon":5.35071,"is_reserved":false,"is_disabled":false,"rental_uris":{"android":"levelo://app?vid=8f10a9ab-b2d1-48a1-84c5-75424f1b18f7","ios":"levelo://app?vid=8f10a9ab-b2d1-48a1-84c5-75424f1b18f7"},"vehicle_type_id":"4","last_reported":1751400733,"current_range_meters":11200,"station_id":"st_cvj6sg6p6f1abm77japg","pricing_plan_id":"cebpf4jnsgd1na2vs0mg"},{"bike_id":"816fad14-bdd6-4f78-92e6-ea40138f9a01","system_id":"levelo_inurba_marseille","lat":43.29221,"lon":5.36813,"is_reserved":false,"is_disabled":false,"rental_uris":{"android":"levelo://app?vid=816fad14-bdd6-4f78-92e6-ea40138f9a01","ios":"levelo://app?vid=816fad14-bdd6-4f78-92e6-ea40138f9a01"},"vehicle_type_id":"4","last_reported":1751400733,"current_range_meters":11600,"station_id":"ce4bhbp2rcd13ifvqesg","pricing_plan_id":"cebpf4jnsgd1na2vs0mg"},{"bike_id":"5631c7ea-fb56-4ee9-8df0-6e0aa2f0ff30","system_id":"levelo_inurba_marseille","lat":43.241703,"lon":5.363944,"is_reserved":false,"is_disabled":false,"rental_uris":{"android":"levelo://app?vid=5631c7ea-fb56-4ee9-8df0-6e0aa2f0ff30","ios":"levelo://app?vid=5631c7ea-fb56-4ee9-8df0-6e0aa2f0ff30"},"vehicle_type_id":"4","last_reported":1751400733,"current_range_meters":11600,"station_id":"cpo36qri1sfpv3e86is0","pricing_plan_id":"cebpf4jnsgd1na2vs0mg"},{"bike_id":"34ef8d19-abd3-418b-af23-9942dadb071a","system_id":"levelo_inurba_marseille","lat":43.21178,"lon":5.35071,"is_reserved":false,"is_disabled":false,"rental_uris":{"android":"levelo://app?vid=34ef8d19-abd3-418b-af23-9942dadb071a","ios":"levelo://app?vid=34ef8d19-abd3-418b-af23-9942dadb071a"},"vehicle_type_id":"4","last_reported":1751400733,"current_range_meters":12000,"station_id":"st_cvj6sg6p6f1abm77japg","pricing_plan_id":"cebpf4jnsgd1na2vs0mg"},{"bike_id":"5ea1dd93-3c49-4f8f-bb7f-00d3c982b0ae","system_id":"levelo_inurba_marseille","lat":43.22504,"lon":5.34786,"is_reserved":false,"is_disabled":false,"rental_uris":{"android":"levelo://app?vid=5ea1dd93-3c49-4f8f-bb7f-00d3c982b0ae","ios":"levelo://app?vid=5ea1dd93-3c49-4f8f-bb7f-00d3c982b0ae"},"vehicle_type_id":"4","last_reported":1751400733,"current_range_meters":12400,"station_id":"","pricing_plan_id":"cebpf4jnsgd1na2vs0mg"},{"bike_id":"6aaf3767-987e-4731-8a91-a2bfd07a2581","system_id":"levelo_inurba_marseille","lat":43.29364,"lon":5.37834,"is_reserved":false,"is_disabled":false,"rental_uris":{"android":"levelo://app?vid=6aaf3767-987e-4731-8a91-a2bfd07a2581","ios":"levelo://app?vid=6aaf3767-987e-4731-8a91-a2bfd07a2581"},"vehicle_type_id":"4","last_reported":1751400733,"current_range_meters":12400,"station_id":"ce4bgjh2rcd13ifvqbf0","pricing_plan_id":"cebpf4jnsgd1na2vs0mg"},{"bike_id":"6bb98e8c-36c3-4827-99e3-2054c0ec4a6a","system_id":"levelo_inurba_marseille","lat":43.30535,"lon":5.36724,"is_reserved":false,"is_disabled":false,"rental_uris":{"android":"levelo://app?vid=6bb98e8c-36c3-4827-99e3-2054c0ec4a6a","ios":"levelo://app?vid=6bb98e8c-36c3-4827-99e3-2054c0ec4a6a"},"vehicle_type_id":"4","last_reported":1751400733,"current_range_meters":12400,"station_id":"ce4bgrp2rcd13ifvqc9g","pricing_plan_id":"cebpf4jnsgd1na2vs0mg"},{"bike_id":"36bfa61b-6e1b-421e-b749-bd25c083f01d","system_id":"levelo_inurba_marseille","lat":43.3127,"lon":5.4018,"is_reserved":false,"is_disabled":false,"rental_uris":{"android":"levelo://app?vid=36bfa61b-6e1b-421e-b749-bd25c083f01d","ios":"levelo://app?vid=36bfa61b-6e1b-421e-b749-bd25c083f01d"},"vehicle_type_id":"4","last_reported":1751400733,"current_range_meters":12400,"station_id":"ce4bh092rcd13ifvqd30","pricing_plan_id":"cebpf4jnsgd1na2vs0mg"},{"bike_id":"56d3de08-12a7-4dea-a817-9cf3afdd62f6","system_id":"levelo_inurba_marseille","lat":43.25497,"lon":5.37631,"is_reserved":false,"is_disabled":false,"rental_uris":{"android":"levelo://app?vid=56d3de08-12a7-4dea-a817-9cf3afdd62f6","ios":"levelo://app?vid=56d3de08-12a7-4dea-a817-9cf3afdd62f6"},"vehicle_type_id":"4","last_reported":1751400733,"current_range_meters":12400,"station_id":"ce4bhh12rcd13ifvqff0","pricing_plan_id":"cebpf4jnsgd1na2vs0mg"},{"bike_id":"10559361-f3b0-4e8f-9264-c477ac355365","system_id":"levelo_inurba_marseille","lat":43.27177,"lon":5.40993,"is_reserved":false,"is_disabled":false,"rental_uris":{"android":"levelo://app?vid=10559361-f3b0-4e8f-9264-c477ac355365","ios":"levelo://app?vid=10559361-f3b0-4e8f-9264-c477ac355365"},"vehicle_type_id":"4","last_reported":1751400733,"current_range_meters":12400,"station_id":"ce4bhl12rcd13ifvqgf0","pricing_plan_id":"cebpf4jnsgd1na2vs0mg"},{"bike_id":"28c513f7-31ec-4258-b651-19113fb8c06e","system_id":"levelo_inurba_marseille","lat":43.25107,"lon":5.40323,"is_reserved":false,"is_disabled":false,"rental_uris":{"android":"levelo://app?vid=28c513f7-31ec-4258-b651-19113fb8c06e","ios":"levelo://app?vid=28c513f7-31ec-4258-b651-19113fb8c06e"},"vehicle_type_id":"4","last_reported":1751400733,"current_range_meters":12400,"station_id":"ce4bhlh2rcd13ifvqgig","pricing_plan_id":"cebpf4jnsgd1na2vs0mg"},{"bike_id":"8686853f-4c76-42d4-853a-8b0762870909","system_id":"levelo_inurba_marseille","lat":43.2869,"lon":5.39977,"is_reserved":false,"is_disabled":false,"rental_uris":{"android":"levelo://app?vid=8686853f-4c76-42d4-853a-8b0762870909","ios":"levelo://app?vid=8686853f-4c76-42d4-853a-8b0762870909"},"vehicle_type_id":"4","last_reported":1751400733,"current_range_meters":12400,"station_id":"ce4bho92rcd13ifvqh3g","pricing_plan_id":"cebpf4jnsgd1na2vs0mg"},{"bike_id":"c0228700-5312-4a39-89af-ec53a5d729c5","system_id":"levelo_inurba_marseille","lat":43.28305,"lon":5.43222,"is_reserved":false,"is_disabled":false,"rental_uris":{"android":"levelo://app?vid=c0228700-5312-4a39-89af-ec53a5d729c5","ios":"levelo://app?vid=c0228700-5312-4a39-89af-ec53a5d729c5"},"vehicle_type_id":"4","last_reported":1751400733,"current_range_meters":12800,"station_id":"","pricing_plan_id":"cebpf4jnsgd1na2vs0mg"},{"bike_id":"4845bc49-093c-465d-97e2-00f22ae65f1e","system_id":"levelo_inurba_marseille","lat":43.30432,"lon":5.38892,"is_reserved":false,"is_disabled":false,"rental_uris":{"android":"levelo://app?vid=4845bc49-093c-465d-97e2-00f22ae65f1e","ios":"levelo://app?vid=4845bc49-093c-465d-97e2-00f22ae65f1e"},"vehicle_type_id":"4","last_reported":1751400733,"current_range_meters":12800,"station_id":"ce4bgk12rcd13ifvqbi0","pricing_plan_id":"cebpf4jnsgd1na2vs0mg"},{"bike_id":"a0fee4a0-d255-44d8-85d9-fd32ba974a7f","system_id":"levelo_inurba_marseille","lat":43.29262,"lon":5.38448,"is_reserved":false,"is_disabled":false,"rental_uris":{"android":"levelo://app?vid=a0fee4a0-d255-44d8-85d9-fd32ba974a7f","ios":"levelo://app?vid=a0fee4a0-d255-44d8-85d9-fd32ba974a7f"},"vehicle_type_id":"4","last_reported":1751400733,"current_range_meters":12800,"station_id":"ce4bh692rcd13ifvqea0","pricing_plan_id":"cebpf4jnsgd1na2vs0mg"},{"bike_id":"b52d6b86-9077-4452-89c5-b3a84ca0a422","system_id":"levelo_inurba_marseille","lat":43.28851,"lon":5.35832,"is_reserved":false,"is_disabled":false,"rental_uris":{"android":"levelo://app?vid=b52d6b86-9077-4452-89c5-b3a84ca0a422","ios":"levelo://app?vid=b52d6b86-9077-4452-89c5-b3a84ca0a422"},"vehicle_type_id":"4","last_reported":1751400733,"current_range_meters":12800,"station_id":"ce4bhb12rcd13ifvqem0","pricing_plan_id":"cebpf4jnsgd1na2vs0mg"},{"bike_id":"a0ffdf28-d659-45dc-b870-b2d591eeef83","system_id":"levelo_inurba_marseille","lat":43.25744,"lon":5.41091,"is_reserved":false,"is_disabled":false,"rental_uris":{"android":"levelo://app?vid=a0ffdf28-d659-45dc-b870-b2d591eeef83","ios":"levelo://app?vid=a0ffdf28-d659-45dc-b870-b2d591eeef83"},"vehicle_type_id":"4","last_reported":1751400733,"current_range_meters":12800,"station_id":"ce4bhkp2rcd13ifvqgd0","pricing_plan_id":"cebpf4jnsgd1na2vs0mg"},{"bike_id":"c61036a9-1a66-4480-8bd4-cd2fb585b287","system_id":"levelo_inurba_marseille","lat":43.26973,"lon":5.40574,"is_reserved":false,"is_disabled":false,"rental_uris":{"android":"levelo://app?vid=c61036a9-1a66-4480-8bd4-cd2fb585b287","ios":"levelo://app?vid=c61036a9-1a66-4480-8bd4-cd2fb585b287"},"vehicle_type_id":"4","last_reported":1751400733,"current_range_meters":13600,"station_id":"","pricing_plan_id":"cebpf4jnsgd1na2vs0mg"},{"bike_id":"0af63ecd-7626-4e2c-98e8-d39df98e3308","system_id":"levelo_inurba_marseille","lat":43.30324,"lon":5.40429,"is_reserved":false,"is_disabled":false,"rental_uris":{"android":"levelo://app?vid=0af63ecd-7626-4e2c-98e8-d39df98e3308","ios":"levelo://app?vid=0af63ecd-7626-4e2c-98e8-d39df98e3308"},"vehicle_type_id":"4","last_reported":1751400733,"current_range_meters":13600,"station_id":"ce4bh012rcd13ifvqd10","pricing_plan_id":"cebpf4jnsgd1na2vs0mg"},{"bike_id":"b46ed3a4-667d-4356-9ad2-8038ada04b28","system_id":"levelo_inurba_marseille","lat":43.29259,"lon":5.38439,"is_reserved":false,"is_disabled":false,"rental_uris":{"android":"levelo://app?vid=b46ed3a4-667d-4356-9ad2-8038ada04b28","ios":"levelo://app?vid=b46ed3a4-667d-4356-9ad2-8038ada04b28"},"vehicle_type_id":"4","last_reported":1751400733,"current_range_meters":13600,"station_id":"ce4bh692rcd13ifvqea0","pricing_plan_id":"cebpf4jnsgd1na2vs0mg"},{"bike_id":"5ff643b2-ceaf-4da3-974c-bb84c287f26e","system_id":"levelo_inurba_marseille","lat":43.27363,"lon":5.36251,"is_reserved":false,"is_disabled":false,"rental_uris":{"android":"levelo://app?vid=5ff643b2-ceaf-4da3-974c-bb84c287f26e","ios":"levelo://app?vid=5ff643b2-ceaf-4da3-974c-bb84c287f26e"},"vehicle_type_id":"4","last_reported":1751400733,"current_range_meters":13600,"station_id":"ce4bhbh2rcd13ifvqeo0","pricing_plan_id":"cebpf4jnsgd1na2vs0mg"},{"bike_id":"c6595032-3717-4368-bcfa-2de0cff1adfc","system_id":"levelo_inurba_marseille","lat":43.27212,"lon":5.39177,"is_reserved":false,"is_disabled":false,"rental_uris":{"android":"levelo://app?vid=c6595032-3717-4368-bcfa-2de0cff1adfc","ios":"levelo://app?vid=c6595032-3717-4368-bcfa-2de0cff1adfc"},"vehicle_type_id":"4","last_reported":1751400733,"current_range_meters":13600,"station_id":"ce4bhhp2rcd13ifvqfm0","pricing_plan_id":"cebpf4jnsgd1na2vs0mg"},{"bike_id":"a3425247-2e1f-41e3-b2b5-8d55d89461d3","system_id":"levelo_inurba_marseille","lat":43.28709,"lon":5.39986,"is_reserved":false,"is_disabled":false,"rental_uris":{"android":"levelo://app?vid=a3425247-2e1f-41e3-b2b5-8d55d89461d3","ios":"levelo://app?vid=a3425247-2e1f-41e3-b2b5-8d55d89461d3"},"vehicle_type_id":"4","last_reported":1751400733,"current_range_meters":13600,"station_id":"ce4bho92rcd13ifvqh3g","pricing_plan_id":"cebpf4jnsgd1na2vs0mg"},{"bike_id":"bbe4ccb3-7aa4-4da0-9051-c7c2900e028d","system_id":"levelo_inurba_marseille","lat":43.31537,"lon":5.38016,"is_reserved":false,"is_disabled":false,"rental_uris":{"android":"levelo://app?vid=bbe4ccb3-7aa4-4da0-9051-c7c2900e028d","ios":"levelo://app?vid=bbe4ccb3-7aa4-4da0-9051-c7c2900e028d"},"vehicle_type_id":"4","last_reported":1751400733,"current_range_meters":13600,"station_id":"ce4bhsp2rcd13ifvqi50","pricing_plan_id":"cebpf4jnsgd1na2vs0mg"},{"bike_id":"77004bf5-7e6e-4acd-baf5-aa0fe5fc4df1","system_id":"levelo_inurba_marseille","lat":43.29786,"lon":5.38118,"is_reserved":false,"is_disabled":false,"rental_uris":{"android":"levelo://app?vid=77004bf5-7e6e-4acd-baf5-aa0fe5fc4df1","ios":"levelo://app?vid=77004bf5-7e6e-4acd-baf5-aa0fe5fc4df1"},"vehicle_type_id":"4","last_reported":1751400733,"current_range_meters":14000,"station_id":"ce4bgip2rcd13ifvqbb0","pricing_plan_id":"cebpf4jnsgd1na2vs0mg"},{"bike_id":"9eb07496-515a-424d-a1b3-7c6177672a79","system_id":"levelo_inurba_marseille","lat":43.27367,"lon":5.36262,"is_reserved":false,"is_disabled":false,"rental_uris":{"android":"levelo://app?vid=9eb07496-515a-424d-a1b3-7c6177672a79","ios":"levelo://app?vid=9eb07496-515a-424d-a1b3-7c6177672a79"},"vehicle_type_id":"4","last_reported":1751400733,"current_range_meters":14000,"station_id":"ce4bhbh2rcd13ifvqeo0","pricing_plan_id":"cebpf4jnsgd1na2vs0mg"},{"bike_id":"7b84068f-220f-48c2-b143-6f2e0f056535","system_id":"levelo_inurba_marseille","lat":43.25497,"lon":5.37653,"is_reserved":false,"is_disabled":false,"rental_uris":{"android":"levelo://app?vid=7b84068f-220f-48c2-b143-6f2e0f056535","ios":"levelo://app?vid=7b84068f-220f-48c2-b143-6f2e0f056535"},"vehicle_type_id":"4","last_reported":1751400733,"current_range_meters":14000,"station_id":"ce4bhh12rcd13ifvqff0","pricing_plan_id":"cebpf4jnsgd1na2vs0mg"},{"bike_id":"6335e18e-9829-4571-82f7-23b6ce10fe5e","system_id":"levelo_inurba_marseille","lat":43.24149,"lon":5.36408,"is_reserved":false,"is_disabled":false,"rental_uris":{"android":"levelo://app?vid=6335e18e-9829-4571-82f7-23b6ce10fe5e","ios":"levelo://app?vid=6335e18e-9829-4571-82f7-23b6ce10fe5e"},"vehicle_type_id":"4","last_reported":1751400733,"current_range_meters":14000,"station_id":"cpo36qri1sfpv3e86is0","pricing_plan_id":"cebpf4jnsgd1na2vs0mg"},{"bike_id":"86fa6ce7-8cbe-47ff-b5d3-c2b4938fd05c","system_id":"levelo_inurba_marseille","lat":43.21217,"lon":5.3505,"is_reserved":false,"is_disabled":false,"rental_uris":{"android":"levelo://app?vid=86fa6ce7-8cbe-47ff-b5d3-c2b4938fd05c","ios":"levelo://app?vid=86fa6ce7-8cbe-47ff-b5d3-c2b4938fd05c"},"vehicle_type_id":"4","last_reported":1751400733,"current_range_meters":14400,"station_id":"","pricing_plan_id":"cebpf4jnsgd1na2vs0mg"},{"bike_id":"0a71b145-6213-4713-9822-d1ac584dfd39","system_id":"levelo_inurba_marseille","lat":43.23966,"lon":5.36626,"is_reserved":false,"is_disabled":false,"rental_uris":{"android":"levelo://app?vid=0a71b145-6213-4713-9822-d1ac584dfd39","ios":"levelo://app?vid=0a71b145-6213-4713-9822-d1ac584dfd39"},"vehicle_type_id":"4","last_reported":1751400733,"current_range_meters":14400,"station_id":"ce4bhi12rcd13ifvqfp0","pricing_plan_id":"cebpf4jnsgd1na2vs0mg"},{"bike_id":"39b6888d-58e4-4d91-b73c-294945f07694","system_id":"levelo_inurba_marseille","lat":43.27633,"lon":5.36085,"is_reserved":false,"is_disabled":false,"rental_uris":{"android":"levelo://app?vid=39b6888d-58e4-4d91-b73c-294945f07694","ios":"levelo://app?vid=39b6888d-58e4-4d91-b73c-294945f07694"},"vehicle_type_id":"4","last_reported":1751400733,"current_range_meters":14800,"station_id":"ce4bgj92rcd13ifvqbe0","pricing_plan_id":"cebpf4jnsgd1na2vs0mg"},{"bike_id":"c40f2e9f-9544-46fe-98b1-cea84d7bd801","system_id":"levelo_inurba_marseille","lat":43.3054,"lon":5.365285,"is_reserved":false,"is_disabled":false,"rental_uris":{"android":"levelo://app?vid=c40f2e9f-9544-46fe-98b1-cea84d7bd801","ios":"levelo://app?vid=c40f2e9f-9544-46fe-98b1-cea84d7bd801"},"vehicle_type_id":"4","last_reported":1751400733,"current_range_meters":14800,"station_id":"ce4bgs12rcd13ifvqcag","pricing_plan_id":"cebpf4jnsgd1na2vs0mg"},{"bike_id":"982daa62-4b78-45bd-b40b-7125baef656b","system_id":"levelo_inurba_marseille","lat":43.29252,"lon":5.40906,"is_reserved":false,"is_disabled":false,"rental_uris":{"android":"levelo://app?vid=982daa62-4b78-45bd-b40b-7125baef656b","ios":"levelo://app?vid=982daa62-4b78-45bd-b40b-7125baef656b"},"vehicle_type_id":"4","last_reported":1751400733,"current_range_meters":14800,"station_id":"ce4bh192rcd13ifvqdc0","pricing_plan_id":"cebpf4jnsgd1na2vs0mg"},{"bike_id":"a6321802-f557-45ea-a34d-80c4fd0b9efb","system_id":"levelo_inurba_marseille","lat":43.29036,"lon":5.38648,"is_reserved":false,"is_disabled":false,"rental_uris":{"android":"levelo://app?vid=a6321802-f557-45ea-a34d-80c4fd0b9efb","ios":"levelo://app?vid=a6321802-f557-45ea-a34d-80c4fd0b9efb"},"vehicle_type_id":"4","last_reported":1751400733,"current_range_meters":14800,"station_id":"ce4bh4p2rcd13ifvqe0g","pricing_plan_id":"cebpf4jnsgd1na2vs0mg"},{"bike_id":"a119f6e6-6cd9-4b32-ad2d-a919c31d2a86","system_id":"levelo_inurba_marseille","lat":43.29171,"lon":5.37158,"is_reserved":false,"is_disabled":false,"rental_uris":{"android":"levelo://app?vid=a119f6e6-6cd9-4b32-ad2d-a919c31d2a86","ios":"levelo://app?vid=a119f6e6-6cd9-4b32-ad2d-a919c31d2a86"},"vehicle_type_id":"4","last_reported":1751400733,"current_range_meters":14800,"station_id":"ce4bha92rcd13ifvqeh0","pricing_plan_id":"cebpf4jnsgd1na2vs0mg"},{"bike_id":"c0e2dfb5-d3b3-4b12-a001-a14be74e0541","system_id":"levelo_inurba_marseille","lat":43.24549,"lon":5.39519,"is_reserved":false,"is_disabled":false,"rental_uris":{"android":"levelo://app?vid=c0e2dfb5-d3b3-4b12-a001-a14be74e0541","ios":"levelo://app?vid=c0e2dfb5-d3b3-4b12-a001-a14be74e0541"},"vehicle_type_id":"4","last_reported":1751400733,"current_range_meters":14800,"station_id":"ce4bhlp2rcd13ifvqgjg","pricing_plan_id":"cebpf4jnsgd1na2vs0mg"},{"bike_id":"f27f9cd2-443f-4290-8181-7f89b9c3a9fc","system_id":"levelo_inurba_marseille","lat":43.30795,"lon":5.43531,"is_reserved":false,"is_disabled":false,"rental_uris":{"android":"levelo://app?vid=f27f9cd2-443f-4290-8181-7f89b9c3a9fc","ios":"levelo://app?vid=f27f9cd2-443f-4290-8181-7f89b9c3a9fc"},"vehicle_type_id":"4","last_reported":1751400733,"current_range_meters":14800,"station_id":"ce4bhph2rcd13ifvqheg","pricing_plan_id":"cebpf4jnsgd1na2vs0mg"},{"bike_id":"670352d3-ba5f-4bd2-a411-8499634517d3","system_id":"levelo_inurba_marseille","lat":43.3234,"lon":5.40626,"is_reserved":false,"is_disabled":false,"rental_uris":{"android":"levelo://app?vid=670352d3-ba5f-4bd2-a411-8499634517d3","ios":"levelo://app?vid=670352d3-ba5f-4bd2-a411-8499634517d3"},"vehicle_type_id":"4","last_reported":1751400733,"current_range_meters":14800,"station_id":"ce4bhq92rcd13ifvqhjg","pricing_plan_id":"cebpf4jnsgd1na2vs0mg"},{"bike_id":"a3c4fa24-c9a4-4ed2-bd5d-a966bf4a30f5","system_id":"levelo_inurba_marseille","lat":43.299051,"lon":5.381346,"is_reserved":false,"is_disabled":false,"rental_uris":{"android":"levelo://app?vid=a3c4fa24-c9a4-4ed2-bd5d-a966bf4a30f5","ios":"levelo://app?vid=a3c4fa24-c9a4-4ed2-bd5d-a966bf4a30f5"},"vehicle_type_id":"4","last_reported":1751400733,"current_range_meters":15200,"station_id":"","pricing_plan_id":"cebpf4jnsgd1na2vs0mg"},{"bike_id":"aed36015-f689-43c7-8fad-6fa7d61fa308","system_id":"levelo_inurba_marseille","lat":43.3361,"lon":5.41036,"is_reserved":false,"is_disabled":false,"rental_uris":{"android":"levelo://app?vid=aed36015-f689-43c7-8fad-6fa7d61fa308","ios":"levelo://app?vid=aed36015-f689-43c7-8fad-6fa7d61fa308"},"vehicle_type_id":"4","last_reported":1751400733,"current_range_meters":15200,"station_id":"ce4bhqh2rcd13ifvqhmg","pricing_plan_id":"cebpf4jnsgd1na2vs0mg"},{"bike_id":"539ed013-9e80-448a-999f-a7819f54786a","system_id":"levelo_inurba_marseille","lat":43.290309,"lon":5.375668,"is_reserved":false,"is_disabled":false,"rental_uris":{"android":"levelo://app?vid=539ed013-9e80-448a-999f-a7819f54786a","ios":"levelo://app?vid=539ed013-9e80-448a-999f-a7819f54786a"},"vehicle_type_id":"4","last_reported":1751400733,"current_range_meters":16000,"station_id":"","pricing_plan_id":"cebpf4jnsgd1na2vs0mg"},{"bike_id":"a0cef316-ad95-4855-8f78-a31341a2b90e","system_id":"levelo_inurba_marseille","lat":43.31253,"lon":5.37784,"is_reserved":false,"is_disabled":false,"rental_uris":{"android":"levelo://app?vid=a0cef316-ad95-4855-8f78-a31341a2b90e","ios":"levelo://app?vid=a0cef316-ad95-4855-8f78-a31341a2b90e"},"vehicle_type_id":"4","last_reported":1751400733,"current_range_meters":16000,"station_id":"","pricing_plan_id":"cebpf4jnsgd1na2vs0mg"},{"bike_id":"f1b6bdd0-6e44-43a0-a0d1-4c967470767c","system_id":"levelo_inurba_marseille","lat":43.27615,"lon":5.36103,"is_reserved":false,"is_disabled":false,"rental_uris":{"android":"levelo://app?vid=f1b6bdd0-6e44-43a0-a0d1-4c967470767c","ios":"levelo://app?vid=f1b6bdd0-6e44-43a0-a0d1-4c967470767c"},"vehicle_type_id":"4","last_reported":1751400733,"current_range_meters":16000,"station_id":"ce4bgj92rcd13ifvqbe0","pricing_plan_id":"cebpf4jnsgd1na2vs0mg"},{"bike_id":"6705b6b8-1cf6-4d3e-bed2-62b76e47c06b","system_id":"levelo_inurba_marseille","lat":43.29933,"lon":5.36547,"is_reserved":false,"is_disabled":false,"rental_uris":{"android":"levelo://app?vid=6705b6b8-1cf6-4d3e-bed2-62b76e47c06b","ios":"levelo://app?vid=6705b6b8-1cf6-4d3e-bed2-62b76e47c06b"},"vehicle_type_id":"4","last_reported":1751400733,"current_range_meters":16000,"station_id":"ce4bgm92rcd13ifvqbr0","pricing_plan_id":"cebpf4jnsgd1na2vs0mg"},{"bike_id":"1bd133a6-32c5-4068-8cff-ddbe80fd0c31","system_id":"levelo_inurba_marseille","lat":43.273773,"lon":5.3626,"is_reserved":false,"is_disabled":false,"rental_uris":{"android":"levelo://app?vid=1bd133a6-32c5-4068-8cff-ddbe80fd0c31","ios":"levelo://app?vid=1bd133a6-32c5-4068-8cff-ddbe80fd0c31"},"vehicle_type_id":"4","last_reported":1751400733,"current_range_meters":16000,"station_id":"ce4bhbh2rcd13ifvqeo0","pricing_plan_id":"cebpf4jnsgd1na2vs0mg"},{"bike_id":"12cd4c62-b26f-425a-bf74-acf85daa5e01","system_id":"levelo_inurba_marseille","lat":43.27911,"lon":5.38,"is_reserved":false,"is_disabled":false,"rental_uris":{"android":"levelo://app?vid=12cd4c62-b26f-425a-bf74-acf85daa5e01","ios":"levelo://app?vid=12cd4c62-b26f-425a-bf74-acf85daa5e01"},"vehicle_type_id":"4","last_reported":1751400733,"current_range_meters":16000,"station_id":"ce4bhf92rcd13ifvqf50","pricing_plan_id":"cebpf4jnsgd1na2vs0mg"},{"bike_id":"0c1b4f74-5294-4b59-932d-b742ce647d9e","system_id":"levelo_inurba_marseille","lat":43.21178,"lon":5.35072,"is_reserved":false,"is_disabled":false,"rental_uris":{"android":"levelo://app?vid=0c1b4f74-5294-4b59-932d-b742ce647d9e","ios":"levelo://app?vid=0c1b4f74-5294-4b59-932d-b742ce647d9e"},"vehicle_type_id":"4","last_reported":1751400733,"current_range_meters":16000,"station_id":"st_cvj6sg6p6f1abm77japg","pricing_plan_id":"cebpf4jnsgd1na2vs0mg"},{"bike_id":"8a74f5cd-9efa-4362-bea7-a32db4dcc85c","system_id":"levelo_inurba_marseille","lat":43.21208,"lon":5.35042,"is_reserved":false,"is_disabled":false,"rental_uris":{"android":"levelo://app?vid=8a74f5cd-9efa-4362-bea7-a32db4dcc85c","ios":"levelo://app?vid=8a74f5cd-9efa-4362-bea7-a32db4dcc85c"},"vehicle_type_id":"4","last_reported":1751400733,"current_range_meters":16000,"station_id":"st_cvj6sg6p6f1abm77japg","pricing_plan_id":"cebpf4jnsgd1na2vs0mg"},{"bike_id":"8783beea-eabc-4c19-b6eb-37f31b538208","system_id":"levelo_inurba_marseille","lat":43.32993,"lon":5.39176,"is_reserved":false,"is_disabled":false,"rental_uris":{"android":"levelo://app?vid=8783beea-eabc-4c19-b6eb-37f31b538208","ios":"levelo://app?vid=8783beea-eabc-4c19-b6eb-37f31b538208"},"vehicle_type_id":"4","last_reported":1751400733,"current_range_meters":16400,"station_id":"","pricing_plan_id":"cebpf4jnsgd1na2vs0mg"},{"bike_id":"60aed5b4-04a7-4930-a9c4-5540cdbcfb8b","system_id":"levelo_inurba_marseille","lat":43.33754,"lon":5.37438,"is_reserved":false,"is_disabled":false,"rental_uris":{"android":"levelo://app?vid=60aed5b4-04a7-4930-a9c4-5540cdbcfb8b","ios":"levelo://app?vid=60aed5b4-04a7-4930-a9c4-5540cdbcfb8b"},"vehicle_type_id":"4","last_reported":1751400733,"current_range_meters":16400,"station_id":"","pricing_plan_id":"cebpf4jnsgd1na2vs0mg"},{"bike_id":"585174d6-536a-4952-940e-a77f3cf4bd1d","system_id":"levelo_inurba_marseille","lat":43.29548,"lon":5.37488,"is_reserved":false,"is_disabled":false,"rental_uris":{"android":"levelo://app?vid=585174d6-536a-4952-940e-a77f3cf4bd1d","ios":"levelo://app?vid=585174d6-536a-4952-940e-a77f3cf4bd1d"},"vehicle_type_id":"4","last_reported":1751400733,"current_range_meters":16400,"station_id":"","pricing_plan_id":"cebpf4jnsgd1na2vs0mg"},{"bike_id":"12c8f0e5-0eb8-4779-b094-556c6faf06b5","system_id":"levelo_inurba_marseille","lat":43.31063,"lon":5.38353,"is_reserved":false,"is_disabled":false,"rental_uris":{"android":"levelo://app?vid=12c8f0e5-0eb8-4779-b094-556c6faf06b5","ios":"levelo://app?vid=12c8f0e5-0eb8-4779-b094-556c6faf06b5"},"vehicle_type_id":"4","last_reported":1751400733,"current_range_meters":16400,"station_id":"ce4bgv92rcd13ifvqcr0","pricing_plan_id":"cebpf4jnsgd1na2vs0mg"},{"bike_id":"6ba8a57f-2c6b-4a87-bda0-73da836b1382","system_id":"levelo_inurba_marseille","lat":43.2942,"lon":5.38611,"is_reserved":false,"is_disabled":false,"rental_uris":{"android":"levelo://app?vid=6ba8a57f-2c6b-4a87-bda0-73da836b1382","ios":"levelo://app?vid=6ba8a57f-2c6b-4a87-bda0-73da836b1382"},"vehicle_type_id":"4","last_reported":1751400733,"current_range_meters":16400,"station_id":"ce4bh2h2rcd13ifvqdh0","pricing_plan_id":"cebpf4jnsgd1na2vs0mg"},{"bike_id":"c2cc3873-3136-4ba7-984d-6514f2a6bcc2","system_id":"levelo_inurba_marseille","lat":43.26692,"lon":5.3827,"is_reserved":false,"is_disabled":false,"rental_uris":{"android":"levelo://app?vid=c2cc3873-3136-4ba7-984d-6514f2a6bcc2","ios":"levelo://app?vid=c2cc3873-3136-4ba7-984d-6514f2a6bcc2"},"vehicle_type_id":"4","last_reported":1751400733,"current_range_meters":16400,"station_id":"ce4bhg92rcd13ifvqf90","pricing_plan_id":"cebpf4jnsgd1na2vs0mg"},{"bike_id":"d4c73a67-6ae9-4da7-86b1-c540a417377a","system_id":"levelo_inurba_marseille","lat":43.3234,"lon":5.40606,"is_reserved":false,"is_disabled":false,"rental_uris":{"android":"levelo://app?vid=d4c73a67-6ae9-4da7-86b1-c540a417377a","ios":"levelo://app?vid=d4c73a67-6ae9-4da7-86b1-c540a417377a"},"vehicle_type_id":"4","last_reported":1751400733,"current_range_meters":16400,"station_id":"ce4bhq92rcd13ifvqhjg","pricing_plan_id":"cebpf4jnsgd1na2vs0mg"},{"bike_id":"7e918440-88b2-46bb-b33c-27dbfad1b4ca","system_id":"levelo_inurba_marseille","lat":43.28872,"lon":5.37318,"is_reserved":false,"is_disabled":false,"rental_uris":{"android":"levelo://app?vid=7e918440-88b2-46bb-b33c-27dbfad1b4ca","ios":"levelo://app?vid=7e918440-88b2-46bb-b33c-27dbfad1b4ca"},"vehicle_type_id":"4","last_reported":1751400733,"current_range_meters":16800,"station_id":"","pricing_plan_id":"cebpf4jnsgd1na2vs0mg"},{"bike_id":"b8c91516-b548-4a73-9681-e305426bcf4d","system_id":"levelo_inurba_marseille","lat":43.29416,"lon":5.38612,"is_reserved":false,"is_disabled":false,"rental_uris":{"android":"levelo://app?vid=b8c91516-b548-4a73-9681-e305426bcf4d","ios":"levelo://app?vid=b8c91516-b548-4a73-9681-e305426bcf4d"},"vehicle_type_id":"4","last_reported":1751400733,"current_range_meters":16800,"station_id":"ce4bh2h2rcd13ifvqdh0","pricing_plan_id":"cebpf4jnsgd1na2vs0mg"},{"bike_id":"00d4b252-59fb-4a29-ae45-f25f818e6498","system_id":"levelo_inurba_marseille","lat":43.29016,"lon":5.38125,"is_reserved":false,"is_disabled":false,"rental_uris":{"android":"levelo://app?vid=00d4b252-59fb-4a29-ae45-f25f818e6498","ios":"levelo://app?vid=00d4b252-59fb-4a29-ae45-f25f818e6498"},"vehicle_type_id":"4","last_reported":1751400733,"current_range_meters":16800,"station_id":"ce4bh4p2rcd13ifvqe1g","pricing_plan_id":"cebpf4jnsgd1na2vs0mg"},{"bike_id":"e83bab8e-8601-47c0-a669-7ec1cf398e5e","system_id":"levelo_inurba_marseille","lat":43.28934,"lon":5.38385,"is_reserved":false,"is_disabled":false,"rental_uris":{"android":"levelo://app?vid=e83bab8e-8601-47c0-a669-7ec1cf398e5e","ios":"levelo://app?vid=e83bab8e-8601-47c0-a669-7ec1cf398e5e"},"vehicle_type_id":"4","last_reported":1751400733,"current_range_meters":16800,"station_id":"ce4bh612rcd13ifvqe6g","pricing_plan_id":"cebpf4jnsgd1na2vs0mg"},{"bike_id":"3e68e6b5-f7dd-4895-96d4-76eb7d1dfe2b","system_id":"levelo_inurba_marseille","lat":43.27379,"lon":5.36275,"is_reserved":false,"is_disabled":false,"rental_uris":{"android":"levelo://app?vid=3e68e6b5-f7dd-4895-96d4-76eb7d1dfe2b","ios":"levelo://app?vid=3e68e6b5-f7dd-4895-96d4-76eb7d1dfe2b"},"vehicle_type_id":"4","last_reported":1751400733,"current_range_meters":16800,"station_id":"ce4bhbh2rcd13ifvqeo0","pricing_plan_id":"cebpf4jnsgd1na2vs0mg"},{"bike_id":"54d07b9c-15ee-4d3e-a003-17a1d66cb9b0","system_id":"levelo_inurba_marseille","lat":43.24804,"lon":5.37454,"is_reserved":false,"is_disabled":false,"rental_uris":{"android":"levelo://app?vid=54d07b9c-15ee-4d3e-a003-17a1d66cb9b0","ios":"levelo://app?vid=54d07b9c-15ee-4d3e-a003-17a1d66cb9b0"},"vehicle_type_id":"4","last_reported":1751400733,"current_range_meters":16800,"station_id":"ce4bhgh2rcd13ifvqfb0","pricing_plan_id":"cebpf4jnsgd1na2vs0mg"},{"bike_id":"433157f3-83a0-4d8e-8e82-55672158873a","system_id":"levelo_inurba_marseille","lat":43.26221,"lon":5.40443,"is_reserved":false,"is_disabled":false,"rental_uris":{"android":"levelo://app?vid=433157f3-83a0-4d8e-8e82-55672158873a","ios":"levelo://app?vid=433157f3-83a0-4d8e-8e82-55672158873a"},"vehicle_type_id":"4","last_reported":1751400733,"current_range_meters":16800,"station_id":"ce4bhmh2rcd13ifvqgmg","pricing_plan_id":"cebpf4jnsgd1na2vs0mg"},{"bike_id":"02e3b7e8-8c03-44e1-9932-4a49a92b8dd4","system_id":"levelo_inurba_marseille","lat":43.24179,"lon":5.3973,"is_reserved":false,"is_disabled":false,"rental_uris":{"android":"levelo://app?vid=02e3b7e8-8c03-44e1-9932-4a49a92b8dd4","ios":"levelo://app?vid=02e3b7e8-8c03-44e1-9932-4a49a92b8dd4"},"vehicle_type_id":"4","last_reported":1751400733,"current_range_meters":16800,"station_id":"ce4bhn12rcd13ifvqgpg","pricing_plan_id":"cebpf4jnsgd1na2vs0mg"},{"bike_id":"252598c3-3c4a-4eff-a16e-1ef0af2219e3","system_id":"levelo_inurba_marseille","lat":43.28153,"lon":5.42644,"is_reserved":false,"is_disabled":false,"rental_uris":{"android":"levelo://app?vid=252598c3-3c4a-4eff-a16e-1ef0af2219e3","ios":"levelo://app?vid=252598c3-3c4a-4eff-a16e-1ef0af2219e3"},"vehicle_type_id":"4","last_reported":1751400733,"current_range_meters":16800,"station_id":"ce4bhnh2rcd13ifvqgug","pricing_plan_id":"cebpf4jnsgd1na2vs0mg"},{"bike_id":"be3b66b3-64e0-4be5-aa17-8776b5fa8d04","system_id":"levelo_inurba_marseille","lat":43.29898,"lon":5.43665,"is_reserved":false,"is_disabled":false,"rental_uris":{"android":"levelo://app?vid=be3b66b3-64e0-4be5-aa17-8776b5fa8d04","ios":"levelo://app?vid=be3b66b3-64e0-4be5-aa17-8776b5fa8d04"},"vehicle_type_id":"4","last_reported":1751400733,"current_range_meters":16800,"station_id":"ce4bhpp2rcd13ifvqhfg","pricing_plan_id":"cebpf4jnsgd1na2vs0mg"},{"bike_id":"ee0317a9-0b3d-4631-9294-b4dddc155611","system_id":"levelo_inurba_marseille","lat":43.3236,"lon":5.36758,"is_reserved":false,"is_disabled":false,"rental_uris":{"android":"levelo://app?vid=ee0317a9-0b3d-4631-9294-b4dddc155611","ios":"levelo://app?vid=ee0317a9-0b3d-4631-9294-b4dddc155611"},"vehicle_type_id":"4","last_reported":1751400733,"current_range_meters":16800,"station_id":"ce4bhsh2rcd13ifvqi2g","pricing_plan_id":"cebpf4jnsgd1na2vs0mg"},{"bike_id":"79731cb3-beca-4911-967f-e759b6fe8234","system_id":"levelo_inurba_marseille","lat":43.24159,"lon":5.36424,"is_reserved":false,"is_disabled":false,"rental_uris":{"android":"levelo://app?vid=79731cb3-beca-4911-967f-e759b6fe8234","ios":"levelo://app?vid=79731cb3-beca-4911-967f-e759b6fe8234"},"vehicle_type_id":"4","last_reported":1751400733,"current_range_meters":16800,"station_id":"cpo36qri1sfpv3e86is0","pricing_plan_id":"cebpf4jnsgd1na2vs0mg"},{"bike_id":"f00e3044-9bd1-48b5-b342-151af21b34fa","system_id":"levelo_inurba_marseille","lat":43.29979,"lon":5.37423,"is_reserved":false,"is_disabled":false,"rental_uris":{"android":"levelo://app?vid=f00e3044-9bd1-48b5-b342-151af21b34fa","ios":"levelo://app?vid=f00e3044-9bd1-48b5-b342-151af21b34fa"},"vehicle_type_id":"4","last_reported":1751400733,"current_range_meters":17200,"station_id":"","pricing_plan_id":"cebpf4jnsgd1na2vs0mg"},{"bike_id":"f2f4d984-5460-4e1e-a60d-14e2b345a288","system_id":"levelo_inurba_marseille","lat":43.27613,"lon":5.3611,"is_reserved":false,"is_disabled":false,"rental_uris":{"android":"levelo://app?vid=f2f4d984-5460-4e1e-a60d-14e2b345a288","ios":"levelo://app?vid=f2f4d984-5460-4e1e-a60d-14e2b345a288"},"vehicle_type_id":"4","last_reported":1751400733,"current_range_meters":17200,"station_id":"ce4bgj92rcd13ifvqbe0","pricing_plan_id":"cebpf4jnsgd1na2vs0mg"},{"bike_id":"6bc08bf9-2aa4-4b16-be3f-66a6554da8bb","system_id":"levelo_inurba_marseille","lat":43.30259,"lon":5.40082,"is_reserved":false,"is_disabled":false,"rental_uris":{"android":"levelo://app?vid=6bc08bf9-2aa4-4b16-be3f-66a6554da8bb","ios":"levelo://app?vid=6bc08bf9-2aa4-4b16-be3f-66a6554da8bb"},"vehicle_type_id":"4","last_reported":1751400733,"current_range_meters":17200,"station_id":"ce4bgvh2rcd13ifvqcs0","pricing_plan_id":"cebpf4jnsgd1na2vs0mg"},{"bike_id":"8b1cb887-42cf-43b2-bbd9-c3c0d4efae83","system_id":"levelo_inurba_marseille","lat":43.28935,"lon":5.39627,"is_reserved":false,"is_disabled":false,"rental_uris":{"android":"levelo://app?vid=8b1cb887-42cf-43b2-bbd9-c3c0d4efae83","ios":"levelo://app?vid=8b1cb887-42cf-43b2-bbd9-c3c0d4efae83"},"vehicle_type_id":"4","last_reported":1751400733,"current_range_meters":17200,"station_id":"ce4bh3h2rcd13ifvqdn0","pricing_plan_id":"cebpf4jnsgd1na2vs0mg"},{"bike_id":"25ac90b3-c952-42b3-bca4-861e392fd9f4","system_id":"levelo_inurba_marseille","lat":43.2886,"lon":5.35842,"is_reserved":false,"is_disabled":false,"rental_uris":{"android":"levelo://app?vid=25ac90b3-c952-42b3-bca4-861e392fd9f4","ios":"levelo://app?vid=25ac90b3-c952-42b3-bca4-861e392fd9f4"},"vehicle_type_id":"4","last_reported":1751400733,"current_range_meters":17200,"station_id":"ce4bhb12rcd13ifvqem0","pricing_plan_id":"cebpf4jnsgd1na2vs0mg"},{"bike_id":"eaa743bb-1442-4775-b2ce-e6736935a0bb","system_id":"levelo_inurba_marseille","lat":43.24078,"lon":5.37751,"is_reserved":false,"is_disabled":false,"rental_uris":{"android":"levelo://app?vid=eaa743bb-1442-4775-b2ce-e6736935a0bb","ios":"levelo://app?vid=eaa743bb-1442-4775-b2ce-e6736935a0bb"},"vehicle_type_id":"4","last_reported":1751400733,"current_range_meters":17200,"station_id":"ce4bhnp2rcd13ifvqgvg","pricing_plan_id":"cebpf4jnsgd1na2vs0mg"},{"bike_id":"4885ce13-1691-4ab1-8f84-23edfb3318ba","system_id":"levelo_inurba_marseille","lat":43.23195,"lon":5.35544,"is_reserved":false,"is_disabled":false,"rental_uris":{"android":"levelo://app?vid=4885ce13-1691-4ab1-8f84-23edfb3318ba","ios":"levelo://app?vid=4885ce13-1691-4ab1-8f84-23edfb3318ba"},"vehicle_type_id":"4","last_reported":1751400733,"current_range_meters":17200,"station_id":"ce4bhu92rcd13ifvqi70","pricing_plan_id":"cebpf4jnsgd1na2vs0mg"},{"bike_id":"d0f90c24-dd03-411b-9731-55305f76b7c8","system_id":"levelo_inurba_marseille","lat":43.21187,"lon":5.35079,"is_reserved":false,"is_disabled":false,"rental_uris":{"android":"levelo://app?vid=d0f90c24-dd03-411b-9731-55305f76b7c8","ios":"levelo://app?vid=d0f90c24-dd03-411b-9731-55305f76b7c8"},"vehicle_type_id":"4","last_reported":1751400733,"current_range_meters":17200,"station_id":"st_cvj6sg6p6f1abm77japg","pricing_plan_id":"cebpf4jnsgd1na2vs0mg"},{"bike_id":"fdcc33b3-b27b-4fd9-90cb-c9421efe9db6","system_id":"levelo_inurba_marseille","lat":43.278186,"lon":5.414419,"is_reserved":false,"is_disabled":false,"rental_uris":{"android":"levelo://app?vid=fdcc33b3-b27b-4fd9-90cb-c9421efe9db6","ios":"levelo://app?vid=fdcc33b3-b27b-4fd9-90cb-c9421efe9db6"},"vehicle_type_id":"4","last_reported":1751400733,"current_range_meters":17600,"station_id":"","pricing_plan_id":"cebpf4jnsgd1na2vs0mg"},{"bike_id":"a8518026-e6c4-4d46-8cac-15aebd5ecc21","system_id":"levelo_inurba_marseille","lat":43.2953,"lon":5.38536,"is_reserved":false,"is_disabled":false,"rental_uris":{"android":"levelo://app?vid=a8518026-e6c4-4d46-8cac-15aebd5ecc21","ios":"levelo://app?vid=a8518026-e6c4-4d46-8cac-15aebd5ecc21"},"vehicle_type_id":"4","last_reported":1751400733,"current_range_meters":17600,"station_id":"ce4bgih2rcd13ifvqba0","pricing_plan_id":"cebpf4jnsgd1na2vs0mg"},{"bike_id":"b13ad43f-3bee-4da4-9314-c5516fb0f58b","system_id":"levelo_inurba_marseille","lat":43.29798,"lon":5.38099,"is_reserved":false,"is_disabled":false,"rental_uris":{"android":"levelo://app?vid=b13ad43f-3bee-4da4-9314-c5516fb0f58b","ios":"levelo://app?vid=b13ad43f-3bee-4da4-9314-c5516fb0f58b"},"vehicle_type_id":"4","last_reported":1751400733,"current_range_meters":17600,"station_id":"ce4bgip2rcd13ifvqbb0","pricing_plan_id":"cebpf4jnsgd1na2vs0mg"},{"bike_id":"a333c9de-34d0-4aad-a1fd-efe3af5259dc","system_id":"levelo_inurba_marseille","lat":43.303,"lon":5.39213,"is_reserved":false,"is_disabled":false,"rental_uris":{"android":"levelo://app?vid=a333c9de-34d0-4aad-a1fd-efe3af5259dc","ios":"levelo://app?vid=a333c9de-34d0-4aad-a1fd-efe3af5259dc"},"vehicle_type_id":"4","last_reported":1751400733,"current_range_meters":17600,"station_id":"ce4bgkh2rcd13ifvqbk0","pricing_plan_id":"cebpf4jnsgd1na2vs0mg"},{"bike_id":"92d61907-6eb1-4457-9712-6be5d5fb1204","system_id":"levelo_inurba_marseille","lat":43.29014,"lon":5.38127,"is_reserved":false,"is_disabled":false,"rental_uris":{"android":"levelo://app?vid=92d61907-6eb1-4457-9712-6be5d5fb1204","ios":"levelo://app?vid=92d61907-6eb1-4457-9712-6be5d5fb1204"},"vehicle_type_id":"4","last_reported":1751400733,"current_range_meters":17600,"station_id":"ce4bh4p2rcd13ifvqe1g","pricing_plan_id":"cebpf4jnsgd1na2vs0mg"},{"bike_id":"d8f4e68a-05c3-4caa-aa92-c12d8cb440f9","system_id":"levelo_inurba_marseille","lat":43.23967,"lon":5.36612,"is_reserved":false,"is_disabled":false,"rental_uris":{"android":"levelo://app?vid=d8f4e68a-05c3-4caa-aa92-c12d8cb440f9","ios":"levelo://app?vid=d8f4e68a-05c3-4caa-aa92-c12d8cb440f9"},"vehicle_type_id":"4","last_reported":1751400733,"current_range_meters":17600,"station_id":"ce4bhi12rcd13ifvqfp0","pricing_plan_id":"cebpf4jnsgd1na2vs0mg"},{"bike_id":"dbe6a7d8-6edc-4015-8658-f68eeb46a661","system_id":"levelo_inurba_marseille","lat":43.3359,"lon":5.39857,"is_reserved":false,"is_disabled":false,"rental_uris":{"android":"levelo://app?vid=dbe6a7d8-6edc-4015-8658-f68eeb46a661","ios":"levelo://app?vid=dbe6a7d8-6edc-4015-8658-f68eeb46a661"},"vehicle_type_id":"4","last_reported":1751400733,"current_range_meters":18000,"station_id":"","pricing_plan_id":"cebpf4jnsgd1na2vs0mg"},{"bike_id":"438a3543-3756-426b-889b-0adecce4f2dd","system_id":"levelo_inurba_marseille","lat":43.31707,"lon":5.37742,"is_reserved":false,"is_disabled":false,"rental_uris":{"android":"levelo://app?vid=438a3543-3756-426b-889b-0adecce4f2dd","ios":"levelo://app?vid=438a3543-3756-426b-889b-0adecce4f2dd"},"vehicle_type_id":"4","last_reported":1751400733,"current_range_meters":18000,"station_id":"ce4bgth2rcd13ifvqch0","pricing_plan_id":"cebpf4jnsgd1na2vs0mg"},{"bike_id":"ff4f7e8d-7313-49fa-811f-90d960faaaaf","system_id":"levelo_inurba_marseille","lat":43.292525,"lon":5.4091,"is_reserved":false,"is_disabled":false,"rental_uris":{"android":"levelo://app?vid=ff4f7e8d-7313-49fa-811f-90d960faaaaf","ios":"levelo://app?vid=ff4f7e8d-7313-49fa-811f-90d960faaaaf"},"vehicle_type_id":"4","last_reported":1751400733,"current_range_meters":18000,"station_id":"ce4bh192rcd13ifvqdc0","pricing_plan_id":"cebpf4jnsgd1na2vs0mg"},{"bike_id":"77dbff9d-b090-48f7-a3f3-8d26a3c274c1","system_id":"levelo_inurba_marseille","lat":43.27365,"lon":5.36254,"is_reserved":false,"is_disabled":false,"rental_uris":{"android":"levelo://app?vid=77dbff9d-b090-48f7-a3f3-8d26a3c274c1","ios":"levelo://app?vid=77dbff9d-b090-48f7-a3f3-8d26a3c274c1"},"vehicle_type_id":"4","last_reported":1751400733,"current_range_meters":18000,"station_id":"ce4bhbh2rcd13ifvqeo0","pricing_plan_id":"cebpf4jnsgd1na2vs0mg"},{"bike_id":"755b12ad-e5aa-4a8f-87f8-64585fb1ce89","system_id":"levelo_inurba_marseille","lat":43.27913,"lon":5.39572,"is_reserved":false,"is_disabled":false,"rental_uris":{"android":"levelo://app?vid=755b12ad-e5aa-4a8f-87f8-64585fb1ce89","ios":"levelo://app?vid=755b12ad-e5aa-4a8f-87f8-64585fb1ce89"},"vehicle_type_id":"4","last_reported":1751400733,"current_range_meters":18000,"station_id":"ce4bhf92rcd13ifvqf40","pricing_plan_id":"cebpf4jnsgd1na2vs0mg"},{"bike_id":"55a0579a-8df2-4703-b4ee-19883dc54054","system_id":"levelo_inurba_marseille","lat":43.25109,"lon":5.40327,"is_reserved":false,"is_disabled":false,"rental_uris":{"android":"levelo://app?vid=55a0579a-8df2-4703-b4ee-19883dc54054","ios":"levelo://app?vid=55a0579a-8df2-4703-b4ee-19883dc54054"},"vehicle_type_id":"4","last_reported":1751400733,"current_range_meters":18000,"station_id":"ce4bhlh2rcd13ifvqgig","pricing_plan_id":"cebpf4jnsgd1na2vs0mg"},{"bike_id":"81b9753f-aa28-4513-89a4-3ee72628d38d","system_id":"levelo_inurba_marseille","lat":43.321013,"lon":5.367635,"is_reserved":false,"is_disabled":false,"rental_uris":{"android":"levelo://app?vid=81b9753f-aa28-4513-89a4-3ee72628d38d","ios":"levelo://app?vid=81b9753f-aa28-4513-89a4-3ee72628d38d"},"vehicle_type_id":"4","last_reported":1751400733,"current_range_meters":18000,"station_id":"ce4bhrh2rcd13ifvqhug","pricing_plan_id":"cebpf4jnsgd1na2vs0mg"},{"bike_id":"c1fd4221-51c6-4bfc-82ac-d2bf3a177e9e","system_id":"levelo_inurba_marseille","lat":43.23193,"lon":5.35553,"is_reserved":false,"is_disabled":false,"rental_uris":{"android":"levelo://app?vid=c1fd4221-51c6-4bfc-82ac-d2bf3a177e9e","ios":"levelo://app?vid=c1fd4221-51c6-4bfc-82ac-d2bf3a177e9e"},"vehicle_type_id":"4","last_reported":1751400733,"current_range_meters":18000,"station_id":"ce4bhu92rcd13ifvqi70","pricing_plan_id":"cebpf4jnsgd1na2vs0mg"},{"bike_id":"cfc0aa67-590a-4038-b894-cb7b8f074cc7","system_id":"levelo_inurba_marseille","lat":43.2174,"lon":5.34611,"is_reserved":false,"is_disabled":false,"rental_uris":{"android":"levelo://app?vid=cfc0aa67-590a-4038-b894-cb7b8f074cc7","ios":"levelo://app?vid=cfc0aa67-590a-4038-b894-cb7b8f074cc7"},"vehicle_type_id":"4","last_reported":1751400733,"current_range_meters":18000,"station_id":"st_cvj6r9ubvosntc0bgbag","pricing_plan_id":"cebpf4jnsgd1na2vs0mg"},{"bike_id":"0649e8da-2d76-4967-9ab7-a699abd43552","system_id":"levelo_inurba_marseille","lat":43.299038,"lon":5.376366,"is_reserved":false,"is_disabled":false,"rental_uris":{"android":"levelo://app?vid=0649e8da-2d76-4967-9ab7-a699abd43552","ios":"levelo://app?vid=0649e8da-2d76-4967-9ab7-a699abd43552"},"vehicle_type_id":"4","last_reported":1751400733,"current_range_meters":18800,"station_id":"","pricing_plan_id":"cebpf4jnsgd1na2vs0mg"},{"bike_id":"7e62b058-a7ed-4634-80f1-04d3de596de7","system_id":"levelo_inurba_marseille","lat":43.29852,"lon":5.36784,"is_reserved":false,"is_disabled":false,"rental_uris":{"android":"levelo://app?vid=7e62b058-a7ed-4634-80f1-04d3de596de7","ios":"levelo://app?vid=7e62b058-a7ed-4634-80f1-04d3de596de7"},"vehicle_type_id":"4","last_reported":1751400733,"current_range_meters":18800,"station_id":"","pricing_plan_id":"cebpf4jnsgd1na2vs0mg"},{"bike_id":"081488e0-b28f-493f-a9b0-8c8febc98729","system_id":"levelo_inurba_marseille","lat":43.2953,"lon":5.38548,"is_reserved":false,"is_disabled":false,"rental_uris":{"android":"levelo://app?vid=081488e0-b28f-493f-a9b0-8c8febc98729","ios":"levelo://app?vid=081488e0-b28f-493f-a9b0-8c8febc98729"},"vehicle_type_id":"4","last_reported":1751400733,"current_range_meters":18800,"station_id":"ce4bgih2rcd13ifvqba0","pricing_plan_id":"cebpf4jnsgd1na2vs0mg"},{"bike_id":"8020c504-83b5-4e05-9806-08fe313596fd","system_id":"levelo_inurba_marseille","lat":43.29029,"lon":5.38644,"is_reserved":false,"is_disabled":false,"rental_uris":{"android":"levelo://app?vid=8020c504-83b5-4e05-9806-08fe313596fd","ios":"levelo://app?vid=8020c504-83b5-4e05-9806-08fe313596fd"},"vehicle_type_id":"4","last_reported":1751400733,"current_range_meters":18800,"station_id":"ce4bh4p2rcd13ifvqe0g","pricing_plan_id":"cebpf4jnsgd1na2vs0mg"},{"bike_id":"d68dacc3-2ebb-4596-94df-9035662fd853","system_id":"levelo_inurba_marseille","lat":43.25729,"lon":5.41097,"is_reserved":false,"is_disabled":false,"rental_uris":{"android":"levelo://app?vid=d68dacc3-2ebb-4596-94df-9035662fd853","ios":"levelo://app?vid=d68dacc3-2ebb-4596-94df-9035662fd853"},"vehicle_type_id":"4","last_reported":1751400733,"current_range_meters":18800,"station_id":"ce4bhkp2rcd13ifvqgd0","pricing_plan_id":"cebpf4jnsgd1na2vs0mg"},{"bike_id":"dc4251f3-81b6-4e41-b5a5-62a769c36411","system_id":"levelo_inurba_marseille","lat":43.24163,"lon":5.36406,"is_reserved":false,"is_disabled":false,"rental_uris":{"android":"levelo://app?vid=dc4251f3-81b6-4e41-b5a5-62a769c36411","ios":"levelo://app?vid=dc4251f3-81b6-4e41-b5a5-62a769c36411"},"vehicle_type_id":"4","last_reported":1751400733,"current_range_meters":18800,"station_id":"cpo36qri1sfpv3e86is0","pricing_plan_id":"cebpf4jnsgd1na2vs0mg"},{"bike_id":"ae1c182d-0a5a-4871-b62e-0240f515d4fd","system_id":"levelo_inurba_marseille","lat":43.21749,"lon":5.346013,"is_reserved":false,"is_disabled":false,"rental_uris":{"android":"levelo://app?vid=ae1c182d-0a5a-4871-b62e-0240f515d4fd","ios":"levelo://app?vid=ae1c182d-0a5a-4871-b62e-0240f515d4fd"},"vehicle_type_id":"4","last_reported":1751400733,"current_range_meters":18800,"station_id":"st_cvj6r9ubvosntc0bgbag","pricing_plan_id":"cebpf4jnsgd1na2vs0mg"},{"bike_id":"0e030323-4386-4e72-9a0d-0f6a2ff539de","system_id":"levelo_inurba_marseille","lat":43.2962,"lon":5.40549,"is_reserved":false,"is_disabled":false,"rental_uris":{"android":"levelo://app?vid=0e030323-4386-4e72-9a0d-0f6a2ff539de","ios":"levelo://app?vid=0e030323-4386-4e72-9a0d-0f6a2ff539de"},"vehicle_type_id":"4","last_reported":1751400733,"current_range_meters":19200,"station_id":"ce4bh0h2rcd13ifvqd60","pricing_plan_id":"cebpf4jnsgd1na2vs0mg"},{"bike_id":"c1f498e1-0cb6-45f4-b132-4256ceebc63c","system_id":"levelo_inurba_marseille","lat":43.30227,"lon":5.39471,"is_reserved":false,"is_disabled":false,"rental_uris":{"android":"levelo://app?vid=c1f498e1-0cb6-45f4-b132-4256ceebc63c","ios":"levelo://app?vid=c1f498e1-0cb6-45f4-b132-4256ceebc63c"},"vehicle_type_id":"4","last_reported":1751400733,"current_range_meters":19200,"station_id":"ce4bh0p2rcd13ifvqd70","pricing_plan_id":"cebpf4jnsgd1na2vs0mg"},{"bike_id":"e70a2baf-d068-47d6-86d8-7df00734643f","system_id":"levelo_inurba_marseille","lat":43.28402,"lon":5.37494,"is_reserved":false,"is_disabled":false,"rental_uris":{"android":"levelo://app?vid=e70a2baf-d068-47d6-86d8-7df00734643f","ios":"levelo://app?vid=e70a2baf-d068-47d6-86d8-7df00734643f"},"vehicle_type_id":"4","last_reported":1751400733,"current_range_meters":19200,"station_id":"ce4bh412rcd13ifvqds0","pricing_plan_id":"cebpf4jnsgd1na2vs0mg"},{"bike_id":"d4fb4850-343f-4ba0-b38e-bff6d3d7ea5a","system_id":"levelo_inurba_marseille","lat":43.29212,"lon":5.36055,"is_reserved":false,"is_disabled":false,"rental_uris":{"android":"levelo://app?vid=d4fb4850-343f-4ba0-b38e-bff6d3d7ea5a","ios":"levelo://app?vid=d4fb4850-343f-4ba0-b38e-bff6d3d7ea5a"},"vehicle_type_id":"4","last_reported":1751400733,"current_range_meters":19200,"station_id":"ce4bhbh2rcd13ifvqeqg","pricing_plan_id":"cebpf4jnsgd1na2vs0mg"},{"bike_id":"a9c84572-7f9c-4fe2-af34-9288548a808b","system_id":"levelo_inurba_marseille","lat":43.25505,"lon":5.37631,"is_reserved":false,"is_disabled":false,"rental_uris":{"android":"levelo://app?vid=a9c84572-7f9c-4fe2-af34-9288548a808b","ios":"levelo://app?vid=a9c84572-7f9c-4fe2-af34-9288548a808b"},"vehicle_type_id":"4","last_reported":1751400733,"current_range_meters":19200,"station_id":"ce4bhh12rcd13ifvqff0","pricing_plan_id":"cebpf4jnsgd1na2vs0mg"},{"bike_id":"bcfd0eda-b9ab-4bec-9ca3-3f2b86617415","system_id":"levelo_inurba_marseille","lat":43.21185,"lon":5.35077,"is_reserved":false,"is_disabled":false,"rental_uris":{"android":"levelo://app?vid=bcfd0eda-b9ab-4bec-9ca3-3f2b86617415","ios":"levelo://app?vid=bcfd0eda-b9ab-4bec-9ca3-3f2b86617415"},"vehicle_type_id":"4","last_reported":1751400733,"current_range_meters":19200,"station_id":"st_cvj6sg6p6f1abm77japg","pricing_plan_id":"cebpf4jnsgd1na2vs0mg"},{"bike_id":"16a8afe6-e43e-4d1b-a7bd-ed83d113735a","system_id":"levelo_inurba_marseille","lat":43.32436,"lon":5.41185,"is_reserved":false,"is_disabled":false,"rental_uris":{"android":"levelo://app?vid=16a8afe6-e43e-4d1b-a7bd-ed83d113735a","ios":"levelo://app?vid=16a8afe6-e43e-4d1b-a7bd-ed83d113735a"},"vehicle_type_id":"4","last_reported":1751400733,"current_range_meters":19600,"station_id":"","pricing_plan_id":"cebpf4jnsgd1na2vs0mg"},{"bike_id":"f43c2b7e-b459-411a-9916-00fb229351f3","system_id":"levelo_inurba_marseille","lat":43.28366,"lon":5.3863,"is_reserved":false,"is_disabled":false,"rental_uris":{"android":"levelo://app?vid=f43c2b7e-b459-411a-9916-00fb229351f3","ios":"levelo://app?vid=f43c2b7e-b459-411a-9916-00fb229351f3"},"vehicle_type_id":"4","last_reported":1751400733,"current_range_meters":19600,"station_id":"ce4bh492rcd13ifvqdvg","pricing_plan_id":"cebpf4jnsgd1na2vs0mg"},{"bike_id":"d2cdda35-f553-415b-b576-c8260b4fad08","system_id":"levelo_inurba_marseille","lat":43.28365,"lon":5.38622,"is_reserved":false,"is_disabled":false,"rental_uris":{"android":"levelo://app?vid=d2cdda35-f553-415b-b576-c8260b4fad08","ios":"levelo://app?vid=d2cdda35-f553-415b-b576-c8260b4fad08"},"vehicle_type_id":"4","last_reported":1751400733,"current_range_meters":19600,"station_id":"ce4bh492rcd13ifvqdvg","pricing_plan_id":"cebpf4jnsgd1na2vs0mg"},{"bike_id":"3872bfed-1d94-49f3-babb-817a592e9f37","system_id":"levelo_inurba_marseille","lat":43.24651,"lon":5.3889,"is_reserved":false,"is_disabled":false,"rental_uris":{"android":"levelo://app?vid=3872bfed-1d94-49f3-babb-817a592e9f37","ios":"levelo://app?vid=3872bfed-1d94-49f3-babb-817a592e9f37"},"vehicle_type_id":"4","last_reported":1751400733,"current_range_meters":19600,"station_id":"ce4bhg12rcd13ifvqf60","pricing_plan_id":"cebpf4jnsgd1na2vs0mg"},{"bike_id":"8fb72fa9-b78e-4af6-82f5-d33e8af1b452","system_id":"levelo_inurba_marseille","lat":43.248062,"lon":5.374548,"is_reserved":false,"is_disabled":false,"rental_uris":{"android":"levelo://app?vid=8fb72fa9-b78e-4af6-82f5-d33e8af1b452","ios":"levelo://app?vid=8fb72fa9-b78e-4af6-82f5-d33e8af1b452"},"vehicle_type_id":"4","last_reported":1751400733,"current_range_meters":19600,"station_id":"ce4bhgh2rcd13ifvqfb0","pricing_plan_id":"cebpf4jnsgd1na2vs0mg"},{"bike_id":"57629373-c96d-4c53-8a90-7117e1bfd260","system_id":"levelo_inurba_marseille","lat":43.25865,"lon":5.39896,"is_reserved":false,"is_disabled":false,"rental_uris":{"android":"levelo://app?vid=57629373-c96d-4c53-8a90-7117e1bfd260","ios":"levelo://app?vid=57629373-c96d-4c53-8a90-7117e1bfd260"},"vehicle_type_id":"4","last_reported":1751400733,"current_range_meters":19600,"station_id":"ce4bhl92rcd13ifvqghg","pricing_plan_id":"cebpf4jnsgd1na2vs0mg"},{"bike_id":"a0947949-71e9-4995-bba9-f24d83612def","system_id":"levelo_inurba_marseille","lat":43.31526,"lon":5.3803,"is_reserved":false,"is_disabled":false,"rental_uris":{"android":"levelo://app?vid=a0947949-71e9-4995-bba9-f24d83612def","ios":"levelo://app?vid=a0947949-71e9-4995-bba9-f24d83612def"},"vehicle_type_id":"4","last_reported":1751400733,"current_range_meters":19600,"station_id":"ce4bhsp2rcd13ifvqi50","pricing_plan_id":"cebpf4jnsgd1na2vs0mg"},{"bike_id":"110be0f7-19b6-4419-935c-8afdb1f29359","system_id":"levelo_inurba_marseille","lat":43.21184,"lon":5.35077,"is_reserved":false,"is_disabled":false,"rental_uris":{"android":"levelo://app?vid=110be0f7-19b6-4419-935c-8afdb1f29359","ios":"levelo://app?vid=110be0f7-19b6-4419-935c-8afdb1f29359"},"vehicle_type_id":"4","last_reported":1751400733,"current_range_meters":19600,"station_id":"st_cvj6sg6p6f1abm77japg","pricing_plan_id":"cebpf4jnsgd1na2vs0mg"},{"bike_id":"09a94feb-8911-4d3d-9f22-a7f611710ea1","system_id":"levelo_inurba_marseille","lat":43.21189,"lon":5.35074,"is_reserved":false,"is_disabled":false,"rental_uris":{"android":"levelo://app?vid=09a94feb-8911-4d3d-9f22-a7f611710ea1","ios":"levelo://app?vid=09a94feb-8911-4d3d-9f22-a7f611710ea1"},"vehicle_type_id":"4","last_reported":1751400733,"current_range_meters":19600,"station_id":"st_cvj6sg6p6f1abm77japg","pricing_plan_id":"cebpf4jnsgd1na2vs0mg"},{"bike_id":"959e6f20-8ed0-4d36-bc1d-3efb82d6190b","system_id":"levelo_inurba_marseille","lat":43.21207,"lon":5.3507,"is_reserved":false,"is_disabled":false,"rental_uris":{"android":"levelo://app?vid=959e6f20-8ed0-4d36-bc1d-3efb82d6190b","ios":"levelo://app?vid=959e6f20-8ed0-4d36-bc1d-3efb82d6190b"},"vehicle_type_id":"4","last_reported":1751400733,"current_range_meters":19600,"station_id":"st_cvj6sg6p6f1abm77japg","pricing_plan_id":"cebpf4jnsgd1na2vs0mg"},{"bike_id":"705703f1-26b1-4101-872c-6e442b9a810f","system_id":"levelo_inurba_marseille","lat":43.29797,"lon":5.40395,"is_reserved":false,"is_disabled":false,"rental_uris":{"android":"levelo://app?vid=705703f1-26b1-4101-872c-6e442b9a810f","ios":"levelo://app?vid=705703f1-26b1-4101-872c-6e442b9a810f"},"vehicle_type_id":"4","last_reported":1751400733,"current_range_meters":20000,"station_id":"ce4bh112rcd13ifvqd90","pricing_plan_id":"cebpf4jnsgd1na2vs0mg"},{"bike_id":"6eb58991-0e19-4da2-a8f5-cfd72d4f9385","system_id":"levelo_inurba_marseille","lat":43.28851,"lon":5.39321,"is_reserved":false,"is_disabled":false,"rental_uris":{"android":"levelo://app?vid=6eb58991-0e19-4da2-a8f5-cfd72d4f9385","ios":"levelo://app?vid=6eb58991-0e19-4da2-a8f5-cfd72d4f9385"},"vehicle_type_id":"4","last_reported":1751400733,"current_range_meters":20000,"station_id":"ce4bh2p2rcd13ifvqdi0","pricing_plan_id":"cebpf4jnsgd1na2vs0mg"},{"bike_id":"e679b9bb-468e-435c-bb45-0441d61cbe9d","system_id":"levelo_inurba_marseille","lat":43.287,"lon":5.37383,"is_reserved":false,"is_disabled":false,"rental_uris":{"android":"levelo://app?vid=e679b9bb-468e-435c-bb45-0441d61cbe9d","ios":"levelo://app?vid=e679b9bb-468e-435c-bb45-0441d61cbe9d"},"vehicle_type_id":"4","last_reported":1751400733,"current_range_meters":20000,"station_id":"ce4bh3p2rcd13ifvqdq0","pricing_plan_id":"cebpf4jnsgd1na2vs0mg"},{"bike_id":"c70a1416-e4a2-4812-94d6-cc5bab543a34","system_id":"levelo_inurba_marseille","lat":43.28106,"lon":5.37835,"is_reserved":false,"is_disabled":false,"rental_uris":{"android":"levelo://app?vid=c70a1416-e4a2-4812-94d6-cc5bab543a34","ios":"levelo://app?vid=c70a1416-e4a2-4812-94d6-cc5bab543a34"},"vehicle_type_id":"4","last_reported":1751400733,"current_range_meters":20000,"station_id":"ce4bha12rcd13ifvqee0","pricing_plan_id":"cebpf4jnsgd1na2vs0mg"},{"bike_id":"a3da8f72-804a-4507-94f0-c6928d78ec9c","system_id":"levelo_inurba_marseille","lat":43.26542,"lon":5.373,"is_reserved":false,"is_disabled":false,"rental_uris":{"android":"levelo://app?vid=a3da8f72-804a-4507-94f0-c6928d78ec9c","ios":"levelo://app?vid=a3da8f72-804a-4507-94f0-c6928d78ec9c"},"vehicle_type_id":"4","last_reported":1751400733,"current_range_meters":20000,"station_id":"ce4bhg12rcd13ifvqf70","pricing_plan_id":"cebpf4jnsgd1na2vs0mg"},{"bike_id":"bec82504-993e-4167-b162-ccad14e4476a","system_id":"levelo_inurba_marseille","lat":43.25868,"lon":5.39893,"is_reserved":false,"is_disabled":false,"rental_uris":{"android":"levelo://app?vid=bec82504-993e-4167-b162-ccad14e4476a","ios":"levelo://app?vid=bec82504-993e-4167-b162-ccad14e4476a"},"vehicle_type_id":"4","last_reported":1751400733,"current_range_meters":20000,"station_id":"ce4bhl92rcd13ifvqghg","pricing_plan_id":"cebpf4jnsgd1na2vs0mg"},{"bike_id":"eec7b02a-461b-41f7-b40b-680625481db1","system_id":"levelo_inurba_marseille","lat":43.245697,"lon":5.395089,"is_reserved":false,"is_disabled":false,"rental_uris":{"android":"levelo://app?vid=eec7b02a-461b-41f7-b40b-680625481db1","ios":"levelo://app?vid=eec7b02a-461b-41f7-b40b-680625481db1"},"vehicle_type_id":"4","last_reported":1751400733,"current_range_meters":20000,"station_id":"ce4bhlp2rcd13ifvqgjg","pricing_plan_id":"cebpf4jnsgd1na2vs0mg"},{"bike_id":"8bf0d992-d2a0-428e-940a-091ee9b7c2a4","system_id":"levelo_inurba_marseille","lat":43.21186,"lon":5.35084,"is_reserved":false,"is_disabled":false,"rental_uris":{"android":"levelo://app?vid=8bf0d992-d2a0-428e-940a-091ee9b7c2a4","ios":"levelo://app?vid=8bf0d992-d2a0-428e-940a-091ee9b7c2a4"},"vehicle_type_id":"4","last_reported":1751400733,"current_range_meters":20000,"station_id":"st_cvj6sg6p6f1abm77japg","pricing_plan_id":"cebpf4jnsgd1na2vs0mg"},{"bike_id":"c10a4283-320d-4e64-8d75-ff83e94026ba","system_id":"levelo_inurba_marseille","lat":43.21215,"lon":5.35026,"is_reserved":false,"is_disabled":false,"rental_uris":{"android":"levelo://app?vid=c10a4283-320d-4e64-8d75-ff83e94026ba","ios":"levelo://app?vid=c10a4283-320d-4e64-8d75-ff83e94026ba"},"vehicle_type_id":"4","last_reported":1751400733,"current_range_meters":20400,"station_id":"","pricing_plan_id":"cebpf4jnsgd1na2vs0mg"},{"bike_id":"12968da4-6587-4337-b41d-8c292aea852f","system_id":"levelo_inurba_marseille","lat":43.31979,"lon":5.37111,"is_reserved":false,"is_disabled":false,"rental_uris":{"android":"levelo://app?vid=12968da4-6587-4337-b41d-8c292aea852f","ios":"levelo://app?vid=12968da4-6587-4337-b41d-8c292aea852f"},"vehicle_type_id":"4","last_reported":1751400733,"current_range_meters":20400,"station_id":"","pricing_plan_id":"cebpf4jnsgd1na2vs0mg"},{"bike_id":"7af5e197-322b-43a2-9736-5526f18f7b63","system_id":"levelo_inurba_marseille","lat":43.293011,"lon":5.371581,"is_reserved":false,"is_disabled":false,"rental_uris":{"android":"levelo://app?vid=7af5e197-322b-43a2-9736-5526f18f7b63","ios":"levelo://app?vid=7af5e197-322b-43a2-9736-5526f18f7b63"},"vehicle_type_id":"4","last_reported":1751400733,"current_range_meters":20400,"station_id":"ce4bgh92rcd13ifvqb40","pricing_plan_id":"cebpf4jnsgd1na2vs0mg"},{"bike_id":"8e4147e3-1b40-4975-a726-63764f255202","system_id":"levelo_inurba_marseille","lat":43.27619,"lon":5.36089,"is_reserved":false,"is_disabled":false,"rental_uris":{"android":"levelo://app?vid=8e4147e3-1b40-4975-a726-63764f255202","ios":"levelo://app?vid=8e4147e3-1b40-4975-a726-63764f255202"},