{"last_updated":1737817655,"ttl":60,"version":"2.2","data":{"bikes":[{"bike_id":"19249674-dcbd-4dc3-83ca-8649099d134d","system_id":"levelo_inurba_marseille","lat":43.26209,"lon":5.37442,"is_reserved":false,"is_disabled":false,"rental_uris":{"android":"levelo://app?vid=19249674-dcbd-4dc3-83ca-8649099d134d","ios":"levelo://app?vid=19249674-dcbd-4dc3-83ca-8649099d134d"},"vehicle_type_id":"4","last_reported":1737817655,"current_range_meters":36400,"station_id":"ce4bhgp2rcd13ifvqfc0","pricing_plan_id":"cebpf4jnsgd1na2vs0mg"},{"bike_id":"63a2c9fe-a75c-4470-8930-511bb7f7217d","system_id":"levelo_inurba_marseille","lat":43.28614,"lon":5.35106,"is_reserved":false,"is_disabled":false,"rental_uris":{"android":"levelo://app?vid=63a2c9fe-a75c-4470-8930-511bb7f7217d","ios":"levelo://app?vid=63a2c9fe-a75c-4470-8930-511bb7f7217d"},"vehicle_type_id":"4","last_reported":1737817655,"current_range_meters":31200,"station_id":"ce4bhch2rcd13ifvqeug","pricing_plan_id":"cebpf4jnsgd1na2vs0mg"},{"bike_id":"22fdda07-29f7-4097-aa7c-457566d3caba","system_id":"levelo_inurba_marseille","lat":43.25061,"lon":5.39507,"is_reserved":false,"is_disabled":false,"rental_uris":{"android":"levelo://app?vid=22fdda07-29f7-4097-aa7c-457566d3caba","ios":"levelo://app?vid=22fdda07-29f7-4097-aa7c-457566d3caba"},"vehicle_type_id":"4","last_reported":1737817655,"current_range_meters":28800,"station_id":"ce4bhm12rcd13ifvqgkg","pricing_plan_id":"cebpf4jnsgd1na2vs0mg"},{"bike_id":"dab26834-ad7a-4822-bba8-ca5c88376b16","system_id":"levelo_inurba_marseille","lat":43.30887,"lon":5.37195,"is_reserved":false,"is_disabled":false,"rental_uris":{"android":"levelo://app?vid=dab26834-ad7a-4822-bba8-ca5c88376b16","ios":"levelo://app?vid=dab26834-ad7a-4822-bba8-ca5c88376b16"},"vehicle_type_id":"4","last_reported":1737817655,"current_range_meters":37600,"station_id":"ce4bguh2rcd13ifvqckg","pricing_plan_id":"cebpf4jnsgd1na2vs0mg"},{"bike_id":"f27962d7-2fd4-4794-b771-0341224112da","system_id":"levelo_inurba_marseille","lat":43.26571,"lon":5.3901,"is_reserved":false,"is_disabled":false,"rental_uris":{"android":"levelo://app?vid=f27962d7-2fd4-4794-b771-0341224112da","ios":"levelo://app?vid=f27962d7-2fd4-4794-b771-0341224112da"},"vehicle_type_id":"4","last_reported":1737817655,"current_range_meters":14000,"station_id":"ce4bhe12rcd13ifvqf30","pricing_plan_id":"cebpf4jnsgd1na2vs0mg"},{"bike_id":"58d9e3df-28a3-4560-b2cd-4d33fefbd544","system_id":"levelo_inurba_marseille","lat":43.28367,"lon":5.38133,"is_reserved":false,"is_disabled":true,"rental_uris":{"android":"levelo://app?vid=58d9e3df-28a3-4560-b2cd-4d33fefbd544","ios":"levelo://app?vid=58d9e3df-28a3-4560-b2cd-4d33fefbd544"},"vehicle_type_id":"4","last_reported":1737817655,"current_range_meters":22400,"station_id":"ce4bh412rcd13ifvqdr0","pricing_plan_id":"cebpf4jnsgd1na2vs0mg"},{"bike_id":"4914872c-162c-4b5d-a9af-cff65f389580","system_id":"levelo_inurba_marseille","lat":43.29612,"lon":5.3811,"is_reserved":false,"is_disabled":true,"rental_uris":{"android":"levelo://app?vid=4914872c-162c-4b5d-a9af-cff65f389580","ios":"levelo://app?vid=4914872c-162c-4b5d-a9af-cff65f389580"},"vehicle_type_id":"4","last_reported":1737817655,"current_range_meters":0,"station_id":"ce4bgl12rcd13ifvqbo0","pricing_plan_id":"cebpf4jnsgd1na2vs0mg"},{"bike_id":"f19dc989-9b1f-48ea-abf9-5fac135f6a39","system_id":"levelo_inurba_marseille","lat":43.282805,"lon":5.350843,"is_reserved":false,"is_disabled":false,"rental_uris":{"android":"levelo://app?vid=f19dc989-9b1f-48ea-abf9-5fac135f6a39","ios":"levelo://app?vid=f19dc989-9b1f-48ea-abf9-5fac135f6a39"},"vehicle_type_id":"4","last_reported":1737817655,"current_range_meters":38800,"station_id":"ce4bhbp2rcd13ifvqerg","pricing_plan_id":"cebpf4jnsgd1na2vs0mg"},{"bike_id":"4898beda-8ebb-4b62-b786-1bdb0b5a4c4a","system_id":"levelo_inurba_marseille","lat":43.27325,"lon":5.39083,"is_reserved":false,"is_disabled":false,"rental_uris":{"android":"levelo://app?vid=4898beda-8ebb-4b62-b786-1bdb0b5a4c4a","ios":"levelo://app?vid=4898beda-8ebb-4b62-b786-1bdb0b5a4c4a"},"vehicle_type_id":"4","last_reported":1737817655,"current_range_meters":4800,"station_id":"ce4bhgp2rcd13ifvqfe0","pricing_plan_id":"cebpf4jnsgd1na2vs0mg"},{"bike_id":"9cd935b4-92d7-4255-b99d-f191efa7fd6f","system_id":"levelo_inurba_marseille","lat":43.23968,"lon":5.36629,"is_reserved":false,"is_disabled":false,"rental_uris":{"android":"levelo://app?vid=9cd935b4-92d7-4255-b99d-f191efa7fd6f","ios":"levelo://app?vid=9cd935b4-92d7-4255-b99d-f191efa7fd6f"},"vehicle_type_id":"4","last_reported":1737817655,"current_range_meters":3600,"station_id":"ce4bhi12rcd13ifvqfp0","pricing_plan_id":"cebpf4jnsgd1na2vs0mg"},{"bike_id":"b75fb621-ddf4-43e4-8307-4e53f1879d3d","system_id":"levelo_inurba_marseille","lat":43.30555,"lon":5.36543,"is_reserved":false,"is_disabled":false,"rental_uris":{"android":"levelo://app?vid=b75fb621-ddf4-43e4-8307-4e53f1879d3d","ios":"levelo://app?vid=b75fb621-ddf4-43e4-8307-4e53f1879d3d"},"vehicle_type_id":"4","last_reported":1737817655,"current_range_meters":36000,"station_id":"ce4bgs12rcd13ifvqcag","pricing_plan_id":"cebpf4jnsgd1na2vs0mg"},{"bike_id":"b1279c7a-1446-4139-9aa3-d2ea00fcb203","system_id":"levelo_inurba_marseille","lat":43.3255,"lon":5.41457,"is_reserved":false,"is_disabled":false,"rental_uris":{"android":"levelo://app?vid=b1279c7a-1446-4139-9aa3-d2ea00fcb203","ios":"levelo://app?vid=b1279c7a-1446-4139-9aa3-d2ea00fcb203"},"vehicle_type_id":"4","last_reported":1737817655,"current_range_meters":36800,"station_id":"ce4bhq12rcd13ifvqhhg","pricing_plan_id":"cebpf4jnsgd1na2vs0mg"},{"bike_id":"ac762e60-34de-4399-9138-ca6ecb5f6af4","system_id":"levelo_inurba_marseille","lat":43.25111,"lon":5.40319,"is_reserved":false,"is_disabled":true,"rental_uris":{"android":"levelo://app?vid=ac762e60-34de-4399-9138-ca6ecb5f6af4","ios":"levelo://app?vid=ac762e60-34de-4399-9138-ca6ecb5f6af4"},"vehicle_type_id":"4","last_reported":1737817655,"current_range_meters":800,"station_id":"ce4bhlh2rcd13ifvqgig","pricing_plan_id":"cebpf4jnsgd1na2vs0mg"},{"bike_id":"0baf6bb1-ae3b-4f40-9890-3b19373a2695","system_id":"levelo_inurba_marseille","lat":43.29974,"lon":5.38498,"is_reserved":false,"is_disabled":false,"rental_uris":{"android":"levelo://app?vid=0baf6bb1-ae3b-4f40-9890-3b19373a2695","ios":"levelo://app?vid=0baf6bb1-ae3b-4f40-9890-3b19373a2695"},"vehicle_type_id":"4","last_reported":1737817655,"current_range_meters":36800,"station_id":"ce4bgj92rcd13ifvqbd0","pricing_plan_id":"cebpf4jnsgd1na2vs0mg"},{"bike_id":"93dc5781-3668-4cf2-a5a4-eb10e0722845","system_id":"levelo_inurba_marseille","lat":43.30148,"lon":5.38068,"is_reserved":false,"is_disabled":false,"rental_uris":{"android":"levelo://app?vid=93dc5781-3668-4cf2-a5a4-eb10e0722845","ios":"levelo://app?vid=93dc5781-3668-4cf2-a5a4-eb10e0722845"},"vehicle_type_id":"4","last_reported":1737817655,"current_range_meters":26800,"station_id":"ce4bgjp2rcd13ifvqbh0","pricing_plan_id":"cebpf4jnsgd1na2vs0mg"},{"bike_id":"e5a30d51-78ea-43cc-a39d-c28354fa034e","system_id":"levelo_inurba_marseille","lat":43.29901,"lon":5.38147,"is_reserved":false,"is_disabled":false,"rental_uris":{"android":"levelo://app?vid=e5a30d51-78ea-43cc-a39d-c28354fa034e","ios":"levelo://app?vid=e5a30d51-78ea-43cc-a39d-c28354fa034e"},"vehicle_type_id":"4","last_reported":1737817655,"current_range_meters":35200,"station_id":"ce4bgj12rcd13ifvqbc0","pricing_plan_id":"cebpf4jnsgd1na2vs0mg"},{"bike_id":"34fd7956-88f6-4bc0-8512-2636610900a4","system_id":"levelo_inurba_marseille","lat":43.23192,"lon":5.35562,"is_reserved":false,"is_disabled":true,"rental_uris":{"android":"levelo://app?vid=34fd7956-88f6-4bc0-8512-2636610900a4","ios":"levelo://app?vid=34fd7956-88f6-4bc0-8512-2636610900a4"},"vehicle_type_id":"4","last_reported":1737817655,"current_range_meters":0,"station_id":"ce4bhu92rcd13ifvqi70","pricing_plan_id":"cebpf4jnsgd1na2vs0mg"},{"bike_id":"9d5ccda8-3701-45d5-9f90-ad50ba3514f0","system_id":"levelo_inurba_marseille","lat":43.28427,"lon":5.35,"is_reserved":false,"is_disabled":false,"rental_uris":{"android":"levelo://app?vid=9d5ccda8-3701-45d5-9f90-ad50ba3514f0","ios":"levelo://app?vid=9d5ccda8-3701-45d5-9f90-ad50ba3514f0"},"vehicle_type_id":"4","last_reported":1737817655,"current_range_meters":24800,"station_id":"ce4bhbh2rcd13ifvqepg","pricing_plan_id":"cebpf4jnsgd1na2vs0mg"},{"bike_id":"b8dabcf6-0a30-4ef3-864d-5a2b0008cb16","system_id":"levelo_inurba_marseille","lat":43.31709,"lon":5.43716,"is_reserved":false,"is_disabled":false,"rental_uris":{"android":"levelo://app?vid=b8dabcf6-0a30-4ef3-864d-5a2b0008cb16","ios":"levelo://app?vid=b8dabcf6-0a30-4ef3-864d-5a2b0008cb16"},"vehicle_type_id":"4","last_reported":1737817655,"current_range_meters":17600,"station_id":"ce4bhp92rcd13ifvqhcg","pricing_plan_id":"cebpf4jnsgd1na2vs0mg"},{"bike_id":"566cb5da-aeca-4016-a5da-1e3b3810d6e4","system_id":"levelo_inurba_marseille","lat":43.3266,"lon":5.40993,"is_reserved":false,"is_disabled":false,"rental_uris":{"android":"levelo://app?vid=566cb5da-aeca-4016-a5da-1e3b3810d6e4","ios":"levelo://app?vid=566cb5da-aeca-4016-a5da-1e3b3810d6e4"},"vehicle_type_id":"4","last_reported":1737817655,"current_range_meters":38400,"station_id":"ce4bhpp2rcd13ifvqhgg","pricing_plan_id":"cebpf4jnsgd1na2vs0mg"},{"bike_id":"74e364cc-2306-441e-81f3-ee04e55cb71d","system_id":"levelo_inurba_marseille","lat":43.32362,"lon":5.36759,"is_reserved":false,"is_disabled":false,"rental_uris":{"android":"levelo://app?vid=74e364cc-2306-441e-81f3-ee04e55cb71d","ios":"levelo://app?vid=74e364cc-2306-441e-81f3-ee04e55cb71d"},"vehicle_type_id":"4","last_reported":1737817655,"current_range_meters":3200,"station_id":"ce4bhsh2rcd13ifvqi2g","pricing_plan_id":"cebpf4jnsgd1na2vs0mg"},{"bike_id":"6c656a30-f69a-42b1-a09a-f34a34ccdccd","system_id":"levelo_inurba_marseille","lat":43.29524,"lon":5.38527,"is_reserved":false,"is_disabled":true,"rental_uris":{"android":"levelo://app?vid=6c656a30-f69a-42b1-a09a-f34a34ccdccd","ios":"levelo://app?vid=6c656a30-f69a-42b1-a09a-f34a34ccdccd"},"vehicle_type_id":"4","last_reported":1737817655,"current_range_meters":2000,"station_id":"ce4bgih2rcd13ifvqba0","pricing_plan_id":"cebpf4jnsgd1na2vs0mg"},{"bike_id":"f8491b3f-f531-4502-bfd1-3c704646862e","system_id":"levelo_inurba_marseille","lat":43.254932,"lon":5.376449,"is_reserved":false,"is_disabled":false,"rental_uris":{"android":"levelo://app?vid=f8491b3f-f531-4502-bfd1-3c704646862e","ios":"levelo://app?vid=f8491b3f-f531-4502-bfd1-3c704646862e"},"vehicle_type_id":"4","last_reported":1737817655,"current_range_meters":36800,"station_id":"ce4bhh12rcd13ifvqff0","pricing_plan_id":"cebpf4jnsgd1na2vs0mg"},{"bike_id":"4e4c21f1-31be-4bf3-860c-01436ea78d15","system_id":"levelo_inurba_marseille","lat":43.27375,"lon":5.36255,"is_reserved":false,"is_disabled":false,"rental_uris":{"android":"levelo://app?vid=4e4c21f1-31be-4bf3-860c-01436ea78d15","ios":"levelo://app?vid=4e4c21f1-31be-4bf3-860c-01436ea78d15"},"vehicle_type_id":"4","last_reported":1737817655,"current_range_meters":7200,"station_id":"ce4bhbh2rcd13ifvqeo0","pricing_plan_id":"cebpf4jnsgd1na2vs0mg"},{"bike_id":"d6fd12db-b649-491b-ae85-e4bec940de64","system_id":"levelo_inurba_marseille","lat":43.3054,"lon":5.36546,"is_reserved":false,"is_disabled":false,"rental_uris":{"android":"levelo://app?vid=d6fd12db-b649-491b-ae85-e4bec940de64","ios":"levelo://app?vid=d6fd12db-b649-491b-ae85-e4bec940de64"},"vehicle_type_id":"4","last_reported":1737817655,"current_range_meters":38800,"station_id":"ce4bgs12rcd13ifvqcag","pricing_plan_id":"cebpf4jnsgd1na2vs0mg"},{"bike_id":"8f065bce-99a2-4c27-a9d1-fe978a2a8ee0","system_id":"levelo_inurba_marseille","lat":43.29097,"lon":5.38132,"is_reserved":false,"is_disabled":true,"rental_uris":{"android":"levelo://app?vid=8f065bce-99a2-4c27-a9d1-fe978a2a8ee0","ios":"levelo://app?vid=8f065bce-99a2-4c27-a9d1-fe978a2a8ee0"},"vehicle_type_id":"4","last_reported":1737817655,"current_range_meters":2000,"station_id":"ce4bh512rcd13ifvqe2g","pricing_plan_id":"cebpf4jnsgd1na2vs0mg"},{"bike_id":"893c19b2-abfa-4ddc-b003-d9a28d409b3b","system_id":"levelo_inurba_marseille","lat":43.26563,"lon":5.37295,"is_reserved":false,"is_disabled":false,"rental_uris":{"android":"levelo://app?vid=893c19b2-abfa-4ddc-b003-d9a28d409b3b","ios":"levelo://app?vid=893c19b2-abfa-4ddc-b003-d9a28d409b3b"},"vehicle_type_id":"4","last_reported":1737817655,"current_range_meters":32400,"station_id":"ce4bhg12rcd13ifvqf70","pricing_plan_id":"cebpf4jnsgd1na2vs0mg"},{"bike_id":"2dde1f1c-4dc9-4033-bf0d-6771e7af02b4","system_id":"levelo_inurba_marseille","lat":43.262215,"lon":5.374309,"is_reserved":false,"is_disabled":false,"rental_uris":{"android":"levelo://app?vid=2dde1f1c-4dc9-4033-bf0d-6771e7af02b4","ios":"levelo://app?vid=2dde1f1c-4dc9-4033-bf0d-6771e7af02b4"},"vehicle_type_id":"4","last_reported":1737817655,"current_range_meters":12400,"station_id":"","pricing_plan_id":"cebpf4jnsgd1na2vs0mg"},{"bike_id":"7ff41bb0-58bb-4e7a-856f-2a2aba66f15e","system_id":"levelo_inurba_marseille","lat":43.31713,"lon":5.43704,"is_reserved":false,"is_disabled":false,"rental_uris":{"android":"levelo://app?vid=7ff41bb0-58bb-4e7a-856f-2a2aba66f15e","ios":"levelo://app?vid=7ff41bb0-58bb-4e7a-856f-2a2aba66f15e"},"vehicle_type_id":"4","last_reported":1737817655,"current_range_meters":38800,"station_id":"ce4bhp92rcd13ifvqhcg","pricing_plan_id":"cebpf4jnsgd1na2vs0mg"},{"bike_id":"fe184b4b-9d25-408a-9883-cb03c07b1e90","system_id":"levelo_inurba_marseille","lat":43.23187,"lon":5.35549,"is_reserved":false,"is_disabled":false,"rental_uris":{"android":"levelo://app?vid=fe184b4b-9d25-408a-9883-cb03c07b1e90","ios":"levelo://app?vid=fe184b4b-9d25-408a-9883-cb03c07b1e90"},"vehicle_type_id":"4","last_reported":1737817655,"current_range_meters":29600,"station_id":"ce4bhu92rcd13ifvqi70","pricing_plan_id":"cebpf4jnsgd1na2vs0mg"},{"bike_id":"b8c7ac08-94bb-4c1a-be59-442ad905fc87","system_id":"levelo_inurba_marseille","lat":43.29238,"lon":5.36606,"is_reserved":false,"is_disabled":false,"rental_uris":{"android":"levelo://app?vid=b8c7ac08-94bb-4c1a-be59-442ad905fc87","ios":"levelo://app?vid=b8c7ac08-94bb-4c1a-be59-442ad905fc87"},"vehicle_type_id":"4","last_reported":1737817655,"current_range_meters":34000,"station_id":"","pricing_plan_id":"cebpf4jnsgd1na2vs0mg"},{"bike_id":"47344f6b-c478-4169-9f67-1f0e1752d440","system_id":"levelo_inurba_marseille","lat":43.25572,"lon":5.38235,"is_reserved":false,"is_disabled":false,"rental_uris":{"android":"levelo://app?vid=47344f6b-c478-4169-9f67-1f0e1752d440","ios":"levelo://app?vid=47344f6b-c478-4169-9f67-1f0e1752d440"},"vehicle_type_id":"4","last_reported":1737817655,"current_range_meters":38400,"station_id":"ce4bhih2rcd13ifvqfs0","pricing_plan_id":"cebpf4jnsgd1na2vs0mg"},{"bike_id":"6bdad3b6-36fc-4a30-8107-20349a2ce187","system_id":"levelo_inurba_marseille","lat":43.29054,"lon":5.3713,"is_reserved":false,"is_disabled":false,"rental_uris":{"android":"levelo://app?vid=6bdad3b6-36fc-4a30-8107-20349a2ce187","ios":"levelo://app?vid=6bdad3b6-36fc-4a30-8107-20349a2ce187"},"vehicle_type_id":"4","last_reported":1737817655,"current_range_meters":25600,"station_id":"ce4bh5p2rcd13ifvqe4g","pricing_plan_id":"cebpf4jnsgd1na2vs0mg"},{"bike_id":"1261b509-8885-4cc1-a428-b6274d9a5c58","system_id":"levelo_inurba_marseille","lat":43.29275,"lon":5.36849,"is_reserved":false,"is_disabled":true,"rental_uris":{"android":"levelo://app?vid=1261b509-8885-4cc1-a428-b6274d9a5c58","ios":"levelo://app?vid=1261b509-8885-4cc1-a428-b6274d9a5c58"},"vehicle_type_id":"4","last_reported":1737817655,"current_range_meters":2000,"station_id":"ce4bhbp2rcd13ifvqesg","pricing_plan_id":"cebpf4jnsgd1na2vs0mg"},{"bike_id":"d97b23ac-1532-416d-97a4-ebdf3acd4687","system_id":"levelo_inurba_marseille","lat":43.28431,"lon":5.34991,"is_reserved":false,"is_disabled":false,"rental_uris":{"android":"levelo://app?vid=d97b23ac-1532-416d-97a4-ebdf3acd4687","ios":"levelo://app?vid=d97b23ac-1532-416d-97a4-ebdf3acd4687"},"vehicle_type_id":"4","last_reported":1737817655,"current_range_meters":24800,"station_id":"ce4bhbh2rcd13ifvqepg","pricing_plan_id":"cebpf4jnsgd1na2vs0mg"},{"bike_id":"fb808329-bb1c-436f-ad08-ef3def9dcd97","system_id":"levelo_inurba_marseille","lat":43.28933,"lon":5.36646,"is_reserved":false,"is_disabled":false,"rental_uris":{"android":"levelo://app?vid=fb808329-bb1c-436f-ad08-ef3def9dcd97","ios":"levelo://app?vid=fb808329-bb1c-436f-ad08-ef3def9dcd97"},"vehicle_type_id":"4","last_reported":1737817655,"current_range_meters":22800,"station_id":"ce4bhap2rcd13ifvqek0","pricing_plan_id":"cebpf4jnsgd1na2vs0mg"},{"bike_id":"7e6de5d3-c972-4637-917c-42d299ee1d71","system_id":"levelo_inurba_marseille","lat":43.26557,"lon":5.37281,"is_reserved":false,"is_disabled":false,"rental_uris":{"android":"levelo://app?vid=7e6de5d3-c972-4637-917c-42d299ee1d71","ios":"levelo://app?vid=7e6de5d3-c972-4637-917c-42d299ee1d71"},"vehicle_type_id":"4","last_reported":1737817655,"current_range_meters":28800,"station_id":"ce4bhg12rcd13ifvqf70","pricing_plan_id":"cebpf4jnsgd1na2vs0mg"},{"bike_id":"8019714b-4192-4a2f-9c28-3618de92e0e8","system_id":"levelo_inurba_marseille","lat":43.26557,"lon":5.37283,"is_reserved":false,"is_disabled":true,"rental_uris":{"android":"levelo://app?vid=8019714b-4192-4a2f-9c28-3618de92e0e8","ios":"levelo://app?vid=8019714b-4192-4a2f-9c28-3618de92e0e8"},"vehicle_type_id":"4","last_reported":1737817655,"current_range_meters":400,"station_id":"ce4bhg12rcd13ifvqf70","pricing_plan_id":"cebpf4jnsgd1na2vs0mg"},{"bike_id":"15e02ea5-3704-4806-a103-cbd661a067f9","system_id":"levelo_inurba_marseille","lat":43.28278,"lon":5.35142,"is_reserved":false,"is_disabled":false,"rental_uris":{"android":"levelo://app?vid=15e02ea5-3704-4806-a103-cbd661a067f9","ios":"levelo://app?vid=15e02ea5-3704-4806-a103-cbd661a067f9"},"vehicle_type_id":"4","last_reported":1737817655,"current_range_meters":30400,"station_id":"","pricing_plan_id":"cebpf4jnsgd1na2vs0mg"},{"bike_id":"db0a3bcb-350e-4142-85a9-f58149373505","system_id":"levelo_inurba_marseille","lat":43.26212,"lon":5.37448,"is_reserved":false,"is_disabled":false,"rental_uris":{"android":"levelo://app?vid=db0a3bcb-350e-4142-85a9-f58149373505","ios":"levelo://app?vid=db0a3bcb-350e-4142-85a9-f58149373505"},"vehicle_type_id":"4","last_reported":1737817655,"current_range_meters":3200,"station_id":"ce4bhgp2rcd13ifvqfc0","pricing_plan_id":"cebpf4jnsgd1na2vs0mg"},{"bike_id":"8bff3737-7ad1-4a2d-b95e-00cdc620b4a8","system_id":"levelo_inurba_marseille","lat":43.29842,"lon":5.36278,"is_reserved":false,"is_disabled":false,"rental_uris":{"android":"levelo://app?vid=8bff3737-7ad1-4a2d-b95e-00cdc620b4a8","ios":"levelo://app?vid=8bff3737-7ad1-4a2d-b95e-00cdc620b4a8"},"vehicle_type_id":"4","last_reported":1737817655,"current_range_meters":17200,"station_id":"ce4bgpp2rcd13ifvqc3g","pricing_plan_id":"cebpf4jnsgd1na2vs0mg"},{"bike_id":"3608a3cf-49c3-46d4-b709-f8e9629a9213","system_id":"levelo_inurba_marseille","lat":43.24653,"lon":5.38891,"is_reserved":false,"is_disabled":false,"rental_uris":{"android":"levelo://app?vid=3608a3cf-49c3-46d4-b709-f8e9629a9213","ios":"levelo://app?vid=3608a3cf-49c3-46d4-b709-f8e9629a9213"},"vehicle_type_id":"4","last_reported":1737817655,"current_range_meters":4000,"station_id":"ce4bhg12rcd13ifvqf60","pricing_plan_id":"cebpf4jnsgd1na2vs0mg"},{"bike_id":"51461867-68c8-48be-85b6-7ba36224243a","system_id":"levelo_inurba_marseille","lat":43.28615,"lon":5.35105,"is_reserved":false,"is_disabled":false,"rental_uris":{"android":"levelo://app?vid=51461867-68c8-48be-85b6-7ba36224243a","ios":"levelo://app?vid=51461867-68c8-48be-85b6-7ba36224243a"},"vehicle_type_id":"4","last_reported":1737817655,"current_range_meters":19600,"station_id":"ce4bhch2rcd13ifvqeug","pricing_plan_id":"cebpf4jnsgd1na2vs0mg"},{"bike_id":"8255dbbf-6c45-432a-91ed-9addf8fa8ef1","system_id":"levelo_inurba_marseille","lat":43.27366,"lon":5.36258,"is_reserved":false,"is_disabled":false,"rental_uris":{"android":"levelo://app?vid=8255dbbf-6c45-432a-91ed-9addf8fa8ef1","ios":"levelo://app?vid=8255dbbf-6c45-432a-91ed-9addf8fa8ef1"},"vehicle_type_id":"4","last_reported":1737817655,"current_range_meters":27600,"station_id":"ce4bhbh2rcd13ifvqeo0","pricing_plan_id":"cebpf4jnsgd1na2vs0mg"},{"bike_id":"3ece7f16-845a-4635-921c-48f77d2ee0f1","system_id":"levelo_inurba_marseille","lat":43.29576,"lon":5.37508,"is_reserved":false,"is_disabled":false,"rental_uris":{"android":"levelo://app?vid=3ece7f16-845a-4635-921c-48f77d2ee0f1","ios":"levelo://app?vid=3ece7f16-845a-4635-921c-48f77d2ee0f1"},"vehicle_type_id":"4","last_reported":1737817655,"current_range_meters":3200,"station_id":"ce4bgh92rcd13ifvqb50","pricing_plan_id":"cebpf4jnsgd1na2vs0mg"},{"bike_id":"153a8634-16ab-4d38-99eb-91542391be8d","system_id":"levelo_inurba_marseille","lat":43.29571,"lon":5.37504,"is_reserved":false,"is_disabled":false,"rental_uris":{"android":"levelo://app?vid=153a8634-16ab-4d38-99eb-91542391be8d","ios":"levelo://app?vid=153a8634-16ab-4d38-99eb-91542391be8d"},"vehicle_type_id":"4","last_reported":1737817655,"current_range_meters":36800,"station_id":"ce4bgh92rcd13ifvqb50","pricing_plan_id":"cebpf4jnsgd1na2vs0mg"},{"bike_id":"f1baf659-b2a3-4748-aac5-70bd2af5ad0b","system_id":"levelo_inurba_marseille","lat":43.27998,"lon":5.40008,"is_reserved":false,"is_disabled":false,"rental_uris":{"android":"levelo://app?vid=f1baf659-b2a3-4748-aac5-70bd2af5ad0b","ios":"levelo://app?vid=f1baf659-b2a3-4748-aac5-70bd2af5ad0b"},"vehicle_type_id":"4","last_reported":1737817655,"current_range_meters":14400,"station_id":"ce4bho92rcd13ifvqh4g","pricing_plan_id":"cebpf4jnsgd1na2vs0mg"},{"bike_id":"bf3c03cd-7438-4933-8f22-68c815fbf96c","system_id":"levelo_inurba_marseille","lat":43.28618,"lon":5.351,"is_reserved":false,"is_disabled":false,"rental_uris":{"android":"levelo://app?vid=bf3c03cd-7438-4933-8f22-68c815fbf96c","ios":"levelo://app?vid=bf3c03cd-7438-4933-8f22-68c815fbf96c"},"vehicle_type_id":"4","last_reported":1737817655,"current_range_meters":38800,"station_id":"ce4bhch2rcd13ifvqeug","pricing_plan_id":"cebpf4jnsgd1na2vs0mg"},{"bike_id":"34aa6db6-d08c-4f6b-ad5e-1bad446eaa72","system_id":"levelo_inurba_marseille","lat":43.23178,"lon":5.39989,"is_reserved":false,"is_disabled":false,"rental_uris":{"android":"levelo://app?vid=34aa6db6-d08c-4f6b-ad5e-1bad446eaa72","ios":"levelo://app?vid=34aa6db6-d08c-4f6b-ad5e-1bad446eaa72"},"vehicle_type_id":"4","last_reported":1737817655,"current_range_meters":38000,"station_id":"ce4bhn12rcd13ifvqgqg","pricing_plan_id":"cebpf4jnsgd1na2vs0mg"},{"bike_id":"ed95b7eb-14f4-41e7-a0cd-0aa4f4431a8f","system_id":"levelo_inurba_marseille","lat":43.28945,"lon":5.36395,"is_reserved":false,"is_disabled":false,"rental_uris":{"android":"levelo://app?vid=ed95b7eb-14f4-41e7-a0cd-0aa4f4431a8f","ios":"levelo://app?vid=ed95b7eb-14f4-41e7-a0cd-0aa4f4431a8f"},"vehicle_type_id":"4","last_reported":1737817655,"current_range_meters":15200,"station_id":"ce4bhc92rcd13ifvqetg","pricing_plan_id":"cebpf4jnsgd1na2vs0mg"},{"bike_id":"c54f5b2e-f783-418a-8119-a38c5ea2c0aa","system_id":"levelo_inurba_marseille","lat":43.29001,"lon":5.35609,"is_reserved":false,"is_disabled":true,"rental_uris":{"android":"levelo://app?vid=c54f5b2e-f783-418a-8119-a38c5ea2c0aa","ios":"levelo://app?vid=c54f5b2e-f783-418a-8119-a38c5ea2c0aa"},"vehicle_type_id":"4","last_reported":1737817655,"current_range_meters":9200,"station_id":"ce4bhb92rcd13ifvqen0","pricing_plan_id":"cebpf4jnsgd1na2vs0mg"},{"bike_id":"9838cc78-2b53-49d3-ae13-82df62c4fd64","system_id":"levelo_inurba_marseille","lat":43.2843,"lon":5.40941,"is_reserved":false,"is_disabled":true,"rental_uris":{"android":"levelo://app?vid=9838cc78-2b53-49d3-ae13-82df62c4fd64","ios":"levelo://app?vid=9838cc78-2b53-49d3-ae13-82df62c4fd64"},"vehicle_type_id":"4","last_reported":1737817655,"current_range_meters":0,"station_id":"","pricing_plan_id":"cebpf4jnsgd1na2vs0mg"},{"bike_id":"cd2c3e6b-4e99-4030-8f38-99ce34b03608","system_id":"levelo_inurba_marseille","lat":43.26566,"lon":5.39006,"is_reserved":false,"is_disabled":true,"rental_uris":{"android":"levelo://app?vid=cd2c3e6b-4e99-4030-8f38-99ce34b03608","ios":"levelo://app?vid=cd2c3e6b-4e99-4030-8f38-99ce34b03608"},"vehicle_type_id":"4","last_reported":1737817655,"current_range_meters":800,"station_id":"ce4bhe12rcd13ifvqf30","pricing_plan_id":"cebpf4jnsgd1na2vs0mg"},{"bike_id":"90827b48-9a37-41e8-8984-482e009af4e3","system_id":"levelo_inurba_marseille","lat":43.29642,"lon":5.42227,"is_reserved":false,"is_disabled":false,"rental_uris":{"android":"levelo://app?vid=90827b48-9a37-41e8-8984-482e009af4e3","ios":"levelo://app?vid=90827b48-9a37-41e8-8984-482e009af4e3"},"vehicle_type_id":"4","last_reported":1737817655,"current_range_meters":20400,"station_id":"ce4bh112rcd13ifvqda0","pricing_plan_id":"cebpf4jnsgd1na2vs0mg"},{"bike_id":"ae14495d-03f6-4aa8-8991-0542179a3eb8","system_id":"levelo_inurba_marseille","lat":43.2925,"lon":5.36845,"is_reserved":false,"is_disabled":false,"rental_uris":{"android":"levelo://app?vid=ae14495d-03f6-4aa8-8991-0542179a3eb8","ios":"levelo://app?vid=ae14495d-03f6-4aa8-8991-0542179a3eb8"},"vehicle_type_id":"4","last_reported":1737817655,"current_range_meters":17200,"station_id":"ce4bhbp2rcd13ifvqesg","pricing_plan_id":"cebpf4jnsgd1na2vs0mg"},{"bike_id":"4a1050b4-e53c-4bec-a9d2-498b4394d897","system_id":"levelo_inurba_marseille","lat":43.28668,"lon":5.3867,"is_reserved":false,"is_disabled":false,"rental_uris":{"android":"levelo://app?vid=4a1050b4-e53c-4bec-a9d2-498b4394d897","ios":"levelo://app?vid=4a1050b4-e53c-4bec-a9d2-498b4394d897"},"vehicle_type_id":"4","last_reported":1737817655,"current_range_meters":35600,"station_id":"ce4bh492rcd13ifvqdug","pricing_plan_id":"cebpf4jnsgd1na2vs0mg"},{"bike_id":"bf096a89-ee72-4f37-85bd-7b3cf9f0cb41","system_id":"levelo_inurba_marseille","lat":43.3372,"lon":5.39195,"is_reserved":false,"is_disabled":false,"rental_uris":{"android":"levelo://app?vid=bf096a89-ee72-4f37-85bd-7b3cf9f0cb41","ios":"levelo://app?vid=bf096a89-ee72-4f37-85bd-7b3cf9f0cb41"},"vehicle_type_id":"4","last_reported":1737817655,"current_range_meters":30800,"station_id":"ce4bhr92rcd13ifvqhsg","pricing_plan_id":"cebpf4jnsgd1na2vs0mg"},{"bike_id":"66d1f8cf-8260-44c6-89e8-aa09a832fe98","system_id":"levelo_inurba_marseille","lat":43.24682,"lon":5.38157,"is_reserved":false,"is_disabled":true,"rental_uris":{"android":"levelo://app?vid=66d1f8cf-8260-44c6-89e8-aa09a832fe98","ios":"levelo://app?vid=66d1f8cf-8260-44c6-89e8-aa09a832fe98"},"vehicle_type_id":"4","last_reported":1737817655,"current_range_meters":0,"station_id":"ce4bhih2rcd13ifvqfr0","pricing_plan_id":"cebpf4jnsgd1na2vs0mg"},{"bike_id":"55484666-3036-4f10-9cf4-3205ec5b4812","system_id":"levelo_inurba_marseille","lat":43.26562,"lon":5.38998,"is_reserved":false,"is_disabled":true,"rental_uris":{"android":"levelo://app?vid=55484666-3036-4f10-9cf4-3205ec5b4812","ios":"levelo://app?vid=55484666-3036-4f10-9cf4-3205ec5b4812"},"vehicle_type_id":"4","last_reported":1737817655,"current_range_meters":0,"station_id":"ce4bhe12rcd13ifvqf30","pricing_plan_id":"cebpf4jnsgd1na2vs0mg"},{"bike_id":"d69cf1fa-59ad-4f44-a9fb-82fbbe1b6b05","system_id":"levelo_inurba_marseille","lat":43.30799,"lon":5.4353,"is_reserved":false,"is_disabled":false,"rental_uris":{"android":"levelo://app?vid=d69cf1fa-59ad-4f44-a9fb-82fbbe1b6b05","ios":"levelo://app?vid=d69cf1fa-59ad-4f44-a9fb-82fbbe1b6b05"},"vehicle_type_id":"4","last_reported":1737817655,"current_range_meters":28000,"station_id":"ce4bhph2rcd13ifvqheg","pricing_plan_id":"cebpf4jnsgd1na2vs0mg"},{"bike_id":"f6e2a664-8ca3-4446-8dcf-4e69c7308a82","system_id":"levelo_inurba_marseille","lat":43.28617,"lon":5.35113,"is_reserved":false,"is_disabled":false,"rental_uris":{"android":"levelo://app?vid=f6e2a664-8ca3-4446-8dcf-4e69c7308a82","ios":"levelo://app?vid=f6e2a664-8ca3-4446-8dcf-4e69c7308a82"},"vehicle_type_id":"4","last_reported":1737817655,"current_range_meters":38800,"station_id":"ce4bhch2rcd13ifvqeug","pricing_plan_id":"cebpf4jnsgd1na2vs0mg"},{"bike_id":"91ce876b-fa38-4947-94f7-5ac1649bdafa","system_id":"levelo_inurba_marseille","lat":43.30552,"lon":5.36526,"is_reserved":false,"is_disabled":false,"rental_uris":{"android":"levelo://app?vid=91ce876b-fa38-4947-94f7-5ac1649bdafa","ios":"levelo://app?vid=91ce876b-fa38-4947-94f7-5ac1649bdafa"},"vehicle_type_id":"4","last_reported":1737817655,"current_range_meters":11200,"station_id":"ce4bgs12rcd13ifvqcag","pricing_plan_id":"cebpf4jnsgd1na2vs0mg"},{"bike_id":"2e0a8b86-b457-48a0-8577-213b01080398","system_id":"levelo_inurba_marseille","lat":43.232,"lon":5.35553,"is_reserved":false,"is_disabled":false,"rental_uris":{"android":"levelo://app?vid=2e0a8b86-b457-48a0-8577-213b01080398","ios":"levelo://app?vid=2e0a8b86-b457-48a0-8577-213b01080398"},"vehicle_type_id":"4","last_reported":1737817655,"current_range_meters":24800,"station_id":"ce4bhu92rcd13ifvqi70","pricing_plan_id":"cebpf4jnsgd1na2vs0mg"},{"bike_id":"a7cf4467-440c-4bb8-a849-e8f193507576","system_id":"levelo_inurba_marseille","lat":43.29721,"lon":5.37627,"is_reserved":false,"is_disabled":false,"rental_uris":{"android":"levelo://app?vid=a7cf4467-440c-4bb8-a849-e8f193507576","ios":"levelo://app?vid=a7cf4467-440c-4bb8-a849-e8f193507576"},"vehicle_type_id":"4","last_reported":1737817655,"current_range_meters":29600,"station_id":"ce4bgkh2rcd13ifvqbl0","pricing_plan_id":"cebpf4jnsgd1na2vs0mg"},{"bike_id":"e82397ad-f05a-47b8-82e7-cc53537eb579","system_id":"levelo_inurba_marseille","lat":43.25007,"lon":5.3894,"is_reserved":false,"is_disabled":false,"rental_uris":{"android":"levelo://app?vid=e82397ad-f05a-47b8-82e7-cc53537eb579","ios":"levelo://app?vid=e82397ad-f05a-47b8-82e7-cc53537eb579"},"vehicle_type_id":"4","last_reported":1737817655,"current_range_meters":10000,"station_id":"ce4bhgp2rcd13ifvqfd0","pricing_plan_id":"cebpf4jnsgd1na2vs0mg"},{"bike_id":"abf932c6-d832-4018-a3fb-c1a8ca358fc9","system_id":"levelo_inurba_marseille","lat":43.30416,"lon":5.39756,"is_reserved":false,"is_disabled":false,"rental_uris":{"android":"levelo://app?vid=abf932c6-d832-4018-a3fb-c1a8ca358fc9","ios":"levelo://app?vid=abf932c6-d832-4018-a3fb-c1a8ca358fc9"},"vehicle_type_id":"4","last_reported":1737817655,"current_range_meters":36400,"station_id":"ce4bh092rcd13ifvqd20","pricing_plan_id":"cebpf4jnsgd1na2vs0mg"},{"bike_id":"87a5bed0-aef1-423b-bd85-fe44fdeeb863","system_id":"levelo_inurba_marseille","lat":43.3372,"lon":5.3919,"is_reserved":false,"is_disabled":false,"rental_uris":{"android":"levelo://app?vid=87a5bed0-aef1-423b-bd85-fe44fdeeb863","ios":"levelo://app?vid=87a5bed0-aef1-423b-bd85-fe44fdeeb863"},"vehicle_type_id":"4","last_reported":1737817655,"current_range_meters":38000,"station_id":"ce4bhr92rcd13ifvqhsg","pricing_plan_id":"cebpf4jnsgd1na2vs0mg"},{"bike_id":"7bd5f868-66e3-45e1-be95-6aefbe1524e1","system_id":"levelo_inurba_marseille","lat":43.25018,"lon":5.38922,"is_reserved":false,"is_disabled":true,"rental_uris":{"android":"levelo://app?vid=7bd5f868-66e3-45e1-be95-6aefbe1524e1","ios":"levelo://app?vid=7bd5f868-66e3-45e1-be95-6aefbe1524e1"},"vehicle_type_id":"4","last_reported":1737817655,"current_range_meters":0,"station_id":"ce4bhgp2rcd13ifvqfd0","pricing_plan_id":"cebpf4jnsgd1na2vs0mg"},{"bike_id":"ad812a35-488a-4e69-bda3-37be43def9f3","system_id":"levelo_inurba_marseille","lat":43.26555,"lon":5.37282,"is_reserved":false,"is_disabled":false,"rental_uris":{"android":"levelo://app?vid=ad812a35-488a-4e69-bda3-37be43def9f3","ios":"levelo://app?vid=ad812a35-488a-4e69-bda3-37be43def9f3"},"vehicle_type_id":"4","last_reported":1737817655,"current_range_meters":22000,"station_id":"ce4bhg12rcd13ifvqf70","pricing_plan_id":"cebpf4jnsgd1na2vs0mg"},{"bike_id":"4fde9b23-6c32-485b-8024-4decdadf4a80","system_id":"levelo_inurba_marseille","lat":43.26954,"lon":5.38635,"is_reserved":false,"is_disabled":false,"rental_uris":{"android":"levelo://app?vid=4fde9b23-6c32-485b-8024-4decdadf4a80","ios":"levelo://app?vid=4fde9b23-6c32-485b-8024-4decdadf4a80"},"vehicle_type_id":"4","last_reported":1737817655,"current_range_meters":33600,"station_id":"ce4bhh92rcd13ifvqfh0","pricing_plan_id":"cebpf4jnsgd1na2vs0mg"},{"bike_id":"38f21755-fecd-4714-b7e8-fcdf19677865","system_id":"levelo_inurba_marseille","lat":43.29567,"lon":5.37495,"is_reserved":false,"is_disabled":false,"rental_uris":{"android":"levelo://app?vid=38f21755-fecd-4714-b7e8-fcdf19677865","ios":"levelo://app?vid=38f21755-fecd-4714-b7e8-fcdf19677865"},"vehicle_type_id":"4","last_reported":1737817655,"current_range_meters":11200,"station_id":"ce4bgh92rcd13ifvqb50","pricing_plan_id":"cebpf4jnsgd1na2vs0mg"},{"bike_id":"024aaa43-98dc-4f3b-bcfc-6594e26f63d6","system_id":"levelo_inurba_marseille","lat":43.33724,"lon":5.392,"is_reserved":false,"is_disabled":false,"rental_uris":{"android":"levelo://app?vid=024aaa43-98dc-4f3b-bcfc-6594e26f63d6","ios":"levelo://app?vid=024aaa43-98dc-4f3b-bcfc-6594e26f63d6"},"vehicle_type_id":"4","last_reported":1737817655,"current_range_meters":35200,"station_id":"ce4bhr92rcd13ifvqhsg","pricing_plan_id":"cebpf4jnsgd1na2vs0mg"},{"bike_id":"13424381-ef60-4bbc-8153-904b64015f7c","system_id":"levelo_inurba_marseille","lat":43.29002,"lon":5.35617,"is_reserved":false,"is_disabled":false,"rental_uris":{"android":"levelo://app?vid=13424381-ef60-4bbc-8153-904b64015f7c","ios":"levelo://app?vid=13424381-ef60-4bbc-8153-904b64015f7c"},"vehicle_type_id":"4","last_reported":1737817655,"current_range_meters":30400,"station_id":"ce4bhb92rcd13ifvqen0","pricing_plan_id":"cebpf4jnsgd1na2vs0mg"},{"bike_id":"c959572c-6974-4ed4-8889-654758c49222","system_id":"levelo_inurba_marseille","lat":43.26564,"lon":5.39016,"is_reserved":false,"is_disabled":true,"rental_uris":{"android":"levelo://app?vid=c959572c-6974-4ed4-8889-654758c49222","ios":"levelo://app?vid=c959572c-6974-4ed4-8889-654758c49222"},"vehicle_type_id":"4","last_reported":1737817655,"current_range_meters":800,"station_id":"ce4bhe12rcd13ifvqf30","pricing_plan_id":"cebpf4jnsgd1na2vs0mg"},{"bike_id":"088f9493-d4f4-4fa4-8701-181abed46e32","system_id":"levelo_inurba_marseille","lat":43.2929,"lon":5.36846,"is_reserved":false,"is_disabled":false,"rental_uris":{"android":"levelo://app?vid=088f9493-d4f4-4fa4-8701-181abed46e32","ios":"levelo://app?vid=088f9493-d4f4-4fa4-8701-181abed46e32"},"vehicle_type_id":"4","last_reported":1737817655,"current_range_meters":32000,"station_id":"ce4bhbp2rcd13ifvqesg","pricing_plan_id":"cebpf4jnsgd1na2vs0mg"},{"bike_id":"9d847ad0-ef54-4fc6-8d0a-9543630ebbba","system_id":"levelo_inurba_marseille","lat":43.27991,"lon":5.40028,"is_reserved":false,"is_disabled":false,"rental_uris":{"android":"levelo://app?vid=9d847ad0-ef54-4fc6-8d0a-9543630ebbba","ios":"levelo://app?vid=9d847ad0-ef54-4fc6-8d0a-9543630ebbba"},"vehicle_type_id":"4","last_reported":1737817655,"current_range_meters":39200,"station_id":"ce4bho92rcd13ifvqh4g","pricing_plan_id":"cebpf4jnsgd1na2vs0mg"},{"bike_id":"90b8a1b1-ad54-458d-9362-f5197bbdf048","system_id":"levelo_inurba_marseille","lat":43.229318,"lon":5.353799,"is_reserved":false,"is_disabled":false,"rental_uris":{"android":"levelo://app?vid=90b8a1b1-ad54-458d-9362-f5197bbdf048","ios":"levelo://app?vid=90b8a1b1-ad54-458d-9362-f5197bbdf048"},"vehicle_type_id":"4","last_reported":1737817655,"current_range_meters":39200,"station_id":"cpo3532slgdg3j2ikp40","pricing_plan_id":"cebpf4jnsgd1na2vs0mg"},{"bike_id":"53035af4-ce28-4b9e-9322-5b8d4befc56f","system_id":"levelo_inurba_marseille","lat":43.29559,"lon":5.42264,"is_reserved":false,"is_disabled":false,"rental_uris":{"android":"levelo://app?vid=53035af4-ce28-4b9e-9322-5b8d4befc56f","ios":"levelo://app?vid=53035af4-ce28-4b9e-9322-5b8d4befc56f"},"vehicle_type_id":"4","last_reported":1737817655,"current_range_meters":38800,"station_id":"ce4bhph2rcd13ifvqhdg","pricing_plan_id":"cebpf4jnsgd1na2vs0mg"},{"bike_id":"7d91c228-75dc-45e3-bae6-1696e3a42086","system_id":"levelo_inurba_marseille","lat":43.28711,"lon":5.39994,"is_reserved":false,"is_disabled":false,"rental_uris":{"android":"levelo://app?vid=7d91c228-75dc-45e3-bae6-1696e3a42086","ios":"levelo://app?vid=7d91c228-75dc-45e3-bae6-1696e3a42086"},"vehicle_type_id":"4","last_reported":1737817655,"current_range_meters":36000,"station_id":"ce4bho92rcd13ifvqh3g","pricing_plan_id":"cebpf4jnsgd1na2vs0mg"},{"bike_id":"5e1afedc-38a6-4c19-a05a-483126c7d501","system_id":"levelo_inurba_marseille","lat":43.29569,"lon":5.37532,"is_reserved":false,"is_disabled":false,"rental_uris":{"android":"levelo://app?vid=5e1afedc-38a6-4c19-a05a-483126c7d501","ios":"levelo://app?vid=5e1afedc-38a6-4c19-a05a-483126c7d501"},"vehicle_type_id":"4","last_reported":1737817655,"current_range_meters":11200,"station_id":"ce4bgh92rcd13ifvqb50","pricing_plan_id":"cebpf4jnsgd1na2vs0mg"},{"bike_id":"dfc006d3-d445-49d4-98fe-6b9da20935ab","system_id":"levelo_inurba_marseille","lat":43.24999,"lon":5.38939,"is_reserved":false,"is_disabled":false,"rental_uris":{"android":"levelo://app?vid=dfc006d3-d445-49d4-98fe-6b9da20935ab","ios":"levelo://app?vid=dfc006d3-d445-49d4-98fe-6b9da20935ab"},"vehicle_type_id":"4","last_reported":1737817655,"current_range_meters":4400,"station_id":"ce4bhgp2rcd13ifvqfd0","pricing_plan_id":"cebpf4jnsgd1na2vs0mg"},{"bike_id":"b730e013-b136-4a81-8cbc-f84c9a825459","system_id":"levelo_inurba_marseille","lat":43.29581,"lon":5.37508,"is_reserved":false,"is_disabled":false,"rental_uris":{"android":"levelo://app?vid=b730e013-b136-4a81-8cbc-f84c9a825459","ios":"levelo://app?vid=b730e013-b136-4a81-8cbc-f84c9a825459"},"vehicle_type_id":"4","last_reported":1737817655,"current_range_meters":13600,"station_id":"ce4bgh92rcd13ifvqb50","pricing_plan_id":"cebpf4jnsgd1na2vs0mg"},{"bike_id":"4b8ec53a-4302-4c0b-a150-579b0b069b80","system_id":"levelo_inurba_marseille","lat":43.29843,"lon":5.36274,"is_reserved":false,"is_disabled":true,"rental_uris":{"android":"levelo://app?vid=4b8ec53a-4302-4c0b-a150-579b0b069b80","ios":"levelo://app?vid=4b8ec53a-4302-4c0b-a150-579b0b069b80"},"vehicle_type_id":"4","last_reported":1737817655,"current_range_meters":800,"station_id":"ce4bgpp2rcd13ifvqc3g","pricing_plan_id":"cebpf4jnsgd1na2vs0mg"},{"bike_id":"06cd8b2e-af92-4721-ba82-fb39ab7b86f6","system_id":"levelo_inurba_marseille","lat":43.29558,"lon":5.42292,"is_reserved":false,"is_disabled":false,"rental_uris":{"android":"levelo://app?vid=06cd8b2e-af92-4721-ba82-fb39ab7b86f6","ios":"levelo://app?vid=06cd8b2e-af92-4721-ba82-fb39ab7b86f6"},"vehicle_type_id":"4","last_reported":1737817655,"current_range_meters":38400,"station_id":"ce4bh112rcd13ifvqda0","pricing_plan_id":"cebpf4jnsgd1na2vs0mg"},{"bike_id":"ebbb6dd1-ea2a-4b9e-a0fd-f2fc38df1042","system_id":"levelo_inurba_marseille","lat":43.25003,"lon":5.38953,"is_reserved":false,"is_disabled":true,"rental_uris":{"android":"levelo://app?vid=ebbb6dd1-ea2a-4b9e-a0fd-f2fc38df1042","ios":"levelo://app?vid=ebbb6dd1-ea2a-4b9e-a0fd-f2fc38df1042"},"vehicle_type_id":"4","last_reported":1737817655,"current_range_meters":400,"station_id":"ce4bhgp2rcd13ifvqfd0","pricing_plan_id":"cebpf4jnsgd1na2vs0mg"},{"bike_id":"12457c21-2ca5-47e0-ad9e-11835189b19d","system_id":"levelo_inurba_marseille","lat":43.26214,"lon":5.3744,"is_reserved":false,"is_disabled":true,"rental_uris":{"android":"levelo://app?vid=12457c21-2ca5-47e0-ad9e-11835189b19d","ios":"levelo://app?vid=12457c21-2ca5-47e0-ad9e-11835189b19d"},"vehicle_type_id":"4","last_reported":1737817655,"current_range_meters":800,"station_id":"ce4bhgp2rcd13ifvqfc0","pricing_plan_id":"cebpf4jnsgd1na2vs0mg"},{"bike_id":"f76a8511-1638-4bbc-81b6-3e86daf501f9","system_id":"levelo_inurba_marseille","lat":43.284132,"lon":5.349765,"is_reserved":false,"is_disabled":true,"rental_uris":{"android":"levelo://app?vid=f76a8511-1638-4bbc-81b6-3e86daf501f9","ios":"levelo://app?vid=f76a8511-1638-4bbc-81b6-3e86daf501f9"},"vehicle_type_id":"4","last_reported":1737817655,"current_range_meters":0,"station_id":"","pricing_plan_id":"cebpf4jnsgd1na2vs0mg"},{"bike_id":"38aadad5-46d0-4454-9914-96a0c0ef2ab0","system_id":"levelo_inurba_marseille","lat":43.27372,"lon":5.36258,"is_reserved":false,"is_disabled":false,"rental_uris":{"android":"levelo://app?vid=38aadad5-46d0-4454-9914-96a0c0ef2ab0","ios":"levelo://app?vid=38aadad5-46d0-4454-9914-96a0c0ef2ab0"},"vehicle_type_id":"4","last_reported":1737817655,"current_range_meters":39200,"station_id":"ce4bhbh2rcd13ifvqeo0","pricing_plan_id":"cebpf4jnsgd1na2vs0mg"},{"bike_id":"01df12c3-ddb3-48ca-ae9a-59dfa4680f23","system_id":"levelo_inurba_marseille","lat":43.29303,"lon":5.37168,"is_reserved":false,"is_disabled":false,"rental_uris":{"android":"levelo://app?vid=01df12c3-ddb3-48ca-ae9a-59dfa4680f23","ios":"levelo://app?vid=01df12c3-ddb3-48ca-ae9a-59dfa4680f23"},"vehicle_type_id":"4","last_reported":1737817655,"current_range_meters":38400,"station_id":"ce4bgh92rcd13ifvqb40","pricing_plan_id":"cebpf4jnsgd1na2vs0mg"},{"bike_id":"d30b3783-8233-407d-9dc8-76ac03b68013","system_id":"levelo_inurba_marseille","lat":43.29772,"lon":5.38104,"is_reserved":false,"is_disabled":false,"rental_uris":{"android":"levelo://app?vid=d30b3783-8233-407d-9dc8-76ac03b68013","ios":"levelo://app?vid=d30b3783-8233-407d-9dc8-76ac03b68013"},"vehicle_type_id":"4","last_reported":1737817655,"current_range_meters":8000,"station_id":"ce4bgip2rcd13ifvqbb0","pricing_plan_id":"cebpf4jnsgd1na2vs0mg"},{"bike_id":"0af52f93-e2ad-4e70-93eb-a6c272fbfbe2","system_id":"levelo_inurba_marseille","lat":43.31229,"lon":5.36886,"is_reserved":false,"is_disabled":false,"rental_uris":{"android":"levelo://app?vid=0af52f93-e2ad-4e70-93eb-a6c272fbfbe2","ios":"levelo://app?vid=0af52f93-e2ad-4e70-93eb-a6c272fbfbe2"},"vehicle_type_id":"4","last_reported":1737817655,"current_range_meters":38400,"station_id":"ce4bgl92rcd13ifvqbq0","pricing_plan_id":"cebpf4jnsgd1na2vs0mg"},{"bike_id":"1f294e00-a118-4716-9c5b-16cfaf03e70e","system_id":"levelo_inurba_marseille","lat":43.28426,"lon":5.349855,"is_reserved":false,"is_disabled":false,"rental_uris":{"android":"levelo://app?vid=1f294e00-a118-4716-9c5b-16cfaf03e70e","ios":"levelo://app?vid=1f294e00-a118-4716-9c5b-16cfaf03e70e"},"vehicle_type_id":"4","last_reported":1737817655,"current_range_meters":28400,"station_id":"ce4bhbh2rcd13ifvqepg","pricing_plan_id":"cebpf4jnsgd1na2vs0mg"},{"bike_id":"024cd548-3349-4b5a-9af8-2c3d415d44b0","system_id":"levelo_inurba_marseille","lat":43.28272,"lon":5.35086,"is_reserved":false,"is_disabled":false,"rental_uris":{"android":"levelo://app?vid=024cd548-3349-4b5a-9af8-2c3d415d44b0","ios":"levelo://app?vid=024cd548-3349-4b5a-9af8-2c3d415d44b0"},"vehicle_type_id":"4","last_reported":1737817655,"current_range_meters":10000,"station_id":"ce4bhbp2rcd13ifvqerg","pricing_plan_id":"cebpf4jnsgd1na2vs0mg"},{"bike_id":"99e5a445-cdc2-4210-a04c-7608d52032be","system_id":"levelo_inurba_marseille","lat":43.31222,"lon":5.36847,"is_reserved":false,"is_disabled":true,"rental_uris":{"android":"levelo://app?vid=99e5a445-cdc2-4210-a04c-7608d52032be","ios":"levelo://app?vid=99e5a445-cdc2-4210-a04c-7608d52032be"},"vehicle_type_id":"4","last_reported":1737817655,"current_range_meters":0,"station_id":"ce4bgl92rcd13ifvqbq0","pricing_plan_id":"cebpf4jnsgd1na2vs0mg"},{"bike_id":"d54e7416-9133-47cb-bc55-3d590b1f98b8","system_id":"levelo_inurba_marseille","lat":43.2867,"lon":5.36367,"is_reserved":false,"is_disabled":true,"rental_uris":{"android":"levelo://app?vid=d54e7416-9133-47cb-bc55-3d590b1f98b8","ios":"levelo://app?vid=d54e7416-9133-47cb-bc55-3d590b1f98b8"},"vehicle_type_id":"4","last_reported":1737817655,"current_range_meters":0,"station_id":"ce4bhah2rcd13ifvqej0","pricing_plan_id":"cebpf4jnsgd1na2vs0mg"},{"bike_id":"033ae05e-375a-487c-8d07-a20760819ec4","system_id":"levelo_inurba_marseille","lat":43.29847,"lon":5.36282,"is_reserved":false,"is_disabled":false,"rental_uris":{"android":"levelo://app?vid=033ae05e-375a-487c-8d07-a20760819ec4","ios":"levelo://app?vid=033ae05e-375a-487c-8d07-a20760819ec4"},"vehicle_type_id":"4","last_reported":1737817655,"current_range_meters":22800,"station_id":"ce4bgpp2rcd13ifvqc3g","pricing_plan_id":"cebpf4jnsgd1na2vs0mg"},{"bike_id":"8f418039-64b4-4f8b-9b93-bbb14214da89","system_id":"levelo_inurba_marseille","lat":43.31711,"lon":5.37753,"is_reserved":false,"is_disabled":false,"rental_uris":{"android":"levelo://app?vid=8f418039-64b4-4f8b-9b93-bbb14214da89","ios":"levelo://app?vid=8f418039-64b4-4f8b-9b93-bbb14214da89"},"vehicle_type_id":"4","last_reported":1737817655,"current_range_meters":16000,"station_id":"ce4bgth2rcd13ifvqch0","pricing_plan_id":"cebpf4jnsgd1na2vs0mg"},{"bike_id":"4ba17b62-67ad-47d4-ae06-50d84fbf1296","system_id":"levelo_inurba_marseille","lat":43.29899,"lon":5.43658,"is_reserved":false,"is_disabled":false,"rental_uris":{"android":"levelo://app?vid=4ba17b62-67ad-47d4-ae06-50d84fbf1296","ios":"levelo://app?vid=4ba17b62-67ad-47d4-ae06-50d84fbf1296"},"vehicle_type_id":"4","last_reported":1737817655,"current_range_meters":12400,"station_id":"ce4bhpp2rcd13ifvqhfg","pricing_plan_id":"cebpf4jnsgd1na2vs0mg"},{"bike_id":"7dc3cae4-747d-4993-b368-549807c6825a","system_id":"levelo_inurba_marseille","lat":43.2737,"lon":5.36252,"is_reserved":false,"is_disabled":false,"rental_uris":{"android":"levelo://app?vid=7dc3cae4-747d-4993-b368-549807c6825a","ios":"levelo://app?vid=7dc3cae4-747d-4993-b368-549807c6825a"},"vehicle_type_id":"4","last_reported":1737817655,"current_range_meters":12400,"station_id":"ce4bhbh2rcd13ifvqeo0","pricing_plan_id":"cebpf4jnsgd1na2vs0mg"},{"bike_id":"1c35c755-8b1c-439e-8798-f1a001a3969d","system_id":"levelo_inurba_marseille","lat":43.280975,"lon":5.378504,"is_reserved":false,"is_disabled":true,"rental_uris":{"android":"levelo://app?vid=1c35c755-8b1c-439e-8798-f1a001a3969d","ios":"levelo://app?vid=1c35c755-8b1c-439e-8798-f1a001a3969d"},"vehicle_type_id":"4","last_reported":1737817655,"current_range_meters":0,"station_id":"ce4bha12rcd13ifvqee0","pricing_plan_id":"cebpf4jnsgd1na2vs0mg"},{"bike_id":"31829f7a-f0aa-403e-8542-caa9d0e5ce58","system_id":"levelo_inurba_marseille","lat":43.28,"lon":5.41666,"is_reserved":false,"is_disabled":false,"rental_uris":{"android":"levelo://app?vid=31829f7a-f0aa-403e-8542-caa9d0e5ce58","ios":"levelo://app?vid=31829f7a-f0aa-403e-8542-caa9d0e5ce58"},"vehicle_type_id":"4","last_reported":1737817655,"current_range_meters":34800,"station_id":"ce4bho12rcd13ifvqh1g","pricing_plan_id":"cebpf4jnsgd1na2vs0mg"},{"bike_id":"1ed786f2-b680-4b14-ac90-f8140e2c4e24","system_id":"levelo_inurba_marseille","lat":43.30618,"lon":5.36562,"is_reserved":false,"is_disabled":false,"rental_uris":{"android":"levelo://app?vid=1ed786f2-b680-4b14-ac90-f8140e2c4e24","ios":"levelo://app?vid=1ed786f2-b680-4b14-ac90-f8140e2c4e24"},"vehicle_type_id":"4","last_reported":1737817655,"current_range_meters":16000,"station_id":"","pricing_plan_id":"cebpf4jnsgd1na2vs0mg"},{"bike_id":"bce09769-02dc-489a-bcd7-84421f3b354f","system_id":"levelo_inurba_marseille","lat":43.32367,"lon":5.38879,"is_reserved":false,"is_disabled":false,"rental_uris":{"android":"levelo://app?vid=bce09769-02dc-489a-bcd7-84421f3b354f","ios":"levelo://app?vid=bce09769-02dc-489a-bcd7-84421f3b354f"},"vehicle_type_id":"4","last_reported":1737817655,"current_range_meters":18000,"station_id":"ce4bhqp2rcd13ifvqhog","pricing_plan_id":"cebpf4jnsgd1na2vs0mg"},{"bike_id":"5d1fbc89-e98f-43dd-b544-d2ffa2524277","system_id":"levelo_inurba_marseille","lat":43.29797,"lon":5.38115,"is_reserved":false,"is_disabled":false,"rental_uris":{"android":"levelo://app?vid=5d1fbc89-e98f-43dd-b544-d2ffa2524277","ios":"levelo://app?vid=5d1fbc89-e98f-43dd-b544-d2ffa2524277"},"vehicle_type_id":"4","last_reported":1737817655,"current_range_meters":36000,"station_id":"ce4bgip2rcd13ifvqbb0","pricing_plan_id":"cebpf4jnsgd1na2vs0mg"},{"bike_id":"3a50cba4-791e-4240-a3e9-a38905811f0f","system_id":"levelo_inurba_marseille","lat":43.270897,"lon":5.402553,"is_reserved":false,"is_disabled":false,"rental_uris":{"android":"levelo://app?vid=3a50cba4-791e-4240-a3e9-a38905811f0f","ios":"levelo://app?vid=3a50cba4-791e-4240-a3e9-a38905811f0f"},"vehicle_type_id":"4","last_reported":1737817655,"current_range_meters":8400,"station_id":"ce4bhk92rcd13ifvqgc0","pricing_plan_id":"cebpf4jnsgd1na2vs0mg"},{"bike_id":"b96c22ba-a4c6-4ca8-b881-a2a2972e9bc2","system_id":"levelo_inurba_marseille","lat":43.26027,"lon":5.37552,"is_reserved":false,"is_disabled":true,"rental_uris":{"android":"levelo://app?vid=b96c22ba-a4c6-4ca8-b881-a2a2972e9bc2","ios":"levelo://app?vid=b96c22ba-a4c6-4ca8-b881-a2a2972e9bc2"},"vehicle_type_id":"4","last_reported":1737817655,"current_range_meters":36800,"station_id":"ce4bhgh2rcd13ifvqfa0","pricing_plan_id":"cebpf4jnsgd1na2vs0mg"},{"bike_id":"37293a17-73d4-46ad-af66-e33a4ad65d9d","system_id":"levelo_inurba_marseille","lat":43.30651,"lon":5.40101,"is_reserved":false,"is_disabled":false,"rental_uris":{"android":"levelo://app?vid=37293a17-73d4-46ad-af66-e33a4ad65d9d","ios":"levelo://app?vid=37293a17-73d4-46ad-af66-e33a4ad65d9d"},"vehicle_type_id":"4","last_reported":1737817655,"current_range_meters":10000,"station_id":"ce4bh112rcd13ifvqda0","pricing_plan_id":"cebpf4jnsgd1na2vs0mg"},{"bike_id":"4dc910da-a028-4ab4-9e34-fef15287ee6d","system_id":"levelo_inurba_marseille","lat":43.22929,"lon":5.35375,"is_reserved":false,"is_disabled":false,"rental_uris":{"android":"levelo://app?vid=4dc910da-a028-4ab4-9e34-fef15287ee6d","ios":"levelo://app?vid=4dc910da-a028-4ab4-9e34-fef15287ee6d"},"vehicle_type_id":"4","last_reported":1737817655,"current_range_meters":34800,"station_id":"cpo3532slgdg3j2ikp40","pricing_plan_id":"cebpf4jnsgd1na2vs0mg"},{"bike_id":"12383410-d24d-475c-b64c-7c53d9e81ba9","system_id":"levelo_inurba_marseille","lat":43.3054,"lon":5.38427,"is_reserved":false,"is_disabled":false,"rental_uris":{"android":"levelo://app?vid=12383410-d24d-475c-b64c-7c53d9e81ba9","ios":"levelo://app?vid=12383410-d24d-475c-b64c-7c53d9e81ba9"},"vehicle_type_id":"4","last_reported":1737817655,"current_range_meters":28400,"station_id":"ce4bgg92rcd13ifvqb30","pricing_plan_id":"cebpf4jnsgd1na2vs0mg"},{"bike_id":"7a545f13-dfe8-4546-ad9a-08e404c05ed1","system_id":"levelo_inurba_marseille","lat":43.2827,"lon":5.35067,"is_reserved":false,"is_disabled":false,"rental_uris":{"android":"levelo://app?vid=7a545f13-dfe8-4546-ad9a-08e404c05ed1","ios":"levelo://app?vid=7a545f13-dfe8-4546-ad9a-08e404c05ed1"},"vehicle_type_id":"4","last_reported":1737817655,"current_range_meters":23200,"station_id":"ce4bhbp2rcd13ifvqerg","pricing_plan_id":"cebpf4jnsgd1na2vs0mg"},{"bike_id":"1346ff93-9ddb-4093-aa5d-b6cb09dfef3c","system_id":"levelo_inurba_marseille","lat":43.285113,"lon":5.36792,"is_reserved":false,"is_disabled":true,"rental_uris":{"android":"levelo://app?vid=1346ff93-9ddb-4093-aa5d-b6cb09dfef3c","ios":"levelo://app?vid=1346ff93-9ddb-4093-aa5d-b6cb09dfef3c"},"vehicle_type_id":"4","last_reported":1737817655,"current_range_meters":0,"station_id":"","pricing_plan_id":"cebpf4jnsgd1na2vs0mg"},{"bike_id":"e478c5f4-7d6a-49b2-983e-0fc446c91566","system_id":"levelo_inurba_marseille","lat":43.28626,"lon":5.35106,"is_reserved":false,"is_disabled":true,"rental_uris":{"android":"levelo://app?vid=e478c5f4-7d6a-49b2-983e-0fc446c91566","ios":"levelo://app?vid=e478c5f4-7d6a-49b2-983e-0fc446c91566"},"vehicle_type_id":"4","last_reported":1737817655,"current_range_meters":27600,"station_id":"ce4bhch2rcd13ifvqeug","pricing_plan_id":"cebpf4jnsgd1na2vs0mg"},{"bike_id":"60d6a3f7-2872-447c-88f6-3872073b60a5","system_id":"levelo_inurba_marseille","lat":43.26561,"lon":5.39009,"is_reserved":false,"is_disabled":false,"rental_uris":{"android":"levelo://app?vid=60d6a3f7-2872-447c-88f6-3872073b60a5","ios":"levelo://app?vid=60d6a3f7-2872-447c-88f6-3872073b60a5"},"vehicle_type_id":"4","last_reported":1737817655,"current_range_meters":26800,"station_id":"ce4bhe12rcd13ifvqf30","pricing_plan_id":"cebpf4jnsgd1na2vs0mg"},{"bike_id":"d0b97dd4-6015-4f42-b5f6-8f3b6c506949","system_id":"levelo_inurba_marseille","lat":43.29564,"lon":5.42284,"is_reserved":false,"is_disabled":false,"rental_uris":{"android":"levelo://app?vid=d0b97dd4-6015-4f42-b5f6-8f3b6c506949","ios":"levelo://app?vid=d0b97dd4-6015-4f42-b5f6-8f3b6c506949"},"vehicle_type_id":"4","last_reported":1737817655,"current_range_meters":37600,"station_id":"ce4bhph2rcd13ifvqhdg","pricing_plan_id":"cebpf4jnsgd1na2vs0mg"},{"bike_id":"d5665470-c1b3-45e5-80ac-4df7d60c2564","system_id":"levelo_inurba_marseille","lat":43.3211,"lon":5.36772,"is_reserved":false,"is_disabled":false,"rental_uris":{"android":"levelo://app?vid=d5665470-c1b3-45e5-80ac-4df7d60c2564","ios":"levelo://app?vid=d5665470-c1b3-45e5-80ac-4df7d60c2564"},"vehicle_type_id":"4","last_reported":1737817655,"current_range_meters":32800,"station_id":"ce4bhrh2rcd13ifvqhug","pricing_plan_id":"cebpf4jnsgd1na2vs0mg"},{"bike_id":"d2e55ef2-f828-4cab-a027-0a18aa87ec0e","system_id":"levelo_inurba_marseille","lat":43.29623,"lon":5.37166,"is_reserved":false,"is_disabled":false,"rental_uris":{"android":"levelo://app?vid=d2e55ef2-f828-4cab-a027-0a18aa87ec0e","ios":"levelo://app?vid=d2e55ef2-f828-4cab-a027-0a18aa87ec0e"},"vehicle_type_id":"4","last_reported":1737817655,"current_range_meters":22800,"station_id":"ce4bgnh2rcd13ifvqc0g","pricing_plan_id":"cebpf4jnsgd1na2vs0mg"},{"bike_id":"500bd9fd-f2aa-4af5-af81-759117c96c0b","system_id":"levelo_inurba_marseille","lat":43.24169,"lon":5.36387,"is_reserved":false,"is_disabled":false,"rental_uris":{"android":"levelo://app?vid=500bd9fd-f2aa-4af5-af81-759117c96c0b","ios":"levelo://app?vid=500bd9fd-f2aa-4af5-af81-759117c96c0b"},"vehicle_type_id":"4","last_reported":1737817655,"current_range_meters":8400,"station_id":"cpo36qri1sfpv3e86is0","pricing_plan_id":"cebpf4jnsgd1na2vs0mg"},{"bike_id":"3052f05b-1e3e-46b9-a27b-1a3bcf1d5d84","system_id":"levelo_inurba_marseille","lat":43.28488,"lon":5.38559,"is_reserved":false,"is_disabled":true,"rental_uris":{"android":"levelo://app?vid=3052f05b-1e3e-46b9-a27b-1a3bcf1d5d84","ios":"levelo://app?vid=3052f05b-1e3e-46b9-a27b-1a3bcf1d5d84"},"vehicle_type_id":"4","last_reported":1737817655,"current_range_meters":800,"station_id":"ce4bh8p2rcd13ifvqeb0","pricing_plan_id":"cebpf4jnsgd1na2vs0mg"},{"bike_id":"297b1880-b06e-45ae-a410-2e574e4682dd","system_id":"levelo_inurba_marseille","lat":43.29303,"lon":5.37194,"is_reserved":false,"is_disabled":false,"rental_uris":{"android":"levelo://app?vid=297b1880-b06e-45ae-a410-2e574e4682dd","ios":"levelo://app?vid=297b1880-b06e-45ae-a410-2e574e4682dd"},"vehicle_type_id":"4","last_reported":1737817655,"current_range_meters":37600,"station_id":"ce4bgh92rcd13ifvqb40","pricing_plan_id":"cebpf4jnsgd1na2vs0mg"},{"bike_id":"45e3ba8f-1a35-4f9d-bc94-b4494fc4a975","system_id":"levelo_inurba_marseille","lat":43.28419,"lon":5.34978,"is_reserved":false,"is_disabled":false,"rental_uris":{"android":"levelo://app?vid=45e3ba8f-1a35-4f9d-bc94-b4494fc4a975","ios":"levelo://app?vid=45e3ba8f-1a35-4f9d-bc94-b4494fc4a975"},"vehicle_type_id":"4","last_reported":1737817655,"current_range_meters":18000,"station_id":"ce4bhbh2rcd13ifvqepg","pricing_plan_id":"cebpf4jnsgd1na2vs0mg"},{"bike_id":"479cb780-8c58-44a6-99d3-0353db3a07bb","system_id":"levelo_inurba_marseille","lat":43.30803,"lon":5.43521,"is_reserved":false,"is_disabled":false,"rental_uris":{"android":"levelo://app?vid=479cb780-8c58-44a6-99d3-0353db3a07bb","ios":"levelo://app?vid=479cb780-8c58-44a6-99d3-0353db3a07bb"},"vehicle_type_id":"4","last_reported":1737817655,"current_range_meters":37600,"station_id":"ce4bhph2rcd13ifvqheg","pricing_plan_id":"cebpf4jnsgd1na2vs0mg"},{"bike_id":"6d17c276-0a0b-4d66-8572-ced57eea72cc","system_id":"levelo_inurba_marseille","lat":43.33589,"lon":5.40982,"is_reserved":false,"is_disabled":false,"rental_uris":{"android":"levelo://app?vid=6d17c276-0a0b-4d66-8572-ced57eea72cc","ios":"levelo://app?vid=6d17c276-0a0b-4d66-8572-ced57eea72cc"},"vehicle_type_id":"4","last_reported":1737817655,"current_range_meters":12800,"station_id":"ce4bhqh2rcd13ifvqhmg","pricing_plan_id":"cebpf4jnsgd1na2vs0mg"},{"bike_id":"58ed6f03-7ed4-4271-86f8-70f27bd2b590","system_id":"levelo_inurba_marseille","lat":43.30409,"lon":5.41276,"is_reserved":false,"is_disabled":false,"rental_uris":{"android":"levelo://app?vid=58ed6f03-7ed4-4271-86f8-70f27bd2b590","ios":"levelo://app?vid=58ed6f03-7ed4-4271-86f8-70f27bd2b590"},"vehicle_type_id":"4","last_reported":1737817655,"current_range_meters":12800,"station_id":"ce4bhop2rcd13ifvqh8g","pricing_plan_id":"cebpf4jnsgd1na2vs0mg"},{"bike_id":"9f5ef00e-1f5d-4a4c-b17f-ec0fd2052c5a","system_id":"levelo_inurba_marseille","lat":43.31757,"lon":5.3901,"is_reserved":false,"is_disabled":true,"rental_uris":{"android":"levelo://app?vid=9f5ef00e-1f5d-4a4c-b17f-ec0fd2052c5a","ios":"levelo://app?vid=9f5ef00e-1f5d-4a4c-b17f-ec0fd2052c5a"},"vehicle_type_id":"4","last_reported":1737817655,"current_range_meters":0,"station_id":"ce4bhqp2rcd13ifvqhng","pricing_plan_id":"cebpf4jnsgd1na2vs0mg"},{"bike_id":"58e811bb-64a6-42d5-b58d-7710b02b375a","system_id":"levelo_inurba_marseille","lat":43.25502,"lon":5.3766,"is_reserved":false,"is_disabled":false,"rental_uris":{"android":"levelo://app?vid=58e811bb-64a6-42d5-b58d-7710b02b375a","ios":"levelo://app?vid=58e811bb-64a6-42d5-b58d-7710b02b375a"},"vehicle_type_id":"4","last_reported":1737817655,"current_range_meters":38800,"station_id":"ce4bhh12rcd13ifvqff0","pricing_plan_id":"cebpf4jnsgd1na2vs0mg"},{"bike_id":"48e8ea53-6671-4afb-9c8d-1c5842cd6e14","system_id":"levelo_inurba_marseille","lat":43.30535,"lon":5.36535,"is_reserved":false,"is_disabled":false,"rental_uris":{"android":"levelo://app?vid=48e8ea53-6671-4afb-9c8d-1c5842cd6e14","ios":"levelo://app?vid=48e8ea53-6671-4afb-9c8d-1c5842cd6e14"},"vehicle_type_id":"4","last_reported":1737817655,"current_range_meters":38800,"station_id":"ce4bgs12rcd13ifvqcag","pricing_plan_id":"cebpf4jnsgd1na2vs0mg"},{"bike_id":"14549f3c-9b93-4dce-b64e-10da7e275aeb","system_id":"levelo_inurba_marseille","lat":43.31223,"lon":5.36857,"is_reserved":false,"is_disabled":false,"rental_uris":{"android":"levelo://app?vid=14549f3c-9b93-4dce-b64e-10da7e275aeb","ios":"levelo://app?vid=14549f3c-9b93-4dce-b64e-10da7e275aeb"},"vehicle_type_id":"4","last_reported":1737817655,"current_range_meters":34800,"station_id":"ce4bgl92rcd13ifvqbq0","pricing_plan_id":"cebpf4jnsgd1na2vs0mg"},{"bike_id":"361cd0b7-edfc-4eec-a6fd-ba4bdf540479","system_id":"levelo_inurba_marseille","lat":43.324774,"lon":5.365658,"is_reserved":false,"is_disabled":false,"rental_uris":{"android":"levelo://app?vid=361cd0b7-edfc-4eec-a6fd-ba4bdf540479","ios":"levelo://app?vid=361cd0b7-edfc-4eec-a6fd-ba4bdf540479"},"vehicle_type_id":"4","last_reported":1737817655,"current_range_meters":35600,"station_id":"ce4bhs12rcd13ifvqhvg","pricing_plan_id":"cebpf4jnsgd1na2vs0mg"},{"bike_id":"d0ae0312-004c-40cd-8f6e-61941782f579","system_id":"levelo_inurba_marseille","lat":43.308034,"lon":5.381462,"is_reserved":false,"is_disabled":true,"rental_uris":{"android":"levelo://app?vid=d0ae0312-004c-40cd-8f6e-61941782f579","ios":"levelo://app?vid=d0ae0312-004c-40cd-8f6e-61941782f579"},"vehicle_type_id":"4","last_reported":1737817655,"current_range_meters":30400,"station_id":"ce4bgt12rcd13ifvqce0","pricing_plan_id":"cebpf4jnsgd1na2vs0mg"},{"bike_id":"29af223e-652f-45b9-ac49-c1179617d491","system_id":"levelo_inurba_marseille","lat":43.24387,"lon":5.37054,"is_reserved":false,"is_disabled":false,"rental_uris":{"android":"levelo://app?vid=29af223e-652f-45b9-ac49-c1179617d491","ios":"levelo://app?vid=29af223e-652f-45b9-ac49-c1179617d491"},"vehicle_type_id":"4","last_reported":1737817655,"current_range_meters":38800,"station_id":"ce4bhhh2rcd13ifvqfk0","pricing_plan_id":"cebpf4jnsgd1na2vs0mg"},{"bike_id":"787fabc3-eb91-469a-81b6-44a6fdcc4a9b","system_id":"levelo_inurba_marseille","lat":43.23065,"lon":5.35493,"is_reserved":false,"is_disabled":true,"rental_uris":{"android":"levelo://app?vid=787fabc3-eb91-469a-81b6-44a6fdcc4a9b","ios":"levelo://app?vid=787fabc3-eb91-469a-81b6-44a6fdcc4a9b"},"vehicle_type_id":"4","last_reported":1737817655,"current_range_meters":800,"station_id":"cpo3342slgdg3j2ifvpg","pricing_plan_id":"cebpf4jnsgd1na2vs0mg"},{"bike_id":"bd002190-7253-4748-ac67-ef72549b7175","system_id":"levelo_inurba_marseille","lat":43.32489,"lon":5.36577,"is_reserved":false,"is_disabled":false,"rental_uris":{"android":"levelo://app?vid=bd002190-7253-4748-ac67-ef72549b7175","ios":"levelo://app?vid=bd002190-7253-4748-ac67-ef72549b7175"},"vehicle_type_id":"4","last_reported":1737817655,"current_range_meters":18000,"station_id":"ce4bhs12rcd13ifvqhvg","pricing_plan_id":"cebpf4jnsgd1na2vs0mg"},{"bike_id":"1e328aaf-06e5-4767-a395-a9b21576497f","system_id":"levelo_inurba_marseille","lat":43.29779,"lon":5.3711,"is_reserved":false,"is_disabled":false,"rental_uris":{"android":"levelo://app?vid=1e328aaf-06e5-4767-a395-a9b21576497f","ios":"levelo://app?vid=1e328aaf-06e5-4767-a395-a9b21576497f"},"vehicle_type_id":"4","last_reported":1737817655,"current_range_meters":22800,"station_id":"ce4bgop2rcd13ifvqc1g","pricing_plan_id":"cebpf4jnsgd1na2vs0mg"},{"bike_id":"a6da11aa-cb09-4191-a454-c3a90a627542","system_id":"levelo_inurba_marseille","lat":43.25871,"lon":5.39925,"is_reserved":false,"is_disabled":false,"rental_uris":{"android":"levelo://app?vid=a6da11aa-cb09-4191-a454-c3a90a627542","ios":"levelo://app?vid=a6da11aa-cb09-4191-a454-c3a90a627542"},"vehicle_type_id":"4","last_reported":1737817655,"current_range_meters":6000,"station_id":"ce4bhl92rcd13ifvqghg","pricing_plan_id":"cebpf4jnsgd1na2vs0mg"},{"bike_id":"ea624404-124a-4128-9041-089ad79942c5","system_id":"levelo_inurba_marseille","lat":43.29555,"lon":5.42278,"is_reserved":false,"is_disabled":false,"rental_uris":{"android":"levelo://app?vid=ea624404-124a-4128-9041-089ad79942c5","ios":"levelo://app?vid=ea624404-124a-4128-9041-089ad79942c5"},"vehicle_type_id":"4","last_reported":1737817655,"current_range_meters":32000,"station_id":"ce4bhph2rcd13ifvqhdg","pricing_plan_id":"cebpf4jnsgd1na2vs0mg"},{"bike_id":"38dd804f-d64a-427b-baed-2193c9f924a2","system_id":"levelo_inurba_marseille","lat":43.27192,"lon":5.40994,"is_reserved":false,"is_disabled":false,"rental_uris":{"android":"levelo://app?vid=38dd804f-d64a-427b-baed-2193c9f924a2","ios":"levelo://app?vid=38dd804f-d64a-427b-baed-2193c9f924a2"},"vehicle_type_id":"4","last_reported":1737817655,"current_range_meters":38800,"station_id":"ce4bhl12rcd13ifvqgf0","pricing_plan_id":"cebpf4jnsgd1na2vs0mg"},{"bike_id":"662826ac-353a-4d90-b4d6-b01a8f2632b2","system_id":"levelo_inurba_marseille","lat":43.22938,"lon":5.35383,"is_reserved":false,"is_disabled":false,"rental_uris":{"android":"levelo://app?vid=662826ac-353a-4d90-b4d6-b01a8f2632b2","ios":"levelo://app?vid=662826ac-353a-4d90-b4d6-b01a8f2632b2"},"vehicle_type_id":"4","last_reported":1737817655,"current_range_meters":32400,"station_id":"cpo3532slgdg3j2ikp40","pricing_plan_id":"cebpf4jnsgd1na2vs0mg"},{"bike_id":"c949d56b-6751-402e-ae05-b67244a84890","system_id":"levelo_inurba_marseille","lat":43.29528,"lon":5.38544,"is_reserved":false,"is_disabled":false,"rental_uris":{"android":"levelo://app?vid=c949d56b-6751-402e-ae05-b67244a84890","ios":"levelo://app?vid=c949d56b-6751-402e-ae05-b67244a84890"},"vehicle_type_id":"4","last_reported":1737817655,"current_range_meters":8400,"station_id":"ce4bgih2rcd13ifvqba0","pricing_plan_id":"cebpf4jnsgd1na2vs0mg"},{"bike_id":"163b0be8-f1db-4665-a41b-823b767c63a6","system_id":"levelo_inurba_marseille","lat":43.26935,"lon":5.40255,"is_reserved":false,"is_disabled":false,"rental_uris":{"android":"levelo://app?vid=163b0be8-f1db-4665-a41b-823b767c63a6","ios":"levelo://app?vid=163b0be8-f1db-4665-a41b-823b767c63a6"},"vehicle_type_id":"4","last_reported":1737817655,"current_range_meters":36800,"station_id":"cjm6bp8fraef2m0cb0m0","pricing_plan_id":"cebpf4jnsgd1na2vs0mg"},{"bike_id":"b47208a6-02ef-4929-85c9-b78758dda84c","system_id":"levelo_inurba_marseille","lat":43.29283,"lon":5.36847,"is_reserved":false,"is_disabled":false,"rental_uris":{"android":"levelo://app?vid=b47208a6-02ef-4929-85c9-b78758dda84c","ios":"levelo://app?vid=b47208a6-02ef-4929-85c9-b78758dda84c"},"vehicle_type_id":"4","last_reported":1737817655,"current_range_meters":24800,"station_id":"ce4bhbp2rcd13ifvqesg","pricing_plan_id":"cebpf4jnsgd1na2vs0mg"},{"bike_id":"7f063b29-4aa3-41ce-ab99-6730b892581b","system_id":"levelo_inurba_marseille","lat":43.28993,"lon":5.3561,"is_reserved":false,"is_disabled":false,"rental_uris":{"android":"levelo://app?vid=7f063b29-4aa3-41ce-ab99-6730b892581b","ios":"levelo://app?vid=7f063b29-4aa3-41ce-ab99-6730b892581b"},"vehicle_type_id":"4","last_reported":1737817655,"current_range_meters":32800,"station_id":"ce4bhb92rcd13ifvqen0","pricing_plan_id":"cebpf4jnsgd1na2vs0mg"},{"bike_id":"2cadf354-5c71-4dd8-ab00-2c0fa05f1da5","system_id":"levelo_inurba_marseille","lat":43.28662,"lon":5.36351,"is_reserved":false,"is_disabled":false,"rental_uris":{"android":"levelo://app?vid=2cadf354-5c71-4dd8-ab00-2c0fa05f1da5","ios":"levelo://app?vid=2cadf354-5c71-4dd8-ab00-2c0fa05f1da5"},"vehicle_type_id":"4","last_reported":1737817655,"current_range_meters":36000,"station_id":"ce4bhah2rcd13ifvqej0","pricing_plan_id":"cebpf4jnsgd1na2vs0mg"},{"bike_id":"1a486dfb-4f43-462d-abba-165c0765fcbc","system_id":"levelo_inurba_marseille","lat":43.2845,"lon":5.35896,"is_reserved":false,"is_disabled":false,"rental_uris":{"android":"levelo://app?vid=1a486dfb-4f43-462d-abba-165c0765fcbc","ios":"levelo://app?vid=1a486dfb-4f43-462d-abba-165c0765fcbc"},"vehicle_type_id":"4","last_reported":1737817655,"current_range_meters":39200,"station_id":"ce4bhah2rcd13ifvqei0","pricing_plan_id":"cebpf4jnsgd1na2vs0mg"},{"bike_id":"77731cd0-a59b-4143-a93d-86167dc8905e","system_id":"levelo_inurba_marseille","lat":43.29805,"lon":5.40415,"is_reserved":false,"is_disabled":false,"rental_uris":{"android":"levelo://app?vid=77731cd0-a59b-4143-a93d-86167dc8905e","ios":"levelo://app?vid=77731cd0-a59b-4143-a93d-86167dc8905e"},"vehicle_type_id":"4","last_reported":1737817655,"current_range_meters":38800,"station_id":"ce4bh112rcd13ifvqd90","pricing_plan_id":"cebpf4jnsgd1na2vs0mg"},{"bike_id":"bec07f94-f6db-404b-b3e8-bed71a0aeaea","system_id":"levelo_inurba_marseille","lat":43.29967,"lon":5.38492,"is_reserved":false,"is_disabled":false,"rental_uris":{"android":"levelo://app?vid=bec07f94-f6db-404b-b3e8-bed71a0aeaea","ios":"levelo://app?vid=bec07f94-f6db-404b-b3e8-bed71a0aeaea"},"vehicle_type_id":"4","last_reported":1737817655,"current_range_meters":7200,"station_id":"ce4bgj92rcd13ifvqbd0","pricing_plan_id":"cebpf4jnsgd1na2vs0mg"},{"bike_id":"82c7a75a-1138-43db-b50c-c48720f681ff","system_id":"levelo_inurba_marseille","lat":43.29847,"lon":5.36284,"is_reserved":false,"is_disabled":false,"rental_uris":{"android":"levelo://app?vid=82c7a75a-1138-43db-b50c-c48720f681ff","ios":"levelo://app?vid=82c7a75a-1138-43db-b50c-c48720f681ff"},"vehicle_type_id":"4","last_reported":1737817655,"current_range_meters":4800,"station_id":"ce4bgpp2rcd13ifvqc3g","pricing_plan_id":"cebpf4jnsgd1na2vs0mg"},{"bike_id":"e52ebd37-6c74-4a4b-8bb0-5843da127381","system_id":"levelo_inurba_marseille","lat":43.28271,"lon":5.35066,"is_reserved":false,"is_disabled":false,"rental_uris":{"android":"levelo://app?vid=e52ebd37-6c74-4a4b-8bb0-5843da127381","ios":"levelo://app?vid=e52ebd37-6c74-4a4b-8bb0-5843da127381"},"vehicle_type_id":"4","last_reported":1737817655,"current_range_meters":25600,"station_id":"ce4bhbp2rcd13ifvqerg","pricing_plan_id":"cebpf4jnsgd1na2vs0mg"},{"bike_id":"9c35a641-d8de-4ad6-aa48-5402a47894a7","system_id":"levelo_inurba_marseille","lat":43.3265,"lon":5.40984,"is_reserved":false,"is_disabled":false,"rental_uris":{"android":"levelo://app?vid=9c35a641-d8de-4ad6-aa48-5402a47894a7","ios":"levelo://app?vid=9c35a641-d8de-4ad6-aa48-5402a47894a7"},"vehicle_type_id":"4","last_reported":1737817655,"current_range_meters":36000,"station_id":"ce4bhpp2rcd13ifvqhgg","pricing_plan_id":"cebpf4jnsgd1na2vs0mg"},{"bike_id":"258e6798-08f1-4042-a334-2465a7133c40","system_id":"levelo_inurba_marseille","lat":43.25487,"lon":5.37639,"is_reserved":false,"is_disabled":false,"rental_uris":{"android":"levelo://app?vid=258e6798-08f1-4042-a334-2465a7133c40","ios":"levelo://app?vid=258e6798-08f1-4042-a334-2465a7133c40"},"vehicle_type_id":"4","last_reported":1737817655,"current_range_meters":3200,"station_id":"ce4bhh12rcd13ifvqff0","pricing_plan_id":"cebpf4jnsgd1na2vs0mg"},{"bike_id":"1b961552-d77a-4e68-b07c-bb1bfa7f2db8","system_id":"levelo_inurba_marseille","lat":43.29853,"lon":5.3628,"is_reserved":false,"is_disabled":false,"rental_uris":{"android":"levelo://app?vid=1b961552-d77a-4e68-b07c-bb1bfa7f2db8","ios":"levelo://app?vid=1b961552-d77a-4e68-b07c-bb1bfa7f2db8"},"vehicle_type_id":"4","last_reported":1737817655,"current_range_meters":37600,"station_id":"ce4bgpp2rcd13ifvqc3g","pricing_plan_id":"cebpf4jnsgd1na2vs0mg"},{"bike_id":"0db958fd-9d8d-47d4-8dd9-c0ab6d763bb4","system_id":"levelo_inurba_marseille","lat":43.30799,"lon":5.43521,"is_reserved":false,"is_disabled":false,"rental_uris":{"android":"levelo://app?vid=0db958fd-9d8d-47d4-8dd9-c0ab6d763bb4","ios":"levelo://app?vid=0db958fd-9d8d-47d4-8dd9-c0ab6d763bb4"},"vehicle_type_id":"4","last_reported":1737817655,"current_range_meters":25200,"station_id":"ce4bhph2rcd13ifvqheg","pricing_plan_id":"cebpf4jnsgd1na2vs0mg"},{"bike_id":"3e3de3aa-af5f-44b0-a81f-aa1e66a225ba","system_id":"levelo_inurba_marseille","lat":43.30422,"lon":5.41285,"is_reserved":false,"is_disabled":false,"rental_uris":{"android":"levelo://app?vid=3e3de3aa-af5f-44b0-a81f-aa1e66a225ba","ios":"levelo://app?vid=3e3de3aa-af5f-44b0-a81f-aa1e66a225ba"},"vehicle_type_id":"4","last_reported":1737817655,"current_range_meters":27600,"station_id":"ce4bhop2rcd13ifvqh8g","pricing_plan_id":"cebpf4jnsgd1na2vs0mg"},{"bike_id":"6a9e34c1-9f2c-44ed-af34-4f040d9ae6f3","system_id":"levelo_inurba_marseille","lat":43.29557,"lon":5.42288,"is_reserved":false,"is_disabled":false,"rental_uris":{"android":"levelo://app?vid=6a9e34c1-9f2c-44ed-af34-4f040d9ae6f3","ios":"levelo://app?vid=6a9e34c1-9f2c-44ed-af34-4f040d9ae6f3"},"vehicle_type_id":"4","last_reported":1737817655,"current_range_meters":22800,"station_id":"ce4bhph2rcd13ifvqhdg","pricing_plan_id":"cebpf4jnsgd1na2vs0mg"},{"bike_id":"7f94b57f-e0f8-45f0-8394-4dedd17df1a0","system_id":"levelo_inurba_marseille","lat":43.28442,"lon":5.39191,"is_reserved":false,"is_disabled":true,"rental_uris":{"android":"levelo://app?vid=7f94b57f-e0f8-45f0-8394-4dedd17df1a0","ios":"levelo://app?vid=7f94b57f-e0f8-45f0-8394-4dedd17df1a0"},"vehicle_type_id":"4","last_reported":1737817655,"current_range_meters":400,"station_id":"ce4bhoh2rcd13ifvqh5g","pricing_plan_id":"cebpf4jnsgd1na2vs0mg"},{"bike_id":"b4ae047f-291d-4987-a99e-9fa0531b3cc6","system_id":"levelo_inurba_marseille","lat":43.30546,"lon":5.36551,"is_reserved":false,"is_disabled":false,"rental_uris":{"android":"levelo://app?vid=b4ae047f-291d-4987-a99e-9fa0531b3cc6","ios":"levelo://app?vid=b4ae047f-291d-4987-a99e-9fa0531b3cc6"},"vehicle_type_id":"4","last_reported":1737817655,"current_range_meters":33600,"station_id":"ce4bgs12rcd13ifvqcag","pricing_plan_id":"cebpf4jnsgd1na2vs0mg"},{"bike_id":"f9c62656-c213-4d37-bccf-53ca245dbdbd","system_id":"levelo_inurba_marseille","lat":43.330207,"lon":5.390427,"is_reserved":false,"is_disabled":false,"rental_uris":{"android":"levelo://app?vid=f9c62656-c213-4d37-bccf-53ca245dbdbd","ios":"levelo://app?vid=f9c62656-c213-4d37-bccf-53ca245dbdbd"},"vehicle_type_id":"4","last_reported":1737817655,"current_range_meters":13600,"station_id":"ce4bhr92rcd13ifvqhrg","pricing_plan_id":"cebpf4jnsgd1na2vs0mg"},{"bike_id":"26d3de6a-b7db-4cd7-885c-9cb71bb28aa5","system_id":"levelo_inurba_marseille","lat":43.2737,"lon":5.36263,"is_reserved":false,"is_disabled":false,"rental_uris":{"android":"levelo://app?vid=26d3de6a-b7db-4cd7-885c-9cb71bb28aa5","ios":"levelo://app?vid=26d3de6a-b7db-4cd7-885c-9cb71bb28aa5"},"vehicle_type_id":"4","last_reported":1737817655,"current_range_meters":38800,"station_id":"ce4bhbh2rcd13ifvqeo0","pricing_plan_id":"cebpf4jnsgd1na2vs0mg"},{"bike_id":"0c21f865-7b69-4aae-b926-535c6e7e0c30","system_id":"levelo_inurba_marseille","lat":43.25112,"lon":5.40329,"is_reserved":false,"is_disabled":true,"rental_uris":{"android":"levelo://app?vid=0c21f865-7b69-4aae-b926-535c6e7e0c30","ios":"levelo://app?vid=0c21f865-7b69-4aae-b926-535c6e7e0c30"},"vehicle_type_id":"4","last_reported":1737817655,"current_range_meters":0,"station_id":"ce4bhlh2rcd13ifvqgig","pricing_plan_id":"cebpf4jnsgd1na2vs0mg"},{"bike_id":"7c78a755-c7f5-4f07-a96b-621451d47948","system_id":"levelo_inurba_marseille","lat":43.29899,"lon":5.43665,"is_reserved":false,"is_disabled":false,"rental_uris":{"android":"levelo://app?vid=7c78a755-c7f5-4f07-a96b-621451d47948","ios":"levelo://app?vid=7c78a755-c7f5-4f07-a96b-621451d47948"},"vehicle_type_id":"4","last_reported":1737817655,"current_range_meters":36000,"station_id":"ce4bhpp2rcd13ifvqhfg","pricing_plan_id":"cebpf4jnsgd1na2vs0mg"},{"bike_id":"dba76d35-e2fd-4b01-b4c2-d3bb8a83d9a4","system_id":"levelo_inurba_marseille","lat":43.28266,"lon":5.35056,"is_reserved":false,"is_disabled":false,"rental_uris":{"android":"levelo://app?vid=dba76d35-e2fd-4b01-b4c2-d3bb8a83d9a4","ios":"levelo://app?vid=dba76d35-e2fd-4b01-b4c2-d3bb8a83d9a4"},"vehicle_type_id":"4","last_reported":1737817655,"current_range_meters":17600,"station_id":"ce4bhbp2rcd13ifvqerg","pricing_plan_id":"cebpf4jnsgd1na2vs0mg"},{"bike_id":"c69d1b2a-5537-4cf0-8c1d-991576479533","system_id":"levelo_inurba_marseille","lat":43.29166,"lon":5.37145,"is_reserved":false,"is_disabled":true,"rental_uris":{"android":"levelo://app?vid=c69d1b2a-5537-4cf0-8c1d-991576479533","ios":"levelo://app?vid=c69d1b2a-5537-4cf0-8c1d-991576479533"},"vehicle_type_id":"4","last_reported":1737817655,"current_range_meters":800,"station_id":"ce4bha92rcd13ifvqeh0","pricing_plan_id":"cebpf4jnsgd1na2vs0mg"},{"bike_id":"267a4850-6b3f-4610-afc8-1ca330dbcf99","system_id":"levelo_inurba_marseille","lat":43.29376,"lon":5.37859,"is_reserved":false,"is_disabled":false,"rental_uris":{"android":"levelo://app?vid=267a4850-6b3f-4610-afc8-1ca330dbcf99","ios":"levelo://app?vid=267a4850-6b3f-4610-afc8-1ca330dbcf99"},"vehicle_type_id":"4","last_reported":1737817655,"current_range_meters":29600,"station_id":"ce4bgjh2rcd13ifvqbf0","pricing_plan_id":"cebpf4jnsgd1na2vs0mg"},{"bike_id":"23d510e9-a16c-43a2-932f-0bd20e7b4f5f","system_id":"levelo_inurba_marseille","lat":43.26555,"lon":5.37288,"is_reserved":false,"is_disabled":false,"rental_uris":{"android":"levelo://app?vid=23d510e9-a16c-43a2-932f-0bd20e7b4f5f","ios":"levelo://app?vid=23d510e9-a16c-43a2-932f-0bd20e7b4f5f"},"vehicle_type_id":"4","last_reported":1737817655,"current_range_meters":15200,"station_id":"ce4bhg12rcd13ifvqf70","pricing_plan_id":"cebpf4jnsgd1na2vs0mg"},{"bike_id":"7efe2e23-4eb5-42e6-bdfe-af45bc849b33","system_id":"levelo_inurba_marseille","lat":43.25105,"lon":5.4033,"is_reserved":false,"is_disabled":false,"rental_uris":{"android":"levelo://app?vid=7efe2e23-4eb5-42e6-bdfe-af45bc849b33","ios":"levelo://app?vid=7efe2e23-4eb5-42e6-bdfe-af45bc849b33"},"vehicle_type_id":"4","last_reported":1737817655,"current_range_meters":8000,"station_id":"ce4bhlh2rcd13ifvqgig","pricing_plan_id":"cebpf4jnsgd1na2vs0mg"},{"bike_id":"8fd0082a-8558-471d-bd5c-8f2bb03de120","system_id":"levelo_inurba_marseille","lat":43.28721,"lon":5.40018,"is_reserved":false,"is_disabled":true,"rental_uris":{"android":"levelo://app?vid=8fd0082a-8558-471d-bd5c-8f2bb03de120","ios":"levelo://app?vid=8fd0082a-8558-471d-bd5c-8f2bb03de120"},"vehicle_type_id":"4","last_reported":1737817655,"current_range_meters":30400,"station_id":"ce4bho92rcd13ifvqh3g","pricing_plan_id":"cebpf4jnsgd1na2vs0mg"},{"bike_id":"1a04360e-84fa-4b62-bacd-be8030e35e2e","system_id":"levelo_inurba_marseille","lat":43.29178,"lon":5.37149,"is_reserved":false,"is_disabled":false,"rental_uris":{"android":"levelo://app?vid=1a04360e-84fa-4b62-bacd-be8030e35e2e","ios":"levelo://app?vid=1a04360e-84fa-4b62-bacd-be8030e35e2e"},"vehicle_type_id":"4","last_reported":1737817655,"current_range_meters":38400,"station_id":"ce4bha92rcd13ifvqeh0","pricing_plan_id":"cebpf4jnsgd1na2vs0mg"},{"bike_id":"08fc771d-4572-4ccd-82e8-cd527975f4d8","system_id":"levelo_inurba_marseille","lat":43.28145,"lon":5.42645,"is_reserved":false,"is_disabled":false,"rental_uris":{"android":"levelo://app?vid=08fc771d-4572-4ccd-82e8-cd527975f4d8","ios":"levelo://app?vid=08fc771d-4572-4ccd-82e8-cd527975f4d8"},"vehicle_type_id":"4","last_reported":1737817655,"current_range_meters":3600,"station_id":"ce4bhnh2rcd13ifvqgug","pricing_plan_id":"cebpf4jnsgd1na2vs0mg"},{"bike_id":"ff922a55-cb3a-41c3-99bf-967431d2ac5d","system_id":"levelo_inurba_marseille","lat":43.29573,"lon":5.37525,"is_reserved":false,"is_disabled":false,"rental_uris":{"android":"levelo://app?vid=ff922a55-cb3a-41c3-99bf-967431d2ac5d","ios":"levelo://app?vid=ff922a55-cb3a-41c3-99bf-967431d2ac5d"},"vehicle_type_id":"4","last_reported":1737817655,"current_range_meters":27200,"station_id":"ce4bgh92rcd13ifvqb50","pricing_plan_id":"cebpf4jnsgd1na2vs0mg"},{"bike_id":"575ea7c9-7e3c-4eb1-a51f-a49eb53d6a9f","system_id":"levelo_inurba_marseille","lat":43.29614,"lon":5.37729,"is_reserved":false,"is_disabled":false,"rental_uris":{"android":"levelo://app?vid=575ea7c9-7e3c-4eb1-a51f-a49eb53d6a9f","ios":"levelo://app?vid=575ea7c9-7e3c-4eb1-a51f-a49eb53d6a9f"},"vehicle_type_id":"4","last_reported":1737817655,"current_range_meters":38800,"station_id":"ce4bgi92rcd13ifvqb90","pricing_plan_id":"cebpf4jnsgd1na2vs0mg"},{"bike_id":"b996c87f-d903-42b5-80db-0cef1eda72fd","system_id":"levelo_inurba_marseille","lat":43.23072,"lon":5.35483,"is_reserved":false,"is_disabled":false,"rental_uris":{"android":"levelo://app?vid=b996c87f-d903-42b5-80db-0cef1eda72fd","ios":"levelo://app?vid=b996c87f-d903-42b5-80db-0cef1eda72fd"},"vehicle_type_id":"4","last_reported":1737817655,"current_range_meters":8800,"station_id":"cpo3342slgdg3j2ifvpg","pricing_plan_id":"cebpf4jnsgd1na2vs0mg"},{"bike_id":"f2af5feb-c0f9-4db9-aacc-65939809da90","system_id":"levelo_inurba_marseille","lat":43.30902,"lon":5.37191,"is_reserved":false,"is_disabled":false,"rental_uris":{"android":"levelo://app?vid=f2af5feb-c0f9-4db9-aacc-65939809da90","ios":"levelo://app?vid=f2af5feb-c0f9-4db9-aacc-65939809da90"},"vehicle_type_id":"4","last_reported":1737817655,"current_range_meters":8400,"station_id":"ce4bguh2rcd13ifvqckg","pricing_plan_id":"cebpf4jnsgd1na2vs0mg"},{"bike_id":"34d7eb6d-811f-4c82-a1d1-78b0a88075a5","system_id":"levelo_inurba_marseille","lat":43.29299,"lon":5.37452,"is_reserved":false,"is_disabled":false,"rental_uris":{"android":"levelo://app?vid=34d7eb6d-811f-4c82-a1d1-78b0a88075a5","ios":"levelo://app?vid=34d7eb6d-811f-4c82-a1d1-78b0a88075a5"},"vehicle_type_id":"4","last_reported":1737817655,"current_range_meters":24000,"station_id":"ce4bgi12rcd13ifvqb70","pricing_plan_id":"cebpf4jnsgd1na2vs0mg"},{"bike_id":"9f0c46f0-4fb9-4e17-b4b9-e5ede73a87dc","system_id":"levelo_inurba_marseille","lat":43.32373,"lon":5.38895,"is_reserved":false,"is_disabled":false,"rental_uris":{"android":"levelo://app?vid=9f0c46f0-4fb9-4e17-b4b9-e5ede73a87dc","ios":"levelo://app?vid=9f0c46f0-4fb9-4e17-b4b9-e5ede73a87dc"},"vehicle_type_id":"4","last_reported":1737817655,"current_range_meters":28800,"station_id":"ce4bhqp2rcd13ifvqhog","pricing_plan_id":"cebpf4jnsgd1na2vs0mg"},{"bike_id":"882e4d97-ad36-4f32-b0ee-359384324109","system_id":"levelo_inurba_marseille","lat":43.299245,"lon":5.381615,"is_reserved":false,"is_disabled":false,"rental_uris":{"android":"levelo://app?vid=882e4d97-ad36-4f32-b0ee-359384324109","ios":"levelo://app?vid=882e4d97-ad36-4f32-b0ee-359384324109"},"vehicle_type_id":"4","last_reported":1737817655,"current_range_meters":32800,"station_id":"ce4bgj12rcd13ifvqbc0","pricing_plan_id":"cebpf4jnsgd1na2vs0mg"},{"bike_id":"a70f3320-6dfd-42b3-8579-9f1c4e478901","system_id":"levelo_inurba_marseille","lat":43.29003,"lon":5.35616,"is_reserved":false,"is_disabled":false,"rental_uris":{"android":"levelo://app?vid=a70f3320-6dfd-42b3-8579-9f1c4e478901","ios":"levelo://app?vid=a70f3320-6dfd-42b3-8579-9f1c4e478901"},"vehicle_type_id":"4","last_reported":1737817655,"current_range_meters":26000,"station_id":"ce4bhb92rcd13ifvqen0","pricing_plan_id":"cebpf4jnsgd1na2vs0mg"},{"bike_id":"0bfc68c0-2986-4c4d-a458-fc9d03ae18f9","system_id":"levelo_inurba_marseille","lat":43.2907,"lon":5.37176,"is_reserved":false,"is_disabled":false,"rental_uris":{"android":"levelo://app?vid=0bfc68c0-2986-4c4d-a458-fc9d03ae18f9","ios":"levelo://app?vid=0bfc68c0-2986-4c4d-a458-fc9d03ae18f9"},"vehicle_type_id":"4","last_reported":1737817655,"current_range_meters":14800,"station_id":"ce4bh5p2rcd13ifvqe4g","pricing_plan_id":"cebpf4jnsgd1na2vs0mg"},{"bike_id":"2b67e1d5-ff21-4c00-b4f6-956c4a136377","system_id":"levelo_inurba_marseille","lat":43.28468,"lon":5.35887,"is_reserved":false,"is_disabled":false,"rental_uris":{"android":"levelo://app?vid=2b67e1d5-ff21-4c00-b4f6-956c4a136377","ios":"levelo://app?vid=2b67e1d5-ff21-4c00-b4f6-956c4a136377"},"vehicle_type_id":"4","last_reported":1737817655,"current_range_meters":38800,"station_id":"ce4bhah2rcd13ifvqei0","pricing_plan_id":"cebpf4jnsgd1na2vs0mg"},{"bike_id":"a16410b4-26d3-4fcc-b1a6-0dca34721e4f","system_id":"levelo_inurba_marseille","lat":43.29904,"lon":5.38142,"is_reserved":false,"is_disabled":false,"rental_uris":{"android":"levelo://app?vid=a16410b4-26d3-4fcc-b1a6-0dca34721e4f","ios":"levelo://app?vid=a16410b4-26d3-4fcc-b1a6-0dca34721e4f"},"vehicle_type_id":"4","last_reported":1737817655,"current_range_meters":6800,"station_id":"ce4bgj12rcd13ifvqbc0","pricing_plan_id":"cebpf4jnsgd1na2vs0mg"},{"bike_id":"450e542a-77ad-4aa8-8f4e-8424ab06bf74","system_id":"levelo_inurba_marseille","lat":43.24648,"lon":5.38891,"is_reserved":false,"is_disabled":true,"rental_uris":{"android":"levelo://app?vid=450e542a-77ad-4aa8-8f4e-8424ab06bf74","ios":"levelo://app?vid=450e542a-77ad-4aa8-8f4e-8424ab06bf74"},"vehicle_type_id":"4","last_reported":1737817655,"current_range_meters":0,"station_id":"ce4bhg12rcd13ifvqf60","pricing_plan_id":"cebpf4jnsgd1na2vs0mg"},{"bike_id":"2cc6c1d9-eb27-4ac3-87d7-8f9ee4b7dd52","system_id":"levelo_inurba_marseille","lat":43.30109,"lon":5.39068,"is_reserved":false,"is_disabled":false,"rental_uris":{"android":"levelo://app?vid=2cc6c1d9-eb27-4ac3-87d7-8f9ee4b7dd52","ios":"levelo://app?vid=2cc6c1d9-eb27-4ac3-87d7-8f9ee4b7dd52"},"vehicle_type_id":"4","last_reported":1737817655,"current_range_meters":37600,"station_id":"ce4bh192rcd13ifvqdb0","pricing_plan_id":"cebpf4jnsgd1na2vs0mg"},{"bike_id":"0851b06b-a037-4e68-9057-2908986d991d","system_id":"levelo_inurba_marseille","lat":43.30371,"lon":5.41854,"is_reserved":false,"is_disabled":false,"rental_uris":{"android":"levelo://app?vid=0851b06b-a037-4e68-9057-2908986d991d","ios":"levelo://app?vid=0851b06b-a037-4e68-9057-2908986d991d"},"vehicle_type_id":"4","last_reported":1737817655,"current_range_meters":28800,"station_id":"ce4bhop2rcd13ifvqh7g","pricing_plan_id":"cebpf4jnsgd1na2vs0mg"},{"bike_id":"44ea9788-e6c2-4bc8-a022-db3101973ee1","system_id":"levelo_inurba_marseille","lat":43.31538,"lon":5.3803,"is_reserved":false,"is_disabled":false,"rental_uris":{"android":"levelo://app?vid=44ea9788-e6c2-4bc8-a022-db3101973ee1","ios":"levelo://app?vid=44ea9788-e6c2-4bc8-a022-db3101973ee1"},"vehicle_type_id":"4","last_reported":1737817655,"current_range_meters":16000,"station_id":"ce4bhsp2rcd13ifvqi50","pricing_plan_id":"cebpf4jnsgd1na2vs0mg"},{"bike_id":"16cba4e1-cb10-44ef-b1a1-eca95385335f","system_id":"levelo_inurba_marseille","lat":43.2843,"lon":5.34987,"is_reserved":false,"is_disabled":true,"rental_uris":{"android":"levelo://app?vid=16cba4e1-cb10-44ef-b1a1-eca95385335f","ios":"levelo://app?vid=16cba4e1-cb10-44ef-b1a1-eca95385335f"},"vehicle_type_id":"4","last_reported":1737817655,"current_range_meters":16800,"station_id":"ce4bhbh2rcd13ifvqepg","pricing_plan_id":"cebpf4jnsgd1na2vs0mg"},{"bike_id":"bb7496df-daf2-4393-b56b-ee3b4e878b75","system_id":"levelo_inurba_marseille","lat":43.2808,"lon":5.39654,"is_reserved":false,"is_disabled":false,"rental_uris":{"android":"levelo://app?vid=bb7496df-daf2-4393-b56b-ee3b4e878b75","ios":"levelo://app?vid=bb7496df-daf2-4393-b56b-ee3b4e878b75"},"vehicle_type_id":"4","last_reported":1737817655,"current_range_meters":39200,"station_id":"ce4bho12rcd13ifvqh2g","pricing_plan_id":"cebpf4jnsgd1na2vs0mg"},{"bike_id":"8fc5f132-29ed-47c1-bff0-bf17728d82ae","system_id":"levelo_inurba_marseille","lat":43.29394,"lon":5.37852,"is_reserved":false,"is_disabled":true,"rental_uris":{"android":"levelo://app?vid=8fc5f132-29ed-47c1-bff0-bf17728d82ae","ios":"levelo://app?vid=8fc5f132-29ed-47c1-bff0-bf17728d82ae"},"vehicle_type_id":"4","last_reported":1737817655,"current_range_meters":37600,"station_id":"ce4bgjh2rcd13ifvqbf0","pricing_plan_id":"cebpf4jnsgd1na2vs0mg"},{"bike_id":"67ed4455-4fac-4255-a2f9-61cd65e7cb6a","system_id":"levelo_inurba_marseille","lat":43.30133,"lon":5.39862,"is_reserved":false,"is_disabled":false,"rental_uris":{"android":"levelo://app?vid=67ed4455-4fac-4255-a2f9-61cd65e7cb6a","ios":"levelo://app?vid=67ed4455-4fac-4255-a2f9-61cd65e7cb6a"},"vehicle_type_id":"4","last_reported":1737817655,"current_range_meters":17600,"station_id":"ce4bh0h2rcd13ifvqd40","pricing_plan_id":"cebpf4jnsgd1na2vs0mg"},{"bike_id":"bd71b0ef-1909-491b-9b34-ec914ebd43eb","system_id":"levelo_inurba_marseille","lat":43.31715,"lon":5.37748,"is_reserved":false,"is_disabled":false,"rental_uris":{"android":"levelo://app?vid=bd71b0ef-1909-491b-9b34-ec914ebd43eb","ios":"levelo://app?vid=bd71b0ef-1909-491b-9b34-ec914ebd43eb"},"vehicle_type_id":"4","last_reported":1737817655,"current_range_meters":38800,"station_id":"ce4bgth2rcd13ifvqch0","pricing_plan_id":"cebpf4jnsgd1na2vs0mg"},{"bike_id":"e28cd362-bf6b-4a47-b19d-eace2e851faa","system_id":"levelo_inurba_marseille","lat":43.23059,"lon":5.35495,"is_reserved":false,"is_disabled":false,"rental_uris":{"android":"levelo://app?vid=e28cd362-bf6b-4a47-b19d-eace2e851faa","ios":"levelo://app?vid=e28cd362-bf6b-4a47-b19d-eace2e851faa"},"vehicle_type_id":"4","last_reported":1737817655,"current_range_meters":26800,"station_id":"cpo3342slgdg3j2ifvpg","pricing_plan_id":"cebpf4jnsgd1na2vs0mg"},{"bike_id":"c18b10af-b2f5-4b56-972a-91fb04736951","system_id":"levelo_inurba_marseille","lat":43.30551,"lon":5.36536,"is_reserved":false,"is_disabled":false,"rental_uris":{"android":"levelo://app?vid=c18b10af-b2f5-4b56-972a-91fb04736951","ios":"levelo://app?vid=c18b10af-b2f5-4b56-972a-91fb04736951"},"vehicle_type_id":"4","last_reported":1737817655,"current_range_meters":20800,"station_id":"ce4bgs12rcd13ifvqcag","pricing_plan_id":"cebpf4jnsgd1na2vs0mg"},{"bike_id":"27942fa5-568e-4284-94a7-5a593bfe15fc","system_id":"levelo_inurba_marseille","lat":43.29262,"lon":5.38441,"is_reserved":false,"is_disabled":false,"rental_uris":{"android":"levelo://app?vid=27942fa5-568e-4284-94a7-5a593bfe15fc","ios":"levelo://app?vid=27942fa5-568e-4284-94a7-5a593bfe15fc"},"vehicle_type_id":"4","last_reported":1737817655,"current_range_meters":24800,"station_id":"ce4bh692rcd13ifvqea0","pricing_plan_id":"cebpf4jnsgd1na2vs0mg"},{"bike_id":"aff6960a-afc5-4f41-b601-80cc96e81e06","system_id":"levelo_inurba_marseille","lat":43.26025,"lon":5.37548,"is_reserved":false,"is_disabled":true,"rental_uris":{"android":"levelo://app?vid=aff6960a-afc5-4f41-b601-80cc96e81e06","ios":"levelo://app?vid=aff6960a-afc5-4f41-b601-80cc96e81e06"},"vehicle_type_id":"4","last_reported":1737817655,"current_range_meters":400,"station_id":"ce4bhgh2rcd13ifvqfa0","pricing_plan_id":"cebpf4jnsgd1na2vs0mg"},{"bike_id":"031cb0e3-5621-4f2d-ba6f-badb69363cf6","system_id":"levelo_inurba_marseille","lat":43.28273,"lon":5.35069,"is_reserved":false,"is_disabled":false,"rental_uris":{"android":"levelo://app?vid=031cb0e3-5621-4f2d-ba6f-badb69363cf6","ios":"levelo://app?vid=031cb0e3-5621-4f2d-ba6f-badb69363cf6"},"vehicle_type_id":"4","last_reported":1737817655,"current_range_meters":18800,"station_id":"ce4bhbp2rcd13ifvqerg","pricing_plan_id":"cebpf4jnsgd1na2vs0mg"},{"bike_id":"ab825772-00d4-4c68-a65b-b0e65956ed00","system_id":"levelo_inurba_marseille","lat":43.26952,"lon":5.38623,"is_reserved":false,"is_disabled":false,"rental_uris":{"android":"levelo://app?vid=ab825772-00d4-4c68-a65b-b0e65956ed00","ios":"levelo://app?vid=ab825772-00d4-4c68-a65b-b0e65956ed00"},"vehicle_type_id":"4","last_reported":1737817655,"current_range_meters":36400,"station_id":"ce4bhh92rcd13ifvqfh0","pricing_plan_id":"cebpf4jnsgd1na2vs0mg"},{"bike_id":"f4a67fd7-7ba0-462e-b321-724410a83bc3","system_id":"levelo_inurba_marseille","lat":43.28618,"lon":5.35122,"is_reserved":false,"is_disabled":true,"rental_uris":{"android":"levelo://app?vid=f4a67fd7-7ba0-462e-b321-724410a83bc3","ios":"levelo://app?vid=f4a67fd7-7ba0-462e-b321-724410a83bc3"},"vehicle_type_id":"4","last_reported":1737817655,"current_range_meters":16800,"station_id":"ce4bhch2rcd13ifvqeug","pricing_plan_id":"cebpf4jnsgd1na2vs0mg"},{"bike_id":"4aac7d9c-1f89-480a-84d2-1fdaa23cbec4","system_id":"levelo_inurba_marseille","lat":43.24802,"lon":5.37454,"is_reserved":false,"is_disabled":false,"rental_uris":{"android":"levelo://app?vid=4aac7d9c-1f89-480a-84d2-1fdaa23cbec4","ios":"levelo://app?vid=4aac7d9c-1f89-480a-84d2-1fdaa23cbec4"},"vehicle_type_id":"4","last_reported":1737817655,"current_range_meters":11200,"station_id":"ce4bhgh2rcd13ifvqfb0","pricing_plan_id":"cebpf4jnsgd1na2vs0mg"},{"bike_id":"1ef1003d-aecf-4f9e-85a7-6c3e8f13f1c0","system_id":"levelo_inurba_marseille","lat":43.22937,"lon":5.35389,"is_reserved":false,"is_disabled":false,"rental_uris":{"android":"levelo://app?vid=1ef1003d-aecf-4f9e-85a7-6c3e8f13f1c0","ios":"levelo://app?vid=1ef1003d-aecf-4f9e-85a7-6c3e8f13f1c0"},"vehicle_type_id":"4","last_reported":1737817655,"current_range_meters":38000,"station_id":"cpo3532slgdg3j2ikp40","pricing_plan_id":"cebpf4jnsgd1na2vs0mg"},{"bike_id":"d578e2f4-d0b2-40f6-9070-dcb3d020a1ea","system_id":"levelo_inurba_marseille","lat":43.29569,"lon":5.39976,"is_reserved":false,"is_disabled":false,"rental_uris":{"android":"levelo://app?vid=d578e2f4-d0b2-40f6-9070-dcb3d020a1ea","ios":"levelo://app?vid=d578e2f4-d0b2-40f6-9070-dcb3d020a1ea"},"vehicle_type_id":"4","last_reported":1737817655,"current_range_meters":31200,"station_id":"ce4bh312rcd13ifvqdj0","pricing_plan_id":"cebpf4jnsgd1na2vs0mg"},{"bike_id":"a429b57d-452d-4623-b8d1-c6c8eb545a68","system_id":"levelo_inurba_marseille","lat":43.28279,"lon":5.350663,"is_reserved":false,"is_disabled":false,"rental_uris":{"android":"levelo://app?vid=a429b57d-452d-4623-b8d1-c6c8eb545a68","ios":"levelo://app?vid=a429b57d-452d-4623-b8d1-c6c8eb545a68"},"vehicle_type_id":"4","last_reported":1737817655,"current_range_meters":30400,"station_id":"ce4bhbp2rcd13ifvqerg","pricing_plan_id":"cebpf4jnsgd1na2vs0mg"},{"bike_id":"fadfe1b0-7fd5-4d7f-84cc-b87419bb6bfa","system_id":"levelo_inurba_marseille","lat":43.33608,"lon":5.41034,"is_reserved":false,"is_disabled":false,"rental_uris":{"android":"levelo://app?vid=fadfe1b0-7fd5-4d7f-84cc-b87419bb6bfa","ios":"levelo://app?vid=fadfe1b0-7fd5-4d7f-84cc-b87419bb6bfa"},"vehicle_type_id":"4","last_reported":1737817655,"current_range_meters":38400,"station_id":"ce4bhqh2rcd13ifvqhmg","pricing_plan_id":"cebpf4jnsgd1na2vs0mg"},{"bike_id":"5c995afd-2cd1-49c1-8bf9-110c6b679d80","system_id":"levelo_inurba_marseille","lat":43.2408,"lon":5.37751,"is_reserved":false,"is_disabled":false,"rental_uris":{"android":"levelo://app?vid=5c995afd-2cd1-49c1-8bf9-110c6b679d80","ios":"levelo://app?vid=5c995afd-2cd1-49c1-8bf9-110c6b679d80"},"vehicle_type_id":"4","last_reported":1737817655,"current_range_meters":7200,"station_id":"ce4bhnp2rcd13ifvqgvg","pricing_plan_id":"cebpf4jnsgd1na2vs0mg"},{"bike_id":"01342521-6991-4448-8d09-70d4449640d7","system_id":"levelo_inurba_marseille","lat":43.261925,"lon":5.374361,"is_reserved":false,"is_disabled":false,"rental_uris":{"android":"levelo://app?vid=01342521-6991-4448-8d09-70d4449640d7","ios":"levelo://app?vid=01342521-6991-4448-8d09-70d4449640d7"},"vehicle_type_id":"4","last_reported":1737817655,"current_range_meters":4000,"station_id":"ce4bhgp2rcd13ifvqfc0","pricing_plan_id":"cebpf4jnsgd1na2vs0mg"},{"bike_id":"496dc01f-0296-4272-b3aa-6d788c2b1587","system_id":"levelo_inurba_marseille","lat":43.27377,"lon":5.36256,"is_reserved":false,"is_disabled":false,"rental_uris":{"android":"levelo://app?vid=496dc01f-0296-4272-b3aa-6d788c2b1587","ios":"levelo://app?vid=496dc01f-0296-4272-b3aa-6d788c2b1587"},"vehicle_type_id":"4","last_reported":1737817655,"current_range_meters":19200,"station_id":"ce4bhbh2rcd13ifvqeo0","pricing_plan_id":"cebpf4jnsgd1na2vs0mg"},{"bike_id":"b64d880e-4583-44f0-8c16-3495e23cf3e5","system_id":"levelo_inurba_marseille","lat":43.29896,"lon":5.43657,"is_reserved":false,"is_disabled":false,"rental_uris":{"android":"levelo://app?vid=b64d880e-4583-44f0-8c16-3495e23cf3e5","ios":"levelo://app?vid=b64d880e-4583-44f0-8c16-3495e23cf3e5"},"vehicle_type_id":"4","last_reported":1737817655,"current_range_meters":24000,"station_id":"ce4bhpp2rcd13ifvqhfg","pricing_plan_id":"cebpf4jnsgd1na2vs0mg"},{"bike_id":"a85649a6-cd6d-4dad-8b8d-4e5f638d3201","system_id":"levelo_inurba_marseille","lat":43.26572,"lon":5.39015,"is_reserved":false,"is_disabled":false,"rental_uris":{"android":"levelo://app?vid=a85649a6-cd6d-4dad-8b8d-4e5f638d3201","ios":"levelo://app?vid=a85649a6-cd6d-4dad-8b8d-4e5f638d3201"},"vehicle_type_id":"4","last_reported":1737817655,"current_range_meters":18800,"station_id":"ce4bhe12rcd13ifvqf30","pricing_plan_id":"cebpf4jnsgd1na2vs0mg"},{"bike_id":"b873533f-943b-4033-a86d-9d99128fa59a","system_id":"levelo_inurba_marseille","lat":43.32509,"lon":5.36546,"is_reserved":false,"is_disabled":false,"rental_uris":{"android":"levelo://app?vid=b873533f-943b-4033-a86d-9d99128fa59a","ios":"levelo://app?vid=b873533f-943b-4033-a86d-9d99128fa59a"},"vehicle_type_id":"4","last_reported":1737817655,"current_range_meters":38800,"station_id":"ce4bhs12rcd13ifvqhvg","pricing_plan_id":"cebpf4jnsgd1na2vs0mg"},{"bike_id":"94456f3d-5d42-4ffd-b863-1e094f7fbd0d","system_id":"levelo_inurba_marseille","lat":43.23068,"lon":5.35494,"is_reserved":false,"is_disabled":false,"rental_uris":{"android":"levelo://app?vid=94456f3d-5d42-4ffd-b863-1e094f7fbd0d","ios":"levelo://app?vid=94456f3d-5d42-4ffd-b863-1e094f7fbd0d"},"vehicle_type_id":"4","last_reported":1737817655,"current_range_meters":11200,"station_id":"cpo3342slgdg3j2ifvpg","pricing_plan_id":"cebpf4jnsgd1na2vs0mg"},{"bike_id":"f80d01d0-a712-409a-8ab3-b8a044fec525","system_id":"levelo_inurba_marseille","lat":43.25858,"lon":5.39931,"is_reserved":false,"is_disabled":true,"rental_uris":{"android":"levelo://app?vid=f80d01d0-a712-409a-8ab3-b8a044fec525","ios":"levelo://app?vid=f80d01d0-a712-409a-8ab3-b8a044fec525"},"vehicle_type_id":"4","last_reported":1737817655,"current_range_meters":38000,"station_id":"ce4bhl92rcd13ifvqghg","pricing_plan_id":"cebpf4jnsgd1na2vs0mg"},{"bike_id":"375c54aa-d8c3-44cb-9610-967b44886ba6","system_id":"levelo_inurba_marseille","lat":43.33608,"lon":5.41032,"is_reserved":false,"is_disabled":false,"rental_uris":{"android":"levelo://app?vid=375c54aa-d8c3-44cb-9610-967b44886ba6","ios":"levelo://app?vid=375c54aa-d8c3-44cb-9610-967b44886ba6"},"vehicle_type_id":"4","last_reported":1737817655,"current_range_meters":39200,"station_id":"ce4bhqh2rcd13ifvqhmg","pricing_plan_id":"cebpf4jnsgd1na2vs0mg"},{"bike_id":"5c88d872-cf8b-48d3-a7af-e7ac8872dfbb","system_id":"levelo_inurba_marseille","lat":43.30095,"lon":5.39084,"is_reserved":false,"is_disabled":false,"rental_uris":{"android":"levelo://app?vid=5c88d872-cf8b-48d3-a7af-e7ac8872dfbb","ios":"levelo://app?vid=5c88d872-cf8b-48d3-a7af-e7ac8872dfbb"},"vehicle_type_id":"4","last_reported":1737817655,"current_range_meters":35600,"station_id":"ce4bh192rcd13ifvqdb0","pricing_plan_id":"cebpf4jnsgd1na2vs0mg"},{"bike_id":"9c5149dd-b82c-447e-8b27-8c2fc0cb58a6","system_id":"levelo_inurba_marseille","lat":43.29852,"lon":5.36284,"is_reserved":false,"is_disabled":false,"rental_uris":{"android":"levelo://app?vid=9c5149dd-b82c-447e-8b27-8c2fc0cb58a6","ios":"levelo://app?vid=9c5149dd-b82c-447e-8b27-8c2fc0cb58a6"},"vehicle_type_id":"4","last_reported":1737817655,"current_range_meters":28000,"station_id":"ce4bgpp2rcd13ifvqc3g","pricing_plan_id":"cebpf4jnsgd1na2vs0mg"},{"bike_id":"c50cf93a-6b59-47ad-b33e-2c9c3fe13678","system_id":"levelo_inurba_marseille","lat":43.30486,"lon":5.36966,"is_reserved":false,"is_disabled":false,"rental_uris":{"android":"levelo://app?vid=c50cf93a-6b59-47ad-b33e-2c9c3fe13678","ios":"levelo://app?vid=c50cf93a-6b59-47ad-b33e-2c9c3fe13678"},"vehicle_type_id":"4","last_reported":1737817655,"current_range_meters":4400,"station_id":"","pricing_plan_id":"cebpf4jnsgd1na2vs0mg"},{"bike_id":"c60dcd33-fc4e-4a8f-a65b-3191b49bc04f","system_id":"levelo_inurba_marseille","lat":43.29066,"lon":5.36945,"is_reserved":false,"is_disabled":false,"rental_uris":{"android":"levelo://app?vid=c60dcd33-fc4e-4a8f-a65b-3191b49bc04f","ios":"levelo://app?vid=c60dcd33-fc4e-4a8f-a65b-3191b49bc04f"},"vehicle_type_id":"4","last_reported":1737817655,"current_range_meters":26000,"station_id":"ce4bh5p2rcd13ifvqe4g","pricing_plan_id":"cebpf4jnsgd1na2vs0mg"},{"bike_id":"a0144781-05b8-4d83-bbc9-fc2e4ea9d075","system_id":"levelo_inurba_marseille","lat":43.304294,"lon":5.412924,"is_reserved":false,"is_disabled":false,"rental_uris":{"android":"levelo://app?vid=a0144781-05b8-4d83-bbc9-fc2e4ea9d075","ios":"levelo://app?vid=a0144781-05b8-4d83-bbc9-fc2e4ea9d075"},"vehicle_type_id":"4","last_reported":1737817655,"current_range_meters":38000,"station_id":"ce4bhop2rcd13ifvqh8g","pricing_plan_id":"cebpf4jnsgd1na2vs0mg"},{"bike_id":"421962b1-e9b5-4248-8c61-fcd576606a31","system_id":"levelo_inurba_marseille","lat":43.29251,"lon":5.40903,"is_reserved":false,"is_disabled":false,"rental_uris":{"android":"levelo://app?vid=421962b1-e9b5-4248-8c61-fcd576606a31","ios":"levelo://app?vid=421962b1-e9b5-4248-8c61-fcd576606a31"},"vehicle_type_id":"4","last_reported":1737817655,"current_range_meters":6000,"station_id":"ce4bh192rcd13ifvqdc0","pricing_plan_id":"cebpf4jnsgd1na2vs0mg"},{"bike_id":"fe6bc14f-2b8e-45d5-ae40-e9e6d8289e20","system_id":"levelo_inurba_marseille","lat":43.30644,"lon":5.40074,"is_reserved":false,"is_disabled":false,"rental_uris":{"android":"levelo://app?vid=fe6bc14f-2b8e-45d5-ae40-e9e6d8289e20","ios":"levelo://app?vid=fe6bc14f-2b8e-45d5-ae40-e9e6d8289e20"},"vehicle_type_id":"4","last_reported":1737817655,"current_range_meters":37600,"station_id":"ce4bh112rcd13ifvqda0","pricing_plan_id":"cebpf4jnsgd1na2vs0mg"},{"bike_id":"a1f5beb6-d8e0-46ab-b76f-679b3402e686","system_id":"levelo_inurba_marseille","lat":43.28406,"lon":5.37566,"is_reserved":false,"is_disabled":true,"rental_uris":{"android":"levelo://app?vid=a1f5beb6-d8e0-46ab-b76f-679b3402e686","ios":"levelo://app?vid=a1f5beb6-d8e0-46ab-b76f-679b3402e686"},"vehicle_type_id":"4","last_reported":1737817655,"current_range_meters":10000,"station_id":"ce4bh412rcd13ifvqds0","pricing_plan_id":"cebpf4jnsgd1na2vs0mg"},{"bike_id":"4433fe2f-6d27-4d08-8b9f-eac0ba03e8c9","system_id":"levelo_inurba_marseille","lat":43.2926,"lon":5.38444,"is_reserved":false,"is_disabled":false,"rental_uris":{"android":"levelo://app?vid=4433fe2f-6d27-4d08-8b9f-eac0ba03e8c9","ios":"levelo://app?vid=4433fe2f-6d27-4d08-8b9f-eac0ba03e8c9"},"vehicle_type_id":"4","last_reported":1737817655,"current_range_meters":6800,"station_id":"ce4bh692rcd13ifvqea0","pricing_plan_id":"cebpf4jnsgd1na2vs0mg"},{"bike_id":"92159b53-9eff-4b9a-9f2c-7294f81b84b0","system_id":"levelo_inurba_marseille","lat":43.29296,"lon":5.37466,"is_reserved":false,"is_disabled":true,"rental_uris":{"android":"levelo://app?vid=92159b53-9eff-4b9a-9f2c-7294f81b84b0","ios":"levelo://app?vid=92159b53-9eff-4b9a-9f2c-7294f81b84b0"},"vehicle_type_id":"4","last_reported":1737817655,"current_range_meters":0,"station_id":"ce4bgi12rcd13ifvqb70","pricing_plan_id":"cebpf4jnsgd1na2vs0mg"},{"bike_id":"081f9a1c-93b6-4d13-94cd-7890906fd0cd","system_id":"levelo_inurba_marseille","lat":43.28619,"lon":5.35116,"is_reserved":false,"is_disabled":false,"rental_uris":{"android":"levelo://app?vid=081f9a1c-93b6-4d13-94cd-7890906fd0cd","ios":"levelo://app?vid=081f9a1c-93b6-4d13-94cd-7890906fd0cd"},"vehicle_type_id":"4","last_reported":1737817655,"current_range_meters":36400,"station_id":"ce4bhch2rcd13ifvqeug","pricing_plan_id":"cebpf4jnsgd1na2vs0mg"},