{"last_updated":1751483283,"ttl":60,"version":"2.2","data":{"bikes":[{"bike_id":"3da29fb8-fc97-44c6-b9ac-31dd456b2fd4","system_id":"levelo_inurba_marseille","lat":43.33771,"lon":5.37424,"is_reserved":false,"is_disabled":true,"rental_uris":{"android":"levelo://app?vid=3da29fb8-fc97-44c6-b9ac-31dd456b2fd4","ios":"levelo://app?vid=3da29fb8-fc97-44c6-b9ac-31dd456b2fd4"},"vehicle_type_id":"4","last_reported":1751483283,"current_range_meters":0,"station_id":"","pricing_plan_id":"cebpf4jnsgd1na2vs0mg"},{"bike_id":"01861ad8-a8d7-4be6-816e-651927c87584","system_id":"levelo_inurba_marseille","lat":43.33751,"lon":5.37456,"is_reserved":false,"is_disabled":true,"rental_uris":{"android":"levelo://app?vid=01861ad8-a8d7-4be6-816e-651927c87584","ios":"levelo://app?vid=01861ad8-a8d7-4be6-816e-651927c87584"},"vehicle_type_id":"4","last_reported":1751483283,"current_range_meters":0,"station_id":"","pricing_plan_id":"cebpf4jnsgd1na2vs0mg"},{"bike_id":"371877a1-9494-4af8-8e6e-405e7c47ef43","system_id":"levelo_inurba_marseille","lat":43.29315,"lon":5.40701,"is_reserved":false,"is_disabled":true,"rental_uris":{"android":"levelo://app?vid=371877a1-9494-4af8-8e6e-405e7c47ef43","ios":"levelo://app?vid=371877a1-9494-4af8-8e6e-405e7c47ef43"},"vehicle_type_id":"4","last_reported":1751483283,"current_range_meters":0,"station_id":"","pricing_plan_id":"cebpf4jnsgd1na2vs0mg"},{"bike_id":"b042fbc9-4b04-401c-85ac-8fadab1bf02a","system_id":"levelo_inurba_marseille","lat":43.326307,"lon":5.375123,"is_reserved":false,"is_disabled":true,"rental_uris":{"android":"levelo://app?vid=b042fbc9-4b04-401c-85ac-8fadab1bf02a","ios":"levelo://app?vid=b042fbc9-4b04-401c-85ac-8fadab1bf02a"},"vehicle_type_id":"4","last_reported":1751483283,"current_range_meters":0,"station_id":"","pricing_plan_id":"cebpf4jnsgd1na2vs0mg"},{"bike_id":"88ba2eb8-6abc-42f0-a2b7-fafab863863b","system_id":"levelo_inurba_marseille","lat":43.2611,"lon":5.3736,"is_reserved":false,"is_disabled":true,"rental_uris":{"android":"levelo://app?vid=88ba2eb8-6abc-42f0-a2b7-fafab863863b","ios":"levelo://app?vid=88ba2eb8-6abc-42f0-a2b7-fafab863863b"},"vehicle_type_id":"4","last_reported":1751483283,"current_range_meters":0,"station_id":"","pricing_plan_id":"cebpf4jnsgd1na2vs0mg"},{"bike_id":"29c8b430-ae9f-4ad7-8ec6-3359984a44d5","system_id":"levelo_inurba_marseille","lat":43.30799,"lon":5.38138,"is_reserved":false,"is_disabled":true,"rental_uris":{"android":"levelo://app?vid=29c8b430-ae9f-4ad7-8ec6-3359984a44d5","ios":"levelo://app?vid=29c8b430-ae9f-4ad7-8ec6-3359984a44d5"},"vehicle_type_id":"4","last_reported":1751483283,"current_range_meters":0,"station_id":"ce4bgt12rcd13ifvqce0","pricing_plan_id":"cebpf4jnsgd1na2vs0mg"},{"bike_id":"8eb79530-d74c-4acd-a5a3-89d63e21fe12","system_id":"levelo_inurba_marseille","lat":43.28339,"lon":5.38093,"is_reserved":false,"is_disabled":true,"rental_uris":{"android":"levelo://app?vid=8eb79530-d74c-4acd-a5a3-89d63e21fe12","ios":"levelo://app?vid=8eb79530-d74c-4acd-a5a3-89d63e21fe12"},"vehicle_type_id":"4","last_reported":1751483283,"current_range_meters":0,"station_id":"ce4bh412rcd13ifvqdr0","pricing_plan_id":"cebpf4jnsgd1na2vs0mg"},{"bike_id":"334b5f33-8a3d-4eb7-8c7d-21bc1a0f9fb5","system_id":"levelo_inurba_marseille","lat":43.29228,"lon":5.36062,"is_reserved":false,"is_disabled":true,"rental_uris":{"android":"levelo://app?vid=334b5f33-8a3d-4eb7-8c7d-21bc1a0f9fb5","ios":"levelo://app?vid=334b5f33-8a3d-4eb7-8c7d-21bc1a0f9fb5"},"vehicle_type_id":"4","last_reported":1751483283,"current_range_meters":0,"station_id":"ce4bhbh2rcd13ifvqeqg","pricing_plan_id":"cebpf4jnsgd1na2vs0mg"},{"bike_id":"b461d510-ea90-47d0-a5dc-4dc822e8b37c","system_id":"levelo_inurba_marseille","lat":43.24172,"lon":5.39699,"is_reserved":false,"is_disabled":true,"rental_uris":{"android":"levelo://app?vid=b461d510-ea90-47d0-a5dc-4dc822e8b37c","ios":"levelo://app?vid=b461d510-ea90-47d0-a5dc-4dc822e8b37c"},"vehicle_type_id":"4","last_reported":1751483283,"current_range_meters":0,"station_id":"ce4bhn12rcd13ifvqgpg","pricing_plan_id":"cebpf4jnsgd1na2vs0mg"},{"bike_id":"19e780ee-4189-4c0d-b3e5-378b3e35108f","system_id":"levelo_inurba_marseille","lat":43.27809,"lon":5.40706,"is_reserved":false,"is_disabled":true,"rental_uris":{"android":"levelo://app?vid=19e780ee-4189-4c0d-b3e5-378b3e35108f","ios":"levelo://app?vid=19e780ee-4189-4c0d-b3e5-378b3e35108f"},"vehicle_type_id":"4","last_reported":1751483283,"current_range_meters":0,"station_id":"ce4bhnh2rcd13ifvqgtg","pricing_plan_id":"cebpf4jnsgd1na2vs0mg"},{"bike_id":"be4771a0-f822-40f0-a95c-2aaca1d3fb3c","system_id":"levelo_inurba_marseille","lat":43.217556,"lon":5.346016,"is_reserved":false,"is_disabled":true,"rental_uris":{"android":"levelo://app?vid=be4771a0-f822-40f0-a95c-2aaca1d3fb3c","ios":"levelo://app?vid=be4771a0-f822-40f0-a95c-2aaca1d3fb3c"},"vehicle_type_id":"4","last_reported":1751483283,"current_range_meters":0,"station_id":"st_cvj6r9ubvosntc0bgbag","pricing_plan_id":"cebpf4jnsgd1na2vs0mg"},{"bike_id":"ade5f610-b1b9-4e19-8a8c-a81731ac6cec","system_id":"levelo_inurba_marseille","lat":43.29782,"lon":5.3935,"is_reserved":false,"is_disabled":true,"rental_uris":{"android":"levelo://app?vid=ade5f610-b1b9-4e19-8a8c-a81731ac6cec","ios":"levelo://app?vid=ade5f610-b1b9-4e19-8a8c-a81731ac6cec"},"vehicle_type_id":"4","last_reported":1751483283,"current_range_meters":400,"station_id":"chh1huq6cuj3fo74tm60","pricing_plan_id":"cebpf4jnsgd1na2vs0mg"},{"bike_id":"6e5b5a4d-1ee5-4068-9613-fb44ab4d8a9a","system_id":"levelo_inurba_marseille","lat":43.34873,"lon":5.34691,"is_reserved":false,"is_disabled":true,"rental_uris":{"android":"levelo://app?vid=6e5b5a4d-1ee5-4068-9613-fb44ab4d8a9a","ios":"levelo://app?vid=6e5b5a4d-1ee5-4068-9613-fb44ab4d8a9a"},"vehicle_type_id":"4","last_reported":1751483283,"current_range_meters":800,"station_id":"","pricing_plan_id":"cebpf4jnsgd1na2vs0mg"},{"bike_id":"71a630b6-91c1-4f9c-a554-6477fa26b9d3","system_id":"levelo_inurba_marseille","lat":43.32363,"lon":5.38873,"is_reserved":false,"is_disabled":true,"rental_uris":{"android":"levelo://app?vid=71a630b6-91c1-4f9c-a554-6477fa26b9d3","ios":"levelo://app?vid=71a630b6-91c1-4f9c-a554-6477fa26b9d3"},"vehicle_type_id":"4","last_reported":1751483283,"current_range_meters":1600,"station_id":"ce4bhqp2rcd13ifvqhog","pricing_plan_id":"cebpf4jnsgd1na2vs0mg"},{"bike_id":"ea3b5b95-43f1-4bea-92d4-8cabcf459837","system_id":"levelo_inurba_marseille","lat":43.301392,"lon":5.387794,"is_reserved":false,"is_disabled":true,"rental_uris":{"android":"levelo://app?vid=ea3b5b95-43f1-4bea-92d4-8cabcf459837","ios":"levelo://app?vid=ea3b5b95-43f1-4bea-92d4-8cabcf459837"},"vehicle_type_id":"4","last_reported":1751483283,"current_range_meters":2000,"station_id":"ce4bghh2rcd13ifvqb60","pricing_plan_id":"cebpf4jnsgd1na2vs0mg"},{"bike_id":"3106a021-1437-42b5-9a86-eab15600462c","system_id":"levelo_inurba_marseille","lat":43.255,"lon":5.37649,"is_reserved":false,"is_disabled":true,"rental_uris":{"android":"levelo://app?vid=3106a021-1437-42b5-9a86-eab15600462c","ios":"levelo://app?vid=3106a021-1437-42b5-9a86-eab15600462c"},"vehicle_type_id":"4","last_reported":1751483283,"current_range_meters":2000,"station_id":"ce4bhh12rcd13ifvqff0","pricing_plan_id":"cebpf4jnsgd1na2vs0mg"},{"bike_id":"5293089d-82a0-4fcb-b687-6d274807de3e","system_id":"levelo_inurba_marseille","lat":43.23198,"lon":5.35542,"is_reserved":false,"is_disabled":true,"rental_uris":{"android":"levelo://app?vid=5293089d-82a0-4fcb-b687-6d274807de3e","ios":"levelo://app?vid=5293089d-82a0-4fcb-b687-6d274807de3e"},"vehicle_type_id":"4","last_reported":1751483283,"current_range_meters":2000,"station_id":"ce4bhu92rcd13ifvqi70","pricing_plan_id":"cebpf4jnsgd1na2vs0mg"},{"bike_id":"1bf6f0fc-44a0-452f-aa52-1865ef6f528c","system_id":"levelo_inurba_marseille","lat":43.23195,"lon":5.35553,"is_reserved":false,"is_disabled":false,"rental_uris":{"android":"levelo://app?vid=1bf6f0fc-44a0-452f-aa52-1865ef6f528c","ios":"levelo://app?vid=1bf6f0fc-44a0-452f-aa52-1865ef6f528c"},"vehicle_type_id":"4","last_reported":1751483283,"current_range_meters":2800,"station_id":"ce4bhu92rcd13ifvqi70","pricing_plan_id":"cebpf4jnsgd1na2vs0mg"},{"bike_id":"40e8316d-5654-42b8-9144-6b433777ad9f","system_id":"levelo_inurba_marseille","lat":43.29375,"lon":5.37845,"is_reserved":false,"is_disabled":false,"rental_uris":{"android":"levelo://app?vid=40e8316d-5654-42b8-9144-6b433777ad9f","ios":"levelo://app?vid=40e8316d-5654-42b8-9144-6b433777ad9f"},"vehicle_type_id":"4","last_reported":1751483283,"current_range_meters":3200,"station_id":"ce4bgjh2rcd13ifvqbf0","pricing_plan_id":"cebpf4jnsgd1na2vs0mg"},{"bike_id":"5b018267-123d-44f7-b029-6cfe54cf269c","system_id":"levelo_inurba_marseille","lat":43.290039,"lon":5.356165,"is_reserved":false,"is_disabled":false,"rental_uris":{"android":"levelo://app?vid=5b018267-123d-44f7-b029-6cfe54cf269c","ios":"levelo://app?vid=5b018267-123d-44f7-b029-6cfe54cf269c"},"vehicle_type_id":"4","last_reported":1751483283,"current_range_meters":3200,"station_id":"ce4bhb92rcd13ifvqen0","pricing_plan_id":"cebpf4jnsgd1na2vs0mg"},{"bike_id":"b61b3731-f27d-44bb-9523-99cf42afd8a2","system_id":"levelo_inurba_marseille","lat":43.24163,"lon":5.364057,"is_reserved":false,"is_disabled":false,"rental_uris":{"android":"levelo://app?vid=b61b3731-f27d-44bb-9523-99cf42afd8a2","ios":"levelo://app?vid=b61b3731-f27d-44bb-9523-99cf42afd8a2"},"vehicle_type_id":"4","last_reported":1751483283,"current_range_meters":3200,"station_id":"cpo36qri1sfpv3e86is0","pricing_plan_id":"cebpf4jnsgd1na2vs0mg"},{"bike_id":"96079538-1c21-43af-abe5-097ade7d18c9","system_id":"levelo_inurba_marseille","lat":43.2417,"lon":5.36392,"is_reserved":false,"is_disabled":false,"rental_uris":{"android":"levelo://app?vid=96079538-1c21-43af-abe5-097ade7d18c9","ios":"levelo://app?vid=96079538-1c21-43af-abe5-097ade7d18c9"},"vehicle_type_id":"4","last_reported":1751483283,"current_range_meters":3200,"station_id":"cpo36qri1sfpv3e86is0","pricing_plan_id":"cebpf4jnsgd1na2vs0mg"},{"bike_id":"27067321-28f8-41cd-b5ee-d1b06c146bef","system_id":"levelo_inurba_marseille","lat":43.29752,"lon":5.37714,"is_reserved":false,"is_disabled":false,"rental_uris":{"android":"levelo://app?vid=27067321-28f8-41cd-b5ee-d1b06c146bef","ios":"levelo://app?vid=27067321-28f8-41cd-b5ee-d1b06c146bef"},"vehicle_type_id":"4","last_reported":1751483283,"current_range_meters":3600,"station_id":"","pricing_plan_id":"cebpf4jnsgd1na2vs0mg"},{"bike_id":"8e365e3c-559a-4ba6-a6c5-4c159e2434fc","system_id":"levelo_inurba_marseille","lat":43.21749,"lon":5.3461,"is_reserved":false,"is_disabled":false,"rental_uris":{"android":"levelo://app?vid=8e365e3c-559a-4ba6-a6c5-4c159e2434fc","ios":"levelo://app?vid=8e365e3c-559a-4ba6-a6c5-4c159e2434fc"},"vehicle_type_id":"4","last_reported":1751483283,"current_range_meters":3600,"station_id":"","pricing_plan_id":"cebpf4jnsgd1na2vs0mg"},{"bike_id":"bdf1b613-8a6c-4844-aec5-9a1d8be68da5","system_id":"levelo_inurba_marseille","lat":43.30145,"lon":5.38075,"is_reserved":false,"is_disabled":false,"rental_uris":{"android":"levelo://app?vid=bdf1b613-8a6c-4844-aec5-9a1d8be68da5","ios":"levelo://app?vid=bdf1b613-8a6c-4844-aec5-9a1d8be68da5"},"vehicle_type_id":"4","last_reported":1751483283,"current_range_meters":3600,"station_id":"ce4bgjp2rcd13ifvqbh0","pricing_plan_id":"cebpf4jnsgd1na2vs0mg"},{"bike_id":"6a3dd2d5-3809-4ac5-a3f4-e6c1fa3cdc2f","system_id":"levelo_inurba_marseille","lat":43.25499,"lon":5.3765,"is_reserved":false,"is_disabled":false,"rental_uris":{"android":"levelo://app?vid=6a3dd2d5-3809-4ac5-a3f4-e6c1fa3cdc2f","ios":"levelo://app?vid=6a3dd2d5-3809-4ac5-a3f4-e6c1fa3cdc2f"},"vehicle_type_id":"4","last_reported":1751483283,"current_range_meters":3600,"station_id":"ce4bhh12rcd13ifvqff0","pricing_plan_id":"cebpf4jnsgd1na2vs0mg"},{"bike_id":"6b02e04b-74e9-438e-9297-fa5b2710f9b3","system_id":"levelo_inurba_marseille","lat":43.27829,"lon":5.392037,"is_reserved":false,"is_disabled":false,"rental_uris":{"android":"levelo://app?vid=6b02e04b-74e9-438e-9297-fa5b2710f9b3","ios":"levelo://app?vid=6b02e04b-74e9-438e-9297-fa5b2710f9b3"},"vehicle_type_id":"4","last_reported":1751483283,"current_range_meters":3600,"station_id":"ce4bhjp2rcd13ifvqga0","pricing_plan_id":"cebpf4jnsgd1na2vs0mg"},{"bike_id":"59d94205-41c7-423c-9b6a-31c0c433311d","system_id":"levelo_inurba_marseille","lat":43.27835,"lon":5.39209,"is_reserved":false,"is_disabled":false,"rental_uris":{"android":"levelo://app?vid=59d94205-41c7-423c-9b6a-31c0c433311d","ios":"levelo://app?vid=59d94205-41c7-423c-9b6a-31c0c433311d"},"vehicle_type_id":"4","last_reported":1751483283,"current_range_meters":3600,"station_id":"ce4bhjp2rcd13ifvqga0","pricing_plan_id":"cebpf4jnsgd1na2vs0mg"},{"bike_id":"8252b44a-d048-4379-9209-2efa2e627825","system_id":"levelo_inurba_marseille","lat":43.292477,"lon":5.405687,"is_reserved":false,"is_disabled":false,"rental_uris":{"android":"levelo://app?vid=8252b44a-d048-4379-9209-2efa2e627825","ios":"levelo://app?vid=8252b44a-d048-4379-9209-2efa2e627825"},"vehicle_type_id":"4","last_reported":1751483283,"current_range_meters":4000,"station_id":"","pricing_plan_id":"cebpf4jnsgd1na2vs0mg"},{"bike_id":"7c554fbb-e09c-4fb2-a82b-895f244b026a","system_id":"levelo_inurba_marseille","lat":43.27379,"lon":5.36255,"is_reserved":false,"is_disabled":false,"rental_uris":{"android":"levelo://app?vid=7c554fbb-e09c-4fb2-a82b-895f244b026a","ios":"levelo://app?vid=7c554fbb-e09c-4fb2-a82b-895f244b026a"},"vehicle_type_id":"4","last_reported":1751483283,"current_range_meters":4000,"station_id":"ce4bhbh2rcd13ifvqeo0","pricing_plan_id":"cebpf4jnsgd1na2vs0mg"},{"bike_id":"10be7a19-7bb3-4be8-8e03-f074498ccbe9","system_id":"levelo_inurba_marseille","lat":43.217505,"lon":5.346008,"is_reserved":false,"is_disabled":false,"rental_uris":{"android":"levelo://app?vid=10be7a19-7bb3-4be8-8e03-f074498ccbe9","ios":"levelo://app?vid=10be7a19-7bb3-4be8-8e03-f074498ccbe9"},"vehicle_type_id":"4","last_reported":1751483283,"current_range_meters":4000,"station_id":"st_cvj6r9ubvosntc0bgbag","pricing_plan_id":"cebpf4jnsgd1na2vs0mg"},{"bike_id":"99db5fb6-5064-4c69-a119-dbb05939087a","system_id":"levelo_inurba_marseille","lat":43.28446,"lon":5.39206,"is_reserved":false,"is_disabled":false,"rental_uris":{"android":"levelo://app?vid=99db5fb6-5064-4c69-a119-dbb05939087a","ios":"levelo://app?vid=99db5fb6-5064-4c69-a119-dbb05939087a"},"vehicle_type_id":"4","last_reported":1751483283,"current_range_meters":4400,"station_id":"ce4bhoh2rcd13ifvqh5g","pricing_plan_id":"cebpf4jnsgd1na2vs0mg"},{"bike_id":"c95e9afa-1a5d-49a9-abd3-e3fa50a58b19","system_id":"levelo_inurba_marseille","lat":43.30913,"lon":5.36854,"is_reserved":false,"is_disabled":false,"rental_uris":{"android":"levelo://app?vid=c95e9afa-1a5d-49a9-abd3-e3fa50a58b19","ios":"levelo://app?vid=c95e9afa-1a5d-49a9-abd3-e3fa50a58b19"},"vehicle_type_id":"4","last_reported":1751483283,"current_range_meters":4800,"station_id":"ce4bgn92rcd13ifvqbvg","pricing_plan_id":"cebpf4jnsgd1na2vs0mg"},{"bike_id":"265b6975-b0d3-4746-abc8-0d2cc3cc0920","system_id":"levelo_inurba_marseille","lat":43.30135,"lon":5.398797,"is_reserved":false,"is_disabled":false,"rental_uris":{"android":"levelo://app?vid=265b6975-b0d3-4746-abc8-0d2cc3cc0920","ios":"levelo://app?vid=265b6975-b0d3-4746-abc8-0d2cc3cc0920"},"vehicle_type_id":"4","last_reported":1751483283,"current_range_meters":4800,"station_id":"ce4bh0h2rcd13ifvqd40","pricing_plan_id":"cebpf4jnsgd1na2vs0mg"},{"bike_id":"c85bd5b4-3783-41ee-94eb-ee23c0d46512","system_id":"levelo_inurba_marseille","lat":43.29038,"lon":5.3996,"is_reserved":false,"is_disabled":false,"rental_uris":{"android":"levelo://app?vid=c85bd5b4-3783-41ee-94eb-ee23c0d46512","ios":"levelo://app?vid=c85bd5b4-3783-41ee-94eb-ee23c0d46512"},"vehicle_type_id":"4","last_reported":1751483283,"current_range_meters":5600,"station_id":"ce4bh392rcd13ifvqdm0","pricing_plan_id":"cebpf4jnsgd1na2vs0mg"},{"bike_id":"c5fdf328-6c03-4541-b30e-9dee1a80bce1","system_id":"levelo_inurba_marseille","lat":43.255013,"lon":5.376534,"is_reserved":false,"is_disabled":false,"rental_uris":{"android":"levelo://app?vid=c5fdf328-6c03-4541-b30e-9dee1a80bce1","ios":"levelo://app?vid=c5fdf328-6c03-4541-b30e-9dee1a80bce1"},"vehicle_type_id":"4","last_reported":1751483283,"current_range_meters":5600,"station_id":"ce4bhh12rcd13ifvqff0","pricing_plan_id":"cebpf4jnsgd1na2vs0mg"},{"bike_id":"7de7c2c8-df6b-43fa-b263-6c016dae4134","system_id":"levelo_inurba_marseille","lat":43.27754,"lon":5.41527,"is_reserved":false,"is_disabled":false,"rental_uris":{"android":"levelo://app?vid=7de7c2c8-df6b-43fa-b263-6c016dae4134","ios":"levelo://app?vid=7de7c2c8-df6b-43fa-b263-6c016dae4134"},"vehicle_type_id":"4","last_reported":1751483283,"current_range_meters":6000,"station_id":"","pricing_plan_id":"cebpf4jnsgd1na2vs0mg"},{"bike_id":"b0c0f932-29bf-4c7d-be66-6ac63e0f4871","system_id":"levelo_inurba_marseille","lat":43.257263,"lon":5.375637,"is_reserved":false,"is_disabled":false,"rental_uris":{"android":"levelo://app?vid=b0c0f932-29bf-4c7d-be66-6ac63e0f4871","ios":"levelo://app?vid=b0c0f932-29bf-4c7d-be66-6ac63e0f4871"},"vehicle_type_id":"4","last_reported":1751483283,"current_range_meters":6000,"station_id":"ce4bhm12rcd13ifvqgkg","pricing_plan_id":"cebpf4jnsgd1na2vs0mg"},{"bike_id":"24f96eff-7717-4740-bbec-648d96582a9d","system_id":"levelo_inurba_marseille","lat":43.308892,"lon":5.371897,"is_reserved":false,"is_disabled":false,"rental_uris":{"android":"levelo://app?vid=24f96eff-7717-4740-bbec-648d96582a9d","ios":"levelo://app?vid=24f96eff-7717-4740-bbec-648d96582a9d"},"vehicle_type_id":"4","last_reported":1751483283,"current_range_meters":6400,"station_id":"ce4bguh2rcd13ifvqckg","pricing_plan_id":"cebpf4jnsgd1na2vs0mg"},{"bike_id":"ad2d91ed-f0cd-44bf-ad54-0d77f7a7c7b4","system_id":"levelo_inurba_marseille","lat":43.26226,"lon":5.40458,"is_reserved":false,"is_disabled":false,"rental_uris":{"android":"levelo://app?vid=ad2d91ed-f0cd-44bf-ad54-0d77f7a7c7b4","ios":"levelo://app?vid=ad2d91ed-f0cd-44bf-ad54-0d77f7a7c7b4"},"vehicle_type_id":"4","last_reported":1751483283,"current_range_meters":6400,"station_id":"ce4bhmh2rcd13ifvqgmg","pricing_plan_id":"cebpf4jnsgd1na2vs0mg"},{"bike_id":"378ab8d6-ce1c-434d-b9e2-c2ce71cfbf89","system_id":"levelo_inurba_marseille","lat":43.29679,"lon":5.37283,"is_reserved":false,"is_disabled":false,"rental_uris":{"android":"levelo://app?vid=378ab8d6-ce1c-434d-b9e2-c2ce71cfbf89","ios":"levelo://app?vid=378ab8d6-ce1c-434d-b9e2-c2ce71cfbf89"},"vehicle_type_id":"4","last_reported":1751483283,"current_range_meters":6800,"station_id":"ce4bgk12rcd13ifvqbj0","pricing_plan_id":"cebpf4jnsgd1na2vs0mg"},{"bike_id":"eaa10a02-5ff1-4cf1-92bd-b2f04771d3cc","system_id":"levelo_inurba_marseille","lat":43.29599,"lon":5.381,"is_reserved":false,"is_disabled":false,"rental_uris":{"android":"levelo://app?vid=eaa10a02-5ff1-4cf1-92bd-b2f04771d3cc","ios":"levelo://app?vid=eaa10a02-5ff1-4cf1-92bd-b2f04771d3cc"},"vehicle_type_id":"4","last_reported":1751483283,"current_range_meters":6800,"station_id":"ce4bgl12rcd13ifvqbo0","pricing_plan_id":"cebpf4jnsgd1na2vs0mg"},{"bike_id":"e0277359-6d0e-49ab-ab0f-4f628b5d3230","system_id":"levelo_inurba_marseille","lat":43.30782,"lon":5.37647,"is_reserved":false,"is_disabled":false,"rental_uris":{"android":"levelo://app?vid=e0277359-6d0e-49ab-ab0f-4f628b5d3230","ios":"levelo://app?vid=e0277359-6d0e-49ab-ab0f-4f628b5d3230"},"vehicle_type_id":"4","last_reported":1751483283,"current_range_meters":6800,"station_id":"ce4bgv92rcd13ifvqcq0","pricing_plan_id":"cebpf4jnsgd1na2vs0mg"},{"bike_id":"c2b72fe0-bae6-4c7b-ad48-9e771b203dc8","system_id":"levelo_inurba_marseille","lat":43.31352,"lon":5.384771,"is_reserved":false,"is_disabled":false,"rental_uris":{"android":"levelo://app?vid=c2b72fe0-bae6-4c7b-ad48-9e771b203dc8","ios":"levelo://app?vid=c2b72fe0-bae6-4c7b-ad48-9e771b203dc8"},"vehicle_type_id":"4","last_reported":1751483283,"current_range_meters":7200,"station_id":"ce4bgt92rcd13ifvqcf0","pricing_plan_id":"cebpf4jnsgd1na2vs0mg"},{"bike_id":"cb7bdf61-a690-473c-939e-8b1fb2bc0e03","system_id":"levelo_inurba_marseille","lat":43.2412,"lon":5.36372,"is_reserved":false,"is_disabled":false,"rental_uris":{"android":"levelo://app?vid=cb7bdf61-a690-473c-939e-8b1fb2bc0e03","ios":"levelo://app?vid=cb7bdf61-a690-473c-939e-8b1fb2bc0e03"},"vehicle_type_id":"4","last_reported":1751483283,"current_range_meters":8000,"station_id":"","pricing_plan_id":"cebpf4jnsgd1na2vs0mg"},{"bike_id":"fe2d8bd8-b276-4d8e-bc64-a6185c098010","system_id":"levelo_inurba_marseille","lat":43.28685,"lon":5.38653,"is_reserved":false,"is_disabled":false,"rental_uris":{"android":"levelo://app?vid=fe2d8bd8-b276-4d8e-bc64-a6185c098010","ios":"levelo://app?vid=fe2d8bd8-b276-4d8e-bc64-a6185c098010"},"vehicle_type_id":"4","last_reported":1751483283,"current_range_meters":8000,"station_id":"ce4bh492rcd13ifvqdug","pricing_plan_id":"cebpf4jnsgd1na2vs0mg"},{"bike_id":"8283da09-defb-4aa6-bb04-014df55df600","system_id":"levelo_inurba_marseille","lat":43.27976,"lon":5.38733,"is_reserved":false,"is_disabled":false,"rental_uris":{"android":"levelo://app?vid=8283da09-defb-4aa6-bb04-014df55df600","ios":"levelo://app?vid=8283da09-defb-4aa6-bb04-014df55df600"},"vehicle_type_id":"4","last_reported":1751483283,"current_range_meters":8000,"station_id":"ce4bhg12rcd13ifvqf80","pricing_plan_id":"cebpf4jnsgd1na2vs0mg"},{"bike_id":"030dd903-6713-4121-8339-17ece3d5a58e","system_id":"levelo_inurba_marseille","lat":43.21194,"lon":5.35074,"is_reserved":false,"is_disabled":false,"rental_uris":{"android":"levelo://app?vid=030dd903-6713-4121-8339-17ece3d5a58e","ios":"levelo://app?vid=030dd903-6713-4121-8339-17ece3d5a58e"},"vehicle_type_id":"4","last_reported":1751483283,"current_range_meters":8000,"station_id":"st_cvj6sg6p6f1abm77japg","pricing_plan_id":"cebpf4jnsgd1na2vs0mg"},{"bike_id":"e973e172-7dd6-4ae7-845d-1ac7070f54b1","system_id":"levelo_inurba_marseille","lat":43.2844,"lon":5.39197,"is_reserved":false,"is_disabled":false,"rental_uris":{"android":"levelo://app?vid=e973e172-7dd6-4ae7-845d-1ac7070f54b1","ios":"levelo://app?vid=e973e172-7dd6-4ae7-845d-1ac7070f54b1"},"vehicle_type_id":"4","last_reported":1751483283,"current_range_meters":8400,"station_id":"ce4bhoh2rcd13ifvqh5g","pricing_plan_id":"cebpf4jnsgd1na2vs0mg"},{"bike_id":"9610e57b-e24c-4c16-838c-092b893b30dc","system_id":"levelo_inurba_marseille","lat":43.2175,"lon":5.34598,"is_reserved":false,"is_disabled":false,"rental_uris":{"android":"levelo://app?vid=9610e57b-e24c-4c16-838c-092b893b30dc","ios":"levelo://app?vid=9610e57b-e24c-4c16-838c-092b893b30dc"},"vehicle_type_id":"4","last_reported":1751483283,"current_range_meters":8400,"station_id":"st_cvj6r9ubvosntc0bgbag","pricing_plan_id":"cebpf4jnsgd1na2vs0mg"},{"bike_id":"873b6a8f-99cd-405d-b432-0bbd8709eb8c","system_id":"levelo_inurba_marseille","lat":43.306548,"lon":5.401088,"is_reserved":false,"is_disabled":false,"rental_uris":{"android":"levelo://app?vid=873b6a8f-99cd-405d-b432-0bbd8709eb8c","ios":"levelo://app?vid=873b6a8f-99cd-405d-b432-0bbd8709eb8c"},"vehicle_type_id":"4","last_reported":1751483283,"current_range_meters":8800,"station_id":"ce4bh112rcd13ifvqda0","pricing_plan_id":"cebpf4jnsgd1na2vs0mg"},{"bike_id":"f46526ee-c3c8-46f8-bdff-f429ed99881c","system_id":"levelo_inurba_marseille","lat":43.26565,"lon":5.39003,"is_reserved":false,"is_disabled":false,"rental_uris":{"android":"levelo://app?vid=f46526ee-c3c8-46f8-bdff-f429ed99881c","ios":"levelo://app?vid=f46526ee-c3c8-46f8-bdff-f429ed99881c"},"vehicle_type_id":"4","last_reported":1751483283,"current_range_meters":8800,"station_id":"ce4bhe12rcd13ifvqf30","pricing_plan_id":"cebpf4jnsgd1na2vs0mg"},{"bike_id":"7f0bf95f-c200-417a-bfc9-0a731b055091","system_id":"levelo_inurba_marseille","lat":43.32362,"lon":5.38872,"is_reserved":false,"is_disabled":false,"rental_uris":{"android":"levelo://app?vid=7f0bf95f-c200-417a-bfc9-0a731b055091","ios":"levelo://app?vid=7f0bf95f-c200-417a-bfc9-0a731b055091"},"vehicle_type_id":"4","last_reported":1751483283,"current_range_meters":9200,"station_id":"ce4bhqp2rcd13ifvqhog","pricing_plan_id":"cebpf4jnsgd1na2vs0mg"},{"bike_id":"70f856ab-2c64-4f89-8162-9096b8316b9f","system_id":"levelo_inurba_marseille","lat":43.24168,"lon":5.36393,"is_reserved":false,"is_disabled":false,"rental_uris":{"android":"levelo://app?vid=70f856ab-2c64-4f89-8162-9096b8316b9f","ios":"levelo://app?vid=70f856ab-2c64-4f89-8162-9096b8316b9f"},"vehicle_type_id":"4","last_reported":1751483283,"current_range_meters":9200,"station_id":"cpo36qri1sfpv3e86is0","pricing_plan_id":"cebpf4jnsgd1na2vs0mg"},{"bike_id":"c61036a9-1a66-4480-8bd4-cd2fb585b287","system_id":"levelo_inurba_marseille","lat":43.2702,"lon":5.40606,"is_reserved":false,"is_disabled":false,"rental_uris":{"android":"levelo://app?vid=c61036a9-1a66-4480-8bd4-cd2fb585b287","ios":"levelo://app?vid=c61036a9-1a66-4480-8bd4-cd2fb585b287"},"vehicle_type_id":"4","last_reported":1751483283,"current_range_meters":9600,"station_id":"","pricing_plan_id":"cebpf4jnsgd1na2vs0mg"},{"bike_id":"58dffcea-c54b-48ff-afd0-ee4a472fee41","system_id":"levelo_inurba_marseille","lat":43.29005,"lon":5.3561,"is_reserved":false,"is_disabled":false,"rental_uris":{"android":"levelo://app?vid=58dffcea-c54b-48ff-afd0-ee4a472fee41","ios":"levelo://app?vid=58dffcea-c54b-48ff-afd0-ee4a472fee41"},"vehicle_type_id":"4","last_reported":1751483283,"current_range_meters":9600,"station_id":"","pricing_plan_id":"cebpf4jnsgd1na2vs0mg"},{"bike_id":"79b020e6-28c6-4a98-969c-faa572c6e233","system_id":"levelo_inurba_marseille","lat":43.2416,"lon":5.36386,"is_reserved":false,"is_disabled":false,"rental_uris":{"android":"levelo://app?vid=79b020e6-28c6-4a98-969c-faa572c6e233","ios":"levelo://app?vid=79b020e6-28c6-4a98-969c-faa572c6e233"},"vehicle_type_id":"4","last_reported":1751483283,"current_range_meters":9600,"station_id":"cpo36qri1sfpv3e86is0","pricing_plan_id":"cebpf4jnsgd1na2vs0mg"},{"bike_id":"09722138-5d30-4643-a224-69bde8e82fb1","system_id":"levelo_inurba_marseille","lat":43.29527,"lon":5.38551,"is_reserved":false,"is_disabled":false,"rental_uris":{"android":"levelo://app?vid=09722138-5d30-4643-a224-69bde8e82fb1","ios":"levelo://app?vid=09722138-5d30-4643-a224-69bde8e82fb1"},"vehicle_type_id":"4","last_reported":1751483283,"current_range_meters":10000,"station_id":"ce4bgih2rcd13ifvqba0","pricing_plan_id":"cebpf4jnsgd1na2vs0mg"},{"bike_id":"4231414e-2618-45e2-8271-8fdb48d72e6b","system_id":"levelo_inurba_marseille","lat":43.30061,"lon":5.388,"is_reserved":false,"is_disabled":false,"rental_uris":{"android":"levelo://app?vid=4231414e-2618-45e2-8271-8fdb48d72e6b","ios":"levelo://app?vid=4231414e-2618-45e2-8271-8fdb48d72e6b"},"vehicle_type_id":"4","last_reported":1751483283,"current_range_meters":10000,"station_id":"ce4bh0p2rcd13ifvqd70","pricing_plan_id":"cebpf4jnsgd1na2vs0mg"},{"bike_id":"45561fbf-449f-4e60-92e1-d88608d11660","system_id":"levelo_inurba_marseille","lat":43.29194,"lon":5.39315,"is_reserved":false,"is_disabled":false,"rental_uris":{"android":"levelo://app?vid=45561fbf-449f-4e60-92e1-d88608d11660","ios":"levelo://app?vid=45561fbf-449f-4e60-92e1-d88608d11660"},"vehicle_type_id":"4","last_reported":1751483283,"current_range_meters":10000,"station_id":"ce4bh192rcd13ifvqdd0","pricing_plan_id":"cebpf4jnsgd1na2vs0mg"},{"bike_id":"866060ef-85cb-4809-9ff5-4426ac515ff0","system_id":"levelo_inurba_marseille","lat":43.28428,"lon":5.34995,"is_reserved":false,"is_disabled":false,"rental_uris":{"android":"levelo://app?vid=866060ef-85cb-4809-9ff5-4426ac515ff0","ios":"levelo://app?vid=866060ef-85cb-4809-9ff5-4426ac515ff0"},"vehicle_type_id":"4","last_reported":1751483283,"current_range_meters":10000,"station_id":"ce4bhbh2rcd13ifvqepg","pricing_plan_id":"cebpf4jnsgd1na2vs0mg"},{"bike_id":"7afe630d-27f6-445c-a6b1-286e15fa96a2","system_id":"levelo_inurba_marseille","lat":43.286278,"lon":5.351009,"is_reserved":false,"is_disabled":false,"rental_uris":{"android":"levelo://app?vid=7afe630d-27f6-445c-a6b1-286e15fa96a2","ios":"levelo://app?vid=7afe630d-27f6-445c-a6b1-286e15fa96a2"},"vehicle_type_id":"4","last_reported":1751483283,"current_range_meters":10000,"station_id":"ce4bhch2rcd13ifvqeug","pricing_plan_id":"cebpf4jnsgd1na2vs0mg"},{"bike_id":"b0d32ad1-6506-43be-892e-0bab9db745be","system_id":"levelo_inurba_marseille","lat":43.26033,"lon":5.37546,"is_reserved":false,"is_disabled":false,"rental_uris":{"android":"levelo://app?vid=b0d32ad1-6506-43be-892e-0bab9db745be","ios":"levelo://app?vid=b0d32ad1-6506-43be-892e-0bab9db745be"},"vehicle_type_id":"4","last_reported":1751483283,"current_range_meters":10000,"station_id":"ce4bhgh2rcd13ifvqfa0","pricing_plan_id":"cebpf4jnsgd1na2vs0mg"},{"bike_id":"e3a9ae49-4529-4ba3-bf11-9fbf4f653415","system_id":"levelo_inurba_marseille","lat":43.2293,"lon":5.35374,"is_reserved":false,"is_disabled":false,"rental_uris":{"android":"levelo://app?vid=e3a9ae49-4529-4ba3-bf11-9fbf4f653415","ios":"levelo://app?vid=e3a9ae49-4529-4ba3-bf11-9fbf4f653415"},"vehicle_type_id":"4","last_reported":1751483283,"current_range_meters":10000,"station_id":"cpo3532slgdg3j2ikp40","pricing_plan_id":"cebpf4jnsgd1na2vs0mg"},{"bike_id":"248ded86-b9d5-4fdc-ba75-93f45623e36e","system_id":"levelo_inurba_marseille","lat":43.24161,"lon":5.36408,"is_reserved":false,"is_disabled":false,"rental_uris":{"android":"levelo://app?vid=248ded86-b9d5-4fdc-ba75-93f45623e36e","ios":"levelo://app?vid=248ded86-b9d5-4fdc-ba75-93f45623e36e"},"vehicle_type_id":"4","last_reported":1751483283,"current_range_meters":10000,"station_id":"cpo36qri1sfpv3e86is0","pricing_plan_id":"cebpf4jnsgd1na2vs0mg"},{"bike_id":"8ad00ccc-3ccb-493b-a2b4-49cd4dd94c33","system_id":"levelo_inurba_marseille","lat":43.21775,"lon":5.34572,"is_reserved":false,"is_disabled":false,"rental_uris":{"android":"levelo://app?vid=8ad00ccc-3ccb-493b-a2b4-49cd4dd94c33","ios":"levelo://app?vid=8ad00ccc-3ccb-493b-a2b4-49cd4dd94c33"},"vehicle_type_id":"4","last_reported":1751483283,"current_range_meters":10000,"station_id":"st_cvj6r9ubvosntc0bgbag","pricing_plan_id":"cebpf4jnsgd1na2vs0mg"},{"bike_id":"88f0d88a-1dec-4977-a19a-71293da7fba4","system_id":"levelo_inurba_marseille","lat":43.323671,"lon":5.367739,"is_reserved":false,"is_disabled":false,"rental_uris":{"android":"levelo://app?vid=88f0d88a-1dec-4977-a19a-71293da7fba4","ios":"levelo://app?vid=88f0d88a-1dec-4977-a19a-71293da7fba4"},"vehicle_type_id":"4","last_reported":1751483283,"current_range_meters":10800,"station_id":"","pricing_plan_id":"cebpf4jnsgd1na2vs0mg"},{"bike_id":"c7a645e5-9f3c-4050-b957-df512492e2aa","system_id":"levelo_inurba_marseille","lat":43.29006,"lon":5.3561,"is_reserved":false,"is_disabled":false,"rental_uris":{"android":"levelo://app?vid=c7a645e5-9f3c-4050-b957-df512492e2aa","ios":"levelo://app?vid=c7a645e5-9f3c-4050-b957-df512492e2aa"},"vehicle_type_id":"4","last_reported":1751483283,"current_range_meters":10800,"station_id":"ce4bhb92rcd13ifvqen0","pricing_plan_id":"cebpf4jnsgd1na2vs0mg"},{"bike_id":"7162ef69-1564-49b0-bd4d-645d806c80fc","system_id":"levelo_inurba_marseille","lat":43.28625,"lon":5.35102,"is_reserved":false,"is_disabled":false,"rental_uris":{"android":"levelo://app?vid=7162ef69-1564-49b0-bd4d-645d806c80fc","ios":"levelo://app?vid=7162ef69-1564-49b0-bd4d-645d806c80fc"},"vehicle_type_id":"4","last_reported":1751483283,"current_range_meters":10800,"station_id":"ce4bhch2rcd13ifvqeug","pricing_plan_id":"cebpf4jnsgd1na2vs0mg"},{"bike_id":"e36eeb04-35cc-4a52-97d7-6ba58bfe555b","system_id":"levelo_inurba_marseille","lat":43.29551,"lon":5.42295,"is_reserved":false,"is_disabled":false,"rental_uris":{"android":"levelo://app?vid=e36eeb04-35cc-4a52-97d7-6ba58bfe555b","ios":"levelo://app?vid=e36eeb04-35cc-4a52-97d7-6ba58bfe555b"},"vehicle_type_id":"4","last_reported":1751483283,"current_range_meters":10800,"station_id":"ce4bhph2rcd13ifvqhdg","pricing_plan_id":"cebpf4jnsgd1na2vs0mg"},{"bike_id":"44992309-b1f8-4ca5-a941-5d8f62f22d53","system_id":"levelo_inurba_marseille","lat":43.33025,"lon":5.3904,"is_reserved":false,"is_disabled":false,"rental_uris":{"android":"levelo://app?vid=44992309-b1f8-4ca5-a941-5d8f62f22d53","ios":"levelo://app?vid=44992309-b1f8-4ca5-a941-5d8f62f22d53"},"vehicle_type_id":"4","last_reported":1751483283,"current_range_meters":11200,"station_id":"ce4bhr92rcd13ifvqhrg","pricing_plan_id":"cebpf4jnsgd1na2vs0mg"},{"bike_id":"ccec8fe7-1fbe-465e-8eb3-be2129b61314","system_id":"levelo_inurba_marseille","lat":43.231993,"lon":5.355576,"is_reserved":false,"is_disabled":false,"rental_uris":{"android":"levelo://app?vid=ccec8fe7-1fbe-465e-8eb3-be2129b61314","ios":"levelo://app?vid=ccec8fe7-1fbe-465e-8eb3-be2129b61314"},"vehicle_type_id":"4","last_reported":1751483283,"current_range_meters":11200,"station_id":"ce4bhu92rcd13ifvqi70","pricing_plan_id":"cebpf4jnsgd1na2vs0mg"},{"bike_id":"735b0fd2-1d3a-40d0-ab27-f3384c488e5d","system_id":"levelo_inurba_marseille","lat":43.292,"lon":5.35801,"is_reserved":false,"is_disabled":false,"rental_uris":{"android":"levelo://app?vid=735b0fd2-1d3a-40d0-ab27-f3384c488e5d","ios":"levelo://app?vid=735b0fd2-1d3a-40d0-ab27-f3384c488e5d"},"vehicle_type_id":"4","last_reported":1751483283,"current_range_meters":11600,"station_id":"ce4bhb12rcd13ifvqel0","pricing_plan_id":"cebpf4jnsgd1na2vs0mg"},{"bike_id":"ff5d153f-eb7c-4b24-8415-3f8813aa8920","system_id":"levelo_inurba_marseille","lat":43.28436,"lon":5.34972,"is_reserved":false,"is_disabled":false,"rental_uris":{"android":"levelo://app?vid=ff5d153f-eb7c-4b24-8415-3f8813aa8920","ios":"levelo://app?vid=ff5d153f-eb7c-4b24-8415-3f8813aa8920"},"vehicle_type_id":"4","last_reported":1751483283,"current_range_meters":11600,"station_id":"ce4bhbh2rcd13ifvqepg","pricing_plan_id":"cebpf4jnsgd1na2vs0mg"},{"bike_id":"69c588dc-9720-47bf-9ed2-5a3ba17ea04a","system_id":"levelo_inurba_marseille","lat":43.31337,"lon":5.3968,"is_reserved":false,"is_disabled":false,"rental_uris":{"android":"levelo://app?vid=69c588dc-9720-47bf-9ed2-5a3ba17ea04a","ios":"levelo://app?vid=69c588dc-9720-47bf-9ed2-5a3ba17ea04a"},"vehicle_type_id":"4","last_reported":1751483283,"current_range_meters":12000,"station_id":"ce4bgvp2rcd13ifvqcu0","pricing_plan_id":"cebpf4jnsgd1na2vs0mg"},{"bike_id":"c1b44335-2c20-4553-bd77-28e1455d1cb8","system_id":"levelo_inurba_marseille","lat":43.28611,"lon":5.35103,"is_reserved":false,"is_disabled":false,"rental_uris":{"android":"levelo://app?vid=c1b44335-2c20-4553-bd77-28e1455d1cb8","ios":"levelo://app?vid=c1b44335-2c20-4553-bd77-28e1455d1cb8"},"vehicle_type_id":"4","last_reported":1751483283,"current_range_meters":12000,"station_id":"ce4bhch2rcd13ifvqeug","pricing_plan_id":"cebpf4jnsgd1na2vs0mg"},{"bike_id":"c2cc3873-3136-4ba7-984d-6514f2a6bcc2","system_id":"levelo_inurba_marseille","lat":43.26692,"lon":5.3827,"is_reserved":false,"is_disabled":false,"rental_uris":{"android":"levelo://app?vid=c2cc3873-3136-4ba7-984d-6514f2a6bcc2","ios":"levelo://app?vid=c2cc3873-3136-4ba7-984d-6514f2a6bcc2"},"vehicle_type_id":"4","last_reported":1751483283,"current_range_meters":12000,"station_id":"ce4bhg92rcd13ifvqf90","pricing_plan_id":"cebpf4jnsgd1na2vs0mg"},{"bike_id":"edec8716-9870-4f0c-b692-fec41da07d80","system_id":"levelo_inurba_marseille","lat":43.30356,"lon":5.41878,"is_reserved":false,"is_disabled":false,"rental_uris":{"android":"levelo://app?vid=edec8716-9870-4f0c-b692-fec41da07d80","ios":"levelo://app?vid=edec8716-9870-4f0c-b692-fec41da07d80"},"vehicle_type_id":"4","last_reported":1751483283,"current_range_meters":12000,"station_id":"ce4bhop2rcd13ifvqh7g","pricing_plan_id":"cebpf4jnsgd1na2vs0mg"},{"bike_id":"b28aa0a0-791c-4a08-9a16-c7bf6ea0ed5a","system_id":"levelo_inurba_marseille","lat":43.22492,"lon":5.34777,"is_reserved":false,"is_disabled":false,"rental_uris":{"android":"levelo://app?vid=b28aa0a0-791c-4a08-9a16-c7bf6ea0ed5a","ios":"levelo://app?vid=b28aa0a0-791c-4a08-9a16-c7bf6ea0ed5a"},"vehicle_type_id":"4","last_reported":1751483283,"current_range_meters":12000,"station_id":"st_cvj5dfep6f1abm77gieg","pricing_plan_id":"cebpf4jnsgd1na2vs0mg"},{"bike_id":"d16b9dec-c438-4000-91c8-6cda5b0545dc","system_id":"levelo_inurba_marseille","lat":43.24895,"lon":5.37512,"is_reserved":false,"is_disabled":false,"rental_uris":{"android":"levelo://app?vid=d16b9dec-c438-4000-91c8-6cda5b0545dc","ios":"levelo://app?vid=d16b9dec-c438-4000-91c8-6cda5b0545dc"},"vehicle_type_id":"4","last_reported":1751483283,"current_range_meters":12400,"station_id":"","pricing_plan_id":"cebpf4jnsgd1na2vs0mg"},{"bike_id":"f00e3044-9bd1-48b5-b342-151af21b34fa","system_id":"levelo_inurba_marseille","lat":43.29985,"lon":5.37434,"is_reserved":false,"is_disabled":false,"rental_uris":{"android":"levelo://app?vid=f00e3044-9bd1-48b5-b342-151af21b34fa","ios":"levelo://app?vid=f00e3044-9bd1-48b5-b342-151af21b34fa"},"vehicle_type_id":"4","last_reported":1751483283,"current_range_meters":12400,"station_id":"","pricing_plan_id":"cebpf4jnsgd1na2vs0mg"},{"bike_id":"06bb1293-77e2-44a3-9e10-1607407328dc","system_id":"levelo_inurba_marseille","lat":43.284324,"lon":5.349818,"is_reserved":false,"is_disabled":false,"rental_uris":{"android":"levelo://app?vid=06bb1293-77e2-44a3-9e10-1607407328dc","ios":"levelo://app?vid=06bb1293-77e2-44a3-9e10-1607407328dc"},"vehicle_type_id":"4","last_reported":1751483283,"current_range_meters":12400,"station_id":"ce4bhbh2rcd13ifvqepg","pricing_plan_id":"cebpf4jnsgd1na2vs0mg"},{"bike_id":"53f9d2f3-fb46-4821-97ed-ca725d9765ac","system_id":"levelo_inurba_marseille","lat":43.28262,"lon":5.35055,"is_reserved":false,"is_disabled":false,"rental_uris":{"android":"levelo://app?vid=53f9d2f3-fb46-4821-97ed-ca725d9765ac","ios":"levelo://app?vid=53f9d2f3-fb46-4821-97ed-ca725d9765ac"},"vehicle_type_id":"4","last_reported":1751483283,"current_range_meters":12400,"station_id":"ce4bhbp2rcd13ifvqerg","pricing_plan_id":"cebpf4jnsgd1na2vs0mg"},{"bike_id":"bf00a211-3496-4df0-8e4e-99767047ca09","system_id":"levelo_inurba_marseille","lat":43.29983,"lon":5.37594,"is_reserved":false,"is_disabled":false,"rental_uris":{"android":"levelo://app?vid=bf00a211-3496-4df0-8e4e-99767047ca09","ios":"levelo://app?vid=bf00a211-3496-4df0-8e4e-99767047ca09"},"vehicle_type_id":"4","last_reported":1751483283,"current_range_meters":12800,"station_id":"","pricing_plan_id":"cebpf4jnsgd1na2vs0mg"},{"bike_id":"471769d9-3f22-4fd4-ad6c-a8e34f11dc0c","system_id":"levelo_inurba_marseille","lat":43.27373,"lon":5.36263,"is_reserved":false,"is_disabled":false,"rental_uris":{"android":"levelo://app?vid=471769d9-3f22-4fd4-ad6c-a8e34f11dc0c","ios":"levelo://app?vid=471769d9-3f22-4fd4-ad6c-a8e34f11dc0c"},"vehicle_type_id":"4","last_reported":1751483283,"current_range_meters":12800,"station_id":"ce4bhbh2rcd13ifvqeo0","pricing_plan_id":"cebpf4jnsgd1na2vs0mg"},{"bike_id":"26e37d11-d113-4f0b-bef4-8b30c044a183","system_id":"levelo_inurba_marseille","lat":43.284212,"lon":5.349835,"is_reserved":false,"is_disabled":false,"rental_uris":{"android":"levelo://app?vid=26e37d11-d113-4f0b-bef4-8b30c044a183","ios":"levelo://app?vid=26e37d11-d113-4f0b-bef4-8b30c044a183"},"vehicle_type_id":"4","last_reported":1751483283,"current_range_meters":12800,"station_id":"ce4bhbh2rcd13ifvqepg","pricing_plan_id":"cebpf4jnsgd1na2vs0mg"},{"bike_id":"7e62b058-a7ed-4634-80f1-04d3de596de7","system_id":"levelo_inurba_marseille","lat":43.29853,"lon":5.36811,"is_reserved":false,"is_disabled":false,"rental_uris":{"android":"levelo://app?vid=7e62b058-a7ed-4634-80f1-04d3de596de7","ios":"levelo://app?vid=7e62b058-a7ed-4634-80f1-04d3de596de7"},"vehicle_type_id":"4","last_reported":1751483283,"current_range_meters":13600,"station_id":"","pricing_plan_id":"cebpf4jnsgd1na2vs0mg"},{"bike_id":"7d1bbfbb-c70e-48d3-8f4b-baf5b1ca8b77","system_id":"levelo_inurba_marseille","lat":43.284167,"lon":5.349911,"is_reserved":false,"is_disabled":false,"rental_uris":{"android":"levelo://app?vid=7d1bbfbb-c70e-48d3-8f4b-baf5b1ca8b77","ios":"levelo://app?vid=7d1bbfbb-c70e-48d3-8f4b-baf5b1ca8b77"},"vehicle_type_id":"4","last_reported":1751483283,"current_range_meters":13600,"station_id":"ce4bhbh2rcd13ifvqepg","pricing_plan_id":"cebpf4jnsgd1na2vs0mg"},{"bike_id":"fedb7387-9ef5-4796-97a5-d3cdc7b72957","system_id":"levelo_inurba_marseille","lat":43.28626,"lon":5.35096,"is_reserved":false,"is_disabled":false,"rental_uris":{"android":"levelo://app?vid=fedb7387-9ef5-4796-97a5-d3cdc7b72957","ios":"levelo://app?vid=fedb7387-9ef5-4796-97a5-d3cdc7b72957"},"vehicle_type_id":"4","last_reported":1751483283,"current_range_meters":13600,"station_id":"ce4bhch2rcd13ifvqeug","pricing_plan_id":"cebpf4jnsgd1na2vs0mg"},{"bike_id":"398a2872-7275-467b-b44d-c1f5a754396c","system_id":"levelo_inurba_marseille","lat":43.31531,"lon":5.38035,"is_reserved":false,"is_disabled":false,"rental_uris":{"android":"levelo://app?vid=398a2872-7275-467b-b44d-c1f5a754396c","ios":"levelo://app?vid=398a2872-7275-467b-b44d-c1f5a754396c"},"vehicle_type_id":"4","last_reported":1751483283,"current_range_meters":13600,"station_id":"ce4bhsp2rcd13ifvqi50","pricing_plan_id":"cebpf4jnsgd1na2vs0mg"},{"bike_id":"62505bec-92e8-4bee-b1da-47121ed58afb","system_id":"levelo_inurba_marseille","lat":43.27619,"lon":5.36101,"is_reserved":false,"is_disabled":false,"rental_uris":{"android":"levelo://app?vid=62505bec-92e8-4bee-b1da-47121ed58afb","ios":"levelo://app?vid=62505bec-92e8-4bee-b1da-47121ed58afb"},"vehicle_type_id":"4","last_reported":1751483283,"current_range_meters":14000,"station_id":"ce4bgj92rcd13ifvqbe0","pricing_plan_id":"cebpf4jnsgd1na2vs0mg"},{"bike_id":"c2586468-104c-4e75-959e-9b0d7f0a305c","system_id":"levelo_inurba_marseille","lat":43.30439,"lon":5.39743,"is_reserved":false,"is_disabled":false,"rental_uris":{"android":"levelo://app?vid=c2586468-104c-4e75-959e-9b0d7f0a305c","ios":"levelo://app?vid=c2586468-104c-4e75-959e-9b0d7f0a305c"},"vehicle_type_id":"4","last_reported":1751483283,"current_range_meters":14000,"station_id":"ce4bh092rcd13ifvqd20","pricing_plan_id":"cebpf4jnsgd1na2vs0mg"},{"bike_id":"e56fceb8-8f3c-4030-9121-59225a77741d","system_id":"levelo_inurba_marseille","lat":43.24999,"lon":5.38921,"is_reserved":false,"is_disabled":false,"rental_uris":{"android":"levelo://app?vid=e56fceb8-8f3c-4030-9121-59225a77741d","ios":"levelo://app?vid=e56fceb8-8f3c-4030-9121-59225a77741d"},"vehicle_type_id":"4","last_reported":1751483283,"current_range_meters":14000,"station_id":"ce4bhgp2rcd13ifvqfd0","pricing_plan_id":"cebpf4jnsgd1na2vs0mg"},{"bike_id":"eecf4e7d-1d3f-4019-89a5-0c3fb596933f","system_id":"levelo_inurba_marseille","lat":43.22928,"lon":5.35378,"is_reserved":false,"is_disabled":false,"rental_uris":{"android":"levelo://app?vid=eecf4e7d-1d3f-4019-89a5-0c3fb596933f","ios":"levelo://app?vid=eecf4e7d-1d3f-4019-89a5-0c3fb596933f"},"vehicle_type_id":"4","last_reported":1751483283,"current_range_meters":14000,"station_id":"cpo3532slgdg3j2ikp40","pricing_plan_id":"cebpf4jnsgd1na2vs0mg"},{"bike_id":"b018e07a-7cdf-4f20-b9f0-a61f02c5ecef","system_id":"levelo_inurba_marseille","lat":43.21195,"lon":5.350667,"is_reserved":false,"is_disabled":false,"rental_uris":{"android":"levelo://app?vid=b018e07a-7cdf-4f20-b9f0-a61f02c5ecef","ios":"levelo://app?vid=b018e07a-7cdf-4f20-b9f0-a61f02c5ecef"},"vehicle_type_id":"4","last_reported":1751483283,"current_range_meters":14000,"station_id":"st_cvj6sg6p6f1abm77japg","pricing_plan_id":"cebpf4jnsgd1na2vs0mg"},{"bike_id":"e000eb25-e792-46e2-b32c-1f8d9485af9d","system_id":"levelo_inurba_marseille","lat":43.30874,"lon":5.39646,"is_reserved":false,"is_disabled":false,"rental_uris":{"android":"levelo://app?vid=e000eb25-e792-46e2-b32c-1f8d9485af9d","ios":"levelo://app?vid=e000eb25-e792-46e2-b32c-1f8d9485af9d"},"vehicle_type_id":"4","last_reported":1751483283,"current_range_meters":14400,"station_id":"ce4bh012rcd13ifvqcv0","pricing_plan_id":"cebpf4jnsgd1na2vs0mg"},{"bike_id":"66c0ab6c-a77c-4406-98da-eb1e105d5014","system_id":"levelo_inurba_marseille","lat":43.28405,"lon":5.34974,"is_reserved":false,"is_disabled":false,"rental_uris":{"android":"levelo://app?vid=66c0ab6c-a77c-4406-98da-eb1e105d5014","ios":"levelo://app?vid=66c0ab6c-a77c-4406-98da-eb1e105d5014"},"vehicle_type_id":"4","last_reported":1751483283,"current_range_meters":14400,"station_id":"ce4bhbh2rcd13ifvqepg","pricing_plan_id":"cebpf4jnsgd1na2vs0mg"},{"bike_id":"17ad145c-f881-4017-969d-c8638a36a818","system_id":"levelo_inurba_marseille","lat":43.26551,"lon":5.38977,"is_reserved":false,"is_disabled":false,"rental_uris":{"android":"levelo://app?vid=17ad145c-f881-4017-969d-c8638a36a818","ios":"levelo://app?vid=17ad145c-f881-4017-969d-c8638a36a818"},"vehicle_type_id":"4","last_reported":1751483283,"current_range_meters":14400,"station_id":"ce4bhe12rcd13ifvqf30","pricing_plan_id":"cebpf4jnsgd1na2vs0mg"},{"bike_id":"386aaa5e-8fbe-4909-a121-ae18357be1d4","system_id":"levelo_inurba_marseille","lat":43.25821,"lon":5.39437,"is_reserved":false,"is_disabled":false,"rental_uris":{"android":"levelo://app?vid=386aaa5e-8fbe-4909-a121-ae18357be1d4","ios":"levelo://app?vid=386aaa5e-8fbe-4909-a121-ae18357be1d4"},"vehicle_type_id":"4","last_reported":1751483283,"current_range_meters":14400,"station_id":"ce4bhip2rcd13ifvqft0","pricing_plan_id":"cebpf4jnsgd1na2vs0mg"},{"bike_id":"56eb3fdf-ea87-4fcf-85df-3680fa66363e","system_id":"levelo_inurba_marseille","lat":43.22535,"lon":5.34769,"is_reserved":false,"is_disabled":false,"rental_uris":{"android":"levelo://app?vid=56eb3fdf-ea87-4fcf-85df-3680fa66363e","ios":"levelo://app?vid=56eb3fdf-ea87-4fcf-85df-3680fa66363e"},"vehicle_type_id":"4","last_reported":1751483283,"current_range_meters":14400,"station_id":"st_cvj5dfep6f1abm77gieg","pricing_plan_id":"cebpf4jnsgd1na2vs0mg"},{"bike_id":"b50da02d-1fb5-4383-a93d-332785610080","system_id":"levelo_inurba_marseille","lat":43.217564,"lon":5.345988,"is_reserved":false,"is_disabled":false,"rental_uris":{"android":"levelo://app?vid=b50da02d-1fb5-4383-a93d-332785610080","ios":"levelo://app?vid=b50da02d-1fb5-4383-a93d-332785610080"},"vehicle_type_id":"4","last_reported":1751483283,"current_range_meters":14400,"station_id":"st_cvj6r9ubvosntc0bgbag","pricing_plan_id":"cebpf4jnsgd1na2vs0mg"},{"bike_id":"bcfd0eda-b9ab-4bec-9ca3-3f2b86617415","system_id":"levelo_inurba_marseille","lat":43.21203,"lon":5.35062,"is_reserved":false,"is_disabled":false,"rental_uris":{"android":"levelo://app?vid=bcfd0eda-b9ab-4bec-9ca3-3f2b86617415","ios":"levelo://app?vid=bcfd0eda-b9ab-4bec-9ca3-3f2b86617415"},"vehicle_type_id":"4","last_reported":1751483283,"current_range_meters":14400,"station_id":"st_cvj6sg6p6f1abm77japg","pricing_plan_id":"cebpf4jnsgd1na2vs0mg"},{"bike_id":"db68245c-172e-4b78-9388-9a4d09b57f3c","system_id":"levelo_inurba_marseille","lat":43.27368,"lon":5.36255,"is_reserved":false,"is_disabled":false,"rental_uris":{"android":"levelo://app?vid=db68245c-172e-4b78-9388-9a4d09b57f3c","ios":"levelo://app?vid=db68245c-172e-4b78-9388-9a4d09b57f3c"},"vehicle_type_id":"4","last_reported":1751483283,"current_range_meters":14800,"station_id":"ce4bhbh2rcd13ifvqeo0","pricing_plan_id":"cebpf4jnsgd1na2vs0mg"},{"bike_id":"0c23fb94-eeb4-49eb-b754-1cfed9852ade","system_id":"levelo_inurba_marseille","lat":43.27377,"lon":5.36254,"is_reserved":false,"is_disabled":false,"rental_uris":{"android":"levelo://app?vid=0c23fb94-eeb4-49eb-b754-1cfed9852ade","ios":"levelo://app?vid=0c23fb94-eeb4-49eb-b754-1cfed9852ade"},"vehicle_type_id":"4","last_reported":1751483283,"current_range_meters":14800,"station_id":"ce4bhbh2rcd13ifvqeo0","pricing_plan_id":"cebpf4jnsgd1na2vs0mg"},{"bike_id":"3bac4b2c-7470-4424-bc3f-533b0f83c590","system_id":"levelo_inurba_marseille","lat":43.28413,"lon":5.34984,"is_reserved":false,"is_disabled":false,"rental_uris":{"android":"levelo://app?vid=3bac4b2c-7470-4424-bc3f-533b0f83c590","ios":"levelo://app?vid=3bac4b2c-7470-4424-bc3f-533b0f83c590"},"vehicle_type_id":"4","last_reported":1751483283,"current_range_meters":14800,"station_id":"ce4bhbh2rcd13ifvqepg","pricing_plan_id":"cebpf4jnsgd1na2vs0mg"},{"bike_id":"f16f3e79-dc07-4508-8b6c-7b168bc16ba6","system_id":"levelo_inurba_marseille","lat":43.24804,"lon":5.37461,"is_reserved":false,"is_disabled":false,"rental_uris":{"android":"levelo://app?vid=f16f3e79-dc07-4508-8b6c-7b168bc16ba6","ios":"levelo://app?vid=f16f3e79-dc07-4508-8b6c-7b168bc16ba6"},"vehicle_type_id":"4","last_reported":1751483283,"current_range_meters":14800,"station_id":"ce4bhgh2rcd13ifvqfb0","pricing_plan_id":"cebpf4jnsgd1na2vs0mg"},{"bike_id":"78c6f851-0f9e-49ee-b8c0-ad65c90496f6","system_id":"levelo_inurba_marseille","lat":43.24673,"lon":5.38162,"is_reserved":false,"is_disabled":false,"rental_uris":{"android":"levelo://app?vid=78c6f851-0f9e-49ee-b8c0-ad65c90496f6","ios":"levelo://app?vid=78c6f851-0f9e-49ee-b8c0-ad65c90496f6"},"vehicle_type_id":"4","last_reported":1751483283,"current_range_meters":14800,"station_id":"ce4bhih2rcd13ifvqfr0","pricing_plan_id":"cebpf4jnsgd1na2vs0mg"},{"bike_id":"16a8afe6-e43e-4d1b-a7bd-ed83d113735a","system_id":"levelo_inurba_marseille","lat":43.32436,"lon":5.41185,"is_reserved":false,"is_disabled":false,"rental_uris":{"android":"levelo://app?vid=16a8afe6-e43e-4d1b-a7bd-ed83d113735a","ios":"levelo://app?vid=16a8afe6-e43e-4d1b-a7bd-ed83d113735a"},"vehicle_type_id":"4","last_reported":1751483283,"current_range_meters":15200,"station_id":"","pricing_plan_id":"cebpf4jnsgd1na2vs0mg"},{"bike_id":"752a7229-d138-4522-8787-0bb67b470949","system_id":"levelo_inurba_marseille","lat":43.31845,"lon":5.37631,"is_reserved":false,"is_disabled":false,"rental_uris":{"android":"levelo://app?vid=752a7229-d138-4522-8787-0bb67b470949","ios":"levelo://app?vid=752a7229-d138-4522-8787-0bb67b470949"},"vehicle_type_id":"4","last_reported":1751483283,"current_range_meters":15200,"station_id":"","pricing_plan_id":"cebpf4jnsgd1na2vs0mg"},{"bike_id":"e26ba497-efc7-4420-b8c5-9fa5e27f2ce4","system_id":"levelo_inurba_marseille","lat":43.31357,"lon":5.37073,"is_reserved":false,"is_disabled":false,"rental_uris":{"android":"levelo://app?vid=e26ba497-efc7-4420-b8c5-9fa5e27f2ce4","ios":"levelo://app?vid=e26ba497-efc7-4420-b8c5-9fa5e27f2ce4"},"vehicle_type_id":"4","last_reported":1751483283,"current_range_meters":15200,"station_id":"","pricing_plan_id":"cebpf4jnsgd1na2vs0mg"},{"bike_id":"c5e094ee-7885-42b9-806d-7288db0f9ebc","system_id":"levelo_inurba_marseille","lat":43.27361,"lon":5.36255,"is_reserved":false,"is_disabled":false,"rental_uris":{"android":"levelo://app?vid=c5e094ee-7885-42b9-806d-7288db0f9ebc","ios":"levelo://app?vid=c5e094ee-7885-42b9-806d-7288db0f9ebc"},"vehicle_type_id":"4","last_reported":1751483283,"current_range_meters":15200,"station_id":"ce4bhbh2rcd13ifvqeo0","pricing_plan_id":"cebpf4jnsgd1na2vs0mg"},{"bike_id":"a4fa0864-a85b-4e58-80fb-f707fbcf1f52","system_id":"levelo_inurba_marseille","lat":43.284,"lon":5.3498,"is_reserved":false,"is_disabled":false,"rental_uris":{"android":"levelo://app?vid=a4fa0864-a85b-4e58-80fb-f707fbcf1f52","ios":"levelo://app?vid=a4fa0864-a85b-4e58-80fb-f707fbcf1f52"},"vehicle_type_id":"4","last_reported":1751483283,"current_range_meters":15200,"station_id":"ce4bhbh2rcd13ifvqepg","pricing_plan_id":"cebpf4jnsgd1na2vs0mg"},{"bike_id":"d9c7d075-4d2f-47ad-ab59-c8d0f7c36398","system_id":"levelo_inurba_marseille","lat":43.284263,"lon":5.349902,"is_reserved":false,"is_disabled":false,"rental_uris":{"android":"levelo://app?vid=d9c7d075-4d2f-47ad-ab59-c8d0f7c36398","ios":"levelo://app?vid=d9c7d075-4d2f-47ad-ab59-c8d0f7c36398"},"vehicle_type_id":"4","last_reported":1751483283,"current_range_meters":15200,"station_id":"ce4bhbh2rcd13ifvqepg","pricing_plan_id":"cebpf4jnsgd1na2vs0mg"},{"bike_id":"473d1ca9-1a51-4ba5-bd78-fb30f467aab7","system_id":"levelo_inurba_marseille","lat":43.28425,"lon":5.34968,"is_reserved":false,"is_disabled":false,"rental_uris":{"android":"levelo://app?vid=473d1ca9-1a51-4ba5-bd78-fb30f467aab7","ios":"levelo://app?vid=473d1ca9-1a51-4ba5-bd78-fb30f467aab7"},"vehicle_type_id":"4","last_reported":1751483283,"current_range_meters":15200,"station_id":"ce4bhbh2rcd13ifvqepg","pricing_plan_id":"cebpf4jnsgd1na2vs0mg"},{"bike_id":"48f0a523-bde9-4449-87df-13bb07b208b4","system_id":"levelo_inurba_marseille","lat":43.28149,"lon":5.42639,"is_reserved":false,"is_disabled":false,"rental_uris":{"android":"levelo://app?vid=48f0a523-bde9-4449-87df-13bb07b208b4","ios":"levelo://app?vid=48f0a523-bde9-4449-87df-13bb07b208b4"},"vehicle_type_id":"4","last_reported":1751483283,"current_range_meters":15200,"station_id":"ce4bhnh2rcd13ifvqgug","pricing_plan_id":"cebpf4jnsgd1na2vs0mg"},{"bike_id":"110be0f7-19b6-4419-935c-8afdb1f29359","system_id":"levelo_inurba_marseille","lat":43.21208,"lon":5.35082,"is_reserved":false,"is_disabled":false,"rental_uris":{"android":"levelo://app?vid=110be0f7-19b6-4419-935c-8afdb1f29359","ios":"levelo://app?vid=110be0f7-19b6-4419-935c-8afdb1f29359"},"vehicle_type_id":"4","last_reported":1751483283,"current_range_meters":15200,"station_id":"st_cvj6sg6p6f1abm77japg","pricing_plan_id":"cebpf4jnsgd1na2vs0mg"},{"bike_id":"959e6f20-8ed0-4d36-bc1d-3efb82d6190b","system_id":"levelo_inurba_marseille","lat":43.211921,"lon":5.350789,"is_reserved":false,"is_disabled":false,"rental_uris":{"android":"levelo://app?vid=959e6f20-8ed0-4d36-bc1d-3efb82d6190b","ios":"levelo://app?vid=959e6f20-8ed0-4d36-bc1d-3efb82d6190b"},"vehicle_type_id":"4","last_reported":1751483283,"current_range_meters":15200,"station_id":"st_cvj6sg6p6f1abm77japg","pricing_plan_id":"cebpf4jnsgd1na2vs0mg"},{"bike_id":"0e030323-4386-4e72-9a0d-0f6a2ff539de","system_id":"levelo_inurba_marseille","lat":43.29627,"lon":5.40553,"is_reserved":false,"is_disabled":false,"rental_uris":{"android":"levelo://app?vid=0e030323-4386-4e72-9a0d-0f6a2ff539de","ios":"levelo://app?vid=0e030323-4386-4e72-9a0d-0f6a2ff539de"},"vehicle_type_id":"4","last_reported":1751483283,"current_range_meters":16000,"station_id":"ce4bh0h2rcd13ifvqd60","pricing_plan_id":"cebpf4jnsgd1na2vs0mg"},{"bike_id":"ae276269-19d6-46ff-8865-85ddd0cbcd09","system_id":"levelo_inurba_marseille","lat":43.298,"lon":5.40399,"is_reserved":false,"is_disabled":false,"rental_uris":{"android":"levelo://app?vid=ae276269-19d6-46ff-8865-85ddd0cbcd09","ios":"levelo://app?vid=ae276269-19d6-46ff-8865-85ddd0cbcd09"},"vehicle_type_id":"4","last_reported":1751483283,"current_range_meters":16000,"station_id":"ce4bh112rcd13ifvqd90","pricing_plan_id":"cebpf4jnsgd1na2vs0mg"},{"bike_id":"e76d5c44-0b19-47a9-befd-777c738adfbd","system_id":"levelo_inurba_marseille","lat":43.29523,"lon":5.39397,"is_reserved":false,"is_disabled":false,"rental_uris":{"android":"levelo://app?vid=e76d5c44-0b19-47a9-befd-777c738adfbd","ios":"levelo://app?vid=e76d5c44-0b19-47a9-befd-777c738adfbd"},"vehicle_type_id":"4","last_reported":1751483283,"current_range_meters":16000,"station_id":"ce4bh292rcd13ifvqdf0","pricing_plan_id":"cebpf4jnsgd1na2vs0mg"},{"bike_id":"63072e0c-9f69-4913-be48-96789ec98037","system_id":"levelo_inurba_marseille","lat":43.3342,"lon":5.400483,"is_reserved":false,"is_disabled":false,"rental_uris":{"android":"levelo://app?vid=63072e0c-9f69-4913-be48-96789ec98037","ios":"levelo://app?vid=63072e0c-9f69-4913-be48-96789ec98037"},"vehicle_type_id":"4","last_reported":1751483283,"current_range_meters":16400,"station_id":"","pricing_plan_id":"cebpf4jnsgd1na2vs0mg"},{"bike_id":"4f1bc1d1-1206-4ae0-850e-a4cb75d08f72","system_id":"levelo_inurba_marseille","lat":43.29434,"lon":5.38637,"is_reserved":false,"is_disabled":false,"rental_uris":{"android":"levelo://app?vid=4f1bc1d1-1206-4ae0-850e-a4cb75d08f72","ios":"levelo://app?vid=4f1bc1d1-1206-4ae0-850e-a4cb75d08f72"},"vehicle_type_id":"4","last_reported":1751483283,"current_range_meters":16400,"station_id":"ce4bh2h2rcd13ifvqdh0","pricing_plan_id":"cebpf4jnsgd1na2vs0mg"},{"bike_id":"289d754c-f820-4735-a6c1-a594a94fcdee","system_id":"levelo_inurba_marseille","lat":43.29272,"lon":5.3842,"is_reserved":false,"is_disabled":false,"rental_uris":{"android":"levelo://app?vid=289d754c-f820-4735-a6c1-a594a94fcdee","ios":"levelo://app?vid=289d754c-f820-4735-a6c1-a594a94fcdee"},"vehicle_type_id":"4","last_reported":1751483283,"current_range_meters":16400,"station_id":"ce4bh692rcd13ifvqea0","pricing_plan_id":"cebpf4jnsgd1na2vs0mg"},{"bike_id":"e86cfc13-8591-433e-8531-5d2b1dcdcf7d","system_id":"levelo_inurba_marseille","lat":43.24082,"lon":5.37754,"is_reserved":false,"is_disabled":false,"rental_uris":{"android":"levelo://app?vid=e86cfc13-8591-433e-8531-5d2b1dcdcf7d","ios":"levelo://app?vid=e86cfc13-8591-433e-8531-5d2b1dcdcf7d"},"vehicle_type_id":"4","last_reported":1751483283,"current_range_meters":16400,"station_id":"ce4bhnp2rcd13ifvqgvg","pricing_plan_id":"cebpf4jnsgd1na2vs0mg"},{"bike_id":"f4d29537-f6ca-4d09-b749-036d7617eb51","system_id":"levelo_inurba_marseille","lat":43.24157,"lon":5.36394,"is_reserved":false,"is_disabled":false,"rental_uris":{"android":"levelo://app?vid=f4d29537-f6ca-4d09-b749-036d7617eb51","ios":"levelo://app?vid=f4d29537-f6ca-4d09-b749-036d7617eb51"},"vehicle_type_id":"4","last_reported":1751483283,"current_range_meters":16400,"station_id":"cpo36qri1sfpv3e86is0","pricing_plan_id":"cebpf4jnsgd1na2vs0mg"},{"bike_id":"09a94feb-8911-4d3d-9f22-a7f611710ea1","system_id":"levelo_inurba_marseille","lat":43.21187,"lon":5.35067,"is_reserved":false,"is_disabled":false,"rental_uris":{"android":"levelo://app?vid=09a94feb-8911-4d3d-9f22-a7f611710ea1","ios":"levelo://app?vid=09a94feb-8911-4d3d-9f22-a7f611710ea1"},"vehicle_type_id":"4","last_reported":1751483283,"current_range_meters":16400,"station_id":"st_cvj6sg6p6f1abm77japg","pricing_plan_id":"cebpf4jnsgd1na2vs0mg"},{"bike_id":"693d80d0-0bd0-4611-929b-8314957db991","system_id":"levelo_inurba_marseille","lat":43.21194,"lon":5.35054,"is_reserved":false,"is_disabled":false,"rental_uris":{"android":"levelo://app?vid=693d80d0-0bd0-4611-929b-8314957db991","ios":"levelo://app?vid=693d80d0-0bd0-4611-929b-8314957db991"},"vehicle_type_id":"4","last_reported":1751483283,"current_range_meters":16400,"station_id":"st_cvj6sg6p6f1abm77japg","pricing_plan_id":"cebpf4jnsgd1na2vs0mg"},{"bike_id":"4aed8cc3-25bd-4199-b072-29e0ff21105f","system_id":"levelo_inurba_marseille","lat":43.26229,"lon":5.4044,"is_reserved":false,"is_disabled":false,"rental_uris":{"android":"levelo://app?vid=4aed8cc3-25bd-4199-b072-29e0ff21105f","ios":"levelo://app?vid=4aed8cc3-25bd-4199-b072-29e0ff21105f"},"vehicle_type_id":"4","last_reported":1751483283,"current_range_meters":16800,"station_id":"ce4bhmh2rcd13ifvqgmg","pricing_plan_id":"cebpf4jnsgd1na2vs0mg"},{"bike_id":"8bf0d992-d2a0-428e-940a-091ee9b7c2a4","system_id":"levelo_inurba_marseille","lat":43.21191,"lon":5.35071,"is_reserved":false,"is_disabled":false,"rental_uris":{"android":"levelo://app?vid=8bf0d992-d2a0-428e-940a-091ee9b7c2a4","ios":"levelo://app?vid=8bf0d992-d2a0-428e-940a-091ee9b7c2a4"},"vehicle_type_id":"4","last_reported":1751483283,"current_range_meters":16800,"station_id":"st_cvj6sg6p6f1abm77japg","pricing_plan_id":"cebpf4jnsgd1na2vs0mg"},{"bike_id":"c10a4283-320d-4e64-8d75-ff83e94026ba","system_id":"levelo_inurba_marseille","lat":43.21194,"lon":5.35081,"is_reserved":false,"is_disabled":false,"rental_uris":{"android":"levelo://app?vid=c10a4283-320d-4e64-8d75-ff83e94026ba","ios":"levelo://app?vid=c10a4283-320d-4e64-8d75-ff83e94026ba"},"vehicle_type_id":"4","last_reported":1751483283,"current_range_meters":16800,"station_id":"st_cvj6sg6p6f1abm77japg","pricing_plan_id":"cebpf4jnsgd1na2vs0mg"},{"bike_id":"8a74f5cd-9efa-4362-bea7-a32db4dcc85c","system_id":"levelo_inurba_marseille","lat":43.21199,"lon":5.35049,"is_reserved":false,"is_disabled":false,"rental_uris":{"android":"levelo://app?vid=8a74f5cd-9efa-4362-bea7-a32db4dcc85c","ios":"levelo://app?vid=8a74f5cd-9efa-4362-bea7-a32db4dcc85c"},"vehicle_type_id":"4","last_reported":1751483283,"current_range_meters":16800,"station_id":"st_cvj6sg6p6f1abm77japg","pricing_plan_id":"cebpf4jnsgd1na2vs0mg"},{"bike_id":"6d2da863-a742-45db-855b-55a94467cfa4","system_id":"levelo_inurba_marseille","lat":43.32584,"lon":5.42731,"is_reserved":false,"is_disabled":false,"rental_uris":{"android":"levelo://app?vid=6d2da863-a742-45db-855b-55a94467cfa4","ios":"levelo://app?vid=6d2da863-a742-45db-855b-55a94467cfa4"},"vehicle_type_id":"4","last_reported":1751483283,"current_range_meters":17200,"station_id":"","pricing_plan_id":"cebpf4jnsgd1na2vs0mg"},{"bike_id":"ff2eed52-76b4-4357-b31a-0d511595ff47","system_id":"levelo_inurba_marseille","lat":43.28404,"lon":5.35003,"is_reserved":false,"is_disabled":false,"rental_uris":{"android":"levelo://app?vid=ff2eed52-76b4-4357-b31a-0d511595ff47","ios":"levelo://app?vid=ff2eed52-76b4-4357-b31a-0d511595ff47"},"vehicle_type_id":"4","last_reported":1751483283,"current_range_meters":17200,"station_id":"ce4bhbh2rcd13ifvqepg","pricing_plan_id":"cebpf4jnsgd1na2vs0mg"},{"bike_id":"2ea773ef-38dc-4d08-98e1-94889e1bf05e","system_id":"levelo_inurba_marseille","lat":43.28626,"lon":5.35101,"is_reserved":false,"is_disabled":false,"rental_uris":{"android":"levelo://app?vid=2ea773ef-38dc-4d08-98e1-94889e1bf05e","ios":"levelo://app?vid=2ea773ef-38dc-4d08-98e1-94889e1bf05e"},"vehicle_type_id":"4","last_reported":1751483283,"current_range_meters":17200,"station_id":"ce4bhch2rcd13ifvqeug","pricing_plan_id":"cebpf4jnsgd1na2vs0mg"},{"bike_id":"912d67f3-78e7-48fd-8929-37f0572cfee4","system_id":"levelo_inurba_marseille","lat":43.26375,"lon":5.37389,"is_reserved":false,"is_disabled":false,"rental_uris":{"android":"levelo://app?vid=912d67f3-78e7-48fd-8929-37f0572cfee4","ios":"levelo://app?vid=912d67f3-78e7-48fd-8929-37f0572cfee4"},"vehicle_type_id":"4","last_reported":1751483283,"current_range_meters":17600,"station_id":"","pricing_plan_id":"cebpf4jnsgd1na2vs0mg"},{"bike_id":"a0cef316-ad95-4855-8f78-a31341a2b90e","system_id":"levelo_inurba_marseille","lat":43.31271,"lon":5.37751,"is_reserved":false,"is_disabled":false,"rental_uris":{"android":"levelo://app?vid=a0cef316-ad95-4855-8f78-a31341a2b90e","ios":"levelo://app?vid=a0cef316-ad95-4855-8f78-a31341a2b90e"},"vehicle_type_id":"4","last_reported":1751483283,"current_range_meters":17600,"station_id":"","pricing_plan_id":"cebpf4jnsgd1na2vs0mg"},{"bike_id":"bb46c198-db0f-484b-8388-18f826d56d56","system_id":"levelo_inurba_marseille","lat":43.301331,"lon":5.387803,"is_reserved":false,"is_disabled":false,"rental_uris":{"android":"levelo://app?vid=bb46c198-db0f-484b-8388-18f826d56d56","ios":"levelo://app?vid=bb46c198-db0f-484b-8388-18f826d56d56"},"vehicle_type_id":"4","last_reported":1751483283,"current_range_meters":17600,"station_id":"ce4bghh2rcd13ifvqb60","pricing_plan_id":"cebpf4jnsgd1na2vs0mg"},{"bike_id":"e8ad7faf-71f4-4860-aaca-2f9ee156a4f0","system_id":"levelo_inurba_marseille","lat":43.29708,"lon":5.36599,"is_reserved":false,"is_disabled":false,"rental_uris":{"android":"levelo://app?vid=e8ad7faf-71f4-4860-aaca-2f9ee156a4f0","ios":"levelo://app?vid=e8ad7faf-71f4-4860-aaca-2f9ee156a4f0"},"vehicle_type_id":"4","last_reported":1751483283,"current_range_meters":17600,"station_id":"ce4bgn12rcd13ifvqbt0","pricing_plan_id":"cebpf4jnsgd1na2vs0mg"},{"bike_id":"7aa65a66-5f14-4407-b24c-2aca65b2098b","system_id":"levelo_inurba_marseille","lat":43.3054,"lon":5.36558,"is_reserved":false,"is_disabled":false,"rental_uris":{"android":"levelo://app?vid=7aa65a66-5f14-4407-b24c-2aca65b2098b","ios":"levelo://app?vid=7aa65a66-5f14-4407-b24c-2aca65b2098b"},"vehicle_type_id":"4","last_reported":1751483283,"current_range_meters":17600,"station_id":"ce4bgs12rcd13ifvqcag","pricing_plan_id":"cebpf4jnsgd1na2vs0mg"},{"bike_id":"ba154a12-11bd-42a5-958a-5992f5d043d1","system_id":"levelo_inurba_marseille","lat":43.30528,"lon":5.37074,"is_reserved":false,"is_disabled":false,"rental_uris":{"android":"levelo://app?vid=ba154a12-11bd-42a5-958a-5992f5d043d1","ios":"levelo://app?vid=ba154a12-11bd-42a5-958a-5992f5d043d1"},"vehicle_type_id":"4","last_reported":1751483283,"current_range_meters":18000,"station_id":"","pricing_plan_id":"cebpf4jnsgd1na2vs0mg"},{"bike_id":"51390021-6f63-4321-965f-222fc149d8f2","system_id":"levelo_inurba_marseille","lat":43.28611,"lon":5.35102,"is_reserved":false,"is_disabled":false,"rental_uris":{"android":"levelo://app?vid=51390021-6f63-4321-965f-222fc149d8f2","ios":"levelo://app?vid=51390021-6f63-4321-965f-222fc149d8f2"},"vehicle_type_id":"4","last_reported":1751483283,"current_range_meters":18000,"station_id":"ce4bhch2rcd13ifvqeug","pricing_plan_id":"cebpf4jnsgd1na2vs0mg"},{"bike_id":"d0a6f12b-824e-4020-bf6a-9d97ce76f338","system_id":"levelo_inurba_marseille","lat":43.2707,"lon":5.42279,"is_reserved":false,"is_disabled":false,"rental_uris":{"android":"levelo://app?vid=d0a6f12b-824e-4020-bf6a-9d97ce76f338","ios":"levelo://app?vid=d0a6f12b-824e-4020-bf6a-9d97ce76f338"},"vehicle_type_id":"4","last_reported":1751483283,"current_range_meters":18000,"station_id":"ce4bhk92rcd13ifvqgb0","pricing_plan_id":"cebpf4jnsgd1na2vs0mg"},{"bike_id":"24292662-6006-4eb3-8ff0-b1cbcb8d7b9c","system_id":"levelo_inurba_marseille","lat":43.244366,"lon":5.390746,"is_reserved":false,"is_disabled":false,"rental_uris":{"android":"levelo://app?vid=24292662-6006-4eb3-8ff0-b1cbcb8d7b9c","ios":"levelo://app?vid=24292662-6006-4eb3-8ff0-b1cbcb8d7b9c"},"vehicle_type_id":"4","last_reported":1751483283,"current_range_meters":18000,"station_id":"ce4bhn12rcd13ifvqgqg","pricing_plan_id":"cebpf4jnsgd1na2vs0mg"},{"bike_id":"68e309f4-b1e4-4f3a-b754-9a7df441dc33","system_id":"levelo_inurba_marseille","lat":43.28153,"lon":5.42623,"is_reserved":false,"is_disabled":false,"rental_uris":{"android":"levelo://app?vid=68e309f4-b1e4-4f3a-b754-9a7df441dc33","ios":"levelo://app?vid=68e309f4-b1e4-4f3a-b754-9a7df441dc33"},"vehicle_type_id":"4","last_reported":1751483283,"current_range_meters":18000,"station_id":"ce4bhnh2rcd13ifvqgug","pricing_plan_id":"cebpf4jnsgd1na2vs0mg"},{"bike_id":"10b0b860-bb51-4240-bd79-57112e19f6af","system_id":"levelo_inurba_marseille","lat":43.21768,"lon":5.34579,"is_reserved":false,"is_disabled":false,"rental_uris":{"android":"levelo://app?vid=10b0b860-bb51-4240-bd79-57112e19f6af","ios":"levelo://app?vid=10b0b860-bb51-4240-bd79-57112e19f6af"},"vehicle_type_id":"4","last_reported":1751483283,"current_range_meters":18000,"station_id":"st_cvj6r9ubvosntc0bgbag","pricing_plan_id":"cebpf4jnsgd1na2vs0mg"},{"bike_id":"0f590c2a-c81e-469d-a7d1-2741de3642a2","system_id":"levelo_inurba_marseille","lat":43.212,"lon":5.3508,"is_reserved":false,"is_disabled":false,"rental_uris":{"android":"levelo://app?vid=0f590c2a-c81e-469d-a7d1-2741de3642a2","ios":"levelo://app?vid=0f590c2a-c81e-469d-a7d1-2741de3642a2"},"vehicle_type_id":"4","last_reported":1751483283,"current_range_meters":18000,"station_id":"st_cvj6sg6p6f1abm77japg","pricing_plan_id":"cebpf4jnsgd1na2vs0mg"},{"bike_id":"756d70f9-325b-4453-8d80-2de2871c3217","system_id":"levelo_inurba_marseille","lat":43.28407,"lon":5.34985,"is_reserved":false,"is_disabled":false,"rental_uris":{"android":"levelo://app?vid=756d70f9-325b-4453-8d80-2de2871c3217","ios":"levelo://app?vid=756d70f9-325b-4453-8d80-2de2871c3217"},"vehicle_type_id":"4","last_reported":1751483283,"current_range_meters":18800,"station_id":"ce4bhbh2rcd13ifvqepg","pricing_plan_id":"cebpf4jnsgd1na2vs0mg"},{"bike_id":"88da0a8a-c235-4518-8971-4d82c75fdca3","system_id":"levelo_inurba_marseille","lat":43.28416,"lon":5.34993,"is_reserved":false,"is_disabled":false,"rental_uris":{"android":"levelo://app?vid=88da0a8a-c235-4518-8971-4d82c75fdca3","ios":"levelo://app?vid=88da0a8a-c235-4518-8971-4d82c75fdca3"},"vehicle_type_id":"4","last_reported":1751483283,"current_range_meters":18800,"station_id":"ce4bhbh2rcd13ifvqepg","pricing_plan_id":"cebpf4jnsgd1na2vs0mg"},{"bike_id":"3d7f8e9b-4213-40e4-a3e7-78d54f706b9f","system_id":"levelo_inurba_marseille","lat":43.2842,"lon":5.34962,"is_reserved":false,"is_disabled":false,"rental_uris":{"android":"levelo://app?vid=3d7f8e9b-4213-40e4-a3e7-78d54f706b9f","ios":"levelo://app?vid=3d7f8e9b-4213-40e4-a3e7-78d54f706b9f"},"vehicle_type_id":"4","last_reported":1751483283,"current_range_meters":18800,"station_id":"ce4bhbh2rcd13ifvqepg","pricing_plan_id":"cebpf4jnsgd1na2vs0mg"},{"bike_id":"2b7bd2c8-d1b2-4343-a26e-43e4322bae6f","system_id":"levelo_inurba_marseille","lat":43.28415,"lon":5.34994,"is_reserved":false,"is_disabled":false,"rental_uris":{"android":"levelo://app?vid=2b7bd2c8-d1b2-4343-a26e-43e4322bae6f","ios":"levelo://app?vid=2b7bd2c8-d1b2-4343-a26e-43e4322bae6f"},"vehicle_type_id":"4","last_reported":1751483283,"current_range_meters":18800,"station_id":"ce4bhbh2rcd13ifvqepg","pricing_plan_id":"cebpf4jnsgd1na2vs0mg"},{"bike_id":"5eff832e-c78a-448d-99c0-d4ac89c64acc","system_id":"levelo_inurba_marseille","lat":43.28621,"lon":5.35101,"is_reserved":false,"is_disabled":false,"rental_uris":{"android":"levelo://app?vid=5eff832e-c78a-448d-99c0-d4ac89c64acc","ios":"levelo://app?vid=5eff832e-c78a-448d-99c0-d4ac89c64acc"},"vehicle_type_id":"4","last_reported":1751483283,"current_range_meters":18800,"station_id":"ce4bhch2rcd13ifvqeug","pricing_plan_id":"cebpf4jnsgd1na2vs0mg"},{"bike_id":"f5e58e05-94ef-43c0-ae1b-f713901c3bed","system_id":"levelo_inurba_marseille","lat":43.286196,"lon":5.351101,"is_reserved":false,"is_disabled":false,"rental_uris":{"android":"levelo://app?vid=f5e58e05-94ef-43c0-ae1b-f713901c3bed","ios":"levelo://app?vid=f5e58e05-94ef-43c0-ae1b-f713901c3bed"},"vehicle_type_id":"4","last_reported":1751483283,"current_range_meters":18800,"station_id":"ce4bhch2rcd13ifvqeug","pricing_plan_id":"cebpf4jnsgd1na2vs0mg"},{"bike_id":"d7eb42dd-1291-458b-978f-486fe89680a6","system_id":"levelo_inurba_marseille","lat":43.24813,"lon":5.37453,"is_reserved":false,"is_disabled":false,"rental_uris":{"android":"levelo://app?vid=d7eb42dd-1291-458b-978f-486fe89680a6","ios":"levelo://app?vid=d7eb42dd-1291-458b-978f-486fe89680a6"},"vehicle_type_id":"4","last_reported":1751483283,"current_range_meters":18800,"station_id":"ce4bhgh2rcd13ifvqfb0","pricing_plan_id":"cebpf4jnsgd1na2vs0mg"},{"bike_id":"f1f2719e-e1ca-44d2-81ff-23fed6e71319","system_id":"levelo_inurba_marseille","lat":43.25497,"lon":5.37647,"is_reserved":false,"is_disabled":false,"rental_uris":{"android":"levelo://app?vid=f1f2719e-e1ca-44d2-81ff-23fed6e71319","ios":"levelo://app?vid=f1f2719e-e1ca-44d2-81ff-23fed6e71319"},"vehicle_type_id":"4","last_reported":1751483283,"current_range_meters":18800,"station_id":"ce4bhh12rcd13ifvqff0","pricing_plan_id":"cebpf4jnsgd1na2vs0mg"},{"bike_id":"48a8b866-9a64-4b58-8b3a-d988de0d4af0","system_id":"levelo_inurba_marseille","lat":43.24169,"lon":5.36402,"is_reserved":false,"is_disabled":false,"rental_uris":{"android":"levelo://app?vid=48a8b866-9a64-4b58-8b3a-d988de0d4af0","ios":"levelo://app?vid=48a8b866-9a64-4b58-8b3a-d988de0d4af0"},"vehicle_type_id":"4","last_reported":1751483283,"current_range_meters":18800,"station_id":"cpo36qri1sfpv3e86is0","pricing_plan_id":"cebpf4jnsgd1na2vs0mg"},{"bike_id":"37b84a38-055a-4a6e-a56a-8ff3d0c1b2ec","system_id":"levelo_inurba_marseille","lat":43.211967,"lon":5.350886,"is_reserved":false,"is_disabled":false,"rental_uris":{"android":"levelo://app?vid=37b84a38-055a-4a6e-a56a-8ff3d0c1b2ec","ios":"levelo://app?vid=37b84a38-055a-4a6e-a56a-8ff3d0c1b2ec"},"vehicle_type_id":"4","last_reported":1751483283,"current_range_meters":18800,"station_id":"st_cvj6sg6p6f1abm77japg","pricing_plan_id":"cebpf4jnsgd1na2vs0mg"},{"bike_id":"8d85d505-f4c5-49f0-bfe9-af2f0c3cc1e1","system_id":"levelo_inurba_marseille","lat":43.29544,"lon":5.38539,"is_reserved":false,"is_disabled":false,"rental_uris":{"android":"levelo://app?vid=8d85d505-f4c5-49f0-bfe9-af2f0c3cc1e1","ios":"levelo://app?vid=8d85d505-f4c5-49f0-bfe9-af2f0c3cc1e1"},"vehicle_type_id":"4","last_reported":1751483283,"current_range_meters":19200,"station_id":"ce4bgih2rcd13ifvqba0","pricing_plan_id":"cebpf4jnsgd1na2vs0mg"},{"bike_id":"88cf42aa-9c30-4998-93fe-904330f1e74a","system_id":"levelo_inurba_marseille","lat":43.30935,"lon":5.40153,"is_reserved":false,"is_disabled":false,"rental_uris":{"android":"levelo://app?vid=88cf42aa-9c30-4998-93fe-904330f1e74a","ios":"levelo://app?vid=88cf42aa-9c30-4998-93fe-904330f1e74a"},"vehicle_type_id":"4","last_reported":1751483283,"current_range_meters":19200,"station_id":"ce4bgvp2rcd13ifvqct0","pricing_plan_id":"cebpf4jnsgd1na2vs0mg"},{"bike_id":"d2f3c988-699e-449a-a4fe-89a1ea3babd9","system_id":"levelo_inurba_marseille","lat":43.28039,"lon":5.36944,"is_reserved":false,"is_disabled":false,"rental_uris":{"android":"levelo://app?vid=d2f3c988-699e-449a-a4fe-89a1ea3babd9","ios":"levelo://app?vid=d2f3c988-699e-449a-a4fe-89a1ea3babd9"},"vehicle_type_id":"4","last_reported":1751483283,"current_range_meters":19200,"station_id":"ce4bha12rcd13ifvqef0","pricing_plan_id":"cebpf4jnsgd1na2vs0mg"},{"bike_id":"a9f5f727-8e7d-4dd3-926a-5d32d0aa1510","system_id":"levelo_inurba_marseille","lat":43.28623,"lon":5.35103,"is_reserved":false,"is_disabled":false,"rental_uris":{"android":"levelo://app?vid=a9f5f727-8e7d-4dd3-926a-5d32d0aa1510","ios":"levelo://app?vid=a9f5f727-8e7d-4dd3-926a-5d32d0aa1510"},"vehicle_type_id":"4","last_reported":1751483283,"current_range_meters":19200,"station_id":"ce4bhch2rcd13ifvqeug","pricing_plan_id":"cebpf4jnsgd1na2vs0mg"},{"bike_id":"3d63bec8-5572-4df0-8971-da63a844af9b","system_id":"levelo_inurba_marseille","lat":43.26204,"lon":5.37921,"is_reserved":false,"is_disabled":false,"rental_uris":{"android":"levelo://app?vid=3d63bec8-5572-4df0-8971-da63a844af9b","ios":"levelo://app?vid=3d63bec8-5572-4df0-8971-da63a844af9b"},"vehicle_type_id":"4","last_reported":1751483283,"current_range_meters":19200,"station_id":"ce4bhjp2rcd13ifvqg90","pricing_plan_id":"cebpf4jnsgd1na2vs0mg"},{"bike_id":"704485df-bcef-44ee-ad21-df8b7f2879ec","system_id":"levelo_inurba_marseille","lat":43.27499,"lon":5.42431,"is_reserved":false,"is_disabled":false,"rental_uris":{"android":"levelo://app?vid=704485df-bcef-44ee-ad21-df8b7f2879ec","ios":"levelo://app?vid=704485df-bcef-44ee-ad21-df8b7f2879ec"},"vehicle_type_id":"4","last_reported":1751483283,"current_range_meters":19200,"station_id":"ce4bhn92rcd13ifvqgrg","pricing_plan_id":"cebpf4jnsgd1na2vs0mg"},{"bike_id":"52afa911-345b-4738-93d5-6ab8109aaded","system_id":"levelo_inurba_marseille","lat":43.28157,"lon":5.4265,"is_reserved":false,"is_disabled":false,"rental_uris":{"android":"levelo://app?vid=52afa911-345b-4738-93d5-6ab8109aaded","ios":"levelo://app?vid=52afa911-345b-4738-93d5-6ab8109aaded"},"vehicle_type_id":"4","last_reported":1751483283,"current_range_meters":19200,"station_id":"ce4bhnh2rcd13ifvqgug","pricing_plan_id":"cebpf4jnsgd1na2vs0mg"},{"bike_id":"42d67590-34b2-45f7-bbcc-773c40041700","system_id":"levelo_inurba_marseille","lat":43.27373,"lon":5.36255,"is_reserved":false,"is_disabled":false,"rental_uris":{"android":"levelo://app?vid=42d67590-34b2-45f7-bbcc-773c40041700","ios":"levelo://app?vid=42d67590-34b2-45f7-bbcc-773c40041700"},"vehicle_type_id":"4","last_reported":1751483283,"current_range_meters":19600,"station_id":"ce4bhbh2rcd13ifvqeo0","pricing_plan_id":"cebpf4jnsgd1na2vs0mg"},{"bike_id":"db714f02-8001-440b-a547-d12772041185","system_id":"levelo_inurba_marseille","lat":43.29218,"lon":5.36036,"is_reserved":false,"is_disabled":false,"rental_uris":{"android":"levelo://app?vid=db714f02-8001-440b-a547-d12772041185","ios":"levelo://app?vid=db714f02-8001-440b-a547-d12772041185"},"vehicle_type_id":"4","last_reported":1751483283,"current_range_meters":19600,"station_id":"ce4bhbh2rcd13ifvqeqg","pricing_plan_id":"cebpf4jnsgd1na2vs0mg"},{"bike_id":"9c4f9a2d-b455-431d-a8b6-b8f482f5e447","system_id":"levelo_inurba_marseille","lat":43.25511,"lon":5.37609,"is_reserved":false,"is_disabled":false,"rental_uris":{"android":"levelo://app?vid=9c4f9a2d-b455-431d-a8b6-b8f482f5e447","ios":"levelo://app?vid=9c4f9a2d-b455-431d-a8b6-b8f482f5e447"},"vehicle_type_id":"4","last_reported":1751483283,"current_range_meters":19600,"station_id":"ce4bhh12rcd13ifvqff0","pricing_plan_id":"cebpf4jnsgd1na2vs0mg"},{"bike_id":"4a26da48-6d64-48f0-a9c6-924a94afaf2b","system_id":"levelo_inurba_marseille","lat":43.2509,"lon":5.3953,"is_reserved":false,"is_disabled":false,"rental_uris":{"android":"levelo://app?vid=4a26da48-6d64-48f0-a9c6-924a94afaf2b","ios":"levelo://app?vid=4a26da48-6d64-48f0-a9c6-924a94afaf2b"},"vehicle_type_id":"4","last_reported":1751483283,"current_range_meters":19600,"station_id":"ce4bhm12rcd13ifvqgkg","pricing_plan_id":"cebpf4jnsgd1na2vs0mg"},{"bike_id":"21e2c51d-4563-4efd-afbf-0ddeff93c862","system_id":"levelo_inurba_marseille","lat":43.2177,"lon":5.34592,"is_reserved":false,"is_disabled":false,"rental_uris":{"android":"levelo://app?vid=21e2c51d-4563-4efd-afbf-0ddeff93c862","ios":"levelo://app?vid=21e2c51d-4563-4efd-afbf-0ddeff93c862"},"vehicle_type_id":"4","last_reported":1751483283,"current_range_meters":19600,"station_id":"st_cvj6r9ubvosntc0bgbag","pricing_plan_id":"cebpf4jnsgd1na2vs0mg"},{"bike_id":"4d4995e7-0bba-4ac2-a238-afd84a5e99b5","system_id":"levelo_inurba_marseille","lat":43.304848,"lon":5.398345,"is_reserved":false,"is_disabled":false,"rental_uris":{"android":"levelo://app?vid=4d4995e7-0bba-4ac2-a238-afd84a5e99b5","ios":"levelo://app?vid=4d4995e7-0bba-4ac2-a238-afd84a5e99b5"},"vehicle_type_id":"4","last_reported":1751483283,"current_range_meters":20000,"station_id":"","pricing_plan_id":"cebpf4jnsgd1na2vs0mg"},{"bike_id":"50bb0fdb-2cc1-4d8d-af26-b7febba54985","system_id":"levelo_inurba_marseille","lat":43.274139,"lon":5.39007,"is_reserved":false,"is_disabled":false,"rental_uris":{"android":"levelo://app?vid=50bb0fdb-2cc1-4d8d-af26-b7febba54985","ios":"levelo://app?vid=50bb0fdb-2cc1-4d8d-af26-b7febba54985"},"vehicle_type_id":"4","last_reported":1751483283,"current_range_meters":20000,"station_id":"","pricing_plan_id":"cebpf4jnsgd1na2vs0mg"},{"bike_id":"949f407a-092c-4a21-903f-c2653f47d9cb","system_id":"levelo_inurba_marseille","lat":43.28362,"lon":5.38622,"is_reserved":false,"is_disabled":false,"rental_uris":{"android":"levelo://app?vid=949f407a-092c-4a21-903f-c2653f47d9cb","ios":"levelo://app?vid=949f407a-092c-4a21-903f-c2653f47d9cb"},"vehicle_type_id":"4","last_reported":1751483283,"current_range_meters":20000,"station_id":"ce4bh492rcd13ifvqdvg","pricing_plan_id":"cebpf4jnsgd1na2vs0mg"},{"bike_id":"92ce571e-8bb4-4eab-9f9e-809fb7433bc6","system_id":"levelo_inurba_marseille","lat":43.2738,"lon":5.36251,"is_reserved":false,"is_disabled":false,"rental_uris":{"android":"levelo://app?vid=92ce571e-8bb4-4eab-9f9e-809fb7433bc6","ios":"levelo://app?vid=92ce571e-8bb4-4eab-9f9e-809fb7433bc6"},"vehicle_type_id":"4","last_reported":1751483283,"current_range_meters":20000,"station_id":"ce4bhbh2rcd13ifvqeo0","pricing_plan_id":"cebpf4jnsgd1na2vs0mg"},{"bike_id":"cac7d05f-f835-46b3-a4b3-aea6ff778f71","system_id":"levelo_inurba_marseille","lat":43.25825,"lon":5.39439,"is_reserved":false,"is_disabled":false,"rental_uris":{"android":"levelo://app?vid=cac7d05f-f835-46b3-a4b3-aea6ff778f71","ios":"levelo://app?vid=cac7d05f-f835-46b3-a4b3-aea6ff778f71"},"vehicle_type_id":"4","last_reported":1751483283,"current_range_meters":20000,"station_id":"ce4bhip2rcd13ifvqft0","pricing_plan_id":"cebpf4jnsgd1na2vs0mg"},{"bike_id":"3dc356e6-98e7-4332-9d76-7fb5ca548e76","system_id":"levelo_inurba_marseille","lat":43.24186,"lon":5.36372,"is_reserved":false,"is_disabled":false,"rental_uris":{"android":"levelo://app?vid=3dc356e6-98e7-4332-9d76-7fb5ca548e76","ios":"levelo://app?vid=3dc356e6-98e7-4332-9d76-7fb5ca548e76"},"vehicle_type_id":"4","last_reported":1751483283,"current_range_meters":20000,"station_id":"cpo36qri1sfpv3e86is0","pricing_plan_id":"cebpf4jnsgd1na2vs0mg"},{"bike_id":"a6715104-7492-4ec6-a996-23050baf8551","system_id":"levelo_inurba_marseille","lat":43.224994,"lon":5.347751,"is_reserved":false,"is_disabled":false,"rental_uris":{"android":"levelo://app?vid=a6715104-7492-4ec6-a996-23050baf8551","ios":"levelo://app?vid=a6715104-7492-4ec6-a996-23050baf8551"},"vehicle_type_id":"4","last_reported":1751483283,"current_range_meters":20000,"station_id":"st_cvj5dfep6f1abm77gieg","pricing_plan_id":"cebpf4jnsgd1na2vs0mg"},{"bike_id":"7e21e8f2-09c8-4cc5-8113-278ebd23888d","system_id":"levelo_inurba_marseille","lat":43.21184,"lon":5.35064,"is_reserved":false,"is_disabled":false,"rental_uris":{"android":"levelo://app?vid=7e21e8f2-09c8-4cc5-8113-278ebd23888d","ios":"levelo://app?vid=7e21e8f2-09c8-4cc5-8113-278ebd23888d"},"vehicle_type_id":"4","last_reported":1751483283,"current_range_meters":20000,"station_id":"st_cvj6sg6p6f1abm77japg","pricing_plan_id":"cebpf4jnsgd1na2vs0mg"},{"bike_id":"110ab8c1-89ef-48b1-a62f-8bef36cec47e","system_id":"levelo_inurba_marseille","lat":43.29848,"lon":5.36278,"is_reserved":false,"is_disabled":false,"rental_uris":{"android":"levelo://app?vid=110ab8c1-89ef-48b1-a62f-8bef36cec47e","ios":"levelo://app?vid=110ab8c1-89ef-48b1-a62f-8bef36cec47e"},"vehicle_type_id":"4","last_reported":1751483283,"current_range_meters":20400,"station_id":"ce4bgpp2rcd13ifvqc3g","pricing_plan_id":"cebpf4jnsgd1na2vs0mg"},{"bike_id":"109ac48f-4fb2-49c4-9a32-2053458da9ea","system_id":"levelo_inurba_marseille","lat":43.30928,"lon":5.40139,"is_reserved":false,"is_disabled":false,"rental_uris":{"android":"levelo://app?vid=109ac48f-4fb2-49c4-9a32-2053458da9ea","ios":"levelo://app?vid=109ac48f-4fb2-49c4-9a32-2053458da9ea"},"vehicle_type_id":"4","last_reported":1751483283,"current_range_meters":20400,"station_id":"ce4bgvp2rcd13ifvqct0","pricing_plan_id":"cebpf4jnsgd1na2vs0mg"},{"bike_id":"8f868f42-19df-4e4d-b3e0-a0a82996908a","system_id":"levelo_inurba_marseille","lat":43.28398,"lon":5.34945,"is_reserved":false,"is_disabled":false,"rental_uris":{"android":"levelo://app?vid=8f868f42-19df-4e4d-b3e0-a0a82996908a","ios":"levelo://app?vid=8f868f42-19df-4e4d-b3e0-a0a82996908a"},"vehicle_type_id":"4","last_reported":1751483283,"current_range_meters":20400,"station_id":"ce4bhbh2rcd13ifvqepg","pricing_plan_id":"cebpf4jnsgd1na2vs0mg"},{"bike_id":"4133a128-498f-4833-be65-a8cfce0b7ca0","system_id":"levelo_inurba_marseille","lat":43.28416,"lon":5.34981,"is_reserved":false,"is_disabled":false,"rental_uris":{"android":"levelo://app?vid=4133a128-498f-4833-be65-a8cfce0b7ca0","ios":"levelo://app?vid=4133a128-498f-4833-be65-a8cfce0b7ca0"},"vehicle_type_id":"4","last_reported":1751483283,"current_range_meters":20400,"station_id":"ce4bhbh2rcd13ifvqepg","pricing_plan_id":"cebpf4jnsgd1na2vs0mg"},{"bike_id":"f1d60942-f1e1-4d98-9fd4-53066a986a39","system_id":"levelo_inurba_marseille","lat":43.2865,"lon":5.35076,"is_reserved":false,"is_disabled":false,"rental_uris":{"android":"levelo://app?vid=f1d60942-f1e1-4d98-9fd4-53066a986a39","ios":"levelo://app?vid=f1d60942-f1e1-4d98-9fd4-53066a986a39"},"vehicle_type_id":"4","last_reported":1751483283,"current_range_meters":20400,"station_id":"ce4bhch2rcd13ifvqeug","pricing_plan_id":"cebpf4jnsgd1na2vs0mg"},{"bike_id":"205ecc0b-9432-4620-98d2-864e84b14e39","system_id":"levelo_inurba_marseille","lat":43.32339,"lon":5.40624,"is_reserved":false,"is_disabled":false,"rental_uris":{"android":"levelo://app?vid=205ecc0b-9432-4620-98d2-864e84b14e39","ios":"levelo://app?vid=205ecc0b-9432-4620-98d2-864e84b14e39"},"vehicle_type_id":"4","last_reported":1751483283,"current_range_meters":20400,"station_id":"ce4bhq92rcd13ifvqhjg","pricing_plan_id":"cebpf4jnsgd1na2vs0mg"},{"bike_id":"b2ce53ca-166b-417e-9d70-9bee393f75bb","system_id":"levelo_inurba_marseille","lat":43.21218,"lon":5.35072,"is_reserved":false,"is_disabled":false,"rental_uris":{"android":"levelo://app?vid=b2ce53ca-166b-417e-9d70-9bee393f75bb","ios":"levelo://app?vid=b2ce53ca-166b-417e-9d70-9bee393f75bb"},"vehicle_type_id":"4","last_reported":1751483283,"current_range_meters":20400,"station_id":"st_cvj6sg6p6f1abm77japg","pricing_plan_id":"cebpf4jnsgd1na2vs0mg"},{"bike_id":"b9812e65-0f9b-4fd9-86d3-a885abeb02b5","system_id":"levelo_inurba_marseille","lat":43.29301,"lon":5.37164,"is_reserved":false,"is_disabled":false,"rental_uris":{"android":"levelo://app?vid=b9812e65-0f9b-4fd9-86d3-a885abeb02b5","ios":"levelo://app?vid=b9812e65-0f9b-4fd9-86d3-a885abeb02b5"},"vehicle_type_id":"4","last_reported":1751483283,"current_range_meters":20800,"station_id":"ce4bgh92rcd13ifvqb40","pricing_plan_id":"cebpf4jnsgd1na2vs0mg"},{"bike_id":"4d7fdc9a-2a05-4cb1-8988-e6e1a2eae090","system_id":"levelo_inurba_marseille","lat":43.29847,"lon":5.36279,"is_reserved":false,"is_disabled":false,"rental_uris":{"android":"levelo://app?vid=4d7fdc9a-2a05-4cb1-8988-e6e1a2eae090","ios":"levelo://app?vid=4d7fdc9a-2a05-4cb1-8988-e6e1a2eae090"},"vehicle_type_id":"4","last_reported":1751483283,"current_range_meters":20800,"station_id":"ce4bgpp2rcd13ifvqc3g","pricing_plan_id":"cebpf4jnsgd1na2vs0mg"},{"bike_id":"cc04118e-9312-4bf8-9106-d64e829afbaa","system_id":"levelo_inurba_marseille","lat":43.21198,"lon":5.35047,"is_reserved":false,"is_disabled":false,"rental_uris":{"android":"levelo://app?vid=cc04118e-9312-4bf8-9106-d64e829afbaa","ios":"levelo://app?vid=cc04118e-9312-4bf8-9106-d64e829afbaa"},"vehicle_type_id":"4","last_reported":1751483283,"current_range_meters":20800,"station_id":"st_cvj6sg6p6f1abm77japg","pricing_plan_id":"cebpf4jnsgd1na2vs0mg"},{"bike_id":"1c8ab180-05fd-405f-9922-b2b2c2d5142f","system_id":"levelo_inurba_marseille","lat":43.337858,"lon":5.381209,"is_reserved":false,"is_disabled":false,"rental_uris":{"android":"levelo://app?vid=1c8ab180-05fd-405f-9922-b2b2c2d5142f","ios":"levelo://app?vid=1c8ab180-05fd-405f-9922-b2b2c2d5142f"},"vehicle_type_id":"4","last_reported":1751483283,"current_range_meters":21600,"station_id":"","pricing_plan_id":"cebpf4jnsgd1na2vs0mg"},{"bike_id":"a2ed22fc-ce15-4775-83f3-a8370096e111","system_id":"levelo_inurba_marseille","lat":43.2968,"lon":5.37282,"is_reserved":false,"is_disabled":false,"rental_uris":{"android":"levelo://app?vid=a2ed22fc-ce15-4775-83f3-a8370096e111","ios":"levelo://app?vid=a2ed22fc-ce15-4775-83f3-a8370096e111"},"vehicle_type_id":"4","last_reported":1751483283,"current_range_meters":21600,"station_id":"ce4bgk12rcd13ifvqbj0","pricing_plan_id":"cebpf4jnsgd1na2vs0mg"},{"bike_id":"99ab0faa-1b0d-4196-ab49-0b45780bea12","system_id":"levelo_inurba_marseille","lat":43.29839,"lon":5.362693,"is_reserved":false,"is_disabled":false,"rental_uris":{"android":"levelo://app?vid=99ab0faa-1b0d-4196-ab49-0b45780bea12","ios":"levelo://app?vid=99ab0faa-1b0d-4196-ab49-0b45780bea12"},"vehicle_type_id":"4","last_reported":1751483283,"current_range_meters":21600,"station_id":"ce4bgpp2rcd13ifvqc3g","pricing_plan_id":"cebpf4jnsgd1na2vs0mg"},{"bike_id":"7460286e-aa72-4286-bc65-20bbd8e2abf5","system_id":"levelo_inurba_marseille","lat":43.28675,"lon":5.38656,"is_reserved":false,"is_disabled":false,"rental_uris":{"android":"levelo://app?vid=7460286e-aa72-4286-bc65-20bbd8e2abf5","ios":"levelo://app?vid=7460286e-aa72-4286-bc65-20bbd8e2abf5"},"vehicle_type_id":"4","last_reported":1751483283,"current_range_meters":21600,"station_id":"ce4bh492rcd13ifvqdug","pricing_plan_id":"cebpf4jnsgd1na2vs0mg"},{"bike_id":"cca7be64-d105-4355-ad4d-0780023c7cab","system_id":"levelo_inurba_marseille","lat":43.284353,"lon":5.349716,"is_reserved":false,"is_disabled":false,"rental_uris":{"android":"levelo://app?vid=cca7be64-d105-4355-ad4d-0780023c7cab","ios":"levelo://app?vid=cca7be64-d105-4355-ad4d-0780023c7cab"},"vehicle_type_id":"4","last_reported":1751483283,"current_range_meters":21600,"station_id":"ce4bhbh2rcd13ifvqepg","pricing_plan_id":"cebpf4jnsgd1na2vs0mg"},{"bike_id":"ce491817-c1e8-41b3-8d2e-048ec5493583","system_id":"levelo_inurba_marseille","lat":43.28265,"lon":5.35056,"is_reserved":false,"is_disabled":false,"rental_uris":{"android":"levelo://app?vid=ce491817-c1e8-41b3-8d2e-048ec5493583","ios":"levelo://app?vid=ce491817-c1e8-41b3-8d2e-048ec5493583"},"vehicle_type_id":"4","last_reported":1751483283,"current_range_meters":21600,"station_id":"ce4bhbp2rcd13ifvqerg","pricing_plan_id":"cebpf4jnsgd1na2vs0mg"},{"bike_id":"e1655317-116c-4782-97ee-5f36abec8757","system_id":"levelo_inurba_marseille","lat":43.29877,"lon":5.38891,"is_reserved":false,"is_disabled":false,"rental_uris":{"android":"levelo://app?vid=e1655317-116c-4782-97ee-5f36abec8757","ios":"levelo://app?vid=e1655317-116c-4782-97ee-5f36abec8757"},"vehicle_type_id":"4","last_reported":1751483283,"current_range_meters":22000,"station_id":"ce4bh392rcd13ifvqdl0","pricing_plan_id":"cebpf4jnsgd1na2vs0mg"},{"bike_id":"88bc9fc6-0ecb-4c97-9d55-78e6fc2b9c68","system_id":"levelo_inurba_marseille","lat":43.29296,"lon":5.37459,"is_reserved":false,"is_disabled":false,"rental_uris":{"android":"levelo://app?vid=88bc9fc6-0ecb-4c97-9d55-78e6fc2b9c68","ios":"levelo://app?vid=88bc9fc6-0ecb-4c97-9d55-78e6fc2b9c68"},"vehicle_type_id":"4","last_reported":1751483283,"current_range_meters":22400,"station_id":"ce4bgi12rcd13ifvqb70","pricing_plan_id":"cebpf4jnsgd1na2vs0mg"},{"bike_id":"3d8dfa12-4174-4b8d-afd2-e610d8bbce59","system_id":"levelo_inurba_marseille","lat":43.27382,"lon":5.36253,"is_reserved":false,"is_disabled":false,"rental_uris":{"android":"levelo://app?vid=3d8dfa12-4174-4b8d-afd2-e610d8bbce59","ios":"levelo://app?vid=3d8dfa12-4174-4b8d-afd2-e610d8bbce59"},"vehicle_type_id":"4","last_reported":1751483283,"current_range_meters":22400,"station_id":"ce4bhbh2rcd13ifvqeo0","pricing_plan_id":"cebpf4jnsgd1na2vs0mg"},{"bike_id":"0dbbfd7c-5e93-4301-aea8-6d89ce7ed33b","system_id":"levelo_inurba_marseille","lat":43.2175,"lon":5.34594,"is_reserved":false,"is_disabled":false,"rental_uris":{"android":"levelo://app?vid=0dbbfd7c-5e93-4301-aea8-6d89ce7ed33b","ios":"levelo://app?vid=0dbbfd7c-5e93-4301-aea8-6d89ce7ed33b"},"vehicle_type_id":"4","last_reported":1751483283,"current_range_meters":22400,"station_id":"st_cvj6r9ubvosntc0bgbag","pricing_plan_id":"cebpf4jnsgd1na2vs0mg"},{"bike_id":"902b84f0-3fe0-4173-92ee-fd2edfab1aa5","system_id":"levelo_inurba_marseille","lat":43.29532,"lon":5.38536,"is_reserved":false,"is_disabled":false,"rental_uris":{"android":"levelo://app?vid=902b84f0-3fe0-4173-92ee-fd2edfab1aa5","ios":"levelo://app?vid=902b84f0-3fe0-4173-92ee-fd2edfab1aa5"},"vehicle_type_id":"4","last_reported":1751483283,"current_range_meters":22800,"station_id":"ce4bgih2rcd13ifvqba0","pricing_plan_id":"cebpf4jnsgd1na2vs0mg"},{"bike_id":"bf563b61-1290-47ba-9ac7-7634a25e5b3e","system_id":"levelo_inurba_marseille","lat":43.28426,"lon":5.34982,"is_reserved":false,"is_disabled":false,"rental_uris":{"android":"levelo://app?vid=bf563b61-1290-47ba-9ac7-7634a25e5b3e","ios":"levelo://app?vid=bf563b61-1290-47ba-9ac7-7634a25e5b3e"},"vehicle_type_id":"4","last_reported":1751483283,"current_range_meters":22800,"station_id":"ce4bhbh2rcd13ifvqepg","pricing_plan_id":"cebpf4jnsgd1na2vs0mg"},{"bike_id":"4ee0c84b-5139-4ef4-b8fe-2befea0f720e","system_id":"levelo_inurba_marseille","lat":43.24381,"lon":5.37065,"is_reserved":false,"is_disabled":false,"rental_uris":{"android":"levelo://app?vid=4ee0c84b-5139-4ef4-b8fe-2befea0f720e","ios":"levelo://app?vid=4ee0c84b-5139-4ef4-b8fe-2befea0f720e"},"vehicle_type_id":"4","last_reported":1751483283,"current_range_meters":22800,"station_id":"ce4bhhh2rcd13ifvqfk0","pricing_plan_id":"cebpf4jnsgd1na2vs0mg"},{"bike_id":"7df24b51-ffbd-4253-8e5d-c7f2159fca55","system_id":"levelo_inurba_marseille","lat":43.31996,"lon":5.38154,"is_reserved":false,"is_disabled":false,"rental_uris":{"android":"levelo://app?vid=7df24b51-ffbd-4253-8e5d-c7f2159fca55","ios":"levelo://app?vid=7df24b51-ffbd-4253-8e5d-c7f2159fca55"},"vehicle_type_id":"4","last_reported":1751483283,"current_range_meters":22800,"station_id":"ce4bhr12rcd13ifvqhpg","pricing_plan_id":"cebpf4jnsgd1na2vs0mg"},{"bike_id":"32c0fc37-6823-41d0-9497-8d1eea24742c","system_id":"levelo_inurba_marseille","lat":43.24173,"lon":5.36394,"is_reserved":false,"is_disabled":false,"rental_uris":{"android":"levelo://app?vid=32c0fc37-6823-41d0-9497-8d1eea24742c","ios":"levelo://app?vid=32c0fc37-6823-41d0-9497-8d1eea24742c"},"vehicle_type_id":"4","last_reported":1751483283,"current_range_meters":22800,"station_id":"cpo36qri1sfpv3e86is0","pricing_plan_id":"cebpf4jnsgd1na2vs0mg"},{"bike_id":"5f1e5526-9ff8-4075-8194-48a897f058b4","system_id":"levelo_inurba_marseille","lat":43.211828,"lon":5.350761,"is_reserved":false,"is_disabled":false,"rental_uris":{"android":"levelo://app?vid=5f1e5526-9ff8-4075-8194-48a897f058b4","ios":"levelo://app?vid=5f1e5526-9ff8-4075-8194-48a897f058b4"},"vehicle_type_id":"4","last_reported":1751483283,"current_range_meters":22800,"station_id":"st_cvj6sg6p6f1abm77japg","pricing_plan_id":"cebpf4jnsgd1na2vs0mg"},{"bike_id":"3eabe1e2-f9f5-41cb-a4ed-73ca7f909c5c","system_id":"levelo_inurba_marseille","lat":43.21193,"lon":5.350723,"is_reserved":false,"is_disabled":false,"rental_uris":{"android":"levelo://app?vid=3eabe1e2-f9f5-41cb-a4ed-73ca7f909c5c","ios":"levelo://app?vid=3eabe1e2-f9f5-41cb-a4ed-73ca7f909c5c"},"vehicle_type_id":"4","last_reported":1751483283,"current_range_meters":22800,"station_id":"st_cvj6sg6p6f1abm77japg","pricing_plan_id":"cebpf4jnsgd1na2vs0mg"},{"bike_id":"594845cb-d7da-4a2b-b7a7-f2ab2edc44ce","system_id":"levelo_inurba_marseille","lat":43.29271,"lon":5.38443,"is_reserved":false,"is_disabled":false,"rental_uris":{"android":"levelo://app?vid=594845cb-d7da-4a2b-b7a7-f2ab2edc44ce","ios":"levelo://app?vid=594845cb-d7da-4a2b-b7a7-f2ab2edc44ce"},"vehicle_type_id":"4","last_reported":1751483283,"current_range_meters":23200,"station_id":"ce4bh692rcd13ifvqea0","pricing_plan_id":"cebpf4jnsgd1na2vs0mg"},{"bike_id":"bcdb1cc2-4215-4c6a-840b-fbc66ed28f30","system_id":"levelo_inurba_marseille","lat":43.284163,"lon":5.349816,"is_reserved":false,"is_disabled":false,"rental_uris":{"android":"levelo://app?vid=bcdb1cc2-4215-4c6a-840b-fbc66ed28f30","ios":"levelo://app?vid=bcdb1cc2-4215-4c6a-840b-fbc66ed28f30"},"vehicle_type_id":"4","last_reported":1751483283,"current_range_meters":23200,"station_id":"ce4bhbh2rcd13ifvqepg","pricing_plan_id":"cebpf4jnsgd1na2vs0mg"},{"bike_id":"661940a4-e629-46fc-820f-3c79ff26f748","system_id":"levelo_inurba_marseille","lat":43.28264,"lon":5.35056,"is_reserved":false,"is_disabled":false,"rental_uris":{"android":"levelo://app?vid=661940a4-e629-46fc-820f-3c79ff26f748","ios":"levelo://app?vid=661940a4-e629-46fc-820f-3c79ff26f748"},"vehicle_type_id":"4","last_reported":1751483283,"current_range_meters":23200,"station_id":"ce4bhbp2rcd13ifvqerg","pricing_plan_id":"cebpf4jnsgd1na2vs0mg"},{"bike_id":"cf11fe81-1d96-4f7f-a0fa-cad6a486d01d","system_id":"levelo_inurba_marseille","lat":43.28169,"lon":5.42612,"is_reserved":false,"is_disabled":false,"rental_uris":{"android":"levelo://app?vid=cf11fe81-1d96-4f7f-a0fa-cad6a486d01d","ios":"levelo://app?vid=cf11fe81-1d96-4f7f-a0fa-cad6a486d01d"},"vehicle_type_id":"4","last_reported":1751483283,"current_range_meters":23200,"station_id":"ce4bhnh2rcd13ifvqgug","pricing_plan_id":"cebpf4jnsgd1na2vs0mg"},{"bike_id":"ba926bfc-9632-4680-b0ed-32a040d6fb83","system_id":"levelo_inurba_marseille","lat":43.21195,"lon":5.35076,"is_reserved":false,"is_disabled":false,"rental_uris":{"android":"levelo://app?vid=ba926bfc-9632-4680-b0ed-32a040d6fb83","ios":"levelo://app?vid=ba926bfc-9632-4680-b0ed-32a040d6fb83"},"vehicle_type_id":"4","last_reported":1751483283,"current_range_meters":23200,"station_id":"st_cvj6sg6p6f1abm77japg","pricing_plan_id":"cebpf4jnsgd1na2vs0mg"},{"bike_id":"b13877a6-4825-4d82-b46b-67fa8ad66c5d","system_id":"levelo_inurba_marseille","lat":43.21195,"lon":5.35051,"is_reserved":false,"is_disabled":false,"rental_uris":{"android":"levelo://app?vid=b13877a6-4825-4d82-b46b-67fa8ad66c5d","ios":"levelo://app?vid=b13877a6-4825-4d82-b46b-67fa8ad66c5d"},"vehicle_type_id":"4","last_reported":1751483283,"current_range_meters":23200,"station_id":"st_cvj6sg6p6f1abm77japg","pricing_plan_id":"cebpf4jnsgd1na2vs0mg"},{"bike_id":"7712491c-e18b-4b09-bb79-30880b357c07","system_id":"levelo_inurba_marseille","lat":43.21191,"lon":5.35074,"is_reserved":false,"is_disabled":false,"rental_uris":{"android":"levelo://app?vid=7712491c-e18b-4b09-bb79-30880b357c07","ios":"levelo://app?vid=7712491c-e18b-4b09-bb79-30880b357c07"},"vehicle_type_id":"4","last_reported":1751483283,"current_range_meters":23200,"station_id":"st_cvj6sg6p6f1abm77japg","pricing_plan_id":"cebpf4jnsgd1na2vs0mg"},{"bike_id":"7c2d3b9b-2c34-44bf-aa31-741713e7a907","system_id":"levelo_inurba_marseille","lat":43.27202,"lon":5.3918,"is_reserved":false,"is_disabled":false,"rental_uris":{"android":"levelo://app?vid=7c2d3b9b-2c34-44bf-aa31-741713e7a907","ios":"levelo://app?vid=7c2d3b9b-2c34-44bf-aa31-741713e7a907"},"vehicle_type_id":"4","last_reported":1751483283,"current_range_meters":24000,"station_id":"ce4bhhp2rcd13ifvqfm0","pricing_plan_id":"cebpf4jnsgd1na2vs0mg"},{"bike_id":"b99de038-ebcc-4ad7-9557-b1dacd2708d6","system_id":"levelo_inurba_marseille","lat":43.27493,"lon":5.4245,"is_reserved":false,"is_disabled":false,"rental_uris":{"android":"levelo://app?vid=b99de038-ebcc-4ad7-9557-b1dacd2708d6","ios":"levelo://app?vid=b99de038-ebcc-4ad7-9557-b1dacd2708d6"},"vehicle_type_id":"4","last_reported":1751483283,"current_range_meters":24000,"station_id":"ce4bhn92rcd13ifvqgrg","pricing_plan_id":"cebpf4jnsgd1na2vs0mg"},{"bike_id":"b3d7a6ac-4ad8-404e-91ae-53d96dbbd9fb","system_id":"levelo_inurba_marseille","lat":43.21193,"lon":5.35075,"is_reserved":false,"is_disabled":false,"rental_uris":{"android":"levelo://app?vid=b3d7a6ac-4ad8-404e-91ae-53d96dbbd9fb","ios":"levelo://app?vid=b3d7a6ac-4ad8-404e-91ae-53d96dbbd9fb"},"vehicle_type_id":"4","last_reported":1751483283,"current_range_meters":24000,"station_id":"st_cvj6sg6p6f1abm77japg","pricing_plan_id":"cebpf4jnsgd1na2vs0mg"},{"bike_id":"128024c8-ebfb-4db3-b611-6caf91966db8","system_id":"levelo_inurba_marseille","lat":43.28433,"lon":5.34982,"is_reserved":false,"is_disabled":false,"rental_uris":{"android":"levelo://app?vid=128024c8-ebfb-4db3-b611-6caf91966db8","ios":"levelo://app?vid=128024c8-ebfb-4db3-b611-6caf91966db8"},"vehicle_type_id":"4","last_reported":1751483283,"current_range_meters":24400,"station_id":"ce4bhbh2rcd13ifvqepg","pricing_plan_id":"cebpf4jnsgd1na2vs0mg"},{"bike_id":"16adc075-02a0-45bf-a4e0-511ee37b3e6f","system_id":"levelo_inurba_marseille","lat":43.28404,"lon":5.34987,"is_reserved":false,"is_disabled":false,"rental_uris":{"android":"levelo://app?vid=16adc075-02a0-45bf-a4e0-511ee37b3e6f","ios":"levelo://app?vid=16adc075-02a0-45bf-a4e0-511ee37b3e6f"},"vehicle_type_id":"4","last_reported":1751483283,"current_range_meters":24400,"station_id":"ce4bhbh2rcd13ifvqepg","pricing_plan_id":"cebpf4jnsgd1na2vs0mg"},{"bike_id":"d719dba5-2cfd-4bd0-8ab8-2954eb1c3cfa","system_id":"levelo_inurba_marseille","lat":43.24811,"lon":5.37458,"is_reserved":false,"is_disabled":false,"rental_uris":{"android":"levelo://app?vid=d719dba5-2cfd-4bd0-8ab8-2954eb1c3cfa","ios":"levelo://app?vid=d719dba5-2cfd-4bd0-8ab8-2954eb1c3cfa"},"vehicle_type_id":"4","last_reported":1751483283,"current_range_meters":24400,"station_id":"ce4bhgh2rcd13ifvqfb0","pricing_plan_id":"cebpf4jnsgd1na2vs0mg"},{"bike_id":"567e9975-ae04-4a3d-ae0a-c4f4ba9f1228","system_id":"levelo_inurba_marseille","lat":43.2467,"lon":5.38162,"is_reserved":false,"is_disabled":false,"rental_uris":{"android":"levelo://app?vid=567e9975-ae04-4a3d-ae0a-c4f4ba9f1228","ios":"levelo://app?vid=567e9975-ae04-4a3d-ae0a-c4f4ba9f1228"},"vehicle_type_id":"4","last_reported":1751483283,"current_range_meters":24400,"station_id":"ce4bhih2rcd13ifvqfr0","pricing_plan_id":"cebpf4jnsgd1na2vs0mg"},{"bike_id":"c9cd1ed4-febf-4f0f-8537-8f86861c9beb","system_id":"levelo_inurba_marseille","lat":43.21199,"lon":5.3507,"is_reserved":false,"is_disabled":false,"rental_uris":{"android":"levelo://app?vid=c9cd1ed4-febf-4f0f-8537-8f86861c9beb","ios":"levelo://app?vid=c9cd1ed4-febf-4f0f-8537-8f86861c9beb"},"vehicle_type_id":"4","last_reported":1751483283,"current_range_meters":24400,"station_id":"st_cvj6sg6p6f1abm77japg","pricing_plan_id":"cebpf4jnsgd1na2vs0mg"},{"bike_id":"4b8da722-ee9e-48a4-a5e5-3a8a10364708","system_id":"levelo_inurba_marseille","lat":43.31224,"lon":5.37823,"is_reserved":false,"is_disabled":false,"rental_uris":{"android":"levelo://app?vid=4b8da722-ee9e-48a4-a5e5-3a8a10364708","ios":"levelo://app?vid=4b8da722-ee9e-48a4-a5e5-3a8a10364708"},"vehicle_type_id":"4","last_reported":1751483283,"current_range_meters":24800,"station_id":"","pricing_plan_id":"cebpf4jnsgd1na2vs0mg"},{"bike_id":"99b8138d-cd34-4aa2-850f-5f628a35c384","system_id":"levelo_inurba_marseille","lat":43.290708,"lon":5.35579,"is_reserved":false,"is_disabled":false,"rental_uris":{"android":"levelo://app?vid=99b8138d-cd34-4aa2-850f-5f628a35c384","ios":"levelo://app?vid=99b8138d-cd34-4aa2-850f-5f628a35c384"},"vehicle_type_id":"4","last_reported":1751483283,"current_range_meters":24800,"station_id":"","pricing_plan_id":"cebpf4jnsgd1na2vs0mg"},