{"last_updated":1692533443,"ttl":30,"version":"2.2","data":{"bikes":[{"bike_id":"918f4bff-7103-4127-9e5a-a0986304de4a","system_id":"levelo_inurba_marseille","lat":43.313391,"lon":5.36706,"is_reserved":false,"is_disabled":false,"rental_uris":{"android":"levelo://app?vid=918f4bff-7103-4127-9e5a-a0986304de4a","ios":"levelo://app?vid=918f4bff-7103-4127-9e5a-a0986304de4a"},"vehicle_type_id":"4","last_reported":1692533443,"current_range_meters":11200,"station_id":"ce4bgr92rcd13ifvqc6g","pricing_plan_id":"free"},{"bike_id":"f22ca441-4e4e-4660-b824-b2f46943e54d","system_id":"levelo_inurba_marseille","lat":43.312239,"lon":5.368562,"is_reserved":false,"is_disabled":false,"rental_uris":{"android":"levelo://app?vid=f22ca441-4e4e-4660-b824-b2f46943e54d","ios":"levelo://app?vid=f22ca441-4e4e-4660-b824-b2f46943e54d"},"vehicle_type_id":"4","last_reported":1692533443,"current_range_meters":31200,"station_id":"ce4bgl92rcd13ifvqbq0","pricing_plan_id":"free"},{"bike_id":"48a41f4b-7b2c-4722-a71e-a6d899dffde5","system_id":"levelo_inurba_marseille","lat":43.314811,"lon":5.373104,"is_reserved":false,"is_disabled":false,"rental_uris":{"android":"levelo://app?vid=48a41f4b-7b2c-4722-a71e-a6d899dffde5","ios":"levelo://app?vid=48a41f4b-7b2c-4722-a71e-a6d899dffde5"},"vehicle_type_id":"4","last_reported":1692533443,"current_range_meters":24400,"station_id":"ce4bgt12rcd13ifvqcd0","pricing_plan_id":"free"},{"bike_id":"4bd20e67-2bc9-44b6-a3aa-a2cb75a88204","system_id":"levelo_inurba_marseille","lat":43.309039,"lon":5.371797,"is_reserved":false,"is_disabled":false,"rental_uris":{"android":"levelo://app?vid=4bd20e67-2bc9-44b6-a3aa-a2cb75a88204","ios":"levelo://app?vid=4bd20e67-2bc9-44b6-a3aa-a2cb75a88204"},"vehicle_type_id":"4","last_reported":1692533443,"current_range_meters":21600,"station_id":"ce4bguh2rcd13ifvqckg","pricing_plan_id":"free"},{"bike_id":"3ef83754-d936-41d2-89b8-20139d70e701","system_id":"levelo_inurba_marseille","lat":43.309039,"lon":5.371797,"is_reserved":false,"is_disabled":false,"rental_uris":{"android":"levelo://app?vid=3ef83754-d936-41d2-89b8-20139d70e701","ios":"levelo://app?vid=3ef83754-d936-41d2-89b8-20139d70e701"},"vehicle_type_id":"4","last_reported":1692533443,"current_range_meters":24800,"station_id":"ce4bguh2rcd13ifvqckg","pricing_plan_id":"free"},{"bike_id":"386ed8e3-b71e-4f68-86af-202c5b76503e","system_id":"levelo_inurba_marseille","lat":43.305368,"lon":5.367343,"is_reserved":false,"is_disabled":false,"rental_uris":{"android":"levelo://app?vid=386ed8e3-b71e-4f68-86af-202c5b76503e","ios":"levelo://app?vid=386ed8e3-b71e-4f68-86af-202c5b76503e"},"vehicle_type_id":"4","last_reported":1692533443,"current_range_meters":20400,"station_id":"ce4bgrp2rcd13ifvqc9g","pricing_plan_id":"free"},{"bike_id":"9fbe6e18-d192-44c2-98b5-cafb68b41aa4","system_id":"levelo_inurba_marseille","lat":43.30537,"lon":5.36526,"is_reserved":false,"is_disabled":false,"rental_uris":{"android":"levelo://app?vid=9fbe6e18-d192-44c2-98b5-cafb68b41aa4","ios":"levelo://app?vid=9fbe6e18-d192-44c2-98b5-cafb68b41aa4"},"vehicle_type_id":"4","last_reported":1692533443,"current_range_meters":6800,"station_id":"ce4bgs12rcd13ifvqcag","pricing_plan_id":"free"},{"bike_id":"5bad46b0-4d6e-4f16-8c87-0f1c9ae20ac9","system_id":"levelo_inurba_marseille","lat":43.31115,"lon":5.37768,"is_reserved":false,"is_disabled":false,"rental_uris":{"android":"levelo://app?vid=5bad46b0-4d6e-4f16-8c87-0f1c9ae20ac9","ios":"levelo://app?vid=5bad46b0-4d6e-4f16-8c87-0f1c9ae20ac9"},"vehicle_type_id":"4","last_reported":1692533443,"current_range_meters":4400,"station_id":"ce4bgt92rcd13ifvqcg0","pricing_plan_id":"free"},{"bike_id":"6057b8e8-8d0b-403a-965d-88b46d24ebed","system_id":"levelo_inurba_marseille","lat":43.303046,"lon":5.368981,"is_reserved":false,"is_disabled":false,"rental_uris":{"android":"levelo://app?vid=6057b8e8-8d0b-403a-965d-88b46d24ebed","ios":"levelo://app?vid=6057b8e8-8d0b-403a-965d-88b46d24ebed"},"vehicle_type_id":"4","last_reported":1692533443,"current_range_meters":1200,"station_id":"ce4bgqh2rcd13ifvqc5g","pricing_plan_id":"free"},{"bike_id":"6534ba99-7c1f-49b2-a380-5c67fdb1609e","system_id":"levelo_inurba_marseille","lat":43.304606,"lon":5.379026,"is_reserved":false,"is_disabled":false,"rental_uris":{"android":"levelo://app?vid=6534ba99-7c1f-49b2-a380-5c67fdb1609e","ios":"levelo://app?vid=6534ba99-7c1f-49b2-a380-5c67fdb1609e"},"vehicle_type_id":"4","last_reported":1692533443,"current_range_meters":29600,"station_id":"ce4bgup2rcd13ifvqcn0","pricing_plan_id":"free"},{"bike_id":"be559227-7e2d-45fb-9dfe-f3271021a1e5","system_id":"levelo_inurba_marseille","lat":43.304606,"lon":5.379026,"is_reserved":false,"is_disabled":false,"rental_uris":{"android":"levelo://app?vid=be559227-7e2d-45fb-9dfe-f3271021a1e5","ios":"levelo://app?vid=be559227-7e2d-45fb-9dfe-f3271021a1e5"},"vehicle_type_id":"4","last_reported":1692533443,"current_range_meters":0,"station_id":"ce4bgup2rcd13ifvqcn0","pricing_plan_id":"free"},{"bike_id":"23b363ca-6369-49f0-aa87-24ef3eb7abb9","system_id":"levelo_inurba_marseille","lat":43.304606,"lon":5.379026,"is_reserved":false,"is_disabled":false,"rental_uris":{"android":"levelo://app?vid=23b363ca-6369-49f0-aa87-24ef3eb7abb9","ios":"levelo://app?vid=23b363ca-6369-49f0-aa87-24ef3eb7abb9"},"vehicle_type_id":"4","last_reported":1692533443,"current_range_meters":11600,"station_id":"ce4bgup2rcd13ifvqcn0","pricing_plan_id":"free"},{"bike_id":"5a1c3bc6-77b4-4d44-b7ac-ea3b96a23af3","system_id":"levelo_inurba_marseille","lat":43.304606,"lon":5.379026,"is_reserved":false,"is_disabled":false,"rental_uris":{"android":"levelo://app?vid=5a1c3bc6-77b4-4d44-b7ac-ea3b96a23af3","ios":"levelo://app?vid=5a1c3bc6-77b4-4d44-b7ac-ea3b96a23af3"},"vehicle_type_id":"4","last_reported":1692533443,"current_range_meters":27200,"station_id":"ce4bgup2rcd13ifvqcn0","pricing_plan_id":"free"},{"bike_id":"062e0c7f-769c-4122-8787-b5cc405aa438","system_id":"levelo_inurba_marseille","lat":43.304606,"lon":5.379026,"is_reserved":false,"is_disabled":false,"rental_uris":{"android":"levelo://app?vid=062e0c7f-769c-4122-8787-b5cc405aa438","ios":"levelo://app?vid=062e0c7f-769c-4122-8787-b5cc405aa438"},"vehicle_type_id":"4","last_reported":1692533443,"current_range_meters":26000,"station_id":"ce4bgup2rcd13ifvqcn0","pricing_plan_id":"free"},{"bike_id":"2f514aaa-cec9-4bfe-9e73-a1c585fe052e","system_id":"levelo_inurba_marseille","lat":43.304606,"lon":5.379026,"is_reserved":false,"is_disabled":false,"rental_uris":{"android":"levelo://app?vid=2f514aaa-cec9-4bfe-9e73-a1c585fe052e","ios":"levelo://app?vid=2f514aaa-cec9-4bfe-9e73-a1c585fe052e"},"vehicle_type_id":"4","last_reported":1692533443,"current_range_meters":29200,"station_id":"ce4bgup2rcd13ifvqcn0","pricing_plan_id":"free"},{"bike_id":"a33b809e-627a-4692-98e3-750c63e2c611","system_id":"levelo_inurba_marseille","lat":43.30141,"lon":5.37411,"is_reserved":false,"is_disabled":false,"rental_uris":{"android":"levelo://app?vid=a33b809e-627a-4692-98e3-750c63e2c611","ios":"levelo://app?vid=a33b809e-627a-4692-98e3-750c63e2c611"},"vehicle_type_id":"4","last_reported":1692533443,"current_range_meters":14800,"station_id":"ce4bgs92rcd13ifvqcc0","pricing_plan_id":"free"},{"bike_id":"691eb5cd-cce2-4571-b5c8-51f23aa69e47","system_id":"levelo_inurba_marseille","lat":43.299222,"lon":5.365554,"is_reserved":false,"is_disabled":false,"rental_uris":{"android":"levelo://app?vid=691eb5cd-cce2-4571-b5c8-51f23aa69e47","ios":"levelo://app?vid=691eb5cd-cce2-4571-b5c8-51f23aa69e47"},"vehicle_type_id":"4","last_reported":1692533443,"current_range_meters":14800,"station_id":"ce4bgm92rcd13ifvqbr0","pricing_plan_id":"free"},{"bike_id":"29002a1f-ac0e-4771-80e4-aaffbb1a0cfe","system_id":"levelo_inurba_marseille","lat":43.299222,"lon":5.365554,"is_reserved":false,"is_disabled":false,"rental_uris":{"android":"levelo://app?vid=29002a1f-ac0e-4771-80e4-aaffbb1a0cfe","ios":"levelo://app?vid=29002a1f-ac0e-4771-80e4-aaffbb1a0cfe"},"vehicle_type_id":"4","last_reported":1692533443,"current_range_meters":25600,"station_id":"ce4bgm92rcd13ifvqbr0","pricing_plan_id":"free"},{"bike_id":"a2e10691-6ac1-483b-8682-40b234e2cdcb","system_id":"levelo_inurba_marseille","lat":43.299222,"lon":5.365554,"is_reserved":false,"is_disabled":false,"rental_uris":{"android":"levelo://app?vid=a2e10691-6ac1-483b-8682-40b234e2cdcb","ios":"levelo://app?vid=a2e10691-6ac1-483b-8682-40b234e2cdcb"},"vehicle_type_id":"4","last_reported":1692533443,"current_range_meters":5200,"station_id":"ce4bgm92rcd13ifvqbr0","pricing_plan_id":"free"},{"bike_id":"cdedfae9-dce6-4606-9562-b17d94b1b98d","system_id":"levelo_inurba_marseille","lat":43.29928,"lon":5.36537,"is_reserved":false,"is_disabled":false,"rental_uris":{"android":"levelo://app?vid=cdedfae9-dce6-4606-9562-b17d94b1b98d","ios":"levelo://app?vid=cdedfae9-dce6-4606-9562-b17d94b1b98d"},"vehicle_type_id":"4","last_reported":1692533443,"current_range_meters":3600,"station_id":"ce4bgm92rcd13ifvqbr0","pricing_plan_id":"free"},{"bike_id":"a6346084-6168-4c19-8617-8d87c066e38e","system_id":"levelo_inurba_marseille","lat":43.29846,"lon":5.36282,"is_reserved":false,"is_disabled":false,"rental_uris":{"android":"levelo://app?vid=a6346084-6168-4c19-8617-8d87c066e38e","ios":"levelo://app?vid=a6346084-6168-4c19-8617-8d87c066e38e"},"vehicle_type_id":"4","last_reported":1692533443,"current_range_meters":3200,"station_id":"ce4bgpp2rcd13ifvqc3g","pricing_plan_id":"free"},{"bike_id":"b885f463-e8c5-42cc-902f-7152167ce1c7","system_id":"levelo_inurba_marseille","lat":43.299243,"lon":5.374807,"is_reserved":false,"is_disabled":false,"rental_uris":{"android":"levelo://app?vid=b885f463-e8c5-42cc-902f-7152167ce1c7","ios":"levelo://app?vid=b885f463-e8c5-42cc-902f-7152167ce1c7"},"vehicle_type_id":"4","last_reported":1692533443,"current_range_meters":31200,"station_id":"ce4bgjh2rcd13ifvqbg0","pricing_plan_id":"free"},{"bike_id":"539e2320-cdf5-4896-a3a5-c9b34da7d299","system_id":"levelo_inurba_marseille","lat":43.298433,"lon":5.362774,"is_reserved":false,"is_disabled":false,"rental_uris":{"android":"levelo://app?vid=539e2320-cdf5-4896-a3a5-c9b34da7d299","ios":"levelo://app?vid=539e2320-cdf5-4896-a3a5-c9b34da7d299"},"vehicle_type_id":"4","last_reported":1692533443,"current_range_meters":4000,"station_id":"ce4bgpp2rcd13ifvqc3g","pricing_plan_id":"free"},{"bike_id":"43b90993-9f3b-4462-989e-25667e692205","system_id":"levelo_inurba_marseille","lat":43.311722,"lon":5.387247,"is_reserved":false,"is_disabled":false,"rental_uris":{"android":"levelo://app?vid=43b90993-9f3b-4462-989e-25667e692205","ios":"levelo://app?vid=43b90993-9f3b-4462-989e-25667e692205"},"vehicle_type_id":"4","last_reported":1692533443,"current_range_meters":30000,"station_id":"ce4bgv12rcd13ifvqcp0","pricing_plan_id":"free"},{"bike_id":"8fa64127-47c8-4abc-92db-80782c3d4437","system_id":"levelo_inurba_marseille","lat":43.311722,"lon":5.387247,"is_reserved":false,"is_disabled":false,"rental_uris":{"android":"levelo://app?vid=8fa64127-47c8-4abc-92db-80782c3d4437","ios":"levelo://app?vid=8fa64127-47c8-4abc-92db-80782c3d4437"},"vehicle_type_id":"4","last_reported":1692533443,"current_range_meters":20400,"station_id":"ce4bgv12rcd13ifvqcp0","pricing_plan_id":"free"},{"bike_id":"94e3f69a-b2f8-4b4e-b5d3-82b399d9ea6e","system_id":"levelo_inurba_marseille","lat":43.311722,"lon":5.387247,"is_reserved":false,"is_disabled":false,"rental_uris":{"android":"levelo://app?vid=94e3f69a-b2f8-4b4e-b5d3-82b399d9ea6e","ios":"levelo://app?vid=94e3f69a-b2f8-4b4e-b5d3-82b399d9ea6e"},"vehicle_type_id":"4","last_reported":1692533443,"current_range_meters":29600,"station_id":"ce4bgv12rcd13ifvqcp0","pricing_plan_id":"free"},{"bike_id":"16e300b5-8561-4df5-99f4-557bccfd0912","system_id":"levelo_inurba_marseille","lat":43.311722,"lon":5.387247,"is_reserved":false,"is_disabled":false,"rental_uris":{"android":"levelo://app?vid=16e300b5-8561-4df5-99f4-557bccfd0912","ios":"levelo://app?vid=16e300b5-8561-4df5-99f4-557bccfd0912"},"vehicle_type_id":"4","last_reported":1692533443,"current_range_meters":18800,"station_id":"ce4bgv12rcd13ifvqcp0","pricing_plan_id":"free"},{"bike_id":"7faeba02-f0d5-4ebc-955b-da89847db8b7","system_id":"levelo_inurba_marseille","lat":43.311722,"lon":5.387247,"is_reserved":false,"is_disabled":false,"rental_uris":{"android":"levelo://app?vid=7faeba02-f0d5-4ebc-955b-da89847db8b7","ios":"levelo://app?vid=7faeba02-f0d5-4ebc-955b-da89847db8b7"},"vehicle_type_id":"4","last_reported":1692533443,"current_range_meters":28000,"station_id":"ce4bgv12rcd13ifvqcp0","pricing_plan_id":"free"},{"bike_id":"14e639ba-5281-4a54-88d7-56fdc55cc10e","system_id":"levelo_inurba_marseille","lat":43.311722,"lon":5.387247,"is_reserved":false,"is_disabled":false,"rental_uris":{"android":"levelo://app?vid=14e639ba-5281-4a54-88d7-56fdc55cc10e","ios":"levelo://app?vid=14e639ba-5281-4a54-88d7-56fdc55cc10e"},"vehicle_type_id":"4","last_reported":1692533443,"current_range_meters":30000,"station_id":"ce4bgv12rcd13ifvqcp0","pricing_plan_id":"free"},{"bike_id":"3393b9d1-4c5b-47aa-91b6-320093635142","system_id":"levelo_inurba_marseille","lat":43.311722,"lon":5.387247,"is_reserved":false,"is_disabled":false,"rental_uris":{"android":"levelo://app?vid=3393b9d1-4c5b-47aa-91b6-320093635142","ios":"levelo://app?vid=3393b9d1-4c5b-47aa-91b6-320093635142"},"vehicle_type_id":"4","last_reported":1692533443,"current_range_meters":10800,"station_id":"ce4bgv12rcd13ifvqcp0","pricing_plan_id":"free"},{"bike_id":"37653408-c6e7-4532-b69d-734366b510c8","system_id":"levelo_inurba_marseille","lat":43.311722,"lon":5.387247,"is_reserved":false,"is_disabled":false,"rental_uris":{"android":"levelo://app?vid=37653408-c6e7-4532-b69d-734366b510c8","ios":"levelo://app?vid=37653408-c6e7-4532-b69d-734366b510c8"},"vehicle_type_id":"4","last_reported":1692533443,"current_range_meters":25200,"station_id":"ce4bgv12rcd13ifvqcp0","pricing_plan_id":"free"},{"bike_id":"b9784bc4-a1f4-4e7b-a996-3746dcc4c656","system_id":"levelo_inurba_marseille","lat":43.32277,"lon":5.38273,"is_reserved":false,"is_disabled":false,"rental_uris":{"android":"levelo://app?vid=b9784bc4-a1f4-4e7b-a996-3746dcc4c656","ios":"levelo://app?vid=b9784bc4-a1f4-4e7b-a996-3746dcc4c656"},"vehicle_type_id":"4","last_reported":1692533443,"current_range_meters":6000,"station_id":"ce4bhr12rcd13ifvqhqg","pricing_plan_id":"free"},{"bike_id":"5b5c8cae-b425-4976-9ba8-5ae205664d6b","system_id":"levelo_inurba_marseille","lat":43.322872,"lon":5.382756,"is_reserved":false,"is_disabled":false,"rental_uris":{"android":"levelo://app?vid=5b5c8cae-b425-4976-9ba8-5ae205664d6b","ios":"levelo://app?vid=5b5c8cae-b425-4976-9ba8-5ae205664d6b"},"vehicle_type_id":"4","last_reported":1692533443,"current_range_meters":14400,"station_id":"ce4bhr12rcd13ifvqhqg","pricing_plan_id":"free"},{"bike_id":"a1f7b084-f437-4e0c-8b20-334f54c48d59","system_id":"levelo_inurba_marseille","lat":43.32282,"lon":5.38275,"is_reserved":false,"is_disabled":false,"rental_uris":{"android":"levelo://app?vid=a1f7b084-f437-4e0c-8b20-334f54c48d59","ios":"levelo://app?vid=a1f7b084-f437-4e0c-8b20-334f54c48d59"},"vehicle_type_id":"4","last_reported":1692533443,"current_range_meters":14400,"station_id":"ce4bhr12rcd13ifvqhqg","pricing_plan_id":"free"},{"bike_id":"110bd150-ae2d-4085-890c-a8f4481980e0","system_id":"levelo_inurba_marseille","lat":43.32283,"lon":5.38279,"is_reserved":false,"is_disabled":false,"rental_uris":{"android":"levelo://app?vid=110bd150-ae2d-4085-890c-a8f4481980e0","ios":"levelo://app?vid=110bd150-ae2d-4085-890c-a8f4481980e0"},"vehicle_type_id":"4","last_reported":1692533443,"current_range_meters":26000,"station_id":"ce4bhr12rcd13ifvqhqg","pricing_plan_id":"free"},{"bike_id":"2ab2c619-9cfb-4da7-9f78-cfb4995f9eec","system_id":"levelo_inurba_marseille","lat":43.328371,"lon":5.366909,"is_reserved":false,"is_disabled":false,"rental_uris":{"android":"levelo://app?vid=2ab2c619-9cfb-4da7-9f78-cfb4995f9eec","ios":"levelo://app?vid=2ab2c619-9cfb-4da7-9f78-cfb4995f9eec"},"vehicle_type_id":"4","last_reported":1692533443,"current_range_meters":4000,"station_id":"ce4bhs92rcd13ifvqi0g","pricing_plan_id":"free"},{"bike_id":"0f135836-946e-4e91-9b15-72b385cbdf04","system_id":"levelo_inurba_marseille","lat":43.32824,"lon":5.36671,"is_reserved":false,"is_disabled":false,"rental_uris":{"android":"levelo://app?vid=0f135836-946e-4e91-9b15-72b385cbdf04","ios":"levelo://app?vid=0f135836-946e-4e91-9b15-72b385cbdf04"},"vehicle_type_id":"4","last_reported":1692533443,"current_range_meters":29600,"station_id":"ce4bhs92rcd13ifvqi0g","pricing_plan_id":"free"},{"bike_id":"8789418c-5fcb-45bc-8570-a5a919b55c11","system_id":"levelo_inurba_marseille","lat":43.328371,"lon":5.366909,"is_reserved":false,"is_disabled":false,"rental_uris":{"android":"levelo://app?vid=8789418c-5fcb-45bc-8570-a5a919b55c11","ios":"levelo://app?vid=8789418c-5fcb-45bc-8570-a5a919b55c11"},"vehicle_type_id":"4","last_reported":1692533443,"current_range_meters":9600,"station_id":"ce4bhs92rcd13ifvqi0g","pricing_plan_id":"free"},{"bike_id":"8d62a8d8-7c3b-4dc1-b2cc-fae7f39be987","system_id":"levelo_inurba_marseille","lat":43.32828,"lon":5.36693,"is_reserved":false,"is_disabled":false,"rental_uris":{"android":"levelo://app?vid=8d62a8d8-7c3b-4dc1-b2cc-fae7f39be987","ios":"levelo://app?vid=8d62a8d8-7c3b-4dc1-b2cc-fae7f39be987"},"vehicle_type_id":"4","last_reported":1692533443,"current_range_meters":21600,"station_id":"ce4bhs92rcd13ifvqi0g","pricing_plan_id":"free"},{"bike_id":"cb6c408c-56b3-4aaa-8904-aaf9a843fb9a","system_id":"levelo_inurba_marseille","lat":43.328371,"lon":5.366909,"is_reserved":false,"is_disabled":false,"rental_uris":{"android":"levelo://app?vid=cb6c408c-56b3-4aaa-8904-aaf9a843fb9a","ios":"levelo://app?vid=cb6c408c-56b3-4aaa-8904-aaf9a843fb9a"},"vehicle_type_id":"4","last_reported":1692533443,"current_range_meters":19600,"station_id":"ce4bhs92rcd13ifvqi0g","pricing_plan_id":"free"},{"bike_id":"dd789220-e7b5-42c1-b9dc-dc4243148021","system_id":"levelo_inurba_marseille","lat":43.297163,"lon":5.365866,"is_reserved":false,"is_disabled":false,"rental_uris":{"android":"levelo://app?vid=dd789220-e7b5-42c1-b9dc-dc4243148021","ios":"levelo://app?vid=dd789220-e7b5-42c1-b9dc-dc4243148021"},"vehicle_type_id":"4","last_reported":1692533443,"current_range_meters":31200,"station_id":"ce4bgn12rcd13ifvqbt0","pricing_plan_id":"free"},{"bike_id":"3ae83bd7-4f98-4718-85d0-b16eb97344f2","system_id":"levelo_inurba_marseille","lat":43.29704,"lon":5.36601,"is_reserved":false,"is_disabled":false,"rental_uris":{"android":"levelo://app?vid=3ae83bd7-4f98-4718-85d0-b16eb97344f2","ios":"levelo://app?vid=3ae83bd7-4f98-4718-85d0-b16eb97344f2"},"vehicle_type_id":"4","last_reported":1692533443,"current_range_meters":31200,"station_id":"ce4bgn12rcd13ifvqbt0","pricing_plan_id":"free"},{"bike_id":"bb155e93-116e-494a-9911-2df351c7dae8","system_id":"levelo_inurba_marseille","lat":43.29624,"lon":5.3717,"is_reserved":false,"is_disabled":false,"rental_uris":{"android":"levelo://app?vid=bb155e93-116e-494a-9911-2df351c7dae8","ios":"levelo://app?vid=bb155e93-116e-494a-9911-2df351c7dae8"},"vehicle_type_id":"4","last_reported":1692533443,"current_range_meters":28800,"station_id":"","pricing_plan_id":"free"},{"bike_id":"5723d0f8-36a4-4ba2-8117-d23a66e8c759","system_id":"levelo_inurba_marseille","lat":43.29573,"lon":5.367355,"is_reserved":false,"is_disabled":false,"rental_uris":{"android":"levelo://app?vid=5723d0f8-36a4-4ba2-8117-d23a66e8c759","ios":"levelo://app?vid=5723d0f8-36a4-4ba2-8117-d23a66e8c759"},"vehicle_type_id":"4","last_reported":1692533443,"current_range_meters":17200,"station_id":"ce4bgph2rcd13ifvqc2g","pricing_plan_id":"free"},{"bike_id":"d3139180-8ba9-4c91-b6e4-8baae3c22113","system_id":"levelo_inurba_marseille","lat":43.29614,"lon":5.37187,"is_reserved":false,"is_disabled":false,"rental_uris":{"android":"levelo://app?vid=d3139180-8ba9-4c91-b6e4-8baae3c22113","ios":"levelo://app?vid=d3139180-8ba9-4c91-b6e4-8baae3c22113"},"vehicle_type_id":"4","last_reported":1692533443,"current_range_meters":30000,"station_id":"","pricing_plan_id":"free"},{"bike_id":"821e9a9e-3d71-40b4-b81b-c726123046c0","system_id":"levelo_inurba_marseille","lat":43.317557,"lon":5.390173,"is_reserved":false,"is_disabled":false,"rental_uris":{"android":"levelo://app?vid=821e9a9e-3d71-40b4-b81b-c726123046c0","ios":"levelo://app?vid=821e9a9e-3d71-40b4-b81b-c726123046c0"},"vehicle_type_id":"4","last_reported":1692533443,"current_range_meters":28000,"station_id":"ce4bhqp2rcd13ifvqhng","pricing_plan_id":"free"},{"bike_id":"bf245e29-b7f8-4bbd-a761-067fed2e4671","system_id":"levelo_inurba_marseille","lat":43.2979,"lon":5.38106,"is_reserved":false,"is_disabled":false,"rental_uris":{"android":"levelo://app?vid=bf245e29-b7f8-4bbd-a761-067fed2e4671","ios":"levelo://app?vid=bf245e29-b7f8-4bbd-a761-067fed2e4671"},"vehicle_type_id":"4","last_reported":1692533443,"current_range_meters":1200,"station_id":"ce4bgip2rcd13ifvqbb0","pricing_plan_id":"free"},{"bike_id":"a4df99ce-0488-49dd-a888-94686f562e88","system_id":"levelo_inurba_marseille","lat":43.295748,"lon":5.37522,"is_reserved":false,"is_disabled":false,"rental_uris":{"android":"levelo://app?vid=a4df99ce-0488-49dd-a888-94686f562e88","ios":"levelo://app?vid=a4df99ce-0488-49dd-a888-94686f562e88"},"vehicle_type_id":"4","last_reported":1692533443,"current_range_meters":29200,"station_id":"ce4bgh92rcd13ifvqb50","pricing_plan_id":"free"},{"bike_id":"49f5a734-5b8d-484c-b148-bcc20b146f17","system_id":"levelo_inurba_marseille","lat":43.304278,"lon":5.388868,"is_reserved":false,"is_disabled":false,"rental_uris":{"android":"levelo://app?vid=49f5a734-5b8d-484c-b148-bcc20b146f17","ios":"levelo://app?vid=49f5a734-5b8d-484c-b148-bcc20b146f17"},"vehicle_type_id":"4","last_reported":1692533443,"current_range_meters":23600,"station_id":"ce4bgk12rcd13ifvqbi0","pricing_plan_id":"free"},{"bike_id":"b330d504-c745-43d4-83fd-a864066bd77c","system_id":"levelo_inurba_marseille","lat":43.299717,"lon":5.384845,"is_reserved":false,"is_disabled":false,"rental_uris":{"android":"levelo://app?vid=b330d504-c745-43d4-83fd-a864066bd77c","ios":"levelo://app?vid=b330d504-c745-43d4-83fd-a864066bd77c"},"vehicle_type_id":"4","last_reported":1692533443,"current_range_meters":0,"station_id":"ce4bgj92rcd13ifvqbd0","pricing_plan_id":"free"},{"bike_id":"23d61178-fcaa-4ba4-aee4-746c25e5b4bf","system_id":"levelo_inurba_marseille","lat":43.33082,"lon":5.37465,"is_reserved":false,"is_disabled":false,"rental_uris":{"android":"levelo://app?vid=23d61178-fcaa-4ba4-aee4-746c25e5b4bf","ios":"levelo://app?vid=23d61178-fcaa-4ba4-aee4-746c25e5b4bf"},"vehicle_type_id":"4","last_reported":1692533443,"current_range_meters":26000,"station_id":"","pricing_plan_id":"free"},{"bike_id":"e15ef0a5-8186-4707-84b8-fc141a9cf97b","system_id":"levelo_inurba_marseille","lat":43.32366,"lon":5.38879,"is_reserved":false,"is_disabled":false,"rental_uris":{"android":"levelo://app?vid=e15ef0a5-8186-4707-84b8-fc141a9cf97b","ios":"levelo://app?vid=e15ef0a5-8186-4707-84b8-fc141a9cf97b"},"vehicle_type_id":"4","last_reported":1692533443,"current_range_meters":22000,"station_id":"ce4bhqp2rcd13ifvqhog","pricing_plan_id":"free"},{"bike_id":"6b6cba89-d2b8-44bb-8454-5df08cf65f67","system_id":"levelo_inurba_marseille","lat":43.32367,"lon":5.388836,"is_reserved":false,"is_disabled":false,"rental_uris":{"android":"levelo://app?vid=6b6cba89-d2b8-44bb-8454-5df08cf65f67","ios":"levelo://app?vid=6b6cba89-d2b8-44bb-8454-5df08cf65f67"},"vehicle_type_id":"4","last_reported":1692533443,"current_range_meters":8400,"station_id":"ce4bhqp2rcd13ifvqhog","pricing_plan_id":"free"},{"bike_id":"5575fdbd-20fa-44d6-b0d5-e0afef654933","system_id":"levelo_inurba_marseille","lat":43.292749,"lon":5.368398,"is_reserved":false,"is_disabled":false,"rental_uris":{"android":"levelo://app?vid=5575fdbd-20fa-44d6-b0d5-e0afef654933","ios":"levelo://app?vid=5575fdbd-20fa-44d6-b0d5-e0afef654933"},"vehicle_type_id":"4","last_reported":1692533443,"current_range_meters":7600,"station_id":"ce4bhbp2rcd13ifvqesg","pricing_plan_id":"free"},{"bike_id":"38fef587-7cc5-4800-b069-87b8f296a10a","system_id":"levelo_inurba_marseille","lat":43.293009,"lon":5.374584,"is_reserved":false,"is_disabled":false,"rental_uris":{"android":"levelo://app?vid=38fef587-7cc5-4800-b069-87b8f296a10a","ios":"levelo://app?vid=38fef587-7cc5-4800-b069-87b8f296a10a"},"vehicle_type_id":"4","last_reported":1692533443,"current_range_meters":31200,"station_id":"ce4bgi12rcd13ifvqb70","pricing_plan_id":"free"},{"bike_id":"0724f352-a262-45b7-9b71-9a09ff17d945","system_id":"levelo_inurba_marseille","lat":43.302992,"lon":5.392136,"is_reserved":false,"is_disabled":false,"rental_uris":{"android":"levelo://app?vid=0724f352-a262-45b7-9b71-9a09ff17d945","ios":"levelo://app?vid=0724f352-a262-45b7-9b71-9a09ff17d945"},"vehicle_type_id":"4","last_reported":1692533443,"current_range_meters":20400,"station_id":"ce4bgkh2rcd13ifvqbk0","pricing_plan_id":"free"},{"bike_id":"2a9f559f-a11a-49ca-884a-831b17d4ea86","system_id":"levelo_inurba_marseille","lat":43.30085,"lon":5.390856,"is_reserved":false,"is_disabled":false,"rental_uris":{"android":"levelo://app?vid=2a9f559f-a11a-49ca-884a-831b17d4ea86","ios":"levelo://app?vid=2a9f559f-a11a-49ca-884a-831b17d4ea86"},"vehicle_type_id":"4","last_reported":1692533443,"current_range_meters":25200,"station_id":"ce4bh192rcd13ifvqdb0","pricing_plan_id":"free"},{"bike_id":"a6f0601a-6158-44fd-a954-71c99581f394","system_id":"levelo_inurba_marseille","lat":43.292311,"lon":5.360731,"is_reserved":false,"is_disabled":false,"rental_uris":{"android":"levelo://app?vid=a6f0601a-6158-44fd-a954-71c99581f394","ios":"levelo://app?vid=a6f0601a-6158-44fd-a954-71c99581f394"},"vehicle_type_id":"4","last_reported":1692533443,"current_range_meters":31200,"station_id":"ce4bhbh2rcd13ifvqeqg","pricing_plan_id":"free"},{"bike_id":"c34c6e0c-0e4c-4184-b1c1-9ea65246a54a","system_id":"levelo_inurba_marseille","lat":43.29218,"lon":5.36063,"is_reserved":false,"is_disabled":false,"rental_uris":{"android":"levelo://app?vid=c34c6e0c-0e4c-4184-b1c1-9ea65246a54a","ios":"levelo://app?vid=c34c6e0c-0e4c-4184-b1c1-9ea65246a54a"},"vehicle_type_id":"4","last_reported":1692533443,"current_range_meters":11200,"station_id":"ce4bhbh2rcd13ifvqeqg","pricing_plan_id":"free"},{"bike_id":"cc7ff94e-71c6-4329-9d0f-6d5afae0d585","system_id":"levelo_inurba_marseille","lat":43.308713,"lon":5.395755,"is_reserved":false,"is_disabled":false,"rental_uris":{"android":"levelo://app?vid=cc7ff94e-71c6-4329-9d0f-6d5afae0d585","ios":"levelo://app?vid=cc7ff94e-71c6-4329-9d0f-6d5afae0d585"},"vehicle_type_id":"4","last_reported":1692533443,"current_range_meters":4400,"station_id":"","pricing_plan_id":"free"},{"bike_id":"d992aec6-b3eb-4e0f-b260-e7bbd84bddb3","system_id":"levelo_inurba_marseille","lat":43.290779,"lon":5.371482,"is_reserved":false,"is_disabled":false,"rental_uris":{"android":"levelo://app?vid=d992aec6-b3eb-4e0f-b260-e7bbd84bddb3","ios":"levelo://app?vid=d992aec6-b3eb-4e0f-b260-e7bbd84bddb3"},"vehicle_type_id":"4","last_reported":1692533443,"current_range_meters":21600,"station_id":"ce4bh5p2rcd13ifvqe4g","pricing_plan_id":"free"},{"bike_id":"901c8bd2-0226-4ac0-9c08-2d38160ffb99","system_id":"levelo_inurba_marseille","lat":43.29041,"lon":5.35917,"is_reserved":false,"is_disabled":false,"rental_uris":{"android":"levelo://app?vid=901c8bd2-0226-4ac0-9c08-2d38160ffb99","ios":"levelo://app?vid=901c8bd2-0226-4ac0-9c08-2d38160ffb99"},"vehicle_type_id":"4","last_reported":1692533443,"current_range_meters":23200,"station_id":"ce4bha92rcd13ifvqeg0","pricing_plan_id":"free"},{"bike_id":"2838aad9-8b63-4a48-b043-e8ade28f8f7b","system_id":"levelo_inurba_marseille","lat":43.289184,"lon":5.366408,"is_reserved":false,"is_disabled":false,"rental_uris":{"android":"levelo://app?vid=2838aad9-8b63-4a48-b043-e8ade28f8f7b","ios":"levelo://app?vid=2838aad9-8b63-4a48-b043-e8ade28f8f7b"},"vehicle_type_id":"4","last_reported":1692533443,"current_range_meters":21200,"station_id":"ce4bhap2rcd13ifvqek0","pricing_plan_id":"free"},{"bike_id":"43e07980-e1b5-429b-8531-cd217c23d4a7","system_id":"levelo_inurba_marseille","lat":43.289468,"lon":5.363719,"is_reserved":false,"is_disabled":false,"rental_uris":{"android":"levelo://app?vid=43e07980-e1b5-429b-8531-cd217c23d4a7","ios":"levelo://app?vid=43e07980-e1b5-429b-8531-cd217c23d4a7"},"vehicle_type_id":"4","last_reported":1692533443,"current_range_meters":14800,"station_id":"ce4bhc92rcd13ifvqetg","pricing_plan_id":"free"},{"bike_id":"83925647-f575-4a0e-a1fa-ed255701c370","system_id":"levelo_inurba_marseille","lat":43.295169,"lon":5.390426,"is_reserved":false,"is_disabled":false,"rental_uris":{"android":"levelo://app?vid=83925647-f575-4a0e-a1fa-ed255701c370","ios":"levelo://app?vid=83925647-f575-4a0e-a1fa-ed255701c370"},"vehicle_type_id":"4","last_reported":1692533443,"current_range_meters":5600,"station_id":"ce4bh3p2rcd13ifvqdp0","pricing_plan_id":"free"},{"bike_id":"f7005a11-f4b8-40eb-a1e9-6d3833ad8114","system_id":"levelo_inurba_marseille","lat":43.33038,"lon":5.38919,"is_reserved":false,"is_disabled":false,"rental_uris":{"android":"levelo://app?vid=f7005a11-f4b8-40eb-a1e9-6d3833ad8114","ios":"levelo://app?vid=f7005a11-f4b8-40eb-a1e9-6d3833ad8114"},"vehicle_type_id":"4","last_reported":1692533443,"current_range_meters":27200,"station_id":"ce4bhr92rcd13ifvqhrg","pricing_plan_id":"free"},{"bike_id":"5036c72a-6252-47f4-a9fb-50fd514d506a","system_id":"levelo_inurba_marseille","lat":43.33039,"lon":5.38918,"is_reserved":false,"is_disabled":false,"rental_uris":{"android":"levelo://app?vid=5036c72a-6252-47f4-a9fb-50fd514d506a","ios":"levelo://app?vid=5036c72a-6252-47f4-a9fb-50fd514d506a"},"vehicle_type_id":"4","last_reported":1692533443,"current_range_meters":20000,"station_id":"ce4bhr92rcd13ifvqhrg","pricing_plan_id":"free"},{"bike_id":"9acb1d15-1a47-417d-a359-200b783022be","system_id":"levelo_inurba_marseille","lat":43.30468,"lon":5.39795,"is_reserved":false,"is_disabled":false,"rental_uris":{"android":"levelo://app?vid=9acb1d15-1a47-417d-a359-200b783022be","ios":"levelo://app?vid=9acb1d15-1a47-417d-a359-200b783022be"},"vehicle_type_id":"4","last_reported":1692533443,"current_range_meters":28000,"station_id":"","pricing_plan_id":"free"},{"bike_id":"331b6e0a-8cfc-4305-9eef-0266cde03da7","system_id":"levelo_inurba_marseille","lat":43.3304,"lon":5.38921,"is_reserved":false,"is_disabled":false,"rental_uris":{"android":"levelo://app?vid=331b6e0a-8cfc-4305-9eef-0266cde03da7","ios":"levelo://app?vid=331b6e0a-8cfc-4305-9eef-0266cde03da7"},"vehicle_type_id":"4","last_reported":1692533443,"current_range_meters":13200,"station_id":"ce4bhr92rcd13ifvqhrg","pricing_plan_id":"free"},{"bike_id":"de450cac-4370-4660-9455-3e94463307a2","system_id":"levelo_inurba_marseille","lat":43.3304,"lon":5.38922,"is_reserved":false,"is_disabled":false,"rental_uris":{"android":"levelo://app?vid=de450cac-4370-4660-9455-3e94463307a2","ios":"levelo://app?vid=de450cac-4370-4660-9455-3e94463307a2"},"vehicle_type_id":"4","last_reported":1692533443,"current_range_meters":15200,"station_id":"ce4bhr92rcd13ifvqhrg","pricing_plan_id":"free"},{"bike_id":"a5d7998c-4c76-4390-bbcf-8c2a2abd7eba","system_id":"levelo_inurba_marseille","lat":43.3304,"lon":5.38923,"is_reserved":false,"is_disabled":false,"rental_uris":{"android":"levelo://app?vid=a5d7998c-4c76-4390-bbcf-8c2a2abd7eba","ios":"levelo://app?vid=a5d7998c-4c76-4390-bbcf-8c2a2abd7eba"},"vehicle_type_id":"4","last_reported":1692533443,"current_range_meters":29200,"station_id":"ce4bhr92rcd13ifvqhrg","pricing_plan_id":"free"},{"bike_id":"c8619c93-5f6a-45f4-8e07-c81fcc1e21be","system_id":"levelo_inurba_marseille","lat":43.33044,"lon":5.38919,"is_reserved":false,"is_disabled":false,"rental_uris":{"android":"levelo://app?vid=c8619c93-5f6a-45f4-8e07-c81fcc1e21be","ios":"levelo://app?vid=c8619c93-5f6a-45f4-8e07-c81fcc1e21be"},"vehicle_type_id":"4","last_reported":1692533443,"current_range_meters":24400,"station_id":"ce4bhr92rcd13ifvqhrg","pricing_plan_id":"free"},{"bike_id":"86eac789-1e56-496d-abfa-705e29d378c7","system_id":"levelo_inurba_marseille","lat":43.33043,"lon":5.38921,"is_reserved":false,"is_disabled":false,"rental_uris":{"android":"levelo://app?vid=86eac789-1e56-496d-abfa-705e29d378c7","ios":"levelo://app?vid=86eac789-1e56-496d-abfa-705e29d378c7"},"vehicle_type_id":"4","last_reported":1692533443,"current_range_meters":27600,"station_id":"ce4bhr92rcd13ifvqhrg","pricing_plan_id":"free"},{"bike_id":"d2b15eb2-4474-4e56-aace-fe335ab0092e","system_id":"levelo_inurba_marseille","lat":43.33039,"lon":5.38927,"is_reserved":false,"is_disabled":false,"rental_uris":{"android":"levelo://app?vid=d2b15eb2-4474-4e56-aace-fe335ab0092e","ios":"levelo://app?vid=d2b15eb2-4474-4e56-aace-fe335ab0092e"},"vehicle_type_id":"4","last_reported":1692533443,"current_range_meters":12400,"station_id":"ce4bhr92rcd13ifvqhrg","pricing_plan_id":"free"},{"bike_id":"9e24a65c-fe1e-45dc-88b9-dd0cad85064c","system_id":"levelo_inurba_marseille","lat":43.33046,"lon":5.38917,"is_reserved":false,"is_disabled":false,"rental_uris":{"android":"levelo://app?vid=9e24a65c-fe1e-45dc-88b9-dd0cad85064c","ios":"levelo://app?vid=9e24a65c-fe1e-45dc-88b9-dd0cad85064c"},"vehicle_type_id":"4","last_reported":1692533443,"current_range_meters":27200,"station_id":"ce4bhr92rcd13ifvqhrg","pricing_plan_id":"free"},{"bike_id":"3b3e7c42-cded-4bde-b175-99650afa4f17","system_id":"levelo_inurba_marseille","lat":43.33046,"lon":5.38918,"is_reserved":false,"is_disabled":false,"rental_uris":{"android":"levelo://app?vid=3b3e7c42-cded-4bde-b175-99650afa4f17","ios":"levelo://app?vid=3b3e7c42-cded-4bde-b175-99650afa4f17"},"vehicle_type_id":"4","last_reported":1692533443,"current_range_meters":22000,"station_id":"ce4bhr92rcd13ifvqhrg","pricing_plan_id":"free"},{"bike_id":"708f7f21-b221-4c14-94b6-b5d8e3289350","system_id":"levelo_inurba_marseille","lat":43.33045,"lon":5.3892,"is_reserved":false,"is_disabled":false,"rental_uris":{"android":"levelo://app?vid=708f7f21-b221-4c14-94b6-b5d8e3289350","ios":"levelo://app?vid=708f7f21-b221-4c14-94b6-b5d8e3289350"},"vehicle_type_id":"4","last_reported":1692533443,"current_range_meters":18400,"station_id":"ce4bhr92rcd13ifvqhrg","pricing_plan_id":"free"},{"bike_id":"c65152a1-dca7-4ee4-9864-308587d5ed74","system_id":"levelo_inurba_marseille","lat":43.3304,"lon":5.38928,"is_reserved":false,"is_disabled":false,"rental_uris":{"android":"levelo://app?vid=c65152a1-dca7-4ee4-9864-308587d5ed74","ios":"levelo://app?vid=c65152a1-dca7-4ee4-9864-308587d5ed74"},"vehicle_type_id":"4","last_reported":1692533443,"current_range_meters":20400,"station_id":"ce4bhr92rcd13ifvqhrg","pricing_plan_id":"free"},{"bike_id":"70576a93-fbdb-4696-908e-c08c0f1995f8","system_id":"levelo_inurba_marseille","lat":43.33046,"lon":5.3892,"is_reserved":false,"is_disabled":false,"rental_uris":{"android":"levelo://app?vid=70576a93-fbdb-4696-908e-c08c0f1995f8","ios":"levelo://app?vid=70576a93-fbdb-4696-908e-c08c0f1995f8"},"vehicle_type_id":"4","last_reported":1692533443,"current_range_meters":23200,"station_id":"ce4bhr92rcd13ifvqhrg","pricing_plan_id":"free"},{"bike_id":"024f4d94-1555-4991-925c-5e7448051bbb","system_id":"levelo_inurba_marseille","lat":43.33046,"lon":5.38922,"is_reserved":false,"is_disabled":false,"rental_uris":{"android":"levelo://app?vid=024f4d94-1555-4991-925c-5e7448051bbb","ios":"levelo://app?vid=024f4d94-1555-4991-925c-5e7448051bbb"},"vehicle_type_id":"4","last_reported":1692533443,"current_range_meters":26400,"station_id":"ce4bhr92rcd13ifvqhrg","pricing_plan_id":"free"},{"bike_id":"5c8c244a-8618-42d9-abf2-521b07f6577d","system_id":"levelo_inurba_marseille","lat":43.33044,"lon":5.38925,"is_reserved":false,"is_disabled":false,"rental_uris":{"android":"levelo://app?vid=5c8c244a-8618-42d9-abf2-521b07f6577d","ios":"levelo://app?vid=5c8c244a-8618-42d9-abf2-521b07f6577d"},"vehicle_type_id":"4","last_reported":1692533443,"current_range_meters":25200,"station_id":"ce4bhr92rcd13ifvqhrg","pricing_plan_id":"free"},{"bike_id":"eb950724-6c95-4fb2-915f-35b08a8cfd23","system_id":"levelo_inurba_marseille","lat":43.33048,"lon":5.38919,"is_reserved":false,"is_disabled":false,"rental_uris":{"android":"levelo://app?vid=eb950724-6c95-4fb2-915f-35b08a8cfd23","ios":"levelo://app?vid=eb950724-6c95-4fb2-915f-35b08a8cfd23"},"vehicle_type_id":"4","last_reported":1692533443,"current_range_meters":17200,"station_id":"ce4bhr92rcd13ifvqhrg","pricing_plan_id":"free"},{"bike_id":"52662068-d06a-40c1-bfee-ce6664dc3a83","system_id":"levelo_inurba_marseille","lat":43.33048,"lon":5.3892,"is_reserved":false,"is_disabled":false,"rental_uris":{"android":"levelo://app?vid=52662068-d06a-40c1-bfee-ce6664dc3a83","ios":"levelo://app?vid=52662068-d06a-40c1-bfee-ce6664dc3a83"},"vehicle_type_id":"4","last_reported":1692533443,"current_range_meters":800,"station_id":"ce4bhr92rcd13ifvqhrg","pricing_plan_id":"free"},{"bike_id":"7d19a255-9f7a-4d0e-beba-2bfebb3c7b5e","system_id":"levelo_inurba_marseille","lat":43.3305,"lon":5.3892,"is_reserved":false,"is_disabled":false,"rental_uris":{"android":"levelo://app?vid=7d19a255-9f7a-4d0e-beba-2bfebb3c7b5e","ios":"levelo://app?vid=7d19a255-9f7a-4d0e-beba-2bfebb3c7b5e"},"vehicle_type_id":"4","last_reported":1692533443,"current_range_meters":20000,"station_id":"ce4bhr92rcd13ifvqhrg","pricing_plan_id":"free"},{"bike_id":"b527f276-1160-4ac0-aef5-1126399b6f91","system_id":"levelo_inurba_marseille","lat":43.290104,"lon":5.356111,"is_reserved":false,"is_disabled":false,"rental_uris":{"android":"levelo://app?vid=b527f276-1160-4ac0-aef5-1126399b6f91","ios":"levelo://app?vid=b527f276-1160-4ac0-aef5-1126399b6f91"},"vehicle_type_id":"4","last_reported":1692533443,"current_range_meters":17200,"station_id":"ce4bhb92rcd13ifvqen0","pricing_plan_id":"free"},{"bike_id":"42a30965-aa85-454f-80b0-0ccd51cf82af","system_id":"levelo_inurba_marseille","lat":43.29024,"lon":5.38126,"is_reserved":false,"is_disabled":false,"rental_uris":{"android":"levelo://app?vid=42a30965-aa85-454f-80b0-0ccd51cf82af","ios":"levelo://app?vid=42a30965-aa85-454f-80b0-0ccd51cf82af"},"vehicle_type_id":"4","last_reported":1692533443,"current_range_meters":2000,"station_id":"ce4bh4p2rcd13ifvqe1g","pricing_plan_id":"free"},{"bike_id":"45fc6461-6c33-4161-bd62-59945c160ae2","system_id":"levelo_inurba_marseille","lat":43.28856,"lon":5.358371,"is_reserved":false,"is_disabled":false,"rental_uris":{"android":"levelo://app?vid=45fc6461-6c33-4161-bd62-59945c160ae2","ios":"levelo://app?vid=45fc6461-6c33-4161-bd62-59945c160ae2"},"vehicle_type_id":"4","last_reported":1692533443,"current_range_meters":21200,"station_id":"ce4bhb12rcd13ifvqem0","pricing_plan_id":"free"},{"bike_id":"c1f7781e-34eb-4636-ac5d-7177fdbcc23a","system_id":"levelo_inurba_marseille","lat":43.28856,"lon":5.358371,"is_reserved":false,"is_disabled":false,"rental_uris":{"android":"levelo://app?vid=c1f7781e-34eb-4636-ac5d-7177fdbcc23a","ios":"levelo://app?vid=c1f7781e-34eb-4636-ac5d-7177fdbcc23a"},"vehicle_type_id":"4","last_reported":1692533443,"current_range_meters":15200,"station_id":"ce4bhb12rcd13ifvqem0","pricing_plan_id":"free"},{"bike_id":"05ed744c-40cc-476e-9042-b7f7782ddc7e","system_id":"levelo_inurba_marseille","lat":43.28856,"lon":5.358371,"is_reserved":false,"is_disabled":false,"rental_uris":{"android":"levelo://app?vid=05ed744c-40cc-476e-9042-b7f7782ddc7e","ios":"levelo://app?vid=05ed744c-40cc-476e-9042-b7f7782ddc7e"},"vehicle_type_id":"4","last_reported":1692533443,"current_range_meters":1600,"station_id":"ce4bhb12rcd13ifvqem0","pricing_plan_id":"free"},{"bike_id":"5aa929d1-4547-4a62-827c-3c8589aa17c9","system_id":"levelo_inurba_marseille","lat":43.31272,"lon":5.40164,"is_reserved":false,"is_disabled":false,"rental_uris":{"android":"levelo://app?vid=5aa929d1-4547-4a62-827c-3c8589aa17c9","ios":"levelo://app?vid=5aa929d1-4547-4a62-827c-3c8589aa17c9"},"vehicle_type_id":"4","last_reported":1692533443,"current_range_meters":14400,"station_id":"ce4bh092rcd13ifvqd30","pricing_plan_id":"free"},{"bike_id":"627387c6-c7ea-42b3-be48-fac5d0fe9b32","system_id":"levelo_inurba_marseille","lat":43.31274,"lon":5.40167,"is_reserved":false,"is_disabled":false,"rental_uris":{"android":"levelo://app?vid=627387c6-c7ea-42b3-be48-fac5d0fe9b32","ios":"levelo://app?vid=627387c6-c7ea-42b3-be48-fac5d0fe9b32"},"vehicle_type_id":"4","last_reported":1692533443,"current_range_meters":10400,"station_id":"ce4bh092rcd13ifvqd30","pricing_plan_id":"free"},{"bike_id":"c1f6f501-c80f-4eb8-a57b-d17f36b2a053","system_id":"levelo_inurba_marseille","lat":43.31276,"lon":5.40167,"is_reserved":false,"is_disabled":false,"rental_uris":{"android":"levelo://app?vid=c1f6f501-c80f-4eb8-a57b-d17f36b2a053","ios":"levelo://app?vid=c1f6f501-c80f-4eb8-a57b-d17f36b2a053"},"vehicle_type_id":"4","last_reported":1692533443,"current_range_meters":21200,"station_id":"ce4bh092rcd13ifvqd30","pricing_plan_id":"free"},{"bike_id":"669c3ade-8928-411a-bf18-0b4f82560fa9","system_id":"levelo_inurba_marseille","lat":43.31278,"lon":5.40167,"is_reserved":false,"is_disabled":false,"rental_uris":{"android":"levelo://app?vid=669c3ade-8928-411a-bf18-0b4f82560fa9","ios":"levelo://app?vid=669c3ade-8928-411a-bf18-0b4f82560fa9"},"vehicle_type_id":"4","last_reported":1692533443,"current_range_meters":21600,"station_id":"ce4bh092rcd13ifvqd30","pricing_plan_id":"free"},{"bike_id":"95b7f7df-e2c5-44a6-bf5d-0a221952cf53","system_id":"levelo_inurba_marseille","lat":43.31271,"lon":5.40171,"is_reserved":false,"is_disabled":false,"rental_uris":{"android":"levelo://app?vid=95b7f7df-e2c5-44a6-bf5d-0a221952cf53","ios":"levelo://app?vid=95b7f7df-e2c5-44a6-bf5d-0a221952cf53"},"vehicle_type_id":"4","last_reported":1692533443,"current_range_meters":29200,"station_id":"ce4bh092rcd13ifvqd30","pricing_plan_id":"free"},{"bike_id":"a7f9136e-4f42-4f26-9f8f-0bb6ccd7eda2","system_id":"levelo_inurba_marseille","lat":43.30655,"lon":5.40082,"is_reserved":false,"is_disabled":false,"rental_uris":{"android":"levelo://app?vid=a7f9136e-4f42-4f26-9f8f-0bb6ccd7eda2","ios":"levelo://app?vid=a7f9136e-4f42-4f26-9f8f-0bb6ccd7eda2"},"vehicle_type_id":"4","last_reported":1692533443,"current_range_meters":16400,"station_id":"ce4bh112rcd13ifvqda0","pricing_plan_id":"free"},{"bike_id":"a2313e61-6a3c-48ec-8c51-b4def999f011","system_id":"levelo_inurba_marseille","lat":43.301117,"lon":5.398795,"is_reserved":false,"is_disabled":false,"rental_uris":{"android":"levelo://app?vid=a2313e61-6a3c-48ec-8c51-b4def999f011","ios":"levelo://app?vid=a2313e61-6a3c-48ec-8c51-b4def999f011"},"vehicle_type_id":"4","last_reported":1692533443,"current_range_meters":24400,"station_id":"ce4bh0h2rcd13ifvqd40","pricing_plan_id":"free"},{"bike_id":"f965c954-9206-4a97-b035-75895b629336","system_id":"levelo_inurba_marseille","lat":43.304188,"lon":5.412904,"is_reserved":false,"is_disabled":false,"rental_uris":{"android":"levelo://app?vid=f965c954-9206-4a97-b035-75895b629336","ios":"levelo://app?vid=f965c954-9206-4a97-b035-75895b629336"},"vehicle_type_id":"4","last_reported":1692533443,"current_range_meters":26000,"station_id":"ce4bhop2rcd13ifvqh8g","pricing_plan_id":"free"},{"bike_id":"77916a06-2dd1-4ef6-8420-4da0fec7591a","system_id":"levelo_inurba_marseille","lat":43.298681,"lon":5.397225,"is_reserved":false,"is_disabled":false,"rental_uris":{"android":"levelo://app?vid=77916a06-2dd1-4ef6-8420-4da0fec7591a","ios":"levelo://app?vid=77916a06-2dd1-4ef6-8420-4da0fec7591a"},"vehicle_type_id":"4","last_reported":1692533443,"current_range_meters":10000,"station_id":"ce4bh0h2rcd13ifvqd50","pricing_plan_id":"free"},{"bike_id":"134c9370-92fe-401a-b7bf-797f9eddb655","system_id":"levelo_inurba_marseille","lat":43.286591,"lon":5.363346,"is_reserved":false,"is_disabled":false,"rental_uris":{"android":"levelo://app?vid=134c9370-92fe-401a-b7bf-797f9eddb655","ios":"levelo://app?vid=134c9370-92fe-401a-b7bf-797f9eddb655"},"vehicle_type_id":"4","last_reported":1692533443,"current_range_meters":13200,"station_id":"ce4bhah2rcd13ifvqej0","pricing_plan_id":"free"},{"bike_id":"75199276-b705-4ad7-b6a9-49aeaa84628a","system_id":"levelo_inurba_marseille","lat":43.286591,"lon":5.363346,"is_reserved":false,"is_disabled":false,"rental_uris":{"android":"levelo://app?vid=75199276-b705-4ad7-b6a9-49aeaa84628a","ios":"levelo://app?vid=75199276-b705-4ad7-b6a9-49aeaa84628a"},"vehicle_type_id":"4","last_reported":1692533443,"current_range_meters":31200,"station_id":"ce4bhah2rcd13ifvqej0","pricing_plan_id":"free"},{"bike_id":"96edba41-a5f7-4983-bf2e-4547d614bf43","system_id":"levelo_inurba_marseille","lat":43.286039,"lon":5.370679,"is_reserved":false,"is_disabled":false,"rental_uris":{"android":"levelo://app?vid=96edba41-a5f7-4983-bf2e-4547d614bf43","ios":"levelo://app?vid=96edba41-a5f7-4983-bf2e-4547d614bf43"},"vehicle_type_id":"4","last_reported":1692533443,"current_range_meters":6000,"station_id":"ce4bht12rcd13ifvqi60","pricing_plan_id":"free"},{"bike_id":"36a16ad7-df8c-4e80-94a9-3e8fe475e164","system_id":"levelo_inurba_marseille","lat":43.28605,"lon":5.37061,"is_reserved":false,"is_disabled":false,"rental_uris":{"android":"levelo://app?vid=36a16ad7-df8c-4e80-94a9-3e8fe475e164","ios":"levelo://app?vid=36a16ad7-df8c-4e80-94a9-3e8fe475e164"},"vehicle_type_id":"4","last_reported":1692533443,"current_range_meters":6000,"station_id":"ce4bht12rcd13ifvqi60","pricing_plan_id":"free"},{"bike_id":"43bd1c60-bcde-4f63-9255-8fa2f4ba50da","system_id":"levelo_inurba_marseille","lat":43.31641,"lon":5.40432,"is_reserved":false,"is_disabled":false,"rental_uris":{"android":"levelo://app?vid=43bd1c60-bcde-4f63-9255-8fa2f4ba50da","ios":"levelo://app?vid=43bd1c60-bcde-4f63-9255-8fa2f4ba50da"},"vehicle_type_id":"4","last_reported":1692533443,"current_range_meters":9600,"station_id":"ce4bh012rcd13ifvqd00","pricing_plan_id":"free"},{"bike_id":"7da9e437-1e79-4b5f-9ab0-65254ac17dd7","system_id":"levelo_inurba_marseille","lat":43.31647,"lon":5.40439,"is_reserved":false,"is_disabled":false,"rental_uris":{"android":"levelo://app?vid=7da9e437-1e79-4b5f-9ab0-65254ac17dd7","ios":"levelo://app?vid=7da9e437-1e79-4b5f-9ab0-65254ac17dd7"},"vehicle_type_id":"4","last_reported":1692533443,"current_range_meters":21600,"station_id":"ce4bh012rcd13ifvqd00","pricing_plan_id":"free"},{"bike_id":"7cb3332c-7549-4e08-a1c4-fd48162f11c6","system_id":"levelo_inurba_marseille","lat":43.284538,"lon":5.358657,"is_reserved":false,"is_disabled":false,"rental_uris":{"android":"levelo://app?vid=7cb3332c-7549-4e08-a1c4-fd48162f11c6","ios":"levelo://app?vid=7cb3332c-7549-4e08-a1c4-fd48162f11c6"},"vehicle_type_id":"4","last_reported":1692533443,"current_range_meters":13600,"station_id":"ce4bhah2rcd13ifvqei0","pricing_plan_id":"free"},{"bike_id":"7f7b55c1-4ef7-487a-98a2-e4413282b47e","system_id":"levelo_inurba_marseille","lat":43.285856,"lon":5.350771,"is_reserved":false,"is_disabled":false,"rental_uris":{"android":"levelo://app?vid=7f7b55c1-4ef7-487a-98a2-e4413282b47e","ios":"levelo://app?vid=7f7b55c1-4ef7-487a-98a2-e4413282b47e"},"vehicle_type_id":"4","last_reported":1692533443,"current_range_meters":29600,"station_id":"ce4bhch2rcd13ifvqeug","pricing_plan_id":"free"},{"bike_id":"2ef5ec5b-9cdd-49ca-887d-6e7374f138ab","system_id":"levelo_inurba_marseille","lat":43.2862,"lon":5.35101,"is_reserved":false,"is_disabled":false,"rental_uris":{"android":"levelo://app?vid=2ef5ec5b-9cdd-49ca-887d-6e7374f138ab","ios":"levelo://app?vid=2ef5ec5b-9cdd-49ca-887d-6e7374f138ab"},"vehicle_type_id":"4","last_reported":1692533443,"current_range_meters":27600,"station_id":"ce4bhch2rcd13ifvqeug","pricing_plan_id":"free"},{"bike_id":"388d5bc3-8789-4951-8707-1cde2ba92267","system_id":"levelo_inurba_marseille","lat":43.285856,"lon":5.350771,"is_reserved":false,"is_disabled":false,"rental_uris":{"android":"levelo://app?vid=388d5bc3-8789-4951-8707-1cde2ba92267","ios":"levelo://app?vid=388d5bc3-8789-4951-8707-1cde2ba92267"},"vehicle_type_id":"4","last_reported":1692533443,"current_range_meters":27200,"station_id":"ce4bhch2rcd13ifvqeug","pricing_plan_id":"free"},{"bike_id":"e8ff56f5-3624-4687-b422-b33e9a3cb88e","system_id":"levelo_inurba_marseille","lat":43.28618,"lon":5.35101,"is_reserved":false,"is_disabled":false,"rental_uris":{"android":"levelo://app?vid=e8ff56f5-3624-4687-b422-b33e9a3cb88e","ios":"levelo://app?vid=e8ff56f5-3624-4687-b422-b33e9a3cb88e"},"vehicle_type_id":"4","last_reported":1692533443,"current_range_meters":18000,"station_id":"ce4bhch2rcd13ifvqeug","pricing_plan_id":"free"},{"bike_id":"c5300d0d-ca1a-4b0b-8dda-776a57fbe5a3","system_id":"levelo_inurba_marseille","lat":43.285856,"lon":5.350771,"is_reserved":false,"is_disabled":false,"rental_uris":{"android":"levelo://app?vid=c5300d0d-ca1a-4b0b-8dda-776a57fbe5a3","ios":"levelo://app?vid=c5300d0d-ca1a-4b0b-8dda-776a57fbe5a3"},"vehicle_type_id":"4","last_reported":1692533443,"current_range_meters":23600,"station_id":"ce4bhch2rcd13ifvqeug","pricing_plan_id":"free"},{"bike_id":"490f218c-cb4f-4fc2-a802-725a7fa2065d","system_id":"levelo_inurba_marseille","lat":43.28618,"lon":5.35099,"is_reserved":false,"is_disabled":false,"rental_uris":{"android":"levelo://app?vid=490f218c-cb4f-4fc2-a802-725a7fa2065d","ios":"levelo://app?vid=490f218c-cb4f-4fc2-a802-725a7fa2065d"},"vehicle_type_id":"4","last_reported":1692533443,"current_range_meters":19200,"station_id":"ce4bhch2rcd13ifvqeug","pricing_plan_id":"free"},{"bike_id":"28c1ccf7-8e8d-4587-8e97-d39a1468663e","system_id":"levelo_inurba_marseille","lat":43.28617,"lon":5.35102,"is_reserved":false,"is_disabled":false,"rental_uris":{"android":"levelo://app?vid=28c1ccf7-8e8d-4587-8e97-d39a1468663e","ios":"levelo://app?vid=28c1ccf7-8e8d-4587-8e97-d39a1468663e"},"vehicle_type_id":"4","last_reported":1692533443,"current_range_meters":24000,"station_id":"ce4bhch2rcd13ifvqeug","pricing_plan_id":"free"},{"bike_id":"5b2ebe2b-43eb-425d-bbe5-0ac1d1992703","system_id":"levelo_inurba_marseille","lat":43.285856,"lon":5.350771,"is_reserved":false,"is_disabled":false,"rental_uris":{"android":"levelo://app?vid=5b2ebe2b-43eb-425d-bbe5-0ac1d1992703","ios":"levelo://app?vid=5b2ebe2b-43eb-425d-bbe5-0ac1d1992703"},"vehicle_type_id":"4","last_reported":1692533443,"current_range_meters":18800,"station_id":"ce4bhch2rcd13ifvqeug","pricing_plan_id":"free"},{"bike_id":"c9db8386-c8fe-43e5-b039-f237193b813e","system_id":"levelo_inurba_marseille","lat":43.28616,"lon":5.35098,"is_reserved":false,"is_disabled":false,"rental_uris":{"android":"levelo://app?vid=c9db8386-c8fe-43e5-b039-f237193b813e","ios":"levelo://app?vid=c9db8386-c8fe-43e5-b039-f237193b813e"},"vehicle_type_id":"4","last_reported":1692533443,"current_range_meters":31200,"station_id":"ce4bhch2rcd13ifvqeug","pricing_plan_id":"free"},{"bike_id":"13d056e7-e3cb-4fd3-a5bc-f0b619506c44","system_id":"levelo_inurba_marseille","lat":43.28615,"lon":5.35101,"is_reserved":false,"is_disabled":false,"rental_uris":{"android":"levelo://app?vid=13d056e7-e3cb-4fd3-a5bc-f0b619506c44","ios":"levelo://app?vid=13d056e7-e3cb-4fd3-a5bc-f0b619506c44"},"vehicle_type_id":"4","last_reported":1692533443,"current_range_meters":22000,"station_id":"ce4bhch2rcd13ifvqeug","pricing_plan_id":"free"},{"bike_id":"35eec3a1-aa54-4990-8eb4-78e6c0dd24d0","system_id":"levelo_inurba_marseille","lat":43.285856,"lon":5.350771,"is_reserved":false,"is_disabled":false,"rental_uris":{"android":"levelo://app?vid=35eec3a1-aa54-4990-8eb4-78e6c0dd24d0","ios":"levelo://app?vid=35eec3a1-aa54-4990-8eb4-78e6c0dd24d0"},"vehicle_type_id":"4","last_reported":1692533443,"current_range_meters":29600,"station_id":"ce4bhch2rcd13ifvqeug","pricing_plan_id":"free"},{"bike_id":"8128df5c-dd63-4f00-8cfe-97b21f9b7c85","system_id":"levelo_inurba_marseille","lat":43.285856,"lon":5.350771,"is_reserved":false,"is_disabled":false,"rental_uris":{"android":"levelo://app?vid=8128df5c-dd63-4f00-8cfe-97b21f9b7c85","ios":"levelo://app?vid=8128df5c-dd63-4f00-8cfe-97b21f9b7c85"},"vehicle_type_id":"4","last_reported":1692533443,"current_range_meters":31200,"station_id":"ce4bhch2rcd13ifvqeug","pricing_plan_id":"free"},{"bike_id":"c55c0c5e-3295-46f4-ba50-c24a7a85e4bc","system_id":"levelo_inurba_marseille","lat":43.28614,"lon":5.35101,"is_reserved":false,"is_disabled":false,"rental_uris":{"android":"levelo://app?vid=c55c0c5e-3295-46f4-ba50-c24a7a85e4bc","ios":"levelo://app?vid=c55c0c5e-3295-46f4-ba50-c24a7a85e4bc"},"vehicle_type_id":"4","last_reported":1692533443,"current_range_meters":31200,"station_id":"ce4bhch2rcd13ifvqeug","pricing_plan_id":"free"},{"bike_id":"b98702f3-0e54-4fb5-990c-0cb8a8efe915","system_id":"levelo_inurba_marseille","lat":43.28613,"lon":5.35099,"is_reserved":false,"is_disabled":false,"rental_uris":{"android":"levelo://app?vid=b98702f3-0e54-4fb5-990c-0cb8a8efe915","ios":"levelo://app?vid=b98702f3-0e54-4fb5-990c-0cb8a8efe915"},"vehicle_type_id":"4","last_reported":1692533443,"current_range_meters":16800,"station_id":"ce4bhch2rcd13ifvqeug","pricing_plan_id":"free"},{"bike_id":"58a0be37-f7bd-4b82-9576-fd71333162fa","system_id":"levelo_inurba_marseille","lat":43.2861,"lon":5.35098,"is_reserved":false,"is_disabled":false,"rental_uris":{"android":"levelo://app?vid=58a0be37-f7bd-4b82-9576-fd71333162fa","ios":"levelo://app?vid=58a0be37-f7bd-4b82-9576-fd71333162fa"},"vehicle_type_id":"4","last_reported":1692533443,"current_range_meters":21600,"station_id":"ce4bhch2rcd13ifvqeug","pricing_plan_id":"free"},{"bike_id":"f1536ed0-8d90-4d9a-9372-3c087e5e7ef4","system_id":"levelo_inurba_marseille","lat":43.28609,"lon":5.35101,"is_reserved":false,"is_disabled":false,"rental_uris":{"android":"levelo://app?vid=f1536ed0-8d90-4d9a-9372-3c087e5e7ef4","ios":"levelo://app?vid=f1536ed0-8d90-4d9a-9372-3c087e5e7ef4"},"vehicle_type_id":"4","last_reported":1692533443,"current_range_meters":20000,"station_id":"ce4bhch2rcd13ifvqeug","pricing_plan_id":"free"},{"bike_id":"d0984c5c-af4b-43e2-abf0-7429241166e6","system_id":"levelo_inurba_marseille","lat":43.28604,"lon":5.35107,"is_reserved":false,"is_disabled":false,"rental_uris":{"android":"levelo://app?vid=d0984c5c-af4b-43e2-abf0-7429241166e6","ios":"levelo://app?vid=d0984c5c-af4b-43e2-abf0-7429241166e6"},"vehicle_type_id":"4","last_reported":1692533443,"current_range_meters":16800,"station_id":"ce4bhch2rcd13ifvqeug","pricing_plan_id":"free"},{"bike_id":"2363d3b5-6c15-401a-a59c-ee80bd4af927","system_id":"levelo_inurba_marseille","lat":43.28415,"lon":5.37522,"is_reserved":false,"is_disabled":false,"rental_uris":{"android":"levelo://app?vid=2363d3b5-6c15-401a-a59c-ee80bd4af927","ios":"levelo://app?vid=2363d3b5-6c15-401a-a59c-ee80bd4af927"},"vehicle_type_id":"4","last_reported":1692533443,"current_range_meters":17200,"station_id":"ce4bh412rcd13ifvqds0","pricing_plan_id":"free"},{"bike_id":"79399c60-da11-4cc0-9921-ba01e3136be9","system_id":"levelo_inurba_marseille","lat":43.283998,"lon":5.375062,"is_reserved":false,"is_disabled":false,"rental_uris":{"android":"levelo://app?vid=79399c60-da11-4cc0-9921-ba01e3136be9","ios":"levelo://app?vid=79399c60-da11-4cc0-9921-ba01e3136be9"},"vehicle_type_id":"4","last_reported":1692533443,"current_range_meters":10800,"station_id":"ce4bh412rcd13ifvqds0","pricing_plan_id":"free"},{"bike_id":"ac4dcaf8-75f7-4c7b-b9a0-08f57b9b28a5","system_id":"levelo_inurba_marseille","lat":43.286595,"lon":5.386795,"is_reserved":false,"is_disabled":false,"rental_uris":{"android":"levelo://app?vid=ac4dcaf8-75f7-4c7b-b9a0-08f57b9b28a5","ios":"levelo://app?vid=ac4dcaf8-75f7-4c7b-b9a0-08f57b9b28a5"},"vehicle_type_id":"4","last_reported":1692533443,"current_range_meters":29200,"station_id":"ce4bh492rcd13ifvqdug","pricing_plan_id":"free"},{"bike_id":"e63a24e9-4d9d-4b90-829e-bb9789271d21","system_id":"levelo_inurba_marseille","lat":43.319179,"lon":5.407725,"is_reserved":false,"is_disabled":false,"rental_uris":{"android":"levelo://app?vid=e63a24e9-4d9d-4b90-829e-bb9789271d21","ios":"levelo://app?vid=e63a24e9-4d9d-4b90-829e-bb9789271d21"},"vehicle_type_id":"4","last_reported":1692533443,"current_range_meters":22800,"station_id":"ce4bhq12rcd13ifvqhig","pricing_plan_id":"free"},{"bike_id":"1b87b56f-4215-463a-b1c5-b340fcd8ac67","system_id":"levelo_inurba_marseille","lat":43.31884,"lon":5.4073,"is_reserved":false,"is_disabled":false,"rental_uris":{"android":"levelo://app?vid=1b87b56f-4215-463a-b1c5-b340fcd8ac67","ios":"levelo://app?vid=1b87b56f-4215-463a-b1c5-b340fcd8ac67"},"vehicle_type_id":"4","last_reported":1692533443,"current_range_meters":1200,"station_id":"","pricing_plan_id":"free"},{"bike_id":"942613c3-2b7e-447d-9c00-68442e28d06c","system_id":"levelo_inurba_marseille","lat":43.31885,"lon":5.40732,"is_reserved":false,"is_disabled":false,"rental_uris":{"android":"levelo://app?vid=942613c3-2b7e-447d-9c00-68442e28d06c","ios":"levelo://app?vid=942613c3-2b7e-447d-9c00-68442e28d06c"},"vehicle_type_id":"4","last_reported":1692533443,"current_range_meters":18000,"station_id":"ce4bhq12rcd13ifvqhig","pricing_plan_id":"free"},{"bike_id":"bdc3f47b-e1d1-4a3a-b0c1-e8a91d4b0833","system_id":"levelo_inurba_marseille","lat":43.319179,"lon":5.407725,"is_reserved":false,"is_disabled":false,"rental_uris":{"android":"levelo://app?vid=bdc3f47b-e1d1-4a3a-b0c1-e8a91d4b0833","ios":"levelo://app?vid=bdc3f47b-e1d1-4a3a-b0c1-e8a91d4b0833"},"vehicle_type_id":"4","last_reported":1692533443,"current_range_meters":16800,"station_id":"ce4bhq12rcd13ifvqhig","pricing_plan_id":"free"},{"bike_id":"f13d5e3e-fdf4-4bdd-8a95-6e8a1ceb27f9","system_id":"levelo_inurba_marseille","lat":43.31886,"lon":5.40737,"is_reserved":false,"is_disabled":false,"rental_uris":{"android":"levelo://app?vid=f13d5e3e-fdf4-4bdd-8a95-6e8a1ceb27f9","ios":"levelo://app?vid=f13d5e3e-fdf4-4bdd-8a95-6e8a1ceb27f9"},"vehicle_type_id":"4","last_reported":1692533443,"current_range_meters":30000,"station_id":"ce4bhq12rcd13ifvqhig","pricing_plan_id":"free"},{"bike_id":"17105054-6fd8-493b-b0be-1ed88688055c","system_id":"levelo_inurba_marseille","lat":43.33709,"lon":5.39174,"is_reserved":false,"is_disabled":false,"rental_uris":{"android":"levelo://app?vid=17105054-6fd8-493b-b0be-1ed88688055c","ios":"levelo://app?vid=17105054-6fd8-493b-b0be-1ed88688055c"},"vehicle_type_id":"4","last_reported":1692533443,"current_range_meters":26400,"station_id":"ce4bhr92rcd13ifvqhsg","pricing_plan_id":"free"},{"bike_id":"2b3f06e0-8f2d-4133-9563-f19f57fe46e5","system_id":"levelo_inurba_marseille","lat":43.33716,"lon":5.39173,"is_reserved":false,"is_disabled":false,"rental_uris":{"android":"levelo://app?vid=2b3f06e0-8f2d-4133-9563-f19f57fe46e5","ios":"levelo://app?vid=2b3f06e0-8f2d-4133-9563-f19f57fe46e5"},"vehicle_type_id":"4","last_reported":1692533443,"current_range_meters":6800,"station_id":"ce4bhr92rcd13ifvqhsg","pricing_plan_id":"free"},{"bike_id":"72fc020d-a1d4-460a-a3d1-6187a1ea65d2","system_id":"levelo_inurba_marseille","lat":43.33718,"lon":5.39172,"is_reserved":false,"is_disabled":false,"rental_uris":{"android":"levelo://app?vid=72fc020d-a1d4-460a-a3d1-6187a1ea65d2","ios":"levelo://app?vid=72fc020d-a1d4-460a-a3d1-6187a1ea65d2"},"vehicle_type_id":"4","last_reported":1692533443,"current_range_meters":23200,"station_id":"ce4bhr92rcd13ifvqhsg","pricing_plan_id":"free"},{"bike_id":"186ddf38-a5ca-44a9-9dd3-9bfe2a53544b","system_id":"levelo_inurba_marseille","lat":43.33719,"lon":5.39175,"is_reserved":false,"is_disabled":false,"rental_uris":{"android":"levelo://app?vid=186ddf38-a5ca-44a9-9dd3-9bfe2a53544b","ios":"levelo://app?vid=186ddf38-a5ca-44a9-9dd3-9bfe2a53544b"},"vehicle_type_id":"4","last_reported":1692533443,"current_range_meters":25200,"station_id":"ce4bhr92rcd13ifvqhsg","pricing_plan_id":"free"},{"bike_id":"c24cecf2-0503-470c-b3d3-fc37f377f710","system_id":"levelo_inurba_marseille","lat":43.33719,"lon":5.39178,"is_reserved":false,"is_disabled":false,"rental_uris":{"android":"levelo://app?vid=c24cecf2-0503-470c-b3d3-fc37f377f710","ios":"levelo://app?vid=c24cecf2-0503-470c-b3d3-fc37f377f710"},"vehicle_type_id":"4","last_reported":1692533443,"current_range_meters":25200,"station_id":"ce4bhr92rcd13ifvqhsg","pricing_plan_id":"free"},{"bike_id":"e45012d8-673a-4bd6-93d3-a427f767a00d","system_id":"levelo_inurba_marseille","lat":43.33722,"lon":5.39177,"is_reserved":false,"is_disabled":false,"rental_uris":{"android":"levelo://app?vid=e45012d8-673a-4bd6-93d3-a427f767a00d","ios":"levelo://app?vid=e45012d8-673a-4bd6-93d3-a427f767a00d"},"vehicle_type_id":"4","last_reported":1692533443,"current_range_meters":24000,"station_id":"ce4bhr92rcd13ifvqhsg","pricing_plan_id":"free"},{"bike_id":"7d2969ab-a065-4a23-b19e-667095d799c9","system_id":"levelo_inurba_marseille","lat":43.33723,"lon":5.39176,"is_reserved":false,"is_disabled":false,"rental_uris":{"android":"levelo://app?vid=7d2969ab-a065-4a23-b19e-667095d799c9","ios":"levelo://app?vid=7d2969ab-a065-4a23-b19e-667095d799c9"},"vehicle_type_id":"4","last_reported":1692533443,"current_range_meters":6400,"station_id":"ce4bhr92rcd13ifvqhsg","pricing_plan_id":"free"},{"bike_id":"efe8b264-ad35-4139-b98d-40041f267f16","system_id":"levelo_inurba_marseille","lat":43.33722,"lon":5.39178,"is_reserved":false,"is_disabled":false,"rental_uris":{"android":"levelo://app?vid=efe8b264-ad35-4139-b98d-40041f267f16","ios":"levelo://app?vid=efe8b264-ad35-4139-b98d-40041f267f16"},"vehicle_type_id":"4","last_reported":1692533443,"current_range_meters":23600,"station_id":"ce4bhr92rcd13ifvqhsg","pricing_plan_id":"free"},{"bike_id":"8bd09c71-02ae-4371-8b55-ce1e7e2bf2df","system_id":"levelo_inurba_marseille","lat":43.33719,"lon":5.39186,"is_reserved":false,"is_disabled":false,"rental_uris":{"android":"levelo://app?vid=8bd09c71-02ae-4371-8b55-ce1e7e2bf2df","ios":"levelo://app?vid=8bd09c71-02ae-4371-8b55-ce1e7e2bf2df"},"vehicle_type_id":"4","last_reported":1692533443,"current_range_meters":26400,"station_id":"ce4bhr92rcd13ifvqhsg","pricing_plan_id":"free"},{"bike_id":"0dda2562-498f-4f90-abfb-f3c666db2d2e","system_id":"levelo_inurba_marseille","lat":43.33725,"lon":5.39183,"is_reserved":false,"is_disabled":false,"rental_uris":{"android":"levelo://app?vid=0dda2562-498f-4f90-abfb-f3c666db2d2e","ios":"levelo://app?vid=0dda2562-498f-4f90-abfb-f3c666db2d2e"},"vehicle_type_id":"4","last_reported":1692533443,"current_range_meters":20000,"station_id":"ce4bhr92rcd13ifvqhsg","pricing_plan_id":"free"},{"bike_id":"01f563c5-7ac0-4d44-b1b3-0549f3b949f3","system_id":"levelo_inurba_marseille","lat":43.33723,"lon":5.39188,"is_reserved":false,"is_disabled":false,"rental_uris":{"android":"levelo://app?vid=01f563c5-7ac0-4d44-b1b3-0549f3b949f3","ios":"levelo://app?vid=01f563c5-7ac0-4d44-b1b3-0549f3b949f3"},"vehicle_type_id":"4","last_reported":1692533443,"current_range_meters":26400,"station_id":"ce4bhr92rcd13ifvqhsg","pricing_plan_id":"free"},{"bike_id":"12c0f407-4ac2-49d3-b1e8-783bd26a8644","system_id":"levelo_inurba_marseille","lat":43.33724,"lon":5.39188,"is_reserved":false,"is_disabled":false,"rental_uris":{"android":"levelo://app?vid=12c0f407-4ac2-49d3-b1e8-783bd26a8644","ios":"levelo://app?vid=12c0f407-4ac2-49d3-b1e8-783bd26a8644"},"vehicle_type_id":"4","last_reported":1692533443,"current_range_meters":25600,"station_id":"ce4bhr92rcd13ifvqhsg","pricing_plan_id":"free"},{"bike_id":"02f29c2d-847e-4148-9200-bdb4c19acc46","system_id":"levelo_inurba_marseille","lat":43.3373,"lon":5.39184,"is_reserved":false,"is_disabled":false,"rental_uris":{"android":"levelo://app?vid=02f29c2d-847e-4148-9200-bdb4c19acc46","ios":"levelo://app?vid=02f29c2d-847e-4148-9200-bdb4c19acc46"},"vehicle_type_id":"4","last_reported":1692533443,"current_range_meters":26000,"station_id":"ce4bhr92rcd13ifvqhsg","pricing_plan_id":"free"},{"bike_id":"9b4b587b-24f8-4427-a599-ca521fbb0882","system_id":"levelo_inurba_marseille","lat":43.28424,"lon":5.34991,"is_reserved":false,"is_disabled":false,"rental_uris":{"android":"levelo://app?vid=9b4b587b-24f8-4427-a599-ca521fbb0882","ios":"levelo://app?vid=9b4b587b-24f8-4427-a599-ca521fbb0882"},"vehicle_type_id":"4","last_reported":1692533443,"current_range_meters":26800,"station_id":"ce4bhbh2rcd13ifvqepg","pricing_plan_id":"free"},{"bike_id":"e44d1e31-fb7d-4d45-b4eb-c060512db9cb","system_id":"levelo_inurba_marseille","lat":43.28422,"lon":5.34991,"is_reserved":false,"is_disabled":false,"rental_uris":{"android":"levelo://app?vid=e44d1e31-fb7d-4d45-b4eb-c060512db9cb","ios":"levelo://app?vid=e44d1e31-fb7d-4d45-b4eb-c060512db9cb"},"vehicle_type_id":"4","last_reported":1692533443,"current_range_meters":30000,"station_id":"ce4bhbh2rcd13ifvqepg","pricing_plan_id":"free"},{"bike_id":"0c4b6542-aeb1-4ff5-b556-5dc03a8c9046","system_id":"levelo_inurba_marseille","lat":43.28417,"lon":5.34988,"is_reserved":false,"is_disabled":false,"rental_uris":{"android":"levelo://app?vid=0c4b6542-aeb1-4ff5-b556-5dc03a8c9046","ios":"levelo://app?vid=0c4b6542-aeb1-4ff5-b556-5dc03a8c9046"},"vehicle_type_id":"4","last_reported":1692533443,"current_range_meters":24000,"station_id":"ce4bhbh2rcd13ifvqepg","pricing_plan_id":"free"},{"bike_id":"ded535db-8116-47d9-9076-0aa3e207106a","system_id":"levelo_inurba_marseille","lat":43.28416,"lon":5.34991,"is_reserved":false,"is_disabled":false,"rental_uris":{"android":"levelo://app?vid=ded535db-8116-47d9-9076-0aa3e207106a","ios":"levelo://app?vid=ded535db-8116-47d9-9076-0aa3e207106a"},"vehicle_type_id":"4","last_reported":1692533443,"current_range_meters":23200,"station_id":"ce4bhbh2rcd13ifvqepg","pricing_plan_id":"free"},{"bike_id":"c1577571-ee1d-4ea4-9f29-774108388e89","system_id":"levelo_inurba_marseille","lat":43.28424,"lon":5.34965,"is_reserved":false,"is_disabled":false,"rental_uris":{"android":"levelo://app?vid=c1577571-ee1d-4ea4-9f29-774108388e89","ios":"levelo://app?vid=c1577571-ee1d-4ea4-9f29-774108388e89"},"vehicle_type_id":"4","last_reported":1692533443,"current_range_meters":14000,"station_id":"ce4bhbh2rcd13ifvqepg","pricing_plan_id":"free"},{"bike_id":"05c0ea99-3bc7-454e-8314-ea424bcbf8f9","system_id":"levelo_inurba_marseille","lat":43.284217,"lon":5.349697,"is_reserved":false,"is_disabled":false,"rental_uris":{"android":"levelo://app?vid=05c0ea99-3bc7-454e-8314-ea424bcbf8f9","ios":"levelo://app?vid=05c0ea99-3bc7-454e-8314-ea424bcbf8f9"},"vehicle_type_id":"4","last_reported":1692533443,"current_range_meters":31200,"station_id":"ce4bhbh2rcd13ifvqepg","pricing_plan_id":"free"},{"bike_id":"ba3691b5-3c59-476d-a171-f578ef6422e2","system_id":"levelo_inurba_marseille","lat":43.28415,"lon":5.34988,"is_reserved":false,"is_disabled":false,"rental_uris":{"android":"levelo://app?vid=ba3691b5-3c59-476d-a171-f578ef6422e2","ios":"levelo://app?vid=ba3691b5-3c59-476d-a171-f578ef6422e2"},"vehicle_type_id":"4","last_reported":1692533443,"current_range_meters":26000,"station_id":"ce4bhbh2rcd13ifvqepg","pricing_plan_id":"free"},{"bike_id":"3a78b823-185c-439d-af78-03f7e0b4a6ce","system_id":"levelo_inurba_marseille","lat":43.28414,"lon":5.34991,"is_reserved":false,"is_disabled":false,"rental_uris":{"android":"levelo://app?vid=3a78b823-185c-439d-af78-03f7e0b4a6ce","ios":"levelo://app?vid=3a78b823-185c-439d-af78-03f7e0b4a6ce"},"vehicle_type_id":"4","last_reported":1692533443,"current_range_meters":26400,"station_id":"ce4bhbh2rcd13ifvqepg","pricing_plan_id":"free"},{"bike_id":"1c51d1d5-ab99-47e6-a431-bb9337f29bb3","system_id":"levelo_inurba_marseille","lat":43.28414,"lon":5.34986,"is_reserved":false,"is_disabled":false,"rental_uris":{"android":"levelo://app?vid=1c51d1d5-ab99-47e6-a431-bb9337f29bb3","ios":"levelo://app?vid=1c51d1d5-ab99-47e6-a431-bb9337f29bb3"},"vehicle_type_id":"4","last_reported":1692533443,"current_range_meters":24800,"station_id":"ce4bhbh2rcd13ifvqepg","pricing_plan_id":"free"},{"bike_id":"cb38a159-6ed3-4430-892d-95dc4c9f513a","system_id":"levelo_inurba_marseille","lat":43.284217,"lon":5.349697,"is_reserved":false,"is_disabled":false,"rental_uris":{"android":"levelo://app?vid=cb38a159-6ed3-4430-892d-95dc4c9f513a","ios":"levelo://app?vid=cb38a159-6ed3-4430-892d-95dc4c9f513a"},"vehicle_type_id":"4","last_reported":1692533443,"current_range_meters":18400,"station_id":"ce4bhbh2rcd13ifvqepg","pricing_plan_id":"free"},{"bike_id":"a0b4d391-e169-4cb5-bd1c-90095e4e3a4e","system_id":"levelo_inurba_marseille","lat":43.284217,"lon":5.349697,"is_reserved":false,"is_disabled":false,"rental_uris":{"android":"levelo://app?vid=a0b4d391-e169-4cb5-bd1c-90095e4e3a4e","ios":"levelo://app?vid=a0b4d391-e169-4cb5-bd1c-90095e4e3a4e"},"vehicle_type_id":"4","last_reported":1692533443,"current_range_meters":12000,"station_id":"ce4bhbh2rcd13ifvqepg","pricing_plan_id":"free"},{"bike_id":"81c06f98-c720-4905-94f9-831ec4e17e2b","system_id":"levelo_inurba_marseille","lat":43.28415,"lon":5.34976,"is_reserved":false,"is_disabled":false,"rental_uris":{"android":"levelo://app?vid=81c06f98-c720-4905-94f9-831ec4e17e2b","ios":"levelo://app?vid=81c06f98-c720-4905-94f9-831ec4e17e2b"},"vehicle_type_id":"4","last_reported":1692533443,"current_range_meters":17200,"station_id":"ce4bhbh2rcd13ifvqepg","pricing_plan_id":"free"},{"bike_id":"82935ee0-305e-4c20-b8ea-282184fada34","system_id":"levelo_inurba_marseille","lat":43.28412,"lon":5.34985,"is_reserved":false,"is_disabled":false,"rental_uris":{"android":"levelo://app?vid=82935ee0-305e-4c20-b8ea-282184fada34","ios":"levelo://app?vid=82935ee0-305e-4c20-b8ea-282184fada34"},"vehicle_type_id":"4","last_reported":1692533443,"current_range_meters":31200,"station_id":"ce4bhbh2rcd13ifvqepg","pricing_plan_id":"free"},{"bike_id":"1eeb51f9-4b42-45be-b69e-90d11c587f78","system_id":"levelo_inurba_marseille","lat":43.284217,"lon":5.349697,"is_reserved":false,"is_disabled":false,"rental_uris":{"android":"levelo://app?vid=1eeb51f9-4b42-45be-b69e-90d11c587f78","ios":"levelo://app?vid=1eeb51f9-4b42-45be-b69e-90d11c587f78"},"vehicle_type_id":"4","last_reported":1692533443,"current_range_meters":27200,"station_id":"ce4bhbh2rcd13ifvqepg","pricing_plan_id":"free"},{"bike_id":"449275bc-2a78-49c5-b2b8-5f6c36b963d0","system_id":"levelo_inurba_marseille","lat":43.28408,"lon":5.34992,"is_reserved":false,"is_disabled":false,"rental_uris":{"android":"levelo://app?vid=449275bc-2a78-49c5-b2b8-5f6c36b963d0","ios":"levelo://app?vid=449275bc-2a78-49c5-b2b8-5f6c36b963d0"},"vehicle_type_id":"4","last_reported":1692533443,"current_range_meters":17600,"station_id":"ce4bhbh2rcd13ifvqepg","pricing_plan_id":"free"},{"bike_id":"98cb8c24-c43f-4ae5-b11c-2a2781d08800","system_id":"levelo_inurba_marseille","lat":43.284217,"lon":5.349697,"is_reserved":false,"is_disabled":false,"rental_uris":{"android":"levelo://app?vid=98cb8c24-c43f-4ae5-b11c-2a2781d08800","ios":"levelo://app?vid=98cb8c24-c43f-4ae5-b11c-2a2781d08800"},"vehicle_type_id":"4","last_reported":1692533443,"current_range_meters":23600,"station_id":"ce4bhbh2rcd13ifvqepg","pricing_plan_id":"free"},{"bike_id":"10402b9e-9e40-42fc-bd9f-f6fff853fd73","system_id":"levelo_inurba_marseille","lat":43.284217,"lon":5.349697,"is_reserved":false,"is_disabled":false,"rental_uris":{"android":"levelo://app?vid=10402b9e-9e40-42fc-bd9f-f6fff853fd73","ios":"levelo://app?vid=10402b9e-9e40-42fc-bd9f-f6fff853fd73"},"vehicle_type_id":"4","last_reported":1692533443,"current_range_meters":27200,"station_id":"ce4bhbh2rcd13ifvqepg","pricing_plan_id":"free"},{"bike_id":"d8e0f08d-5d04-4166-9c19-4ca03a40f463","system_id":"levelo_inurba_marseille","lat":43.284217,"lon":5.349697,"is_reserved":false,"is_disabled":false,"rental_uris":{"android":"levelo://app?vid=d8e0f08d-5d04-4166-9c19-4ca03a40f463","ios":"levelo://app?vid=d8e0f08d-5d04-4166-9c19-4ca03a40f463"},"vehicle_type_id":"4","last_reported":1692533443,"current_range_meters":20800,"station_id":"ce4bhbh2rcd13ifvqepg","pricing_plan_id":"free"},{"bike_id":"6f59593a-a7a2-4f12-99bc-468eae9a35cb","system_id":"levelo_inurba_marseille","lat":43.284217,"lon":5.349697,"is_reserved":false,"is_disabled":false,"rental_uris":{"android":"levelo://app?vid=6f59593a-a7a2-4f12-99bc-468eae9a35cb","ios":"levelo://app?vid=6f59593a-a7a2-4f12-99bc-468eae9a35cb"},"vehicle_type_id":"4","last_reported":1692533443,"current_range_meters":13600,"station_id":"ce4bhbh2rcd13ifvqepg","pricing_plan_id":"free"},{"bike_id":"d469c425-9fe3-4880-bc9e-6ab171e4a129","system_id":"levelo_inurba_marseille","lat":43.284217,"lon":5.349697,"is_reserved":false,"is_disabled":false,"rental_uris":{"android":"levelo://app?vid=d469c425-9fe3-4880-bc9e-6ab171e4a129","ios":"levelo://app?vid=d469c425-9fe3-4880-bc9e-6ab171e4a129"},"vehicle_type_id":"4","last_reported":1692533443,"current_range_meters":31200,"station_id":"ce4bhbh2rcd13ifvqepg","pricing_plan_id":"free"},{"bike_id":"8f6893bb-ec38-4728-b8d9-d234ff347755","system_id":"levelo_inurba_marseille","lat":43.28409,"lon":5.34986,"is_reserved":false,"is_disabled":false,"rental_uris":{"android":"levelo://app?vid=8f6893bb-ec38-4728-b8d9-d234ff347755","ios":"levelo://app?vid=8f6893bb-ec38-4728-b8d9-d234ff347755"},"vehicle_type_id":"4","last_reported":1692533443,"current_range_meters":23600,"station_id":"ce4bhbh2rcd13ifvqepg","pricing_plan_id":"free"},{"bike_id":"66139586-765e-4df4-852b-17d508c1991d","system_id":"levelo_inurba_marseille","lat":43.2841,"lon":5.34982,"is_reserved":false,"is_disabled":false,"rental_uris":{"android":"levelo://app?vid=66139586-765e-4df4-852b-17d508c1991d","ios":"levelo://app?vid=66139586-765e-4df4-852b-17d508c1991d"},"vehicle_type_id":"4","last_reported":1692533443,"current_range_meters":13200,"station_id":"ce4bhbh2rcd13ifvqepg","pricing_plan_id":"free"},{"bike_id":"cbab3a93-0879-405f-8af0-54bff1d5bbc5","system_id":"levelo_inurba_marseille","lat":43.284217,"lon":5.349697,"is_reserved":false,"is_disabled":false,"rental_uris":{"android":"levelo://app?vid=cbab3a93-0879-405f-8af0-54bff1d5bbc5","ios":"levelo://app?vid=cbab3a93-0879-405f-8af0-54bff1d5bbc5"},"vehicle_type_id":"4","last_reported":1692533443,"current_range_meters":20400,"station_id":"ce4bhbh2rcd13ifvqepg","pricing_plan_id":"free"},{"bike_id":"50877f9c-1af7-4652-8915-c103f79cc58f","system_id":"levelo_inurba_marseille","lat":43.284217,"lon":5.349697,"is_reserved":false,"is_disabled":false,"rental_uris":{"android":"levelo://app?vid=50877f9c-1af7-4652-8915-c103f79cc58f","ios":"levelo://app?vid=50877f9c-1af7-4652-8915-c103f79cc58f"},"vehicle_type_id":"4","last_reported":1692533443,"current_range_meters":27600,"station_id":"ce4bhbh2rcd13ifvqepg","pricing_plan_id":"free"},{"bike_id":"bf590359-a6e5-40e1-b4ac-dd91551bde50","system_id":"levelo_inurba_marseille","lat":43.28408,"lon":5.34978,"is_reserved":false,"is_disabled":false,"rental_uris":{"android":"levelo://app?vid=bf590359-a6e5-40e1-b4ac-dd91551bde50","ios":"levelo://app?vid=bf590359-a6e5-40e1-b4ac-dd91551bde50"},"vehicle_type_id":"4","last_reported":1692533443,"current_range_meters":24000,"station_id":"ce4bhbh2rcd13ifvqepg","pricing_plan_id":"free"},{"bike_id":"f7e4ee91-d841-4871-b720-634b8a3aa3b3","system_id":"levelo_inurba_marseille","lat":43.284217,"lon":5.349697,"is_reserved":false,"is_disabled":false,"rental_uris":{"android":"levelo://app?vid=f7e4ee91-d841-4871-b720-634b8a3aa3b3","ios":"levelo://app?vid=f7e4ee91-d841-4871-b720-634b8a3aa3b3"},"vehicle_type_id":"4","last_reported":1692533443,"current_range_meters":10400,"station_id":"ce4bhbh2rcd13ifvqepg","pricing_plan_id":"free"},{"bike_id":"a31e86b3-ea18-43f9-b1f7-dd803fc797fc","system_id":"levelo_inurba_marseille","lat":43.28408,"lon":5.34975,"is_reserved":false,"is_disabled":false,"rental_uris":{"android":"levelo://app?vid=a31e86b3-ea18-43f9-b1f7-dd803fc797fc","ios":"levelo://app?vid=a31e86b3-ea18-43f9-b1f7-dd803fc797fc"},"vehicle_type_id":"4","last_reported":1692533443,"current_range_meters":24000,"station_id":"ce4bhbh2rcd13ifvqepg","pricing_plan_id":"free"},{"bike_id":"af5969d4-4493-4a0e-a09a-bb4d639951ea","system_id":"levelo_inurba_marseille","lat":43.284217,"lon":5.349697,"is_reserved":false,"is_disabled":false,"rental_uris":{"android":"levelo://app?vid=af5969d4-4493-4a0e-a09a-bb4d639951ea","ios":"levelo://app?vid=af5969d4-4493-4a0e-a09a-bb4d639951ea"},"vehicle_type_id":"4","last_reported":1692533443,"current_range_meters":17200,"station_id":"ce4bhbh2rcd13ifvqepg","pricing_plan_id":"free"},{"bike_id":"9e2cc02c-a705-4060-9eaf-1b318d132dda","system_id":"levelo_inurba_marseille","lat":43.284217,"lon":5.349697,"is_reserved":false,"is_disabled":false,"rental_uris":{"android":"levelo://app?vid=9e2cc02c-a705-4060-9eaf-1b318d132dda","ios":"levelo://app?vid=9e2cc02c-a705-4060-9eaf-1b318d132dda"},"vehicle_type_id":"4","last_reported":1692533443,"current_range_meters":26000,"station_id":"ce4bhbh2rcd13ifvqepg","pricing_plan_id":"free"},{"bike_id":"f50aca5f-cf5b-4020-925f-826a2e34874f","system_id":"levelo_inurba_marseille","lat":43.28938,"lon":5.39629,"is_reserved":false,"is_disabled":false,"rental_uris":{"android":"levelo://app?vid=f50aca5f-cf5b-4020-925f-826a2e34874f","ios":"levelo://app?vid=f50aca5f-cf5b-4020-925f-826a2e34874f"},"vehicle_type_id":"4","last_reported":1692533443,"current_range_meters":30400,"station_id":"ce4bh3h2rcd13ifvqdn0","pricing_plan_id":"free"},{"bike_id":"b96d179c-0f29-4388-94dd-9344818a3aa4","system_id":"levelo_inurba_marseille","lat":43.29266,"lon":5.40112,"is_reserved":false,"is_disabled":false,"rental_uris":{"android":"levelo://app?vid=b96d179c-0f29-4388-94dd-9344818a3aa4","ios":"levelo://app?vid=b96d179c-0f29-4388-94dd-9344818a3aa4"},"vehicle_type_id":"4","last_reported":1692533443,"current_range_meters":17600,"station_id":"ce4bh312rcd13ifvqdk0","pricing_plan_id":"free"},{"bike_id":"5cec26ac-344f-432b-af34-450b75305b9b","system_id":"levelo_inurba_marseille","lat":43.292724,"lon":5.401131,"is_reserved":false,"is_disabled":false,"rental_uris":{"android":"levelo://app?vid=5cec26ac-344f-432b-af34-450b75305b9b","ios":"levelo://app?vid=5cec26ac-344f-432b-af34-450b75305b9b"},"vehicle_type_id":"4","last_reported":1692533443,"current_range_meters":31200,"station_id":"ce4bh312rcd13ifvqdk0","pricing_plan_id":"free"},{"bike_id":"fa33eac5-4ffc-49ff-8c44-4d919615facb","system_id":"levelo_inurba_marseille","lat":43.282754,"lon":5.350519,"is_reserved":false,"is_disabled":false,"rental_uris":{"android":"levelo://app?vid=fa33eac5-4ffc-49ff-8c44-4d919615facb","ios":"levelo://app?vid=fa33eac5-4ffc-49ff-8c44-4d919615facb"},"vehicle_type_id":"4","last_reported":1692533443,"current_range_meters":24400,"station_id":"ce4bhbp2rcd13ifvqerg","pricing_plan_id":"free"},{"bike_id":"30bc0840-a1f3-4f3d-8a6d-b598e8296133","system_id":"levelo_inurba_marseille","lat":43.282754,"lon":5.350519,"is_reserved":false,"is_disabled":false,"rental_uris":{"android":"levelo://app?vid=30bc0840-a1f3-4f3d-8a6d-b598e8296133","ios":"levelo://app?vid=30bc0840-a1f3-4f3d-8a6d-b598e8296133"},"vehicle_type_id":"4","last_reported":1692533443,"current_range_meters":31200,"station_id":"ce4bhbp2rcd13ifvqerg","pricing_plan_id":"free"},{"bike_id":"b034ba69-a764-4f4f-8988-008b6912a5a1","system_id":"levelo_inurba_marseille","lat":43.28269,"lon":5.35056,"is_reserved":false,"is_disabled":false,"rental_uris":{"android":"levelo://app?vid=b034ba69-a764-4f4f-8988-008b6912a5a1","ios":"levelo://app?vid=b034ba69-a764-4f4f-8988-008b6912a5a1"},"vehicle_type_id":"4","last_reported":1692533443,"current_range_meters":31200,"station_id":"ce4bhbp2rcd13ifvqerg","pricing_plan_id":"free"},{"bike_id":"88940920-727e-47f8-bee6-24feedff1167","system_id":"levelo_inurba_marseille","lat":43.282744,"lon":5.350533,"is_reserved":false,"is_disabled":false,"rental_uris":{"android":"levelo://app?vid=88940920-727e-47f8-bee6-24feedff1167","ios":"levelo://app?vid=88940920-727e-47f8-bee6-24feedff1167"},"vehicle_type_id":"4","last_reported":1692533443,"current_range_meters":30000,"station_id":"ce4bhbp2rcd13ifvqerg","pricing_plan_id":"free"},{"bike_id":"dc672be6-7fb3-4466-9316-46492c973698","system_id":"levelo_inurba_marseille","lat":43.282744,"lon":5.350533,"is_reserved":false,"is_disabled":false,"rental_uris":{"android":"levelo://app?vid=dc672be6-7fb3-4466-9316-46492c973698","ios":"levelo://app?vid=dc672be6-7fb3-4466-9316-46492c973698"},"vehicle_type_id":"4","last_reported":1692533443,"current_range_meters":0,"station_id":"ce4bhbp2rcd13ifvqerg","pricing_plan_id":"free"},{"bike_id":"5a75947e-5702-4168-b395-646ce5854ff5","system_id":"levelo_inurba_marseille","lat":43.282754,"lon":5.350519,"is_reserved":false,"is_disabled":false,"rental_uris":{"android":"levelo://app?vid=5a75947e-5702-4168-b395-646ce5854ff5","ios":"levelo://app?vid=5a75947e-5702-4168-b395-646ce5854ff5"},"vehicle_type_id":"4","last_reported":1692533443,"current_range_meters":28400,"station_id":"ce4bhbp2rcd13ifvqerg","pricing_plan_id":"free"},{"bike_id":"2d588ad6-7484-4ca0-bda4-6a05edd73dd2","system_id":"levelo_inurba_marseille","lat":43.282754,"lon":5.350519,"is_reserved":false,"is_disabled":false,"rental_uris":{"android":"levelo://app?vid=2d588ad6-7484-4ca0-bda4-6a05edd73dd2","ios":"levelo://app?vid=2d588ad6-7484-4ca0-bda4-6a05edd73dd2"},"vehicle_type_id":"4","last_reported":1692533443,"current_range_meters":17600,"station_id":"ce4bhbp2rcd13ifvqerg","pricing_plan_id":"free"},{"bike_id":"2affab8b-b7a9-4791-9e38-8c9c89e099f4","system_id":"levelo_inurba_marseille","lat":43.282754,"lon":5.350519,"is_reserved":false,"is_disabled":false,"rental_uris":{"android":"levelo://app?vid=2affab8b-b7a9-4791-9e38-8c9c89e099f4","ios":"levelo://app?vid=2affab8b-b7a9-4791-9e38-8c9c89e099f4"},"vehicle_type_id":"4","last_reported":1692533443,"current_range_meters":25200,"station_id":"ce4bhbp2rcd13ifvqerg","pricing_plan_id":"free"},{"bike_id":"64368887-979d-42a6-933b-b421ff926f7a","system_id":"levelo_inurba_marseille","lat":43.282754,"lon":5.350519,"is_reserved":false,"is_disabled":false,"rental_uris":{"android":"levelo://app?vid=64368887-979d-42a6-933b-b421ff926f7a","ios":"levelo://app?vid=64368887-979d-42a6-933b-b421ff926f7a"},"vehicle_type_id":"4","last_reported":1692533443,"current_range_meters":400,"station_id":"ce4bhbp2rcd13ifvqerg","pricing_plan_id":"free"},{"bike_id":"11b1f034-748d-4619-8316-f41303516b11","system_id":"levelo_inurba_marseille","lat":43.282754,"lon":5.350519,"is_reserved":false,"is_disabled":false,"rental_uris":{"android":"levelo://app?vid=11b1f034-748d-4619-8316-f41303516b11","ios":"levelo://app?vid=11b1f034-748d-4619-8316-f41303516b11"},"vehicle_type_id":"4","last_reported":1692533443,"current_range_meters":27200,"station_id":"ce4bhbp2rcd13ifvqerg","pricing_plan_id":"free"},{"bike_id":"e7bb9e1f-c7be-4aa1-bb3e-76e156d89895","system_id":"levelo_inurba_marseille","lat":43.282744,"lon":5.350533,"is_reserved":false,"is_disabled":false,"rental_uris":{"android":"levelo://app?vid=e7bb9e1f-c7be-4aa1-bb3e-76e156d89895","ios":"levelo://app?vid=e7bb9e1f-c7be-4aa1-bb3e-76e156d89895"},"vehicle_type_id":"4","last_reported":1692533443,"current_range_meters":31200,"station_id":"ce4bhbp2rcd13ifvqerg","pricing_plan_id":"free"},{"bike_id":"9bc90c02-cc5a-4f2b-b754-94a015f2a211","system_id":"levelo_inurba_marseille","lat":43.282754,"lon":5.350519,"is_reserved":false,"is_disabled":false,"rental_uris":{"android":"levelo://app?vid=9bc90c02-cc5a-4f2b-b754-94a015f2a211","ios":"levelo://app?vid=9bc90c02-cc5a-4f2b-b754-94a015f2a211"},"vehicle_type_id":"4","last_reported":1692533443,"current_range_meters":27600,"station_id":"ce4bhbp2rcd13ifvqerg","pricing_plan_id":"free"},{"bike_id":"3e54afbe-9dae-4dbc-b335-4a8f80dac08b","system_id":"levelo_inurba_marseille","lat":43.28258,"lon":5.35049,"is_reserved":false,"is_disabled":false,"rental_uris":{"android":"levelo://app?vid=3e54afbe-9dae-4dbc-b335-4a8f80dac08b","ios":"levelo://app?vid=3e54afbe-9dae-4dbc-b335-4a8f80dac08b"},"vehicle_type_id":"4","last_reported":1692533443,"current_range_meters":31200,"station_id":"ce4bhbp2rcd13ifvqerg","pricing_plan_id":"free"},{"bike_id":"9f46cfde-4f76-4076-bade-5765c2d3d473","system_id":"levelo_inurba_marseille","lat":43.28039,"lon":5.369297,"is_reserved":false,"is_disabled":false,"rental_uris":{"android":"levelo://app?vid=9f46cfde-4f76-4076-bade-5765c2d3d473","ios":"levelo://app?vid=9f46cfde-4f76-4076-bade-5765c2d3d473"},"vehicle_type_id":"4","last_reported":1692533443,"current_range_meters":31200,"station_id":"ce4bha12rcd13ifvqef0","pricing_plan_id":"free"},{"bike_id":"5068ac71-a944-40ea-a470-553a893a2fda","system_id":"levelo_inurba_marseille","lat":43.281044,"lon":5.378308,"is_reserved":false,"is_disabled":false,"rental_uris":{"android":"levelo://app?vid=5068ac71-a944-40ea-a470-553a893a2fda","ios":"levelo://app?vid=5068ac71-a944-40ea-a470-553a893a2fda"},"vehicle_type_id":"4","last_reported":1692533443,"current_range_meters":17200,"station_id":"ce4bha12rcd13ifvqee0","pricing_plan_id":"free"},{"bike_id":"c6ebf805-24b5-4315-892c-7156f4e4ffba","system_id":"levelo_inurba_marseille","lat":43.284462,"lon":5.392121,"is_reserved":false,"is_disabled":false,"rental_uris":{"android":"levelo://app?vid=c6ebf805-24b5-4315-892c-7156f4e4ffba","ios":"levelo://app?vid=c6ebf805-24b5-4315-892c-7156f4e4ffba"},"vehicle_type_id":"4","last_reported":1692533443,"current_range_meters":24400,"station_id":"ce4bhoh2rcd13ifvqh5g","pricing_plan_id":"free"},{"bike_id":"fcc7084e-e2dd-4da4-b6e1-c774ebade456","system_id":"levelo_inurba_marseille","lat":43.28569,"lon":5.39499,"is_reserved":false,"is_disabled":false,"rental_uris":{"android":"levelo://app?vid=fcc7084e-e2dd-4da4-b6e1-c774ebade456","ios":"levelo://app?vid=fcc7084e-e2dd-4da4-b6e1-c774ebade456"},"vehicle_type_id":"4","last_reported":1692533443,"current_range_meters":8800,"station_id":"ce4bh292rcd13ifvqdg0","pricing_plan_id":"free"},{"bike_id":"87452446-c79f-4787-9d34-478a1b841211","system_id":"levelo_inurba_marseille","lat":43.28573,"lon":5.394992,"is_reserved":false,"is_disabled":false,"rental_uris":{"android":"levelo://app?vid=87452446-c79f-4787-9d34-478a1b841211","ios":"levelo://app?vid=87452446-c79f-4787-9d34-478a1b841211"},"vehicle_type_id":"4","last_reported":1692533443,"current_range_meters":1600,"station_id":"ce4bh292rcd13ifvqdg0","pricing_plan_id":"free"},{"bike_id":"f8ef4f78-badc-40d1-a4a9-077301466e56","system_id":"levelo_inurba_marseille","lat":43.32662,"lon":5.40978,"is_reserved":false,"is_disabled":false,"rental_uris":{"android":"levelo://app?vid=f8ef4f78-badc-40d1-a4a9-077301466e56","ios":"levelo://app?vid=f8ef4f78-badc-40d1-a4a9-077301466e56"},"vehicle_type_id":"4","last_reported":1692533443,"current_range_meters":9200,"station_id":"ce4bhpp2rcd13ifvqhgg","pricing_plan_id":"free"},{"bike_id":"b3d067e4-12c1-42b2-ac05-63d94a6b3e17","system_id":"levelo_inurba_marseille","lat":43.326605,"lon":5.409903,"is_reserved":false,"is_disabled":false,"rental_uris":{"android":"levelo://app?vid=b3d067e4-12c1-42b2-ac05-63d94a6b3e17","ios":"levelo://app?vid=b3d067e4-12c1-42b2-ac05-63d94a6b3e17"},"vehicle_type_id":"4","last_reported":1692533443,"current_range_meters":24400,"station_id":"ce4bhpp2rcd13ifvqhgg","pricing_plan_id":"free"},{"bike_id":"92b8cf1d-4d02-45b4-a8b2-decb4c1bc910","system_id":"levelo_inurba_marseille","lat":43.326605,"lon":5.409903,"is_reserved":false,"is_disabled":false,"rental_uris":{"android":"levelo://app?vid=92b8cf1d-4d02-45b4-a8b2-decb4c1bc910","ios":"levelo://app?vid=92b8cf1d-4d02-45b4-a8b2-decb4c1bc910"},"vehicle_type_id":"4","last_reported":1692533443,"current_range_meters":26800,"station_id":"ce4bhpp2rcd13ifvqhgg","pricing_plan_id":"free"},{"bike_id":"5b787ae2-162b-467b-8b26-5d7952c326dc","system_id":"levelo_inurba_marseille","lat":43.287154,"lon":5.399979,"is_reserved":false,"is_disabled":false,"rental_uris":{"android":"levelo://app?vid=5b787ae2-162b-467b-8b26-5d7952c326dc","ios":"levelo://app?vid=5b787ae2-162b-467b-8b26-5d7952c326dc"},"vehicle_type_id":"4","last_reported":1692533443,"current_range_meters":26000,"station_id":"ce4bho92rcd13ifvqh3g","pricing_plan_id":"free"},{"bike_id":"46f3f9eb-7665-4972-96ad-e19d5fde0a16","system_id":"levelo_inurba_marseille","lat":43.320045,"lon":5.415046,"is_reserved":false,"is_disabled":false,"rental_uris":{"android":"levelo://app?vid=46f3f9eb-7665-4972-96ad-e19d5fde0a16","ios":"levelo://app?vid=46f3f9eb-7665-4972-96ad-e19d5fde0a16"},"vehicle_type_id":"4","last_reported":1692533443,"current_range_meters":29600,"station_id":"ce4bhq92rcd13ifvqhkg","pricing_plan_id":"free"},{"bike_id":"11a4b1c9-49f7-4181-b5d7-95af5c113298","system_id":"levelo_inurba_marseille","lat":43.320045,"lon":5.415046,"is_reserved":false,"is_disabled":false,"rental_uris":{"android":"levelo://app?vid=11a4b1c9-49f7-4181-b5d7-95af5c113298","ios":"levelo://app?vid=11a4b1c9-49f7-4181-b5d7-95af5c113298"},"vehicle_type_id":"4","last_reported":1692533443,"current_range_meters":31200,"station_id":"ce4bhq92rcd13ifvqhkg","pricing_plan_id":"free"},{"bike_id":"d7ca343f-4a98-465a-864a-7a9d9c7693de","system_id":"levelo_inurba_marseille","lat":43.320045,"lon":5.415048,"is_reserved":false,"is_disabled":false,"rental_uris":{"android":"levelo://app?vid=d7ca343f-4a98-465a-864a-7a9d9c7693de","ios":"levelo://app?vid=d7ca343f-4a98-465a-864a-7a9d9c7693de"},"vehicle_type_id":"4","last_reported":1692533443,"current_range_meters":26000,"station_id":"ce4bhq92rcd13ifvqhkg","pricing_plan_id":"free"},{"bike_id":"b70b0978-4c04-4f9a-add1-468a2f781544","system_id":"levelo_inurba_marseille","lat":43.320045,"lon":5.415048,"is_reserved":false,"is_disabled":false,"rental_uris":{"android":"levelo://app?vid=b70b0978-4c04-4f9a-add1-468a2f781544","ios":"levelo://app?vid=b70b0978-4c04-4f9a-add1-468a2f781544"},"vehicle_type_id":"4","last_reported":1692533443,"current_range_meters":31200,"station_id":"ce4bhq92rcd13ifvqhkg","pricing_plan_id":"free"},{"bike_id":"c327718a-8fe6-4791-a349-aba0f8f94e82","system_id":"levelo_inurba_marseille","lat":43.279742,"lon":5.38744,"is_reserved":false,"is_disabled":false,"rental_uris":{"android":"levelo://app?vid=c327718a-8fe6-4791-a349-aba0f8f94e82","ios":"levelo://app?vid=c327718a-8fe6-4791-a349-aba0f8f94e82"},"vehicle_type_id":"4","last_reported":1692533443,"current_range_meters":26000,"station_id":"ce4bhg12rcd13ifvqf80","pricing_plan_id":"free"},{"bike_id":"10ab37a0-08c3-4a82-aaff-34a20c59ac58","system_id":"levelo_inurba_marseille","lat":43.320045,"lon":5.415046,"is_reserved":false,"is_disabled":false,"rental_uris":{"android":"levelo://app?vid=10ab37a0-08c3-4a82-aaff-34a20c59ac58","ios":"levelo://app?vid=10ab37a0-08c3-4a82-aaff-34a20c59ac58"},"vehicle_type_id":"4","last_reported":1692533443,"current_range_meters":30000,"station_id":"ce4bhq92rcd13ifvqhkg","pricing_plan_id":"free"},{"bike_id":"57600dc2-6356-452d-b555-48124a177e0e","system_id":"levelo_inurba_marseille","lat":43.320045,"lon":5.415046,"is_reserved":false,"is_disabled":false,"rental_uris":{"android":"levelo://app?vid=57600dc2-6356-452d-b555-48124a177e0e","ios":"levelo://app?vid=57600dc2-6356-452d-b555-48124a177e0e"},"vehicle_type_id":"4","last_reported":1692533443,"current_range_meters":31200,"station_id":"ce4bhq92rcd13ifvqhkg","pricing_plan_id":"free"},{"bike_id":"1f336423-9b8d-4a94-bf19-7f0075fa50ea","system_id":"levelo_inurba_marseille","lat":43.29255,"lon":5.40902,"is_reserved":false,"is_disabled":false,"rental_uris":{"android":"levelo://app?vid=1f336423-9b8d-4a94-bf19-7f0075fa50ea","ios":"levelo://app?vid=1f336423-9b8d-4a94-bf19-7f0075fa50ea"},"vehicle_type_id":"4","last_reported":1692533443,"current_range_meters":28400,"station_id":"","pricing_plan_id":"free"},{"bike_id":"a170c304-a55a-4f9c-babf-7e65e73de820","system_id":"levelo_inurba_marseille","lat":43.292569,"lon":5.409107,"is_reserved":false,"is_disabled":false,"rental_uris":{"android":"levelo://app?vid=a170c304-a55a-4f9c-babf-7e65e73de820","ios":"levelo://app?vid=a170c304-a55a-4f9c-babf-7e65e73de820"},"vehicle_type_id":"4","last_reported":1692533443,"current_range_meters":31600,"station_id":"ce4bh192rcd13ifvqdc0","pricing_plan_id":"free"},{"bike_id":"d880982e-ccb2-4b19-aabd-8a4a852ccca1","system_id":"levelo_inurba_marseille","lat":43.276179,"lon":5.361009,"is_reserved":false,"is_disabled":false,"rental_uris":{"android":"levelo://app?vid=d880982e-ccb2-4b19-aabd-8a4a852ccca1","ios":"levelo://app?vid=d880982e-ccb2-4b19-aabd-8a4a852ccca1"},"vehicle_type_id":"4","last_reported":1692533443,"current_range_meters":31200,"station_id":"ce4bgj92rcd13ifvqbe0","pricing_plan_id":"free"},{"bike_id":"183a29c2-c1df-461d-90a9-6875be7662c8","system_id":"levelo_inurba_marseille","lat":43.276179,"lon":5.361009,"is_reserved":false,"is_disabled":false,"rental_uris":{"android":"levelo://app?vid=183a29c2-c1df-461d-90a9-6875be7662c8","ios":"levelo://app?vid=183a29c2-c1df-461d-90a9-6875be7662c8"},"vehicle_type_id":"4","last_reported":1692533443,"current_range_meters":24800,"station_id":"ce4bgj92rcd13ifvqbe0","pricing_plan_id":"free"},{"bike_id":"4808912e-4373-4104-91a4-bb35b7136e75","system_id":"levelo_inurba_marseille","lat":43.27617,"lon":5.36119,"is_reserved":false,"is_disabled":false,"rental_uris":{"android":"levelo://app?vid=4808912e-4373-4104-91a4-bb35b7136e75","ios":"levelo://app?vid=4808912e-4373-4104-91a4-bb35b7136e75"},"vehicle_type_id":"4","last_reported":1692533443,"current_range_meters":22400,"station_id":"ce4bgj92rcd13ifvqbe0","pricing_plan_id":"free"},{"bike_id":"a26b4ea9-4414-4d0d-9457-0538cdc41cef","system_id":"levelo_inurba_marseille","lat":43.3253,"lon":5.41451,"is_reserved":false,"is_disabled":false,"rental_uris":{"android":"levelo://app?vid=a26b4ea9-4414-4d0d-9457-0538cdc41cef","ios":"levelo://app?vid=a26b4ea9-4414-4d0d-9457-0538cdc41cef"},"vehicle_type_id":"4","last_reported":1692533443,"current_range_meters":9200,"station_id":"ce4bhq12rcd13ifvqhhg","pricing_plan_id":"free"},{"bike_id":"e9d9237b-6b1f-4792-9c96-3f5ba4468392","system_id":"levelo_inurba_marseille","lat":43.27616,"lon":5.36106,"is_reserved":false,"is_disabled":false,"rental_uris":{"android":"levelo://app?vid=e9d9237b-6b1f-4792-9c96-3f5ba4468392","ios":"levelo://app?vid=e9d9237b-6b1f-4792-9c96-3f5ba4468392"},"vehicle_type_id":"4","last_reported":1692533443,"current_range_meters":31200,"station_id":"ce4bgj92rcd13ifvqbe0","pricing_plan_id":"free"},{"bike_id":"46de9e42-2a13-4314-ba70-3b7d18833fc2","system_id":"levelo_inurba_marseille","lat":43.276179,"lon":5.361009,"is_reserved":false,"is_disabled":false,"rental_uris":{"android":"levelo://app?vid=46de9e42-2a13-4314-ba70-3b7d18833fc2","ios":"levelo://app?vid=46de9e42-2a13-4314-ba70-3b7d18833fc2"},"vehicle_type_id":"4","last_reported":1692533443,"current_range_meters":31200,"station_id":"ce4bgj92rcd13ifvqbe0","pricing_plan_id":"free"},{"bike_id":"5fe5d50b-6cfb-4e63-8397-49064a3a18a3","system_id":"levelo_inurba_marseille","lat":43.276179,"lon":5.361009,"is_reserved":false,"is_disabled":false,"rental_uris":{"android":"levelo://app?vid=5fe5d50b-6cfb-4e63-8397-49064a3a18a3","ios":"levelo://app?vid=5fe5d50b-6cfb-4e63-8397-49064a3a18a3"},"vehicle_type_id":"4","last_reported":1692533443,"current_range_meters":24400,"station_id":"ce4bgj92rcd13ifvqbe0","pricing_plan_id":"free"},{"bike_id":"18775127-fd27-467e-8751-1eb9914c1c0e","system_id":"levelo_inurba_marseille","lat":43.32534,"lon":5.41454,"is_reserved":false,"is_disabled":false,"rental_uris":{"android":"levelo://app?vid=18775127-fd27-467e-8751-1eb9914c1c0e","ios":"levelo://app?vid=18775127-fd27-467e-8751-1eb9914c1c0e"},"vehicle_type_id":"4","last_reported":1692533443,"current_range_meters":25600,"station_id":"ce4bhq12rcd13ifvqhhg","pricing_plan_id":"free"},{"bike_id":"1250ba03-3a5b-480b-96e9-b2427ebbdecd","system_id":"levelo_inurba_marseille","lat":43.32537,"lon":5.41456,"is_reserved":false,"is_disabled":false,"rental_uris":{"android":"levelo://app?vid=1250ba03-3a5b-480b-96e9-b2427ebbdecd","ios":"levelo://app?vid=1250ba03-3a5b-480b-96e9-b2427ebbdecd"},"vehicle_type_id":"4","last_reported":1692533443,"current_range_meters":22800,"station_id":"ce4bhq12rcd13ifvqhhg","pricing_plan_id":"free"},{"bike_id":"c80ce574-4f3f-4142-a168-9cca3c484da2","system_id":"levelo_inurba_marseille","lat":43.276179,"lon":5.361009,"is_reserved":false,"is_disabled":false,"rental_uris":{"android":"levelo://app?vid=c80ce574-4f3f-4142-a168-9cca3c484da2","ios":"levelo://app?vid=c80ce574-4f3f-4142-a168-9cca3c484da2"},"vehicle_type_id":"4","last_reported":1692533443,"current_range_meters":20800,"station_id":"ce4bgj92rcd13ifvqbe0","pricing_plan_id":"free"},{"bike_id":"0bb91c0f-9761-40c7-98d7-6907956c1cf5","system_id":"levelo_inurba_marseille","lat":43.27383,"lon":5.36255,"is_reserved":false,"is_disabled":false,"rental_uris":{"android":"levelo://app?vid=0bb91c0f-9761-40c7-98d7-6907956c1cf5","ios":"levelo://app?vid=0bb91c0f-9761-40c7-98d7-6907956c1cf5"},"vehicle_type_id":"4","last_reported":1692533443,"current_range_meters":31200,"station_id":"ce4bhbh2rcd13ifvqeo0","pricing_plan_id":"free"},{"bike_id":"ec78f0cb-4443-4f22-b841-66dbd48a43b5","system_id":"levelo_inurba_marseille","lat":43.2738,"lon":5.3625,"is_reserved":false,"is_disabled":false,"rental_uris":{"android":"levelo://app?vid=ec78f0cb-4443-4f22-b841-66dbd48a43b5","ios":"levelo://app?vid=ec78f0cb-4443-4f22-b841-66dbd48a43b5"},"vehicle_type_id":"4","last_reported":1692533443,"current_range_meters":15600,"station_id":"ce4bhbh2rcd13ifvqeo0","pricing_plan_id":"free"},{"bike_id":"b5c42832-31f9-482f-bed8-07c8a1e1c651","system_id":"levelo_inurba_marseille","lat":43.27379,"lon":5.36257,"is_reserved":false,"is_disabled":false,"rental_uris":{"android":"levelo://app?vid=b5c42832-31f9-482f-bed8-07c8a1e1c651","ios":"levelo://app?vid=b5c42832-31f9-482f-bed8-07c8a1e1c651"},"vehicle_type_id":"4","last_reported":1692533443,"current_range_meters":17600,"station_id":"ce4bhbh2rcd13ifvqeo0","pricing_plan_id":"free"},{"bike_id":"2ba06fb3-b9f4-47ba-b9a6-8cf0b4abcbae","system_id":"levelo_inurba_marseille","lat":43.273613,"lon":5.362705,"is_reserved":false,"is_disabled":false,"rental_uris":{"android":"levelo://app?vid=2ba06fb3-b9f4-47ba-b9a6-8cf0b4abcbae","ios":"levelo://app?vid=2ba06fb3-b9f4-47ba-b9a6-8cf0b4abcbae"},"vehicle_type_id":"4","last_reported":1692533443,"current_range_meters":30800,"station_id":"ce4bhbh2rcd13ifvqeo0","pricing_plan_id":"free"},{"bike_id":"339dd2e1-14f3-4295-8a41-5c38091ba92c","system_id":"levelo_inurba_marseille","lat":43.27378,"lon":5.3625,"is_reserved":false,"is_disabled":false,"rental_uris":{"android":"levelo://app?vid=339dd2e1-14f3-4295-8a41-5c38091ba92c","ios":"levelo://app?vid=339dd2e1-14f3-4295-8a41-5c38091ba92c"},"vehicle_type_id":"4","last_reported":1692533443,"current_range_meters":14000,"station_id":"ce4bhbh2rcd13ifvqeo0","pricing_plan_id":"free"},{"bike_id":"32a721a2-51e2-4144-a680-a8dddb20bb6c","system_id":"levelo_inurba_marseille","lat":43.273613,"lon":5.362705,"is_reserved":false,"is_disabled":false,"rental_uris":{"android":"levelo://app?vid=32a721a2-51e2-4144-a680-a8dddb20bb6c","ios":"levelo://app?vid=32a721a2-51e2-4144-a680-a8dddb20bb6c"},"vehicle_type_id":"4","last_reported":1692533443,"current_range_meters":16800,"station_id":"ce4bhbh2rcd13ifvqeo0","pricing_plan_id":"free"},{"bike_id":"b2712ce6-59b8-44f7-82f4-4de849670a35","system_id":"levelo_inurba_marseille","lat":43.273613,"lon":5.362705,"is_reserved":false,"is_disabled":false,"rental_uris":{"android":"levelo://app?vid=b2712ce6-59b8-44f7-82f4-4de849670a35","ios":"levelo://app?vid=b2712ce6-59b8-44f7-82f4-4de849670a35"},"vehicle_type_id":"4","last_reported":1692533443,"current_range_meters":23600,"station_id":"ce4bhbh2rcd13ifvqeo0","pricing_plan_id":"free"},{"bike_id":"bd6424dc-eb2c-457b-bfe5-529bfe26598c","system_id":"levelo_inurba_marseille","lat":43.273613,"lon":5.362705,"is_reserved":false,"is_disabled":false,"rental_uris":{"android":"levelo://app?vid=bd6424dc-eb2c-457b-bfe5-529bfe26598c","ios":"levelo://app?vid=bd6424dc-eb2c-457b-bfe5-529bfe26598c"},"vehicle_type_id":"4","last_reported":1692533443,"current_range_meters":31600,"station_id":"ce4bhbh2rcd13ifvqeo0","pricing_plan_id":"free"},{"bike_id":"5451c957-baaa-4f3c-b532-a62223c8898e","system_id":"levelo_inurba_marseille","lat":43.273613,"lon":5.362705,"is_reserved":false,"is_disabled":false,"rental_uris":{"android":"levelo://app?vid=5451c957-baaa-4f3c-b532-a62223c8898e","ios":"levelo://app?vid=5451c957-baaa-4f3c-b532-a62223c8898e"},"vehicle_type_id":"4","last_reported":1692533443,"current_range_meters":24800,"station_id":"ce4bhbh2rcd13ifvqeo0","pricing_plan_id":"free"},{"bike_id":"f733f168-623a-4e5c-b046-662f9bfcad8e","system_id":"levelo_inurba_marseille","lat":43.27376,"lon":5.3625,"is_reserved":false,"is_disabled":false,"rental_uris":{"android":"levelo://app?vid=f733f168-623a-4e5c-b046-662f9bfcad8e","ios":"levelo://app?vid=f733f168-623a-4e5c-b046-662f9bfcad8e"},"vehicle_type_id":"4","last_reported":1692533443,"current_range_meters":14400,"station_id":"ce4bhbh2rcd13ifvqeo0","pricing_plan_id":"free"},