{"last_updated":1744362682,"ttl":60,"version":"2.2","data":{"bikes":[{"bike_id":"237d0581-005e-4676-9dbd-328f2d7dc2a1","system_id":"levelo_inurba_marseille","lat":43.26225,"lon":5.40451,"is_reserved":false,"is_disabled":false,"rental_uris":{"android":"levelo://app?vid=237d0581-005e-4676-9dbd-328f2d7dc2a1","ios":"levelo://app?vid=237d0581-005e-4676-9dbd-328f2d7dc2a1"},"vehicle_type_id":"4","last_reported":1744362682,"current_range_meters":3200,"station_id":"ce4bhmh2rcd13ifvqgmg","pricing_plan_id":"cebpf4jnsgd1na2vs0mg"},{"bike_id":"23cc1cc8-3209-47f3-a198-b77534be7732","system_id":"levelo_inurba_marseille","lat":43.28267,"lon":5.35064,"is_reserved":false,"is_disabled":false,"rental_uris":{"android":"levelo://app?vid=23cc1cc8-3209-47f3-a198-b77534be7732","ios":"levelo://app?vid=23cc1cc8-3209-47f3-a198-b77534be7732"},"vehicle_type_id":"4","last_reported":1744362682,"current_range_meters":3600,"station_id":"ce4bhbp2rcd13ifvqerg","pricing_plan_id":"cebpf4jnsgd1na2vs0mg"},{"bike_id":"f798cfef-4e73-4888-8449-ee40225394d3","system_id":"levelo_inurba_marseille","lat":43.28265,"lon":5.35059,"is_reserved":false,"is_disabled":false,"rental_uris":{"android":"levelo://app?vid=f798cfef-4e73-4888-8449-ee40225394d3","ios":"levelo://app?vid=f798cfef-4e73-4888-8449-ee40225394d3"},"vehicle_type_id":"4","last_reported":1744362682,"current_range_meters":4400,"station_id":"ce4bhbp2rcd13ifvqerg","pricing_plan_id":"cebpf4jnsgd1na2vs0mg"},{"bike_id":"3d2b8ff4-325c-49bf-b719-fc7495a3fb03","system_id":"levelo_inurba_marseille","lat":43.2315,"lon":5.437,"is_reserved":false,"is_disabled":false,"rental_uris":{"android":"levelo://app?vid=3d2b8ff4-325c-49bf-b719-fc7495a3fb03","ios":"levelo://app?vid=3d2b8ff4-325c-49bf-b719-fc7495a3fb03"},"vehicle_type_id":"4","last_reported":1744362682,"current_range_meters":4800,"station_id":"ce4bhmp2rcd13ifvqgog","pricing_plan_id":"cebpf4jnsgd1na2vs0mg"},{"bike_id":"74fb6ada-5912-4908-9bc3-7b7c6b0830fc","system_id":"levelo_inurba_marseille","lat":43.24693,"lon":5.412,"is_reserved":false,"is_disabled":false,"rental_uris":{"android":"levelo://app?vid=74fb6ada-5912-4908-9bc3-7b7c6b0830fc","ios":"levelo://app?vid=74fb6ada-5912-4908-9bc3-7b7c6b0830fc"},"vehicle_type_id":"4","last_reported":1744362682,"current_range_meters":4800,"station_id":"","pricing_plan_id":"cebpf4jnsgd1na2vs0mg"},{"bike_id":"83c132b1-a954-4d5a-a32d-9f99af4faa3c","system_id":"levelo_inurba_marseille","lat":43.30929,"lon":5.41521,"is_reserved":false,"is_disabled":false,"rental_uris":{"android":"levelo://app?vid=83c132b1-a954-4d5a-a32d-9f99af4faa3c","ios":"levelo://app?vid=83c132b1-a954-4d5a-a32d-9f99af4faa3c"},"vehicle_type_id":"4","last_reported":1744362682,"current_range_meters":5600,"station_id":"","pricing_plan_id":"cebpf4jnsgd1na2vs0mg"},{"bike_id":"2819864b-b485-4934-8ef3-ee97e901da56","system_id":"levelo_inurba_marseille","lat":43.28678,"lon":5.38673,"is_reserved":false,"is_disabled":false,"rental_uris":{"android":"levelo://app?vid=2819864b-b485-4934-8ef3-ee97e901da56","ios":"levelo://app?vid=2819864b-b485-4934-8ef3-ee97e901da56"},"vehicle_type_id":"4","last_reported":1744362682,"current_range_meters":5600,"station_id":"ce4bh492rcd13ifvqdug","pricing_plan_id":"cebpf4jnsgd1na2vs0mg"},{"bike_id":"c243072f-6bd2-4d94-ba83-04162cf2a05c","system_id":"levelo_inurba_marseille","lat":43.27186,"lon":5.40129,"is_reserved":false,"is_disabled":false,"rental_uris":{"android":"levelo://app?vid=c243072f-6bd2-4d94-ba83-04162cf2a05c","ios":"levelo://app?vid=c243072f-6bd2-4d94-ba83-04162cf2a05c"},"vehicle_type_id":"4","last_reported":1744362682,"current_range_meters":5600,"station_id":"","pricing_plan_id":"cebpf4jnsgd1na2vs0mg"},{"bike_id":"af1c62ee-3a42-411f-bb9f-86e1489e3444","system_id":"levelo_inurba_marseille","lat":43.25929,"lon":5.40848,"is_reserved":false,"is_disabled":true,"rental_uris":{"android":"levelo://app?vid=af1c62ee-3a42-411f-bb9f-86e1489e3444","ios":"levelo://app?vid=af1c62ee-3a42-411f-bb9f-86e1489e3444"},"vehicle_type_id":"4","last_reported":1744362682,"current_range_meters":6400,"station_id":"ce4bhm92rcd13ifvqglg","pricing_plan_id":"cebpf4jnsgd1na2vs0mg"},{"bike_id":"3102b6c5-7de9-4edb-84c1-78cca2d45726","system_id":"levelo_inurba_marseille","lat":43.27196,"lon":5.40999,"is_reserved":false,"is_disabled":false,"rental_uris":{"android":"levelo://app?vid=3102b6c5-7de9-4edb-84c1-78cca2d45726","ios":"levelo://app?vid=3102b6c5-7de9-4edb-84c1-78cca2d45726"},"vehicle_type_id":"4","last_reported":1744362682,"current_range_meters":6400,"station_id":"ce4bhl12rcd13ifvqgf0","pricing_plan_id":"cebpf4jnsgd1na2vs0mg"},{"bike_id":"6173141b-1769-469e-991e-f4709bf44cf9","system_id":"levelo_inurba_marseille","lat":43.26209,"lon":5.37437,"is_reserved":false,"is_disabled":false,"rental_uris":{"android":"levelo://app?vid=6173141b-1769-469e-991e-f4709bf44cf9","ios":"levelo://app?vid=6173141b-1769-469e-991e-f4709bf44cf9"},"vehicle_type_id":"4","last_reported":1744362682,"current_range_meters":6400,"station_id":"ce4bhgp2rcd13ifvqfc0","pricing_plan_id":"cebpf4jnsgd1na2vs0mg"},{"bike_id":"42644588-78be-46b9-9121-1119a7c91922","system_id":"levelo_inurba_marseille","lat":43.325,"lon":5.36549,"is_reserved":false,"is_disabled":false,"rental_uris":{"android":"levelo://app?vid=42644588-78be-46b9-9121-1119a7c91922","ios":"levelo://app?vid=42644588-78be-46b9-9121-1119a7c91922"},"vehicle_type_id":"4","last_reported":1744362682,"current_range_meters":6400,"station_id":"ce4bhs12rcd13ifvqhvg","pricing_plan_id":"cebpf4jnsgd1na2vs0mg"},{"bike_id":"5ef0f3c8-fcaf-48f3-8251-4bf6517e2db6","system_id":"levelo_inurba_marseille","lat":43.295224,"lon":5.390416,"is_reserved":false,"is_disabled":false,"rental_uris":{"android":"levelo://app?vid=5ef0f3c8-fcaf-48f3-8251-4bf6517e2db6","ios":"levelo://app?vid=5ef0f3c8-fcaf-48f3-8251-4bf6517e2db6"},"vehicle_type_id":"4","last_reported":1744362682,"current_range_meters":6400,"station_id":"ce4bho92rcd13ifvqh4g","pricing_plan_id":"cebpf4jnsgd1na2vs0mg"},{"bike_id":"d0a8e340-5ce5-445a-97dc-245aaf2fa477","system_id":"levelo_inurba_marseille","lat":43.32347,"lon":5.40622,"is_reserved":false,"is_disabled":true,"rental_uris":{"android":"levelo://app?vid=d0a8e340-5ce5-445a-97dc-245aaf2fa477","ios":"levelo://app?vid=d0a8e340-5ce5-445a-97dc-245aaf2fa477"},"vehicle_type_id":"4","last_reported":1744362682,"current_range_meters":6800,"station_id":"ce4bhq92rcd13ifvqhjg","pricing_plan_id":"cebpf4jnsgd1na2vs0mg"},{"bike_id":"4e13bb3c-f694-4fc6-924d-f03b3ac99b16","system_id":"levelo_inurba_marseille","lat":43.25567,"lon":5.38228,"is_reserved":false,"is_disabled":false,"rental_uris":{"android":"levelo://app?vid=4e13bb3c-f694-4fc6-924d-f03b3ac99b16","ios":"levelo://app?vid=4e13bb3c-f694-4fc6-924d-f03b3ac99b16"},"vehicle_type_id":"4","last_reported":1744362682,"current_range_meters":6800,"station_id":"ce4bhih2rcd13ifvqfs0","pricing_plan_id":"cebpf4jnsgd1na2vs0mg"},{"bike_id":"4c1f7691-a169-4713-b675-2a5153227ffe","system_id":"levelo_inurba_marseille","lat":43.27822,"lon":5.40681,"is_reserved":false,"is_disabled":false,"rental_uris":{"android":"levelo://app?vid=4c1f7691-a169-4713-b675-2a5153227ffe","ios":"levelo://app?vid=4c1f7691-a169-4713-b675-2a5153227ffe"},"vehicle_type_id":"4","last_reported":1744362682,"current_range_meters":6800,"station_id":"ce4bhnh2rcd13ifvqgtg","pricing_plan_id":"cebpf4jnsgd1na2vs0mg"},{"bike_id":"41f2f1c5-a00a-48a8-b51a-f3e951ef5e54","system_id":"levelo_inurba_marseille","lat":43.23146,"lon":5.43716,"is_reserved":false,"is_disabled":false,"rental_uris":{"android":"levelo://app?vid=41f2f1c5-a00a-48a8-b51a-f3e951ef5e54","ios":"levelo://app?vid=41f2f1c5-a00a-48a8-b51a-f3e951ef5e54"},"vehicle_type_id":"4","last_reported":1744362682,"current_range_meters":6800,"station_id":"ce4bhmp2rcd13ifvqgog","pricing_plan_id":"cebpf4jnsgd1na2vs0mg"},{"bike_id":"ae034a6b-f0f8-41b0-bb76-062851fa4bf0","system_id":"levelo_inurba_marseille","lat":43.29262,"lon":5.37601,"is_reserved":false,"is_disabled":false,"rental_uris":{"android":"levelo://app?vid=ae034a6b-f0f8-41b0-bb76-062851fa4bf0","ios":"levelo://app?vid=ae034a6b-f0f8-41b0-bb76-062851fa4bf0"},"vehicle_type_id":"4","last_reported":1744362682,"current_range_meters":6800,"station_id":"ce4bgi12rcd13ifvqb80","pricing_plan_id":"cebpf4jnsgd1na2vs0mg"},{"bike_id":"b1966882-052f-47ac-8c2f-00f16d0c9d48","system_id":"levelo_inurba_marseille","lat":43.29256,"lon":5.37623,"is_reserved":false,"is_disabled":false,"rental_uris":{"android":"levelo://app?vid=b1966882-052f-47ac-8c2f-00f16d0c9d48","ios":"levelo://app?vid=b1966882-052f-47ac-8c2f-00f16d0c9d48"},"vehicle_type_id":"4","last_reported":1744362682,"current_range_meters":6800,"station_id":"ce4bgi12rcd13ifvqb80","pricing_plan_id":"cebpf4jnsgd1na2vs0mg"},{"bike_id":"573a5ad0-a986-4d5e-9595-fb6ae5f1d072","system_id":"levelo_inurba_marseille","lat":43.30136,"lon":5.37417,"is_reserved":false,"is_disabled":false,"rental_uris":{"android":"levelo://app?vid=573a5ad0-a986-4d5e-9595-fb6ae5f1d072","ios":"levelo://app?vid=573a5ad0-a986-4d5e-9595-fb6ae5f1d072"},"vehicle_type_id":"4","last_reported":1744362682,"current_range_meters":6800,"station_id":"ce4bgs92rcd13ifvqcc0","pricing_plan_id":"cebpf4jnsgd1na2vs0mg"},{"bike_id":"fc4148d1-a2e5-49df-af09-452711b307f6","system_id":"levelo_inurba_marseille","lat":43.24175,"lon":5.39731,"is_reserved":false,"is_disabled":false,"rental_uris":{"android":"levelo://app?vid=fc4148d1-a2e5-49df-af09-452711b307f6","ios":"levelo://app?vid=fc4148d1-a2e5-49df-af09-452711b307f6"},"vehicle_type_id":"4","last_reported":1744362682,"current_range_meters":7200,"station_id":"ce4bhn12rcd13ifvqgpg","pricing_plan_id":"cebpf4jnsgd1na2vs0mg"},{"bike_id":"4a3e0919-27c2-445a-a961-2bd3243a227d","system_id":"levelo_inurba_marseille","lat":43.31623,"lon":5.37338,"is_reserved":false,"is_disabled":false,"rental_uris":{"android":"levelo://app?vid=4a3e0919-27c2-445a-a961-2bd3243a227d","ios":"levelo://app?vid=4a3e0919-27c2-445a-a961-2bd3243a227d"},"vehicle_type_id":"4","last_reported":1744362682,"current_range_meters":7200,"station_id":"","pricing_plan_id":"cebpf4jnsgd1na2vs0mg"},{"bike_id":"7ade27fd-7b52-4520-b422-703ea2b4f894","system_id":"levelo_inurba_marseille","lat":43.2926,"lon":5.3762,"is_reserved":false,"is_disabled":false,"rental_uris":{"android":"levelo://app?vid=7ade27fd-7b52-4520-b422-703ea2b4f894","ios":"levelo://app?vid=7ade27fd-7b52-4520-b422-703ea2b4f894"},"vehicle_type_id":"4","last_reported":1744362682,"current_range_meters":7200,"station_id":"ce4bgi12rcd13ifvqb80","pricing_plan_id":"cebpf4jnsgd1na2vs0mg"},{"bike_id":"2e4b2198-e5b0-4654-8c17-a0460a338139","system_id":"levelo_inurba_marseille","lat":43.23177,"lon":5.39986,"is_reserved":false,"is_disabled":false,"rental_uris":{"android":"levelo://app?vid=2e4b2198-e5b0-4654-8c17-a0460a338139","ios":"levelo://app?vid=2e4b2198-e5b0-4654-8c17-a0460a338139"},"vehicle_type_id":"4","last_reported":1744362682,"current_range_meters":8000,"station_id":"ce4bhn12rcd13ifvqgqg","pricing_plan_id":"cebpf4jnsgd1na2vs0mg"},{"bike_id":"b6316539-49eb-4dea-bc3e-0d9835e90011","system_id":"levelo_inurba_marseille","lat":43.23148,"lon":5.43717,"is_reserved":false,"is_disabled":false,"rental_uris":{"android":"levelo://app?vid=b6316539-49eb-4dea-bc3e-0d9835e90011","ios":"levelo://app?vid=b6316539-49eb-4dea-bc3e-0d9835e90011"},"vehicle_type_id":"4","last_reported":1744362682,"current_range_meters":11600,"station_id":"ce4bhmp2rcd13ifvqgog","pricing_plan_id":"cebpf4jnsgd1na2vs0mg"},{"bike_id":"3864ca11-eba3-4ea9-aa8d-c2b29b8c6d15","system_id":"levelo_inurba_marseille","lat":43.27195,"lon":5.40991,"is_reserved":false,"is_disabled":false,"rental_uris":{"android":"levelo://app?vid=3864ca11-eba3-4ea9-aa8d-c2b29b8c6d15","ios":"levelo://app?vid=3864ca11-eba3-4ea9-aa8d-c2b29b8c6d15"},"vehicle_type_id":"4","last_reported":1744362682,"current_range_meters":8400,"station_id":"ce4bhl12rcd13ifvqgf0","pricing_plan_id":"cebpf4jnsgd1na2vs0mg"},{"bike_id":"3e7bd5e5-528e-49e7-978c-07361eef67c5","system_id":"levelo_inurba_marseille","lat":43.28718,"lon":5.36092,"is_reserved":false,"is_disabled":false,"rental_uris":{"android":"levelo://app?vid=3e7bd5e5-528e-49e7-978c-07361eef67c5","ios":"levelo://app?vid=3e7bd5e5-528e-49e7-978c-07361eef67c5"},"vehicle_type_id":"4","last_reported":1744362682,"current_range_meters":11600,"station_id":"cki0cbj6b192h4jlfktg","pricing_plan_id":"cebpf4jnsgd1na2vs0mg"},{"bike_id":"82522d85-616f-4b70-b6f0-591320032371","system_id":"levelo_inurba_marseille","lat":43.3172,"lon":5.42384,"is_reserved":false,"is_disabled":false,"rental_uris":{"android":"levelo://app?vid=82522d85-616f-4b70-b6f0-591320032371","ios":"levelo://app?vid=82522d85-616f-4b70-b6f0-591320032371"},"vehicle_type_id":"4","last_reported":1744362682,"current_range_meters":8400,"station_id":"ce4bhp92rcd13ifvqhbg","pricing_plan_id":"cebpf4jnsgd1na2vs0mg"},{"bike_id":"eb2a2906-4519-49e5-b09f-221125aa377a","system_id":"levelo_inurba_marseille","lat":43.30407,"lon":5.41288,"is_reserved":false,"is_disabled":false,"rental_uris":{"android":"levelo://app?vid=eb2a2906-4519-49e5-b09f-221125aa377a","ios":"levelo://app?vid=eb2a2906-4519-49e5-b09f-221125aa377a"},"vehicle_type_id":"4","last_reported":1744362682,"current_range_meters":8800,"station_id":"ce4bhop2rcd13ifvqh8g","pricing_plan_id":"cebpf4jnsgd1na2vs0mg"},{"bike_id":"68ad36a9-f0fb-40dc-a5a8-34cdd3ebd3c9","system_id":"levelo_inurba_marseille","lat":43.27974,"lon":5.38741,"is_reserved":false,"is_disabled":false,"rental_uris":{"android":"levelo://app?vid=68ad36a9-f0fb-40dc-a5a8-34cdd3ebd3c9","ios":"levelo://app?vid=68ad36a9-f0fb-40dc-a5a8-34cdd3ebd3c9"},"vehicle_type_id":"4","last_reported":1744362682,"current_range_meters":8800,"station_id":"ce4bhg12rcd13ifvqf80","pricing_plan_id":"cebpf4jnsgd1na2vs0mg"},{"bike_id":"6ef6912d-bc9b-4275-8227-dfb9dbf3a52a","system_id":"levelo_inurba_marseille","lat":43.30962,"lon":5.39035,"is_reserved":false,"is_disabled":false,"rental_uris":{"android":"levelo://app?vid=6ef6912d-bc9b-4275-8227-dfb9dbf3a52a","ios":"levelo://app?vid=6ef6912d-bc9b-4275-8227-dfb9dbf3a52a"},"vehicle_type_id":"4","last_reported":1744362682,"current_range_meters":8800,"station_id":"ce4bgup2rcd13ifvqco0","pricing_plan_id":"cebpf4jnsgd1na2vs0mg"},{"bike_id":"4e47d0fb-2760-4784-8c81-8e8fb738bf29","system_id":"levelo_inurba_marseille","lat":43.25861,"lon":5.3993,"is_reserved":false,"is_disabled":false,"rental_uris":{"android":"levelo://app?vid=4e47d0fb-2760-4784-8c81-8e8fb738bf29","ios":"levelo://app?vid=4e47d0fb-2760-4784-8c81-8e8fb738bf29"},"vehicle_type_id":"4","last_reported":1744362682,"current_range_meters":8800,"station_id":"ce4bhl92rcd13ifvqghg","pricing_plan_id":"cebpf4jnsgd1na2vs0mg"},{"bike_id":"3f26e005-060f-42b8-a27f-19e80eb76b6d","system_id":"levelo_inurba_marseille","lat":43.29295,"lon":5.37461,"is_reserved":false,"is_disabled":false,"rental_uris":{"android":"levelo://app?vid=3f26e005-060f-42b8-a27f-19e80eb76b6d","ios":"levelo://app?vid=3f26e005-060f-42b8-a27f-19e80eb76b6d"},"vehicle_type_id":"4","last_reported":1744362682,"current_range_meters":8800,"station_id":"ce4bgi12rcd13ifvqb70","pricing_plan_id":"cebpf4jnsgd1na2vs0mg"},{"bike_id":"362903b3-a9a0-4c09-9107-e3a97ffbaa7a","system_id":"levelo_inurba_marseille","lat":43.28617,"lon":5.35101,"is_reserved":false,"is_disabled":false,"rental_uris":{"android":"levelo://app?vid=362903b3-a9a0-4c09-9107-e3a97ffbaa7a","ios":"levelo://app?vid=362903b3-a9a0-4c09-9107-e3a97ffbaa7a"},"vehicle_type_id":"4","last_reported":1744362682,"current_range_meters":9200,"station_id":"ce4bhch2rcd13ifvqeug","pricing_plan_id":"cebpf4jnsgd1na2vs0mg"},{"bike_id":"6bb7e659-e5b3-4e9d-b9a7-8af2440daabe","system_id":"levelo_inurba_marseille","lat":43.29266,"lon":5.3762,"is_reserved":false,"is_disabled":false,"rental_uris":{"android":"levelo://app?vid=6bb7e659-e5b3-4e9d-b9a7-8af2440daabe","ios":"levelo://app?vid=6bb7e659-e5b3-4e9d-b9a7-8af2440daabe"},"vehicle_type_id":"4","last_reported":1744362682,"current_range_meters":9200,"station_id":"ce4bgi12rcd13ifvqb80","pricing_plan_id":"cebpf4jnsgd1na2vs0mg"},{"bike_id":"23c3302c-c7cb-4ad0-bef9-b6ae2a10690f","system_id":"levelo_inurba_marseille","lat":43.29262,"lon":5.36856,"is_reserved":false,"is_disabled":false,"rental_uris":{"android":"levelo://app?vid=23c3302c-c7cb-4ad0-bef9-b6ae2a10690f","ios":"levelo://app?vid=23c3302c-c7cb-4ad0-bef9-b6ae2a10690f"},"vehicle_type_id":"4","last_reported":1744362682,"current_range_meters":9200,"station_id":"ce4bhbp2rcd13ifvqesg","pricing_plan_id":"cebpf4jnsgd1na2vs0mg"},{"bike_id":"5afba03e-e657-4c6e-b88f-f404d866524b","system_id":"levelo_inurba_marseille","lat":43.30949,"lon":5.39035,"is_reserved":false,"is_disabled":false,"rental_uris":{"android":"levelo://app?vid=5afba03e-e657-4c6e-b88f-f404d866524b","ios":"levelo://app?vid=5afba03e-e657-4c6e-b88f-f404d866524b"},"vehicle_type_id":"4","last_reported":1744362682,"current_range_meters":9200,"station_id":"ce4bgup2rcd13ifvqco0","pricing_plan_id":"cebpf4jnsgd1na2vs0mg"},{"bike_id":"7f56e7a9-1924-4eb4-a85e-5bfb5e39843d","system_id":"levelo_inurba_marseille","lat":43.32536,"lon":5.41411,"is_reserved":false,"is_disabled":false,"rental_uris":{"android":"levelo://app?vid=7f56e7a9-1924-4eb4-a85e-5bfb5e39843d","ios":"levelo://app?vid=7f56e7a9-1924-4eb4-a85e-5bfb5e39843d"},"vehicle_type_id":"4","last_reported":1744362682,"current_range_meters":9600,"station_id":"ce4bhq12rcd13ifvqhhg","pricing_plan_id":"cebpf4jnsgd1na2vs0mg"},{"bike_id":"49cc4bb3-131a-48e6-8bc8-8fee7bd8ea01","system_id":"levelo_inurba_marseille","lat":43.29699,"lon":5.37668,"is_reserved":false,"is_disabled":false,"rental_uris":{"android":"levelo://app?vid=49cc4bb3-131a-48e6-8bc8-8fee7bd8ea01","ios":"levelo://app?vid=49cc4bb3-131a-48e6-8bc8-8fee7bd8ea01"},"vehicle_type_id":"4","last_reported":1744362682,"current_range_meters":9600,"station_id":"ce4bgkh2rcd13ifvqbl0","pricing_plan_id":"cebpf4jnsgd1na2vs0mg"},{"bike_id":"8c1b38a5-d167-4c30-a4d7-b74da96a7a42","system_id":"levelo_inurba_marseille","lat":43.25501,"lon":5.37651,"is_reserved":false,"is_disabled":false,"rental_uris":{"android":"levelo://app?vid=8c1b38a5-d167-4c30-a4d7-b74da96a7a42","ios":"levelo://app?vid=8c1b38a5-d167-4c30-a4d7-b74da96a7a42"},"vehicle_type_id":"4","last_reported":1744362682,"current_range_meters":9600,"station_id":"ce4bhh12rcd13ifvqff0","pricing_plan_id":"cebpf4jnsgd1na2vs0mg"},{"bike_id":"fb616cd3-23a4-48e3-9a4e-7023a427b4b8","system_id":"levelo_inurba_marseille","lat":43.29681,"lon":5.39581,"is_reserved":false,"is_disabled":false,"rental_uris":{"android":"levelo://app?vid=fb616cd3-23a4-48e3-9a4e-7023a427b4b8","ios":"levelo://app?vid=fb616cd3-23a4-48e3-9a4e-7023a427b4b8"},"vehicle_type_id":"4","last_reported":1744362682,"current_range_meters":10000,"station_id":"","pricing_plan_id":"cebpf4jnsgd1na2vs0mg"},{"bike_id":"b279c8f0-ac53-43b8-b20b-e49925f02612","system_id":"levelo_inurba_marseille","lat":43.32549,"lon":5.41459,"is_reserved":false,"is_disabled":false,"rental_uris":{"android":"levelo://app?vid=b279c8f0-ac53-43b8-b20b-e49925f02612","ios":"levelo://app?vid=b279c8f0-ac53-43b8-b20b-e49925f02612"},"vehicle_type_id":"4","last_reported":1744362682,"current_range_meters":10000,"station_id":"ce4bhq12rcd13ifvqhhg","pricing_plan_id":"cebpf4jnsgd1na2vs0mg"},{"bike_id":"71f8e02e-6913-46c4-9cd1-6561cb95c84c","system_id":"levelo_inurba_marseille","lat":43.29259,"lon":5.40911,"is_reserved":false,"is_disabled":false,"rental_uris":{"android":"levelo://app?vid=71f8e02e-6913-46c4-9cd1-6561cb95c84c","ios":"levelo://app?vid=71f8e02e-6913-46c4-9cd1-6561cb95c84c"},"vehicle_type_id":"4","last_reported":1744362682,"current_range_meters":9600,"station_id":"ce4bh192rcd13ifvqdc0","pricing_plan_id":"cebpf4jnsgd1na2vs0mg"},{"bike_id":"eab6cbfa-cb8e-47d7-b0d6-226ab7facec7","system_id":"levelo_inurba_marseille","lat":43.31714,"lon":5.42408,"is_reserved":false,"is_disabled":true,"rental_uris":{"android":"levelo://app?vid=eab6cbfa-cb8e-47d7-b0d6-226ab7facec7","ios":"levelo://app?vid=eab6cbfa-cb8e-47d7-b0d6-226ab7facec7"},"vehicle_type_id":"4","last_reported":1744362682,"current_range_meters":10000,"station_id":"ce4bhp92rcd13ifvqhbg","pricing_plan_id":"cebpf4jnsgd1na2vs0mg"},{"bike_id":"f960aa00-83ad-493a-b0ad-c401b24799e7","system_id":"levelo_inurba_marseille","lat":43.241747,"lon":5.397265,"is_reserved":false,"is_disabled":false,"rental_uris":{"android":"levelo://app?vid=f960aa00-83ad-493a-b0ad-c401b24799e7","ios":"levelo://app?vid=f960aa00-83ad-493a-b0ad-c401b24799e7"},"vehicle_type_id":"4","last_reported":1744362682,"current_range_meters":10800,"station_id":"ce4bhn12rcd13ifvqgpg","pricing_plan_id":"cebpf4jnsgd1na2vs0mg"},{"bike_id":"67bdc397-a557-4715-8038-f59b9442de13","system_id":"levelo_inurba_marseille","lat":43.301809,"lon":5.366262,"is_reserved":false,"is_disabled":false,"rental_uris":{"android":"levelo://app?vid=67bdc397-a557-4715-8038-f59b9442de13","ios":"levelo://app?vid=67bdc397-a557-4715-8038-f59b9442de13"},"vehicle_type_id":"4","last_reported":1744362682,"current_range_meters":10000,"station_id":"ce4bh692rcd13ifvqe90","pricing_plan_id":"cebpf4jnsgd1na2vs0mg"},{"bike_id":"e4584e81-d0ff-45d4-a366-ed824c8de9b6","system_id":"levelo_inurba_marseille","lat":43.23168,"lon":5.43714,"is_reserved":false,"is_disabled":true,"rental_uris":{"android":"levelo://app?vid=e4584e81-d0ff-45d4-a366-ed824c8de9b6","ios":"levelo://app?vid=e4584e81-d0ff-45d4-a366-ed824c8de9b6"},"vehicle_type_id":"4","last_reported":1744362682,"current_range_meters":10800,"station_id":"ce4bhmp2rcd13ifvqgog","pricing_plan_id":"cebpf4jnsgd1na2vs0mg"},{"bike_id":"6d505c51-46e7-461f-b98e-9c6e85ecaa85","system_id":"levelo_inurba_marseille","lat":43.295326,"lon":5.39335,"is_reserved":false,"is_disabled":false,"rental_uris":{"android":"levelo://app?vid=6d505c51-46e7-461f-b98e-9c6e85ecaa85","ios":"levelo://app?vid=6d505c51-46e7-461f-b98e-9c6e85ecaa85"},"vehicle_type_id":"4","last_reported":1744362682,"current_range_meters":10000,"station_id":"ce4bhb12rcd13ifvqel0","pricing_plan_id":"cebpf4jnsgd1na2vs0mg"},{"bike_id":"4b62ceb0-3657-48c1-8c0f-5ef42bdc9c04","system_id":"levelo_inurba_marseille","lat":43.23057,"lon":5.35486,"is_reserved":false,"is_disabled":false,"rental_uris":{"android":"levelo://app?vid=4b62ceb0-3657-48c1-8c0f-5ef42bdc9c04","ios":"levelo://app?vid=4b62ceb0-3657-48c1-8c0f-5ef42bdc9c04"},"vehicle_type_id":"4","last_reported":1744362682,"current_range_meters":10800,"station_id":"cpo3342slgdg3j2ifvpg","pricing_plan_id":"cebpf4jnsgd1na2vs0mg"},{"bike_id":"41169ab0-daad-4ca8-ab62-570f74033311","system_id":"levelo_inurba_marseille","lat":43.27207,"lon":5.39175,"is_reserved":false,"is_disabled":false,"rental_uris":{"android":"levelo://app?vid=41169ab0-daad-4ca8-ab62-570f74033311","ios":"levelo://app?vid=41169ab0-daad-4ca8-ab62-570f74033311"},"vehicle_type_id":"4","last_reported":1744362682,"current_range_meters":10800,"station_id":"ce4bhhp2rcd13ifvqfm0","pricing_plan_id":"cebpf4jnsgd1na2vs0mg"},{"bike_id":"9aac65b8-8f8f-49f0-b49e-a5d1465af970","system_id":"levelo_inurba_marseille","lat":43.30965,"lon":5.39069,"is_reserved":false,"is_disabled":false,"rental_uris":{"android":"levelo://app?vid=9aac65b8-8f8f-49f0-b49e-a5d1465af970","ios":"levelo://app?vid=9aac65b8-8f8f-49f0-b49e-a5d1465af970"},"vehicle_type_id":"4","last_reported":1744362682,"current_range_meters":10800,"station_id":"ce4bgup2rcd13ifvqco0","pricing_plan_id":"cebpf4jnsgd1na2vs0mg"},{"bike_id":"6c6438f6-9507-4705-a243-5daaf4cc09af","system_id":"levelo_inurba_marseille","lat":43.30732,"lon":5.42435,"is_reserved":false,"is_disabled":false,"rental_uris":{"android":"levelo://app?vid=6c6438f6-9507-4705-a243-5daaf4cc09af","ios":"levelo://app?vid=6c6438f6-9507-4705-a243-5daaf4cc09af"},"vehicle_type_id":"4","last_reported":1744362682,"current_range_meters":10800,"station_id":"st_cvj6ca6bvosntc0bfgr0","pricing_plan_id":"cebpf4jnsgd1na2vs0mg"},{"bike_id":"377f9480-490f-4f7b-bd17-5d27185f31b5","system_id":"levelo_inurba_marseille","lat":43.29875,"lon":5.39739,"is_reserved":false,"is_disabled":false,"rental_uris":{"android":"levelo://app?vid=377f9480-490f-4f7b-bd17-5d27185f31b5","ios":"levelo://app?vid=377f9480-490f-4f7b-bd17-5d27185f31b5"},"vehicle_type_id":"4","last_reported":1744362682,"current_range_meters":11200,"station_id":"ce4bh0h2rcd13ifvqd50","pricing_plan_id":"cebpf4jnsgd1na2vs0mg"},{"bike_id":"82d3762f-dbcd-4c6c-bd48-3e7c9a4f527d","system_id":"levelo_inurba_marseille","lat":43.29285,"lon":5.37626,"is_reserved":false,"is_disabled":false,"rental_uris":{"android":"levelo://app?vid=82d3762f-dbcd-4c6c-bd48-3e7c9a4f527d","ios":"levelo://app?vid=82d3762f-dbcd-4c6c-bd48-3e7c9a4f527d"},"vehicle_type_id":"4","last_reported":1744362682,"current_range_meters":11200,"station_id":"ce4bgi12rcd13ifvqb80","pricing_plan_id":"cebpf4jnsgd1na2vs0mg"},{"bike_id":"e3a82aba-ec12-4f1a-854c-1cf1d2f58ebb","system_id":"levelo_inurba_marseille","lat":43.30439,"lon":5.41247,"is_reserved":false,"is_disabled":false,"rental_uris":{"android":"levelo://app?vid=e3a82aba-ec12-4f1a-854c-1cf1d2f58ebb","ios":"levelo://app?vid=e3a82aba-ec12-4f1a-854c-1cf1d2f58ebb"},"vehicle_type_id":"4","last_reported":1744362682,"current_range_meters":11200,"station_id":"ce4bhop2rcd13ifvqh8g","pricing_plan_id":"cebpf4jnsgd1na2vs0mg"},{"bike_id":"1a952879-6c88-4fe1-be76-32006d5594ff","system_id":"levelo_inurba_marseille","lat":43.29025,"lon":5.39993,"is_reserved":false,"is_disabled":false,"rental_uris":{"android":"levelo://app?vid=1a952879-6c88-4fe1-be76-32006d5594ff","ios":"levelo://app?vid=1a952879-6c88-4fe1-be76-32006d5594ff"},"vehicle_type_id":"4","last_reported":1744362682,"current_range_meters":11200,"station_id":"ce4bh392rcd13ifvqdm0","pricing_plan_id":"cebpf4jnsgd1na2vs0mg"},{"bike_id":"0922821c-4e1d-4817-9469-860e55f8f0d1","system_id":"levelo_inurba_marseille","lat":43.225059,"lon":5.347836,"is_reserved":false,"is_disabled":false,"rental_uris":{"android":"levelo://app?vid=0922821c-4e1d-4817-9469-860e55f8f0d1","ios":"levelo://app?vid=0922821c-4e1d-4817-9469-860e55f8f0d1"},"vehicle_type_id":"4","last_reported":1744362682,"current_range_meters":11200,"station_id":"st_cvj5dfep6f1abm77gieg","pricing_plan_id":"cebpf4jnsgd1na2vs0mg"},{"bike_id":"12d8efae-a00b-4c9a-87a3-e73779502e64","system_id":"levelo_inurba_marseille","lat":43.27807,"lon":5.40709,"is_reserved":false,"is_disabled":false,"rental_uris":{"android":"levelo://app?vid=12d8efae-a00b-4c9a-87a3-e73779502e64","ios":"levelo://app?vid=12d8efae-a00b-4c9a-87a3-e73779502e64"},"vehicle_type_id":"4","last_reported":1744362682,"current_range_meters":11600,"station_id":"ce4bhnh2rcd13ifvqgtg","pricing_plan_id":"cebpf4jnsgd1na2vs0mg"},{"bike_id":"c266cdc4-c7b8-499b-9979-d13187952b82","system_id":"levelo_inurba_marseille","lat":43.2695,"lon":5.38894,"is_reserved":false,"is_disabled":false,"rental_uris":{"android":"levelo://app?vid=c266cdc4-c7b8-499b-9979-d13187952b82","ios":"levelo://app?vid=c266cdc4-c7b8-499b-9979-d13187952b82"},"vehicle_type_id":"4","last_reported":1744362682,"current_range_meters":11600,"station_id":"ce4bhhh2rcd13ifvqfl0","pricing_plan_id":"cebpf4jnsgd1na2vs0mg"},{"bike_id":"11511c4e-18c7-4cf9-af99-0062411b5c8c","system_id":"levelo_inurba_marseille","lat":43.29021,"lon":5.38137,"is_reserved":false,"is_disabled":false,"rental_uris":{"android":"levelo://app?vid=11511c4e-18c7-4cf9-af99-0062411b5c8c","ios":"levelo://app?vid=11511c4e-18c7-4cf9-af99-0062411b5c8c"},"vehicle_type_id":"4","last_reported":1744362682,"current_range_meters":11200,"station_id":"ce4bh4p2rcd13ifvqe1g","pricing_plan_id":"cebpf4jnsgd1na2vs0mg"},{"bike_id":"2ebd909b-9f86-4fbc-a368-07fbcd3cfb49","system_id":"levelo_inurba_marseille","lat":43.29709,"lon":5.37694,"is_reserved":false,"is_disabled":false,"rental_uris":{"android":"levelo://app?vid=2ebd909b-9f86-4fbc-a368-07fbcd3cfb49","ios":"levelo://app?vid=2ebd909b-9f86-4fbc-a368-07fbcd3cfb49"},"vehicle_type_id":"4","last_reported":1744362682,"current_range_meters":11600,"station_id":"ce4bgkh2rcd13ifvqbl0","pricing_plan_id":"cebpf4jnsgd1na2vs0mg"},{"bike_id":"b0b25901-bc12-452f-98af-2d7ba5e1d60d","system_id":"levelo_inurba_marseille","lat":43.29434,"lon":5.39756,"is_reserved":false,"is_disabled":false,"rental_uris":{"android":"levelo://app?vid=b0b25901-bc12-452f-98af-2d7ba5e1d60d","ios":"levelo://app?vid=b0b25901-bc12-452f-98af-2d7ba5e1d60d"},"vehicle_type_id":"4","last_reported":1744362682,"current_range_meters":11600,"station_id":"ce4bh3h2rcd13ifvqdo0","pricing_plan_id":"cebpf4jnsgd1na2vs0mg"},{"bike_id":"4f3acd91-ce8e-4583-bef1-d80af5069254","system_id":"levelo_inurba_marseille","lat":43.24171,"lon":5.39722,"is_reserved":false,"is_disabled":false,"rental_uris":{"android":"levelo://app?vid=4f3acd91-ce8e-4583-bef1-d80af5069254","ios":"levelo://app?vid=4f3acd91-ce8e-4583-bef1-d80af5069254"},"vehicle_type_id":"4","last_reported":1744362682,"current_range_meters":12000,"station_id":"ce4bhn12rcd13ifvqgpg","pricing_plan_id":"cebpf4jnsgd1na2vs0mg"},{"bike_id":"22bf2a21-1c60-4872-a76f-6ff4caa1a96c","system_id":"levelo_inurba_marseille","lat":43.23186,"lon":5.39983,"is_reserved":false,"is_disabled":false,"rental_uris":{"android":"levelo://app?vid=22bf2a21-1c60-4872-a76f-6ff4caa1a96c","ios":"levelo://app?vid=22bf2a21-1c60-4872-a76f-6ff4caa1a96c"},"vehicle_type_id":"4","last_reported":1744362682,"current_range_meters":11600,"station_id":"ce4bhn12rcd13ifvqgqg","pricing_plan_id":"cebpf4jnsgd1na2vs0mg"},{"bike_id":"46d16022-28be-4959-87dc-6761d956b292","system_id":"levelo_inurba_marseille","lat":43.30552,"lon":5.36515,"is_reserved":false,"is_disabled":false,"rental_uris":{"android":"levelo://app?vid=46d16022-28be-4959-87dc-6761d956b292","ios":"levelo://app?vid=46d16022-28be-4959-87dc-6761d956b292"},"vehicle_type_id":"4","last_reported":1744362682,"current_range_meters":12000,"station_id":"ce4bgs12rcd13ifvqcag","pricing_plan_id":"cebpf4jnsgd1na2vs0mg"},{"bike_id":"68def5f6-0ebc-4355-a4fe-a81e2f393783","system_id":"levelo_inurba_marseille","lat":43.26683,"lon":5.38265,"is_reserved":false,"is_disabled":false,"rental_uris":{"android":"levelo://app?vid=68def5f6-0ebc-4355-a4fe-a81e2f393783","ios":"levelo://app?vid=68def5f6-0ebc-4355-a4fe-a81e2f393783"},"vehicle_type_id":"4","last_reported":1744362682,"current_range_meters":12000,"station_id":"ce4bhg92rcd13ifvqf90","pricing_plan_id":"cebpf4jnsgd1na2vs0mg"},{"bike_id":"6ae42d22-449e-430c-b887-6a8836aa2696","system_id":"levelo_inurba_marseille","lat":43.30546,"lon":5.36521,"is_reserved":false,"is_disabled":false,"rental_uris":{"android":"levelo://app?vid=6ae42d22-449e-430c-b887-6a8836aa2696","ios":"levelo://app?vid=6ae42d22-449e-430c-b887-6a8836aa2696"},"vehicle_type_id":"4","last_reported":1744362682,"current_range_meters":12400,"station_id":"ce4bgs12rcd13ifvqcag","pricing_plan_id":"cebpf4jnsgd1na2vs0mg"},{"bike_id":"54da1cc9-cfd8-4409-b7c5-dca93e1b8636","system_id":"levelo_inurba_marseille","lat":43.26701,"lon":5.38251,"is_reserved":false,"is_disabled":false,"rental_uris":{"android":"levelo://app?vid=54da1cc9-cfd8-4409-b7c5-dca93e1b8636","ios":"levelo://app?vid=54da1cc9-cfd8-4409-b7c5-dca93e1b8636"},"vehicle_type_id":"4","last_reported":1744362682,"current_range_meters":12400,"station_id":"ce4bhg92rcd13ifvqf90","pricing_plan_id":"cebpf4jnsgd1na2vs0mg"},{"bike_id":"01976e7c-5912-4212-9b09-80e9f0497088","system_id":"levelo_inurba_marseille","lat":43.2984,"lon":5.36264,"is_reserved":false,"is_disabled":false,"rental_uris":{"android":"levelo://app?vid=01976e7c-5912-4212-9b09-80e9f0497088","ios":"levelo://app?vid=01976e7c-5912-4212-9b09-80e9f0497088"},"vehicle_type_id":"4","last_reported":1744362682,"current_range_meters":12400,"station_id":"ce4bgpp2rcd13ifvqc3g","pricing_plan_id":"cebpf4jnsgd1na2vs0mg"},{"bike_id":"3457d261-5c8d-4201-b15b-f3283ead7a5d","system_id":"levelo_inurba_marseille","lat":43.2907,"lon":5.37172,"is_reserved":false,"is_disabled":false,"rental_uris":{"android":"levelo://app?vid=3457d261-5c8d-4201-b15b-f3283ead7a5d","ios":"levelo://app?vid=3457d261-5c8d-4201-b15b-f3283ead7a5d"},"vehicle_type_id":"4","last_reported":1744362682,"current_range_meters":12400,"station_id":"ce4bh5p2rcd13ifvqe4g","pricing_plan_id":"cebpf4jnsgd1na2vs0mg"},{"bike_id":"94455896-0f19-4fae-bd72-9879f01fcd6e","system_id":"levelo_inurba_marseille","lat":43.29544,"lon":5.42284,"is_reserved":false,"is_disabled":true,"rental_uris":{"android":"levelo://app?vid=94455896-0f19-4fae-bd72-9879f01fcd6e","ios":"levelo://app?vid=94455896-0f19-4fae-bd72-9879f01fcd6e"},"vehicle_type_id":"4","last_reported":1744362682,"current_range_meters":12400,"station_id":"ce4bhph2rcd13ifvqhdg","pricing_plan_id":"cebpf4jnsgd1na2vs0mg"},{"bike_id":"78cf8bdc-e9e8-4e9d-8e54-1c34720ce88e","system_id":"levelo_inurba_marseille","lat":43.23159,"lon":5.43702,"is_reserved":false,"is_disabled":false,"rental_uris":{"android":"levelo://app?vid=78cf8bdc-e9e8-4e9d-8e54-1c34720ce88e","ios":"levelo://app?vid=78cf8bdc-e9e8-4e9d-8e54-1c34720ce88e"},"vehicle_type_id":"4","last_reported":1744362682,"current_range_meters":12400,"station_id":"ce4bhmp2rcd13ifvqgog","pricing_plan_id":"cebpf4jnsgd1na2vs0mg"},{"bike_id":"29717d4a-7dcc-41a2-b5f7-6cff034092a6","system_id":"levelo_inurba_marseille","lat":43.29175,"lon":5.3715,"is_reserved":false,"is_disabled":false,"rental_uris":{"android":"levelo://app?vid=29717d4a-7dcc-41a2-b5f7-6cff034092a6","ios":"levelo://app?vid=29717d4a-7dcc-41a2-b5f7-6cff034092a6"},"vehicle_type_id":"4","last_reported":1744362682,"current_range_meters":12800,"station_id":"ce4bha92rcd13ifvqeh0","pricing_plan_id":"cebpf4jnsgd1na2vs0mg"},{"bike_id":"feb04d1c-c2bd-4d38-91ca-a0075a753750","system_id":"levelo_inurba_marseille","lat":43.28412,"lon":5.34962,"is_reserved":false,"is_disabled":false,"rental_uris":{"android":"levelo://app?vid=feb04d1c-c2bd-4d38-91ca-a0075a753750","ios":"levelo://app?vid=feb04d1c-c2bd-4d38-91ca-a0075a753750"},"vehicle_type_id":"4","last_reported":1744362682,"current_range_meters":12800,"station_id":"ce4bhbh2rcd13ifvqepg","pricing_plan_id":"cebpf4jnsgd1na2vs0mg"},{"bike_id":"f4a246e9-fc4f-4b85-b4d1-ea726b676306","system_id":"levelo_inurba_marseille","lat":43.30948,"lon":5.39039,"is_reserved":false,"is_disabled":false,"rental_uris":{"android":"levelo://app?vid=f4a246e9-fc4f-4b85-b4d1-ea726b676306","ios":"levelo://app?vid=f4a246e9-fc4f-4b85-b4d1-ea726b676306"},"vehicle_type_id":"4","last_reported":1744362682,"current_range_meters":12800,"station_id":"ce4bgup2rcd13ifvqco0","pricing_plan_id":"cebpf4jnsgd1na2vs0mg"},{"bike_id":"9afb8541-1534-42a9-9ae2-36c425912a24","system_id":"levelo_inurba_marseille","lat":43.255823,"lon":5.382249,"is_reserved":false,"is_disabled":false,"rental_uris":{"android":"levelo://app?vid=9afb8541-1534-42a9-9ae2-36c425912a24","ios":"levelo://app?vid=9afb8541-1534-42a9-9ae2-36c425912a24"},"vehicle_type_id":"4","last_reported":1744362682,"current_range_meters":13600,"station_id":"ce4bhmp2rcd13ifvqgog","pricing_plan_id":"cebpf4jnsgd1na2vs0mg"},{"bike_id":"0f0b126b-3c6c-4bee-870e-3c255aea3c66","system_id":"levelo_inurba_marseille","lat":43.28472,"lon":5.35876,"is_reserved":false,"is_disabled":false,"rental_uris":{"android":"levelo://app?vid=0f0b126b-3c6c-4bee-870e-3c255aea3c66","ios":"levelo://app?vid=0f0b126b-3c6c-4bee-870e-3c255aea3c66"},"vehicle_type_id":"4","last_reported":1744362682,"current_range_meters":12800,"station_id":"ce4bhah2rcd13ifvqei0","pricing_plan_id":"cebpf4jnsgd1na2vs0mg"},{"bike_id":"33551090-e6d0-4b4b-819a-3dbf58b9aa84","system_id":"levelo_inurba_marseille","lat":43.28625,"lon":5.35099,"is_reserved":false,"is_disabled":false,"rental_uris":{"android":"levelo://app?vid=33551090-e6d0-4b4b-819a-3dbf58b9aa84","ios":"levelo://app?vid=33551090-e6d0-4b4b-819a-3dbf58b9aa84"},"vehicle_type_id":"4","last_reported":1744362682,"current_range_meters":13600,"station_id":"ce4bhch2rcd13ifvqeug","pricing_plan_id":"cebpf4jnsgd1na2vs0mg"},{"bike_id":"895d75d3-2ed5-4475-a85a-3976fe7bd941","system_id":"levelo_inurba_marseille","lat":43.291798,"lon":5.393003,"is_reserved":false,"is_disabled":false,"rental_uris":{"android":"levelo://app?vid=895d75d3-2ed5-4475-a85a-3976fe7bd941","ios":"levelo://app?vid=895d75d3-2ed5-4475-a85a-3976fe7bd941"},"vehicle_type_id":"4","last_reported":1744362682,"current_range_meters":14000,"station_id":"ce4bh192rcd13ifvqdd0","pricing_plan_id":"cebpf4jnsgd1na2vs0mg"},{"bike_id":"29dfbf75-2dcc-42eb-a0dd-2c2cdeb40ef8","system_id":"levelo_inurba_marseille","lat":43.2927,"lon":5.40913,"is_reserved":false,"is_disabled":false,"rental_uris":{"android":"levelo://app?vid=29dfbf75-2dcc-42eb-a0dd-2c2cdeb40ef8","ios":"levelo://app?vid=29dfbf75-2dcc-42eb-a0dd-2c2cdeb40ef8"},"vehicle_type_id":"4","last_reported":1744362682,"current_range_meters":14000,"station_id":"ce4bh192rcd13ifvqdc0","pricing_plan_id":"cebpf4jnsgd1na2vs0mg"},{"bike_id":"3a2e71dc-60df-4014-b79d-9d7f0734e5aa","system_id":"levelo_inurba_marseille","lat":43.299011,"lon":5.374712,"is_reserved":false,"is_disabled":false,"rental_uris":{"android":"levelo://app?vid=3a2e71dc-60df-4014-b79d-9d7f0734e5aa","ios":"levelo://app?vid=3a2e71dc-60df-4014-b79d-9d7f0734e5aa"},"vehicle_type_id":"4","last_reported":1744362682,"current_range_meters":14000,"station_id":"ce4bgjh2rcd13ifvqbg0","pricing_plan_id":"cebpf4jnsgd1na2vs0mg"},{"bike_id":"463b41fd-37bb-48c0-a6e4-12f737a3d7cf","system_id":"levelo_inurba_marseille","lat":43.2695,"lon":5.40327,"is_reserved":false,"is_disabled":true,"rental_uris":{"android":"levelo://app?vid=463b41fd-37bb-48c0-a6e4-12f737a3d7cf","ios":"levelo://app?vid=463b41fd-37bb-48c0-a6e4-12f737a3d7cf"},"vehicle_type_id":"4","last_reported":1744362682,"current_range_meters":14000,"station_id":"cjm6bp8fraef2m0cb0m0","pricing_plan_id":"cebpf4jnsgd1na2vs0mg"},{"bike_id":"2d2e31a1-75bd-4ef3-8efc-056c6e4199ac","system_id":"levelo_inurba_marseille","lat":43.28626,"lon":5.35096,"is_reserved":false,"is_disabled":false,"rental_uris":{"android":"levelo://app?vid=2d2e31a1-75bd-4ef3-8efc-056c6e4199ac","ios":"levelo://app?vid=2d2e31a1-75bd-4ef3-8efc-056c6e4199ac"},"vehicle_type_id":"4","last_reported":1744362682,"current_range_meters":14400,"station_id":"ce4bhch2rcd13ifvqeug","pricing_plan_id":"cebpf4jnsgd1na2vs0mg"},{"bike_id":"627403f8-4468-4a41-8798-323347b58cc9","system_id":"levelo_inurba_marseille","lat":43.271755,"lon":5.409996,"is_reserved":false,"is_disabled":false,"rental_uris":{"android":"levelo://app?vid=627403f8-4468-4a41-8798-323347b58cc9","ios":"levelo://app?vid=627403f8-4468-4a41-8798-323347b58cc9"},"vehicle_type_id":"4","last_reported":1744362682,"current_range_meters":14400,"station_id":"ce4bhl12rcd13ifvqgf0","pricing_plan_id":"cebpf4jnsgd1na2vs0mg"},{"bike_id":"09b23838-ef8a-400d-9175-f211d64a4290","system_id":"levelo_inurba_marseille","lat":43.2574,"lon":5.41098,"is_reserved":false,"is_disabled":false,"rental_uris":{"android":"levelo://app?vid=09b23838-ef8a-400d-9175-f211d64a4290","ios":"levelo://app?vid=09b23838-ef8a-400d-9175-f211d64a4290"},"vehicle_type_id":"4","last_reported":1744362682,"current_range_meters":14400,"station_id":"ce4bhkp2rcd13ifvqgd0","pricing_plan_id":"cebpf4jnsgd1na2vs0mg"},{"bike_id":"1b28a96e-ff57-4bf5-85d0-8da089b3d3cd","system_id":"levelo_inurba_marseille","lat":43.26696,"lon":5.38274,"is_reserved":false,"is_disabled":true,"rental_uris":{"android":"levelo://app?vid=1b28a96e-ff57-4bf5-85d0-8da089b3d3cd","ios":"levelo://app?vid=1b28a96e-ff57-4bf5-85d0-8da089b3d3cd"},"vehicle_type_id":"4","last_reported":1744362682,"current_range_meters":14400,"station_id":"ce4bhg92rcd13ifvqf90","pricing_plan_id":"cebpf4jnsgd1na2vs0mg"},{"bike_id":"8def42d5-7601-461e-b69f-dd41878701ec","system_id":"levelo_inurba_marseille","lat":43.30463,"lon":5.37912,"is_reserved":false,"is_disabled":false,"rental_uris":{"android":"levelo://app?vid=8def42d5-7601-461e-b69f-dd41878701ec","ios":"levelo://app?vid=8def42d5-7601-461e-b69f-dd41878701ec"},"vehicle_type_id":"4","last_reported":1744362682,"current_range_meters":14400,"station_id":"ce4bgup2rcd13ifvqcn0","pricing_plan_id":"cebpf4jnsgd1na2vs0mg"},{"bike_id":"2bc77524-6534-4114-bc35-8f2e56b45ad0","system_id":"levelo_inurba_marseille","lat":43.21753,"lon":5.34596,"is_reserved":false,"is_disabled":true,"rental_uris":{"android":"levelo://app?vid=2bc77524-6534-4114-bc35-8f2e56b45ad0","ios":"levelo://app?vid=2bc77524-6534-4114-bc35-8f2e56b45ad0"},"vehicle_type_id":"4","last_reported":1744362682,"current_range_meters":14400,"station_id":"","pricing_plan_id":"cebpf4jnsgd1na2vs0mg"},{"bike_id":"21906f4e-314d-4a90-b5b8-e5b388046ff6","system_id":"levelo_inurba_marseille","lat":43.26216,"lon":5.3744,"is_reserved":false,"is_disabled":false,"rental_uris":{"android":"levelo://app?vid=21906f4e-314d-4a90-b5b8-e5b388046ff6","ios":"levelo://app?vid=21906f4e-314d-4a90-b5b8-e5b388046ff6"},"vehicle_type_id":"4","last_reported":1744362682,"current_range_meters":14800,"station_id":"ce4bhgp2rcd13ifvqfc0","pricing_plan_id":"cebpf4jnsgd1na2vs0mg"},{"bike_id":"6eb8c57a-4190-4f8d-86a1-123baf9063f7","system_id":"levelo_inurba_marseille","lat":43.30541,"lon":5.36522,"is_reserved":false,"is_disabled":false,"rental_uris":{"android":"levelo://app?vid=6eb8c57a-4190-4f8d-86a1-123baf9063f7","ios":"levelo://app?vid=6eb8c57a-4190-4f8d-86a1-123baf9063f7"},"vehicle_type_id":"4","last_reported":1744362682,"current_range_meters":14800,"station_id":"ce4bgs12rcd13ifvqcag","pricing_plan_id":"cebpf4jnsgd1na2vs0mg"},{"bike_id":"f353a8d9-e67c-47de-9925-c397ca1a818b","system_id":"levelo_inurba_marseille","lat":43.28461,"lon":5.38415,"is_reserved":false,"is_disabled":false,"rental_uris":{"android":"levelo://app?vid=f353a8d9-e67c-47de-9925-c397ca1a818b","ios":"levelo://app?vid=f353a8d9-e67c-47de-9925-c397ca1a818b"},"vehicle_type_id":"4","last_reported":1744362682,"current_range_meters":14800,"station_id":"ce4bh512rcd13ifvqe3g","pricing_plan_id":"cebpf4jnsgd1na2vs0mg"},{"bike_id":"a608ad4c-066c-4687-9bab-f2484fdedfe6","system_id":"levelo_inurba_marseille","lat":43.27323,"lon":5.39063,"is_reserved":false,"is_disabled":false,"rental_uris":{"android":"levelo://app?vid=a608ad4c-066c-4687-9bab-f2484fdedfe6","ios":"levelo://app?vid=a608ad4c-066c-4687-9bab-f2484fdedfe6"},"vehicle_type_id":"4","last_reported":1744362682,"current_range_meters":14800,"station_id":"ce4bhgp2rcd13ifvqfe0","pricing_plan_id":"cebpf4jnsgd1na2vs0mg"},{"bike_id":"7ecb8ede-57ca-44aa-8298-85b1b4a01d10","system_id":"levelo_inurba_marseille","lat":43.25141,"lon":5.40354,"is_reserved":false,"is_disabled":false,"rental_uris":{"android":"levelo://app?vid=7ecb8ede-57ca-44aa-8298-85b1b4a01d10","ios":"levelo://app?vid=7ecb8ede-57ca-44aa-8298-85b1b4a01d10"},"vehicle_type_id":"4","last_reported":1744362682,"current_range_meters":15200,"station_id":"","pricing_plan_id":"cebpf4jnsgd1na2vs0mg"},{"bike_id":"4bcdcc82-d58d-4172-b626-a8c82408681c","system_id":"levelo_inurba_marseille","lat":43.31249,"lon":5.36857,"is_reserved":false,"is_disabled":true,"rental_uris":{"android":"levelo://app?vid=4bcdcc82-d58d-4172-b626-a8c82408681c","ios":"levelo://app?vid=4bcdcc82-d58d-4172-b626-a8c82408681c"},"vehicle_type_id":"4","last_reported":1744362682,"current_range_meters":15200,"station_id":"ce4bgl92rcd13ifvqbq0","pricing_plan_id":"cebpf4jnsgd1na2vs0mg"},{"bike_id":"76454009-dfc9-4f8e-9f37-499a2bf937c2","system_id":"levelo_inurba_marseille","lat":43.28492,"lon":5.38431,"is_reserved":false,"is_disabled":false,"rental_uris":{"android":"levelo://app?vid=76454009-dfc9-4f8e-9f37-499a2bf937c2","ios":"levelo://app?vid=76454009-dfc9-4f8e-9f37-499a2bf937c2"},"vehicle_type_id":"4","last_reported":1744362682,"current_range_meters":15200,"station_id":"ce4bh512rcd13ifvqe3g","pricing_plan_id":"cebpf4jnsgd1na2vs0mg"},{"bike_id":"c85b286c-a834-41ba-b350-5f84b9024963","system_id":"levelo_inurba_marseille","lat":43.23141,"lon":5.43703,"is_reserved":false,"is_disabled":false,"rental_uris":{"android":"levelo://app?vid=c85b286c-a834-41ba-b350-5f84b9024963","ios":"levelo://app?vid=c85b286c-a834-41ba-b350-5f84b9024963"},"vehicle_type_id":"4","last_reported":1744362682,"current_range_meters":16000,"station_id":"ce4bhmp2rcd13ifvqgog","pricing_plan_id":"cebpf4jnsgd1na2vs0mg"},{"bike_id":"7d3b44e2-e41b-45a7-b28a-d5034c0720d0","system_id":"levelo_inurba_marseille","lat":43.29055,"lon":5.40002,"is_reserved":false,"is_disabled":false,"rental_uris":{"android":"levelo://app?vid=7d3b44e2-e41b-45a7-b28a-d5034c0720d0","ios":"levelo://app?vid=7d3b44e2-e41b-45a7-b28a-d5034c0720d0"},"vehicle_type_id":"4","last_reported":1744362682,"current_range_meters":16000,"station_id":"ce4bh392rcd13ifvqdm0","pricing_plan_id":"cebpf4jnsgd1na2vs0mg"},{"bike_id":"d753ef39-5a80-42a8-9d1d-24dfa1469d65","system_id":"levelo_inurba_marseille","lat":43.30188,"lon":5.36624,"is_reserved":false,"is_disabled":false,"rental_uris":{"android":"levelo://app?vid=d753ef39-5a80-42a8-9d1d-24dfa1469d65","ios":"levelo://app?vid=d753ef39-5a80-42a8-9d1d-24dfa1469d65"},"vehicle_type_id":"4","last_reported":1744362682,"current_range_meters":16000,"station_id":"ce4bgrh2rcd13ifvqc8g","pricing_plan_id":"cebpf4jnsgd1na2vs0mg"},{"bike_id":"549918be-d79a-4899-a870-6473907900ee","system_id":"levelo_inurba_marseille","lat":43.29879,"lon":5.36282,"is_reserved":false,"is_disabled":true,"rental_uris":{"android":"levelo://app?vid=549918be-d79a-4899-a870-6473907900ee","ios":"levelo://app?vid=549918be-d79a-4899-a870-6473907900ee"},"vehicle_type_id":"4","last_reported":1744362682,"current_range_meters":16000,"station_id":"ce4bgpp2rcd13ifvqc3g","pricing_plan_id":"cebpf4jnsgd1na2vs0mg"},{"bike_id":"4c893399-b4ed-40ed-a49f-713da320f269","system_id":"levelo_inurba_marseille","lat":43.29861,"lon":5.37841,"is_reserved":false,"is_disabled":false,"rental_uris":{"android":"levelo://app?vid=4c893399-b4ed-40ed-a49f-713da320f269","ios":"levelo://app?vid=4c893399-b4ed-40ed-a49f-713da320f269"},"vehicle_type_id":"4","last_reported":1744362682,"current_range_meters":16000,"station_id":"","pricing_plan_id":"cebpf4jnsgd1na2vs0mg"},{"bike_id":"0a12228f-61f9-48c1-9f2f-bd8159dce7a6","system_id":"levelo_inurba_marseille","lat":43.26166,"lon":5.37353,"is_reserved":false,"is_disabled":true,"rental_uris":{"android":"levelo://app?vid=0a12228f-61f9-48c1-9f2f-bd8159dce7a6","ios":"levelo://app?vid=0a12228f-61f9-48c1-9f2f-bd8159dce7a6"},"vehicle_type_id":"4","last_reported":1744362682,"current_range_meters":16000,"station_id":"","pricing_plan_id":"cebpf4jnsgd1na2vs0mg"},{"bike_id":"a2ccb75d-7eb9-4d9d-8094-c61f30338d98","system_id":"levelo_inurba_marseille","lat":43.29034,"lon":5.39884,"is_reserved":false,"is_disabled":false,"rental_uris":{"android":"levelo://app?vid=a2ccb75d-7eb9-4d9d-8094-c61f30338d98","ios":"levelo://app?vid=a2ccb75d-7eb9-4d9d-8094-c61f30338d98"},"vehicle_type_id":"4","last_reported":1744362682,"current_range_meters":16000,"station_id":"","pricing_plan_id":"cebpf4jnsgd1na2vs0mg"},{"bike_id":"ef81cd36-6e8b-4cc6-a05b-8ac2bbd8c517","system_id":"levelo_inurba_marseille","lat":43.29534,"lon":5.38544,"is_reserved":false,"is_disabled":false,"rental_uris":{"android":"levelo://app?vid=ef81cd36-6e8b-4cc6-a05b-8ac2bbd8c517","ios":"levelo://app?vid=ef81cd36-6e8b-4cc6-a05b-8ac2bbd8c517"},"vehicle_type_id":"4","last_reported":1744362682,"current_range_meters":16000,"station_id":"ce4bgih2rcd13ifvqba0","pricing_plan_id":"cebpf4jnsgd1na2vs0mg"},{"bike_id":"f84d37d2-52e0-4244-84d2-e716c155fcbd","system_id":"levelo_inurba_marseille","lat":43.239636,"lon":5.366316,"is_reserved":false,"is_disabled":false,"rental_uris":{"android":"levelo://app?vid=f84d37d2-52e0-4244-84d2-e716c155fcbd","ios":"levelo://app?vid=f84d37d2-52e0-4244-84d2-e716c155fcbd"},"vehicle_type_id":"4","last_reported":1744362682,"current_range_meters":16400,"station_id":"ce4bhi12rcd13ifvqfp0","pricing_plan_id":"cebpf4jnsgd1na2vs0mg"},{"bike_id":"5f0f8288-68fd-470e-bcb6-af4241f1a925","system_id":"levelo_inurba_marseille","lat":43.28423,"lon":5.34984,"is_reserved":false,"is_disabled":false,"rental_uris":{"android":"levelo://app?vid=5f0f8288-68fd-470e-bcb6-af4241f1a925","ios":"levelo://app?vid=5f0f8288-68fd-470e-bcb6-af4241f1a925"},"vehicle_type_id":"4","last_reported":1744362682,"current_range_meters":16400,"station_id":"ce4bhbh2rcd13ifvqepg","pricing_plan_id":"cebpf4jnsgd1na2vs0mg"},{"bike_id":"ef291804-1477-432e-b153-82ea15725418","system_id":"levelo_inurba_marseille","lat":43.33742,"lon":5.37454,"is_reserved":false,"is_disabled":false,"rental_uris":{"android":"levelo://app?vid=ef291804-1477-432e-b153-82ea15725418","ios":"levelo://app?vid=ef291804-1477-432e-b153-82ea15725418"},"vehicle_type_id":"4","last_reported":1744362682,"current_range_meters":16400,"station_id":"","pricing_plan_id":"cebpf4jnsgd1na2vs0mg"},{"bike_id":"8c58f2fa-99e1-41f8-bf90-9c1648b679b1","system_id":"levelo_inurba_marseille","lat":43.273,"lon":5.41424,"is_reserved":false,"is_disabled":false,"rental_uris":{"android":"levelo://app?vid=8c58f2fa-99e1-41f8-bf90-9c1648b679b1","ios":"levelo://app?vid=8c58f2fa-99e1-41f8-bf90-9c1648b679b1"},"vehicle_type_id":"4","last_reported":1744362682,"current_range_meters":16400,"station_id":"","pricing_plan_id":"cebpf4jnsgd1na2vs0mg"},{"bike_id":"56830533-4ee2-44ba-a0aa-f5a935a86a02","system_id":"levelo_inurba_marseille","lat":43.21756,"lon":5.34619,"is_reserved":false,"is_disabled":false,"rental_uris":{"android":"levelo://app?vid=56830533-4ee2-44ba-a0aa-f5a935a86a02","ios":"levelo://app?vid=56830533-4ee2-44ba-a0aa-f5a935a86a02"},"vehicle_type_id":"4","last_reported":1744362682,"current_range_meters":16400,"station_id":"","pricing_plan_id":"cebpf4jnsgd1na2vs0mg"},{"bike_id":"80870c0a-2918-46cd-b324-2c5de8bd50c0","system_id":"levelo_inurba_marseille","lat":43.3089,"lon":5.36881,"is_reserved":false,"is_disabled":false,"rental_uris":{"android":"levelo://app?vid=80870c0a-2918-46cd-b324-2c5de8bd50c0","ios":"levelo://app?vid=80870c0a-2918-46cd-b324-2c5de8bd50c0"},"vehicle_type_id":"4","last_reported":1744362682,"current_range_meters":16400,"station_id":"ce4bgn92rcd13ifvqbvg","pricing_plan_id":"cebpf4jnsgd1na2vs0mg"},{"bike_id":"f4c869aa-66cd-4d6c-8b94-ecf6ae1111a8","system_id":"levelo_inurba_marseille","lat":43.29517,"lon":5.41831,"is_reserved":false,"is_disabled":true,"rental_uris":{"android":"levelo://app?vid=f4c869aa-66cd-4d6c-8b94-ecf6ae1111a8","ios":"levelo://app?vid=f4c869aa-66cd-4d6c-8b94-ecf6ae1111a8"},"vehicle_type_id":"4","last_reported":1744362682,"current_range_meters":16800,"station_id":"","pricing_plan_id":"cebpf4jnsgd1na2vs0mg"},{"bike_id":"b2ce936b-391b-47f6-a1f9-02af9a4ea3b0","system_id":"levelo_inurba_marseille","lat":43.31352,"lon":5.36732,"is_reserved":false,"is_disabled":false,"rental_uris":{"android":"levelo://app?vid=b2ce936b-391b-47f6-a1f9-02af9a4ea3b0","ios":"levelo://app?vid=b2ce936b-391b-47f6-a1f9-02af9a4ea3b0"},"vehicle_type_id":"4","last_reported":1744362682,"current_range_meters":16800,"station_id":"ce4bgr92rcd13ifvqc6g","pricing_plan_id":"cebpf4jnsgd1na2vs0mg"},{"bike_id":"5ab51aab-cb00-4b05-b072-748b9fac5067","system_id":"levelo_inurba_marseille","lat":43.30942,"lon":5.39032,"is_reserved":false,"is_disabled":false,"rental_uris":{"android":"levelo://app?vid=5ab51aab-cb00-4b05-b072-748b9fac5067","ios":"levelo://app?vid=5ab51aab-cb00-4b05-b072-748b9fac5067"},"vehicle_type_id":"4","last_reported":1744362682,"current_range_meters":16800,"station_id":"ce4bgup2rcd13ifvqco0","pricing_plan_id":"cebpf4jnsgd1na2vs0mg"},{"bike_id":"f0ba6c1e-70db-4813-a78c-75d3cb8fbbd1","system_id":"levelo_inurba_marseille","lat":43.29549,"lon":5.3902,"is_reserved":false,"is_disabled":false,"rental_uris":{"android":"levelo://app?vid=f0ba6c1e-70db-4813-a78c-75d3cb8fbbd1","ios":"levelo://app?vid=f0ba6c1e-70db-4813-a78c-75d3cb8fbbd1"},"vehicle_type_id":"4","last_reported":1744362682,"current_range_meters":17200,"station_id":"ce4bh3p2rcd13ifvqdp0","pricing_plan_id":"cebpf4jnsgd1na2vs0mg"},{"bike_id":"b23c94b8-d5d3-4e0b-8152-41fe9d7297e8","system_id":"levelo_inurba_marseille","lat":43.32357,"lon":5.36732,"is_reserved":false,"is_disabled":false,"rental_uris":{"android":"levelo://app?vid=b23c94b8-d5d3-4e0b-8152-41fe9d7297e8","ios":"levelo://app?vid=b23c94b8-d5d3-4e0b-8152-41fe9d7297e8"},"vehicle_type_id":"4","last_reported":1744362682,"current_range_meters":17200,"station_id":"ce4bhsh2rcd13ifvqi2g","pricing_plan_id":"cebpf4jnsgd1na2vs0mg"},{"bike_id":"54a7d26a-c5f8-4008-b945-bcc5a036c746","system_id":"levelo_inurba_marseille","lat":43.23328,"lon":5.36144,"is_reserved":false,"is_disabled":false,"rental_uris":{"android":"levelo://app?vid=54a7d26a-c5f8-4008-b945-bcc5a036c746","ios":"levelo://app?vid=54a7d26a-c5f8-4008-b945-bcc5a036c746"},"vehicle_type_id":"4","last_reported":1744362682,"current_range_meters":17200,"station_id":"","pricing_plan_id":"cebpf4jnsgd1na2vs0mg"},{"bike_id":"84b31b9a-3639-4a49-ba1b-b8657db4f117","system_id":"levelo_inurba_marseille","lat":43.30913,"lon":5.36843,"is_reserved":false,"is_disabled":false,"rental_uris":{"android":"levelo://app?vid=84b31b9a-3639-4a49-ba1b-b8657db4f117","ios":"levelo://app?vid=84b31b9a-3639-4a49-ba1b-b8657db4f117"},"vehicle_type_id":"4","last_reported":1744362682,"current_range_meters":17200,"station_id":"ce4bgn92rcd13ifvqbvg","pricing_plan_id":"cebpf4jnsgd1na2vs0mg"},{"bike_id":"6e57f3de-03d0-46de-822c-30606a5abdac","system_id":"levelo_inurba_marseille","lat":43.30199,"lon":5.3661,"is_reserved":false,"is_disabled":false,"rental_uris":{"android":"levelo://app?vid=6e57f3de-03d0-46de-822c-30606a5abdac","ios":"levelo://app?vid=6e57f3de-03d0-46de-822c-30606a5abdac"},"vehicle_type_id":"4","last_reported":1744362682,"current_range_meters":17200,"station_id":"ce4bgrh2rcd13ifvqc8g","pricing_plan_id":"cebpf4jnsgd1na2vs0mg"},{"bike_id":"94285f83-3b5d-462b-97b6-1d5eba6c8ae0","system_id":"levelo_inurba_marseille","lat":43.30493,"lon":5.3791,"is_reserved":false,"is_disabled":false,"rental_uris":{"android":"levelo://app?vid=94285f83-3b5d-462b-97b6-1d5eba6c8ae0","ios":"levelo://app?vid=94285f83-3b5d-462b-97b6-1d5eba6c8ae0"},"vehicle_type_id":"4","last_reported":1744362682,"current_range_meters":17200,"station_id":"ce4bgup2rcd13ifvqcn0","pricing_plan_id":"cebpf4jnsgd1na2vs0mg"},{"bike_id":"0d5cf6c8-ddd3-4794-b87c-df055255b522","system_id":"levelo_inurba_marseille","lat":43.309574,"lon":5.390651,"is_reserved":false,"is_disabled":false,"rental_uris":{"android":"levelo://app?vid=0d5cf6c8-ddd3-4794-b87c-df055255b522","ios":"levelo://app?vid=0d5cf6c8-ddd3-4794-b87c-df055255b522"},"vehicle_type_id":"4","last_reported":1744362682,"current_range_meters":17200,"station_id":"ce4bgup2rcd13ifvqco0","pricing_plan_id":"cebpf4jnsgd1na2vs0mg"},{"bike_id":"46437bc3-d6e2-4d0e-9af4-ba573ce7dfb3","system_id":"levelo_inurba_marseille","lat":43.309324,"lon":5.401563,"is_reserved":false,"is_disabled":false,"rental_uris":{"android":"levelo://app?vid=46437bc3-d6e2-4d0e-9af4-ba573ce7dfb3","ios":"levelo://app?vid=46437bc3-d6e2-4d0e-9af4-ba573ce7dfb3"},"vehicle_type_id":"4","last_reported":1744362682,"current_range_meters":17600,"station_id":"ce4bgvp2rcd13ifvqct0","pricing_plan_id":"cebpf4jnsgd1na2vs0mg"},{"bike_id":"8954f831-c63b-4c66-a9bf-67f39e6e3480","system_id":"levelo_inurba_marseille","lat":43.3028,"lon":5.40073,"is_reserved":false,"is_disabled":false,"rental_uris":{"android":"levelo://app?vid=8954f831-c63b-4c66-a9bf-67f39e6e3480","ios":"levelo://app?vid=8954f831-c63b-4c66-a9bf-67f39e6e3480"},"vehicle_type_id":"4","last_reported":1744362682,"current_range_meters":17600,"station_id":"ce4bgvh2rcd13ifvqcs0","pricing_plan_id":"cebpf4jnsgd1na2vs0mg"},{"bike_id":"41d2fbd3-5f6a-4aed-bc49-cbcb52652233","system_id":"levelo_inurba_marseille","lat":43.2987,"lon":5.397357,"is_reserved":false,"is_disabled":false,"rental_uris":{"android":"levelo://app?vid=41d2fbd3-5f6a-4aed-bc49-cbcb52652233","ios":"levelo://app?vid=41d2fbd3-5f6a-4aed-bc49-cbcb52652233"},"vehicle_type_id":"4","last_reported":1744362682,"current_range_meters":17200,"station_id":"ce4bh0h2rcd13ifvqd50","pricing_plan_id":"cebpf4jnsgd1na2vs0mg"},{"bike_id":"49bb8407-cf31-4b4d-b952-2cd46b487ea8","system_id":"levelo_inurba_marseille","lat":43.28864,"lon":5.35849,"is_reserved":false,"is_disabled":false,"rental_uris":{"android":"levelo://app?vid=49bb8407-cf31-4b4d-b952-2cd46b487ea8","ios":"levelo://app?vid=49bb8407-cf31-4b4d-b952-2cd46b487ea8"},"vehicle_type_id":"4","last_reported":1744362682,"current_range_meters":17600,"station_id":"ce4bhb12rcd13ifvqem0","pricing_plan_id":"cebpf4jnsgd1na2vs0mg"},{"bike_id":"7e80eef2-186e-4bbc-bcb2-54a4850f0b9d","system_id":"levelo_inurba_marseille","lat":43.29169,"lon":5.37142,"is_reserved":false,"is_disabled":false,"rental_uris":{"android":"levelo://app?vid=7e80eef2-186e-4bbc-bcb2-54a4850f0b9d","ios":"levelo://app?vid=7e80eef2-186e-4bbc-bcb2-54a4850f0b9d"},"vehicle_type_id":"4","last_reported":1744362682,"current_range_meters":17600,"station_id":"ce4bha92rcd13ifvqeh0","pricing_plan_id":"cebpf4jnsgd1na2vs0mg"},{"bike_id":"5b77a833-8185-45c2-9fe3-07eb40df54ca","system_id":"levelo_inurba_marseille","lat":43.33995,"lon":5.38057,"is_reserved":false,"is_disabled":false,"rental_uris":{"android":"levelo://app?vid=5b77a833-8185-45c2-9fe3-07eb40df54ca","ios":"levelo://app?vid=5b77a833-8185-45c2-9fe3-07eb40df54ca"},"vehicle_type_id":"4","last_reported":1744362682,"current_range_meters":17600,"station_id":"","pricing_plan_id":"cebpf4jnsgd1na2vs0mg"},{"bike_id":"4fc39082-371e-4148-9a3d-2f435cb9931c","system_id":"levelo_inurba_marseille","lat":43.290344,"lon":5.375648,"is_reserved":false,"is_disabled":false,"rental_uris":{"android":"levelo://app?vid=4fc39082-371e-4148-9a3d-2f435cb9931c","ios":"levelo://app?vid=4fc39082-371e-4148-9a3d-2f435cb9931c"},"vehicle_type_id":"4","last_reported":1744362682,"current_range_meters":18000,"station_id":"ce4bh692rcd13ifvqe90","pricing_plan_id":"cebpf4jnsgd1na2vs0mg"},{"bike_id":"c7618aae-a918-4dbc-9908-a066748aae03","system_id":"levelo_inurba_marseille","lat":43.29534,"lon":5.39377,"is_reserved":false,"is_disabled":true,"rental_uris":{"android":"levelo://app?vid=c7618aae-a918-4dbc-9908-a066748aae03","ios":"levelo://app?vid=c7618aae-a918-4dbc-9908-a066748aae03"},"vehicle_type_id":"4","last_reported":1744362682,"current_range_meters":18000,"station_id":"ce4bh292rcd13ifvqdf0","pricing_plan_id":"cebpf4jnsgd1na2vs0mg"},{"bike_id":"b902634d-2e86-4bf5-b76d-2654023eb46e","system_id":"levelo_inurba_marseille","lat":43.31283,"lon":5.36866,"is_reserved":false,"is_disabled":false,"rental_uris":{"android":"levelo://app?vid=b902634d-2e86-4bf5-b76d-2654023eb46e","ios":"levelo://app?vid=b902634d-2e86-4bf5-b76d-2654023eb46e"},"vehicle_type_id":"4","last_reported":1744362682,"current_range_meters":18000,"station_id":"ce4bgl92rcd13ifvqbq0","pricing_plan_id":"cebpf4jnsgd1na2vs0mg"},{"bike_id":"0d1b09aa-62c2-4b67-9ed2-408e74afb4d2","system_id":"levelo_inurba_marseille","lat":43.26227,"lon":5.40444,"is_reserved":false,"is_disabled":false,"rental_uris":{"android":"levelo://app?vid=0d1b09aa-62c2-4b67-9ed2-408e74afb4d2","ios":"levelo://app?vid=0d1b09aa-62c2-4b67-9ed2-408e74afb4d2"},"vehicle_type_id":"4","last_reported":1744362682,"current_range_meters":18000,"station_id":"ce4bhmh2rcd13ifvqgmg","pricing_plan_id":"cebpf4jnsgd1na2vs0mg"},{"bike_id":"d1ec29d7-f0f7-463e-bf62-a85dac36cbbe","system_id":"levelo_inurba_marseille","lat":43.30163,"lon":5.38086,"is_reserved":false,"is_disabled":false,"rental_uris":{"android":"levelo://app?vid=d1ec29d7-f0f7-463e-bf62-a85dac36cbbe","ios":"levelo://app?vid=d1ec29d7-f0f7-463e-bf62-a85dac36cbbe"},"vehicle_type_id":"4","last_reported":1744362682,"current_range_meters":18000,"station_id":"ce4bgjp2rcd13ifvqbh0","pricing_plan_id":"cebpf4jnsgd1na2vs0mg"},{"bike_id":"af220120-6e79-4169-b499-fb8b002d79de","system_id":"levelo_inurba_marseille","lat":43.28154,"lon":5.4258,"is_reserved":false,"is_disabled":false,"rental_uris":{"android":"levelo://app?vid=af220120-6e79-4169-b499-fb8b002d79de","ios":"levelo://app?vid=af220120-6e79-4169-b499-fb8b002d79de"},"vehicle_type_id":"4","last_reported":1744362682,"current_range_meters":18000,"station_id":"ce4bhnh2rcd13ifvqgug","pricing_plan_id":"cebpf4jnsgd1na2vs0mg"},{"bike_id":"9e51d317-42da-45eb-b7bf-3cc75d71f609","system_id":"levelo_inurba_marseille","lat":43.30963,"lon":5.36875,"is_reserved":false,"is_disabled":false,"rental_uris":{"android":"levelo://app?vid=9e51d317-42da-45eb-b7bf-3cc75d71f609","ios":"levelo://app?vid=9e51d317-42da-45eb-b7bf-3cc75d71f609"},"vehicle_type_id":"4","last_reported":1744362682,"current_range_meters":18000,"station_id":"","pricing_plan_id":"cebpf4jnsgd1na2vs0mg"},{"bike_id":"f46a49ca-1b9d-47bc-aed6-4fa281bfffb1","system_id":"levelo_inurba_marseille","lat":43.30532,"lon":5.36502,"is_reserved":false,"is_disabled":false,"rental_uris":{"android":"levelo://app?vid=f46a49ca-1b9d-47bc-aed6-4fa281bfffb1","ios":"levelo://app?vid=f46a49ca-1b9d-47bc-aed6-4fa281bfffb1"},"vehicle_type_id":"4","last_reported":1744362682,"current_range_meters":18000,"station_id":"ce4bgs12rcd13ifvqcag","pricing_plan_id":"cebpf4jnsgd1na2vs0mg"},{"bike_id":"0e7bf4ae-5aed-4055-a1f8-96debbb9847e","system_id":"levelo_inurba_marseille","lat":43.2416,"lon":5.36414,"is_reserved":false,"is_disabled":false,"rental_uris":{"android":"levelo://app?vid=0e7bf4ae-5aed-4055-a1f8-96debbb9847e","ios":"levelo://app?vid=0e7bf4ae-5aed-4055-a1f8-96debbb9847e"},"vehicle_type_id":"4","last_reported":1744362682,"current_range_meters":18000,"station_id":"cpo36qri1sfpv3e86is0","pricing_plan_id":"cebpf4jnsgd1na2vs0mg"},{"bike_id":"64048e4a-ad96-4bc6-927c-a054e8ead51f","system_id":"levelo_inurba_marseille","lat":43.31222,"lon":5.36839,"is_reserved":false,"is_disabled":false,"rental_uris":{"android":"levelo://app?vid=64048e4a-ad96-4bc6-927c-a054e8ead51f","ios":"levelo://app?vid=64048e4a-ad96-4bc6-927c-a054e8ead51f"},"vehicle_type_id":"4","last_reported":1744362682,"current_range_meters":18800,"station_id":"ce4bgl92rcd13ifvqbq0","pricing_plan_id":"cebpf4jnsgd1na2vs0mg"},{"bike_id":"5bd863cc-d59d-4b6c-ba8c-d49cf5648d89","system_id":"levelo_inurba_marseille","lat":43.30957,"lon":5.39047,"is_reserved":false,"is_disabled":false,"rental_uris":{"android":"levelo://app?vid=5bd863cc-d59d-4b6c-ba8c-d49cf5648d89","ios":"levelo://app?vid=5bd863cc-d59d-4b6c-ba8c-d49cf5648d89"},"vehicle_type_id":"4","last_reported":1744362682,"current_range_meters":18800,"station_id":"ce4bgup2rcd13ifvqco0","pricing_plan_id":"cebpf4jnsgd1na2vs0mg"},{"bike_id":"7c4545c3-c1b1-465e-91cc-14a8c8097af0","system_id":"levelo_inurba_marseille","lat":43.30588,"lon":5.39364,"is_reserved":false,"is_disabled":true,"rental_uris":{"android":"levelo://app?vid=7c4545c3-c1b1-465e-91cc-14a8c8097af0","ios":"levelo://app?vid=7c4545c3-c1b1-465e-91cc-14a8c8097af0"},"vehicle_type_id":"4","last_reported":1744362682,"current_range_meters":18800,"station_id":"ce4bh0p2rcd13ifvqd80","pricing_plan_id":"cebpf4jnsgd1na2vs0mg"},{"bike_id":"7a5c9c76-4e30-46ad-a0c8-64088d059970","system_id":"levelo_inurba_marseille","lat":43.24085,"lon":5.3771,"is_reserved":false,"is_disabled":false,"rental_uris":{"android":"levelo://app?vid=7a5c9c76-4e30-46ad-a0c8-64088d059970","ios":"levelo://app?vid=7a5c9c76-4e30-46ad-a0c8-64088d059970"},"vehicle_type_id":"4","last_reported":1744362682,"current_range_meters":18800,"station_id":"ce4bhnp2rcd13ifvqgvg","pricing_plan_id":"cebpf4jnsgd1na2vs0mg"},{"bike_id":"8211214a-b963-488d-a068-3964ae76e5a1","system_id":"levelo_inurba_marseille","lat":43.28417,"lon":5.34991,"is_reserved":false,"is_disabled":false,"rental_uris":{"android":"levelo://app?vid=8211214a-b963-488d-a068-3964ae76e5a1","ios":"levelo://app?vid=8211214a-b963-488d-a068-3964ae76e5a1"},"vehicle_type_id":"4","last_reported":1744362682,"current_range_meters":18800,"station_id":"ce4bhbh2rcd13ifvqepg","pricing_plan_id":"cebpf4jnsgd1na2vs0mg"},{"bike_id":"ae2b16a9-bf4c-4094-9fda-8d249d692cd8","system_id":"levelo_inurba_marseille","lat":43.29516,"lon":5.41772,"is_reserved":false,"is_disabled":false,"rental_uris":{"android":"levelo://app?vid=ae2b16a9-bf4c-4094-9fda-8d249d692cd8","ios":"levelo://app?vid=ae2b16a9-bf4c-4094-9fda-8d249d692cd8"},"vehicle_type_id":"4","last_reported":1744362682,"current_range_meters":19200,"station_id":"","pricing_plan_id":"cebpf4jnsgd1na2vs0mg"},{"bike_id":"b1fd08f3-8623-4888-bef5-66083f1a0186","system_id":"levelo_inurba_marseille","lat":43.3046,"lon":5.37899,"is_reserved":false,"is_disabled":false,"rental_uris":{"android":"levelo://app?vid=b1fd08f3-8623-4888-bef5-66083f1a0186","ios":"levelo://app?vid=b1fd08f3-8623-4888-bef5-66083f1a0186"},"vehicle_type_id":"4","last_reported":1744362682,"current_range_meters":19200,"station_id":"ce4bgup2rcd13ifvqcn0","pricing_plan_id":"cebpf4jnsgd1na2vs0mg"},{"bike_id":"30959c98-e1d6-42e4-8670-cb45664b5da2","system_id":"levelo_inurba_marseille","lat":43.29569,"lon":5.37529,"is_reserved":false,"is_disabled":false,"rental_uris":{"android":"levelo://app?vid=30959c98-e1d6-42e4-8670-cb45664b5da2","ios":"levelo://app?vid=30959c98-e1d6-42e4-8670-cb45664b5da2"},"vehicle_type_id":"4","last_reported":1744362682,"current_range_meters":19200,"station_id":"ce4bgh92rcd13ifvqb50","pricing_plan_id":"cebpf4jnsgd1na2vs0mg"},{"bike_id":"cb52d92e-a03e-4925-ab03-4e0266b08337","system_id":"levelo_inurba_marseille","lat":43.30969,"lon":5.3903,"is_reserved":false,"is_disabled":false,"rental_uris":{"android":"levelo://app?vid=cb52d92e-a03e-4925-ab03-4e0266b08337","ios":"levelo://app?vid=cb52d92e-a03e-4925-ab03-4e0266b08337"},"vehicle_type_id":"4","last_reported":1744362682,"current_range_meters":19200,"station_id":"ce4bgup2rcd13ifvqco0","pricing_plan_id":"cebpf4jnsgd1na2vs0mg"},{"bike_id":"90cddebc-2506-42ee-9df1-36a6154dff75","system_id":"levelo_inurba_marseille","lat":43.24181,"lon":5.36379,"is_reserved":false,"is_disabled":false,"rental_uris":{"android":"levelo://app?vid=90cddebc-2506-42ee-9df1-36a6154dff75","ios":"levelo://app?vid=90cddebc-2506-42ee-9df1-36a6154dff75"},"vehicle_type_id":"4","last_reported":1744362682,"current_range_meters":19200,"station_id":"cpo36qri1sfpv3e86is0","pricing_plan_id":"cebpf4jnsgd1na2vs0mg"},{"bike_id":"6da7ed18-5a5f-467e-8b00-c46a534110a8","system_id":"levelo_inurba_marseille","lat":43.29924,"lon":5.43654,"is_reserved":false,"is_disabled":false,"rental_uris":{"android":"levelo://app?vid=6da7ed18-5a5f-467e-8b00-c46a534110a8","ios":"levelo://app?vid=6da7ed18-5a5f-467e-8b00-c46a534110a8"},"vehicle_type_id":"4","last_reported":1744362682,"current_range_meters":19600,"station_id":"","pricing_plan_id":"cebpf4jnsgd1na2vs0mg"},{"bike_id":"dc174997-ea3b-4bf2-a886-4ffb632e992c","system_id":"levelo_inurba_marseille","lat":43.3096,"lon":5.39036,"is_reserved":false,"is_disabled":false,"rental_uris":{"android":"levelo://app?vid=dc174997-ea3b-4bf2-a886-4ffb632e992c","ios":"levelo://app?vid=dc174997-ea3b-4bf2-a886-4ffb632e992c"},"vehicle_type_id":"4","last_reported":1744362682,"current_range_meters":19600,"station_id":"ce4bgup2rcd13ifvqco0","pricing_plan_id":"cebpf4jnsgd1na2vs0mg"},{"bike_id":"15caa18c-ff16-46cf-9983-05ecc1cb9672","system_id":"levelo_inurba_marseille","lat":43.24654,"lon":5.38889,"is_reserved":false,"is_disabled":false,"rental_uris":{"android":"levelo://app?vid=15caa18c-ff16-46cf-9983-05ecc1cb9672","ios":"levelo://app?vid=15caa18c-ff16-46cf-9983-05ecc1cb9672"},"vehicle_type_id":"4","last_reported":1744362682,"current_range_meters":19600,"station_id":"ce4bho12rcd13ifvqh1g","pricing_plan_id":"cebpf4jnsgd1na2vs0mg"},{"bike_id":"663b2732-4e40-469c-b29d-1168df3c33a7","system_id":"levelo_inurba_marseille","lat":43.309,"lon":5.36845,"is_reserved":false,"is_disabled":false,"rental_uris":{"android":"levelo://app?vid=663b2732-4e40-469c-b29d-1168df3c33a7","ios":"levelo://app?vid=663b2732-4e40-469c-b29d-1168df3c33a7"},"vehicle_type_id":"4","last_reported":1744362682,"current_range_meters":19600,"station_id":"ce4bgn92rcd13ifvqbvg","pricing_plan_id":"cebpf4jnsgd1na2vs0mg"},{"bike_id":"35731db3-6912-402e-a623-b72e3ccb4de5","system_id":"levelo_inurba_marseille","lat":43.23149,"lon":5.43729,"is_reserved":false,"is_disabled":false,"rental_uris":{"android":"levelo://app?vid=35731db3-6912-402e-a623-b72e3ccb4de5","ios":"levelo://app?vid=35731db3-6912-402e-a623-b72e3ccb4de5"},"vehicle_type_id":"4","last_reported":1744362682,"current_range_meters":19600,"station_id":"ce4bhmp2rcd13ifvqgog","pricing_plan_id":"cebpf4jnsgd1na2vs0mg"},{"bike_id":"936538f5-a626-4379-b293-37a212707397","system_id":"levelo_inurba_marseille","lat":43.25501,"lon":5.37651,"is_reserved":false,"is_disabled":false,"rental_uris":{"android":"levelo://app?vid=936538f5-a626-4379-b293-37a212707397","ios":"levelo://app?vid=936538f5-a626-4379-b293-37a212707397"},"vehicle_type_id":"4","last_reported":1744362682,"current_range_meters":20000,"station_id":"ce4bhh12rcd13ifvqff0","pricing_plan_id":"cebpf4jnsgd1na2vs0mg"},{"bike_id":"e7d64116-368f-421d-902b-041b68f32a12","system_id":"levelo_inurba_marseille","lat":43.3052,"lon":5.365,"is_reserved":false,"is_disabled":false,"rental_uris":{"android":"levelo://app?vid=e7d64116-368f-421d-902b-041b68f32a12","ios":"levelo://app?vid=e7d64116-368f-421d-902b-041b68f32a12"},"vehicle_type_id":"4","last_reported":1744362682,"current_range_meters":20000,"station_id":"","pricing_plan_id":"cebpf4jnsgd1na2vs0mg"},{"bike_id":"6c697903-6f6a-4fdc-912f-29ea8fa2476d","system_id":"levelo_inurba_marseille","lat":43.28612,"lon":5.35089,"is_reserved":false,"is_disabled":false,"rental_uris":{"android":"levelo://app?vid=6c697903-6f6a-4fdc-912f-29ea8fa2476d","ios":"levelo://app?vid=6c697903-6f6a-4fdc-912f-29ea8fa2476d"},"vehicle_type_id":"4","last_reported":1744362682,"current_range_meters":20000,"station_id":"ce4bhch2rcd13ifvqeug","pricing_plan_id":"cebpf4jnsgd1na2vs0mg"},{"bike_id":"3d154342-8b10-4ee5-8335-7837a66458d4","system_id":"levelo_inurba_marseille","lat":43.25604,"lon":5.3824,"is_reserved":false,"is_disabled":false,"rental_uris":{"android":"levelo://app?vid=3d154342-8b10-4ee5-8335-7837a66458d4","ios":"levelo://app?vid=3d154342-8b10-4ee5-8335-7837a66458d4"},"vehicle_type_id":"4","last_reported":1744362682,"current_range_meters":20000,"station_id":"ce4bhih2rcd13ifvqfs0","pricing_plan_id":"cebpf4jnsgd1na2vs0mg"},{"bike_id":"90ad8162-2de8-483e-9362-0199ddc4c03f","system_id":"levelo_inurba_marseille","lat":43.297194,"lon":5.377325,"is_reserved":false,"is_disabled":false,"rental_uris":{"android":"levelo://app?vid=90ad8162-2de8-483e-9362-0199ddc4c03f","ios":"levelo://app?vid=90ad8162-2de8-483e-9362-0199ddc4c03f"},"vehicle_type_id":"4","last_reported":1744362682,"current_range_meters":20000,"station_id":"ce4bgkh2rcd13ifvqbl0","pricing_plan_id":"cebpf4jnsgd1na2vs0mg"},{"bike_id":"23563c79-8cca-433d-badd-8931de3fc895","system_id":"levelo_inurba_marseille","lat":43.303115,"lon":5.368958,"is_reserved":false,"is_disabled":false,"rental_uris":{"android":"levelo://app?vid=23563c79-8cca-433d-badd-8931de3fc895","ios":"levelo://app?vid=23563c79-8cca-433d-badd-8931de3fc895"},"vehicle_type_id":"4","last_reported":1744362682,"current_range_meters":20000,"station_id":"ce4bhbp2rcd13ifvqerg","pricing_plan_id":"cebpf4jnsgd1na2vs0mg"},{"bike_id":"44ea3182-88eb-4a7d-bbc8-aa868967f1bc","system_id":"levelo_inurba_marseille","lat":43.31253,"lon":5.36842,"is_reserved":false,"is_disabled":true,"rental_uris":{"android":"levelo://app?vid=44ea3182-88eb-4a7d-bbc8-aa868967f1bc","ios":"levelo://app?vid=44ea3182-88eb-4a7d-bbc8-aa868967f1bc"},"vehicle_type_id":"4","last_reported":1744362682,"current_range_meters":20000,"station_id":"ce4bgl92rcd13ifvqbq0","pricing_plan_id":"cebpf4jnsgd1na2vs0mg"},{"bike_id":"bf7ea417-88f3-4b43-a456-2841b2c39cb0","system_id":"levelo_inurba_marseille","lat":43.30462,"lon":5.379,"is_reserved":false,"is_disabled":false,"rental_uris":{"android":"levelo://app?vid=bf7ea417-88f3-4b43-a456-2841b2c39cb0","ios":"levelo://app?vid=bf7ea417-88f3-4b43-a456-2841b2c39cb0"},"vehicle_type_id":"4","last_reported":1744362682,"current_range_meters":20000,"station_id":"ce4bgup2rcd13ifvqcn0","pricing_plan_id":"cebpf4jnsgd1na2vs0mg"},{"bike_id":"223c83cf-d64d-436b-aac5-0441fdc52c5b","system_id":"levelo_inurba_marseille","lat":43.30461,"lon":5.37908,"is_reserved":false,"is_disabled":false,"rental_uris":{"android":"levelo://app?vid=223c83cf-d64d-436b-aac5-0441fdc52c5b","ios":"levelo://app?vid=223c83cf-d64d-436b-aac5-0441fdc52c5b"},"vehicle_type_id":"4","last_reported":1744362682,"current_range_meters":20400,"station_id":"ce4bgup2rcd13ifvqcn0","pricing_plan_id":"cebpf4jnsgd1na2vs0mg"},{"bike_id":"d447dcab-53dc-4f57-8bb2-4145811365b2","system_id":"levelo_inurba_marseille","lat":43.2315,"lon":5.43717,"is_reserved":false,"is_disabled":false,"rental_uris":{"android":"levelo://app?vid=d447dcab-53dc-4f57-8bb2-4145811365b2","ios":"levelo://app?vid=d447dcab-53dc-4f57-8bb2-4145811365b2"},"vehicle_type_id":"4","last_reported":1744362682,"current_range_meters":20400,"station_id":"ce4bhmp2rcd13ifvqgog","pricing_plan_id":"cebpf4jnsgd1na2vs0mg"},{"bike_id":"4548da5e-0c7d-4f7e-a15a-bc037d8de47c","system_id":"levelo_inurba_marseille","lat":43.29577,"lon":5.36724,"is_reserved":false,"is_disabled":false,"rental_uris":{"android":"levelo://app?vid=4548da5e-0c7d-4f7e-a15a-bc037d8de47c","ios":"levelo://app?vid=4548da5e-0c7d-4f7e-a15a-bc037d8de47c"},"vehicle_type_id":"4","last_reported":1744362682,"current_range_meters":20400,"station_id":"ce4bgph2rcd13ifvqc2g","pricing_plan_id":"cebpf4jnsgd1na2vs0mg"},{"bike_id":"82fcf910-44f9-45ca-b471-7d424315cf9b","system_id":"levelo_inurba_marseille","lat":43.28363,"lon":5.38623,"is_reserved":false,"is_disabled":false,"rental_uris":{"android":"levelo://app?vid=82fcf910-44f9-45ca-b471-7d424315cf9b","ios":"levelo://app?vid=82fcf910-44f9-45ca-b471-7d424315cf9b"},"vehicle_type_id":"4","last_reported":1744362682,"current_range_meters":20000,"station_id":"ce4bh492rcd13ifvqdvg","pricing_plan_id":"cebpf4jnsgd1na2vs0mg"},{"bike_id":"54fd1f47-30e0-43e3-8a78-119ff2fba07d","system_id":"levelo_inurba_marseille","lat":43.294569,"lon":5.380369,"is_reserved":false,"is_disabled":false,"rental_uris":{"android":"levelo://app?vid=54fd1f47-30e0-43e3-8a78-119ff2fba07d","ios":"levelo://app?vid=54fd1f47-30e0-43e3-8a78-119ff2fba07d"},"vehicle_type_id":"4","last_reported":1744362682,"current_range_meters":20400,"station_id":"ce4bgup2rcd13ifvqcn0","pricing_plan_id":"cebpf4jnsgd1na2vs0mg"},{"bike_id":"eff4d23b-3f33-426d-9b7f-22a1c5256a89","system_id":"levelo_inurba_marseille","lat":43.2846,"lon":5.35883,"is_reserved":false,"is_disabled":false,"rental_uris":{"android":"levelo://app?vid=eff4d23b-3f33-426d-9b7f-22a1c5256a89","ios":"levelo://app?vid=eff4d23b-3f33-426d-9b7f-22a1c5256a89"},"vehicle_type_id":"4","last_reported":1744362682,"current_range_meters":20800,"station_id":"ce4bhah2rcd13ifvqei0","pricing_plan_id":"cebpf4jnsgd1na2vs0mg"},{"bike_id":"a945cbf3-38e6-4aa3-9aa1-d414d6c834b5","system_id":"levelo_inurba_marseille","lat":43.3189,"lon":5.40733,"is_reserved":false,"is_disabled":true,"rental_uris":{"android":"levelo://app?vid=a945cbf3-38e6-4aa3-9aa1-d414d6c834b5","ios":"levelo://app?vid=a945cbf3-38e6-4aa3-9aa1-d414d6c834b5"},"vehicle_type_id":"4","last_reported":1744362682,"current_range_meters":20800,"station_id":"ce4bhq12rcd13ifvqhig","pricing_plan_id":"cebpf4jnsgd1na2vs0mg"},{"bike_id":"96172b5f-e812-48db-8ad2-ef6082700512","system_id":"levelo_inurba_marseille","lat":43.30944,"lon":5.39027,"is_reserved":false,"is_disabled":false,"rental_uris":{"android":"levelo://app?vid=96172b5f-e812-48db-8ad2-ef6082700512","ios":"levelo://app?vid=96172b5f-e812-48db-8ad2-ef6082700512"},"vehicle_type_id":"4","last_reported":1744362682,"current_range_meters":20800,"station_id":"ce4bgup2rcd13ifvqco0","pricing_plan_id":"cebpf4jnsgd1na2vs0mg"},{"bike_id":"873a345f-ac07-415b-8aab-c6473351c455","system_id":"levelo_inurba_marseille","lat":43.30503,"lon":5.37916,"is_reserved":false,"is_disabled":false,"rental_uris":{"android":"levelo://app?vid=873a345f-ac07-415b-8aab-c6473351c455","ios":"levelo://app?vid=873a345f-ac07-415b-8aab-c6473351c455"},"vehicle_type_id":"4","last_reported":1744362682,"current_range_meters":21600,"station_id":"ce4bgup2rcd13ifvqcn0","pricing_plan_id":"cebpf4jnsgd1na2vs0mg"},{"bike_id":"a6fb9ac6-0321-4123-b718-f7bd24b8337c","system_id":"levelo_inurba_marseille","lat":43.24183,"lon":5.3973,"is_reserved":false,"is_disabled":false,"rental_uris":{"android":"levelo://app?vid=a6fb9ac6-0321-4123-b718-f7bd24b8337c","ios":"levelo://app?vid=a6fb9ac6-0321-4123-b718-f7bd24b8337c"},"vehicle_type_id":"4","last_reported":1744362682,"current_range_meters":21600,"station_id":"ce4bhn12rcd13ifvqgpg","pricing_plan_id":"cebpf4jnsgd1na2vs0mg"},{"bike_id":"dd4f30ec-655f-42a0-9740-dc393c7cd628","system_id":"levelo_inurba_marseille","lat":43.31409,"lon":5.3665,"is_reserved":false,"is_disabled":false,"rental_uris":{"android":"levelo://app?vid=dd4f30ec-655f-42a0-9740-dc393c7cd628","ios":"levelo://app?vid=dd4f30ec-655f-42a0-9740-dc393c7cd628"},"vehicle_type_id":"4","last_reported":1744362682,"current_range_meters":21600,"station_id":"","pricing_plan_id":"cebpf4jnsgd1na2vs0mg"},{"bike_id":"306b7750-3522-4030-b70e-1441bb961641","system_id":"levelo_inurba_marseille","lat":43.29945,"lon":5.41323,"is_reserved":false,"is_disabled":false,"rental_uris":{"android":"levelo://app?vid=306b7750-3522-4030-b70e-1441bb961641","ios":"levelo://app?vid=306b7750-3522-4030-b70e-1441bb961641"},"vehicle_type_id":"4","last_reported":1744362682,"current_range_meters":21600,"station_id":"ce4bhp12rcd13ifvqh9g","pricing_plan_id":"cebpf4jnsgd1na2vs0mg"},{"bike_id":"57411b40-1ae3-43d8-b42b-0b536df935a0","system_id":"levelo_inurba_marseille","lat":43.246458,"lon":5.388901,"is_reserved":false,"is_disabled":false,"rental_uris":{"android":"levelo://app?vid=57411b40-1ae3-43d8-b42b-0b536df935a0","ios":"levelo://app?vid=57411b40-1ae3-43d8-b42b-0b536df935a0"},"vehicle_type_id":"4","last_reported":1744362682,"current_range_meters":20000,"station_id":"ce4bh312rcd13ifvqdk0","pricing_plan_id":"cebpf4jnsgd1na2vs0mg"},{"bike_id":"a7c58a60-a5c5-4a4e-b362-dc7feaea63d7","system_id":"levelo_inurba_marseille","lat":43.31989,"lon":5.38141,"is_reserved":false,"is_disabled":true,"rental_uris":{"android":"levelo://app?vid=a7c58a60-a5c5-4a4e-b362-dc7feaea63d7","ios":"levelo://app?vid=a7c58a60-a5c5-4a4e-b362-dc7feaea63d7"},"vehicle_type_id":"4","last_reported":1744362682,"current_range_meters":21600,"station_id":"ce4bhr12rcd13ifvqhpg","pricing_plan_id":"cebpf4jnsgd1na2vs0mg"},{"bike_id":"af788835-bf44-4a08-af32-3c0327e31191","system_id":"levelo_inurba_marseille","lat":43.31361,"lon":5.36712,"is_reserved":false,"is_disabled":false,"rental_uris":{"android":"levelo://app?vid=af788835-bf44-4a08-af32-3c0327e31191","ios":"levelo://app?vid=af788835-bf44-4a08-af32-3c0327e31191"},"vehicle_type_id":"4","last_reported":1744362682,"current_range_meters":21600,"station_id":"ce4bgr92rcd13ifvqc6g","pricing_plan_id":"cebpf4jnsgd1na2vs0mg"},{"bike_id":"47eff80a-0b03-4254-8f7d-2a0a1a36e859","system_id":"levelo_inurba_marseille","lat":43.3055,"lon":5.36562,"is_reserved":false,"is_disabled":false,"rental_uris":{"android":"levelo://app?vid=47eff80a-0b03-4254-8f7d-2a0a1a36e859","ios":"levelo://app?vid=47eff80a-0b03-4254-8f7d-2a0a1a36e859"},"vehicle_type_id":"4","last_reported":1744362682,"current_range_meters":19600,"station_id":"ce4bgs12rcd13ifvqcag","pricing_plan_id":"cebpf4jnsgd1na2vs0mg"},{"bike_id":"a9f41225-afc1-4664-b1d2-fc661ba5d6c9","system_id":"levelo_inurba_marseille","lat":43.2315,"lon":5.43711,"is_reserved":false,"is_disabled":false,"rental_uris":{"android":"levelo://app?vid=a9f41225-afc1-4664-b1d2-fc661ba5d6c9","ios":"levelo://app?vid=a9f41225-afc1-4664-b1d2-fc661ba5d6c9"},"vehicle_type_id":"4","last_reported":1744362682,"current_range_meters":22000,"station_id":"ce4bhmp2rcd13ifvqgog","pricing_plan_id":"cebpf4jnsgd1na2vs0mg"},{"bike_id":"020e9999-d552-48d0-ae5f-b725af0dbea2","system_id":"levelo_inurba_marseille","lat":43.29937,"lon":5.43757,"is_reserved":false,"is_disabled":false,"rental_uris":{"android":"levelo://app?vid=020e9999-d552-48d0-ae5f-b725af0dbea2","ios":"levelo://app?vid=020e9999-d552-48d0-ae5f-b725af0dbea2"},"vehicle_type_id":"4","last_reported":1744362682,"current_range_meters":22000,"station_id":"","pricing_plan_id":"cebpf4jnsgd1na2vs0mg"},{"bike_id":"ed9fcd3f-ed4b-47df-9abc-6088750d314c","system_id":"levelo_inurba_marseille","lat":43.24163,"lon":5.39726,"is_reserved":false,"is_disabled":false,"rental_uris":{"android":"levelo://app?vid=ed9fcd3f-ed4b-47df-9abc-6088750d314c","ios":"levelo://app?vid=ed9fcd3f-ed4b-47df-9abc-6088750d314c"},"vehicle_type_id":"4","last_reported":1744362682,"current_range_meters":22000,"station_id":"ce4bhn12rcd13ifvqgpg","pricing_plan_id":"cebpf4jnsgd1na2vs0mg"},{"bike_id":"ad1e157c-b785-42e2-b003-13862b3c166e","system_id":"levelo_inurba_marseille","lat":43.30315,"lon":5.369,"is_reserved":false,"is_disabled":false,"rental_uris":{"android":"levelo://app?vid=ad1e157c-b785-42e2-b003-13862b3c166e","ios":"levelo://app?vid=ad1e157c-b785-42e2-b003-13862b3c166e"},"vehicle_type_id":"4","last_reported":1744362682,"current_range_meters":22000,"station_id":"ce4bgqh2rcd13ifvqc5g","pricing_plan_id":"cebpf4jnsgd1na2vs0mg"},{"bike_id":"3236a17b-87bc-4827-b557-be034a694ecb","system_id":"levelo_inurba_marseille","lat":43.3054,"lon":5.36532,"is_reserved":false,"is_disabled":false,"rental_uris":{"android":"levelo://app?vid=3236a17b-87bc-4827-b557-be034a694ecb","ios":"levelo://app?vid=3236a17b-87bc-4827-b557-be034a694ecb"},"vehicle_type_id":"4","last_reported":1744362682,"current_range_meters":22000,"station_id":"ce4bgs12rcd13ifvqcag","pricing_plan_id":"cebpf4jnsgd1na2vs0mg"},{"bike_id":"db697a4e-bf01-4ed6-be3f-a8fe18a68ec4","system_id":"levelo_inurba_marseille","lat":43.27938,"lon":5.41045,"is_reserved":false,"is_disabled":false,"rental_uris":{"android":"levelo://app?vid=db697a4e-bf01-4ed6-be3f-a8fe18a68ec4","ios":"levelo://app?vid=db697a4e-bf01-4ed6-be3f-a8fe18a68ec4"},"vehicle_type_id":"4","last_reported":1744362682,"current_range_meters":22000,"station_id":"ce4bhnp2rcd13ifvqh0g","pricing_plan_id":"cebpf4jnsgd1na2vs0mg"},{"bike_id":"1d55dd05-ff1a-4a72-baa0-d81e5fc0e4f6","system_id":"levelo_inurba_marseille","lat":43.26617,"lon":5.39626,"is_reserved":false,"is_disabled":false,"rental_uris":{"android":"levelo://app?vid=1d55dd05-ff1a-4a72-baa0-d81e5fc0e4f6","ios":"levelo://app?vid=1d55dd05-ff1a-4a72-baa0-d81e5fc0e4f6"},"vehicle_type_id":"4","last_reported":1744362682,"current_range_meters":22000,"station_id":"","pricing_plan_id":"cebpf4jnsgd1na2vs0mg"},{"bike_id":"1c19acc6-06c8-405c-a0d7-db769e0083a6","system_id":"levelo_inurba_marseille","lat":43.23152,"lon":5.43719,"is_reserved":false,"is_disabled":false,"rental_uris":{"android":"levelo://app?vid=1c19acc6-06c8-405c-a0d7-db769e0083a6","ios":"levelo://app?vid=1c19acc6-06c8-405c-a0d7-db769e0083a6"},"vehicle_type_id":"4","last_reported":1744362682,"current_range_meters":22000,"station_id":"ce4bhmp2rcd13ifvqgog","pricing_plan_id":"cebpf4jnsgd1na2vs0mg"},{"bike_id":"39ca460d-1f9f-4392-9cd8-c63dc7681cd0","system_id":"levelo_inurba_marseille","lat":43.324801,"lon":5.365691,"is_reserved":false,"is_disabled":false,"rental_uris":{"android":"levelo://app?vid=39ca460d-1f9f-4392-9cd8-c63dc7681cd0","ios":"levelo://app?vid=39ca460d-1f9f-4392-9cd8-c63dc7681cd0"},"vehicle_type_id":"4","last_reported":1744362682,"current_range_meters":22400,"station_id":"ce4bhs12rcd13ifvqhvg","pricing_plan_id":"cebpf4jnsgd1na2vs0mg"},{"bike_id":"b2c8e62c-3a96-4311-a47d-0b0aff4817c1","system_id":"levelo_inurba_marseille","lat":43.21227,"lon":5.35083,"is_reserved":false,"is_disabled":false,"rental_uris":{"android":"levelo://app?vid=b2c8e62c-3a96-4311-a47d-0b0aff4817c1","ios":"levelo://app?vid=b2c8e62c-3a96-4311-a47d-0b0aff4817c1"},"vehicle_type_id":"4","last_reported":1744362682,"current_range_meters":22400,"station_id":"","pricing_plan_id":"cebpf4jnsgd1na2vs0mg"},{"bike_id":"f59b59e1-0b84-400d-adb7-0621d9177a6d","system_id":"levelo_inurba_marseille","lat":43.30327,"lon":5.36918,"is_reserved":false,"is_disabled":true,"rental_uris":{"android":"levelo://app?vid=f59b59e1-0b84-400d-adb7-0621d9177a6d","ios":"levelo://app?vid=f59b59e1-0b84-400d-adb7-0621d9177a6d"},"vehicle_type_id":"4","last_reported":1744362682,"current_range_meters":22400,"station_id":"","pricing_plan_id":"cebpf4jnsgd1na2vs0mg"},{"bike_id":"68964ce7-7e80-408b-babb-19ee0a045391","system_id":"levelo_inurba_marseille","lat":43.30531,"lon":5.36701,"is_reserved":false,"is_disabled":false,"rental_uris":{"android":"levelo://app?vid=68964ce7-7e80-408b-babb-19ee0a045391","ios":"levelo://app?vid=68964ce7-7e80-408b-babb-19ee0a045391"},"vehicle_type_id":"4","last_reported":1744362682,"current_range_meters":22400,"station_id":"ce4bgrp2rcd13ifvqc9g","pricing_plan_id":"cebpf4jnsgd1na2vs0mg"},{"bike_id":"2944f561-a4d0-49ad-b140-1d15b7e2a6f2","system_id":"levelo_inurba_marseille","lat":43.29297,"lon":5.3745,"is_reserved":false,"is_disabled":false,"rental_uris":{"android":"levelo://app?vid=2944f561-a4d0-49ad-b140-1d15b7e2a6f2","ios":"levelo://app?vid=2944f561-a4d0-49ad-b140-1d15b7e2a6f2"},"vehicle_type_id":"4","last_reported":1744362682,"current_range_meters":22400,"station_id":"ce4bgi12rcd13ifvqb70","pricing_plan_id":"cebpf4jnsgd1na2vs0mg"},{"bike_id":"67380e52-d3c3-4b4b-89cc-b2cc89f0280c","system_id":"levelo_inurba_marseille","lat":43.25572,"lon":5.38237,"is_reserved":false,"is_disabled":false,"rental_uris":{"android":"levelo://app?vid=67380e52-d3c3-4b4b-89cc-b2cc89f0280c","ios":"levelo://app?vid=67380e52-d3c3-4b4b-89cc-b2cc89f0280c"},"vehicle_type_id":"4","last_reported":1744362682,"current_range_meters":22400,"station_id":"ce4bhih2rcd13ifvqfs0","pricing_plan_id":"cebpf4jnsgd1na2vs0mg"},{"bike_id":"bf66c301-d926-43bd-9e88-39153a42b273","system_id":"levelo_inurba_marseille","lat":43.23967,"lon":5.36624,"is_reserved":false,"is_disabled":false,"rental_uris":{"android":"levelo://app?vid=bf66c301-d926-43bd-9e88-39153a42b273","ios":"levelo://app?vid=bf66c301-d926-43bd-9e88-39153a42b273"},"vehicle_type_id":"4","last_reported":1744362682,"current_range_meters":22800,"station_id":"ce4bhi12rcd13ifvqfp0","pricing_plan_id":"cebpf4jnsgd1na2vs0mg"},{"bike_id":"d2a0ed9a-4e24-46ff-834d-52e5db495827","system_id":"levelo_inurba_marseille","lat":43.30895,"lon":5.36844,"is_reserved":false,"is_disabled":false,"rental_uris":{"android":"levelo://app?vid=d2a0ed9a-4e24-46ff-834d-52e5db495827","ios":"levelo://app?vid=d2a0ed9a-4e24-46ff-834d-52e5db495827"},"vehicle_type_id":"4","last_reported":1744362682,"current_range_meters":22800,"station_id":"ce4bgn92rcd13ifvqbvg","pricing_plan_id":"cebpf4jnsgd1na2vs0mg"},{"bike_id":"34c220b9-aac1-404e-869e-fa2ce4ec3740","system_id":"levelo_inurba_marseille","lat":43.30288,"lon":5.37713,"is_reserved":false,"is_disabled":false,"rental_uris":{"android":"levelo://app?vid=34c220b9-aac1-404e-869e-fa2ce4ec3740","ios":"levelo://app?vid=34c220b9-aac1-404e-869e-fa2ce4ec3740"},"vehicle_type_id":"4","last_reported":1744362682,"current_range_meters":22800,"station_id":"ce4bguh2rcd13ifvqcj0","pricing_plan_id":"cebpf4jnsgd1na2vs0mg"},{"bike_id":"ce745222-dd36-402d-bbc3-4dd9055fadd7","system_id":"levelo_inurba_marseille","lat":43.25002,"lon":5.38926,"is_reserved":false,"is_disabled":false,"rental_uris":{"android":"levelo://app?vid=ce745222-dd36-402d-bbc3-4dd9055fadd7","ios":"levelo://app?vid=ce745222-dd36-402d-bbc3-4dd9055fadd7"},"vehicle_type_id":"4","last_reported":1744362682,"current_range_meters":22800,"station_id":"ce4bhgp2rcd13ifvqfd0","pricing_plan_id":"cebpf4jnsgd1na2vs0mg"},{"bike_id":"6ee9f4f4-2b89-4c8a-bb41-24b111547b04","system_id":"levelo_inurba_marseille","lat":43.3126,"lon":5.36902,"is_reserved":false,"is_disabled":false,"rental_uris":{"android":"levelo://app?vid=6ee9f4f4-2b89-4c8a-bb41-24b111547b04","ios":"levelo://app?vid=6ee9f4f4-2b89-4c8a-bb41-24b111547b04"},"vehicle_type_id":"4","last_reported":1744362682,"current_range_meters":22800,"station_id":"ce4bgl92rcd13ifvqbq0","pricing_plan_id":"cebpf4jnsgd1na2vs0mg"},{"bike_id":"d8b9884b-4022-4710-9f87-50e0dbfd421d","system_id":"levelo_inurba_marseille","lat":43.24173,"lon":5.36397,"is_reserved":false,"is_disabled":false,"rental_uris":{"android":"levelo://app?vid=d8b9884b-4022-4710-9f87-50e0dbfd421d","ios":"levelo://app?vid=d8b9884b-4022-4710-9f87-50e0dbfd421d"},"vehicle_type_id":"4","last_reported":1744362682,"current_range_meters":22800,"station_id":"cpo36qri1sfpv3e86is0","pricing_plan_id":"cebpf4jnsgd1na2vs0mg"},{"bike_id":"4060c619-b01a-494d-871c-d728ad893cb2","system_id":"levelo_inurba_marseille","lat":43.21745,"lon":5.34599,"is_reserved":false,"is_disabled":false,"rental_uris":{"android":"levelo://app?vid=4060c619-b01a-494d-871c-d728ad893cb2","ios":"levelo://app?vid=4060c619-b01a-494d-871c-d728ad893cb2"},"vehicle_type_id":"4","last_reported":1744362682,"current_range_meters":22800,"station_id":"","pricing_plan_id":"cebpf4jnsgd1na2vs0mg"},{"bike_id":"8f762f3d-142c-4240-93cc-090fd3b54b95","system_id":"levelo_inurba_marseille","lat":43.22897,"lon":5.4411,"is_reserved":false,"is_disabled":false,"rental_uris":{"android":"levelo://app?vid=8f762f3d-142c-4240-93cc-090fd3b54b95","ios":"levelo://app?vid=8f762f3d-142c-4240-93cc-090fd3b54b95"},"vehicle_type_id":"4","last_reported":1744362682,"current_range_meters":22800,"station_id":"","pricing_plan_id":"cebpf4jnsgd1na2vs0mg"},{"bike_id":"15ebbf82-ed56-443d-aedf-4130f4dc5b9a","system_id":"levelo_inurba_marseille","lat":43.29043,"lon":5.39982,"is_reserved":false,"is_disabled":true,"rental_uris":{"android":"levelo://app?vid=15ebbf82-ed56-443d-aedf-4130f4dc5b9a","ios":"levelo://app?vid=15ebbf82-ed56-443d-aedf-4130f4dc5b9a"},"vehicle_type_id":"4","last_reported":1744362682,"current_range_meters":22800,"station_id":"ce4bh392rcd13ifvqdm0","pricing_plan_id":"cebpf4jnsgd1na2vs0mg"},{"bike_id":"585f49d1-5de0-46b0-8c23-bb1033ac659d","system_id":"levelo_inurba_marseille","lat":43.23965,"lon":5.36628,"is_reserved":false,"is_disabled":false,"rental_uris":{"android":"levelo://app?vid=585f49d1-5de0-46b0-8c23-bb1033ac659d","ios":"levelo://app?vid=585f49d1-5de0-46b0-8c23-bb1033ac659d"},"vehicle_type_id":"4","last_reported":1744362682,"current_range_meters":22800,"station_id":"ce4bhi12rcd13ifvqfp0","pricing_plan_id":"cebpf4jnsgd1na2vs0mg"},{"bike_id":"5a78769f-035a-415e-8867-5751edc6f5ce","system_id":"levelo_inurba_marseille","lat":43.26221,"lon":5.40454,"is_reserved":false,"is_disabled":false,"rental_uris":{"android":"levelo://app?vid=5a78769f-035a-415e-8867-5751edc6f5ce","ios":"levelo://app?vid=5a78769f-035a-415e-8867-5751edc6f5ce"},"vehicle_type_id":"4","last_reported":1744362682,"current_range_meters":23200,"station_id":"ce4bhmh2rcd13ifvqgmg","pricing_plan_id":"cebpf4jnsgd1na2vs0mg"},{"bike_id":"89224898-404b-42a1-b420-7839f3307436","system_id":"levelo_inurba_marseille","lat":43.29366,"lon":5.37832,"is_reserved":false,"is_disabled":false,"rental_uris":{"android":"levelo://app?vid=89224898-404b-42a1-b420-7839f3307436","ios":"levelo://app?vid=89224898-404b-42a1-b420-7839f3307436"},"vehicle_type_id":"4","last_reported":1744362682,"current_range_meters":22800,"station_id":"ce4bgjh2rcd13ifvqbf0","pricing_plan_id":"cebpf4jnsgd1na2vs0mg"},{"bike_id":"efca8d0d-683d-4d0b-9883-fd65163f5a8b","system_id":"levelo_inurba_marseille","lat":43.29033,"lon":5.38124,"is_reserved":false,"is_disabled":false,"rental_uris":{"android":"levelo://app?vid=efca8d0d-683d-4d0b-9883-fd65163f5a8b","ios":"levelo://app?vid=efca8d0d-683d-4d0b-9883-fd65163f5a8b"},"vehicle_type_id":"4","last_reported":1744362682,"current_range_meters":22800,"station_id":"ce4bh4p2rcd13ifvqe1g","pricing_plan_id":"cebpf4jnsgd1na2vs0mg"},{"bike_id":"13a25287-012d-4f1b-98dd-eb2e7be941af","system_id":"levelo_inurba_marseille","lat":43.30186,"lon":5.36612,"is_reserved":false,"is_disabled":false,"rental_uris":{"android":"levelo://app?vid=13a25287-012d-4f1b-98dd-eb2e7be941af","ios":"levelo://app?vid=13a25287-012d-4f1b-98dd-eb2e7be941af"},"vehicle_type_id":"4","last_reported":1744362682,"current_range_meters":23200,"station_id":"ce4bgrh2rcd13ifvqc8g","pricing_plan_id":"cebpf4jnsgd1na2vs0mg"},{"bike_id":"4e146ac6-f138-432e-8e95-d93234e28932","system_id":"levelo_inurba_marseille","lat":43.29099,"lon":5.38118,"is_reserved":false,"is_disabled":false,"rental_uris":{"android":"levelo://app?vid=4e146ac6-f138-432e-8e95-d93234e28932","ios":"levelo://app?vid=4e146ac6-f138-432e-8e95-d93234e28932"},"vehicle_type_id":"4","last_reported":1744362682,"current_range_meters":24000,"station_id":"ce4bh512rcd13ifvqe2g","pricing_plan_id":"cebpf4jnsgd1na2vs0mg"},{"bike_id":"11749c6d-0519-49c0-935c-226f22af5f3c","system_id":"levelo_inurba_marseille","lat":43.29419,"lon":5.38618,"is_reserved":false,"is_disabled":false,"rental_uris":{"android":"levelo://app?vid=11749c6d-0519-49c0-935c-226f22af5f3c","ios":"levelo://app?vid=11749c6d-0519-49c0-935c-226f22af5f3c"},"vehicle_type_id":"4","last_reported":1744362682,"current_range_meters":24000,"station_id":"ce4bh2h2rcd13ifvqdh0","pricing_plan_id":"cebpf4jnsgd1na2vs0mg"},{"bike_id":"5d644531-fa68-4c71-94a1-1fe14dfdd8fb","system_id":"levelo_inurba_marseille","lat":43.284629,"lon":5.35884,"is_reserved":false,"is_disabled":false,"rental_uris":{"android":"levelo://app?vid=5d644531-fa68-4c71-94a1-1fe14dfdd8fb","ios":"levelo://app?vid=5d644531-fa68-4c71-94a1-1fe14dfdd8fb"},"vehicle_type_id":"4","last_reported":1744362682,"current_range_meters":24000,"station_id":"ce4bhah2rcd13ifvqei0","pricing_plan_id":"cebpf4jnsgd1na2vs0mg"},{"bike_id":"0cb9933a-d606-4316-9348-77da3d5f840b","system_id":"levelo_inurba_marseille","lat":43.21194,"lon":5.35078,"is_reserved":false,"is_disabled":false,"rental_uris":{"android":"levelo://app?vid=0cb9933a-d606-4316-9348-77da3d5f840b","ios":"levelo://app?vid=0cb9933a-d606-4316-9348-77da3d5f840b"},"vehicle_type_id":"4","last_reported":1744362682,"current_range_meters":24000,"station_id":"st_cvj6sg6p6f1abm77japg","pricing_plan_id":"cebpf4jnsgd1na2vs0mg"},{"bike_id":"c9b6fb08-7c7e-429a-be13-80274f02c8bc","system_id":"levelo_inurba_marseille","lat":43.30313,"lon":5.40426,"is_reserved":false,"is_disabled":false,"rental_uris":{"android":"levelo://app?vid=c9b6fb08-7c7e-429a-be13-80274f02c8bc","ios":"levelo://app?vid=c9b6fb08-7c7e-429a-be13-80274f02c8bc"},"vehicle_type_id":"4","last_reported":1744362682,"current_range_meters":24000,"station_id":"ce4bh012rcd13ifvqd10","pricing_plan_id":"cebpf4jnsgd1na2vs0mg"},{"bike_id":"5591936e-ca63-41c7-89f3-9c9493c86f89","system_id":"levelo_inurba_marseille","lat":43.2417,"lon":5.36394,"is_reserved":false,"is_disabled":false,"rental_uris":{"android":"levelo://app?vid=5591936e-ca63-41c7-89f3-9c9493c86f89","ios":"levelo://app?vid=5591936e-ca63-41c7-89f3-9c9493c86f89"},"vehicle_type_id":"4","last_reported":1744362682,"current_range_meters":24000,"station_id":"cpo36qri1sfpv3e86is0","pricing_plan_id":"cebpf4jnsgd1na2vs0mg"},{"bike_id":"a58221e2-d367-4e08-a8e1-f42ef1864fac","system_id":"levelo_inurba_marseille","lat":43.29713,"lon":5.36613,"is_reserved":false,"is_disabled":false,"rental_uris":{"android":"levelo://app?vid=a58221e2-d367-4e08-a8e1-f42ef1864fac","ios":"levelo://app?vid=a58221e2-d367-4e08-a8e1-f42ef1864fac"},"vehicle_type_id":"4","last_reported":1744362682,"current_range_meters":24000,"station_id":"ce4bgn12rcd13ifvqbt0","pricing_plan_id":"cebpf4jnsgd1na2vs0mg"},{"bike_id":"c6b58dfa-aae6-4b84-b256-ffb77d100d41","system_id":"levelo_inurba_marseille","lat":43.24198,"lon":5.3971,"is_reserved":false,"is_disabled":false,"rental_uris":{"android":"levelo://app?vid=c6b58dfa-aae6-4b84-b256-ffb77d100d41","ios":"levelo://app?vid=c6b58dfa-aae6-4b84-b256-ffb77d100d41"},"vehicle_type_id":"4","last_reported":1744362682,"current_range_meters":24000,"station_id":"ce4bhn12rcd13ifvqgpg","pricing_plan_id":"cebpf4jnsgd1na2vs0mg"},{"bike_id":"4965d6bf-6c63-4502-83b2-383367f3cdc4","system_id":"levelo_inurba_marseille","lat":43.25502,"lon":5.37652,"is_reserved":false,"is_disabled":false,"rental_uris":{"android":"levelo://app?vid=4965d6bf-6c63-4502-83b2-383367f3cdc4","ios":"levelo://app?vid=4965d6bf-6c63-4502-83b2-383367f3cdc4"},"vehicle_type_id":"4","last_reported":1744362682,"current_range_meters":24400,"station_id":"ce4bhh12rcd13ifvqff0","pricing_plan_id":"cebpf4jnsgd1na2vs0mg"},{"bike_id":"e9db9fb1-6d03-44e3-84ae-b2192c3b1899","system_id":"levelo_inurba_marseille","lat":43.24193,"lon":5.3973,"is_reserved":false,"is_disabled":false,"rental_uris":{"android":"levelo://app?vid=e9db9fb1-6d03-44e3-84ae-b2192c3b1899","ios":"levelo://app?vid=e9db9fb1-6d03-44e3-84ae-b2192c3b1899"},"vehicle_type_id":"4","last_reported":1744362682,"current_range_meters":24400,"station_id":"ce4bhn12rcd13ifvqgpg","pricing_plan_id":"cebpf4jnsgd1na2vs0mg"},{"bike_id":"3abaa65f-47eb-4fef-82c6-ce5bcb29d5af","system_id":"levelo_inurba_marseille","lat":43.27371,"lon":5.36262,"is_reserved":false,"is_disabled":false,"rental_uris":{"android":"levelo://app?vid=3abaa65f-47eb-4fef-82c6-ce5bcb29d5af","ios":"levelo://app?vid=3abaa65f-47eb-4fef-82c6-ce5bcb29d5af"},"vehicle_type_id":"4","last_reported":1744362682,"current_range_meters":21600,"station_id":"ce4bhbh2rcd13ifvqeo0","pricing_plan_id":"cebpf4jnsgd1na2vs0mg"},{"bike_id":"b9ddc55a-afff-4b07-86b1-818918dc6f1f","system_id":"levelo_inurba_marseille","lat":43.313539,"lon":5.384994,"is_reserved":false,"is_disabled":true,"rental_uris":{"android":"levelo://app?vid=b9ddc55a-afff-4b07-86b1-818918dc6f1f","ios":"levelo://app?vid=b9ddc55a-afff-4b07-86b1-818918dc6f1f"},"vehicle_type_id":"4","last_reported":1744362682,"current_range_meters":24400,"station_id":"ce4bgt92rcd13ifvqcf0","pricing_plan_id":"cebpf4jnsgd1na2vs0mg"},{"bike_id":"e4cca1cb-9af9-4e3a-8098-ca1ea7aa4b1f","system_id":"levelo_inurba_marseille","lat":43.3133,"lon":5.36729,"is_reserved":false,"is_disabled":false,"rental_uris":{"android":"levelo://app?vid=e4cca1cb-9af9-4e3a-8098-ca1ea7aa4b1f","ios":"levelo://app?vid=e4cca1cb-9af9-4e3a-8098-ca1ea7aa4b1f"},"vehicle_type_id":"4","last_reported":1744362682,"current_range_meters":24400,"station_id":"ce4bgr92rcd13ifvqc6g","pricing_plan_id":"cebpf4jnsgd1na2vs0mg"},{"bike_id":"2f4821da-8cd3-4bdd-a394-6a310dd9a557","system_id":"levelo_inurba_marseille","lat":43.295746,"lon":5.399649,"is_reserved":false,"is_disabled":false,"rental_uris":{"android":"levelo://app?vid=2f4821da-8cd3-4bdd-a394-6a310dd9a557","ios":"levelo://app?vid=2f4821da-8cd3-4bdd-a394-6a310dd9a557"},"vehicle_type_id":"4","last_reported":1744362682,"current_range_meters":24000,"station_id":"ce4bgih2rcd13ifvqba0","pricing_plan_id":"cebpf4jnsgd1na2vs0mg"},{"bike_id":"5995f075-b253-4f47-a13c-4144938f3a2c","system_id":"levelo_inurba_marseille","lat":43.303207,"lon":5.391992,"is_reserved":false,"is_disabled":true,"rental_uris":{"android":"levelo://app?vid=5995f075-b253-4f47-a13c-4144938f3a2c","ios":"levelo://app?vid=5995f075-b253-4f47-a13c-4144938f3a2c"},"vehicle_type_id":"4","last_reported":1744362682,"current_range_meters":24400,"station_id":"ce4bgkh2rcd13ifvqbk0","pricing_plan_id":"cebpf4jnsgd1na2vs0mg"},{"bike_id":"fb40ca95-5f23-49af-961b-245670458ef0","system_id":"levelo_inurba_marseille","lat":43.30538,"lon":5.36736,"is_reserved":false,"is_disabled":false,"rental_uris":{"android":"levelo://app?vid=fb40ca95-5f23-49af-961b-245670458ef0","ios":"levelo://app?vid=fb40ca95-5f23-49af-961b-245670458ef0"},"vehicle_type_id":"4","last_reported":1744362682,"current_range_meters":24400,"station_id":"ce4bgrp2rcd13ifvqc9g","pricing_plan_id":"cebpf4jnsgd1na2vs0mg"},{"bike_id":"4d79ce26-0507-497d-9c35-616214e99f44","system_id":"levelo_inurba_marseille","lat":43.3055,"lon":5.36565,"is_reserved":false,"is_disabled":false,"rental_uris":{"android":"levelo://app?vid=4d79ce26-0507-497d-9c35-616214e99f44","ios":"levelo://app?vid=4d79ce26-0507-497d-9c35-616214e99f44"},"vehicle_type_id":"4","last_reported":1744362682,"current_range_meters":24400,"station_id":"ce4bgs12rcd13ifvqcag","pricing_plan_id":"cebpf4jnsgd1na2vs0mg"},{"bike_id":"780520bc-7f1f-4ade-a6e2-44f3d3502d5e","system_id":"levelo_inurba_marseille","lat":43.2902,"lon":5.38596,"is_reserved":false,"is_disabled":false,"rental_uris":{"android":"levelo://app?vid=780520bc-7f1f-4ade-a6e2-44f3d3502d5e","ios":"levelo://app?vid=780520bc-7f1f-4ade-a6e2-44f3d3502d5e"},"vehicle_type_id":"4","last_reported":1744362682,"current_range_meters":24400,"station_id":"ce4bh4p2rcd13ifvqe0g","pricing_plan_id":"cebpf4jnsgd1na2vs0mg"},{"bike_id":"f31b61b9-c7e4-4aad-80ed-dc37d57d482d","system_id":"levelo_inurba_marseille","lat":43.29233,"lon":5.36051,"is_reserved":false,"is_disabled":true,"rental_uris":{"android":"levelo://app?vid=f31b61b9-c7e4-4aad-80ed-dc37d57d482d","ios":"levelo://app?vid=f31b61b9-c7e4-4aad-80ed-dc37d57d482d"},"vehicle_type_id":"4","last_reported":1744362682,"current_range_meters":24800,"station_id":"ce4bhbh2rcd13ifvqeqg","pricing_plan_id":"cebpf4jnsgd1na2vs0mg"},