{"last_updated":1774371148,"ttl":60,"version":"2.2","data":{"bikes":[{"bike_id":"36ca7bff-08c4-4b90-8b55-941764ea1724","system_id":"levelo_inurba_marseille","lat":43.30298,"lon":5.39208,"is_reserved":false,"is_disabled":false,"rental_uris":{"android":"levelo://app?vid=36ca7bff-08c4-4b90-8b55-941764ea1724","ios":"levelo://app?vid=36ca7bff-08c4-4b90-8b55-941764ea1724"},"vehicle_type_id":"4","last_reported":1774371148,"current_range_meters":2800,"station_id":"ce4bgkh2rcd13ifvqbk0","pricing_plan_id":"cebpf4jnsgd1na2vs0mg"},{"bike_id":"6a361988-483c-4fea-b668-fae45fefb959","system_id":"levelo_inurba_marseille","lat":43.32085,"lon":5.36795,"is_reserved":false,"is_disabled":false,"rental_uris":{"android":"levelo://app?vid=6a361988-483c-4fea-b668-fae45fefb959","ios":"levelo://app?vid=6a361988-483c-4fea-b668-fae45fefb959"},"vehicle_type_id":"4","last_reported":1774371148,"current_range_meters":2800,"station_id":"ce4bhrh2rcd13ifvqhug","pricing_plan_id":"cebpf4jnsgd1na2vs0mg"},{"bike_id":"bf5af6f8-69a5-4b76-be3f-994c76781739","system_id":"levelo_inurba_marseille","lat":43.26593,"lon":5.39028,"is_reserved":false,"is_disabled":true,"rental_uris":{"android":"levelo://app?vid=bf5af6f8-69a5-4b76-be3f-994c76781739","ios":"levelo://app?vid=bf5af6f8-69a5-4b76-be3f-994c76781739"},"vehicle_type_id":"4","last_reported":1774371148,"current_range_meters":2800,"station_id":"ce4bhe12rcd13ifvqf30","pricing_plan_id":"cebpf4jnsgd1na2vs0mg"},{"bike_id":"f554888c-9515-430c-b3e9-327a4cc15db0","system_id":"levelo_inurba_marseille","lat":43.2964,"lon":5.42423,"is_reserved":false,"is_disabled":false,"rental_uris":{"android":"levelo://app?vid=f554888c-9515-430c-b3e9-327a4cc15db0","ios":"levelo://app?vid=f554888c-9515-430c-b3e9-327a4cc15db0"},"vehicle_type_id":"4","last_reported":1774371148,"current_range_meters":2800,"station_id":"","pricing_plan_id":"cebpf4jnsgd1na2vs0mg"},{"bike_id":"065f6dc8-1434-46d4-a1de-903e9fba470e","system_id":"levelo_inurba_marseille","lat":43.29436,"lon":5.39763,"is_reserved":false,"is_disabled":false,"rental_uris":{"android":"levelo://app?vid=065f6dc8-1434-46d4-a1de-903e9fba470e","ios":"levelo://app?vid=065f6dc8-1434-46d4-a1de-903e9fba470e"},"vehicle_type_id":"4","last_reported":1774371148,"current_range_meters":2800,"station_id":"ce4bh3h2rcd13ifvqdo0","pricing_plan_id":"cebpf4jnsgd1na2vs0mg"},{"bike_id":"c545f92b-5fce-408d-b027-27d816a047e9","system_id":"levelo_inurba_marseille","lat":43.28262,"lon":5.35081,"is_reserved":false,"is_disabled":false,"rental_uris":{"android":"levelo://app?vid=c545f92b-5fce-408d-b027-27d816a047e9","ios":"levelo://app?vid=c545f92b-5fce-408d-b027-27d816a047e9"},"vehicle_type_id":"4","last_reported":1774371148,"current_range_meters":2800,"station_id":"ce4bhbp2rcd13ifvqerg","pricing_plan_id":"cebpf4jnsgd1na2vs0mg"},{"bike_id":"8da01228-03bc-4bd5-b94d-0bf20d5e124e","system_id":"levelo_inurba_marseille","lat":43.26059,"lon":5.39393,"is_reserved":false,"is_disabled":false,"rental_uris":{"android":"levelo://app?vid=8da01228-03bc-4bd5-b94d-0bf20d5e124e","ios":"levelo://app?vid=8da01228-03bc-4bd5-b94d-0bf20d5e124e"},"vehicle_type_id":"4","last_reported":1774371148,"current_range_meters":2800,"station_id":"ce4bhh92rcd13ifvqfj0","pricing_plan_id":"cebpf4jnsgd1na2vs0mg"},{"bike_id":"c330b9a0-03dd-409a-bd86-4fbc9f3f40ef","system_id":"levelo_inurba_marseille","lat":43.2926,"lon":5.38448,"is_reserved":false,"is_disabled":false,"rental_uris":{"android":"levelo://app?vid=c330b9a0-03dd-409a-bd86-4fbc9f3f40ef","ios":"levelo://app?vid=c330b9a0-03dd-409a-bd86-4fbc9f3f40ef"},"vehicle_type_id":"4","last_reported":1774371148,"current_range_meters":2800,"station_id":"ce4bh692rcd13ifvqea0","pricing_plan_id":"cebpf4jnsgd1na2vs0mg"},{"bike_id":"9f8c5aae-214b-4b16-b28e-49c211477f37","system_id":"levelo_inurba_marseille","lat":43.28491,"lon":5.44163,"is_reserved":false,"is_disabled":false,"rental_uris":{"android":"levelo://app?vid=9f8c5aae-214b-4b16-b28e-49c211477f37","ios":"levelo://app?vid=9f8c5aae-214b-4b16-b28e-49c211477f37"},"vehicle_type_id":"4","last_reported":1774371148,"current_range_meters":2800,"station_id":"st_d3j3df2ikq2c7380ej80","pricing_plan_id":"cebpf4jnsgd1na2vs0mg"},{"bike_id":"ab6b58d3-5471-4aa1-b17a-6af290ef9697","system_id":"levelo_inurba_marseille","lat":43.29578,"lon":5.39958,"is_reserved":false,"is_disabled":false,"rental_uris":{"android":"levelo://app?vid=ab6b58d3-5471-4aa1-b17a-6af290ef9697","ios":"levelo://app?vid=ab6b58d3-5471-4aa1-b17a-6af290ef9697"},"vehicle_type_id":"4","last_reported":1774371148,"current_range_meters":2800,"station_id":"ce4bh312rcd13ifvqdj0","pricing_plan_id":"cebpf4jnsgd1na2vs0mg"},{"bike_id":"a259f95f-de54-41b9-ad34-25ade246bebd","system_id":"levelo_inurba_marseille","lat":43.30145,"lon":5.3985,"is_reserved":false,"is_disabled":false,"rental_uris":{"android":"levelo://app?vid=a259f95f-de54-41b9-ad34-25ade246bebd","ios":"levelo://app?vid=a259f95f-de54-41b9-ad34-25ade246bebd"},"vehicle_type_id":"4","last_reported":1774371148,"current_range_meters":2800,"station_id":"ce4bh0h2rcd13ifvqd40","pricing_plan_id":"cebpf4jnsgd1na2vs0mg"},{"bike_id":"e9861fac-31d3-4950-871c-6471e11d8873","system_id":"levelo_inurba_marseille","lat":43.292302,"lon":5.360714,"is_reserved":false,"is_disabled":false,"rental_uris":{"android":"levelo://app?vid=e9861fac-31d3-4950-871c-6471e11d8873","ios":"levelo://app?vid=e9861fac-31d3-4950-871c-6471e11d8873"},"vehicle_type_id":"4","last_reported":1774371148,"current_range_meters":2800,"station_id":"ce4bhbh2rcd13ifvqeqg","pricing_plan_id":"cebpf4jnsgd1na2vs0mg"},{"bike_id":"67a60bb8-f9d8-4dda-8509-6e87138f0df2","system_id":"levelo_inurba_marseille","lat":43.30243,"lon":5.40064,"is_reserved":false,"is_disabled":true,"rental_uris":{"android":"levelo://app?vid=67a60bb8-f9d8-4dda-8509-6e87138f0df2","ios":"levelo://app?vid=67a60bb8-f9d8-4dda-8509-6e87138f0df2"},"vehicle_type_id":"4","last_reported":1774371148,"current_range_meters":3200,"station_id":"ce4bgvh2rcd13ifvqcs0","pricing_plan_id":"cebpf4jnsgd1na2vs0mg"},{"bike_id":"8a067a40-2b29-4806-a830-bffb2dfb8e57","system_id":"levelo_inurba_marseille","lat":43.2657,"lon":5.3732,"is_reserved":false,"is_disabled":false,"rental_uris":{"android":"levelo://app?vid=8a067a40-2b29-4806-a830-bffb2dfb8e57","ios":"levelo://app?vid=8a067a40-2b29-4806-a830-bffb2dfb8e57"},"vehicle_type_id":"4","last_reported":1774371148,"current_range_meters":3200,"station_id":"ce4bhg12rcd13ifvqf70","pricing_plan_id":"cebpf4jnsgd1na2vs0mg"},{"bike_id":"d8330e10-a8b5-407e-a3d9-cee453b16924","system_id":"levelo_inurba_marseille","lat":43.27372,"lon":5.36261,"is_reserved":false,"is_disabled":false,"rental_uris":{"android":"levelo://app?vid=d8330e10-a8b5-407e-a3d9-cee453b16924","ios":"levelo://app?vid=d8330e10-a8b5-407e-a3d9-cee453b16924"},"vehicle_type_id":"4","last_reported":1774371148,"current_range_meters":3200,"station_id":"ce4bhbh2rcd13ifvqeo0","pricing_plan_id":"cebpf4jnsgd1na2vs0mg"},{"bike_id":"fc01f500-c5b2-4e19-9790-5c9207f665dc","system_id":"levelo_inurba_marseille","lat":43.25341,"lon":5.42168,"is_reserved":false,"is_disabled":false,"rental_uris":{"android":"levelo://app?vid=fc01f500-c5b2-4e19-9790-5c9207f665dc","ios":"levelo://app?vid=fc01f500-c5b2-4e19-9790-5c9207f665dc"},"vehicle_type_id":"4","last_reported":1774371148,"current_range_meters":3200,"station_id":"st_d2m65c5bi1j21697t3ng","pricing_plan_id":"cebpf4jnsgd1na2vs0mg"},{"bike_id":"87cab354-e36c-4dc9-949d-1832434988fa","system_id":"levelo_inurba_marseille","lat":43.31325,"lon":5.38529,"is_reserved":false,"is_disabled":false,"rental_uris":{"android":"levelo://app?vid=87cab354-e36c-4dc9-949d-1832434988fa","ios":"levelo://app?vid=87cab354-e36c-4dc9-949d-1832434988fa"},"vehicle_type_id":"4","last_reported":1774371148,"current_range_meters":3200,"station_id":"","pricing_plan_id":"cebpf4jnsgd1na2vs0mg"},{"bike_id":"4d88734a-162e-4307-92a3-61e5ee7aa63f","system_id":"levelo_inurba_marseille","lat":43.29205,"lon":5.42586,"is_reserved":false,"is_disabled":true,"rental_uris":{"android":"levelo://app?vid=4d88734a-162e-4307-92a3-61e5ee7aa63f","ios":"levelo://app?vid=4d88734a-162e-4307-92a3-61e5ee7aa63f"},"vehicle_type_id":"4","last_reported":1774371148,"current_range_meters":3200,"station_id":"","pricing_plan_id":"cebpf4jnsgd1na2vs0mg"},{"bike_id":"696cce58-6146-49c4-a51a-8c8cbaa09dcb","system_id":"levelo_inurba_marseille","lat":43.302078,"lon":5.39463,"is_reserved":false,"is_disabled":false,"rental_uris":{"android":"levelo://app?vid=696cce58-6146-49c4-a51a-8c8cbaa09dcb","ios":"levelo://app?vid=696cce58-6146-49c4-a51a-8c8cbaa09dcb"},"vehicle_type_id":"4","last_reported":1774371148,"current_range_meters":3600,"station_id":"ce4bh3p2rcd13ifvqdp0","pricing_plan_id":"cebpf4jnsgd1na2vs0mg"},{"bike_id":"7565457e-dd69-4cfd-8620-4952162d4a41","system_id":"levelo_inurba_marseille","lat":43.285695,"lon":5.394962,"is_reserved":false,"is_disabled":false,"rental_uris":{"android":"levelo://app?vid=7565457e-dd69-4cfd-8620-4952162d4a41","ios":"levelo://app?vid=7565457e-dd69-4cfd-8620-4952162d4a41"},"vehicle_type_id":"4","last_reported":1774371148,"current_range_meters":3600,"station_id":"ce4bh292rcd13ifvqdg0","pricing_plan_id":"cebpf4jnsgd1na2vs0mg"},{"bike_id":"c49e9578-571f-4887-a4b2-b47715463765","system_id":"levelo_inurba_marseille","lat":43.27372,"lon":5.36267,"is_reserved":false,"is_disabled":false,"rental_uris":{"android":"levelo://app?vid=c49e9578-571f-4887-a4b2-b47715463765","ios":"levelo://app?vid=c49e9578-571f-4887-a4b2-b47715463765"},"vehicle_type_id":"4","last_reported":1774371148,"current_range_meters":3600,"station_id":"ce4bhbh2rcd13ifvqeo0","pricing_plan_id":"cebpf4jnsgd1na2vs0mg"},{"bike_id":"f7fa1ad5-099f-49b7-ba3e-26442c9181b9","system_id":"levelo_inurba_marseille","lat":43.30502,"lon":5.36516,"is_reserved":false,"is_disabled":true,"rental_uris":{"android":"levelo://app?vid=f7fa1ad5-099f-49b7-ba3e-26442c9181b9","ios":"levelo://app?vid=f7fa1ad5-099f-49b7-ba3e-26442c9181b9"},"vehicle_type_id":"4","last_reported":1774371148,"current_range_meters":3600,"station_id":"","pricing_plan_id":"cebpf4jnsgd1na2vs0mg"},{"bike_id":"bbb20be4-a4e3-4756-bf9e-de6efa0abbb9","system_id":"levelo_inurba_marseille","lat":43.2919,"lon":5.42583,"is_reserved":false,"is_disabled":false,"rental_uris":{"android":"levelo://app?vid=bbb20be4-a4e3-4756-bf9e-de6efa0abbb9","ios":"levelo://app?vid=bbb20be4-a4e3-4756-bf9e-de6efa0abbb9"},"vehicle_type_id":"4","last_reported":1774371148,"current_range_meters":3600,"station_id":"","pricing_plan_id":"cebpf4jnsgd1na2vs0mg"},{"bike_id":"d8b82e4f-3f42-409e-b5d3-f15e5f445afe","system_id":"levelo_inurba_marseille","lat":43.23151,"lon":5.4372,"is_reserved":false,"is_disabled":false,"rental_uris":{"android":"levelo://app?vid=d8b82e4f-3f42-409e-b5d3-f15e5f445afe","ios":"levelo://app?vid=d8b82e4f-3f42-409e-b5d3-f15e5f445afe"},"vehicle_type_id":"4","last_reported":1774371148,"current_range_meters":3600,"station_id":"ce4bhmp2rcd13ifvqgog","pricing_plan_id":"cebpf4jnsgd1na2vs0mg"},{"bike_id":"36d6a9f8-70dc-4dd2-b8dc-2c0c688ccf9b","system_id":"levelo_inurba_marseille","lat":43.27307,"lon":5.39086,"is_reserved":false,"is_disabled":false,"rental_uris":{"android":"levelo://app?vid=36d6a9f8-70dc-4dd2-b8dc-2c0c688ccf9b","ios":"levelo://app?vid=36d6a9f8-70dc-4dd2-b8dc-2c0c688ccf9b"},"vehicle_type_id":"4","last_reported":1774371148,"current_range_meters":3600,"station_id":"ce4bhgp2rcd13ifvqfe0","pricing_plan_id":"cebpf4jnsgd1na2vs0mg"},{"bike_id":"c55c104f-b592-4ebe-a57b-0c08daffbc7b","system_id":"levelo_inurba_marseille","lat":43.29931,"lon":5.36551,"is_reserved":false,"is_disabled":false,"rental_uris":{"android":"levelo://app?vid=c55c104f-b592-4ebe-a57b-0c08daffbc7b","ios":"levelo://app?vid=c55c104f-b592-4ebe-a57b-0c08daffbc7b"},"vehicle_type_id":"4","last_reported":1774371148,"current_range_meters":3600,"station_id":"ce4bgm92rcd13ifvqbr0","pricing_plan_id":"cebpf4jnsgd1na2vs0mg"},{"bike_id":"8124a762-8257-4431-b4f5-5123ddea8884","system_id":"levelo_inurba_marseille","lat":43.24815,"lon":5.3744,"is_reserved":false,"is_disabled":false,"rental_uris":{"android":"levelo://app?vid=8124a762-8257-4431-b4f5-5123ddea8884","ios":"levelo://app?vid=8124a762-8257-4431-b4f5-5123ddea8884"},"vehicle_type_id":"4","last_reported":1774371148,"current_range_meters":3600,"station_id":"ce4bhgh2rcd13ifvqfb0","pricing_plan_id":"cebpf4jnsgd1na2vs0mg"},{"bike_id":"1b00f628-09d7-4302-8a2b-f8b9ab5c02b7","system_id":"levelo_inurba_marseille","lat":43.30591,"lon":5.3936,"is_reserved":false,"is_disabled":false,"rental_uris":{"android":"levelo://app?vid=1b00f628-09d7-4302-8a2b-f8b9ab5c02b7","ios":"levelo://app?vid=1b00f628-09d7-4302-8a2b-f8b9ab5c02b7"},"vehicle_type_id":"4","last_reported":1774371148,"current_range_meters":3600,"station_id":"ce4bh0p2rcd13ifvqd80","pricing_plan_id":"cebpf4jnsgd1na2vs0mg"},{"bike_id":"87b609d7-38fd-4174-813b-1717f51a7c5f","system_id":"levelo_inurba_marseille","lat":43.31218,"lon":5.36817,"is_reserved":false,"is_disabled":false,"rental_uris":{"android":"levelo://app?vid=87b609d7-38fd-4174-813b-1717f51a7c5f","ios":"levelo://app?vid=87b609d7-38fd-4174-813b-1717f51a7c5f"},"vehicle_type_id":"4","last_reported":1774371148,"current_range_meters":3600,"station_id":"ce4bgl92rcd13ifvqbq0","pricing_plan_id":"cebpf4jnsgd1na2vs0mg"},{"bike_id":"f38cc4b9-3e93-424c-9816-2176913a6272","system_id":"levelo_inurba_marseille","lat":43.297945,"lon":5.38079,"is_reserved":false,"is_disabled":false,"rental_uris":{"android":"levelo://app?vid=f38cc4b9-3e93-424c-9816-2176913a6272","ios":"levelo://app?vid=f38cc4b9-3e93-424c-9816-2176913a6272"},"vehicle_type_id":"4","last_reported":1774371148,"current_range_meters":4000,"station_id":"ce4bh9p2rcd13ifvqed0","pricing_plan_id":"cebpf4jnsgd1na2vs0mg"},{"bike_id":"48e76d8e-bfcd-49bc-9b49-5ead2945729b","system_id":"levelo_inurba_marseille","lat":43.231805,"lon":5.399856,"is_reserved":false,"is_disabled":false,"rental_uris":{"android":"levelo://app?vid=48e76d8e-bfcd-49bc-9b49-5ead2945729b","ios":"levelo://app?vid=48e76d8e-bfcd-49bc-9b49-5ead2945729b"},"vehicle_type_id":"4","last_reported":1774371148,"current_range_meters":4000,"station_id":"ce4bhn12rcd13ifvqgqg","pricing_plan_id":"cebpf4jnsgd1na2vs0mg"},{"bike_id":"d54fd65a-b53f-45cb-be71-8956162ea6e2","system_id":"levelo_inurba_marseille","lat":43.27379,"lon":5.36259,"is_reserved":false,"is_disabled":false,"rental_uris":{"android":"levelo://app?vid=d54fd65a-b53f-45cb-be71-8956162ea6e2","ios":"levelo://app?vid=d54fd65a-b53f-45cb-be71-8956162ea6e2"},"vehicle_type_id":"4","last_reported":1774371148,"current_range_meters":4000,"station_id":"ce4bhbh2rcd13ifvqeo0","pricing_plan_id":"cebpf4jnsgd1na2vs0mg"},{"bike_id":"fbaa604e-0cb9-4fe5-9529-827ffa743e47","system_id":"levelo_inurba_marseille","lat":43.28412,"lon":5.3751,"is_reserved":false,"is_disabled":false,"rental_uris":{"android":"levelo://app?vid=fbaa604e-0cb9-4fe5-9529-827ffa743e47","ios":"levelo://app?vid=fbaa604e-0cb9-4fe5-9529-827ffa743e47"},"vehicle_type_id":"4","last_reported":1774371148,"current_range_meters":4000,"station_id":"ce4bh412rcd13ifvqds0","pricing_plan_id":"cebpf4jnsgd1na2vs0mg"},{"bike_id":"a79c68ad-afbf-4634-9a72-60cc2f0ddb97","system_id":"levelo_inurba_marseille","lat":43.27657,"lon":5.38911,"is_reserved":false,"is_disabled":false,"rental_uris":{"android":"levelo://app?vid=a79c68ad-afbf-4634-9a72-60cc2f0ddb97","ios":"levelo://app?vid=a79c68ad-afbf-4634-9a72-60cc2f0ddb97"},"vehicle_type_id":"4","last_reported":1774371148,"current_range_meters":4000,"station_id":"ce4bhi12rcd13ifvqfo0","pricing_plan_id":"cebpf4jnsgd1na2vs0mg"},{"bike_id":"61f36c2c-b4a4-4d13-8af3-30d1d3c87eb5","system_id":"levelo_inurba_marseille","lat":43.27207,"lon":5.39181,"is_reserved":false,"is_disabled":false,"rental_uris":{"android":"levelo://app?vid=61f36c2c-b4a4-4d13-8af3-30d1d3c87eb5","ios":"levelo://app?vid=61f36c2c-b4a4-4d13-8af3-30d1d3c87eb5"},"vehicle_type_id":"4","last_reported":1774371148,"current_range_meters":4000,"station_id":"ce4bhhp2rcd13ifvqfm0","pricing_plan_id":"cebpf4jnsgd1na2vs0mg"},{"bike_id":"b1ceaa1d-f7d5-4f1b-b74b-3e9a13f9efeb","system_id":"levelo_inurba_marseille","lat":43.23969,"lon":5.36625,"is_reserved":false,"is_disabled":false,"rental_uris":{"android":"levelo://app?vid=b1ceaa1d-f7d5-4f1b-b74b-3e9a13f9efeb","ios":"levelo://app?vid=b1ceaa1d-f7d5-4f1b-b74b-3e9a13f9efeb"},"vehicle_type_id":"4","last_reported":1774371148,"current_range_meters":4000,"station_id":"ce4bhi12rcd13ifvqfp0","pricing_plan_id":"cebpf4jnsgd1na2vs0mg"},{"bike_id":"50bfd2a9-ebb3-4d6a-b412-9f78fb84df7e","system_id":"levelo_inurba_marseille","lat":43.27596,"lon":5.38991,"is_reserved":false,"is_disabled":false,"rental_uris":{"android":"levelo://app?vid=50bfd2a9-ebb3-4d6a-b412-9f78fb84df7e","ios":"levelo://app?vid=50bfd2a9-ebb3-4d6a-b412-9f78fb84df7e"},"vehicle_type_id":"4","last_reported":1774371148,"current_range_meters":4400,"station_id":"","pricing_plan_id":"cebpf4jnsgd1na2vs0mg"},{"bike_id":"e032ab58-6cd1-4dde-af1f-11967a9af0ed","system_id":"levelo_inurba_marseille","lat":43.24675,"lon":5.38213,"is_reserved":false,"is_disabled":false,"rental_uris":{"android":"levelo://app?vid=e032ab58-6cd1-4dde-af1f-11967a9af0ed","ios":"levelo://app?vid=e032ab58-6cd1-4dde-af1f-11967a9af0ed"},"vehicle_type_id":"4","last_reported":1774371148,"current_range_meters":4400,"station_id":"","pricing_plan_id":"cebpf4jnsgd1na2vs0mg"},{"bike_id":"d2260517-36eb-498b-95a6-a249410b03cf","system_id":"levelo_inurba_marseille","lat":43.26571,"lon":5.39806,"is_reserved":false,"is_disabled":false,"rental_uris":{"android":"levelo://app?vid=d2260517-36eb-498b-95a6-a249410b03cf","ios":"levelo://app?vid=d2260517-36eb-498b-95a6-a249410b03cf"},"vehicle_type_id":"4","last_reported":1774371148,"current_range_meters":4400,"station_id":"","pricing_plan_id":"cebpf4jnsgd1na2vs0mg"},{"bike_id":"bbcec521-b2cb-4752-a30b-3cc813f9ce07","system_id":"levelo_inurba_marseille","lat":43.28748,"lon":5.44817,"is_reserved":false,"is_disabled":false,"rental_uris":{"android":"levelo://app?vid=bbcec521-b2cb-4752-a30b-3cc813f9ce07","ios":"levelo://app?vid=bbcec521-b2cb-4752-a30b-3cc813f9ce07"},"vehicle_type_id":"4","last_reported":1774371148,"current_range_meters":4400,"station_id":"","pricing_plan_id":"cebpf4jnsgd1na2vs0mg"},{"bike_id":"792c19aa-9a8d-4a96-8e7a-89b27862562a","system_id":"levelo_inurba_marseille","lat":43.29164,"lon":5.3716,"is_reserved":false,"is_disabled":false,"rental_uris":{"android":"levelo://app?vid=792c19aa-9a8d-4a96-8e7a-89b27862562a","ios":"levelo://app?vid=792c19aa-9a8d-4a96-8e7a-89b27862562a"},"vehicle_type_id":"4","last_reported":1774371148,"current_range_meters":4400,"station_id":"ce4bha92rcd13ifvqeh0","pricing_plan_id":"cebpf4jnsgd1na2vs0mg"},{"bike_id":"40906df4-17dd-4d9f-ac1f-0880c5eb117e","system_id":"levelo_inurba_marseille","lat":43.32375,"lon":5.36616,"is_reserved":false,"is_disabled":false,"rental_uris":{"android":"levelo://app?vid=40906df4-17dd-4d9f-ac1f-0880c5eb117e","ios":"levelo://app?vid=40906df4-17dd-4d9f-ac1f-0880c5eb117e"},"vehicle_type_id":"4","last_reported":1774371148,"current_range_meters":4800,"station_id":"","pricing_plan_id":"cebpf4jnsgd1na2vs0mg"},{"bike_id":"a2fabdf4-bd61-4352-82b4-201f5349c59d","system_id":"levelo_inurba_marseille","lat":43.26559,"lon":5.39015,"is_reserved":false,"is_disabled":false,"rental_uris":{"android":"levelo://app?vid=a2fabdf4-bd61-4352-82b4-201f5349c59d","ios":"levelo://app?vid=a2fabdf4-bd61-4352-82b4-201f5349c59d"},"vehicle_type_id":"4","last_reported":1774371148,"current_range_meters":4800,"station_id":"ce4bhe12rcd13ifvqf30","pricing_plan_id":"cebpf4jnsgd1na2vs0mg"},{"bike_id":"e41c893a-4032-48f3-bf3a-8efcbfe1465c","system_id":"levelo_inurba_marseille","lat":43.25814,"lon":5.39477,"is_reserved":false,"is_disabled":true,"rental_uris":{"android":"levelo://app?vid=e41c893a-4032-48f3-bf3a-8efcbfe1465c","ios":"levelo://app?vid=e41c893a-4032-48f3-bf3a-8efcbfe1465c"},"vehicle_type_id":"4","last_reported":1774371148,"current_range_meters":4800,"station_id":"ce4bhip2rcd13ifvqft0","pricing_plan_id":"cebpf4jnsgd1na2vs0mg"},{"bike_id":"1d0f3067-7ca2-4fbd-8b40-b921c6748a4a","system_id":"levelo_inurba_marseille","lat":43.28478,"lon":5.48396,"is_reserved":false,"is_disabled":false,"rental_uris":{"android":"levelo://app?vid=1d0f3067-7ca2-4fbd-8b40-b921c6748a4a","ios":"levelo://app?vid=1d0f3067-7ca2-4fbd-8b40-b921c6748a4a"},"vehicle_type_id":"4","last_reported":1774371148,"current_range_meters":4800,"station_id":"","pricing_plan_id":"cebpf4jnsgd1na2vs0mg"},{"bike_id":"eda060ae-fe0d-49ba-b74a-bf7fc5ae3c12","system_id":"levelo_inurba_marseille","lat":43.22968,"lon":5.35386,"is_reserved":false,"is_disabled":false,"rental_uris":{"android":"levelo://app?vid=eda060ae-fe0d-49ba-b74a-bf7fc5ae3c12","ios":"levelo://app?vid=eda060ae-fe0d-49ba-b74a-bf7fc5ae3c12"},"vehicle_type_id":"4","last_reported":1774371148,"current_range_meters":4800,"station_id":"cpo3532slgdg3j2ikp40","pricing_plan_id":"cebpf4jnsgd1na2vs0mg"},{"bike_id":"1519cb30-4140-46f9-85e1-fff09cc83a5e","system_id":"levelo_inurba_marseille","lat":43.2738,"lon":5.3628,"is_reserved":false,"is_disabled":false,"rental_uris":{"android":"levelo://app?vid=1519cb30-4140-46f9-85e1-fff09cc83a5e","ios":"levelo://app?vid=1519cb30-4140-46f9-85e1-fff09cc83a5e"},"vehicle_type_id":"4","last_reported":1774371148,"current_range_meters":4800,"station_id":"ce4bhbh2rcd13ifvqeo0","pricing_plan_id":"cebpf4jnsgd1na2vs0mg"},{"bike_id":"69a34fac-fc80-43dc-bb66-91eee3bdfb90","system_id":"levelo_inurba_marseille","lat":43.28779,"lon":5.35328,"is_reserved":false,"is_disabled":false,"rental_uris":{"android":"levelo://app?vid=69a34fac-fc80-43dc-bb66-91eee3bdfb90","ios":"levelo://app?vid=69a34fac-fc80-43dc-bb66-91eee3bdfb90"},"vehicle_type_id":"4","last_reported":1774371148,"current_range_meters":4800,"station_id":"","pricing_plan_id":"cebpf4jnsgd1na2vs0mg"},{"bike_id":"715aaeb5-0d16-47e0-ba84-f56328a24f5b","system_id":"levelo_inurba_marseille","lat":43.29898,"lon":5.43674,"is_reserved":false,"is_disabled":false,"rental_uris":{"android":"levelo://app?vid=715aaeb5-0d16-47e0-ba84-f56328a24f5b","ios":"levelo://app?vid=715aaeb5-0d16-47e0-ba84-f56328a24f5b"},"vehicle_type_id":"4","last_reported":1774371148,"current_range_meters":5600,"station_id":"ce4bhpp2rcd13ifvqhfg","pricing_plan_id":"cebpf4jnsgd1na2vs0mg"},{"bike_id":"a5ce1a76-a4c3-46f6-9671-ce72061bcd22","system_id":"levelo_inurba_marseille","lat":43.25135,"lon":5.40316,"is_reserved":false,"is_disabled":false,"rental_uris":{"android":"levelo://app?vid=a5ce1a76-a4c3-46f6-9671-ce72061bcd22","ios":"levelo://app?vid=a5ce1a76-a4c3-46f6-9671-ce72061bcd22"},"vehicle_type_id":"4","last_reported":1774371148,"current_range_meters":5600,"station_id":"ce4bhlh2rcd13ifvqgig","pricing_plan_id":"cebpf4jnsgd1na2vs0mg"},{"bike_id":"aa929685-e4dd-4a31-a1c6-979463fa81a3","system_id":"levelo_inurba_marseille","lat":43.28521,"lon":5.48381,"is_reserved":false,"is_disabled":false,"rental_uris":{"android":"levelo://app?vid=aa929685-e4dd-4a31-a1c6-979463fa81a3","ios":"levelo://app?vid=aa929685-e4dd-4a31-a1c6-979463fa81a3"},"vehicle_type_id":"4","last_reported":1774371148,"current_range_meters":5600,"station_id":"st_d3svhcjqgbts73a3dn0g","pricing_plan_id":"cebpf4jnsgd1na2vs0mg"},{"bike_id":"4ce98637-072f-4197-bd69-11f207a88eab","system_id":"levelo_inurba_marseille","lat":43.28496,"lon":5.47279,"is_reserved":false,"is_disabled":false,"rental_uris":{"android":"levelo://app?vid=4ce98637-072f-4197-bd69-11f207a88eab","ios":"levelo://app?vid=4ce98637-072f-4197-bd69-11f207a88eab"},"vehicle_type_id":"4","last_reported":1774371148,"current_range_meters":5600,"station_id":"","pricing_plan_id":"cebpf4jnsgd1na2vs0mg"},{"bike_id":"67fb50bf-7bca-4687-8615-37acf39066b5","system_id":"levelo_inurba_marseille","lat":43.25489,"lon":5.37645,"is_reserved":false,"is_disabled":false,"rental_uris":{"android":"levelo://app?vid=67fb50bf-7bca-4687-8615-37acf39066b5","ios":"levelo://app?vid=67fb50bf-7bca-4687-8615-37acf39066b5"},"vehicle_type_id":"4","last_reported":1774371148,"current_range_meters":5600,"station_id":"ce4bhh12rcd13ifvqff0","pricing_plan_id":"cebpf4jnsgd1na2vs0mg"},{"bike_id":"67222b04-71b4-43ed-ba9a-a049e6b419e8","system_id":"levelo_inurba_marseille","lat":43.30138,"lon":5.39869,"is_reserved":false,"is_disabled":false,"rental_uris":{"android":"levelo://app?vid=67222b04-71b4-43ed-ba9a-a049e6b419e8","ios":"levelo://app?vid=67222b04-71b4-43ed-ba9a-a049e6b419e8"},"vehicle_type_id":"4","last_reported":1774371148,"current_range_meters":5600,"station_id":"ce4bh0h2rcd13ifvqd40","pricing_plan_id":"cebpf4jnsgd1na2vs0mg"},{"bike_id":"46aa2573-c8c4-4fba-942c-3544d686fb6d","system_id":"levelo_inurba_marseille","lat":43.30439,"lon":5.38918,"is_reserved":false,"is_disabled":false,"rental_uris":{"android":"levelo://app?vid=46aa2573-c8c4-4fba-942c-3544d686fb6d","ios":"levelo://app?vid=46aa2573-c8c4-4fba-942c-3544d686fb6d"},"vehicle_type_id":"4","last_reported":1774371148,"current_range_meters":5600,"station_id":"ce4bgk12rcd13ifvqbi0","pricing_plan_id":"cebpf4jnsgd1na2vs0mg"},{"bike_id":"d89b1915-483d-4d09-b44a-47b8df915eef","system_id":"levelo_inurba_marseille","lat":43.23109,"lon":5.355,"is_reserved":false,"is_disabled":false,"rental_uris":{"android":"levelo://app?vid=d89b1915-483d-4d09-b44a-47b8df915eef","ios":"levelo://app?vid=d89b1915-483d-4d09-b44a-47b8df915eef"},"vehicle_type_id":"4","last_reported":1774371148,"current_range_meters":5600,"station_id":"","pricing_plan_id":"cebpf4jnsgd1na2vs0mg"},{"bike_id":"341dd28e-911e-4855-9e1e-2b4352a6f555","system_id":"levelo_inurba_marseille","lat":43.2732,"lon":5.39088,"is_reserved":false,"is_disabled":false,"rental_uris":{"android":"levelo://app?vid=341dd28e-911e-4855-9e1e-2b4352a6f555","ios":"levelo://app?vid=341dd28e-911e-4855-9e1e-2b4352a6f555"},"vehicle_type_id":"4","last_reported":1774371148,"current_range_meters":5600,"station_id":"ce4bhgp2rcd13ifvqfe0","pricing_plan_id":"cebpf4jnsgd1na2vs0mg"},{"bike_id":"073c6c94-35da-4e99-a443-833156ea7387","system_id":"levelo_inurba_marseille","lat":43.29267,"lon":5.3844,"is_reserved":false,"is_disabled":false,"rental_uris":{"android":"levelo://app?vid=073c6c94-35da-4e99-a443-833156ea7387","ios":"levelo://app?vid=073c6c94-35da-4e99-a443-833156ea7387"},"vehicle_type_id":"4","last_reported":1774371148,"current_range_meters":5600,"station_id":"ce4bh692rcd13ifvqea0","pricing_plan_id":"cebpf4jnsgd1na2vs0mg"},{"bike_id":"f910acab-e234-4475-91c9-ec3fea6d1bf3","system_id":"levelo_inurba_marseille","lat":43.29904,"lon":5.43681,"is_reserved":false,"is_disabled":false,"rental_uris":{"android":"levelo://app?vid=f910acab-e234-4475-91c9-ec3fea6d1bf3","ios":"levelo://app?vid=f910acab-e234-4475-91c9-ec3fea6d1bf3"},"vehicle_type_id":"4","last_reported":1774371148,"current_range_meters":6000,"station_id":"ce4bhpp2rcd13ifvqhfg","pricing_plan_id":"cebpf4jnsgd1na2vs0mg"},{"bike_id":"e777dc2e-9308-43c6-a6be-09685ee35cc2","system_id":"levelo_inurba_marseille","lat":43.28524,"lon":5.4414,"is_reserved":false,"is_disabled":false,"rental_uris":{"android":"levelo://app?vid=e777dc2e-9308-43c6-a6be-09685ee35cc2","ios":"levelo://app?vid=e777dc2e-9308-43c6-a6be-09685ee35cc2"},"vehicle_type_id":"4","last_reported":1774371148,"current_range_meters":6000,"station_id":"st_d3j3df2ikq2c7380ej80","pricing_plan_id":"cebpf4jnsgd1na2vs0mg"},{"bike_id":"b644223c-1174-4ebd-a080-73d179f5f2ec","system_id":"levelo_inurba_marseille","lat":43.25002,"lon":5.38936,"is_reserved":false,"is_disabled":false,"rental_uris":{"android":"levelo://app?vid=b644223c-1174-4ebd-a080-73d179f5f2ec","ios":"levelo://app?vid=b644223c-1174-4ebd-a080-73d179f5f2ec"},"vehicle_type_id":"4","last_reported":1774371148,"current_range_meters":6000,"station_id":"ce4bhgp2rcd13ifvqfd0","pricing_plan_id":"cebpf4jnsgd1na2vs0mg"},{"bike_id":"6f932257-5176-4de0-8427-90e05005d856","system_id":"levelo_inurba_marseille","lat":43.28635,"lon":5.39891,"is_reserved":false,"is_disabled":false,"rental_uris":{"android":"levelo://app?vid=6f932257-5176-4de0-8427-90e05005d856","ios":"levelo://app?vid=6f932257-5176-4de0-8427-90e05005d856"},"vehicle_type_id":"4","last_reported":1774371148,"current_range_meters":6000,"station_id":"st_d4a7ka997mjs738ck50g","pricing_plan_id":"cebpf4jnsgd1na2vs0mg"},{"bike_id":"27a8af3f-7682-4429-85af-8d74282bd1de","system_id":"levelo_inurba_marseille","lat":43.30519,"lon":5.36554,"is_reserved":false,"is_disabled":false,"rental_uris":{"android":"levelo://app?vid=27a8af3f-7682-4429-85af-8d74282bd1de","ios":"levelo://app?vid=27a8af3f-7682-4429-85af-8d74282bd1de"},"vehicle_type_id":"4","last_reported":1774371148,"current_range_meters":6000,"station_id":"ce4bgs12rcd13ifvqcag","pricing_plan_id":"cebpf4jnsgd1na2vs0mg"},{"bike_id":"0467a61b-3c6c-4519-8ae2-ab7b582ec154","system_id":"levelo_inurba_marseille","lat":43.24644,"lon":5.3892,"is_reserved":false,"is_disabled":false,"rental_uris":{"android":"levelo://app?vid=0467a61b-3c6c-4519-8ae2-ab7b582ec154","ios":"levelo://app?vid=0467a61b-3c6c-4519-8ae2-ab7b582ec154"},"vehicle_type_id":"4","last_reported":1774371148,"current_range_meters":6000,"station_id":"ce4bhg12rcd13ifvqf60","pricing_plan_id":"cebpf4jnsgd1na2vs0mg"},{"bike_id":"b2da6f3d-1e4f-4582-b96b-f070d7f08236","system_id":"levelo_inurba_marseille","lat":43.2875,"lon":5.35219,"is_reserved":false,"is_disabled":false,"rental_uris":{"android":"levelo://app?vid=b2da6f3d-1e4f-4582-b96b-f070d7f08236","ios":"levelo://app?vid=b2da6f3d-1e4f-4582-b96b-f070d7f08236"},"vehicle_type_id":"4","last_reported":1774371148,"current_range_meters":6000,"station_id":"","pricing_plan_id":"cebpf4jnsgd1na2vs0mg"},{"bike_id":"72c89d24-eab3-4f24-927a-c837b2ea89e1","system_id":"levelo_inurba_marseille","lat":43.28277,"lon":5.35076,"is_reserved":false,"is_disabled":false,"rental_uris":{"android":"levelo://app?vid=72c89d24-eab3-4f24-927a-c837b2ea89e1","ios":"levelo://app?vid=72c89d24-eab3-4f24-927a-c837b2ea89e1"},"vehicle_type_id":"4","last_reported":1774371148,"current_range_meters":6000,"station_id":"ce4bhbp2rcd13ifvqerg","pricing_plan_id":"cebpf4jnsgd1na2vs0mg"},{"bike_id":"d754a161-551f-4193-b8cb-ebcca83b2ad4","system_id":"levelo_inurba_marseille","lat":43.24645,"lon":5.38889,"is_reserved":false,"is_disabled":false,"rental_uris":{"android":"levelo://app?vid=d754a161-551f-4193-b8cb-ebcca83b2ad4","ios":"levelo://app?vid=d754a161-551f-4193-b8cb-ebcca83b2ad4"},"vehicle_type_id":"4","last_reported":1774371148,"current_range_meters":6000,"station_id":"ce4bhg12rcd13ifvqf60","pricing_plan_id":"cebpf4jnsgd1na2vs0mg"},{"bike_id":"98aa1c8a-7d98-4320-b367-9e51480a2f7e","system_id":"levelo_inurba_marseille","lat":43.33543,"lon":5.37496,"is_reserved":false,"is_disabled":false,"rental_uris":{"android":"levelo://app?vid=98aa1c8a-7d98-4320-b367-9e51480a2f7e","ios":"levelo://app?vid=98aa1c8a-7d98-4320-b367-9e51480a2f7e"},"vehicle_type_id":"4","last_reported":1774371148,"current_range_meters":6000,"station_id":"st_d46tts09ee8s73dlu43g","pricing_plan_id":"cebpf4jnsgd1na2vs0mg"},{"bike_id":"273eb824-e9ef-4f69-b693-33868eef5760","system_id":"levelo_inurba_marseille","lat":43.27571,"lon":5.38397,"is_reserved":false,"is_disabled":false,"rental_uris":{"android":"levelo://app?vid=273eb824-e9ef-4f69-b693-33868eef5760","ios":"levelo://app?vid=273eb824-e9ef-4f69-b693-33868eef5760"},"vehicle_type_id":"4","last_reported":1774371148,"current_range_meters":6000,"station_id":"ce4bhh92rcd13ifvqfi0","pricing_plan_id":"cebpf4jnsgd1na2vs0mg"},{"bike_id":"0e2f4137-e82a-401c-945f-6a1c7c098239","system_id":"levelo_inurba_marseille","lat":43.29618,"lon":5.37142,"is_reserved":false,"is_disabled":false,"rental_uris":{"android":"levelo://app?vid=0e2f4137-e82a-401c-945f-6a1c7c098239","ios":"levelo://app?vid=0e2f4137-e82a-401c-945f-6a1c7c098239"},"vehicle_type_id":"4","last_reported":1774371148,"current_range_meters":6400,"station_id":"ce4bgnh2rcd13ifvqc0g","pricing_plan_id":"cebpf4jnsgd1na2vs0mg"},{"bike_id":"b75036ac-d81d-4bfd-a9c8-a051a6ff39fe","system_id":"levelo_inurba_marseille","lat":43.28529,"lon":5.44126,"is_reserved":false,"is_disabled":false,"rental_uris":{"android":"levelo://app?vid=b75036ac-d81d-4bfd-a9c8-a051a6ff39fe","ios":"levelo://app?vid=b75036ac-d81d-4bfd-a9c8-a051a6ff39fe"},"vehicle_type_id":"4","last_reported":1774371148,"current_range_meters":6400,"station_id":"st_d3j3df2ikq2c7380ej80","pricing_plan_id":"cebpf4jnsgd1na2vs0mg"},{"bike_id":"77deb619-deef-42c1-ade2-8dca83a843fb","system_id":"levelo_inurba_marseille","lat":43.29203,"lon":5.4388,"is_reserved":false,"is_disabled":false,"rental_uris":{"android":"levelo://app?vid=77deb619-deef-42c1-ade2-8dca83a843fb","ios":"levelo://app?vid=77deb619-deef-42c1-ade2-8dca83a843fb"},"vehicle_type_id":"4","last_reported":1774371148,"current_range_meters":6400,"station_id":"","pricing_plan_id":"cebpf4jnsgd1na2vs0mg"},{"bike_id":"253bfbd1-c3f6-4b72-a716-55890f3b4db7","system_id":"levelo_inurba_marseille","lat":43.28488,"lon":5.48389,"is_reserved":false,"is_disabled":false,"rental_uris":{"android":"levelo://app?vid=253bfbd1-c3f6-4b72-a716-55890f3b4db7","ios":"levelo://app?vid=253bfbd1-c3f6-4b72-a716-55890f3b4db7"},"vehicle_type_id":"4","last_reported":1774371148,"current_range_meters":6400,"station_id":"","pricing_plan_id":"cebpf4jnsgd1na2vs0mg"},{"bike_id":"f4b2b5da-b3e2-4948-a729-5e583dde0da5","system_id":"levelo_inurba_marseille","lat":43.29281,"lon":5.38259,"is_reserved":false,"is_disabled":false,"rental_uris":{"android":"levelo://app?vid=f4b2b5da-b3e2-4948-a729-5e583dde0da5","ios":"levelo://app?vid=f4b2b5da-b3e2-4948-a729-5e583dde0da5"},"vehicle_type_id":"4","last_reported":1774371148,"current_range_meters":6400,"station_id":"","pricing_plan_id":"cebpf4jnsgd1na2vs0mg"},{"bike_id":"f9868d80-9dcb-45c3-806c-45464a6c2353","system_id":"levelo_inurba_marseille","lat":43.30191,"lon":5.36639,"is_reserved":false,"is_disabled":false,"rental_uris":{"android":"levelo://app?vid=f9868d80-9dcb-45c3-806c-45464a6c2353","ios":"levelo://app?vid=f9868d80-9dcb-45c3-806c-45464a6c2353"},"vehicle_type_id":"4","last_reported":1774371148,"current_range_meters":6400,"station_id":"ce4bgrh2rcd13ifvqc8g","pricing_plan_id":"cebpf4jnsgd1na2vs0mg"},{"bike_id":"c3fb6ac0-526f-4836-98cf-d46bdb9ad792","system_id":"levelo_inurba_marseille","lat":43.31062,"lon":5.37225,"is_reserved":false,"is_disabled":false,"rental_uris":{"android":"levelo://app?vid=c3fb6ac0-526f-4836-98cf-d46bdb9ad792","ios":"levelo://app?vid=c3fb6ac0-526f-4836-98cf-d46bdb9ad792"},"vehicle_type_id":"4","last_reported":1774371148,"current_range_meters":6400,"station_id":"","pricing_plan_id":"cebpf4jnsgd1na2vs0mg"},{"bike_id":"9be37a25-79de-43c2-b934-7db63853cf20","system_id":"levelo_inurba_marseille","lat":43.26553,"lon":5.37323,"is_reserved":false,"is_disabled":false,"rental_uris":{"android":"levelo://app?vid=9be37a25-79de-43c2-b934-7db63853cf20","ios":"levelo://app?vid=9be37a25-79de-43c2-b934-7db63853cf20"},"vehicle_type_id":"4","last_reported":1774371148,"current_range_meters":6400,"station_id":"ce4bhg12rcd13ifvqf70","pricing_plan_id":"cebpf4jnsgd1na2vs0mg"},{"bike_id":"0db7c058-3f8e-4c19-9f83-e9b463f4230d","system_id":"levelo_inurba_marseille","lat":43.29521,"lon":5.39404,"is_reserved":false,"is_disabled":false,"rental_uris":{"android":"levelo://app?vid=0db7c058-3f8e-4c19-9f83-e9b463f4230d","ios":"levelo://app?vid=0db7c058-3f8e-4c19-9f83-e9b463f4230d"},"vehicle_type_id":"4","last_reported":1774371148,"current_range_meters":6400,"station_id":"ce4bh292rcd13ifvqdf0","pricing_plan_id":"cebpf4jnsgd1na2vs0mg"},{"bike_id":"37fdd559-1963-4961-8128-df7934b25075","system_id":"levelo_inurba_marseille","lat":43.30425,"lon":5.39752,"is_reserved":false,"is_disabled":false,"rental_uris":{"android":"levelo://app?vid=37fdd559-1963-4961-8128-df7934b25075","ios":"levelo://app?vid=37fdd559-1963-4961-8128-df7934b25075"},"vehicle_type_id":"4","last_reported":1774371148,"current_range_meters":6400,"station_id":"ce4bh092rcd13ifvqd20","pricing_plan_id":"cebpf4jnsgd1na2vs0mg"},{"bike_id":"d529f645-1c95-4ab9-b48b-a6fdd73ccab6","system_id":"levelo_inurba_marseille","lat":43.29287,"lon":5.37427,"is_reserved":false,"is_disabled":false,"rental_uris":{"android":"levelo://app?vid=d529f645-1c95-4ab9-b48b-a6fdd73ccab6","ios":"levelo://app?vid=d529f645-1c95-4ab9-b48b-a6fdd73ccab6"},"vehicle_type_id":"4","last_reported":1774371148,"current_range_meters":6400,"station_id":"ce4bgi12rcd13ifvqb70","pricing_plan_id":"cebpf4jnsgd1na2vs0mg"},{"bike_id":"7e239537-6c6b-4563-a73b-680f69586595","system_id":"levelo_inurba_marseille","lat":43.29004,"lon":5.35614,"is_reserved":false,"is_disabled":true,"rental_uris":{"android":"levelo://app?vid=7e239537-6c6b-4563-a73b-680f69586595","ios":"levelo://app?vid=7e239537-6c6b-4563-a73b-680f69586595"},"vehicle_type_id":"4","last_reported":1774371148,"current_range_meters":6400,"station_id":"ce4bhb92rcd13ifvqen0","pricing_plan_id":"cebpf4jnsgd1na2vs0mg"},{"bike_id":"a9b0556e-e257-4c86-baec-32c674fd9499","system_id":"levelo_inurba_marseille","lat":43.30212,"lon":5.39468,"is_reserved":false,"is_disabled":true,"rental_uris":{"android":"levelo://app?vid=a9b0556e-e257-4c86-baec-32c674fd9499","ios":"levelo://app?vid=a9b0556e-e257-4c86-baec-32c674fd9499"},"vehicle_type_id":"4","last_reported":1774371148,"current_range_meters":6800,"station_id":"ce4bh0p2rcd13ifvqd70","pricing_plan_id":"cebpf4jnsgd1na2vs0mg"},{"bike_id":"7b6c8f1e-bc5a-4218-9383-b05da73318e0","system_id":"levelo_inurba_marseille","lat":43.32347,"lon":5.36723,"is_reserved":false,"is_disabled":false,"rental_uris":{"android":"levelo://app?vid=7b6c8f1e-bc5a-4218-9383-b05da73318e0","ios":"levelo://app?vid=7b6c8f1e-bc5a-4218-9383-b05da73318e0"},"vehicle_type_id":"4","last_reported":1774371148,"current_range_meters":6800,"station_id":"ce4bhsh2rcd13ifvqi2g","pricing_plan_id":"cebpf4jnsgd1na2vs0mg"},{"bike_id":"e781cb68-9acd-44cd-8ce9-8b803a7ac14c","system_id":"levelo_inurba_marseille","lat":43.252491,"lon":5.406227,"is_reserved":false,"is_disabled":false,"rental_uris":{"android":"levelo://app?vid=e781cb68-9acd-44cd-8ce9-8b803a7ac14c","ios":"levelo://app?vid=e781cb68-9acd-44cd-8ce9-8b803a7ac14c"},"vehicle_type_id":"4","last_reported":1774371148,"current_range_meters":6800,"station_id":"ce4bhn12rcd13ifvqgpg","pricing_plan_id":"cebpf4jnsgd1na2vs0mg"},{"bike_id":"098144e5-733b-42c7-b084-7ac44619c48e","system_id":"levelo_inurba_marseille","lat":43.30566,"lon":5.36542,"is_reserved":false,"is_disabled":false,"rental_uris":{"android":"levelo://app?vid=098144e5-733b-42c7-b084-7ac44619c48e","ios":"levelo://app?vid=098144e5-733b-42c7-b084-7ac44619c48e"},"vehicle_type_id":"4","last_reported":1774371148,"current_range_meters":6800,"station_id":"ce4bgs12rcd13ifvqcag","pricing_plan_id":"cebpf4jnsgd1na2vs0mg"},{"bike_id":"e043a5db-d02e-417c-8d06-55b7b326c225","system_id":"levelo_inurba_marseille","lat":43.29687,"lon":5.37286,"is_reserved":false,"is_disabled":false,"rental_uris":{"android":"levelo://app?vid=e043a5db-d02e-417c-8d06-55b7b326c225","ios":"levelo://app?vid=e043a5db-d02e-417c-8d06-55b7b326c225"},"vehicle_type_id":"4","last_reported":1774371148,"current_range_meters":6800,"station_id":"ce4bgk12rcd13ifvqbj0","pricing_plan_id":"cebpf4jnsgd1na2vs0mg"},{"bike_id":"1e5fb3f2-8c08-4a3b-b3b5-0c1eb65e5102","system_id":"levelo_inurba_marseille","lat":43.27072,"lon":5.4228,"is_reserved":false,"is_disabled":false,"rental_uris":{"android":"levelo://app?vid=1e5fb3f2-8c08-4a3b-b3b5-0c1eb65e5102","ios":"levelo://app?vid=1e5fb3f2-8c08-4a3b-b3b5-0c1eb65e5102"},"vehicle_type_id":"4","last_reported":1774371148,"current_range_meters":6800,"station_id":"ce4bhk92rcd13ifvqgb0","pricing_plan_id":"cebpf4jnsgd1na2vs0mg"},{"bike_id":"0b786319-6d9f-4d1c-890a-5150198e272a","system_id":"levelo_inurba_marseille","lat":43.28479,"lon":5.4839,"is_reserved":false,"is_disabled":false,"rental_uris":{"android":"levelo://app?vid=0b786319-6d9f-4d1c-890a-5150198e272a","ios":"levelo://app?vid=0b786319-6d9f-4d1c-890a-5150198e272a"},"vehicle_type_id":"4","last_reported":1774371148,"current_range_meters":6800,"station_id":"st_d3svhcjqgbts73a3dn0g","pricing_plan_id":"cebpf4jnsgd1na2vs0mg"},{"bike_id":"f35a9644-f102-427c-8b00-579a35988db3","system_id":"levelo_inurba_marseille","lat":43.212,"lon":5.35078,"is_reserved":false,"is_disabled":false,"rental_uris":{"android":"levelo://app?vid=f35a9644-f102-427c-8b00-579a35988db3","ios":"levelo://app?vid=f35a9644-f102-427c-8b00-579a35988db3"},"vehicle_type_id":"4","last_reported":1774371148,"current_range_meters":6800,"station_id":"st_cvj6sg6p6f1abm77japg","pricing_plan_id":"cebpf4jnsgd1na2vs0mg"},{"bike_id":"4eeaf0fe-f826-4a31-8e08-298d4537004a","system_id":"levelo_inurba_marseille","lat":43.22535,"lon":5.348345,"is_reserved":false,"is_disabled":false,"rental_uris":{"android":"levelo://app?vid=4eeaf0fe-f826-4a31-8e08-298d4537004a","ios":"levelo://app?vid=4eeaf0fe-f826-4a31-8e08-298d4537004a"},"vehicle_type_id":"4","last_reported":1774371148,"current_range_meters":6800,"station_id":"","pricing_plan_id":"cebpf4jnsgd1na2vs0mg"},{"bike_id":"7e03e45c-d69c-4371-8267-aa26cde43729","system_id":"levelo_inurba_marseille","lat":43.25584,"lon":5.382,"is_reserved":false,"is_disabled":true,"rental_uris":{"android":"levelo://app?vid=7e03e45c-d69c-4371-8267-aa26cde43729","ios":"levelo://app?vid=7e03e45c-d69c-4371-8267-aa26cde43729"},"vehicle_type_id":"4","last_reported":1774371148,"current_range_meters":6800,"station_id":"ce4bhih2rcd13ifvqfs0","pricing_plan_id":"cebpf4jnsgd1na2vs0mg"},{"bike_id":"1640993b-d278-49ed-aac8-4524836b0a26","system_id":"levelo_inurba_marseille","lat":43.28221,"lon":5.39028,"is_reserved":false,"is_disabled":true,"rental_uris":{"android":"levelo://app?vid=1640993b-d278-49ed-aac8-4524836b0a26","ios":"levelo://app?vid=1640993b-d278-49ed-aac8-4524836b0a26"},"vehicle_type_id":"4","last_reported":1774371148,"current_range_meters":6800,"station_id":"ce4bhn92rcd13ifvqgsg","pricing_plan_id":"cebpf4jnsgd1na2vs0mg"},{"bike_id":"749e6293-33d3-406a-9eb5-b4d44226b718","system_id":"levelo_inurba_marseille","lat":43.29483,"lon":5.43349,"is_reserved":false,"is_disabled":false,"rental_uris":{"android":"levelo://app?vid=749e6293-33d3-406a-9eb5-b4d44226b718","ios":"levelo://app?vid=749e6293-33d3-406a-9eb5-b4d44226b718"},"vehicle_type_id":"4","last_reported":1774371148,"current_range_meters":6800,"station_id":"st_d3j5ugp08ojc73fj9d10","pricing_plan_id":"cebpf4jnsgd1na2vs0mg"},{"bike_id":"b70897c8-5110-4fc2-adb8-1382d463b919","system_id":"levelo_inurba_marseille","lat":43.30421,"lon":5.39745,"is_reserved":false,"is_disabled":false,"rental_uris":{"android":"levelo://app?vid=b70897c8-5110-4fc2-adb8-1382d463b919","ios":"levelo://app?vid=b70897c8-5110-4fc2-adb8-1382d463b919"},"vehicle_type_id":"4","last_reported":1774371148,"current_range_meters":6800,"station_id":"ce4bh092rcd13ifvqd20","pricing_plan_id":"cebpf4jnsgd1na2vs0mg"},{"bike_id":"f3dccb27-25f8-415f-8a8c-207408b72398","system_id":"levelo_inurba_marseille","lat":43.32075,"lon":5.36732,"is_reserved":false,"is_disabled":false,"rental_uris":{"android":"levelo://app?vid=f3dccb27-25f8-415f-8a8c-207408b72398","ios":"levelo://app?vid=f3dccb27-25f8-415f-8a8c-207408b72398"},"vehicle_type_id":"4","last_reported":1774371148,"current_range_meters":6800,"station_id":"ce4bhrh2rcd13ifvqhug","pricing_plan_id":"cebpf4jnsgd1na2vs0mg"},{"bike_id":"9632a0f0-59c6-4dfc-8280-0f51dc41a02b","system_id":"levelo_inurba_marseille","lat":43.225335,"lon":5.348346,"is_reserved":false,"is_disabled":false,"rental_uris":{"android":"levelo://app?vid=9632a0f0-59c6-4dfc-8280-0f51dc41a02b","ios":"levelo://app?vid=9632a0f0-59c6-4dfc-8280-0f51dc41a02b"},"vehicle_type_id":"4","last_reported":1774371148,"current_range_meters":6800,"station_id":"st_cvj5dfep6f1abm77gieg","pricing_plan_id":"cebpf4jnsgd1na2vs0mg"},{"bike_id":"7fa63eed-af5a-4683-a049-f88eb25d6d2d","system_id":"levelo_inurba_marseille","lat":43.29636,"lon":5.40592,"is_reserved":false,"is_disabled":false,"rental_uris":{"android":"levelo://app?vid=7fa63eed-af5a-4683-a049-f88eb25d6d2d","ios":"levelo://app?vid=7fa63eed-af5a-4683-a049-f88eb25d6d2d"},"vehicle_type_id":"4","last_reported":1774371148,"current_range_meters":6800,"station_id":"ce4bh0h2rcd13ifvqd60","pricing_plan_id":"cebpf4jnsgd1na2vs0mg"},{"bike_id":"21212254-e5a0-4af6-a45f-ed4c631ca773","system_id":"levelo_inurba_marseille","lat":43.25539,"lon":5.37656,"is_reserved":false,"is_disabled":false,"rental_uris":{"android":"levelo://app?vid=21212254-e5a0-4af6-a45f-ed4c631ca773","ios":"levelo://app?vid=21212254-e5a0-4af6-a45f-ed4c631ca773"},"vehicle_type_id":"4","last_reported":1774371148,"current_range_meters":7200,"station_id":"ce4bhh12rcd13ifvqff0","pricing_plan_id":"cebpf4jnsgd1na2vs0mg"},{"bike_id":"a14d2edd-85c5-4116-8db5-355e3fb2ddbe","system_id":"levelo_inurba_marseille","lat":43.33548,"lon":5.37507,"is_reserved":false,"is_disabled":false,"rental_uris":{"android":"levelo://app?vid=a14d2edd-85c5-4116-8db5-355e3fb2ddbe","ios":"levelo://app?vid=a14d2edd-85c5-4116-8db5-355e3fb2ddbe"},"vehicle_type_id":"4","last_reported":1774371148,"current_range_meters":7200,"station_id":"st_d46tts09ee8s73dlu43g","pricing_plan_id":"cebpf4jnsgd1na2vs0mg"},{"bike_id":"5c941c2b-f0fa-4f64-af96-831f9028136a","system_id":"levelo_inurba_marseille","lat":43.32224,"lon":5.37098,"is_reserved":false,"is_disabled":false,"rental_uris":{"android":"levelo://app?vid=5c941c2b-f0fa-4f64-af96-831f9028136a","ios":"levelo://app?vid=5c941c2b-f0fa-4f64-af96-831f9028136a"},"vehicle_type_id":"4","last_reported":1774371148,"current_range_meters":7200,"station_id":"","pricing_plan_id":"cebpf4jnsgd1na2vs0mg"},{"bike_id":"11c069cf-c2e2-4821-a6c2-d4ad25b46f50","system_id":"levelo_inurba_marseille","lat":43.21747,"lon":5.34605,"is_reserved":false,"is_disabled":false,"rental_uris":{"android":"levelo://app?vid=11c069cf-c2e2-4821-a6c2-d4ad25b46f50","ios":"levelo://app?vid=11c069cf-c2e2-4821-a6c2-d4ad25b46f50"},"vehicle_type_id":"4","last_reported":1774371148,"current_range_meters":7200,"station_id":"st_cvj6r9ubvosntc0bgbag","pricing_plan_id":"cebpf4jnsgd1na2vs0mg"},{"bike_id":"8e331d09-f777-47e4-a327-164db2e188a9","system_id":"levelo_inurba_marseille","lat":43.26586,"lon":5.40312,"is_reserved":false,"is_disabled":true,"rental_uris":{"android":"levelo://app?vid=8e331d09-f777-47e4-a327-164db2e188a9","ios":"levelo://app?vid=8e331d09-f777-47e4-a327-164db2e188a9"},"vehicle_type_id":"4","last_reported":1774371148,"current_range_meters":7200,"station_id":"ce4bhmp2rcd13ifvqgng","pricing_plan_id":"cebpf4jnsgd1na2vs0mg"},{"bike_id":"066cfe81-714d-4a28-ba8d-e13baf5bbb1b","system_id":"levelo_inurba_marseille","lat":43.27266,"lon":5.41147,"is_reserved":false,"is_disabled":false,"rental_uris":{"android":"levelo://app?vid=066cfe81-714d-4a28-ba8d-e13baf5bbb1b","ios":"levelo://app?vid=066cfe81-714d-4a28-ba8d-e13baf5bbb1b"},"vehicle_type_id":"4","last_reported":1774371148,"current_range_meters":7200,"station_id":"","pricing_plan_id":"cebpf4jnsgd1na2vs0mg"},{"bike_id":"f0abf5b5-1555-4d7c-9a79-22bc183be4e1","system_id":"levelo_inurba_marseille","lat":43.30731,"lon":5.4245,"is_reserved":false,"is_disabled":false,"rental_uris":{"android":"levelo://app?vid=f0abf5b5-1555-4d7c-9a79-22bc183be4e1","ios":"levelo://app?vid=f0abf5b5-1555-4d7c-9a79-22bc183be4e1"},"vehicle_type_id":"4","last_reported":1774371148,"current_range_meters":7200,"station_id":"st_cvj6ca6bvosntc0bfgr0","pricing_plan_id":"cebpf4jnsgd1na2vs0mg"},{"bike_id":"a9ec82e5-093a-4542-9f2f-44e506af087d","system_id":"levelo_inurba_marseille","lat":43.28429,"lon":5.35,"is_reserved":false,"is_disabled":false,"rental_uris":{"android":"levelo://app?vid=a9ec82e5-093a-4542-9f2f-44e506af087d","ios":"levelo://app?vid=a9ec82e5-093a-4542-9f2f-44e506af087d"},"vehicle_type_id":"4","last_reported":1774371148,"current_range_meters":7200,"station_id":"ce4bhbh2rcd13ifvqepg","pricing_plan_id":"cebpf4jnsgd1na2vs0mg"},{"bike_id":"c8a4a679-f560-4bf1-8510-6951a5eb3c4d","system_id":"levelo_inurba_marseille","lat":43.22537,"lon":5.34836,"is_reserved":false,"is_disabled":false,"rental_uris":{"android":"levelo://app?vid=c8a4a679-f560-4bf1-8510-6951a5eb3c4d","ios":"levelo://app?vid=c8a4a679-f560-4bf1-8510-6951a5eb3c4d"},"vehicle_type_id":"4","last_reported":1774371148,"current_range_meters":7200,"station_id":"","pricing_plan_id":"cebpf4jnsgd1na2vs0mg"},{"bike_id":"186cd56a-3b86-43ef-8082-479e8f95ab04","system_id":"levelo_inurba_marseille","lat":43.21763,"lon":5.34597,"is_reserved":false,"is_disabled":false,"rental_uris":{"android":"levelo://app?vid=186cd56a-3b86-43ef-8082-479e8f95ab04","ios":"levelo://app?vid=186cd56a-3b86-43ef-8082-479e8f95ab04"},"vehicle_type_id":"4","last_reported":1774371148,"current_range_meters":7200,"station_id":"st_cvj6r9ubvosntc0bgbag","pricing_plan_id":"cebpf4jnsgd1na2vs0mg"},{"bike_id":"b9075bd2-6a16-46f9-b243-40ae44fbbfa7","system_id":"levelo_inurba_marseille","lat":43.29867,"lon":5.3974,"is_reserved":false,"is_disabled":false,"rental_uris":{"android":"levelo://app?vid=b9075bd2-6a16-46f9-b243-40ae44fbbfa7","ios":"levelo://app?vid=b9075bd2-6a16-46f9-b243-40ae44fbbfa7"},"vehicle_type_id":"4","last_reported":1774371148,"current_range_meters":7200,"station_id":"ce4bh0h2rcd13ifvqd50","pricing_plan_id":"cebpf4jnsgd1na2vs0mg"},{"bike_id":"1ec674ce-a4a6-40c5-b3d5-2641109d2146","system_id":"levelo_inurba_marseille","lat":43.27382,"lon":5.36251,"is_reserved":false,"is_disabled":false,"rental_uris":{"android":"levelo://app?vid=1ec674ce-a4a6-40c5-b3d5-2641109d2146","ios":"levelo://app?vid=1ec674ce-a4a6-40c5-b3d5-2641109d2146"},"vehicle_type_id":"4","last_reported":1774371148,"current_range_meters":7200,"station_id":"ce4bhbh2rcd13ifvqeo0","pricing_plan_id":"cebpf4jnsgd1na2vs0mg"},{"bike_id":"0d489b01-590f-434e-9649-624f92bba9bb","system_id":"levelo_inurba_marseille","lat":43.23207,"lon":5.35537,"is_reserved":false,"is_disabled":false,"rental_uris":{"android":"levelo://app?vid=0d489b01-590f-434e-9649-624f92bba9bb","ios":"levelo://app?vid=0d489b01-590f-434e-9649-624f92bba9bb"},"vehicle_type_id":"4","last_reported":1774371148,"current_range_meters":7200,"station_id":"ce4bhu92rcd13ifvqi70","pricing_plan_id":"cebpf4jnsgd1na2vs0mg"},{"bike_id":"e6349eb3-2730-461c-ae14-f386689052fa","system_id":"levelo_inurba_marseille","lat":43.31624,"lon":5.37805,"is_reserved":false,"is_disabled":true,"rental_uris":{"android":"levelo://app?vid=e6349eb3-2730-461c-ae14-f386689052fa","ios":"levelo://app?vid=e6349eb3-2730-461c-ae14-f386689052fa"},"vehicle_type_id":"4","last_reported":1774371148,"current_range_meters":7200,"station_id":"","pricing_plan_id":"cebpf4jnsgd1na2vs0mg"},{"bike_id":"700562af-daa9-4ce3-aecb-359864faa5d1","system_id":"levelo_inurba_marseille","lat":43.272042,"lon":5.391964,"is_reserved":false,"is_disabled":false,"rental_uris":{"android":"levelo://app?vid=700562af-daa9-4ce3-aecb-359864faa5d1","ios":"levelo://app?vid=700562af-daa9-4ce3-aecb-359864faa5d1"},"vehicle_type_id":"4","last_reported":1774371148,"current_range_meters":7200,"station_id":"ce4bhhp2rcd13ifvqfm0","pricing_plan_id":"cebpf4jnsgd1na2vs0mg"},{"bike_id":"6711ca2b-9a4e-46b1-892e-1007cc2a656e","system_id":"levelo_inurba_marseille","lat":43.28542,"lon":5.44114,"is_reserved":false,"is_disabled":false,"rental_uris":{"android":"levelo://app?vid=6711ca2b-9a4e-46b1-892e-1007cc2a656e","ios":"levelo://app?vid=6711ca2b-9a4e-46b1-892e-1007cc2a656e"},"vehicle_type_id":"4","last_reported":1774371148,"current_range_meters":7200,"station_id":"st_d3j3df2ikq2c7380ej80","pricing_plan_id":"cebpf4jnsgd1na2vs0mg"},{"bike_id":"e01fd1d8-28ce-444e-acdc-34233ab2c531","system_id":"levelo_inurba_marseille","lat":43.25491,"lon":5.37644,"is_reserved":false,"is_disabled":false,"rental_uris":{"android":"levelo://app?vid=e01fd1d8-28ce-444e-acdc-34233ab2c531","ios":"levelo://app?vid=e01fd1d8-28ce-444e-acdc-34233ab2c531"},"vehicle_type_id":"4","last_reported":1774371148,"current_range_meters":7200,"station_id":"ce4bhh12rcd13ifvqff0","pricing_plan_id":"cebpf4jnsgd1na2vs0mg"},{"bike_id":"7e4b04ad-472f-4305-bd56-60316c93dd21","system_id":"levelo_inurba_marseille","lat":43.28719,"lon":5.36099,"is_reserved":false,"is_disabled":false,"rental_uris":{"android":"levelo://app?vid=7e4b04ad-472f-4305-bd56-60316c93dd21","ios":"levelo://app?vid=7e4b04ad-472f-4305-bd56-60316c93dd21"},"vehicle_type_id":"4","last_reported":1774371148,"current_range_meters":7200,"station_id":"cki0cbj6b192h4jlfktg","pricing_plan_id":"cebpf4jnsgd1na2vs0mg"},{"bike_id":"e0d3df09-9b57-40a2-9fc8-b934476fccd8","system_id":"levelo_inurba_marseille","lat":43.28411,"lon":5.34976,"is_reserved":false,"is_disabled":false,"rental_uris":{"android":"levelo://app?vid=e0d3df09-9b57-40a2-9fc8-b934476fccd8","ios":"levelo://app?vid=e0d3df09-9b57-40a2-9fc8-b934476fccd8"},"vehicle_type_id":"4","last_reported":1774371148,"current_range_meters":7200,"station_id":"ce4bhbh2rcd13ifvqepg","pricing_plan_id":"cebpf4jnsgd1na2vs0mg"},{"bike_id":"d6fb6c08-d7f5-48a2-a2f0-2b85a09f60c7","system_id":"levelo_inurba_marseille","lat":43.25567,"lon":5.38266,"is_reserved":false,"is_disabled":false,"rental_uris":{"android":"levelo://app?vid=d6fb6c08-d7f5-48a2-a2f0-2b85a09f60c7","ios":"levelo://app?vid=d6fb6c08-d7f5-48a2-a2f0-2b85a09f60c7"},"vehicle_type_id":"4","last_reported":1774371148,"current_range_meters":7200,"station_id":"ce4bhih2rcd13ifvqfs0","pricing_plan_id":"cebpf4jnsgd1na2vs0mg"},{"bike_id":"bcfec768-755f-42b0-8918-4404b2f9bb44","system_id":"levelo_inurba_marseille","lat":43.25172,"lon":5.37461,"is_reserved":false,"is_disabled":false,"rental_uris":{"android":"levelo://app?vid=bcfec768-755f-42b0-8918-4404b2f9bb44","ios":"levelo://app?vid=bcfec768-755f-42b0-8918-4404b2f9bb44"},"vehicle_type_id":"4","last_reported":1774371148,"current_range_meters":7200,"station_id":"","pricing_plan_id":"cebpf4jnsgd1na2vs0mg"},{"bike_id":"17ecb8f1-df4c-49b8-9174-4fdee094aaf6","system_id":"levelo_inurba_marseille","lat":43.26562,"lon":5.37304,"is_reserved":false,"is_disabled":false,"rental_uris":{"android":"levelo://app?vid=17ecb8f1-df4c-49b8-9174-4fdee094aaf6","ios":"levelo://app?vid=17ecb8f1-df4c-49b8-9174-4fdee094aaf6"},"vehicle_type_id":"4","last_reported":1774371148,"current_range_meters":7200,"station_id":"ce4bhg12rcd13ifvqf70","pricing_plan_id":"cebpf4jnsgd1na2vs0mg"},{"bike_id":"e3f886a8-5ab4-45f3-9b3b-ccb5c60cb84a","system_id":"levelo_inurba_marseille","lat":43.25575,"lon":5.38236,"is_reserved":false,"is_disabled":false,"rental_uris":{"android":"levelo://app?vid=e3f886a8-5ab4-45f3-9b3b-ccb5c60cb84a","ios":"levelo://app?vid=e3f886a8-5ab4-45f3-9b3b-ccb5c60cb84a"},"vehicle_type_id":"4","last_reported":1774371148,"current_range_meters":7200,"station_id":"ce4bhih2rcd13ifvqfs0","pricing_plan_id":"cebpf4jnsgd1na2vs0mg"},{"bike_id":"13a7fa97-96af-4db8-ac2e-56883ba7cb19","system_id":"levelo_inurba_marseille","lat":43.28926,"lon":5.38402,"is_reserved":false,"is_disabled":false,"rental_uris":{"android":"levelo://app?vid=13a7fa97-96af-4db8-ac2e-56883ba7cb19","ios":"levelo://app?vid=13a7fa97-96af-4db8-ac2e-56883ba7cb19"},"vehicle_type_id":"4","last_reported":1774371148,"current_range_meters":7200,"station_id":"ce4bh612rcd13ifvqe6g","pricing_plan_id":"cebpf4jnsgd1na2vs0mg"},{"bike_id":"763571bb-b88d-45db-9a18-7962f9620cad","system_id":"levelo_inurba_marseille","lat":43.23198,"lon":5.35557,"is_reserved":false,"is_disabled":false,"rental_uris":{"android":"levelo://app?vid=763571bb-b88d-45db-9a18-7962f9620cad","ios":"levelo://app?vid=763571bb-b88d-45db-9a18-7962f9620cad"},"vehicle_type_id":"4","last_reported":1774371148,"current_range_meters":8000,"station_id":"ce4bhu92rcd13ifvqi70","pricing_plan_id":"cebpf4jnsgd1na2vs0mg"},{"bike_id":"4078e5c4-b784-4a81-827e-b1a58b5db34d","system_id":"levelo_inurba_marseille","lat":43.30526,"lon":5.36537,"is_reserved":false,"is_disabled":false,"rental_uris":{"android":"levelo://app?vid=4078e5c4-b784-4a81-827e-b1a58b5db34d","ios":"levelo://app?vid=4078e5c4-b784-4a81-827e-b1a58b5db34d"},"vehicle_type_id":"4","last_reported":1774371148,"current_range_meters":8000,"station_id":"ce4bgs12rcd13ifvqcag","pricing_plan_id":"cebpf4jnsgd1na2vs0mg"},{"bike_id":"d7c53897-d984-4482-88a2-e520916b48f2","system_id":"levelo_inurba_marseille","lat":43.273124,"lon":5.390823,"is_reserved":false,"is_disabled":false,"rental_uris":{"android":"levelo://app?vid=d7c53897-d984-4482-88a2-e520916b48f2","ios":"levelo://app?vid=d7c53897-d984-4482-88a2-e520916b48f2"},"vehicle_type_id":"4","last_reported":1774371148,"current_range_meters":8000,"station_id":"ce4bhgp2rcd13ifvqfe0","pricing_plan_id":"cebpf4jnsgd1na2vs0mg"},{"bike_id":"f7e664bc-8cfe-465d-9dbe-128ca982aa9c","system_id":"levelo_inurba_marseille","lat":43.25052,"lon":5.38897,"is_reserved":false,"is_disabled":false,"rental_uris":{"android":"levelo://app?vid=f7e664bc-8cfe-465d-9dbe-128ca982aa9c","ios":"levelo://app?vid=f7e664bc-8cfe-465d-9dbe-128ca982aa9c"},"vehicle_type_id":"4","last_reported":1774371148,"current_range_meters":8000,"station_id":"","pricing_plan_id":"cebpf4jnsgd1na2vs0mg"},{"bike_id":"46030eff-7588-42df-a934-f090fcf21924","system_id":"levelo_inurba_marseille","lat":43.28212,"lon":5.39045,"is_reserved":false,"is_disabled":false,"rental_uris":{"android":"levelo://app?vid=46030eff-7588-42df-a934-f090fcf21924","ios":"levelo://app?vid=46030eff-7588-42df-a934-f090fcf21924"},"vehicle_type_id":"4","last_reported":1774371148,"current_range_meters":8000,"station_id":"ce4bhn92rcd13ifvqgsg","pricing_plan_id":"cebpf4jnsgd1na2vs0mg"},{"bike_id":"530f9640-40aa-4a7d-9180-0e99c945be9e","system_id":"levelo_inurba_marseille","lat":43.29524,"lon":5.38543,"is_reserved":false,"is_disabled":false,"rental_uris":{"android":"levelo://app?vid=530f9640-40aa-4a7d-9180-0e99c945be9e","ios":"levelo://app?vid=530f9640-40aa-4a7d-9180-0e99c945be9e"},"vehicle_type_id":"4","last_reported":1774371148,"current_range_meters":8000,"station_id":"ce4bgih2rcd13ifvqba0","pricing_plan_id":"cebpf4jnsgd1na2vs0mg"},{"bike_id":"445a363e-6635-4c6f-9d9b-6ed1d223c4e8","system_id":"levelo_inurba_marseille","lat":43.29559,"lon":5.43873,"is_reserved":false,"is_disabled":false,"rental_uris":{"android":"levelo://app?vid=445a363e-6635-4c6f-9d9b-6ed1d223c4e8","ios":"levelo://app?vid=445a363e-6635-4c6f-9d9b-6ed1d223c4e8"},"vehicle_type_id":"4","last_reported":1774371148,"current_range_meters":8000,"station_id":"","pricing_plan_id":"cebpf4jnsgd1na2vs0mg"},{"bike_id":"fd7e2c0f-1077-46e9-ac16-d8962f4af207","system_id":"levelo_inurba_marseille","lat":43.31331,"lon":5.39695,"is_reserved":false,"is_disabled":false,"rental_uris":{"android":"levelo://app?vid=fd7e2c0f-1077-46e9-ac16-d8962f4af207","ios":"levelo://app?vid=fd7e2c0f-1077-46e9-ac16-d8962f4af207"},"vehicle_type_id":"4","last_reported":1774371148,"current_range_meters":8000,"station_id":"ce4bgvp2rcd13ifvqcu0","pricing_plan_id":"cebpf4jnsgd1na2vs0mg"},{"bike_id":"e51f3b8f-2277-4636-88c7-d4fed1c89dba","system_id":"levelo_inurba_marseille","lat":43.29881,"lon":5.41007,"is_reserved":false,"is_disabled":false,"rental_uris":{"android":"levelo://app?vid=e51f3b8f-2277-4636-88c7-d4fed1c89dba","ios":"levelo://app?vid=e51f3b8f-2277-4636-88c7-d4fed1c89dba"},"vehicle_type_id":"4","last_reported":1774371148,"current_range_meters":8000,"station_id":"","pricing_plan_id":"cebpf4jnsgd1na2vs0mg"},{"bike_id":"7c59c074-6646-4968-803b-ea035a59d3f4","system_id":"levelo_inurba_marseille","lat":43.23783,"lon":5.36626,"is_reserved":false,"is_disabled":false,"rental_uris":{"android":"levelo://app?vid=7c59c074-6646-4968-803b-ea035a59d3f4","ios":"levelo://app?vid=7c59c074-6646-4968-803b-ea035a59d3f4"},"vehicle_type_id":"4","last_reported":1774371148,"current_range_meters":8000,"station_id":"st_d3nk18o9ro0c73en2l3g","pricing_plan_id":"cebpf4jnsgd1na2vs0mg"},{"bike_id":"c26d1e8d-e1e1-44c7-a2d2-8212f8041b99","system_id":"levelo_inurba_marseille","lat":43.28414,"lon":5.34988,"is_reserved":false,"is_disabled":false,"rental_uris":{"android":"levelo://app?vid=c26d1e8d-e1e1-44c7-a2d2-8212f8041b99","ios":"levelo://app?vid=c26d1e8d-e1e1-44c7-a2d2-8212f8041b99"},"vehicle_type_id":"4","last_reported":1774371148,"current_range_meters":8000,"station_id":"ce4bhbh2rcd13ifvqepg","pricing_plan_id":"cebpf4jnsgd1na2vs0mg"},{"bike_id":"3bacf618-d8eb-4788-861d-01b926e62673","system_id":"levelo_inurba_marseille","lat":43.28606,"lon":5.3988,"is_reserved":false,"is_disabled":false,"rental_uris":{"android":"levelo://app?vid=3bacf618-d8eb-4788-861d-01b926e62673","ios":"levelo://app?vid=3bacf618-d8eb-4788-861d-01b926e62673"},"vehicle_type_id":"4","last_reported":1774371148,"current_range_meters":8000,"station_id":"st_d4a7ka997mjs738ck50g","pricing_plan_id":"cebpf4jnsgd1na2vs0mg"},{"bike_id":"89e0ed25-85b0-4e44-aa35-b87f117a7b5c","system_id":"levelo_inurba_marseille","lat":43.24815,"lon":5.37457,"is_reserved":false,"is_disabled":false,"rental_uris":{"android":"levelo://app?vid=89e0ed25-85b0-4e44-aa35-b87f117a7b5c","ios":"levelo://app?vid=89e0ed25-85b0-4e44-aa35-b87f117a7b5c"},"vehicle_type_id":"4","last_reported":1774371148,"current_range_meters":8000,"station_id":"ce4bhgh2rcd13ifvqfb0","pricing_plan_id":"cebpf4jnsgd1na2vs0mg"},{"bike_id":"5208ee98-7e4f-445b-9dbc-5d8fbec80d74","system_id":"levelo_inurba_marseille","lat":43.23406,"lon":5.41243,"is_reserved":false,"is_disabled":false,"rental_uris":{"android":"levelo://app?vid=5208ee98-7e4f-445b-9dbc-5d8fbec80d74","ios":"levelo://app?vid=5208ee98-7e4f-445b-9dbc-5d8fbec80d74"},"vehicle_type_id":"4","last_reported":1774371148,"current_range_meters":8000,"station_id":"","pricing_plan_id":"cebpf4jnsgd1na2vs0mg"},{"bike_id":"a8aa9f8d-d751-4c9c-b22b-e7c90636c685","system_id":"levelo_inurba_marseille","lat":43.29189,"lon":5.38548,"is_reserved":false,"is_disabled":false,"rental_uris":{"android":"levelo://app?vid=a8aa9f8d-d751-4c9c-b22b-e7c90636c685","ios":"levelo://app?vid=a8aa9f8d-d751-4c9c-b22b-e7c90636c685"},"vehicle_type_id":"4","last_reported":1774371148,"current_range_meters":8000,"station_id":"","pricing_plan_id":"cebpf4jnsgd1na2vs0mg"},{"bike_id":"08ff4d9c-a1c2-49e2-9bf8-2b8fe2cb7a1a","system_id":"levelo_inurba_marseille","lat":43.29038,"lon":5.35921,"is_reserved":false,"is_disabled":false,"rental_uris":{"android":"levelo://app?vid=08ff4d9c-a1c2-49e2-9bf8-2b8fe2cb7a1a","ios":"levelo://app?vid=08ff4d9c-a1c2-49e2-9bf8-2b8fe2cb7a1a"},"vehicle_type_id":"4","last_reported":1774371148,"current_range_meters":8000,"station_id":"ce4bha92rcd13ifvqeg0","pricing_plan_id":"cebpf4jnsgd1na2vs0mg"},{"bike_id":"e5645e51-629c-4ec1-86c5-3dd811ec5b41","system_id":"levelo_inurba_marseille","lat":43.28688,"lon":5.37399,"is_reserved":false,"is_disabled":false,"rental_uris":{"android":"levelo://app?vid=e5645e51-629c-4ec1-86c5-3dd811ec5b41","ios":"levelo://app?vid=e5645e51-629c-4ec1-86c5-3dd811ec5b41"},"vehicle_type_id":"4","last_reported":1774371148,"current_range_meters":8000,"station_id":"ce4bh3p2rcd13ifvqdq0","pricing_plan_id":"cebpf4jnsgd1na2vs0mg"},{"bike_id":"a0f866bb-348f-4a3e-ad6c-4d5e535d523b","system_id":"levelo_inurba_marseille","lat":43.31481,"lon":5.37257,"is_reserved":false,"is_disabled":false,"rental_uris":{"android":"levelo://app?vid=a0f866bb-348f-4a3e-ad6c-4d5e535d523b","ios":"levelo://app?vid=a0f866bb-348f-4a3e-ad6c-4d5e535d523b"},"vehicle_type_id":"4","last_reported":1774371148,"current_range_meters":8400,"station_id":"ce4bgt12rcd13ifvqcd0","pricing_plan_id":"cebpf4jnsgd1na2vs0mg"},{"bike_id":"e0dfd533-af70-4356-b761-e1b91e9e88b2","system_id":"levelo_inurba_marseille","lat":43.29563,"lon":5.3753,"is_reserved":false,"is_disabled":false,"rental_uris":{"android":"levelo://app?vid=e0dfd533-af70-4356-b761-e1b91e9e88b2","ios":"levelo://app?vid=e0dfd533-af70-4356-b761-e1b91e9e88b2"},"vehicle_type_id":"4","last_reported":1774371148,"current_range_meters":8400,"station_id":"ce4bgh92rcd13ifvqb50","pricing_plan_id":"cebpf4jnsgd1na2vs0mg"},{"bike_id":"2159f981-c6a8-4439-bb67-1723675b05d9","system_id":"levelo_inurba_marseille","lat":43.29048,"lon":5.38718,"is_reserved":false,"is_disabled":false,"rental_uris":{"android":"levelo://app?vid=2159f981-c6a8-4439-bb67-1723675b05d9","ios":"levelo://app?vid=2159f981-c6a8-4439-bb67-1723675b05d9"},"vehicle_type_id":"4","last_reported":1774371148,"current_range_meters":8400,"station_id":"ce4bh4p2rcd13ifvqe0g","pricing_plan_id":"cebpf4jnsgd1na2vs0mg"},{"bike_id":"336a975a-af82-4908-abfb-87760e6f0278","system_id":"levelo_inurba_marseille","lat":43.30105,"lon":5.39052,"is_reserved":false,"is_disabled":false,"rental_uris":{"android":"levelo://app?vid=336a975a-af82-4908-abfb-87760e6f0278","ios":"levelo://app?vid=336a975a-af82-4908-abfb-87760e6f0278"},"vehicle_type_id":"4","last_reported":1774371148,"current_range_meters":8400,"station_id":"ce4bh192rcd13ifvqdb0","pricing_plan_id":"cebpf4jnsgd1na2vs0mg"},{"bike_id":"fadd83d2-5a56-4dab-abd3-4fc024887366","system_id":"levelo_inurba_marseille","lat":43.28484,"lon":5.48379,"is_reserved":false,"is_disabled":false,"rental_uris":{"android":"levelo://app?vid=fadd83d2-5a56-4dab-abd3-4fc024887366","ios":"levelo://app?vid=fadd83d2-5a56-4dab-abd3-4fc024887366"},"vehicle_type_id":"4","last_reported":1774371148,"current_range_meters":8400,"station_id":"","pricing_plan_id":"cebpf4jnsgd1na2vs0mg"},{"bike_id":"1a751648-291f-4319-a34f-249a761c3662","system_id":"levelo_inurba_marseille","lat":43.33595,"lon":5.36308,"is_reserved":false,"is_disabled":false,"rental_uris":{"android":"levelo://app?vid=1a751648-291f-4319-a34f-249a761c3662","ios":"levelo://app?vid=1a751648-291f-4319-a34f-249a761c3662"},"vehicle_type_id":"4","last_reported":1774371148,"current_range_meters":8400,"station_id":"","pricing_plan_id":"cebpf4jnsgd1na2vs0mg"},{"bike_id":"379b3d1e-f20d-4b36-96a1-55e073ae0f87","system_id":"levelo_inurba_marseille","lat":43.27084,"lon":5.38316,"is_reserved":false,"is_disabled":false,"rental_uris":{"android":"levelo://app?vid=379b3d1e-f20d-4b36-96a1-55e073ae0f87","ios":"levelo://app?vid=379b3d1e-f20d-4b36-96a1-55e073ae0f87"},"vehicle_type_id":"4","last_reported":1774371148,"current_range_meters":8400,"station_id":"st_d3n2fo6cfp8s73cte1j0","pricing_plan_id":"cebpf4jnsgd1na2vs0mg"},{"bike_id":"d5588a34-14e8-4b45-ab65-42adb0ca7c50","system_id":"levelo_inurba_marseille","lat":43.30136,"lon":5.39869,"is_reserved":false,"is_disabled":false,"rental_uris":{"android":"levelo://app?vid=d5588a34-14e8-4b45-ab65-42adb0ca7c50","ios":"levelo://app?vid=d5588a34-14e8-4b45-ab65-42adb0ca7c50"},"vehicle_type_id":"4","last_reported":1774371148,"current_range_meters":8400,"station_id":"ce4bh0h2rcd13ifvqd40","pricing_plan_id":"cebpf4jnsgd1na2vs0mg"},{"bike_id":"54b6092e-f4a9-4af3-9390-2ba26ee2a6d4","system_id":"levelo_inurba_marseille","lat":43.27201,"lon":5.39175,"is_reserved":false,"is_disabled":false,"rental_uris":{"android":"levelo://app?vid=54b6092e-f4a9-4af3-9390-2ba26ee2a6d4","ios":"levelo://app?vid=54b6092e-f4a9-4af3-9390-2ba26ee2a6d4"},"vehicle_type_id":"4","last_reported":1774371148,"current_range_meters":8400,"station_id":"ce4bhhp2rcd13ifvqfm0","pricing_plan_id":"cebpf4jnsgd1na2vs0mg"},{"bike_id":"cbe143e8-3e8d-46c8-8239-3389a4661d28","system_id":"levelo_inurba_marseille","lat":43.30296,"lon":5.36912,"is_reserved":false,"is_disabled":false,"rental_uris":{"android":"levelo://app?vid=cbe143e8-3e8d-46c8-8239-3389a4661d28","ios":"levelo://app?vid=cbe143e8-3e8d-46c8-8239-3389a4661d28"},"vehicle_type_id":"4","last_reported":1774371148,"current_range_meters":8400,"station_id":"ce4bgqh2rcd13ifvqc5g","pricing_plan_id":"cebpf4jnsgd1na2vs0mg"},{"bike_id":"e85f8e7c-5b40-49d8-800c-63a20e27e177","system_id":"levelo_inurba_marseille","lat":43.2518,"lon":5.37454,"is_reserved":false,"is_disabled":false,"rental_uris":{"android":"levelo://app?vid=e85f8e7c-5b40-49d8-800c-63a20e27e177","ios":"levelo://app?vid=e85f8e7c-5b40-49d8-800c-63a20e27e177"},"vehicle_type_id":"4","last_reported":1774371148,"current_range_meters":8400,"station_id":"","pricing_plan_id":"cebpf4jnsgd1na2vs0mg"},{"bike_id":"49ce49ca-1b6e-4c55-b71c-9f6cd84960c9","system_id":"levelo_inurba_marseille","lat":43.27375,"lon":5.36273,"is_reserved":false,"is_disabled":false,"rental_uris":{"android":"levelo://app?vid=49ce49ca-1b6e-4c55-b71c-9f6cd84960c9","ios":"levelo://app?vid=49ce49ca-1b6e-4c55-b71c-9f6cd84960c9"},"vehicle_type_id":"4","last_reported":1774371148,"current_range_meters":8400,"station_id":"ce4bhbh2rcd13ifvqeo0","pricing_plan_id":"cebpf4jnsgd1na2vs0mg"},{"bike_id":"8edde19f-14bb-4a9f-b9ee-19b95f05ec2f","system_id":"levelo_inurba_marseille","lat":43.33549,"lon":5.37484,"is_reserved":false,"is_disabled":false,"rental_uris":{"android":"levelo://app?vid=8edde19f-14bb-4a9f-b9ee-19b95f05ec2f","ios":"levelo://app?vid=8edde19f-14bb-4a9f-b9ee-19b95f05ec2f"},"vehicle_type_id":"4","last_reported":1774371148,"current_range_meters":8400,"station_id":"st_d46tts09ee8s73dlu43g","pricing_plan_id":"cebpf4jnsgd1na2vs0mg"},{"bike_id":"8d8566de-f03a-4e5e-aa8c-ad2e3c17ab03","system_id":"levelo_inurba_marseille","lat":43.3152,"lon":5.37311,"is_reserved":false,"is_disabled":false,"rental_uris":{"android":"levelo://app?vid=8d8566de-f03a-4e5e-aa8c-ad2e3c17ab03","ios":"levelo://app?vid=8d8566de-f03a-4e5e-aa8c-ad2e3c17ab03"},"vehicle_type_id":"4","last_reported":1774371148,"current_range_meters":8400,"station_id":"ce4bgt12rcd13ifvqcd0","pricing_plan_id":"cebpf4jnsgd1na2vs0mg"},{"bike_id":"61734b4a-3d16-4c36-b0cd-c38fb2dbfc67","system_id":"levelo_inurba_marseille","lat":43.301232,"lon":5.431217,"is_reserved":false,"is_disabled":false,"rental_uris":{"android":"levelo://app?vid=61734b4a-3d16-4c36-b0cd-c38fb2dbfc67","ios":"levelo://app?vid=61734b4a-3d16-4c36-b0cd-c38fb2dbfc67"},"vehicle_type_id":"4","last_reported":1774371148,"current_range_meters":8400,"station_id":"st_d3js3co5814s73ftftug","pricing_plan_id":"cebpf4jnsgd1na2vs0mg"},{"bike_id":"5dccdb74-acf4-4e3d-9229-d6ec1da2f503","system_id":"levelo_inurba_marseille","lat":43.28951,"lon":5.37982,"is_reserved":false,"is_disabled":false,"rental_uris":{"android":"levelo://app?vid=5dccdb74-acf4-4e3d-9229-d6ec1da2f503","ios":"levelo://app?vid=5dccdb74-acf4-4e3d-9229-d6ec1da2f503"},"vehicle_type_id":"4","last_reported":1774371148,"current_range_meters":8800,"station_id":"","pricing_plan_id":"cebpf4jnsgd1na2vs0mg"},{"bike_id":"da6972b3-b161-480b-8ef0-1ff556fc7299","system_id":"levelo_inurba_marseille","lat":43.2379,"lon":5.36627,"is_reserved":false,"is_disabled":false,"rental_uris":{"android":"levelo://app?vid=da6972b3-b161-480b-8ef0-1ff556fc7299","ios":"levelo://app?vid=da6972b3-b161-480b-8ef0-1ff556fc7299"},"vehicle_type_id":"4","last_reported":1774371148,"current_range_meters":8800,"station_id":"st_d3nk18o9ro0c73en2l3g","pricing_plan_id":"cebpf4jnsgd1na2vs0mg"},{"bike_id":"22a24422-8367-44e3-afc2-fd1672c2c7f5","system_id":"levelo_inurba_marseille","lat":43.28482,"lon":5.48395,"is_reserved":false,"is_disabled":false,"rental_uris":{"android":"levelo://app?vid=22a24422-8367-44e3-afc2-fd1672c2c7f5","ios":"levelo://app?vid=22a24422-8367-44e3-afc2-fd1672c2c7f5"},"vehicle_type_id":"4","last_reported":1774371148,"current_range_meters":8800,"station_id":"","pricing_plan_id":"cebpf4jnsgd1na2vs0mg"},{"bike_id":"5cbe01e8-b395-4927-aee5-70510e2b85a4","system_id":"levelo_inurba_marseille","lat":43.2655,"lon":5.37292,"is_reserved":false,"is_disabled":false,"rental_uris":{"android":"levelo://app?vid=5cbe01e8-b395-4927-aee5-70510e2b85a4","ios":"levelo://app?vid=5cbe01e8-b395-4927-aee5-70510e2b85a4"},"vehicle_type_id":"4","last_reported":1774371148,"current_range_meters":8800,"station_id":"ce4bhg12rcd13ifvqf70","pricing_plan_id":"cebpf4jnsgd1na2vs0mg"},{"bike_id":"40bc72ee-a51d-4928-aa8d-a2e8a3bda531","system_id":"levelo_inurba_marseille","lat":43.29975,"lon":5.38491,"is_reserved":false,"is_disabled":false,"rental_uris":{"android":"levelo://app?vid=40bc72ee-a51d-4928-aa8d-a2e8a3bda531","ios":"levelo://app?vid=40bc72ee-a51d-4928-aa8d-a2e8a3bda531"},"vehicle_type_id":"4","last_reported":1774371148,"current_range_meters":8800,"station_id":"ce4bgj92rcd13ifvqbd0","pricing_plan_id":"cebpf4jnsgd1na2vs0mg"},{"bike_id":"d96fc790-a7e1-4e1d-9761-31bc9dfbbb35","system_id":"levelo_inurba_marseille","lat":43.24181,"lon":5.39731,"is_reserved":false,"is_disabled":false,"rental_uris":{"android":"levelo://app?vid=d96fc790-a7e1-4e1d-9761-31bc9dfbbb35","ios":"levelo://app?vid=d96fc790-a7e1-4e1d-9761-31bc9dfbbb35"},"vehicle_type_id":"4","last_reported":1774371148,"current_range_meters":8800,"station_id":"ce4bhn12rcd13ifvqgpg","pricing_plan_id":"cebpf4jnsgd1na2vs0mg"},{"bike_id":"275c8b80-8045-424b-9bd9-7e646e316c8e","system_id":"levelo_inurba_marseille","lat":43.27379,"lon":5.36255,"is_reserved":false,"is_disabled":false,"rental_uris":{"android":"levelo://app?vid=275c8b80-8045-424b-9bd9-7e646e316c8e","ios":"levelo://app?vid=275c8b80-8045-424b-9bd9-7e646e316c8e"},"vehicle_type_id":"4","last_reported":1774371148,"current_range_meters":8800,"station_id":"ce4bhbh2rcd13ifvqeo0","pricing_plan_id":"cebpf4jnsgd1na2vs0mg"},{"bike_id":"62c0eda8-c666-40c1-b62d-71242266f316","system_id":"levelo_inurba_marseille","lat":43.2841,"lon":5.3921,"is_reserved":false,"is_disabled":true,"rental_uris":{"android":"levelo://app?vid=62c0eda8-c666-40c1-b62d-71242266f316","ios":"levelo://app?vid=62c0eda8-c666-40c1-b62d-71242266f316"},"vehicle_type_id":"4","last_reported":1774371148,"current_range_meters":8800,"station_id":"ce4bhoh2rcd13ifvqh5g","pricing_plan_id":"cebpf4jnsgd1na2vs0mg"},{"bike_id":"e8428cd4-c8c7-4157-bdf7-045d0e008d43","system_id":"levelo_inurba_marseille","lat":43.24188,"lon":5.39719,"is_reserved":false,"is_disabled":false,"rental_uris":{"android":"levelo://app?vid=e8428cd4-c8c7-4157-bdf7-045d0e008d43","ios":"levelo://app?vid=e8428cd4-c8c7-4157-bdf7-045d0e008d43"},"vehicle_type_id":"4","last_reported":1774371148,"current_range_meters":8800,"station_id":"ce4bhn12rcd13ifvqgpg","pricing_plan_id":"cebpf4jnsgd1na2vs0mg"},{"bike_id":"6a209565-16db-4aba-85c7-7097837dcc24","system_id":"levelo_inurba_marseille","lat":43.24163,"lon":5.36395,"is_reserved":false,"is_disabled":false,"rental_uris":{"android":"levelo://app?vid=6a209565-16db-4aba-85c7-7097837dcc24","ios":"levelo://app?vid=6a209565-16db-4aba-85c7-7097837dcc24"},"vehicle_type_id":"4","last_reported":1774371148,"current_range_meters":8800,"station_id":"cpo36qri1sfpv3e86is0","pricing_plan_id":"cebpf4jnsgd1na2vs0mg"},{"bike_id":"5de6425c-fc60-46d4-8e51-feb7e0160349","system_id":"levelo_inurba_marseille","lat":43.23142,"lon":5.43738,"is_reserved":false,"is_disabled":false,"rental_uris":{"android":"levelo://app?vid=5de6425c-fc60-46d4-8e51-feb7e0160349","ios":"levelo://app?vid=5de6425c-fc60-46d4-8e51-feb7e0160349"},"vehicle_type_id":"4","last_reported":1774371148,"current_range_meters":8800,"station_id":"ce4bhmp2rcd13ifvqgog","pricing_plan_id":"cebpf4jnsgd1na2vs0mg"},{"bike_id":"6d914d32-dc46-4800-88c0-1bb6dc1399b7","system_id":"levelo_inurba_marseille","lat":43.26221,"lon":5.37457,"is_reserved":false,"is_disabled":false,"rental_uris":{"android":"levelo://app?vid=6d914d32-dc46-4800-88c0-1bb6dc1399b7","ios":"levelo://app?vid=6d914d32-dc46-4800-88c0-1bb6dc1399b7"},"vehicle_type_id":"4","last_reported":1774371148,"current_range_meters":8800,"station_id":"ce4bhgp2rcd13ifvqfc0","pricing_plan_id":"cebpf4jnsgd1na2vs0mg"},{"bike_id":"3524b5fa-87e0-47ae-8242-2301db386b2e","system_id":"levelo_inurba_marseille","lat":43.286119,"lon":5.351028,"is_reserved":false,"is_disabled":false,"rental_uris":{"android":"levelo://app?vid=3524b5fa-87e0-47ae-8242-2301db386b2e","ios":"levelo://app?vid=3524b5fa-87e0-47ae-8242-2301db386b2e"},"vehicle_type_id":"4","last_reported":1774371148,"current_range_meters":8800,"station_id":"ce4bhch2rcd13ifvqeug","pricing_plan_id":"cebpf4jnsgd1na2vs0mg"},{"bike_id":"9e6209c2-8d1d-42b3-b60a-1dbb8e1406fe","system_id":"levelo_inurba_marseille","lat":43.33149,"lon":5.377,"is_reserved":false,"is_disabled":false,"rental_uris":{"android":"levelo://app?vid=9e6209c2-8d1d-42b3-b60a-1dbb8e1406fe","ios":"levelo://app?vid=9e6209c2-8d1d-42b3-b60a-1dbb8e1406fe"},"vehicle_type_id":"4","last_reported":1774371148,"current_range_meters":8800,"station_id":"st_d46cu089ee8s73dldbu0","pricing_plan_id":"cebpf4jnsgd1na2vs0mg"},{"bike_id":"c1f9106a-3914-4ee3-a2cc-97f79a8a1f47","system_id":"levelo_inurba_marseille","lat":43.28107,"lon":5.37846,"is_reserved":false,"is_disabled":false,"rental_uris":{"android":"levelo://app?vid=c1f9106a-3914-4ee3-a2cc-97f79a8a1f47","ios":"levelo://app?vid=c1f9106a-3914-4ee3-a2cc-97f79a8a1f47"},"vehicle_type_id":"4","last_reported":1774371148,"current_range_meters":9200,"station_id":"ce4bha12rcd13ifvqee0","pricing_plan_id":"cebpf4jnsgd1na2vs0mg"},{"bike_id":"12e65865-8c81-42f8-9234-8fbb61f71497","system_id":"levelo_inurba_marseille","lat":43.27612,"lon":5.36113,"is_reserved":false,"is_disabled":false,"rental_uris":{"android":"levelo://app?vid=12e65865-8c81-42f8-9234-8fbb61f71497","ios":"levelo://app?vid=12e65865-8c81-42f8-9234-8fbb61f71497"},"vehicle_type_id":"4","last_reported":1774371148,"current_range_meters":9200,"station_id":"ce4bgj92rcd13ifvqbe0","pricing_plan_id":"cebpf4jnsgd1na2vs0mg"},{"bike_id":"992d461f-8839-4086-b27a-9edc1d38b03d","system_id":"levelo_inurba_marseille","lat":43.3356,"lon":5.37457,"is_reserved":false,"is_disabled":false,"rental_uris":{"android":"levelo://app?vid=992d461f-8839-4086-b27a-9edc1d38b03d","ios":"levelo://app?vid=992d461f-8839-4086-b27a-9edc1d38b03d"},"vehicle_type_id":"4","last_reported":1774371148,"current_range_meters":9200,"station_id":"st_d46tts09ee8s73dlu43g","pricing_plan_id":"cebpf4jnsgd1na2vs0mg"},{"bike_id":"db2ff6dd-ce25-4e9c-be39-df4bf94654dc","system_id":"levelo_inurba_marseille","lat":43.29954,"lon":5.41317,"is_reserved":false,"is_disabled":false,"rental_uris":{"android":"levelo://app?vid=db2ff6dd-ce25-4e9c-be39-df4bf94654dc","ios":"levelo://app?vid=db2ff6dd-ce25-4e9c-be39-df4bf94654dc"},"vehicle_type_id":"4","last_reported":1774371148,"current_range_meters":9200,"station_id":"ce4bhp12rcd13ifvqh9g","pricing_plan_id":"cebpf4jnsgd1na2vs0mg"},{"bike_id":"13f9f031-67ea-407a-a66e-c4b749576cd4","system_id":"levelo_inurba_marseille","lat":43.23957,"lon":5.3663,"is_reserved":false,"is_disabled":false,"rental_uris":{"android":"levelo://app?vid=13f9f031-67ea-407a-a66e-c4b749576cd4","ios":"levelo://app?vid=13f9f031-67ea-407a-a66e-c4b749576cd4"},"vehicle_type_id":"4","last_reported":1774371148,"current_range_meters":9200,"station_id":"ce4bhi12rcd13ifvqfp0","pricing_plan_id":"cebpf4jnsgd1na2vs0mg"},{"bike_id":"00e4ac75-1c7a-424c-9527-97d0954da386","system_id":"levelo_inurba_marseille","lat":43.26208,"lon":5.37435,"is_reserved":false,"is_disabled":false,"rental_uris":{"android":"levelo://app?vid=00e4ac75-1c7a-424c-9527-97d0954da386","ios":"levelo://app?vid=00e4ac75-1c7a-424c-9527-97d0954da386"},"vehicle_type_id":"4","last_reported":1774371148,"current_range_meters":9200,"station_id":"ce4bhgp2rcd13ifvqfc0","pricing_plan_id":"cebpf4jnsgd1na2vs0mg"},{"bike_id":"29f49a32-ba08-40ef-839e-89650b416d04","system_id":"levelo_inurba_marseille","lat":43.31084,"lon":5.37879,"is_reserved":false,"is_disabled":false,"rental_uris":{"android":"levelo://app?vid=29f49a32-ba08-40ef-839e-89650b416d04","ios":"levelo://app?vid=29f49a32-ba08-40ef-839e-89650b416d04"},"vehicle_type_id":"4","last_reported":1774371148,"current_range_meters":9200,"station_id":"","pricing_plan_id":"cebpf4jnsgd1na2vs0mg"},{"bike_id":"3b9d5438-b402-41a6-a907-85ba20d144db","system_id":"levelo_inurba_marseille","lat":43.30297,"lon":5.39223,"is_reserved":false,"is_disabled":false,"rental_uris":{"android":"levelo://app?vid=3b9d5438-b402-41a6-a907-85ba20d144db","ios":"levelo://app?vid=3b9d5438-b402-41a6-a907-85ba20d144db"},"vehicle_type_id":"4","last_reported":1774371148,"current_range_meters":9200,"station_id":"ce4bgkh2rcd13ifvqbk0","pricing_plan_id":"cebpf4jnsgd1na2vs0mg"},{"bike_id":"168ccf17-3133-4472-85a2-824035dc8266","system_id":"levelo_inurba_marseille","lat":43.22931,"lon":5.35396,"is_reserved":false,"is_disabled":false,"rental_uris":{"android":"levelo://app?vid=168ccf17-3133-4472-85a2-824035dc8266","ios":"levelo://app?vid=168ccf17-3133-4472-85a2-824035dc8266"},"vehicle_type_id":"4","last_reported":1774371148,"current_range_meters":9200,"station_id":"cpo3532slgdg3j2ikp40","pricing_plan_id":"cebpf4jnsgd1na2vs0mg"},{"bike_id":"fde7c990-ea71-4125-9b7f-4cda0f7e1677","system_id":"levelo_inurba_marseille","lat":43.23789,"lon":5.3663,"is_reserved":false,"is_disabled":false,"rental_uris":{"android":"levelo://app?vid=fde7c990-ea71-4125-9b7f-4cda0f7e1677","ios":"levelo://app?vid=fde7c990-ea71-4125-9b7f-4cda0f7e1677"},"vehicle_type_id":"4","last_reported":1774371148,"current_range_meters":9200,"station_id":"st_d3nk18o9ro0c73en2l3g","pricing_plan_id":"cebpf4jnsgd1na2vs0mg"},{"bike_id":"adaf8e00-ca2c-49b5-9b35-6749da32aa87","system_id":"levelo_inurba_marseille","lat":43.33556,"lon":5.37476,"is_reserved":false,"is_disabled":false,"rental_uris":{"android":"levelo://app?vid=adaf8e00-ca2c-49b5-9b35-6749da32aa87","ios":"levelo://app?vid=adaf8e00-ca2c-49b5-9b35-6749da32aa87"},"vehicle_type_id":"4","last_reported":1774371148,"current_range_meters":9200,"station_id":"st_d46tts09ee8s73dlu43g","pricing_plan_id":"cebpf4jnsgd1na2vs0mg"},{"bike_id":"489b1f47-9bf9-4f10-90f5-3b4dff230700","system_id":"levelo_inurba_marseille","lat":43.23772,"lon":5.36665,"is_reserved":false,"is_disabled":false,"rental_uris":{"android":"levelo://app?vid=489b1f47-9bf9-4f10-90f5-3b4dff230700","ios":"levelo://app?vid=489b1f47-9bf9-4f10-90f5-3b4dff230700"},"vehicle_type_id":"4","last_reported":1774371148,"current_range_meters":9200,"station_id":"st_d3nk18o9ro0c73en2l3g","pricing_plan_id":"cebpf4jnsgd1na2vs0mg"},{"bike_id":"5e58077e-a12b-4fa3-b8bc-634a7bbcc17e","system_id":"levelo_inurba_marseille","lat":43.27213,"lon":5.39179,"is_reserved":false,"is_disabled":false,"rental_uris":{"android":"levelo://app?vid=5e58077e-a12b-4fa3-b8bc-634a7bbcc17e","ios":"levelo://app?vid=5e58077e-a12b-4fa3-b8bc-634a7bbcc17e"},"vehicle_type_id":"4","last_reported":1774371148,"current_range_meters":9200,"station_id":"ce4bhhp2rcd13ifvqfm0","pricing_plan_id":"cebpf4jnsgd1na2vs0mg"},{"bike_id":"88c03bdb-ed38-4cc8-ae19-6496c9aa140c","system_id":"levelo_inurba_marseille","lat":43.30429,"lon":5.3975,"is_reserved":false,"is_disabled":false,"rental_uris":{"android":"levelo://app?vid=88c03bdb-ed38-4cc8-ae19-6496c9aa140c","ios":"levelo://app?vid=88c03bdb-ed38-4cc8-ae19-6496c9aa140c"},"vehicle_type_id":"4","last_reported":1774371148,"current_range_meters":9200,"station_id":"ce4bh092rcd13ifvqd20","pricing_plan_id":"cebpf4jnsgd1na2vs0mg"},{"bike_id":"82555c77-61ae-4a1b-bb5d-44a30f778f02","system_id":"levelo_inurba_marseille","lat":43.2465,"lon":5.38897,"is_reserved":false,"is_disabled":false,"rental_uris":{"android":"levelo://app?vid=82555c77-61ae-4a1b-bb5d-44a30f778f02","ios":"levelo://app?vid=82555c77-61ae-4a1b-bb5d-44a30f778f02"},"vehicle_type_id":"4","last_reported":1774371148,"current_range_meters":9200,"station_id":"ce4bhg12rcd13ifvqf60","pricing_plan_id":"cebpf4jnsgd1na2vs0mg"},{"bike_id":"2f430c62-15bb-430c-969c-56b5339d66a3","system_id":"levelo_inurba_marseille","lat":43.28531,"lon":5.44105,"is_reserved":false,"is_disabled":false,"rental_uris":{"android":"levelo://app?vid=2f430c62-15bb-430c-969c-56b5339d66a3","ios":"levelo://app?vid=2f430c62-15bb-430c-969c-56b5339d66a3"},"vehicle_type_id":"4","last_reported":1774371148,"current_range_meters":9200,"station_id":"st_d3j3df2ikq2c7380ej80","pricing_plan_id":"cebpf4jnsgd1na2vs0mg"},{"bike_id":"b9d157e4-adb0-4d64-b93d-349f42c39fcf","system_id":"levelo_inurba_marseille","lat":43.3188,"lon":5.368,"is_reserved":false,"is_disabled":false,"rental_uris":{"android":"levelo://app?vid=b9d157e4-adb0-4d64-b93d-349f42c39fcf","ios":"levelo://app?vid=b9d157e4-adb0-4d64-b93d-349f42c39fcf"},"vehicle_type_id":"4","last_reported":1774371148,"current_range_meters":9200,"station_id":"st_d6o2h0d0559c73evc1b0","pricing_plan_id":"cebpf4jnsgd1na2vs0mg"},{"bike_id":"03f4ad41-bade-42bc-b0db-ecc53c817ce7","system_id":"levelo_inurba_marseille","lat":43.28938,"lon":5.39629,"is_reserved":false,"is_disabled":false,"rental_uris":{"android":"levelo://app?vid=03f4ad41-bade-42bc-b0db-ecc53c817ce7","ios":"levelo://app?vid=03f4ad41-bade-42bc-b0db-ecc53c817ce7"},"vehicle_type_id":"4","last_reported":1774371148,"current_range_meters":9200,"station_id":"ce4bh3h2rcd13ifvqdn0","pricing_plan_id":"cebpf4jnsgd1na2vs0mg"},{"bike_id":"3c68b8c9-7b48-4a5e-96da-c48a047e8ef3","system_id":"levelo_inurba_marseille","lat":43.32452,"lon":5.36621,"is_reserved":false,"is_disabled":false,"rental_uris":{"android":"levelo://app?vid=3c68b8c9-7b48-4a5e-96da-c48a047e8ef3","ios":"levelo://app?vid=3c68b8c9-7b48-4a5e-96da-c48a047e8ef3"},"vehicle_type_id":"4","last_reported":1774371148,"current_range_meters":9600,"station_id":"","pricing_plan_id":"cebpf4jnsgd1na2vs0mg"},{"bike_id":"4afef56e-ee3d-4a68-9c6e-6fb1341cc15d","system_id":"levelo_inurba_marseille","lat":43.2254,"lon":5.34829,"is_reserved":false,"is_disabled":false,"rental_uris":{"android":"levelo://app?vid=4afef56e-ee3d-4a68-9c6e-6fb1341cc15d","ios":"levelo://app?vid=4afef56e-ee3d-4a68-9c6e-6fb1341cc15d"},"vehicle_type_id":"4","last_reported":1774371148,"current_range_meters":9600,"station_id":"","pricing_plan_id":"cebpf4jnsgd1na2vs0mg"},{"bike_id":"526f2898-bc02-4198-9596-2aa2b29dfa51","system_id":"levelo_inurba_marseille","lat":43.23178,"lon":5.39999,"is_reserved":false,"is_disabled":false,"rental_uris":{"android":"levelo://app?vid=526f2898-bc02-4198-9596-2aa2b29dfa51","ios":"levelo://app?vid=526f2898-bc02-4198-9596-2aa2b29dfa51"},"vehicle_type_id":"4","last_reported":1774371148,"current_range_meters":9600,"station_id":"ce4bhn12rcd13ifvqgqg","pricing_plan_id":"cebpf4jnsgd1na2vs0mg"},{"bike_id":"a85d659f-cd3a-4144-836a-b7dd92a324cc","system_id":"levelo_inurba_marseille","lat":43.23812,"lon":5.36636,"is_reserved":false,"is_disabled":false,"rental_uris":{"android":"levelo://app?vid=a85d659f-cd3a-4144-836a-b7dd92a324cc","ios":"levelo://app?vid=a85d659f-cd3a-4144-836a-b7dd92a324cc"},"vehicle_type_id":"4","last_reported":1774371148,"current_range_meters":9600,"station_id":"st_d3nk18o9ro0c73en2l3g","pricing_plan_id":"cebpf4jnsgd1na2vs0mg"},{"bike_id":"866b1c87-edf5-40a8-8ca0-c6aceda22bb3","system_id":"levelo_inurba_marseille","lat":43.2791,"lon":5.39578,"is_reserved":false,"is_disabled":true,"rental_uris":{"android":"levelo://app?vid=866b1c87-edf5-40a8-8ca0-c6aceda22bb3","ios":"levelo://app?vid=866b1c87-edf5-40a8-8ca0-c6aceda22bb3"},"vehicle_type_id":"4","last_reported":1774371148,"current_range_meters":9600,"station_id":"ce4bhf92rcd13ifvqf40","pricing_plan_id":"cebpf4jnsgd1na2vs0mg"},{"bike_id":"db23ebda-ef7b-4738-b1a2-70195b447c20","system_id":"levelo_inurba_marseille","lat":43.22569,"lon":5.41648,"is_reserved":false,"is_disabled":false,"rental_uris":{"android":"levelo://app?vid=db23ebda-ef7b-4738-b1a2-70195b447c20","ios":"levelo://app?vid=db23ebda-ef7b-4738-b1a2-70195b447c20"},"vehicle_type_id":"4","last_reported":1774371148,"current_range_meters":9600,"station_id":"st_d2o4gvlbi1j2169b742g","pricing_plan_id":"cebpf4jnsgd1na2vs0mg"},{"bike_id":"451e822b-d17c-41b3-aa86-e9da4e66ded2","system_id":"levelo_inurba_marseille","lat":43.23966,"lon":5.36628,"is_reserved":false,"is_disabled":false,"rental_uris":{"android":"levelo://app?vid=451e822b-d17c-41b3-aa86-e9da4e66ded2","ios":"levelo://app?vid=451e822b-d17c-41b3-aa86-e9da4e66ded2"},"vehicle_type_id":"4","last_reported":1774371148,"current_range_meters":9600,"station_id":"ce4bhi12rcd13ifvqfp0","pricing_plan_id":"cebpf4jnsgd1na2vs0mg"},{"bike_id":"81afbade-9b61-4865-965d-d9c81a599521","system_id":"levelo_inurba_marseille","lat":43.23778,"lon":5.36636,"is_reserved":false,"is_disabled":false,"rental_uris":{"android":"levelo://app?vid=81afbade-9b61-4865-965d-d9c81a599521","ios":"levelo://app?vid=81afbade-9b61-4865-965d-d9c81a599521"},"vehicle_type_id":"4","last_reported":1774371148,"current_range_meters":9600,"station_id":"st_d3nk18o9ro0c73en2l3g","pricing_plan_id":"cebpf4jnsgd1na2vs0mg"},{"bike_id":"b47eeda2-9c3c-413e-b6c0-d1b5f535aab8","system_id":"levelo_inurba_marseille","lat":43.27903,"lon":5.38015,"is_reserved":false,"is_disabled":false,"rental_uris":{"android":"levelo://app?vid=b47eeda2-9c3c-413e-b6c0-d1b5f535aab8","ios":"levelo://app?vid=b47eeda2-9c3c-413e-b6c0-d1b5f535aab8"},"vehicle_type_id":"4","last_reported":1774371148,"current_range_meters":10000,"station_id":"ce4bhf92rcd13ifvqf50","pricing_plan_id":"cebpf4jnsgd1na2vs0mg"},{"bike_id":"f7964fa2-d7a6-41b0-97f9-1f4fa6b33c53","system_id":"levelo_inurba_marseille","lat":43.25336,"lon":5.42171,"is_reserved":false,"is_disabled":false,"rental_uris":{"android":"levelo://app?vid=f7964fa2-d7a6-41b0-97f9-1f4fa6b33c53","ios":"levelo://app?vid=f7964fa2-d7a6-41b0-97f9-1f4fa6b33c53"},"vehicle_type_id":"4","last_reported":1774371148,"current_range_meters":10000,"station_id":"","pricing_plan_id":"cebpf4jnsgd1na2vs0mg"},{"bike_id":"f4e12de3-12ee-449c-bb7b-82b4b799a0fa","system_id":"levelo_inurba_marseille","lat":43.246511,"lon":5.388933,"is_reserved":false,"is_disabled":true,"rental_uris":{"android":"levelo://app?vid=f4e12de3-12ee-449c-bb7b-82b4b799a0fa","ios":"levelo://app?vid=f4e12de3-12ee-449c-bb7b-82b4b799a0fa"},"vehicle_type_id":"4","last_reported":1774371148,"current_range_meters":10000,"station_id":"ce4bgg92rcd13ifvqb30","pricing_plan_id":"cebpf4jnsgd1na2vs0mg"},{"bike_id":"a42d69ec-9635-477a-a61d-5301e4f014fe","system_id":"levelo_inurba_marseille","lat":43.30536,"lon":5.36747,"is_reserved":false,"is_disabled":false,"rental_uris":{"android":"levelo://app?vid=a42d69ec-9635-477a-a61d-5301e4f014fe","ios":"levelo://app?vid=a42d69ec-9635-477a-a61d-5301e4f014fe"},"vehicle_type_id":"4","last_reported":1774371148,"current_range_meters":10000,"station_id":"ce4bgrp2rcd13ifvqc9g","pricing_plan_id":"cebpf4jnsgd1na2vs0mg"},{"bike_id":"fdd8bf84-b2fe-4508-9572-06ea662fa5ac","system_id":"levelo_inurba_marseille","lat":43.2848,"lon":5.48397,"is_reserved":false,"is_disabled":false,"rental_uris":{"android":"levelo://app?vid=fdd8bf84-b2fe-4508-9572-06ea662fa5ac","ios":"levelo://app?vid=fdd8bf84-b2fe-4508-9572-06ea662fa5ac"},"vehicle_type_id":"4","last_reported":1774371148,"current_range_meters":10000,"station_id":"","pricing_plan_id":"cebpf4jnsgd1na2vs0mg"},{"bike_id":"d8ed0b10-e0f6-49ae-862c-76f78829e12c","system_id":"levelo_inurba_marseille","lat":43.27383,"lon":5.3626,"is_reserved":false,"is_disabled":false,"rental_uris":{"android":"levelo://app?vid=d8ed0b10-e0f6-49ae-862c-76f78829e12c","ios":"levelo://app?vid=d8ed0b10-e0f6-49ae-862c-76f78829e12c"},"vehicle_type_id":"4","last_reported":1774371148,"current_range_meters":10000,"station_id":"ce4bhbh2rcd13ifvqeo0","pricing_plan_id":"cebpf4jnsgd1na2vs0mg"},{"bike_id":"7ea6fdc2-331a-49a0-86c0-bac72acd4c08","system_id":"levelo_inurba_marseille","lat":43.28864,"lon":5.42521,"is_reserved":false,"is_disabled":false,"rental_uris":{"android":"levelo://app?vid=7ea6fdc2-331a-49a0-86c0-bac72acd4c08","ios":"levelo://app?vid=7ea6fdc2-331a-49a0-86c0-bac72acd4c08"},"vehicle_type_id":"4","last_reported":1774371148,"current_range_meters":10000,"station_id":"","pricing_plan_id":"cebpf4jnsgd1na2vs0mg"},{"bike_id":"5487f2c1-c4a8-4daf-8490-88d7b84744cf","system_id":"levelo_inurba_marseille","lat":43.30302,"lon":5.36914,"is_reserved":false,"is_disabled":false,"rental_uris":{"android":"levelo://app?vid=5487f2c1-c4a8-4daf-8490-88d7b84744cf","ios":"levelo://app?vid=5487f2c1-c4a8-4daf-8490-88d7b84744cf"},"vehicle_type_id":"4","last_reported":1774371148,"current_range_meters":10000,"station_id":"ce4bgqh2rcd13ifvqc5g","pricing_plan_id":"cebpf4jnsgd1na2vs0mg"},{"bike_id":"484f2abe-81d9-4c3a-92bb-99d4e164fc66","system_id":"levelo_inurba_marseille","lat":43.27508,"lon":5.41597,"is_reserved":false,"is_disabled":false,"rental_uris":{"android":"levelo://app?vid=484f2abe-81d9-4c3a-92bb-99d4e164fc66","ios":"levelo://app?vid=484f2abe-81d9-4c3a-92bb-99d4e164fc66"},"vehicle_type_id":"4","last_reported":1774371148,"current_range_meters":10000,"station_id":"st_d6im8g6chgec73a5pndg","pricing_plan_id":"cebpf4jnsgd1na2vs0mg"},{"bike_id":"17b96b48-56fc-4c83-a3fe-056b6ca360e9","system_id":"levelo_inurba_marseille","lat":43.27807,"lon":5.40721,"is_reserved":false,"is_disabled":false,"rental_uris":{"android":"levelo://app?vid=17b96b48-56fc-4c83-a3fe-056b6ca360e9","ios":"levelo://app?vid=17b96b48-56fc-4c83-a3fe-056b6ca360e9"},"vehicle_type_id":"4","last_reported":1774371148,"current_range_meters":10000,"station_id":"ce4bhnh2rcd13ifvqgtg","pricing_plan_id":"cebpf4jnsgd1na2vs0mg"},{"bike_id":"d17c2434-59f5-4359-b7a7-acc3b03cdd34","system_id":"levelo_inurba_marseille","lat":43.30794,"lon":5.38159,"is_reserved":false,"is_disabled":false,"rental_uris":{"android":"levelo://app?vid=d17c2434-59f5-4359-b7a7-acc3b03cdd34","ios":"levelo://app?vid=d17c2434-59f5-4359-b7a7-acc3b03cdd34"},"vehicle_type_id":"4","last_reported":1774371148,"current_range_meters":10000,"station_id":"ce4bgt12rcd13ifvqce0","pricing_plan_id":"cebpf4jnsgd1na2vs0mg"},{"bike_id":"79ae3a92-e4ac-43b1-8e9c-12ba7ffcf801","system_id":"levelo_inurba_marseille","lat":43.29294,"lon":5.37461,"is_reserved":false,"is_disabled":false,"rental_uris":{"android":"levelo://app?vid=79ae3a92-e4ac-43b1-8e9c-12ba7ffcf801","ios":"levelo://app?vid=79ae3a92-e4ac-43b1-8e9c-12ba7ffcf801"},"vehicle_type_id":"4","last_reported":1774371148,"current_range_meters":10000,"station_id":"ce4bgi12rcd13ifvqb70","pricing_plan_id":"cebpf4jnsgd1na2vs0mg"},{"bike_id":"ab7c1082-68cb-4ea0-afba-6e629ed2db65","system_id":"levelo_inurba_marseille","lat":43.225333,"lon":5.348262,"is_reserved":false,"is_disabled":false,"rental_uris":{"android":"levelo://app?vid=ab7c1082-68cb-4ea0-afba-6e629ed2db65","ios":"levelo://app?vid=ab7c1082-68cb-4ea0-afba-6e629ed2db65"},"vehicle_type_id":"4","last_reported":1774371148,"current_range_meters":10000,"station_id":"","pricing_plan_id":"cebpf4jnsgd1na2vs0mg"},{"bike_id":"97d0dc26-e3ac-4912-949b-510c6ab51087","system_id":"levelo_inurba_marseille","lat":43.28018,"lon":5.3691,"is_reserved":false,"is_disabled":false,"rental_uris":{"android":"levelo://app?vid=97d0dc26-e3ac-4912-949b-510c6ab51087","ios":"levelo://app?vid=97d0dc26-e3ac-4912-949b-510c6ab51087"},"vehicle_type_id":"4","last_reported":1774371148,"current_range_meters":10000,"station_id":"ce4bha12rcd13ifvqef0","pricing_plan_id":"cebpf4jnsgd1na2vs0mg"},{"bike_id":"743383d3-68fd-4243-85ba-4364b2e7a080","system_id":"levelo_inurba_marseille","lat":43.2453,"lon":5.39511,"is_reserved":false,"is_disabled":true,"rental_uris":{"android":"levelo://app?vid=743383d3-68fd-4243-85ba-4364b2e7a080","ios":"levelo://app?vid=743383d3-68fd-4243-85ba-4364b2e7a080"},"vehicle_type_id":"4","last_reported":1774371148,"current_range_meters":10000,"station_id":"ce4bhlp2rcd13ifvqgjg","pricing_plan_id":"cebpf4jnsgd1na2vs0mg"},{"bike_id":"2ffcc2dd-acc7-4c1f-83fe-76a51bfe4c59","system_id":"levelo_inurba_marseille","lat":43.23786,"lon":5.36633,"is_reserved":false,"is_disabled":false,"rental_uris":{"android":"levelo://app?vid=2ffcc2dd-acc7-4c1f-83fe-76a51bfe4c59","ios":"levelo://app?vid=2ffcc2dd-acc7-4c1f-83fe-76a51bfe4c59"},"vehicle_type_id":"4","last_reported":1774371148,"current_range_meters":10000,"station_id":"st_d3nk18o9ro0c73en2l3g","pricing_plan_id":"cebpf4jnsgd1na2vs0mg"},{"bike_id":"6e3699ce-a5fc-40a0-aaae-9224abdfe566","system_id":"levelo_inurba_marseille","lat":43.29987,"lon":5.37164,"is_reserved":false,"is_disabled":false,"rental_uris":{"android":"levelo://app?vid=6e3699ce-a5fc-40a0-aaae-9224abdfe566","ios":"levelo://app?vid=6e3699ce-a5fc-40a0-aaae-9224abdfe566"},"vehicle_type_id":"4","last_reported":1774371148,"current_range_meters":10000,"station_id":"ce4bgr92rcd13ifvqc7g","pricing_plan_id":"cebpf4jnsgd1na2vs0mg"},{"bike_id":"3969d9ff-e51e-44fd-8e71-b3c87bcabc26","system_id":"levelo_inurba_marseille","lat":43.25833,"lon":5.39443,"is_reserved":false,"is_disabled":false,"rental_uris":{"android":"levelo://app?vid=3969d9ff-e51e-44fd-8e71-b3c87bcabc26","ios":"levelo://app?vid=3969d9ff-e51e-44fd-8e71-b3c87bcabc26"},"vehicle_type_id":"4","last_reported":1774371148,"current_range_meters":10000,"station_id":"ce4bhip2rcd13ifvqft0","pricing_plan_id":"cebpf4jnsgd1na2vs0mg"},{"bike_id":"e17297ef-249f-42f6-b72d-dd4e8875bdfd","system_id":"levelo_inurba_marseille","lat":43.27216,"lon":5.39177,"is_reserved":false,"is_disabled":false,"rental_uris":{"android":"levelo://app?vid=e17297ef-249f-42f6-b72d-dd4e8875bdfd","ios":"levelo://app?vid=e17297ef-249f-42f6-b72d-dd4e8875bdfd"},"vehicle_type_id":"4","last_reported":1774371148,"current_range_meters":10000,"station_id":"ce4bhhp2rcd13ifvqfm0","pricing_plan_id":"cebpf4jnsgd1na2vs0mg"},{"bike_id":"0483e660-b7ec-4061-bd5d-8e1b6a2b8aa8","system_id":"levelo_inurba_marseille","lat":43.27362,"lon":5.42412,"is_reserved":false,"is_disabled":false,"rental_uris":{"android":"levelo://app?vid=0483e660-b7ec-4061-bd5d-8e1b6a2b8aa8","ios":"levelo://app?vid=0483e660-b7ec-4061-bd5d-8e1b6a2b8aa8"},"vehicle_type_id":"4","last_reported":1774371148,"current_range_meters":10000,"station_id":"","pricing_plan_id":"cebpf4jnsgd1na2vs0mg"},{"bike_id":"49490ace-ba2f-436d-9317-fb70749e1f0f","system_id":"levelo_inurba_marseille","lat":43.29618,"lon":5.37722,"is_reserved":false,"is_disabled":false,"rental_uris":{"android":"levelo://app?vid=49490ace-ba2f-436d-9317-fb70749e1f0f","ios":"levelo://app?vid=49490ace-ba2f-436d-9317-fb70749e1f0f"},"vehicle_type_id":"4","last_reported":1774371148,"current_range_meters":10800,"station_id":"ce4bgi92rcd13ifvqb90","pricing_plan_id":"cebpf4jnsgd1na2vs0mg"},{"bike_id":"f930c486-08df-4a84-b7c3-ffc4d1c80abe","system_id":"levelo_inurba_marseille","lat":43.24649,"lon":5.38897,"is_reserved":false,"is_disabled":false,"rental_uris":{"android":"levelo://app?vid=f930c486-08df-4a84-b7c3-ffc4d1c80abe","ios":"levelo://app?vid=f930c486-08df-4a84-b7c3-ffc4d1c80abe"},"vehicle_type_id":"4","last_reported":1774371148,"current_range_meters":10800,"station_id":"ce4bhg12rcd13ifvqf60","pricing_plan_id":"cebpf4jnsgd1na2vs0mg"},{"bike_id":"390642d5-ebc3-4bda-abf8-55b0c8070dc5","system_id":"levelo_inurba_marseille","lat":43.26661,"lon":5.38308,"is_reserved":false,"is_disabled":true,"rental_uris":{"android":"levelo://app?vid=390642d5-ebc3-4bda-abf8-55b0c8070dc5","ios":"levelo://app?vid=390642d5-ebc3-4bda-abf8-55b0c8070dc5"},"vehicle_type_id":"4","last_reported":1774371148,"current_range_meters":10800,"station_id":"ce4bhg92rcd13ifvqf90","pricing_plan_id":"cebpf4jnsgd1na2vs0mg"},{"bike_id":"a9fcd02c-7b6b-4ad8-a39d-d88606ee3ac0","system_id":"levelo_inurba_marseille","lat":43.25003,"lon":5.3894,"is_reserved":false,"is_disabled":false,"rental_uris":{"android":"levelo://app?vid=a9fcd02c-7b6b-4ad8-a39d-d88606ee3ac0","ios":"levelo://app?vid=a9fcd02c-7b6b-4ad8-a39d-d88606ee3ac0"},"vehicle_type_id":"4","last_reported":1774371148,"current_range_meters":10800,"station_id":"ce4bhgp2rcd13ifvqfd0","pricing_plan_id":"cebpf4jnsgd1na2vs0mg"},{"bike_id":"17980c3f-8dd2-413d-a361-0d7c4f15b855","system_id":"levelo_inurba_marseille","lat":43.25865,"lon":5.39905,"is_reserved":false,"is_disabled":false,"rental_uris":{"android":"levelo://app?vid=17980c3f-8dd2-413d-a361-0d7c4f15b855","ios":"levelo://app?vid=17980c3f-8dd2-413d-a361-0d7c4f15b855"},"vehicle_type_id":"4","last_reported":1774371148,"current_range_meters":10800,"station_id":"ce4bhl92rcd13ifvqghg","pricing_plan_id":"cebpf4jnsgd1na2vs0mg"},{"bike_id":"d64c94f3-e268-41de-bac3-5a218887d9b5","system_id":"levelo_inurba_marseille","lat":43.28462,"lon":5.48411,"is_reserved":false,"is_disabled":false,"rental_uris":{"android":"levelo://app?vid=d64c94f3-e268-41de-bac3-5a218887d9b5","ios":"levelo://app?vid=d64c94f3-e268-41de-bac3-5a218887d9b5"},"vehicle_type_id":"4","last_reported":1774371148,"current_range_meters":10800,"station_id":"","pricing_plan_id":"cebpf4jnsgd1na2vs0mg"},{"bike_id":"89673b48-b93e-49b1-91bc-4a5460ed425e","system_id":"levelo_inurba_marseille","lat":43.29897,"lon":5.43671,"is_reserved":false,"is_disabled":false,"rental_uris":{"android":"levelo://app?vid=89673b48-b93e-49b1-91bc-4a5460ed425e","ios":"levelo://app?vid=89673b48-b93e-49b1-91bc-4a5460ed425e"},"vehicle_type_id":"4","last_reported":1774371148,"current_range_meters":10800,"station_id":"ce4bhpp2rcd13ifvqhfg","pricing_plan_id":"cebpf4jnsgd1na2vs0mg"},{"bike_id":"8fd3ce90-8293-4378-9a64-8d618456348a","system_id":"levelo_inurba_marseille","lat":43.2705,"lon":5.40261,"is_reserved":false,"is_disabled":false,"rental_uris":{"android":"levelo://app?vid=8fd3ce90-8293-4378-9a64-8d618456348a","ios":"levelo://app?vid=8fd3ce90-8293-4378-9a64-8d618456348a"},