{"last_updated":1704017230,"ttl":30,"version":"2.2","data":{"bikes":[{"bike_id":"1ed43ed3-3c89-458f-8822-a511383f4aac","system_id":"levelo_inurba_marseille","lat":43.31341,"lon":5.367098,"is_reserved":false,"is_disabled":false,"rental_uris":{"android":"levelo://app?vid=1ed43ed3-3c89-458f-8822-a511383f4aac","ios":"levelo://app?vid=1ed43ed3-3c89-458f-8822-a511383f4aac"},"vehicle_type_id":"4","last_reported":1704017230,"current_range_meters":30000,"station_id":"ce4bgr92rcd13ifvqc6g","pricing_plan_id":"free"},{"bike_id":"1728a108-2aa2-4435-8fba-857b2ae029c0","system_id":"levelo_inurba_marseille","lat":43.312239,"lon":5.368562,"is_reserved":false,"is_disabled":false,"rental_uris":{"android":"levelo://app?vid=1728a108-2aa2-4435-8fba-857b2ae029c0","ios":"levelo://app?vid=1728a108-2aa2-4435-8fba-857b2ae029c0"},"vehicle_type_id":"4","last_reported":1704017230,"current_range_meters":26000,"station_id":"ce4bgl92rcd13ifvqbq0","pricing_plan_id":"free"},{"bike_id":"5bad2182-1799-46e1-8c99-b3765ebfb5ff","system_id":"levelo_inurba_marseille","lat":43.312239,"lon":5.368562,"is_reserved":false,"is_disabled":false,"rental_uris":{"android":"levelo://app?vid=5bad2182-1799-46e1-8c99-b3765ebfb5ff","ios":"levelo://app?vid=5bad2182-1799-46e1-8c99-b3765ebfb5ff"},"vehicle_type_id":"4","last_reported":1704017230,"current_range_meters":28800,"station_id":"ce4bgl92rcd13ifvqbq0","pricing_plan_id":"free"},{"bike_id":"920832e6-f461-4c77-a402-a4b39a3847d4","system_id":"levelo_inurba_marseille","lat":43.30907,"lon":5.36844,"is_reserved":false,"is_disabled":false,"rental_uris":{"android":"levelo://app?vid=920832e6-f461-4c77-a402-a4b39a3847d4","ios":"levelo://app?vid=920832e6-f461-4c77-a402-a4b39a3847d4"},"vehicle_type_id":"4","last_reported":1704017230,"current_range_meters":31200,"station_id":"ce4bgn92rcd13ifvqbvg","pricing_plan_id":"free"},{"bike_id":"695de637-5167-44e3-81f7-4a489281a598","system_id":"levelo_inurba_marseille","lat":43.309076,"lon":5.368465,"is_reserved":false,"is_disabled":false,"rental_uris":{"android":"levelo://app?vid=695de637-5167-44e3-81f7-4a489281a598","ios":"levelo://app?vid=695de637-5167-44e3-81f7-4a489281a598"},"vehicle_type_id":"4","last_reported":1704017230,"current_range_meters":16400,"station_id":"ce4bgn92rcd13ifvqbvg","pricing_plan_id":"free"},{"bike_id":"a23b1e95-1fc8-49a1-ac0c-1a1f9ddd8486","system_id":"levelo_inurba_marseille","lat":43.314811,"lon":5.373103,"is_reserved":false,"is_disabled":false,"rental_uris":{"android":"levelo://app?vid=a23b1e95-1fc8-49a1-ac0c-1a1f9ddd8486","ios":"levelo://app?vid=a23b1e95-1fc8-49a1-ac0c-1a1f9ddd8486"},"vehicle_type_id":"4","last_reported":1704017230,"current_range_meters":26000,"station_id":"ce4bgt12rcd13ifvqcd0","pricing_plan_id":"free"},{"bike_id":"63749c65-a3ae-4dda-b16a-f3f884850e3c","system_id":"levelo_inurba_marseille","lat":43.314811,"lon":5.373103,"is_reserved":false,"is_disabled":false,"rental_uris":{"android":"levelo://app?vid=63749c65-a3ae-4dda-b16a-f3f884850e3c","ios":"levelo://app?vid=63749c65-a3ae-4dda-b16a-f3f884850e3c"},"vehicle_type_id":"4","last_reported":1704017230,"current_range_meters":30400,"station_id":"ce4bgt12rcd13ifvqcd0","pricing_plan_id":"free"},{"bike_id":"03db1e88-4195-42e9-a4e5-42ea8fbf139c","system_id":"levelo_inurba_marseille","lat":43.31496,"lon":5.37296,"is_reserved":false,"is_disabled":false,"rental_uris":{"android":"levelo://app?vid=03db1e88-4195-42e9-a4e5-42ea8fbf139c","ios":"levelo://app?vid=03db1e88-4195-42e9-a4e5-42ea8fbf139c"},"vehicle_type_id":"4","last_reported":1704017230,"current_range_meters":30800,"station_id":"ce4bgt12rcd13ifvqcd0","pricing_plan_id":"free"},{"bike_id":"2d053efa-2cc9-4008-a7b7-8172bcb46fad","system_id":"levelo_inurba_marseille","lat":43.314811,"lon":5.373103,"is_reserved":false,"is_disabled":false,"rental_uris":{"android":"levelo://app?vid=2d053efa-2cc9-4008-a7b7-8172bcb46fad","ios":"levelo://app?vid=2d053efa-2cc9-4008-a7b7-8172bcb46fad"},"vehicle_type_id":"4","last_reported":1704017230,"current_range_meters":31200,"station_id":"ce4bgt12rcd13ifvqcd0","pricing_plan_id":"free"},{"bike_id":"2bf1159c-4b34-4bc3-a8b5-156be571c011","system_id":"levelo_inurba_marseille","lat":43.307843,"lon":5.373431,"is_reserved":false,"is_disabled":false,"rental_uris":{"android":"levelo://app?vid=2bf1159c-4b34-4bc3-a8b5-156be571c011","ios":"levelo://app?vid=2bf1159c-4b34-4bc3-a8b5-156be571c011"},"vehicle_type_id":"4","last_reported":1704017230,"current_range_meters":24400,"station_id":"","pricing_plan_id":"free"},{"bike_id":"a3c8d623-a85c-45ca-8fac-8710ce7491da","system_id":"levelo_inurba_marseille","lat":43.30649,"lon":5.37191,"is_reserved":false,"is_disabled":false,"rental_uris":{"android":"levelo://app?vid=a3c8d623-a85c-45ca-8fac-8710ce7491da","ios":"levelo://app?vid=a3c8d623-a85c-45ca-8fac-8710ce7491da"},"vehicle_type_id":"4","last_reported":1704017230,"current_range_meters":5200,"station_id":"","pricing_plan_id":"free"},{"bike_id":"4e088e7a-c35c-437f-ba03-be2c29d22c10","system_id":"levelo_inurba_marseille","lat":43.305712,"lon":5.365641,"is_reserved":false,"is_disabled":false,"rental_uris":{"android":"levelo://app?vid=4e088e7a-c35c-437f-ba03-be2c29d22c10","ios":"levelo://app?vid=4e088e7a-c35c-437f-ba03-be2c29d22c10"},"vehicle_type_id":"4","last_reported":1704017230,"current_range_meters":28800,"station_id":"ce4bgs12rcd13ifvqcag","pricing_plan_id":"free"},{"bike_id":"67696d62-a2e4-404d-bb88-51188f51f017","system_id":"levelo_inurba_marseille","lat":43.305714,"lon":5.365633,"is_reserved":false,"is_disabled":false,"rental_uris":{"android":"levelo://app?vid=67696d62-a2e4-404d-bb88-51188f51f017","ios":"levelo://app?vid=67696d62-a2e4-404d-bb88-51188f51f017"},"vehicle_type_id":"4","last_reported":1704017230,"current_range_meters":28800,"station_id":"ce4bgs12rcd13ifvqcag","pricing_plan_id":"free"},{"bike_id":"64a93320-b6f7-4f00-82e1-5c71938933c4","system_id":"levelo_inurba_marseille","lat":43.313926,"lon":5.376926,"is_reserved":false,"is_disabled":false,"rental_uris":{"android":"levelo://app?vid=64a93320-b6f7-4f00-82e1-5c71938933c4","ios":"levelo://app?vid=64a93320-b6f7-4f00-82e1-5c71938933c4"},"vehicle_type_id":"4","last_reported":1704017230,"current_range_meters":21600,"station_id":"","pricing_plan_id":"free"},{"bike_id":"fadbc3d2-66be-4503-8ce0-df8dd55cc5ad","system_id":"levelo_inurba_marseille","lat":43.305714,"lon":5.365633,"is_reserved":false,"is_disabled":false,"rental_uris":{"android":"levelo://app?vid=fadbc3d2-66be-4503-8ce0-df8dd55cc5ad","ios":"levelo://app?vid=fadbc3d2-66be-4503-8ce0-df8dd55cc5ad"},"vehicle_type_id":"4","last_reported":1704017230,"current_range_meters":20800,"station_id":"ce4bgs12rcd13ifvqcag","pricing_plan_id":"free"},{"bike_id":"aeb00762-e5ec-4687-88cc-52fcd57156f6","system_id":"levelo_inurba_marseille","lat":43.305706,"lon":5.365654,"is_reserved":false,"is_disabled":false,"rental_uris":{"android":"levelo://app?vid=aeb00762-e5ec-4687-88cc-52fcd57156f6","ios":"levelo://app?vid=aeb00762-e5ec-4687-88cc-52fcd57156f6"},"vehicle_type_id":"4","last_reported":1704017230,"current_range_meters":30000,"station_id":"ce4bgs12rcd13ifvqcag","pricing_plan_id":"free"},{"bike_id":"cdadce3d-3430-436f-9041-a6bec6625f05","system_id":"levelo_inurba_marseille","lat":43.305706,"lon":5.365654,"is_reserved":false,"is_disabled":false,"rental_uris":{"android":"levelo://app?vid=cdadce3d-3430-436f-9041-a6bec6625f05","ios":"levelo://app?vid=cdadce3d-3430-436f-9041-a6bec6625f05"},"vehicle_type_id":"4","last_reported":1704017230,"current_range_meters":14400,"station_id":"ce4bgs12rcd13ifvqcag","pricing_plan_id":"free"},{"bike_id":"252147cc-2c78-4751-b713-25eb078234ad","system_id":"levelo_inurba_marseille","lat":43.305706,"lon":5.365654,"is_reserved":false,"is_disabled":false,"rental_uris":{"android":"levelo://app?vid=252147cc-2c78-4751-b713-25eb078234ad","ios":"levelo://app?vid=252147cc-2c78-4751-b713-25eb078234ad"},"vehicle_type_id":"4","last_reported":1704017230,"current_range_meters":29600,"station_id":"ce4bgs12rcd13ifvqcag","pricing_plan_id":"free"},{"bike_id":"b618f3bc-21de-472c-bda3-14119853ee8c","system_id":"levelo_inurba_marseille","lat":43.305989,"lon":5.37225,"is_reserved":false,"is_disabled":false,"rental_uris":{"android":"levelo://app?vid=b618f3bc-21de-472c-bda3-14119853ee8c","ios":"levelo://app?vid=b618f3bc-21de-472c-bda3-14119853ee8c"},"vehicle_type_id":"4","last_reported":1704017230,"current_range_meters":29200,"station_id":"ce4bgqh2rcd13ifvqc4g","pricing_plan_id":"free"},{"bike_id":"839cc8fe-1b3f-4061-a0cc-448e8cfbbda3","system_id":"levelo_inurba_marseille","lat":43.305989,"lon":5.37225,"is_reserved":false,"is_disabled":false,"rental_uris":{"android":"levelo://app?vid=839cc8fe-1b3f-4061-a0cc-448e8cfbbda3","ios":"levelo://app?vid=839cc8fe-1b3f-4061-a0cc-448e8cfbbda3"},"vehicle_type_id":"4","last_reported":1704017230,"current_range_meters":14400,"station_id":"ce4bgqh2rcd13ifvqc4g","pricing_plan_id":"free"},{"bike_id":"2d21b7d2-91bd-4994-a05f-e67b24b0f64d","system_id":"levelo_inurba_marseille","lat":43.305989,"lon":5.37225,"is_reserved":false,"is_disabled":false,"rental_uris":{"android":"levelo://app?vid=2d21b7d2-91bd-4994-a05f-e67b24b0f64d","ios":"levelo://app?vid=2d21b7d2-91bd-4994-a05f-e67b24b0f64d"},"vehicle_type_id":"4","last_reported":1704017230,"current_range_meters":27200,"station_id":"ce4bgqh2rcd13ifvqc4g","pricing_plan_id":"free"},{"bike_id":"25af9e1c-886c-4f64-92f2-5ca68e46ae4a","system_id":"levelo_inurba_marseille","lat":43.31722,"lon":5.37668,"is_reserved":false,"is_disabled":false,"rental_uris":{"android":"levelo://app?vid=25af9e1c-886c-4f64-92f2-5ca68e46ae4a","ios":"levelo://app?vid=25af9e1c-886c-4f64-92f2-5ca68e46ae4a"},"vehicle_type_id":"4","last_reported":1704017230,"current_range_meters":22400,"station_id":"","pricing_plan_id":"free"},{"bike_id":"e5cdb6f6-1300-406e-9303-c0f03d781d71","system_id":"levelo_inurba_marseille","lat":43.317075,"lon":5.377367,"is_reserved":false,"is_disabled":false,"rental_uris":{"android":"levelo://app?vid=e5cdb6f6-1300-406e-9303-c0f03d781d71","ios":"levelo://app?vid=e5cdb6f6-1300-406e-9303-c0f03d781d71"},"vehicle_type_id":"4","last_reported":1704017230,"current_range_meters":31200,"station_id":"ce4bgth2rcd13ifvqch0","pricing_plan_id":"free"},{"bike_id":"43ca8f0e-45c8-46db-88a7-88fa1ac98477","system_id":"levelo_inurba_marseille","lat":43.317075,"lon":5.377367,"is_reserved":false,"is_disabled":false,"rental_uris":{"android":"levelo://app?vid=43ca8f0e-45c8-46db-88a7-88fa1ac98477","ios":"levelo://app?vid=43ca8f0e-45c8-46db-88a7-88fa1ac98477"},"vehicle_type_id":"4","last_reported":1704017230,"current_range_meters":24000,"station_id":"ce4bgth2rcd13ifvqch0","pricing_plan_id":"free"},{"bike_id":"c85935c6-4b05-4750-941c-1bbcea17b32b","system_id":"levelo_inurba_marseille","lat":43.317075,"lon":5.377367,"is_reserved":false,"is_disabled":false,"rental_uris":{"android":"levelo://app?vid=c85935c6-4b05-4750-941c-1bbcea17b32b","ios":"levelo://app?vid=c85935c6-4b05-4750-941c-1bbcea17b32b"},"vehicle_type_id":"4","last_reported":1704017230,"current_range_meters":30400,"station_id":"ce4bgth2rcd13ifvqch0","pricing_plan_id":"free"},{"bike_id":"e396057a-9e96-4e6d-bb6b-ed001471212f","system_id":"levelo_inurba_marseille","lat":43.317075,"lon":5.377367,"is_reserved":false,"is_disabled":false,"rental_uris":{"android":"levelo://app?vid=e396057a-9e96-4e6d-bb6b-ed001471212f","ios":"levelo://app?vid=e396057a-9e96-4e6d-bb6b-ed001471212f"},"vehicle_type_id":"4","last_reported":1704017230,"current_range_meters":29200,"station_id":"ce4bgth2rcd13ifvqch0","pricing_plan_id":"free"},{"bike_id":"6e5818dc-3972-4287-9058-8f8f2e517733","system_id":"levelo_inurba_marseille","lat":43.3153,"lon":5.38028,"is_reserved":false,"is_disabled":false,"rental_uris":{"android":"levelo://app?vid=6e5818dc-3972-4287-9058-8f8f2e517733","ios":"levelo://app?vid=6e5818dc-3972-4287-9058-8f8f2e517733"},"vehicle_type_id":"4","last_reported":1704017230,"current_range_meters":22000,"station_id":"ce4bhsp2rcd13ifvqi50","pricing_plan_id":"free"},{"bike_id":"fa42125a-2b48-4e78-9b49-e4925096e263","system_id":"levelo_inurba_marseille","lat":43.31534,"lon":5.38027,"is_reserved":false,"is_disabled":false,"rental_uris":{"android":"levelo://app?vid=fa42125a-2b48-4e78-9b49-e4925096e263","ios":"levelo://app?vid=fa42125a-2b48-4e78-9b49-e4925096e263"},"vehicle_type_id":"4","last_reported":1704017230,"current_range_meters":30800,"station_id":"ce4bhsp2rcd13ifvqi50","pricing_plan_id":"free"},{"bike_id":"c3c5781b-aa1e-41c0-8458-9e4b022e5f11","system_id":"levelo_inurba_marseille","lat":43.31533,"lon":5.38031,"is_reserved":false,"is_disabled":false,"rental_uris":{"android":"levelo://app?vid=c3c5781b-aa1e-41c0-8458-9e4b022e5f11","ios":"levelo://app?vid=c3c5781b-aa1e-41c0-8458-9e4b022e5f11"},"vehicle_type_id":"4","last_reported":1704017230,"current_range_meters":13600,"station_id":"ce4bhsp2rcd13ifvqi50","pricing_plan_id":"free"},{"bike_id":"d2b60c20-a57a-4587-9dfe-b0ec525218c2","system_id":"levelo_inurba_marseille","lat":43.301939,"lon":5.366286,"is_reserved":false,"is_disabled":false,"rental_uris":{"android":"levelo://app?vid=d2b60c20-a57a-4587-9dfe-b0ec525218c2","ios":"levelo://app?vid=d2b60c20-a57a-4587-9dfe-b0ec525218c2"},"vehicle_type_id":"4","last_reported":1704017230,"current_range_meters":30400,"station_id":"ce4bgrh2rcd13ifvqc8g","pricing_plan_id":"free"},{"bike_id":"532b34dd-a6a0-428b-9156-3d5bf699905a","system_id":"levelo_inurba_marseille","lat":43.308012,"lon":5.381511,"is_reserved":false,"is_disabled":false,"rental_uris":{"android":"levelo://app?vid=532b34dd-a6a0-428b-9156-3d5bf699905a","ios":"levelo://app?vid=532b34dd-a6a0-428b-9156-3d5bf699905a"},"vehicle_type_id":"4","last_reported":1704017230,"current_range_meters":25200,"station_id":"ce4bgt12rcd13ifvqce0","pricing_plan_id":"free"},{"bike_id":"5f5e654f-00d6-48a4-a8fe-6eb3104d493e","system_id":"levelo_inurba_marseille","lat":43.304606,"lon":5.379026,"is_reserved":false,"is_disabled":false,"rental_uris":{"android":"levelo://app?vid=5f5e654f-00d6-48a4-a8fe-6eb3104d493e","ios":"levelo://app?vid=5f5e654f-00d6-48a4-a8fe-6eb3104d493e"},"vehicle_type_id":"4","last_reported":1704017230,"current_range_meters":31200,"station_id":"ce4bgup2rcd13ifvqcn0","pricing_plan_id":"free"},{"bike_id":"4fa861da-569d-4bc0-bf7d-f2025a29d04e","system_id":"levelo_inurba_marseille","lat":43.304606,"lon":5.379026,"is_reserved":false,"is_disabled":false,"rental_uris":{"android":"levelo://app?vid=4fa861da-569d-4bc0-bf7d-f2025a29d04e","ios":"levelo://app?vid=4fa861da-569d-4bc0-bf7d-f2025a29d04e"},"vehicle_type_id":"4","last_reported":1704017230,"current_range_meters":28800,"station_id":"ce4bgup2rcd13ifvqcn0","pricing_plan_id":"free"},{"bike_id":"edd9c623-f9e5-4efd-ac1b-dd522e328204","system_id":"levelo_inurba_marseille","lat":43.304606,"lon":5.379026,"is_reserved":false,"is_disabled":false,"rental_uris":{"android":"levelo://app?vid=edd9c623-f9e5-4efd-ac1b-dd522e328204","ios":"levelo://app?vid=edd9c623-f9e5-4efd-ac1b-dd522e328204"},"vehicle_type_id":"4","last_reported":1704017230,"current_range_meters":31200,"station_id":"ce4bgup2rcd13ifvqcn0","pricing_plan_id":"free"},{"bike_id":"9adb32c7-82f8-4ccf-b2d9-f74983a410c7","system_id":"levelo_inurba_marseille","lat":43.304606,"lon":5.379026,"is_reserved":false,"is_disabled":false,"rental_uris":{"android":"levelo://app?vid=9adb32c7-82f8-4ccf-b2d9-f74983a410c7","ios":"levelo://app?vid=9adb32c7-82f8-4ccf-b2d9-f74983a410c7"},"vehicle_type_id":"4","last_reported":1704017230,"current_range_meters":25600,"station_id":"ce4bgup2rcd13ifvqcn0","pricing_plan_id":"free"},{"bike_id":"a96185c9-0e86-4dcb-88b6-87e2e9cadb1c","system_id":"levelo_inurba_marseille","lat":43.304606,"lon":5.379026,"is_reserved":false,"is_disabled":false,"rental_uris":{"android":"levelo://app?vid=a96185c9-0e86-4dcb-88b6-87e2e9cadb1c","ios":"levelo://app?vid=a96185c9-0e86-4dcb-88b6-87e2e9cadb1c"},"vehicle_type_id":"4","last_reported":1704017230,"current_range_meters":21600,"station_id":"ce4bgup2rcd13ifvqcn0","pricing_plan_id":"free"},{"bike_id":"e6b6ec46-ff9d-4979-8e48-2831c6d29578","system_id":"levelo_inurba_marseille","lat":43.304606,"lon":5.379026,"is_reserved":false,"is_disabled":false,"rental_uris":{"android":"levelo://app?vid=e6b6ec46-ff9d-4979-8e48-2831c6d29578","ios":"levelo://app?vid=e6b6ec46-ff9d-4979-8e48-2831c6d29578"},"vehicle_type_id":"4","last_reported":1704017230,"current_range_meters":24800,"station_id":"ce4bgup2rcd13ifvqcn0","pricing_plan_id":"free"},{"bike_id":"e4dcb29d-6179-427e-822d-8621bcd08456","system_id":"levelo_inurba_marseille","lat":43.304708,"lon":5.379039,"is_reserved":false,"is_disabled":false,"rental_uris":{"android":"levelo://app?vid=e4dcb29d-6179-427e-822d-8621bcd08456","ios":"levelo://app?vid=e4dcb29d-6179-427e-822d-8621bcd08456"},"vehicle_type_id":"4","last_reported":1704017230,"current_range_meters":19200,"station_id":"","pricing_plan_id":"free"},{"bike_id":"1b3b935a-d730-47b8-8f1a-27d7dbde499d","system_id":"levelo_inurba_marseille","lat":43.304606,"lon":5.379026,"is_reserved":false,"is_disabled":false,"rental_uris":{"android":"levelo://app?vid=1b3b935a-d730-47b8-8f1a-27d7dbde499d","ios":"levelo://app?vid=1b3b935a-d730-47b8-8f1a-27d7dbde499d"},"vehicle_type_id":"4","last_reported":1704017230,"current_range_meters":24000,"station_id":"ce4bgup2rcd13ifvqcn0","pricing_plan_id":"free"},{"bike_id":"fc1eb1be-8f99-41ab-ba18-115898c83ba9","system_id":"levelo_inurba_marseille","lat":43.304606,"lon":5.379026,"is_reserved":false,"is_disabled":false,"rental_uris":{"android":"levelo://app?vid=fc1eb1be-8f99-41ab-ba18-115898c83ba9","ios":"levelo://app?vid=fc1eb1be-8f99-41ab-ba18-115898c83ba9"},"vehicle_type_id":"4","last_reported":1704017230,"current_range_meters":28400,"station_id":"ce4bgup2rcd13ifvqcn0","pricing_plan_id":"free"},{"bike_id":"ff502fa9-0e47-4ec2-903e-b00764e85bbc","system_id":"levelo_inurba_marseille","lat":43.304606,"lon":5.379026,"is_reserved":false,"is_disabled":false,"rental_uris":{"android":"levelo://app?vid=ff502fa9-0e47-4ec2-903e-b00764e85bbc","ios":"levelo://app?vid=ff502fa9-0e47-4ec2-903e-b00764e85bbc"},"vehicle_type_id":"4","last_reported":1704017230,"current_range_meters":26800,"station_id":"ce4bgup2rcd13ifvqcn0","pricing_plan_id":"free"},{"bike_id":"f7fdf859-e42b-4f3f-8bec-18eb7e41486b","system_id":"levelo_inurba_marseille","lat":43.304606,"lon":5.379026,"is_reserved":false,"is_disabled":false,"rental_uris":{"android":"levelo://app?vid=f7fdf859-e42b-4f3f-8bec-18eb7e41486b","ios":"levelo://app?vid=f7fdf859-e42b-4f3f-8bec-18eb7e41486b"},"vehicle_type_id":"4","last_reported":1704017230,"current_range_meters":29600,"station_id":"ce4bgup2rcd13ifvqcn0","pricing_plan_id":"free"},{"bike_id":"8dd58076-50d2-4c22-a985-171400cd4f55","system_id":"levelo_inurba_marseille","lat":43.304606,"lon":5.379026,"is_reserved":false,"is_disabled":false,"rental_uris":{"android":"levelo://app?vid=8dd58076-50d2-4c22-a985-171400cd4f55","ios":"levelo://app?vid=8dd58076-50d2-4c22-a985-171400cd4f55"},"vehicle_type_id":"4","last_reported":1704017230,"current_range_meters":22400,"station_id":"ce4bgup2rcd13ifvqcn0","pricing_plan_id":"free"},{"bike_id":"c9abfcd5-791b-4ddb-9bb4-23ffe03e3924","system_id":"levelo_inurba_marseille","lat":43.304606,"lon":5.379026,"is_reserved":false,"is_disabled":false,"rental_uris":{"android":"levelo://app?vid=c9abfcd5-791b-4ddb-9bb4-23ffe03e3924","ios":"levelo://app?vid=c9abfcd5-791b-4ddb-9bb4-23ffe03e3924"},"vehicle_type_id":"4","last_reported":1704017230,"current_range_meters":22800,"station_id":"ce4bgup2rcd13ifvqcn0","pricing_plan_id":"free"},{"bike_id":"20757a92-b7f3-4449-8614-21e63b8b5b9f","system_id":"levelo_inurba_marseille","lat":43.304606,"lon":5.379026,"is_reserved":false,"is_disabled":false,"rental_uris":{"android":"levelo://app?vid=20757a92-b7f3-4449-8614-21e63b8b5b9f","ios":"levelo://app?vid=20757a92-b7f3-4449-8614-21e63b8b5b9f"},"vehicle_type_id":"4","last_reported":1704017230,"current_range_meters":29200,"station_id":"ce4bgup2rcd13ifvqcn0","pricing_plan_id":"free"},{"bike_id":"bbe46cff-0355-447d-8bc6-e090b80337fe","system_id":"levelo_inurba_marseille","lat":43.304606,"lon":5.379026,"is_reserved":false,"is_disabled":false,"rental_uris":{"android":"levelo://app?vid=bbe46cff-0355-447d-8bc6-e090b80337fe","ios":"levelo://app?vid=bbe46cff-0355-447d-8bc6-e090b80337fe"},"vehicle_type_id":"4","last_reported":1704017230,"current_range_meters":22000,"station_id":"ce4bgup2rcd13ifvqcn0","pricing_plan_id":"free"},{"bike_id":"b684027f-b6cb-4bcf-9226-4556aa04044c","system_id":"levelo_inurba_marseille","lat":43.304606,"lon":5.379026,"is_reserved":false,"is_disabled":false,"rental_uris":{"android":"levelo://app?vid=b684027f-b6cb-4bcf-9226-4556aa04044c","ios":"levelo://app?vid=b684027f-b6cb-4bcf-9226-4556aa04044c"},"vehicle_type_id":"4","last_reported":1704017230,"current_range_meters":24000,"station_id":"ce4bgup2rcd13ifvqcn0","pricing_plan_id":"free"},{"bike_id":"04989ec7-db91-4943-81f9-f4a3fba86a38","system_id":"levelo_inurba_marseille","lat":43.302784,"lon":5.377158,"is_reserved":false,"is_disabled":false,"rental_uris":{"android":"levelo://app?vid=04989ec7-db91-4943-81f9-f4a3fba86a38","ios":"levelo://app?vid=04989ec7-db91-4943-81f9-f4a3fba86a38"},"vehicle_type_id":"4","last_reported":1704017230,"current_range_meters":21200,"station_id":"ce4bguh2rcd13ifvqcj0","pricing_plan_id":"free"},{"bike_id":"a679209f-f889-4707-b5cc-fddece7b177a","system_id":"levelo_inurba_marseille","lat":43.302784,"lon":5.377158,"is_reserved":false,"is_disabled":false,"rental_uris":{"android":"levelo://app?vid=a679209f-f889-4707-b5cc-fddece7b177a","ios":"levelo://app?vid=a679209f-f889-4707-b5cc-fddece7b177a"},"vehicle_type_id":"4","last_reported":1704017230,"current_range_meters":14400,"station_id":"ce4bguh2rcd13ifvqcj0","pricing_plan_id":"free"},{"bike_id":"9030d8d6-4659-48bb-ab24-ce81b0712d26","system_id":"levelo_inurba_marseille","lat":43.301429,"lon":5.37413,"is_reserved":false,"is_disabled":false,"rental_uris":{"android":"levelo://app?vid=9030d8d6-4659-48bb-ab24-ce81b0712d26","ios":"levelo://app?vid=9030d8d6-4659-48bb-ab24-ce81b0712d26"},"vehicle_type_id":"4","last_reported":1704017230,"current_range_meters":29200,"station_id":"ce4bgs92rcd13ifvqcc0","pricing_plan_id":"free"},{"bike_id":"42f0e134-8926-4ffe-84f7-77b44767e66d","system_id":"levelo_inurba_marseille","lat":43.319935,"lon":5.381699,"is_reserved":false,"is_disabled":false,"rental_uris":{"android":"levelo://app?vid=42f0e134-8926-4ffe-84f7-77b44767e66d","ios":"levelo://app?vid=42f0e134-8926-4ffe-84f7-77b44767e66d"},"vehicle_type_id":"4","last_reported":1704017230,"current_range_meters":27600,"station_id":"ce4bhr12rcd13ifvqhpg","pricing_plan_id":"free"},{"bike_id":"b6e175b2-7ff4-44c6-a5a6-070588ca3901","system_id":"levelo_inurba_marseille","lat":43.313571,"lon":5.384829,"is_reserved":false,"is_disabled":false,"rental_uris":{"android":"levelo://app?vid=b6e175b2-7ff4-44c6-a5a6-070588ca3901","ios":"levelo://app?vid=b6e175b2-7ff4-44c6-a5a6-070588ca3901"},"vehicle_type_id":"4","last_reported":1704017230,"current_range_meters":24000,"station_id":"ce4bgt92rcd13ifvqcf0","pricing_plan_id":"free"},{"bike_id":"a38004ee-721c-4ebf-9263-150d7ec6133c","system_id":"levelo_inurba_marseille","lat":43.313648,"lon":5.384945,"is_reserved":false,"is_disabled":false,"rental_uris":{"android":"levelo://app?vid=a38004ee-721c-4ebf-9263-150d7ec6133c","ios":"levelo://app?vid=a38004ee-721c-4ebf-9263-150d7ec6133c"},"vehicle_type_id":"4","last_reported":1704017230,"current_range_meters":22400,"station_id":"ce4bgt92rcd13ifvqcf0","pricing_plan_id":"free"},{"bike_id":"c485bbe1-e2ad-458c-89ff-8169b8f817bd","system_id":"levelo_inurba_marseille","lat":43.299724,"lon":5.371829,"is_reserved":false,"is_disabled":false,"rental_uris":{"android":"levelo://app?vid=c485bbe1-e2ad-458c-89ff-8169b8f817bd","ios":"levelo://app?vid=c485bbe1-e2ad-458c-89ff-8169b8f817bd"},"vehicle_type_id":"4","last_reported":1704017230,"current_range_meters":30000,"station_id":"ce4bgr92rcd13ifvqc7g","pricing_plan_id":"free"},{"bike_id":"5fa785a3-1659-44b1-b706-dbe048d8a01b","system_id":"levelo_inurba_marseille","lat":43.299222,"lon":5.365554,"is_reserved":false,"is_disabled":false,"rental_uris":{"android":"levelo://app?vid=5fa785a3-1659-44b1-b706-dbe048d8a01b","ios":"levelo://app?vid=5fa785a3-1659-44b1-b706-dbe048d8a01b"},"vehicle_type_id":"4","last_reported":1704017230,"current_range_meters":27600,"station_id":"ce4bgm92rcd13ifvqbr0","pricing_plan_id":"free"},{"bike_id":"a480a64e-9841-496e-8718-60d396b8e82d","system_id":"levelo_inurba_marseille","lat":43.298433,"lon":5.362774,"is_reserved":false,"is_disabled":false,"rental_uris":{"android":"levelo://app?vid=a480a64e-9841-496e-8718-60d396b8e82d","ios":"levelo://app?vid=a480a64e-9841-496e-8718-60d396b8e82d"},"vehicle_type_id":"4","last_reported":1704017230,"current_range_meters":19200,"station_id":"ce4bgpp2rcd13ifvqc3g","pricing_plan_id":"free"},{"bike_id":"55d51627-821a-461c-bd9e-f60a7ab5b69f","system_id":"levelo_inurba_marseille","lat":43.298433,"lon":5.362774,"is_reserved":false,"is_disabled":false,"rental_uris":{"android":"levelo://app?vid=55d51627-821a-461c-bd9e-f60a7ab5b69f","ios":"levelo://app?vid=55d51627-821a-461c-bd9e-f60a7ab5b69f"},"vehicle_type_id":"4","last_reported":1704017230,"current_range_meters":12000,"station_id":"ce4bgpp2rcd13ifvqc3g","pricing_plan_id":"free"},{"bike_id":"044d5ef5-0c25-41e7-ae2b-658e95d7702b","system_id":"levelo_inurba_marseille","lat":43.298433,"lon":5.362774,"is_reserved":false,"is_disabled":false,"rental_uris":{"android":"levelo://app?vid=044d5ef5-0c25-41e7-ae2b-658e95d7702b","ios":"levelo://app?vid=044d5ef5-0c25-41e7-ae2b-658e95d7702b"},"vehicle_type_id":"4","last_reported":1704017230,"current_range_meters":29600,"station_id":"ce4bgpp2rcd13ifvqc3g","pricing_plan_id":"free"},{"bike_id":"dc35eec6-da4e-423a-b87d-8a0ec1fa8785","system_id":"levelo_inurba_marseille","lat":43.298433,"lon":5.362774,"is_reserved":false,"is_disabled":false,"rental_uris":{"android":"levelo://app?vid=dc35eec6-da4e-423a-b87d-8a0ec1fa8785","ios":"levelo://app?vid=dc35eec6-da4e-423a-b87d-8a0ec1fa8785"},"vehicle_type_id":"4","last_reported":1704017230,"current_range_meters":26400,"station_id":"ce4bgpp2rcd13ifvqc3g","pricing_plan_id":"free"},{"bike_id":"fdc0b565-20a1-493e-9668-b0fcc5598c2d","system_id":"levelo_inurba_marseille","lat":43.311722,"lon":5.387247,"is_reserved":false,"is_disabled":false,"rental_uris":{"android":"levelo://app?vid=fdc0b565-20a1-493e-9668-b0fcc5598c2d","ios":"levelo://app?vid=fdc0b565-20a1-493e-9668-b0fcc5598c2d"},"vehicle_type_id":"4","last_reported":1704017230,"current_range_meters":27600,"station_id":"ce4bgv12rcd13ifvqcp0","pricing_plan_id":"free"},{"bike_id":"1bbf8a36-5b5d-45cc-908b-25967c01c47e","system_id":"levelo_inurba_marseille","lat":43.311722,"lon":5.387247,"is_reserved":false,"is_disabled":false,"rental_uris":{"android":"levelo://app?vid=1bbf8a36-5b5d-45cc-908b-25967c01c47e","ios":"levelo://app?vid=1bbf8a36-5b5d-45cc-908b-25967c01c47e"},"vehicle_type_id":"4","last_reported":1704017230,"current_range_meters":7600,"station_id":"ce4bgv12rcd13ifvqcp0","pricing_plan_id":"free"},{"bike_id":"4911eca9-9de5-440b-99c2-f0b5109ca9e7","system_id":"levelo_inurba_marseille","lat":43.311722,"lon":5.387247,"is_reserved":false,"is_disabled":false,"rental_uris":{"android":"levelo://app?vid=4911eca9-9de5-440b-99c2-f0b5109ca9e7","ios":"levelo://app?vid=4911eca9-9de5-440b-99c2-f0b5109ca9e7"},"vehicle_type_id":"4","last_reported":1704017230,"current_range_meters":27600,"station_id":"ce4bgv12rcd13ifvqcp0","pricing_plan_id":"free"},{"bike_id":"8e3c1396-3ebb-449b-b96d-9dc92db64366","system_id":"levelo_inurba_marseille","lat":43.311722,"lon":5.387247,"is_reserved":false,"is_disabled":false,"rental_uris":{"android":"levelo://app?vid=8e3c1396-3ebb-449b-b96d-9dc92db64366","ios":"levelo://app?vid=8e3c1396-3ebb-449b-b96d-9dc92db64366"},"vehicle_type_id":"4","last_reported":1704017230,"current_range_meters":20400,"station_id":"ce4bgv12rcd13ifvqcp0","pricing_plan_id":"free"},{"bike_id":"b5ccd610-ca96-47a9-bd64-c4aac3fbf958","system_id":"levelo_inurba_marseille","lat":43.311722,"lon":5.387247,"is_reserved":false,"is_disabled":false,"rental_uris":{"android":"levelo://app?vid=b5ccd610-ca96-47a9-bd64-c4aac3fbf958","ios":"levelo://app?vid=b5ccd610-ca96-47a9-bd64-c4aac3fbf958"},"vehicle_type_id":"4","last_reported":1704017230,"current_range_meters":30400,"station_id":"ce4bgv12rcd13ifvqcp0","pricing_plan_id":"free"},{"bike_id":"5f628256-6b8a-462d-bc50-6979c994c9a6","system_id":"levelo_inurba_marseille","lat":43.311722,"lon":5.387247,"is_reserved":false,"is_disabled":false,"rental_uris":{"android":"levelo://app?vid=5f628256-6b8a-462d-bc50-6979c994c9a6","ios":"levelo://app?vid=5f628256-6b8a-462d-bc50-6979c994c9a6"},"vehicle_type_id":"4","last_reported":1704017230,"current_range_meters":31200,"station_id":"ce4bgv12rcd13ifvqcp0","pricing_plan_id":"free"},{"bike_id":"8605f72b-ef97-4d6a-b9fc-eca87d0de9d7","system_id":"levelo_inurba_marseille","lat":43.299243,"lon":5.374807,"is_reserved":false,"is_disabled":false,"rental_uris":{"android":"levelo://app?vid=8605f72b-ef97-4d6a-b9fc-eca87d0de9d7","ios":"levelo://app?vid=8605f72b-ef97-4d6a-b9fc-eca87d0de9d7"},"vehicle_type_id":"4","last_reported":1704017230,"current_range_meters":18400,"station_id":"ce4bgjh2rcd13ifvqbg0","pricing_plan_id":"free"},{"bike_id":"3ecc0e3a-584f-4f00-a99d-8a3052efd5d5","system_id":"levelo_inurba_marseille","lat":43.297794,"lon":5.370888,"is_reserved":false,"is_disabled":false,"rental_uris":{"android":"levelo://app?vid=3ecc0e3a-584f-4f00-a99d-8a3052efd5d5","ios":"levelo://app?vid=3ecc0e3a-584f-4f00-a99d-8a3052efd5d5"},"vehicle_type_id":"4","last_reported":1704017230,"current_range_meters":26800,"station_id":"ce4bgop2rcd13ifvqc1g","pricing_plan_id":"free"},{"bike_id":"1c86e5d7-cbb3-4aae-9d82-7bae1674fe97","system_id":"levelo_inurba_marseille","lat":43.297774,"lon":5.370875,"is_reserved":false,"is_disabled":false,"rental_uris":{"android":"levelo://app?vid=1c86e5d7-cbb3-4aae-9d82-7bae1674fe97","ios":"levelo://app?vid=1c86e5d7-cbb3-4aae-9d82-7bae1674fe97"},"vehicle_type_id":"4","last_reported":1704017230,"current_range_meters":25200,"station_id":"ce4bgop2rcd13ifvqc1g","pricing_plan_id":"free"},{"bike_id":"2567715a-6f49-4249-a04d-3f445815e91b","system_id":"levelo_inurba_marseille","lat":43.297794,"lon":5.370888,"is_reserved":false,"is_disabled":false,"rental_uris":{"android":"levelo://app?vid=2567715a-6f49-4249-a04d-3f445815e91b","ios":"levelo://app?vid=2567715a-6f49-4249-a04d-3f445815e91b"},"vehicle_type_id":"4","last_reported":1704017230,"current_range_meters":31200,"station_id":"ce4bgop2rcd13ifvqc1g","pricing_plan_id":"free"},{"bike_id":"78b2282b-b46b-4494-bc4d-0783d9b9b106","system_id":"levelo_inurba_marseille","lat":43.322872,"lon":5.382756,"is_reserved":false,"is_disabled":false,"rental_uris":{"android":"levelo://app?vid=78b2282b-b46b-4494-bc4d-0783d9b9b106","ios":"levelo://app?vid=78b2282b-b46b-4494-bc4d-0783d9b9b106"},"vehicle_type_id":"4","last_reported":1704017230,"current_range_meters":27600,"station_id":"ce4bhr12rcd13ifvqhqg","pricing_plan_id":"free"},{"bike_id":"2154e13a-10ef-4d79-b4f3-a92c055765e5","system_id":"levelo_inurba_marseille","lat":43.322872,"lon":5.382756,"is_reserved":false,"is_disabled":false,"rental_uris":{"android":"levelo://app?vid=2154e13a-10ef-4d79-b4f3-a92c055765e5","ios":"levelo://app?vid=2154e13a-10ef-4d79-b4f3-a92c055765e5"},"vehicle_type_id":"4","last_reported":1704017230,"current_range_meters":30800,"station_id":"ce4bhr12rcd13ifvqhqg","pricing_plan_id":"free"},{"bike_id":"c05d138a-9eaa-4578-84f8-5eb99c852b0c","system_id":"levelo_inurba_marseille","lat":43.29902,"lon":5.37641,"is_reserved":false,"is_disabled":false,"rental_uris":{"android":"levelo://app?vid=c05d138a-9eaa-4578-84f8-5eb99c852b0c","ios":"levelo://app?vid=c05d138a-9eaa-4578-84f8-5eb99c852b0c"},"vehicle_type_id":"4","last_reported":1704017230,"current_range_meters":4400,"station_id":"","pricing_plan_id":"free"},{"bike_id":"341c08e8-590f-49ec-b3d8-929d1eff1926","system_id":"levelo_inurba_marseille","lat":43.328225,"lon":5.366809,"is_reserved":false,"is_disabled":false,"rental_uris":{"android":"levelo://app?vid=341c08e8-590f-49ec-b3d8-929d1eff1926","ios":"levelo://app?vid=341c08e8-590f-49ec-b3d8-929d1eff1926"},"vehicle_type_id":"4","last_reported":1704017230,"current_range_meters":30400,"station_id":"ce4bhs92rcd13ifvqi0g","pricing_plan_id":"free"},{"bike_id":"a677cd10-a09b-4b2e-bffd-45b05d2c9229","system_id":"levelo_inurba_marseille","lat":43.32826,"lon":5.36681,"is_reserved":false,"is_disabled":false,"rental_uris":{"android":"levelo://app?vid=a677cd10-a09b-4b2e-bffd-45b05d2c9229","ios":"levelo://app?vid=a677cd10-a09b-4b2e-bffd-45b05d2c9229"},"vehicle_type_id":"4","last_reported":1704017230,"current_range_meters":14000,"station_id":"ce4bhs92rcd13ifvqi0g","pricing_plan_id":"free"},{"bike_id":"3406ac08-144e-419c-8a8c-9c89910b5b78","system_id":"levelo_inurba_marseille","lat":43.32827,"lon":5.36681,"is_reserved":false,"is_disabled":false,"rental_uris":{"android":"levelo://app?vid=3406ac08-144e-419c-8a8c-9c89910b5b78","ios":"levelo://app?vid=3406ac08-144e-419c-8a8c-9c89910b5b78"},"vehicle_type_id":"4","last_reported":1704017230,"current_range_meters":28000,"station_id":"ce4bhs92rcd13ifvqi0g","pricing_plan_id":"free"},{"bike_id":"74ff96ff-c851-4d57-8883-0d7347bd471f","system_id":"levelo_inurba_marseille","lat":43.32827,"lon":5.36672,"is_reserved":false,"is_disabled":false,"rental_uris":{"android":"levelo://app?vid=74ff96ff-c851-4d57-8883-0d7347bd471f","ios":"levelo://app?vid=74ff96ff-c851-4d57-8883-0d7347bd471f"},"vehicle_type_id":"4","last_reported":1704017230,"current_range_meters":27600,"station_id":"ce4bhs92rcd13ifvqi0g","pricing_plan_id":"free"},{"bike_id":"b30b3d1b-ef61-4776-bd7b-61c34fd8cc81","system_id":"levelo_inurba_marseille","lat":43.328275,"lon":5.36678,"is_reserved":false,"is_disabled":false,"rental_uris":{"android":"levelo://app?vid=b30b3d1b-ef61-4776-bd7b-61c34fd8cc81","ios":"levelo://app?vid=b30b3d1b-ef61-4776-bd7b-61c34fd8cc81"},"vehicle_type_id":"4","last_reported":1704017230,"current_range_meters":3600,"station_id":"ce4bhs92rcd13ifvqi0g","pricing_plan_id":"free"},{"bike_id":"51714c4a-3132-4951-88ec-80e85fa125e8","system_id":"levelo_inurba_marseille","lat":43.32828,"lon":5.366798,"is_reserved":false,"is_disabled":false,"rental_uris":{"android":"levelo://app?vid=51714c4a-3132-4951-88ec-80e85fa125e8","ios":"levelo://app?vid=51714c4a-3132-4951-88ec-80e85fa125e8"},"vehicle_type_id":"4","last_reported":1704017230,"current_range_meters":30400,"station_id":"ce4bhs92rcd13ifvqi0g","pricing_plan_id":"free"},{"bike_id":"9d832f49-b330-492c-bca5-26b211dfab4e","system_id":"levelo_inurba_marseille","lat":43.32828,"lon":5.36673,"is_reserved":false,"is_disabled":false,"rental_uris":{"android":"levelo://app?vid=9d832f49-b330-492c-bca5-26b211dfab4e","ios":"levelo://app?vid=9d832f49-b330-492c-bca5-26b211dfab4e"},"vehicle_type_id":"4","last_reported":1704017230,"current_range_meters":16400,"station_id":"ce4bhs92rcd13ifvqi0g","pricing_plan_id":"free"},{"bike_id":"43517afb-7930-42e8-a305-e900a3000a28","system_id":"levelo_inurba_marseille","lat":43.328371,"lon":5.366912,"is_reserved":false,"is_disabled":false,"rental_uris":{"android":"levelo://app?vid=43517afb-7930-42e8-a305-e900a3000a28","ios":"levelo://app?vid=43517afb-7930-42e8-a305-e900a3000a28"},"vehicle_type_id":"4","last_reported":1704017230,"current_range_meters":16400,"station_id":"ce4bhs92rcd13ifvqi0g","pricing_plan_id":"free"},{"bike_id":"c99c1421-6c70-45e1-a99f-19afba82ca69","system_id":"levelo_inurba_marseille","lat":43.32829,"lon":5.36673,"is_reserved":false,"is_disabled":false,"rental_uris":{"android":"levelo://app?vid=c99c1421-6c70-45e1-a99f-19afba82ca69","ios":"levelo://app?vid=c99c1421-6c70-45e1-a99f-19afba82ca69"},"vehicle_type_id":"4","last_reported":1704017230,"current_range_meters":23200,"station_id":"ce4bhs92rcd13ifvqi0g","pricing_plan_id":"free"},{"bike_id":"7aa6a530-3ac6-4ec6-a447-a7bf4c489e07","system_id":"levelo_inurba_marseille","lat":43.3283,"lon":5.36676,"is_reserved":false,"is_disabled":false,"rental_uris":{"android":"levelo://app?vid=7aa6a530-3ac6-4ec6-a447-a7bf4c489e07","ios":"levelo://app?vid=7aa6a530-3ac6-4ec6-a447-a7bf4c489e07"},"vehicle_type_id":"4","last_reported":1704017230,"current_range_meters":16400,"station_id":"ce4bhs92rcd13ifvqi0g","pricing_plan_id":"free"},{"bike_id":"a448ca86-2b35-41e1-89c4-32a99bab0563","system_id":"levelo_inurba_marseille","lat":43.328371,"lon":5.366912,"is_reserved":false,"is_disabled":false,"rental_uris":{"android":"levelo://app?vid=a448ca86-2b35-41e1-89c4-32a99bab0563","ios":"levelo://app?vid=a448ca86-2b35-41e1-89c4-32a99bab0563"},"vehicle_type_id":"4","last_reported":1704017230,"current_range_meters":11600,"station_id":"ce4bhs92rcd13ifvqi0g","pricing_plan_id":"free"},{"bike_id":"15c48ead-179a-4b34-8e1c-920824ff4c19","system_id":"levelo_inurba_marseille","lat":43.32831,"lon":5.36672,"is_reserved":false,"is_disabled":false,"rental_uris":{"android":"levelo://app?vid=15c48ead-179a-4b34-8e1c-920824ff4c19","ios":"levelo://app?vid=15c48ead-179a-4b34-8e1c-920824ff4c19"},"vehicle_type_id":"4","last_reported":1704017230,"current_range_meters":30800,"station_id":"ce4bhs92rcd13ifvqi0g","pricing_plan_id":"free"},{"bike_id":"ea7074d7-b7c9-4941-82c2-dff391bae9cb","system_id":"levelo_inurba_marseille","lat":43.32832,"lon":5.36678,"is_reserved":false,"is_disabled":false,"rental_uris":{"android":"levelo://app?vid=ea7074d7-b7c9-4941-82c2-dff391bae9cb","ios":"levelo://app?vid=ea7074d7-b7c9-4941-82c2-dff391bae9cb"},"vehicle_type_id":"4","last_reported":1704017230,"current_range_meters":25600,"station_id":"ce4bhs92rcd13ifvqi0g","pricing_plan_id":"free"},{"bike_id":"904f83aa-e9ab-401d-84c1-9edfed82b884","system_id":"levelo_inurba_marseille","lat":43.32832,"lon":5.36675,"is_reserved":false,"is_disabled":false,"rental_uris":{"android":"levelo://app?vid=904f83aa-e9ab-401d-84c1-9edfed82b884","ios":"levelo://app?vid=904f83aa-e9ab-401d-84c1-9edfed82b884"},"vehicle_type_id":"4","last_reported":1704017230,"current_range_meters":22400,"station_id":"ce4bhs92rcd13ifvqi0g","pricing_plan_id":"free"},{"bike_id":"370cccf7-c9ba-46c2-819b-c8e8cacc4c21","system_id":"levelo_inurba_marseille","lat":43.3277,"lon":5.37458,"is_reserved":false,"is_disabled":false,"rental_uris":{"android":"levelo://app?vid=370cccf7-c9ba-46c2-819b-c8e8cacc4c21","ios":"levelo://app?vid=370cccf7-c9ba-46c2-819b-c8e8cacc4c21"},"vehicle_type_id":"4","last_reported":1704017230,"current_range_meters":16800,"station_id":"","pricing_plan_id":"free"},{"bike_id":"921b424d-ad0d-4c7a-9d74-66e3a49bfa19","system_id":"levelo_inurba_marseille","lat":43.32934,"lon":5.36612,"is_reserved":false,"is_disabled":false,"rental_uris":{"android":"levelo://app?vid=921b424d-ad0d-4c7a-9d74-66e3a49bfa19","ios":"levelo://app?vid=921b424d-ad0d-4c7a-9d74-66e3a49bfa19"},"vehicle_type_id":"4","last_reported":1704017230,"current_range_meters":2400,"station_id":"","pricing_plan_id":"free"},{"bike_id":"8c6d35b2-5153-45c4-8b31-bbd617f7b378","system_id":"levelo_inurba_marseille","lat":43.296283,"lon":5.371435,"is_reserved":false,"is_disabled":false,"rental_uris":{"android":"levelo://app?vid=8c6d35b2-5153-45c4-8b31-bbd617f7b378","ios":"levelo://app?vid=8c6d35b2-5153-45c4-8b31-bbd617f7b378"},"vehicle_type_id":"4","last_reported":1704017230,"current_range_meters":30800,"station_id":"ce4bgnh2rcd13ifvqc0g","pricing_plan_id":"free"},{"bike_id":"dd23c49f-b8ca-40bf-b7c4-d8b77f085bb9","system_id":"levelo_inurba_marseille","lat":43.32847,"lon":5.37513,"is_reserved":false,"is_disabled":false,"rental_uris":{"android":"levelo://app?vid=dd23c49f-b8ca-40bf-b7c4-d8b77f085bb9","ios":"levelo://app?vid=dd23c49f-b8ca-40bf-b7c4-d8b77f085bb9"},"vehicle_type_id":"4","last_reported":1704017230,"current_range_meters":30800,"station_id":"","pricing_plan_id":"free"},{"bike_id":"2f38b8d5-9886-4bf1-a31a-6914535ab415","system_id":"levelo_inurba_marseille","lat":43.29573,"lon":5.367355,"is_reserved":false,"is_disabled":false,"rental_uris":{"android":"levelo://app?vid=2f38b8d5-9886-4bf1-a31a-6914535ab415","ios":"levelo://app?vid=2f38b8d5-9886-4bf1-a31a-6914535ab415"},"vehicle_type_id":"4","last_reported":1704017230,"current_range_meters":30000,"station_id":"ce4bgph2rcd13ifvqc2g","pricing_plan_id":"free"},{"bike_id":"ac4ab69b-ebe1-48bd-9fad-d0f9ae9b1a93","system_id":"levelo_inurba_marseille","lat":43.299028,"lon":5.381509,"is_reserved":false,"is_disabled":false,"rental_uris":{"android":"levelo://app?vid=ac4ab69b-ebe1-48bd-9fad-d0f9ae9b1a93","ios":"levelo://app?vid=ac4ab69b-ebe1-48bd-9fad-d0f9ae9b1a93"},"vehicle_type_id":"4","last_reported":1704017230,"current_range_meters":27200,"station_id":"ce4bgj12rcd13ifvqbc0","pricing_plan_id":"free"},{"bike_id":"a727d3ac-6858-4795-941c-52dba21a791f","system_id":"levelo_inurba_marseille","lat":43.309589,"lon":5.390258,"is_reserved":false,"is_disabled":false,"rental_uris":{"android":"levelo://app?vid=a727d3ac-6858-4795-941c-52dba21a791f","ios":"levelo://app?vid=a727d3ac-6858-4795-941c-52dba21a791f"},"vehicle_type_id":"4","last_reported":1704017230,"current_range_meters":29600,"station_id":"ce4bgup2rcd13ifvqco0","pricing_plan_id":"free"},{"bike_id":"4c73a732-4f7e-49b1-bf0c-710e1d70f659","system_id":"levelo_inurba_marseille","lat":43.309589,"lon":5.390258,"is_reserved":false,"is_disabled":false,"rental_uris":{"android":"levelo://app?vid=4c73a732-4f7e-49b1-bf0c-710e1d70f659","ios":"levelo://app?vid=4c73a732-4f7e-49b1-bf0c-710e1d70f659"},"vehicle_type_id":"4","last_reported":1704017230,"current_range_meters":12800,"station_id":"ce4bgup2rcd13ifvqco0","pricing_plan_id":"free"},{"bike_id":"6c1891d3-eb5c-43ff-a58b-0669bb28ec39","system_id":"levelo_inurba_marseille","lat":43.295748,"lon":5.37522,"is_reserved":false,"is_disabled":false,"rental_uris":{"android":"levelo://app?vid=6c1891d3-eb5c-43ff-a58b-0669bb28ec39","ios":"levelo://app?vid=6c1891d3-eb5c-43ff-a58b-0669bb28ec39"},"vehicle_type_id":"4","last_reported":1704017230,"current_range_meters":9200,"station_id":"ce4bgh92rcd13ifvqb50","pricing_plan_id":"free"},{"bike_id":"904b37d7-fa29-4afa-9366-6b8a488a117f","system_id":"levelo_inurba_marseille","lat":43.295748,"lon":5.37522,"is_reserved":false,"is_disabled":false,"rental_uris":{"android":"levelo://app?vid=904b37d7-fa29-4afa-9366-6b8a488a117f","ios":"levelo://app?vid=904b37d7-fa29-4afa-9366-6b8a488a117f"},"vehicle_type_id":"4","last_reported":1704017230,"current_range_meters":13600,"station_id":"ce4bgh92rcd13ifvqb50","pricing_plan_id":"free"},{"bike_id":"95364a00-59c7-4eaf-b021-af9532e19d30","system_id":"levelo_inurba_marseille","lat":43.295748,"lon":5.37522,"is_reserved":false,"is_disabled":false,"rental_uris":{"android":"levelo://app?vid=95364a00-59c7-4eaf-b021-af9532e19d30","ios":"levelo://app?vid=95364a00-59c7-4eaf-b021-af9532e19d30"},"vehicle_type_id":"4","last_reported":1704017230,"current_range_meters":25200,"station_id":"ce4bgh92rcd13ifvqb50","pricing_plan_id":"free"},{"bike_id":"d60802d6-4f47-444a-b234-883690eec05b","system_id":"levelo_inurba_marseille","lat":43.33062,"lon":5.3627,"is_reserved":false,"is_disabled":false,"rental_uris":{"android":"levelo://app?vid=d60802d6-4f47-444a-b234-883690eec05b","ios":"levelo://app?vid=d60802d6-4f47-444a-b234-883690eec05b"},"vehicle_type_id":"4","last_reported":1704017230,"current_range_meters":24000,"station_id":"","pricing_plan_id":"free"},{"bike_id":"e79a5f20-0b6f-4ac7-9d22-2c5f3bc2f949","system_id":"levelo_inurba_marseille","lat":43.296263,"lon":5.377094,"is_reserved":false,"is_disabled":false,"rental_uris":{"android":"levelo://app?vid=e79a5f20-0b6f-4ac7-9d22-2c5f3bc2f949","ios":"levelo://app?vid=e79a5f20-0b6f-4ac7-9d22-2c5f3bc2f949"},"vehicle_type_id":"4","last_reported":1704017230,"current_range_meters":24000,"station_id":"ce4bgi92rcd13ifvqb90","pricing_plan_id":"free"},{"bike_id":"f0e3d6c2-83b7-452a-bee2-42d42208850a","system_id":"levelo_inurba_marseille","lat":43.296277,"lon":5.377108,"is_reserved":false,"is_disabled":false,"rental_uris":{"android":"levelo://app?vid=f0e3d6c2-83b7-452a-bee2-42d42208850a","ios":"levelo://app?vid=f0e3d6c2-83b7-452a-bee2-42d42208850a"},"vehicle_type_id":"4","last_reported":1704017230,"current_range_meters":26400,"station_id":"ce4bgi92rcd13ifvqb90","pricing_plan_id":"free"},{"bike_id":"71943a1f-99f8-4f22-a29b-2c584eca144c","system_id":"levelo_inurba_marseille","lat":43.296277,"lon":5.377108,"is_reserved":false,"is_disabled":false,"rental_uris":{"android":"levelo://app?vid=71943a1f-99f8-4f22-a29b-2c584eca144c","ios":"levelo://app?vid=71943a1f-99f8-4f22-a29b-2c584eca144c"},"vehicle_type_id":"4","last_reported":1704017230,"current_range_meters":16400,"station_id":"ce4bgi92rcd13ifvqb90","pricing_plan_id":"free"},{"bike_id":"7119845d-00aa-4d9f-be8c-fc97d41f1380","system_id":"levelo_inurba_marseille","lat":43.297594,"lon":5.381134,"is_reserved":false,"is_disabled":false,"rental_uris":{"android":"levelo://app?vid=7119845d-00aa-4d9f-be8c-fc97d41f1380","ios":"levelo://app?vid=7119845d-00aa-4d9f-be8c-fc97d41f1380"},"vehicle_type_id":"4","last_reported":1704017230,"current_range_meters":12400,"station_id":"ce4bgip2rcd13ifvqbb0","pricing_plan_id":"free"},{"bike_id":"6dc8b67f-7677-4649-90b5-6c004787a94e","system_id":"levelo_inurba_marseille","lat":43.32367,"lon":5.388836,"is_reserved":false,"is_disabled":false,"rental_uris":{"android":"levelo://app?vid=6dc8b67f-7677-4649-90b5-6c004787a94e","ios":"levelo://app?vid=6dc8b67f-7677-4649-90b5-6c004787a94e"},"vehicle_type_id":"4","last_reported":1704017230,"current_range_meters":12000,"station_id":"ce4bhqp2rcd13ifvqhog","pricing_plan_id":"free"},{"bike_id":"c472997c-8921-4240-9407-9bbb195b44d8","system_id":"levelo_inurba_marseille","lat":43.32367,"lon":5.388836,"is_reserved":false,"is_disabled":false,"rental_uris":{"android":"levelo://app?vid=c472997c-8921-4240-9407-9bbb195b44d8","ios":"levelo://app?vid=c472997c-8921-4240-9407-9bbb195b44d8"},"vehicle_type_id":"4","last_reported":1704017230,"current_range_meters":30000,"station_id":"ce4bhqp2rcd13ifvqhog","pricing_plan_id":"free"},{"bike_id":"2086e601-f5ee-4693-9563-19ce1935d7be","system_id":"levelo_inurba_marseille","lat":43.32367,"lon":5.388836,"is_reserved":false,"is_disabled":false,"rental_uris":{"android":"levelo://app?vid=2086e601-f5ee-4693-9563-19ce1935d7be","ios":"levelo://app?vid=2086e601-f5ee-4693-9563-19ce1935d7be"},"vehicle_type_id":"4","last_reported":1704017230,"current_range_meters":31200,"station_id":"ce4bhqp2rcd13ifvqhog","pricing_plan_id":"free"},{"bike_id":"21c35184-2cff-45c5-a579-0cd18467e694","system_id":"levelo_inurba_marseille","lat":43.32367,"lon":5.388836,"is_reserved":false,"is_disabled":false,"rental_uris":{"android":"levelo://app?vid=21c35184-2cff-45c5-a579-0cd18467e694","ios":"levelo://app?vid=21c35184-2cff-45c5-a579-0cd18467e694"},"vehicle_type_id":"4","last_reported":1704017230,"current_range_meters":28000,"station_id":"ce4bhqp2rcd13ifvqhog","pricing_plan_id":"free"},{"bike_id":"122ea523-742e-4de1-aad4-693e2611c6b8","system_id":"levelo_inurba_marseille","lat":43.32367,"lon":5.388836,"is_reserved":false,"is_disabled":false,"rental_uris":{"android":"levelo://app?vid=122ea523-742e-4de1-aad4-693e2611c6b8","ios":"levelo://app?vid=122ea523-742e-4de1-aad4-693e2611c6b8"},"vehicle_type_id":"4","last_reported":1704017230,"current_range_meters":31200,"station_id":"ce4bhqp2rcd13ifvqhog","pricing_plan_id":"free"},{"bike_id":"fdba10d6-6c0f-4aa0-aa2d-a60cd34dc728","system_id":"levelo_inurba_marseille","lat":43.32367,"lon":5.388836,"is_reserved":false,"is_disabled":false,"rental_uris":{"android":"levelo://app?vid=fdba10d6-6c0f-4aa0-aa2d-a60cd34dc728","ios":"levelo://app?vid=fdba10d6-6c0f-4aa0-aa2d-a60cd34dc728"},"vehicle_type_id":"4","last_reported":1704017230,"current_range_meters":11600,"station_id":"ce4bhqp2rcd13ifvqhog","pricing_plan_id":"free"},{"bike_id":"2bca30bf-1d10-4da4-9a6b-1fb27106b665","system_id":"levelo_inurba_marseille","lat":43.29601,"lon":5.381084,"is_reserved":false,"is_disabled":false,"rental_uris":{"android":"levelo://app?vid=2bca30bf-1d10-4da4-9a6b-1fb27106b665","ios":"levelo://app?vid=2bca30bf-1d10-4da4-9a6b-1fb27106b665"},"vehicle_type_id":"4","last_reported":1704017230,"current_range_meters":22000,"station_id":"ce4bgl12rcd13ifvqbo0","pricing_plan_id":"free"},{"bike_id":"62b008d0-e1df-40e1-8992-86ae612cce77","system_id":"levelo_inurba_marseille","lat":43.293259,"lon":5.371586,"is_reserved":false,"is_disabled":false,"rental_uris":{"android":"levelo://app?vid=62b008d0-e1df-40e1-8992-86ae612cce77","ios":"levelo://app?vid=62b008d0-e1df-40e1-8992-86ae612cce77"},"vehicle_type_id":"4","last_reported":1704017230,"current_range_meters":31200,"station_id":"ce4bgh92rcd13ifvqb40","pricing_plan_id":"free"},{"bike_id":"9c6e71c6-260d-4dd1-918d-199d8b4279ed","system_id":"levelo_inurba_marseille","lat":43.292749,"lon":5.368402,"is_reserved":false,"is_disabled":false,"rental_uris":{"android":"levelo://app?vid=9c6e71c6-260d-4dd1-918d-199d8b4279ed","ios":"levelo://app?vid=9c6e71c6-260d-4dd1-918d-199d8b4279ed"},"vehicle_type_id":"4","last_reported":1704017230,"current_range_meters":23600,"station_id":"ce4bhbp2rcd13ifvqesg","pricing_plan_id":"free"},{"bike_id":"9a9d7426-cc25-45a5-898b-7503c7189f35","system_id":"levelo_inurba_marseille","lat":43.293259,"lon":5.371586,"is_reserved":false,"is_disabled":false,"rental_uris":{"android":"levelo://app?vid=9a9d7426-cc25-45a5-898b-7503c7189f35","ios":"levelo://app?vid=9a9d7426-cc25-45a5-898b-7503c7189f35"},"vehicle_type_id":"4","last_reported":1704017230,"current_range_meters":24800,"station_id":"ce4bgh92rcd13ifvqb40","pricing_plan_id":"free"},{"bike_id":"5087cae0-4739-4971-be29-53268aa7987c","system_id":"levelo_inurba_marseille","lat":43.293009,"lon":5.374584,"is_reserved":false,"is_disabled":false,"rental_uris":{"android":"levelo://app?vid=5087cae0-4739-4971-be29-53268aa7987c","ios":"levelo://app?vid=5087cae0-4739-4971-be29-53268aa7987c"},"vehicle_type_id":"4","last_reported":1704017230,"current_range_meters":24400,"station_id":"ce4bgi12rcd13ifvqb70","pricing_plan_id":"free"},{"bike_id":"37cdaec2-643b-460e-b812-52ed1cbc6b93","system_id":"levelo_inurba_marseille","lat":43.293009,"lon":5.374584,"is_reserved":false,"is_disabled":false,"rental_uris":{"android":"levelo://app?vid=37cdaec2-643b-460e-b812-52ed1cbc6b93","ios":"levelo://app?vid=37cdaec2-643b-460e-b812-52ed1cbc6b93"},"vehicle_type_id":"4","last_reported":1704017230,"current_range_meters":30000,"station_id":"ce4bgi12rcd13ifvqb70","pricing_plan_id":"free"},{"bike_id":"0e249a5f-b106-41b9-ad57-fa95a0eb0ae7","system_id":"levelo_inurba_marseille","lat":43.305994,"lon":5.393687,"is_reserved":false,"is_disabled":false,"rental_uris":{"android":"levelo://app?vid=0e249a5f-b106-41b9-ad57-fa95a0eb0ae7","ios":"levelo://app?vid=0e249a5f-b106-41b9-ad57-fa95a0eb0ae7"},"vehicle_type_id":"4","last_reported":1704017230,"current_range_meters":22400,"station_id":"ce4bh0p2rcd13ifvqd80","pricing_plan_id":"free"},{"bike_id":"e7b55fdd-c008-4433-acc2-bd100f85a78f","system_id":"levelo_inurba_marseille","lat":43.2936,"lon":5.37835,"is_reserved":false,"is_disabled":false,"rental_uris":{"android":"levelo://app?vid=e7b55fdd-c008-4433-acc2-bd100f85a78f","ios":"levelo://app?vid=e7b55fdd-c008-4433-acc2-bd100f85a78f"},"vehicle_type_id":"4","last_reported":1704017230,"current_range_meters":22000,"station_id":"ce4bgjh2rcd13ifvqbf0","pricing_plan_id":"free"},{"bike_id":"35228086-edfa-4848-801f-a2282ebc3acf","system_id":"levelo_inurba_marseille","lat":43.292661,"lon":5.376235,"is_reserved":false,"is_disabled":false,"rental_uris":{"android":"levelo://app?vid=35228086-edfa-4848-801f-a2282ebc3acf","ios":"levelo://app?vid=35228086-edfa-4848-801f-a2282ebc3acf"},"vehicle_type_id":"4","last_reported":1704017230,"current_range_meters":22800,"station_id":"","pricing_plan_id":"free"},{"bike_id":"390b3f3a-65ed-40bd-859c-ca405438ce53","system_id":"levelo_inurba_marseille","lat":43.292625,"lon":5.376234,"is_reserved":false,"is_disabled":false,"rental_uris":{"android":"levelo://app?vid=390b3f3a-65ed-40bd-859c-ca405438ce53","ios":"levelo://app?vid=390b3f3a-65ed-40bd-859c-ca405438ce53"},"vehicle_type_id":"4","last_reported":1704017230,"current_range_meters":20400,"station_id":"","pricing_plan_id":"free"},{"bike_id":"404e5b7d-3dbf-4ada-b1be-b012bb50b2f4","system_id":"levelo_inurba_marseille","lat":43.29883,"lon":5.38901,"is_reserved":false,"is_disabled":false,"rental_uris":{"android":"levelo://app?vid=404e5b7d-3dbf-4ada-b1be-b012bb50b2f4","ios":"levelo://app?vid=404e5b7d-3dbf-4ada-b1be-b012bb50b2f4"},"vehicle_type_id":"4","last_reported":1704017230,"current_range_meters":26000,"station_id":"","pricing_plan_id":"free"},{"bike_id":"3a40696a-163e-4d79-aaa1-c02972165851","system_id":"levelo_inurba_marseille","lat":43.291675,"lon":5.371583,"is_reserved":false,"is_disabled":false,"rental_uris":{"android":"levelo://app?vid=3a40696a-163e-4d79-aaa1-c02972165851","ios":"levelo://app?vid=3a40696a-163e-4d79-aaa1-c02972165851"},"vehicle_type_id":"4","last_reported":1704017230,"current_range_meters":30400,"station_id":"ce4bha92rcd13ifvqeh0","pricing_plan_id":"free"},{"bike_id":"ae3f9e9b-12bb-4ce2-a918-a1f08b210511","system_id":"levelo_inurba_marseille","lat":43.291994,"lon":5.357886,"is_reserved":false,"is_disabled":false,"rental_uris":{"android":"levelo://app?vid=ae3f9e9b-12bb-4ce2-a918-a1f08b210511","ios":"levelo://app?vid=ae3f9e9b-12bb-4ce2-a918-a1f08b210511"},"vehicle_type_id":"4","last_reported":1704017230,"current_range_meters":0,"station_id":"ce4bhb12rcd13ifvqel0","pricing_plan_id":"free"},{"bike_id":"5cf30968-0f7d-4d59-becc-64e3e994078f","system_id":"levelo_inurba_marseille","lat":43.313291,"lon":5.396838,"is_reserved":false,"is_disabled":false,"rental_uris":{"android":"levelo://app?vid=5cf30968-0f7d-4d59-becc-64e3e994078f","ios":"levelo://app?vid=5cf30968-0f7d-4d59-becc-64e3e994078f"},"vehicle_type_id":"4","last_reported":1704017230,"current_range_meters":28800,"station_id":"ce4bgvp2rcd13ifvqcu0","pricing_plan_id":"free"},{"bike_id":"2407f5a3-9835-4467-92e7-9249706332b9","system_id":"levelo_inurba_marseille","lat":43.302008,"lon":5.394694,"is_reserved":false,"is_disabled":false,"rental_uris":{"android":"levelo://app?vid=2407f5a3-9835-4467-92e7-9249706332b9","ios":"levelo://app?vid=2407f5a3-9835-4467-92e7-9249706332b9"},"vehicle_type_id":"4","last_reported":1704017230,"current_range_meters":28000,"station_id":"ce4bh0p2rcd13ifvqd70","pricing_plan_id":"free"},{"bike_id":"eaca87c7-eafb-40d6-8a3f-c065e6a67821","system_id":"levelo_inurba_marseille","lat":43.289184,"lon":5.366408,"is_reserved":false,"is_disabled":false,"rental_uris":{"android":"levelo://app?vid=eaca87c7-eafb-40d6-8a3f-c065e6a67821","ios":"levelo://app?vid=eaca87c7-eafb-40d6-8a3f-c065e6a67821"},"vehicle_type_id":"4","last_reported":1704017230,"current_range_meters":19200,"station_id":"ce4bhap2rcd13ifvqek0","pricing_plan_id":"free"},{"bike_id":"ffd58095-a915-4eb7-9f5a-53b9fdd10a9f","system_id":"levelo_inurba_marseille","lat":43.292644,"lon":5.384257,"is_reserved":false,"is_disabled":false,"rental_uris":{"android":"levelo://app?vid=ffd58095-a915-4eb7-9f5a-53b9fdd10a9f","ios":"levelo://app?vid=ffd58095-a915-4eb7-9f5a-53b9fdd10a9f"},"vehicle_type_id":"4","last_reported":1704017230,"current_range_meters":17200,"station_id":"ce4bh692rcd13ifvqea0","pricing_plan_id":"free"},{"bike_id":"ad8c2669-06bb-4828-9ccc-bfb3aa3d089d","system_id":"levelo_inurba_marseille","lat":43.292644,"lon":5.384257,"is_reserved":false,"is_disabled":false,"rental_uris":{"android":"levelo://app?vid=ad8c2669-06bb-4828-9ccc-bfb3aa3d089d","ios":"levelo://app?vid=ad8c2669-06bb-4828-9ccc-bfb3aa3d089d"},"vehicle_type_id":"4","last_reported":1704017230,"current_range_meters":27600,"station_id":"ce4bh692rcd13ifvqea0","pricing_plan_id":"free"},{"bike_id":"98b7d55e-9f49-4fd9-ab5b-78a6a26834c2","system_id":"levelo_inurba_marseille","lat":43.290103,"lon":5.356114,"is_reserved":false,"is_disabled":false,"rental_uris":{"android":"levelo://app?vid=98b7d55e-9f49-4fd9-ab5b-78a6a26834c2","ios":"levelo://app?vid=98b7d55e-9f49-4fd9-ab5b-78a6a26834c2"},"vehicle_type_id":"4","last_reported":1704017230,"current_range_meters":18400,"station_id":"ce4bhb92rcd13ifvqen0","pricing_plan_id":"free"},{"bike_id":"495faf64-a935-4c6e-b77f-2b296d14493a","system_id":"levelo_inurba_marseille","lat":43.331017,"lon":5.389194,"is_reserved":false,"is_disabled":false,"rental_uris":{"android":"levelo://app?vid=495faf64-a935-4c6e-b77f-2b296d14493a","ios":"levelo://app?vid=495faf64-a935-4c6e-b77f-2b296d14493a"},"vehicle_type_id":"4","last_reported":1704017230,"current_range_meters":0,"station_id":"","pricing_plan_id":"free"},{"bike_id":"3fc25d44-2370-44b5-9305-4ef67d74cc1f","system_id":"levelo_inurba_marseille","lat":43.289743,"lon":5.378304,"is_reserved":false,"is_disabled":false,"rental_uris":{"android":"levelo://app?vid=3fc25d44-2370-44b5-9305-4ef67d74cc1f","ios":"levelo://app?vid=3fc25d44-2370-44b5-9305-4ef67d74cc1f"},"vehicle_type_id":"4","last_reported":1704017230,"current_range_meters":25200,"station_id":"ce4bh9p2rcd13ifvqed0","pricing_plan_id":"free"},{"bike_id":"e1f02e12-515c-4006-bba0-52d7ba66ce07","system_id":"levelo_inurba_marseille","lat":43.289743,"lon":5.378304,"is_reserved":false,"is_disabled":false,"rental_uris":{"android":"levelo://app?vid=e1f02e12-515c-4006-bba0-52d7ba66ce07","ios":"levelo://app?vid=e1f02e12-515c-4006-bba0-52d7ba66ce07"},"vehicle_type_id":"4","last_reported":1704017230,"current_range_meters":24800,"station_id":"ce4bh9p2rcd13ifvqed0","pricing_plan_id":"free"},{"bike_id":"0cb515d0-edfa-4f72-8668-a5568b1f542d","system_id":"levelo_inurba_marseille","lat":43.295169,"lon":5.390426,"is_reserved":false,"is_disabled":false,"rental_uris":{"android":"levelo://app?vid=0cb515d0-edfa-4f72-8668-a5568b1f542d","ios":"levelo://app?vid=0cb515d0-edfa-4f72-8668-a5568b1f542d"},"vehicle_type_id":"4","last_reported":1704017230,"current_range_meters":22800,"station_id":"ce4bh3p2rcd13ifvqdp0","pricing_plan_id":"free"},{"bike_id":"cdbafc34-84c2-4c7e-a713-2035f1517edf","system_id":"levelo_inurba_marseille","lat":43.2901,"lon":5.381269,"is_reserved":false,"is_disabled":false,"rental_uris":{"android":"levelo://app?vid=cdbafc34-84c2-4c7e-a713-2035f1517edf","ios":"levelo://app?vid=cdbafc34-84c2-4c7e-a713-2035f1517edf"},"vehicle_type_id":"4","last_reported":1704017230,"current_range_meters":30000,"station_id":"ce4bh4p2rcd13ifvqe1g","pricing_plan_id":"free"},{"bike_id":"272c405b-9238-45da-aa7f-b666159b8a0a","system_id":"levelo_inurba_marseille","lat":43.28856,"lon":5.358371,"is_reserved":false,"is_disabled":false,"rental_uris":{"android":"levelo://app?vid=272c405b-9238-45da-aa7f-b666159b8a0a","ios":"levelo://app?vid=272c405b-9238-45da-aa7f-b666159b8a0a"},"vehicle_type_id":"4","last_reported":1704017230,"current_range_meters":24400,"station_id":"ce4bhb12rcd13ifvqem0","pricing_plan_id":"free"},{"bike_id":"abf61b6d-ccba-4b24-8767-2673b0441dfd","system_id":"levelo_inurba_marseille","lat":43.28856,"lon":5.358371,"is_reserved":false,"is_disabled":false,"rental_uris":{"android":"levelo://app?vid=abf61b6d-ccba-4b24-8767-2673b0441dfd","ios":"levelo://app?vid=abf61b6d-ccba-4b24-8767-2673b0441dfd"},"vehicle_type_id":"4","last_reported":1704017230,"current_range_meters":9600,"station_id":"ce4bhb12rcd13ifvqem0","pricing_plan_id":"free"},{"bike_id":"cababbbd-bdea-44dd-a30c-3bd5cdef8812","system_id":"levelo_inurba_marseille","lat":43.31275,"lon":5.40163,"is_reserved":false,"is_disabled":false,"rental_uris":{"android":"levelo://app?vid=cababbbd-bdea-44dd-a30c-3bd5cdef8812","ios":"levelo://app?vid=cababbbd-bdea-44dd-a30c-3bd5cdef8812"},"vehicle_type_id":"4","last_reported":1704017230,"current_range_meters":7600,"station_id":"ce4bh092rcd13ifvqd30","pricing_plan_id":"free"},{"bike_id":"0512d4d7-1751-4509-87a7-50c6c1714c19","system_id":"levelo_inurba_marseille","lat":43.312609,"lon":5.401662,"is_reserved":false,"is_disabled":false,"rental_uris":{"android":"levelo://app?vid=0512d4d7-1751-4509-87a7-50c6c1714c19","ios":"levelo://app?vid=0512d4d7-1751-4509-87a7-50c6c1714c19"},"vehicle_type_id":"4","last_reported":1704017230,"current_range_meters":20000,"station_id":"ce4bh092rcd13ifvqd30","pricing_plan_id":"free"},{"bike_id":"2d33c5a2-5f86-49e1-a2c7-0ec45fdb387f","system_id":"levelo_inurba_marseille","lat":43.312609,"lon":5.401662,"is_reserved":false,"is_disabled":false,"rental_uris":{"android":"levelo://app?vid=2d33c5a2-5f86-49e1-a2c7-0ec45fdb387f","ios":"levelo://app?vid=2d33c5a2-5f86-49e1-a2c7-0ec45fdb387f"},"vehicle_type_id":"4","last_reported":1704017230,"current_range_meters":15600,"station_id":"ce4bh092rcd13ifvqd30","pricing_plan_id":"free"},{"bike_id":"2b7adb5c-9d94-444d-aafc-6e6fd4fb1ec1","system_id":"levelo_inurba_marseille","lat":43.312775,"lon":5.401653,"is_reserved":false,"is_disabled":false,"rental_uris":{"android":"levelo://app?vid=2b7adb5c-9d94-444d-aafc-6e6fd4fb1ec1","ios":"levelo://app?vid=2b7adb5c-9d94-444d-aafc-6e6fd4fb1ec1"},"vehicle_type_id":"4","last_reported":1704017230,"current_range_meters":28800,"station_id":"ce4bh092rcd13ifvqd30","pricing_plan_id":"free"},{"bike_id":"4ecf8bd4-ee8e-4dab-9c66-bb61c393dd2f","system_id":"levelo_inurba_marseille","lat":43.312779,"lon":5.401667,"is_reserved":false,"is_disabled":false,"rental_uris":{"android":"levelo://app?vid=4ecf8bd4-ee8e-4dab-9c66-bb61c393dd2f","ios":"levelo://app?vid=4ecf8bd4-ee8e-4dab-9c66-bb61c393dd2f"},"vehicle_type_id":"4","last_reported":1704017230,"current_range_meters":29600,"station_id":"ce4bh092rcd13ifvqd30","pricing_plan_id":"free"},{"bike_id":"9d948fc5-0a0b-4973-ba84-fddb60045e1c","system_id":"levelo_inurba_marseille","lat":43.312609,"lon":5.401662,"is_reserved":false,"is_disabled":false,"rental_uris":{"android":"levelo://app?vid=9d948fc5-0a0b-4973-ba84-fddb60045e1c","ios":"levelo://app?vid=9d948fc5-0a0b-4973-ba84-fddb60045e1c"},"vehicle_type_id":"4","last_reported":1704017230,"current_range_meters":21200,"station_id":"ce4bh092rcd13ifvqd30","pricing_plan_id":"free"},{"bike_id":"0aaa9a54-f1a6-424c-ba21-2fb59e6eef23","system_id":"levelo_inurba_marseille","lat":43.30642,"lon":5.401031,"is_reserved":false,"is_disabled":false,"rental_uris":{"android":"levelo://app?vid=0aaa9a54-f1a6-424c-ba21-2fb59e6eef23","ios":"levelo://app?vid=0aaa9a54-f1a6-424c-ba21-2fb59e6eef23"},"vehicle_type_id":"4","last_reported":1704017230,"current_range_meters":27200,"station_id":"ce4bh112rcd13ifvqda0","pricing_plan_id":"free"},{"bike_id":"34f42ac5-ac2f-43c1-86fc-e5d8e70978c4","system_id":"levelo_inurba_marseille","lat":43.30642,"lon":5.401031,"is_reserved":false,"is_disabled":false,"rental_uris":{"android":"levelo://app?vid=34f42ac5-ac2f-43c1-86fc-e5d8e70978c4","ios":"levelo://app?vid=34f42ac5-ac2f-43c1-86fc-e5d8e70978c4"},"vehicle_type_id":"4","last_reported":1704017230,"current_range_meters":31200,"station_id":"ce4bh112rcd13ifvqda0","pricing_plan_id":"free"},{"bike_id":"96bb4368-21fd-4587-8894-89a90d1f7365","system_id":"levelo_inurba_marseille","lat":43.306412,"lon":5.401035,"is_reserved":false,"is_disabled":false,"rental_uris":{"android":"levelo://app?vid=96bb4368-21fd-4587-8894-89a90d1f7365","ios":"levelo://app?vid=96bb4368-21fd-4587-8894-89a90d1f7365"},"vehicle_type_id":"4","last_reported":1704017230,"current_range_meters":22000,"station_id":"ce4bh112rcd13ifvqda0","pricing_plan_id":"free"},{"bike_id":"b262299b-df41-4c0e-acea-7d1f4a3c6a3b","system_id":"levelo_inurba_marseille","lat":43.28727,"lon":5.36078,"is_reserved":false,"is_disabled":false,"rental_uris":{"android":"levelo://app?vid=b262299b-df41-4c0e-acea-7d1f4a3c6a3b","ios":"levelo://app?vid=b262299b-df41-4c0e-acea-7d1f4a3c6a3b"},"vehicle_type_id":"4","last_reported":1704017230,"current_range_meters":30800,"station_id":"cki0cbj6b192h4jlfktg","pricing_plan_id":"free"},{"bike_id":"501fd7bf-f47b-4ad4-9fff-cfc4021c981e","system_id":"levelo_inurba_marseille","lat":43.29874,"lon":5.39726,"is_reserved":false,"is_disabled":false,"rental_uris":{"android":"levelo://app?vid=501fd7bf-f47b-4ad4-9fff-cfc4021c981e","ios":"levelo://app?vid=501fd7bf-f47b-4ad4-9fff-cfc4021c981e"},"vehicle_type_id":"4","last_reported":1704017230,"current_range_meters":8800,"station_id":"ce4bh0h2rcd13ifvqd50","pricing_plan_id":"free"},{"bike_id":"98cc25ca-f7e4-4722-a164-2e8c552ed796","system_id":"levelo_inurba_marseille","lat":43.29875,"lon":5.39732,"is_reserved":false,"is_disabled":false,"rental_uris":{"android":"levelo://app?vid=98cc25ca-f7e4-4722-a164-2e8c552ed796","ios":"levelo://app?vid=98cc25ca-f7e4-4722-a164-2e8c552ed796"},"vehicle_type_id":"4","last_reported":1704017230,"current_range_meters":23600,"station_id":"ce4bh0h2rcd13ifvqd50","pricing_plan_id":"free"},{"bike_id":"a5738968-8f49-4df4-be73-2bb217d4bb7e","system_id":"levelo_inurba_marseille","lat":43.286961,"lon":5.373785,"is_reserved":false,"is_disabled":false,"rental_uris":{"android":"levelo://app?vid=a5738968-8f49-4df4-be73-2bb217d4bb7e","ios":"levelo://app?vid=a5738968-8f49-4df4-be73-2bb217d4bb7e"},"vehicle_type_id":"4","last_reported":1704017230,"current_range_meters":30400,"station_id":"ce4bh3p2rcd13ifvqdq0","pricing_plan_id":"free"},{"bike_id":"5c28e87b-40b8-4984-9240-4ac6a465ad25","system_id":"levelo_inurba_marseille","lat":43.286039,"lon":5.370679,"is_reserved":false,"is_disabled":false,"rental_uris":{"android":"levelo://app?vid=5c28e87b-40b8-4984-9240-4ac6a465ad25","ios":"levelo://app?vid=5c28e87b-40b8-4984-9240-4ac6a465ad25"},"vehicle_type_id":"4","last_reported":1704017230,"current_range_meters":25600,"station_id":"ce4bht12rcd13ifvqi60","pricing_plan_id":"free"},{"bike_id":"8be80aac-eff5-45b4-841c-db27661a01ad","system_id":"levelo_inurba_marseille","lat":43.287184,"lon":5.37937,"is_reserved":false,"is_disabled":false,"rental_uris":{"android":"levelo://app?vid=8be80aac-eff5-45b4-841c-db27661a01ad","ios":"levelo://app?vid=8be80aac-eff5-45b4-841c-db27661a01ad"},"vehicle_type_id":"4","last_reported":1704017230,"current_range_meters":25600,"station_id":"ce4bh9p2rcd13ifvqec0","pricing_plan_id":"free"},{"bike_id":"b756c8cb-8465-4389-ae58-f7022e479857","system_id":"levelo_inurba_marseille","lat":43.316828,"lon":5.404723,"is_reserved":false,"is_disabled":false,"rental_uris":{"android":"levelo://app?vid=b756c8cb-8465-4389-ae58-f7022e479857","ios":"levelo://app?vid=b756c8cb-8465-4389-ae58-f7022e479857"},"vehicle_type_id":"4","last_reported":1704017230,"current_range_meters":19200,"station_id":"ce4bh012rcd13ifvqd00","pricing_plan_id":"free"},{"bike_id":"d5508a19-f01d-4cdb-8f5a-d25c26d3d45a","system_id":"levelo_inurba_marseille","lat":43.283502,"lon":5.386471,"is_reserved":false,"is_disabled":false,"rental_uris":{"android":"levelo://app?vid=d5508a19-f01d-4cdb-8f5a-d25c26d3d45a","ios":"levelo://app?vid=d5508a19-f01d-4cdb-8f5a-d25c26d3d45a"},"vehicle_type_id":"4","last_reported":1704017230,"current_range_meters":23200,"station_id":"ce4bh492rcd13ifvqdvg","pricing_plan_id":"free"},{"bike_id":"a7727da4-8dcc-430f-984f-7fb654261571","system_id":"levelo_inurba_marseille","lat":43.284538,"lon":5.358657,"is_reserved":false,"is_disabled":false,"rental_uris":{"android":"levelo://app?vid=a7727da4-8dcc-430f-984f-7fb654261571","ios":"levelo://app?vid=a7727da4-8dcc-430f-984f-7fb654261571"},"vehicle_type_id":"4","last_reported":1704017230,"current_range_meters":18400,"station_id":"ce4bhah2rcd13ifvqei0","pricing_plan_id":"free"},{"bike_id":"6aab170e-a0e7-49f9-ba91-4bb6952d50ca","system_id":"levelo_inurba_marseille","lat":43.284538,"lon":5.358657,"is_reserved":false,"is_disabled":false,"rental_uris":{"android":"levelo://app?vid=6aab170e-a0e7-49f9-ba91-4bb6952d50ca","ios":"levelo://app?vid=6aab170e-a0e7-49f9-ba91-4bb6952d50ca"},"vehicle_type_id":"4","last_reported":1704017230,"current_range_meters":26800,"station_id":"ce4bhah2rcd13ifvqei0","pricing_plan_id":"free"},{"bike_id":"93b47ccd-1870-4ef8-ad03-55747a0a092f","system_id":"levelo_inurba_marseille","lat":43.294314,"lon":5.397498,"is_reserved":false,"is_disabled":false,"rental_uris":{"android":"levelo://app?vid=93b47ccd-1870-4ef8-ad03-55747a0a092f","ios":"levelo://app?vid=93b47ccd-1870-4ef8-ad03-55747a0a092f"},"vehicle_type_id":"4","last_reported":1704017230,"current_range_meters":4400,"station_id":"ce4bh3h2rcd13ifvqdo0","pricing_plan_id":"free"},{"bike_id":"0adf7f00-b0b7-450c-8f99-71d3c0e9f55b","system_id":"levelo_inurba_marseille","lat":43.284538,"lon":5.358657,"is_reserved":false,"is_disabled":false,"rental_uris":{"android":"levelo://app?vid=0adf7f00-b0b7-450c-8f99-71d3c0e9f55b","ios":"levelo://app?vid=0adf7f00-b0b7-450c-8f99-71d3c0e9f55b"},"vehicle_type_id":"4","last_reported":1704017230,"current_range_meters":25200,"station_id":"ce4bhah2rcd13ifvqei0","pricing_plan_id":"free"},{"bike_id":"1327c928-4b92-4584-99ef-f115f827c8ed","system_id":"levelo_inurba_marseille","lat":43.294314,"lon":5.397498,"is_reserved":false,"is_disabled":false,"rental_uris":{"android":"levelo://app?vid=1327c928-4b92-4584-99ef-f115f827c8ed","ios":"levelo://app?vid=1327c928-4b92-4584-99ef-f115f827c8ed"},"vehicle_type_id":"4","last_reported":1704017230,"current_range_meters":28000,"station_id":"ce4bh3h2rcd13ifvqdo0","pricing_plan_id":"free"},{"bike_id":"aa615a5f-261b-48d7-b06b-a6d8051df684","system_id":"levelo_inurba_marseille","lat":43.284534,"lon":5.358662,"is_reserved":false,"is_disabled":false,"rental_uris":{"android":"levelo://app?vid=aa615a5f-261b-48d7-b06b-a6d8051df684","ios":"levelo://app?vid=aa615a5f-261b-48d7-b06b-a6d8051df684"},"vehicle_type_id":"4","last_reported":1704017230,"current_range_meters":31200,"station_id":"ce4bhah2rcd13ifvqei0","pricing_plan_id":"free"},{"bike_id":"9e9a7724-bf59-4a55-9479-a5f90021a7f9","system_id":"levelo_inurba_marseille","lat":43.28619,"lon":5.35099,"is_reserved":false,"is_disabled":false,"rental_uris":{"android":"levelo://app?vid=9e9a7724-bf59-4a55-9479-a5f90021a7f9","ios":"levelo://app?vid=9e9a7724-bf59-4a55-9479-a5f90021a7f9"},"vehicle_type_id":"4","last_reported":1704017230,"current_range_meters":0,"station_id":"","pricing_plan_id":"free"},{"bike_id":"9478936d-8530-4185-acde-5fc4a4551d3e","system_id":"levelo_inurba_marseille","lat":43.295713,"lon":5.399639,"is_reserved":false,"is_disabled":false,"rental_uris":{"android":"levelo://app?vid=9478936d-8530-4185-acde-5fc4a4551d3e","ios":"levelo://app?vid=9478936d-8530-4185-acde-5fc4a4551d3e"},"vehicle_type_id":"4","last_reported":1704017230,"current_range_meters":24400,"station_id":"ce4bh312rcd13ifvqdj0","pricing_plan_id":"free"},{"bike_id":"7e0969c3-3398-444a-b9bb-ec56a60896ee","system_id":"levelo_inurba_marseille","lat":43.286595,"lon":5.386795,"is_reserved":false,"is_disabled":false,"rental_uris":{"android":"levelo://app?vid=7e0969c3-3398-444a-b9bb-ec56a60896ee","ios":"levelo://app?vid=7e0969c3-3398-444a-b9bb-ec56a60896ee"},"vehicle_type_id":"4","last_reported":1704017230,"current_range_meters":24000,"station_id":"ce4bh492rcd13ifvqdug","pricing_plan_id":"free"},{"bike_id":"2a34418a-68fc-4df0-a58c-b424089bf812","system_id":"levelo_inurba_marseille","lat":43.33717,"lon":5.391857,"is_reserved":false,"is_disabled":false,"rental_uris":{"android":"levelo://app?vid=2a34418a-68fc-4df0-a58c-b424089bf812","ios":"levelo://app?vid=2a34418a-68fc-4df0-a58c-b424089bf812"},"vehicle_type_id":"4","last_reported":1704017230,"current_range_meters":29600,"station_id":"ce4bhr92rcd13ifvqhsg","pricing_plan_id":"free"},{"bike_id":"ca8cc347-d5bd-40d2-8cba-775c99edb6ed","system_id":"levelo_inurba_marseille","lat":43.33717,"lon":5.391857,"is_reserved":false,"is_disabled":false,"rental_uris":{"android":"levelo://app?vid=ca8cc347-d5bd-40d2-8cba-775c99edb6ed","ios":"levelo://app?vid=ca8cc347-d5bd-40d2-8cba-775c99edb6ed"},"vehicle_type_id":"4","last_reported":1704017230,"current_range_meters":24800,"station_id":"ce4bhr92rcd13ifvqhsg","pricing_plan_id":"free"},{"bike_id":"81e98546-48f6-4e53-9a96-d12ea8cec360","system_id":"levelo_inurba_marseille","lat":43.323464,"lon":5.406297,"is_reserved":false,"is_disabled":false,"rental_uris":{"android":"levelo://app?vid=81e98546-48f6-4e53-9a96-d12ea8cec360","ios":"levelo://app?vid=81e98546-48f6-4e53-9a96-d12ea8cec360"},"vehicle_type_id":"4","last_reported":1704017230,"current_range_meters":28400,"station_id":"ce4bhq92rcd13ifvqhjg","pricing_plan_id":"free"},{"bike_id":"e1f52daa-c1da-4a3b-9b5a-cb9098668e1f","system_id":"levelo_inurba_marseille","lat":43.283494,"lon":5.380945,"is_reserved":false,"is_disabled":false,"rental_uris":{"android":"levelo://app?vid=e1f52daa-c1da-4a3b-9b5a-cb9098668e1f","ios":"levelo://app?vid=e1f52daa-c1da-4a3b-9b5a-cb9098668e1f"},"vehicle_type_id":"4","last_reported":1704017230,"current_range_meters":23600,"station_id":"ce4bh412rcd13ifvqdr0","pricing_plan_id":"free"},{"bike_id":"e485450b-2736-4f4c-b94b-0da5a69b88aa","system_id":"levelo_inurba_marseille","lat":43.33385,"lon":5.39822,"is_reserved":false,"is_disabled":false,"rental_uris":{"android":"levelo://app?vid=e485450b-2736-4f4c-b94b-0da5a69b88aa","ios":"levelo://app?vid=e485450b-2736-4f4c-b94b-0da5a69b88aa"},"vehicle_type_id":"4","last_reported":1704017230,"current_range_meters":3600,"station_id":"","pricing_plan_id":"free"},{"bike_id":"5818fe67-ce7b-4822-b706-619cbfc03761","system_id":"levelo_inurba_marseille","lat":43.292724,"lon":5.401131,"is_reserved":false,"is_disabled":false,"rental_uris":{"android":"levelo://app?vid=5818fe67-ce7b-4822-b706-619cbfc03761","ios":"levelo://app?vid=5818fe67-ce7b-4822-b706-619cbfc03761"},"vehicle_type_id":"4","last_reported":1704017230,"current_range_meters":31200,"station_id":"ce4bh312rcd13ifvqdk0","pricing_plan_id":"free"},{"bike_id":"f37a884c-c737-4f0d-bd38-cd3f65f6a0af","system_id":"levelo_inurba_marseille","lat":43.282754,"lon":5.350519,"is_reserved":false,"is_disabled":false,"rental_uris":{"android":"levelo://app?vid=f37a884c-c737-4f0d-bd38-cd3f65f6a0af","ios":"levelo://app?vid=f37a884c-c737-4f0d-bd38-cd3f65f6a0af"},"vehicle_type_id":"4","last_reported":1704017230,"current_range_meters":28800,"station_id":"ce4bhbp2rcd13ifvqerg","pricing_plan_id":"free"},{"bike_id":"7f9ea06f-a63f-487c-9076-0b7e40e402de","system_id":"levelo_inurba_marseille","lat":43.282754,"lon":5.350519,"is_reserved":false,"is_disabled":false,"rental_uris":{"android":"levelo://app?vid=7f9ea06f-a63f-487c-9076-0b7e40e402de","ios":"levelo://app?vid=7f9ea06f-a63f-487c-9076-0b7e40e402de"},"vehicle_type_id":"4","last_reported":1704017230,"current_range_meters":31200,"station_id":"ce4bhbp2rcd13ifvqerg","pricing_plan_id":"free"},{"bike_id":"df21e554-5972-4041-94c5-796bf4691403","system_id":"levelo_inurba_marseille","lat":43.28269,"lon":5.35069,"is_reserved":false,"is_disabled":false,"rental_uris":{"android":"levelo://app?vid=df21e554-5972-4041-94c5-796bf4691403","ios":"levelo://app?vid=df21e554-5972-4041-94c5-796bf4691403"},"vehicle_type_id":"4","last_reported":1704017230,"current_range_meters":21600,"station_id":"ce4bhbp2rcd13ifvqerg","pricing_plan_id":"free"},{"bike_id":"b03cc6f4-bb18-4d4a-805f-a3fdbe2f79fe","system_id":"levelo_inurba_marseille","lat":43.282754,"lon":5.350519,"is_reserved":false,"is_disabled":false,"rental_uris":{"android":"levelo://app?vid=b03cc6f4-bb18-4d4a-805f-a3fdbe2f79fe","ios":"levelo://app?vid=b03cc6f4-bb18-4d4a-805f-a3fdbe2f79fe"},"vehicle_type_id":"4","last_reported":1704017230,"current_range_meters":28400,"station_id":"ce4bhbp2rcd13ifvqerg","pricing_plan_id":"free"},{"bike_id":"79cc33bc-88f5-41d2-93de-83c60e8e81e5","system_id":"levelo_inurba_marseille","lat":43.282754,"lon":5.350519,"is_reserved":false,"is_disabled":false,"rental_uris":{"android":"levelo://app?vid=79cc33bc-88f5-41d2-93de-83c60e8e81e5","ios":"levelo://app?vid=79cc33bc-88f5-41d2-93de-83c60e8e81e5"},"vehicle_type_id":"4","last_reported":1704017230,"current_range_meters":24000,"station_id":"ce4bhbp2rcd13ifvqerg","pricing_plan_id":"free"},{"bike_id":"1e0129a5-a56c-46d9-a230-2f7bb74b4272","system_id":"levelo_inurba_marseille","lat":43.282744,"lon":5.350533,"is_reserved":false,"is_disabled":false,"rental_uris":{"android":"levelo://app?vid=1e0129a5-a56c-46d9-a230-2f7bb74b4272","ios":"levelo://app?vid=1e0129a5-a56c-46d9-a230-2f7bb74b4272"},"vehicle_type_id":"4","last_reported":1704017230,"current_range_meters":17600,"station_id":"ce4bhbp2rcd13ifvqerg","pricing_plan_id":"free"},{"bike_id":"6325f18e-a2bf-4873-b2c4-740b9fbba92f","system_id":"levelo_inurba_marseille","lat":43.282754,"lon":5.350519,"is_reserved":false,"is_disabled":false,"rental_uris":{"android":"levelo://app?vid=6325f18e-a2bf-4873-b2c4-740b9fbba92f","ios":"levelo://app?vid=6325f18e-a2bf-4873-b2c4-740b9fbba92f"},"vehicle_type_id":"4","last_reported":1704017230,"current_range_meters":21200,"station_id":"ce4bhbp2rcd13ifvqerg","pricing_plan_id":"free"},{"bike_id":"776e28bb-9f06-4ab1-bcfb-33e188a3cd09","system_id":"levelo_inurba_marseille","lat":43.282754,"lon":5.350519,"is_reserved":false,"is_disabled":false,"rental_uris":{"android":"levelo://app?vid=776e28bb-9f06-4ab1-bcfb-33e188a3cd09","ios":"levelo://app?vid=776e28bb-9f06-4ab1-bcfb-33e188a3cd09"},"vehicle_type_id":"4","last_reported":1704017230,"current_range_meters":23600,"station_id":"ce4bhbp2rcd13ifvqerg","pricing_plan_id":"free"},{"bike_id":"2d2ac965-be29-4164-b614-3a27fd6cda4a","system_id":"levelo_inurba_marseille","lat":43.283502,"lon":5.386471,"is_reserved":false,"is_disabled":false,"rental_uris":{"android":"levelo://app?vid=2d2ac965-be29-4164-b614-3a27fd6cda4a","ios":"levelo://app?vid=2d2ac965-be29-4164-b614-3a27fd6cda4a"},"vehicle_type_id":"4","last_reported":1704017230,"current_range_meters":21600,"station_id":"ce4bh492rcd13ifvqdvg","pricing_plan_id":"free"},{"bike_id":"bd07911b-4e9b-43df-8896-909d23f4dd95","system_id":"levelo_inurba_marseille","lat":43.282754,"lon":5.350519,"is_reserved":false,"is_disabled":false,"rental_uris":{"android":"levelo://app?vid=bd07911b-4e9b-43df-8896-909d23f4dd95","ios":"levelo://app?vid=bd07911b-4e9b-43df-8896-909d23f4dd95"},"vehicle_type_id":"4","last_reported":1704017230,"current_range_meters":18400,"station_id":"ce4bhbp2rcd13ifvqerg","pricing_plan_id":"free"},{"bike_id":"fbfd8e32-4d80-4d8d-ba45-f560c59f860b","system_id":"levelo_inurba_marseille","lat":43.282754,"lon":5.350519,"is_reserved":false,"is_disabled":false,"rental_uris":{"android":"levelo://app?vid=fbfd8e32-4d80-4d8d-ba45-f560c59f860b","ios":"levelo://app?vid=fbfd8e32-4d80-4d8d-ba45-f560c59f860b"},"vehicle_type_id":"4","last_reported":1704017230,"current_range_meters":29600,"station_id":"ce4bhbp2rcd13ifvqerg","pricing_plan_id":"free"},{"bike_id":"4e816d35-ca4e-44a4-8c6d-bffe5e399c3a","system_id":"levelo_inurba_marseille","lat":43.282744,"lon":5.350533,"is_reserved":false,"is_disabled":false,"rental_uris":{"android":"levelo://app?vid=4e816d35-ca4e-44a4-8c6d-bffe5e399c3a","ios":"levelo://app?vid=4e816d35-ca4e-44a4-8c6d-bffe5e399c3a"},"vehicle_type_id":"4","last_reported":1704017230,"current_range_meters":20800,"station_id":"ce4bhbp2rcd13ifvqerg","pricing_plan_id":"free"},{"bike_id":"c4832363-fda5-4b7d-ba06-dc16742ffb4d","system_id":"levelo_inurba_marseille","lat":43.280382,"lon":5.369291,"is_reserved":false,"is_disabled":false,"rental_uris":{"android":"levelo://app?vid=c4832363-fda5-4b7d-ba06-dc16742ffb4d","ios":"levelo://app?vid=c4832363-fda5-4b7d-ba06-dc16742ffb4d"},"vehicle_type_id":"4","last_reported":1704017230,"current_range_meters":23200,"station_id":"ce4bha12rcd13ifvqef0","pricing_plan_id":"free"},{"bike_id":"75652f45-6b35-4786-a4f2-5fd4808af969","system_id":"levelo_inurba_marseille","lat":43.28039,"lon":5.369297,"is_reserved":false,"is_disabled":false,"rental_uris":{"android":"levelo://app?vid=75652f45-6b35-4786-a4f2-5fd4808af969","ios":"levelo://app?vid=75652f45-6b35-4786-a4f2-5fd4808af969"},"vehicle_type_id":"4","last_reported":1704017230,"current_range_meters":31200,"station_id":"ce4bha12rcd13ifvqef0","pricing_plan_id":"free"},{"bike_id":"255df2c5-d5fc-405c-ae1b-1cab9ff70f41","system_id":"levelo_inurba_marseille","lat":43.280382,"lon":5.369291,"is_reserved":false,"is_disabled":false,"rental_uris":{"android":"levelo://app?vid=255df2c5-d5fc-405c-ae1b-1cab9ff70f41","ios":"levelo://app?vid=255df2c5-d5fc-405c-ae1b-1cab9ff70f41"},"vehicle_type_id":"4","last_reported":1704017230,"current_range_meters":24800,"station_id":"ce4bha12rcd13ifvqef0","pricing_plan_id":"free"},{"bike_id":"77ec6399-f2bb-44b8-8f10-e3badbe5046a","system_id":"levelo_inurba_marseille","lat":43.280382,"lon":5.369291,"is_reserved":false,"is_disabled":false,"rental_uris":{"android":"levelo://app?vid=77ec6399-f2bb-44b8-8f10-e3badbe5046a","ios":"levelo://app?vid=77ec6399-f2bb-44b8-8f10-e3badbe5046a"},"vehicle_type_id":"4","last_reported":1704017230,"current_range_meters":31200,"station_id":"ce4bha12rcd13ifvqef0","pricing_plan_id":"free"},{"bike_id":"db701e76-6f00-4c63-acf4-ac466abb2a1a","system_id":"levelo_inurba_marseille","lat":43.290412,"lon":5.399633,"is_reserved":false,"is_disabled":false,"rental_uris":{"android":"levelo://app?vid=db701e76-6f00-4c63-acf4-ac466abb2a1a","ios":"levelo://app?vid=db701e76-6f00-4c63-acf4-ac466abb2a1a"},"vehicle_type_id":"4","last_reported":1704017230,"current_range_meters":16800,"station_id":"ce4bh392rcd13ifvqdm0","pricing_plan_id":"free"},{"bike_id":"1646a75e-95ed-4ba4-82a1-29de92d64f2c","system_id":"levelo_inurba_marseille","lat":43.281044,"lon":5.378308,"is_reserved":false,"is_disabled":false,"rental_uris":{"android":"levelo://app?vid=1646a75e-95ed-4ba4-82a1-29de92d64f2c","ios":"levelo://app?vid=1646a75e-95ed-4ba4-82a1-29de92d64f2c"},"vehicle_type_id":"4","last_reported":1704017230,"current_range_meters":22800,"station_id":"ce4bha12rcd13ifvqee0","pricing_plan_id":"free"},{"bike_id":"04bceee0-89d1-4ae4-9968-22c27c8577d0","system_id":"levelo_inurba_marseille","lat":43.28573,"lon":5.394992,"is_reserved":false,"is_disabled":false,"rental_uris":{"android":"levelo://app?vid=04bceee0-89d1-4ae4-9968-22c27c8577d0","ios":"levelo://app?vid=04bceee0-89d1-4ae4-9968-22c27c8577d0"},"vehicle_type_id":"4","last_reported":1704017230,"current_range_meters":5200,"station_id":"ce4bh292rcd13ifvqdg0","pricing_plan_id":"free"},{"bike_id":"a22aa422-d929-4252-82a6-19025a6de0ff","system_id":"levelo_inurba_marseille","lat":43.326605,"lon":5.409903,"is_reserved":false,"is_disabled":false,"rental_uris":{"android":"levelo://app?vid=a22aa422-d929-4252-82a6-19025a6de0ff","ios":"levelo://app?vid=a22aa422-d929-4252-82a6-19025a6de0ff"},"vehicle_type_id":"4","last_reported":1704017230,"current_range_meters":9200,"station_id":"ce4bhpp2rcd13ifvqhgg","pricing_plan_id":"free"},{"bike_id":"4a267614-7a4d-4c0c-8aaa-3351e931dc60","system_id":"levelo_inurba_marseille","lat":43.304188,"lon":5.412904,"is_reserved":false,"is_disabled":false,"rental_uris":{"android":"levelo://app?vid=4a267614-7a4d-4c0c-8aaa-3351e931dc60","ios":"levelo://app?vid=4a267614-7a4d-4c0c-8aaa-3351e931dc60"},"vehicle_type_id":"4","last_reported":1704017230,"current_range_meters":30000,"station_id":"ce4bhop2rcd13ifvqh8g","pricing_plan_id":"free"},{"bike_id":"0cde9e12-59bb-489e-952b-9f874c8fd9ca","system_id":"levelo_inurba_marseille","lat":43.304188,"lon":5.412904,"is_reserved":false,"is_disabled":false,"rental_uris":{"android":"levelo://app?vid=0cde9e12-59bb-489e-952b-9f874c8fd9ca","ios":"levelo://app?vid=0cde9e12-59bb-489e-952b-9f874c8fd9ca"},"vehicle_type_id":"4","last_reported":1704017230,"current_range_meters":27600,"station_id":"ce4bhop2rcd13ifvqh8g","pricing_plan_id":"free"},{"bike_id":"de21200a-8a29-4435-87c7-41bda94e9655","system_id":"levelo_inurba_marseille","lat":43.279087,"lon":5.380114,"is_reserved":false,"is_disabled":false,"rental_uris":{"android":"levelo://app?vid=de21200a-8a29-4435-87c7-41bda94e9655","ios":"levelo://app?vid=de21200a-8a29-4435-87c7-41bda94e9655"},"vehicle_type_id":"4","last_reported":1704017230,"current_range_meters":22400,"station_id":"ce4bhf92rcd13ifvqf50","pricing_plan_id":"free"},{"bike_id":"4c1e6f9a-9d40-4842-9b4d-0255b03fa088","system_id":"levelo_inurba_marseille","lat":43.279087,"lon":5.380114,"is_reserved":false,"is_disabled":false,"rental_uris":{"android":"levelo://app?vid=4c1e6f9a-9d40-4842-9b4d-0255b03fa088","ios":"levelo://app?vid=4c1e6f9a-9d40-4842-9b4d-0255b03fa088"},"vehicle_type_id":"4","last_reported":1704017230,"current_range_meters":27200,"station_id":"ce4bhf92rcd13ifvqf50","pricing_plan_id":"free"},{"bike_id":"bffe5276-3e14-4fdf-85f7-534dbda87c96","system_id":"levelo_inurba_marseille","lat":43.287154,"lon":5.399979,"is_reserved":false,"is_disabled":false,"rental_uris":{"android":"levelo://app?vid=bffe5276-3e14-4fdf-85f7-534dbda87c96","ios":"levelo://app?vid=bffe5276-3e14-4fdf-85f7-534dbda87c96"},"vehicle_type_id":"4","last_reported":1704017230,"current_range_meters":23200,"station_id":"ce4bho92rcd13ifvqh3g","pricing_plan_id":"free"},{"bike_id":"972d91c8-d4f6-45b6-a4fa-6dc2587abcc8","system_id":"levelo_inurba_marseille","lat":43.320045,"lon":5.415046,"is_reserved":false,"is_disabled":false,"rental_uris":{"android":"levelo://app?vid=972d91c8-d4f6-45b6-a4fa-6dc2587abcc8","ios":"levelo://app?vid=972d91c8-d4f6-45b6-a4fa-6dc2587abcc8"},"vehicle_type_id":"4","last_reported":1704017230,"current_range_meters":28800,"station_id":"ce4bhq92rcd13ifvqhkg","pricing_plan_id":"free"},{"bike_id":"f6a53825-6992-49ec-8bcb-a2cd8e3c45ba","system_id":"levelo_inurba_marseille","lat":43.299577,"lon":5.413277,"is_reserved":false,"is_disabled":false,"rental_uris":{"android":"levelo://app?vid=f6a53825-6992-49ec-8bcb-a2cd8e3c45ba","ios":"levelo://app?vid=f6a53825-6992-49ec-8bcb-a2cd8e3c45ba"},"vehicle_type_id":"4","last_reported":1704017230,"current_range_meters":30400,"station_id":"ce4bhp12rcd13ifvqh9g","pricing_plan_id":"free"},{"bike_id":"69a47f00-8273-4996-be3c-f6defc26dc70","system_id":"levelo_inurba_marseille","lat":43.279742,"lon":5.38744,"is_reserved":false,"is_disabled":false,"rental_uris":{"android":"levelo://app?vid=69a47f00-8273-4996-be3c-f6defc26dc70","ios":"levelo://app?vid=69a47f00-8273-4996-be3c-f6defc26dc70"},"vehicle_type_id":"4","last_reported":1704017230,"current_range_meters":2800,"station_id":"ce4bhg12rcd13ifvqf80","pricing_plan_id":"free"},{"bike_id":"e2116b2e-3a5f-4bd8-a1c8-2607f2cb6d00","system_id":"levelo_inurba_marseille","lat":43.325461,"lon":5.414241,"is_reserved":false,"is_disabled":false,"rental_uris":{"android":"levelo://app?vid=e2116b2e-3a5f-4bd8-a1c8-2607f2cb6d00","ios":"levelo://app?vid=e2116b2e-3a5f-4bd8-a1c8-2607f2cb6d00"},"vehicle_type_id":"4","last_reported":1704017230,"current_range_meters":7200,"station_id":"ce4bhq12rcd13ifvqhhg","pricing_plan_id":"free"},{"bike_id":"4122cd37-de4a-40f4-8dd7-5befa0ce335e","system_id":"levelo_inurba_marseille","lat":43.276179,"lon":5.361009,"is_reserved":false,"is_disabled":false,"rental_uris":{"android":"levelo://app?vid=4122cd37-de4a-40f4-8dd7-5befa0ce335e","ios":"levelo://app?vid=4122cd37-de4a-40f4-8dd7-5befa0ce335e"},"vehicle_type_id":"4","last_reported":1704017230,"current_range_meters":30800,"station_id":"ce4bgj92rcd13ifvqbe0","pricing_plan_id":"free"},{"bike_id":"70017d6e-6f1a-4af6-baf6-320a119b5691","system_id":"levelo_inurba_marseille","lat":43.347904,"lon":5.35087,"is_reserved":false,"is_disabled":false,"rental_uris":{"android":"levelo://app?vid=70017d6e-6f1a-4af6-baf6-320a119b5691","ios":"levelo://app?vid=70017d6e-6f1a-4af6-baf6-320a119b5691"},"vehicle_type_id":"4","last_reported":1704017230,"current_range_meters":28400,"station_id":"","pricing_plan_id":"free"},{"bike_id":"ef3d5c69-7bf9-444c-9e09-ceca209c7099","system_id":"levelo_inurba_marseille","lat":43.280784,"lon":5.396622,"is_reserved":false,"is_disabled":false,"rental_uris":{"android":"levelo://app?vid=ef3d5c69-7bf9-444c-9e09-ceca209c7099","ios":"levelo://app?vid=ef3d5c69-7bf9-444c-9e09-ceca209c7099"},"vehicle_type_id":"4","last_reported":1704017230,"current_range_meters":26800,"station_id":"ce4bho12rcd13ifvqh2g","pricing_plan_id":"free"},{"bike_id":"96e887aa-c8b8-4df6-b4db-0bd872f874a3","system_id":"levelo_inurba_marseille","lat":43.303837,"lon":5.418724,"is_reserved":false,"is_disabled":false,"rental_uris":{"android":"levelo://app?vid=96e887aa-c8b8-4df6-b4db-0bd872f874a3","ios":"levelo://app?vid=96e887aa-c8b8-4df6-b4db-0bd872f874a3"},"vehicle_type_id":"4","last_reported":1704017230,"current_range_meters":23200,"station_id":"ce4bhop2rcd13ifvqh7g","pricing_plan_id":"free"},{"bike_id":"bb4cbe5f-5561-4a37-a341-a39a691c1e82","system_id":"levelo_inurba_marseille","lat":43.303837,"lon":5.418724,"is_reserved":false,"is_disabled":false,"rental_uris":{"android":"levelo://app?vid=bb4cbe5f-5561-4a37-a341-a39a691c1e82","ios":"levelo://app?vid=bb4cbe5f-5561-4a37-a341-a39a691c1e82"},"vehicle_type_id":"4","last_reported":1704017230,"current_range_meters":28000,"station_id":"ce4bhop2rcd13ifvqh7g","pricing_plan_id":"free"},{"bike_id":"fcd31f89-dd15-4f92-bd38-d8f30235aec7","system_id":"levelo_inurba_marseille","lat":43.303837,"lon":5.418724,"is_reserved":false,"is_disabled":false,"rental_uris":{"android":"levelo://app?vid=fcd31f89-dd15-4f92-bd38-d8f30235aec7","ios":"levelo://app?vid=fcd31f89-dd15-4f92-bd38-d8f30235aec7"},"vehicle_type_id":"4","last_reported":1704017230,"current_range_meters":28400,"station_id":"ce4bhop2rcd13ifvqh7g","pricing_plan_id":"free"},{"bike_id":"148d161d-505e-422b-85f3-f1f638c5ee50","system_id":"levelo_inurba_marseille","lat":43.27379,"lon":5.36257,"is_reserved":false,"is_disabled":false,"rental_uris":{"android":"levelo://app?vid=148d161d-505e-422b-85f3-f1f638c5ee50","ios":"levelo://app?vid=148d161d-505e-422b-85f3-f1f638c5ee50"},"vehicle_type_id":"4","last_reported":1704017230,"current_range_meters":28400,"station_id":"ce4bhbh2rcd13ifvqeo0","pricing_plan_id":"free"},{"bike_id":"ee22cc90-6aca-4b6b-b791-f4f6cf8f24ea","system_id":"levelo_inurba_marseille","lat":43.27374,"lon":5.36255,"is_reserved":false,"is_disabled":false,"rental_uris":{"android":"levelo://app?vid=ee22cc90-6aca-4b6b-b791-f4f6cf8f24ea","ios":"levelo://app?vid=ee22cc90-6aca-4b6b-b791-f4f6cf8f24ea"},"vehicle_type_id":"4","last_reported":1704017230,"current_range_meters":26000,"station_id":"ce4bhbh2rcd13ifvqeo0","pricing_plan_id":"free"},{"bike_id":"8fae5886-96fa-481c-8334-0fc1bb3c10a4","system_id":"levelo_inurba_marseille","lat":43.273609,"lon":5.362708,"is_reserved":false,"is_disabled":false,"rental_uris":{"android":"levelo://app?vid=8fae5886-96fa-481c-8334-0fc1bb3c10a4","ios":"levelo://app?vid=8fae5886-96fa-481c-8334-0fc1bb3c10a4"},"vehicle_type_id":"4","last_reported":1704017230,"current_range_meters":26400,"station_id":"ce4bhbh2rcd13ifvqeo0","pricing_plan_id":"free"},{"bike_id":"d9c8318c-3031-4f68-9885-19375abd858f","system_id":"levelo_inurba_marseille","lat":43.31468,"lon":5.42611,"is_reserved":false,"is_disabled":false,"rental_uris":{"android":"levelo://app?vid=d9c8318c-3031-4f68-9885-19375abd858f","ios":"levelo://app?vid=d9c8318c-3031-4f68-9885-19375abd858f"},"vehicle_type_id":"4","last_reported":1704017230,"current_range_meters":4000,"station_id":"","pricing_plan_id":"free"},{"bike_id":"f469bb82-d41e-4cf7-88b8-44b7c61170d9","system_id":"levelo_inurba_marseille","lat":43.295511,"lon":5.422926,"is_reserved":false,"is_disabled":false,"rental_uris":{"android":"levelo://app?vid=f469bb82-d41e-4cf7-88b8-44b7c61170d9","ios":"levelo://app?vid=f469bb82-d41e-4cf7-88b8-44b7c61170d9"},"vehicle_type_id":"4","last_reported":1704017230,"current_range_meters":15600,"station_id":"ce4bhph2rcd13ifvqhdg","pricing_plan_id":"free"},{"bike_id":"65da9df5-8509-49ff-8b3d-cd31aab7ec06","system_id":"levelo_inurba_marseille","lat":43.295523,"lon":5.422926,"is_reserved":false,"is_disabled":false,"rental_uris":{"android":"levelo://app?vid=65da9df5-8509-49ff-8b3d-cd31aab7ec06","ios":"levelo://app?vid=65da9df5-8509-49ff-8b3d-cd31aab7ec06"},"vehicle_type_id":"4","last_reported":1704017230,"current_range_meters":30400,"station_id":"ce4bhph2rcd13ifvqhdg","pricing_plan_id":"free"},{"bike_id":"061bb09e-908a-4f76-afb2-44bcfcb6aa80","system_id":"levelo_inurba_marseille","lat":43.295511,"lon":5.422926,"is_reserved":false,"is_disabled":false,"rental_uris":{"android":"levelo://app?vid=061bb09e-908a-4f76-afb2-44bcfcb6aa80","ios":"levelo://app?vid=061bb09e-908a-4f76-afb2-44bcfcb6aa80"},"vehicle_type_id":"4","last_reported":1704017230,"current_range_meters":30800,"station_id":"ce4bhph2rcd13ifvqhdg","pricing_plan_id":"free"},{"bike_id":"beb93061-85bf-4e20-99aa-79c67497ba42","system_id":"levelo_inurba_marseille","lat":43.295511,"lon":5.422926,"is_reserved":false,"is_disabled":false,"rental_uris":{"android":"levelo://app?vid=beb93061-85bf-4e20-99aa-79c67497ba42","ios":"levelo://app?vid=beb93061-85bf-4e20-99aa-79c67497ba42"},"vehicle_type_id":"4","last_reported":1704017230,"current_range_meters":16000,"station_id":"ce4bhph2rcd13ifvqhdg","pricing_plan_id":"free"},{"bike_id":"6876aea3-bcae-4465-9248-ec0980fc3939","system_id":"levelo_inurba_marseille","lat":43.295511,"lon":5.422926,"is_reserved":false,"is_disabled":false,"rental_uris":{"android":"levelo://app?vid=6876aea3-bcae-4465-9248-ec0980fc3939","ios":"levelo://app?vid=6876aea3-bcae-4465-9248-ec0980fc3939"},"vehicle_type_id":"4","last_reported":1704017230,"current_range_meters":14800,"station_id":"ce4bhph2rcd13ifvqhdg","pricing_plan_id":"free"},{"bike_id":"dedf3749-9040-4eaf-9f77-e67b3336d6b0","system_id":"levelo_inurba_marseille","lat":43.272118,"lon":5.391758,"is_reserved":false,"is_disabled":false,"rental_uris":{"android":"levelo://app?vid=dedf3749-9040-4eaf-9f77-e67b3336d6b0","ios":"levelo://app?vid=dedf3749-9040-4eaf-9f77-e67b3336d6b0"},"vehicle_type_id":"4","last_reported":1704017230,"current_range_meters":25600,"station_id":"ce4bhhp2rcd13ifvqfm0","pricing_plan_id":"free"},{"bike_id":"0862e90a-6692-4741-afc0-72a5d3776c7b","system_id":"levelo_inurba_marseille","lat":43.272116,"lon":5.391747,"is_reserved":false,"is_disabled":false,"rental_uris":{"android":"levelo://app?vid=0862e90a-6692-4741-afc0-72a5d3776c7b","ios":"levelo://app?vid=0862e90a-6692-4741-afc0-72a5d3776c7b"},"vehicle_type_id":"4","last_reported":1704017230,"current_range_meters":27600,"station_id":"ce4bhhp2rcd13ifvqfm0","pricing_plan_id":"free"},{"bike_id":"caa4d308-0c7f-49c7-9950-41d2fc1a9c2f","system_id":"levelo_inurba_marseille","lat":43.27817,"lon":5.40721,"is_reserved":false,"is_disabled":false,"rental_uris":{"android":"levelo://app?vid=caa4d308-0c7f-49c7-9950-41d2fc1a9c2f","ios":"levelo://app?vid=caa4d308-0c7f-49c7-9950-41d2fc1a9c2f"},"vehicle_type_id":"4","last_reported":1704017230,"current_range_meters":21600,"station_id":"ce4bhnh2rcd13ifvqgtg","pricing_plan_id":"free"},{"bike_id":"b5c3da3a-ffaa-46a3-a1cf-33de7d75a336","system_id":"levelo_inurba_marseille","lat":43.269467,"lon":5.386439,"is_reserved":false,"is_disabled":false,"rental_uris":{"android":"levelo://app?vid=b5c3da3a-ffaa-46a3-a1cf-33de7d75a336","ios":"levelo://app?vid=b5c3da3a-ffaa-46a3-a1cf-33de7d75a336"},"vehicle_type_id":"4","last_reported":1704017230,"current_range_meters":21600,"station_id":"ce4bhh92rcd13ifvqfh0","pricing_plan_id":"free"},{"bike_id":"66b09d4a-47c2-4523-9ebb-cd2bb18cd97b","system_id":"levelo_inurba_marseille","lat":43.279465,"lon":5.410561,"is_reserved":false,"is_disabled":false,"rental_uris":{"android":"levelo://app?vid=66b09d4a-47c2-4523-9ebb-cd2bb18cd97b","ios":"levelo://app?vid=66b09d4a-47c2-4523-9ebb-cd2bb18cd97b"},"vehicle_type_id":"4","last_reported":1704017230,"current_range_meters":13200,"station_id":"ce4bhnp2rcd13ifvqh0g","pricing_plan_id":"free"},{"bike_id":"979ae2c2-df0d-48c1-9f96-4acb668b35fc","system_id":"levelo_inurba_marseille","lat":43.26933,"lon":5.38911,"is_reserved":false,"is_disabled":false,"rental_uris":{"android":"levelo://app?vid=979ae2c2-df0d-48c1-9f96-4acb668b35fc","ios":"levelo://app?vid=979ae2c2-df0d-48c1-9f96-4acb668b35fc"},"vehicle_type_id":"4","last_reported":1704017230,"current_range_meters":15200,"station_id":"ce4bhhh2rcd13ifvqfl0","pricing_plan_id":"free"},{"bike_id":"4ace0143-54eb-450f-874b-0d5359e906a6","system_id":"levelo_inurba_marseille","lat":43.31303,"lon":5.43093,"is_reserved":false,"is_disabled":false,"rental_uris":{"android":"levelo://app?vid=4ace0143-54eb-450f-874b-0d5359e906a6","ios":"levelo://app?vid=4ace0143-54eb-450f-874b-0d5359e906a6"},"vehicle_type_id":"4","last_reported":1704017230,"current_range_meters":28000,"station_id":"","pricing_plan_id":"free"},{"bike_id":"7ed6f02c-57ad-46dd-b917-ccac4415228b","system_id":"levelo_inurba_marseille","lat":43.265714,"lon":5.372891,"is_reserved":false,"is_disabled":false,"rental_uris":{"android":"levelo://app?vid=7ed6f02c-57ad-46dd-b917-ccac4415228b","ios":"levelo://app?vid=7ed6f02c-57ad-46dd-b917-ccac4415228b"},"vehicle_type_id":"4","last_reported":1704017230,"current_range_meters":22000,"station_id":"ce4bhg12rcd13ifvqf70","pricing_plan_id":"free"},{"bike_id":"b29289da-3c2e-4521-adf5-1eaf3aa366f3","system_id":"levelo_inurba_marseille","lat":43.265714,"lon":5.372891,"is_reserved":false,"is_disabled":false,"rental_uris":{"android":"levelo://app?vid=b29289da-3c2e-4521-adf5-1eaf3aa366f3","ios":"levelo://app?vid=b29289da-3c2e-4521-adf5-1eaf3aa366f3"},"vehicle_type_id":"4","last_reported":1704017230,"current_range_meters":22800,"station_id":"ce4bhg12rcd13ifvqf70","pricing_plan_id":"free"},{"bike_id":"cd635db9-8d90-4d69-96f1-7990be617026","system_id":"levelo_inurba_marseille","lat":43.280094,"lon":5.416622,"is_reserved":false,"is_disabled":false,"rental_uris":{"android":"levelo://app?vid=cd635db9-8d90-4d69-96f1-7990be617026","ios":"levelo://app?vid=cd635db9-8d90-4d69-96f1-7990be617026"},"vehicle_type_id":"4","last_reported":1704017230,"current_range_meters":10000,"station_id":"ce4bho12rcd13ifvqh1g","pricing_plan_id":"free"},{"bike_id":"7b871402-0f75-40fe-8468-29c23cf5ceb0","system_id":"levelo_inurba_marseille","lat":43.28002,"lon":5.41661,"is_reserved":false,"is_disabled":false,"rental_uris":{"android":"levelo://app?vid=7b871402-0f75-40fe-8468-29c23cf5ceb0","ios":"levelo://app?vid=7b871402-0f75-40fe-8468-29c23cf5ceb0"},"vehicle_type_id":"4","last_reported":1704017230,"current_range_meters":9200,"station_id":"ce4bho12rcd13ifvqh1g","pricing_plan_id":"free"},{"bike_id":"b13eed8c-1a94-4423-b5d6-ede7d4833ea0","system_id":"levelo_inurba_marseille","lat":43.279887,"lon":5.41657,"is_reserved":false,"is_disabled":false,"rental_uris":{"android":"levelo://app?vid=b13eed8c-1a94-4423-b5d6-ede7d4833ea0","ios":"levelo://app?vid=b13eed8c-1a94-4423-b5d6-ede7d4833ea0"},"vehicle_type_id":"4","last_reported":1704017230,"current_range_meters":18800,"station_id":"ce4bho12rcd13ifvqh1g","pricing_plan_id":"free"},{"bike_id":"2569f04e-45a6-4ae1-8672-b39d66a61ea8","system_id":"levelo_inurba_marseille","lat":43.27991,"lon":5.41662,"is_reserved":false,"is_disabled":false,"rental_uris":{"android":"levelo://app?vid=2569f04e-45a6-4ae1-8672-b39d66a61ea8","ios":"levelo://app?vid=2569f04e-45a6-4ae1-8672-b39d66a61ea8"},"vehicle_type_id":"4","last_reported":1704017230,"current_range_meters":14000,"station_id":"ce4bho12rcd13ifvqh1g","pricing_plan_id":"free"},{"bike_id":"40c945d6-0276-4a48-b299-960f10ed7965","system_id":"levelo_inurba_marseille","lat":43.279925,"lon":5.41664,"is_reserved":false,"is_disabled":false,"rental_uris":{"android":"levelo://app?vid=40c945d6-0276-4a48-b299-960f10ed7965","ios":"levelo://app?vid=40c945d6-0276-4a48-b299-960f10ed7965"},"vehicle_type_id":"4","last_reported":1704017230,"current_range_meters":11600,"station_id":"ce4bho12rcd13ifvqh1g","pricing_plan_id":"free"},{"bike_id":"267606f5-650f-4b88-939b-5a7bc7045522","system_id":"levelo_inurba_marseille","lat":43.27988,"lon":5.4166,"is_reserved":false,"is_disabled":false,"rental_uris":{"android":"levelo://app?vid=267606f5-650f-4b88-939b-5a7bc7045522","ios":"levelo://app?vid=267606f5-650f-4b88-939b-5a7bc7045522"},"vehicle_type_id":"4","last_reported":1704017230,"current_range_meters":28400,"station_id":"ce4bho12rcd13ifvqh1g","pricing_plan_id":"free"},{"bike_id":"6360d5f3-4af1-46b3-b9af-6b80a26ce6ca","system_id":"levelo_inurba_marseille","lat":43.27996,"lon":5.416624,"is_reserved":false,"is_disabled":false,"rental_uris":{"android":"levelo://app?vid=6360d5f3-4af1-46b3-b9af-6b80a26ce6ca","ios":"levelo://app?vid=6360d5f3-4af1-46b3-b9af-6b80a26ce6ca"},"vehicle_type_id":"4","last_reported":1704017230,"current_range_meters":27200,"station_id":"ce4bho12rcd13ifvqh1g","pricing_plan_id":"free"},{"bike_id":"1c7b2420-34e7-4cda-9b8d-e5551d4017de","system_id":"levelo_inurba_marseille","lat":43.279901,"lon":5.416649,"is_reserved":false,"is_disabled":false,"rental_uris":{"android":"levelo://app?vid=1c7b2420-34e7-4cda-9b8d-e5551d4017de","ios":"levelo://app?vid=1c7b2420-34e7-4cda-9b8d-e5551d4017de"},