{"last_updated":1758564877,"ttl":60,"version":"2.2","data":{"bikes":[{"bike_id":"e0e9a4cb-7584-4d2a-91df-02439587ea41","system_id":"levelo_inurba_marseille","lat":43.26204,"lon":5.37931,"is_reserved":false,"is_disabled":false,"rental_uris":{"android":"levelo://app?vid=e0e9a4cb-7584-4d2a-91df-02439587ea41","ios":"levelo://app?vid=e0e9a4cb-7584-4d2a-91df-02439587ea41"},"vehicle_type_id":"4","last_reported":1758564877,"current_range_meters":2800,"station_id":"ce4bhjp2rcd13ifvqg90","pricing_plan_id":"cebpf4jnsgd1na2vs0mg"},{"bike_id":"23c02294-6eb6-41ae-9ab9-b7cbcab30575","system_id":"levelo_inurba_marseille","lat":43.26562,"lon":5.39026,"is_reserved":false,"is_disabled":false,"rental_uris":{"android":"levelo://app?vid=23c02294-6eb6-41ae-9ab9-b7cbcab30575","ios":"levelo://app?vid=23c02294-6eb6-41ae-9ab9-b7cbcab30575"},"vehicle_type_id":"4","last_reported":1758564877,"current_range_meters":2800,"station_id":"ce4bhe12rcd13ifvqf30","pricing_plan_id":"cebpf4jnsgd1na2vs0mg"},{"bike_id":"d7c25918-4ee2-4f07-aafe-045313861472","system_id":"levelo_inurba_marseille","lat":43.27441,"lon":5.3613,"is_reserved":false,"is_disabled":false,"rental_uris":{"android":"levelo://app?vid=d7c25918-4ee2-4f07-aafe-045313861472","ios":"levelo://app?vid=d7c25918-4ee2-4f07-aafe-045313861472"},"vehicle_type_id":"4","last_reported":1758564877,"current_range_meters":2800,"station_id":"","pricing_plan_id":"cebpf4jnsgd1na2vs0mg"},{"bike_id":"fb6a49d0-a540-4ebd-9b5c-4adce62173da","system_id":"levelo_inurba_marseille","lat":43.25862,"lon":5.39912,"is_reserved":false,"is_disabled":false,"rental_uris":{"android":"levelo://app?vid=fb6a49d0-a540-4ebd-9b5c-4adce62173da","ios":"levelo://app?vid=fb6a49d0-a540-4ebd-9b5c-4adce62173da"},"vehicle_type_id":"4","last_reported":1758564877,"current_range_meters":2800,"station_id":"ce4bhl92rcd13ifvqghg","pricing_plan_id":"cebpf4jnsgd1na2vs0mg"},{"bike_id":"5b8373bb-23a9-4e3a-a648-8f59583a1e38","system_id":"levelo_inurba_marseille","lat":43.24905,"lon":5.39026,"is_reserved":false,"is_disabled":true,"rental_uris":{"android":"levelo://app?vid=5b8373bb-23a9-4e3a-a648-8f59583a1e38","ios":"levelo://app?vid=5b8373bb-23a9-4e3a-a648-8f59583a1e38"},"vehicle_type_id":"4","last_reported":1758564877,"current_range_meters":2800,"station_id":"","pricing_plan_id":"cebpf4jnsgd1na2vs0mg"},{"bike_id":"a2a8f0d4-4480-43b5-8565-8e028409b075","system_id":"levelo_inurba_marseille","lat":43.2953,"lon":5.38542,"is_reserved":false,"is_disabled":false,"rental_uris":{"android":"levelo://app?vid=a2a8f0d4-4480-43b5-8565-8e028409b075","ios":"levelo://app?vid=a2a8f0d4-4480-43b5-8565-8e028409b075"},"vehicle_type_id":"4","last_reported":1758564877,"current_range_meters":3200,"station_id":"ce4bgih2rcd13ifvqba0","pricing_plan_id":"cebpf4jnsgd1na2vs0mg"},{"bike_id":"0f7caa9f-1d1a-40d7-9b4a-2f8720e63681","system_id":"levelo_inurba_marseille","lat":43.308265,"lon":5.3752,"is_reserved":false,"is_disabled":false,"rental_uris":{"android":"levelo://app?vid=0f7caa9f-1d1a-40d7-9b4a-2f8720e63681","ios":"levelo://app?vid=0f7caa9f-1d1a-40d7-9b4a-2f8720e63681"},"vehicle_type_id":"4","last_reported":1758564877,"current_range_meters":3600,"station_id":"","pricing_plan_id":"cebpf4jnsgd1na2vs0mg"},{"bike_id":"0d71c0ac-9e14-411e-83d0-aa529c3f3c9a","system_id":"levelo_inurba_marseille","lat":43.30634,"lon":5.36625,"is_reserved":false,"is_disabled":false,"rental_uris":{"android":"levelo://app?vid=0d71c0ac-9e14-411e-83d0-aa529c3f3c9a","ios":"levelo://app?vid=0d71c0ac-9e14-411e-83d0-aa529c3f3c9a"},"vehicle_type_id":"4","last_reported":1758564877,"current_range_meters":3200,"station_id":"","pricing_plan_id":"cebpf4jnsgd1na2vs0mg"},{"bike_id":"48786e0e-0c34-4397-bd76-f9aee24ff334","system_id":"levelo_inurba_marseille","lat":43.29621,"lon":5.405849,"is_reserved":false,"is_disabled":false,"rental_uris":{"android":"levelo://app?vid=48786e0e-0c34-4397-bd76-f9aee24ff334","ios":"levelo://app?vid=48786e0e-0c34-4397-bd76-f9aee24ff334"},"vehicle_type_id":"4","last_reported":1758564877,"current_range_meters":3200,"station_id":"ce4bh0h2rcd13ifvqd60","pricing_plan_id":"cebpf4jnsgd1na2vs0mg"},{"bike_id":"d8f4b972-b0ec-412f-bbb7-e63ad86099df","system_id":"levelo_inurba_marseille","lat":43.3188,"lon":5.40736,"is_reserved":false,"is_disabled":false,"rental_uris":{"android":"levelo://app?vid=d8f4b972-b0ec-412f-bbb7-e63ad86099df","ios":"levelo://app?vid=d8f4b972-b0ec-412f-bbb7-e63ad86099df"},"vehicle_type_id":"4","last_reported":1758564877,"current_range_meters":3200,"station_id":"ce4bhq12rcd13ifvqhig","pricing_plan_id":"cebpf4jnsgd1na2vs0mg"},{"bike_id":"85b6711c-38db-41d4-958d-ac2f89a483b3","system_id":"levelo_inurba_marseille","lat":43.29532,"lon":5.3854,"is_reserved":false,"is_disabled":false,"rental_uris":{"android":"levelo://app?vid=85b6711c-38db-41d4-958d-ac2f89a483b3","ios":"levelo://app?vid=85b6711c-38db-41d4-958d-ac2f89a483b3"},"vehicle_type_id":"4","last_reported":1758564877,"current_range_meters":3200,"station_id":"ce4bgih2rcd13ifvqba0","pricing_plan_id":"cebpf4jnsgd1na2vs0mg"},{"bike_id":"303105bd-3cb9-49a9-a939-60af0aabea69","system_id":"levelo_inurba_marseille","lat":43.274334,"lon":5.394154,"is_reserved":false,"is_disabled":false,"rental_uris":{"android":"levelo://app?vid=303105bd-3cb9-49a9-a939-60af0aabea69","ios":"levelo://app?vid=303105bd-3cb9-49a9-a939-60af0aabea69"},"vehicle_type_id":"4","last_reported":1758564877,"current_range_meters":3200,"station_id":"ce4bhdp2rcd13ifvqf20","pricing_plan_id":"cebpf4jnsgd1na2vs0mg"},{"bike_id":"b25b2853-d815-41f0-87d1-8e739c5c54b3","system_id":"levelo_inurba_marseille","lat":43.295229,"lon":5.390448,"is_reserved":false,"is_disabled":false,"rental_uris":{"android":"levelo://app?vid=b25b2853-d815-41f0-87d1-8e739c5c54b3","ios":"levelo://app?vid=b25b2853-d815-41f0-87d1-8e739c5c54b3"},"vehicle_type_id":"4","last_reported":1758564877,"current_range_meters":2800,"station_id":"ce4bh3p2rcd13ifvqdp0","pricing_plan_id":"cebpf4jnsgd1na2vs0mg"},{"bike_id":"4eb368cc-d280-4169-8eb1-5d69dc0c9752","system_id":"levelo_inurba_marseille","lat":43.30264,"lon":5.37719,"is_reserved":false,"is_disabled":false,"rental_uris":{"android":"levelo://app?vid=4eb368cc-d280-4169-8eb1-5d69dc0c9752","ios":"levelo://app?vid=4eb368cc-d280-4169-8eb1-5d69dc0c9752"},"vehicle_type_id":"4","last_reported":1758564877,"current_range_meters":2800,"station_id":"ce4bguh2rcd13ifvqcj0","pricing_plan_id":"cebpf4jnsgd1na2vs0mg"},{"bike_id":"743d75ad-7904-4444-aafb-77179eadfe3e","system_id":"levelo_inurba_marseille","lat":43.270403,"lon":5.402862,"is_reserved":false,"is_disabled":false,"rental_uris":{"android":"levelo://app?vid=743d75ad-7904-4444-aafb-77179eadfe3e","ios":"levelo://app?vid=743d75ad-7904-4444-aafb-77179eadfe3e"},"vehicle_type_id":"4","last_reported":1758564877,"current_range_meters":3600,"station_id":"ce4bhk92rcd13ifvqgc0","pricing_plan_id":"cebpf4jnsgd1na2vs0mg"},{"bike_id":"9dd89cfb-328c-437f-8777-73d134f29848","system_id":"levelo_inurba_marseille","lat":43.21707,"lon":5.34651,"is_reserved":false,"is_disabled":false,"rental_uris":{"android":"levelo://app?vid=9dd89cfb-328c-437f-8777-73d134f29848","ios":"levelo://app?vid=9dd89cfb-328c-437f-8777-73d134f29848"},"vehicle_type_id":"4","last_reported":1758564877,"current_range_meters":3600,"station_id":"","pricing_plan_id":"cebpf4jnsgd1na2vs0mg"},{"bike_id":"a2e29016-da93-45e5-9571-d00913cc2c9d","system_id":"levelo_inurba_marseille","lat":43.28703,"lon":5.39991,"is_reserved":false,"is_disabled":false,"rental_uris":{"android":"levelo://app?vid=a2e29016-da93-45e5-9571-d00913cc2c9d","ios":"levelo://app?vid=a2e29016-da93-45e5-9571-d00913cc2c9d"},"vehicle_type_id":"4","last_reported":1758564877,"current_range_meters":3600,"station_id":"ce4bho92rcd13ifvqh3g","pricing_plan_id":"cebpf4jnsgd1na2vs0mg"},{"bike_id":"b32633c9-7221-4b52-9ca6-9f25e5346370","system_id":"levelo_inurba_marseille","lat":43.3361,"lon":5.41024,"is_reserved":false,"is_disabled":true,"rental_uris":{"android":"levelo://app?vid=b32633c9-7221-4b52-9ca6-9f25e5346370","ios":"levelo://app?vid=b32633c9-7221-4b52-9ca6-9f25e5346370"},"vehicle_type_id":"4","last_reported":1758564877,"current_range_meters":3600,"station_id":"ce4bhqh2rcd13ifvqhmg","pricing_plan_id":"cebpf4jnsgd1na2vs0mg"},{"bike_id":"864be93c-27fd-4d7b-ad8b-48bd9b7c775d","system_id":"levelo_inurba_marseille","lat":43.2175,"lon":5.34606,"is_reserved":false,"is_disabled":false,"rental_uris":{"android":"levelo://app?vid=864be93c-27fd-4d7b-ad8b-48bd9b7c775d","ios":"levelo://app?vid=864be93c-27fd-4d7b-ad8b-48bd9b7c775d"},"vehicle_type_id":"4","last_reported":1758564877,"current_range_meters":3600,"station_id":"st_cvj6r9ubvosntc0bgbag","pricing_plan_id":"cebpf4jnsgd1na2vs0mg"},{"bike_id":"0bc2c872-fd85-4d32-9c2b-bf6da2ca5e87","system_id":"levelo_inurba_marseille","lat":43.30082,"lon":5.39093,"is_reserved":false,"is_disabled":false,"rental_uris":{"android":"levelo://app?vid=0bc2c872-fd85-4d32-9c2b-bf6da2ca5e87","ios":"levelo://app?vid=0bc2c872-fd85-4d32-9c2b-bf6da2ca5e87"},"vehicle_type_id":"4","last_reported":1758564877,"current_range_meters":3200,"station_id":"ce4bh192rcd13ifvqdb0","pricing_plan_id":"cebpf4jnsgd1na2vs0mg"},{"bike_id":"4b0d3dbb-1f79-4727-a7a2-bf05ae7f1c4d","system_id":"levelo_inurba_marseille","lat":43.299661,"lon":5.384957,"is_reserved":false,"is_disabled":false,"rental_uris":{"android":"levelo://app?vid=4b0d3dbb-1f79-4727-a7a2-bf05ae7f1c4d","ios":"levelo://app?vid=4b0d3dbb-1f79-4727-a7a2-bf05ae7f1c4d"},"vehicle_type_id":"4","last_reported":1758564877,"current_range_meters":4000,"station_id":"ce4bgj92rcd13ifvqbd0","pricing_plan_id":"cebpf4jnsgd1na2vs0mg"},{"bike_id":"1c065e45-62cc-4a57-80af-4f531a230456","system_id":"levelo_inurba_marseille","lat":43.27205,"lon":5.391851,"is_reserved":false,"is_disabled":false,"rental_uris":{"android":"levelo://app?vid=1c065e45-62cc-4a57-80af-4f531a230456","ios":"levelo://app?vid=1c065e45-62cc-4a57-80af-4f531a230456"},"vehicle_type_id":"4","last_reported":1758564877,"current_range_meters":4000,"station_id":"ce4bhhp2rcd13ifvqfm0","pricing_plan_id":"cebpf4jnsgd1na2vs0mg"},{"bike_id":"66f4dfeb-8402-4c83-ab49-d9beafc6f234","system_id":"levelo_inurba_marseille","lat":43.29255,"lon":5.40901,"is_reserved":false,"is_disabled":false,"rental_uris":{"android":"levelo://app?vid=66f4dfeb-8402-4c83-ab49-d9beafc6f234","ios":"levelo://app?vid=66f4dfeb-8402-4c83-ab49-d9beafc6f234"},"vehicle_type_id":"4","last_reported":1758564877,"current_range_meters":4000,"station_id":"ce4bh192rcd13ifvqdc0","pricing_plan_id":"cebpf4jnsgd1na2vs0mg"},{"bike_id":"80a5e2f0-fc93-436a-851e-c9835f44fe43","system_id":"levelo_inurba_marseille","lat":43.30143,"lon":5.3986,"is_reserved":false,"is_disabled":false,"rental_uris":{"android":"levelo://app?vid=80a5e2f0-fc93-436a-851e-c9835f44fe43","ios":"levelo://app?vid=80a5e2f0-fc93-436a-851e-c9835f44fe43"},"vehicle_type_id":"4","last_reported":1758564877,"current_range_meters":4000,"station_id":"ce4bh0h2rcd13ifvqd40","pricing_plan_id":"cebpf4jnsgd1na2vs0mg"},{"bike_id":"a7cb922b-0d99-49cf-a7c5-4c786119207b","system_id":"levelo_inurba_marseille","lat":43.28483,"lon":5.38419,"is_reserved":false,"is_disabled":false,"rental_uris":{"android":"levelo://app?vid=a7cb922b-0d99-49cf-a7c5-4c786119207b","ios":"levelo://app?vid=a7cb922b-0d99-49cf-a7c5-4c786119207b"},"vehicle_type_id":"4","last_reported":1758564877,"current_range_meters":4000,"station_id":"ce4bh512rcd13ifvqe3g","pricing_plan_id":"cebpf4jnsgd1na2vs0mg"},{"bike_id":"512380c4-b408-4c5d-a370-8ed3c327b288","system_id":"levelo_inurba_marseille","lat":43.29597,"lon":5.38096,"is_reserved":false,"is_disabled":false,"rental_uris":{"android":"levelo://app?vid=512380c4-b408-4c5d-a370-8ed3c327b288","ios":"levelo://app?vid=512380c4-b408-4c5d-a370-8ed3c327b288"},"vehicle_type_id":"4","last_reported":1758564877,"current_range_meters":4400,"station_id":"ce4bgl12rcd13ifvqbo0","pricing_plan_id":"cebpf4jnsgd1na2vs0mg"},{"bike_id":"428dbeac-a976-4e9f-9dd5-a37a448d15e9","system_id":"levelo_inurba_marseille","lat":43.27402,"lon":5.39392,"is_reserved":false,"is_disabled":false,"rental_uris":{"android":"levelo://app?vid=428dbeac-a976-4e9f-9dd5-a37a448d15e9","ios":"levelo://app?vid=428dbeac-a976-4e9f-9dd5-a37a448d15e9"},"vehicle_type_id":"4","last_reported":1758564877,"current_range_meters":4400,"station_id":"ce4bhdp2rcd13ifvqf20","pricing_plan_id":"cebpf4jnsgd1na2vs0mg"},{"bike_id":"ad4f0e3b-ec90-4f84-9733-c3c4fd397687","system_id":"levelo_inurba_marseille","lat":43.27942,"lon":5.41052,"is_reserved":false,"is_disabled":true,"rental_uris":{"android":"levelo://app?vid=ad4f0e3b-ec90-4f84-9733-c3c4fd397687","ios":"levelo://app?vid=ad4f0e3b-ec90-4f84-9733-c3c4fd397687"},"vehicle_type_id":"4","last_reported":1758564877,"current_range_meters":4400,"station_id":"ce4bhnp2rcd13ifvqh0g","pricing_plan_id":"cebpf4jnsgd1na2vs0mg"},{"bike_id":"48f548fd-5dc8-421d-8715-b8bfed27eae7","system_id":"levelo_inurba_marseille","lat":43.28216,"lon":5.4233,"is_reserved":false,"is_disabled":false,"rental_uris":{"android":"levelo://app?vid=48f548fd-5dc8-421d-8715-b8bfed27eae7","ios":"levelo://app?vid=48f548fd-5dc8-421d-8715-b8bfed27eae7"},"vehicle_type_id":"4","last_reported":1758564877,"current_range_meters":4400,"station_id":"","pricing_plan_id":"cebpf4jnsgd1na2vs0mg"},{"bike_id":"a07a513e-e5a9-4481-8592-d991379bc662","system_id":"levelo_inurba_marseille","lat":43.337536,"lon":5.374536,"is_reserved":false,"is_disabled":false,"rental_uris":{"android":"levelo://app?vid=a07a513e-e5a9-4481-8592-d991379bc662","ios":"levelo://app?vid=a07a513e-e5a9-4481-8592-d991379bc662"},"vehicle_type_id":"4","last_reported":1758564877,"current_range_meters":4400,"station_id":"","pricing_plan_id":"cebpf4jnsgd1na2vs0mg"},{"bike_id":"0dbc7da0-0362-4020-94e8-7c158950cbc3","system_id":"levelo_inurba_marseille","lat":43.27056,"lon":5.40261,"is_reserved":false,"is_disabled":true,"rental_uris":{"android":"levelo://app?vid=0dbc7da0-0362-4020-94e8-7c158950cbc3","ios":"levelo://app?vid=0dbc7da0-0362-4020-94e8-7c158950cbc3"},"vehicle_type_id":"4","last_reported":1758564877,"current_range_meters":4800,"station_id":"ce4bhk92rcd13ifvqgc0","pricing_plan_id":"cebpf4jnsgd1na2vs0mg"},{"bike_id":"d7decc6c-3b87-4f99-824e-2ad202ab330b","system_id":"levelo_inurba_marseille","lat":43.27916,"lon":5.39577,"is_reserved":false,"is_disabled":false,"rental_uris":{"android":"levelo://app?vid=d7decc6c-3b87-4f99-824e-2ad202ab330b","ios":"levelo://app?vid=d7decc6c-3b87-4f99-824e-2ad202ab330b"},"vehicle_type_id":"4","last_reported":1758564877,"current_range_meters":4800,"station_id":"ce4bhf92rcd13ifvqf40","pricing_plan_id":"cebpf4jnsgd1na2vs0mg"},{"bike_id":"7d6016e9-4bd3-4841-b4d8-d363f354281c","system_id":"levelo_inurba_marseille","lat":43.2836,"lon":5.38106,"is_reserved":false,"is_disabled":false,"rental_uris":{"android":"levelo://app?vid=7d6016e9-4bd3-4841-b4d8-d363f354281c","ios":"levelo://app?vid=7d6016e9-4bd3-4841-b4d8-d363f354281c"},"vehicle_type_id":"4","last_reported":1758564877,"current_range_meters":4800,"station_id":"ce4bh412rcd13ifvqdr0","pricing_plan_id":"cebpf4jnsgd1na2vs0mg"},{"bike_id":"2a4832c0-ecf4-4eda-9029-375c6461cb99","system_id":"levelo_inurba_marseille","lat":43.26812,"lon":5.3943,"is_reserved":false,"is_disabled":false,"rental_uris":{"android":"levelo://app?vid=2a4832c0-ecf4-4eda-9029-375c6461cb99","ios":"levelo://app?vid=2a4832c0-ecf4-4eda-9029-375c6461cb99"},"vehicle_type_id":"4","last_reported":1758564877,"current_range_meters":4800,"station_id":"ce4bhh12rcd13ifvqfg0","pricing_plan_id":"cebpf4jnsgd1na2vs0mg"},{"bike_id":"ebea15ce-bbfa-4c06-bb6f-30dab3a584ed","system_id":"levelo_inurba_marseille","lat":43.32656,"lon":5.41,"is_reserved":false,"is_disabled":false,"rental_uris":{"android":"levelo://app?vid=ebea15ce-bbfa-4c06-bb6f-30dab3a584ed","ios":"levelo://app?vid=ebea15ce-bbfa-4c06-bb6f-30dab3a584ed"},"vehicle_type_id":"4","last_reported":1758564877,"current_range_meters":4800,"station_id":"ce4bhpp2rcd13ifvqhgg","pricing_plan_id":"cebpf4jnsgd1na2vs0mg"},{"bike_id":"61f6f2e5-6fe9-461b-a663-95db62678c34","system_id":"levelo_inurba_marseille","lat":43.28978,"lon":5.37844,"is_reserved":false,"is_disabled":false,"rental_uris":{"android":"levelo://app?vid=61f6f2e5-6fe9-461b-a663-95db62678c34","ios":"levelo://app?vid=61f6f2e5-6fe9-461b-a663-95db62678c34"},"vehicle_type_id":"4","last_reported":1758564877,"current_range_meters":4400,"station_id":"ce4bh9p2rcd13ifvqed0","pricing_plan_id":"cebpf4jnsgd1na2vs0mg"},{"bike_id":"393f4824-2049-4d74-bf48-45741e475fd3","system_id":"levelo_inurba_marseille","lat":43.292878,"lon":5.382565,"is_reserved":false,"is_disabled":false,"rental_uris":{"android":"levelo://app?vid=393f4824-2049-4d74-bf48-45741e475fd3","ios":"levelo://app?vid=393f4824-2049-4d74-bf48-45741e475fd3"},"vehicle_type_id":"4","last_reported":1758564877,"current_range_meters":5600,"station_id":"","pricing_plan_id":"cebpf4jnsgd1na2vs0mg"},{"bike_id":"47468391-67dc-4c3a-9b81-0757945a5664","system_id":"levelo_inurba_marseille","lat":43.29521,"lon":5.38522,"is_reserved":false,"is_disabled":false,"rental_uris":{"android":"levelo://app?vid=47468391-67dc-4c3a-9b81-0757945a5664","ios":"levelo://app?vid=47468391-67dc-4c3a-9b81-0757945a5664"},"vehicle_type_id":"4","last_reported":1758564877,"current_range_meters":5600,"station_id":"ce4bgih2rcd13ifvqba0","pricing_plan_id":"cebpf4jnsgd1na2vs0mg"},{"bike_id":"c733e7dc-50be-412b-be24-1c3b4a94d355","system_id":"levelo_inurba_marseille","lat":43.27321,"lon":5.39087,"is_reserved":false,"is_disabled":false,"rental_uris":{"android":"levelo://app?vid=c733e7dc-50be-412b-be24-1c3b4a94d355","ios":"levelo://app?vid=c733e7dc-50be-412b-be24-1c3b4a94d355"},"vehicle_type_id":"4","last_reported":1758564877,"current_range_meters":5600,"station_id":"ce4bhgp2rcd13ifvqfe0","pricing_plan_id":"cebpf4jnsgd1na2vs0mg"},{"bike_id":"a26afba0-aac6-4391-8c0b-17c8414744af","system_id":"levelo_inurba_marseille","lat":43.269461,"lon":5.402567,"is_reserved":false,"is_disabled":false,"rental_uris":{"android":"levelo://app?vid=a26afba0-aac6-4391-8c0b-17c8414744af","ios":"levelo://app?vid=a26afba0-aac6-4391-8c0b-17c8414744af"},"vehicle_type_id":"4","last_reported":1758564877,"current_range_meters":5600,"station_id":"cjm6bp8fraef2m0cb0m0","pricing_plan_id":"cebpf4jnsgd1na2vs0mg"},{"bike_id":"ba808826-ae68-40f1-a0f9-b6b2ab755aca","system_id":"levelo_inurba_marseille","lat":43.26206,"lon":5.37931,"is_reserved":false,"is_disabled":false,"rental_uris":{"android":"levelo://app?vid=ba808826-ae68-40f1-a0f9-b6b2ab755aca","ios":"levelo://app?vid=ba808826-ae68-40f1-a0f9-b6b2ab755aca"},"vehicle_type_id":"4","last_reported":1758564877,"current_range_meters":4800,"station_id":"ce4bhjp2rcd13ifvqg90","pricing_plan_id":"cebpf4jnsgd1na2vs0mg"},{"bike_id":"213f818a-2fc2-423a-8734-2921a1895f7c","system_id":"levelo_inurba_marseille","lat":43.21188,"lon":5.35086,"is_reserved":false,"is_disabled":false,"rental_uris":{"android":"levelo://app?vid=213f818a-2fc2-423a-8734-2921a1895f7c","ios":"levelo://app?vid=213f818a-2fc2-423a-8734-2921a1895f7c"},"vehicle_type_id":"4","last_reported":1758564877,"current_range_meters":6000,"station_id":"st_cvj6sg6p6f1abm77japg","pricing_plan_id":"cebpf4jnsgd1na2vs0mg"},{"bike_id":"9bad8abd-e607-4af6-a304-8db72607a696","system_id":"levelo_inurba_marseille","lat":43.29704,"lon":5.366095,"is_reserved":false,"is_disabled":false,"rental_uris":{"android":"levelo://app?vid=9bad8abd-e607-4af6-a304-8db72607a696","ios":"levelo://app?vid=9bad8abd-e607-4af6-a304-8db72607a696"},"vehicle_type_id":"4","last_reported":1758564877,"current_range_meters":6000,"station_id":"ce4bgn12rcd13ifvqbt0","pricing_plan_id":"cebpf4jnsgd1na2vs0mg"},{"bike_id":"6999344b-5507-4548-8372-83034e05f51a","system_id":"levelo_inurba_marseille","lat":43.27315,"lon":5.39116,"is_reserved":false,"is_disabled":false,"rental_uris":{"android":"levelo://app?vid=6999344b-5507-4548-8372-83034e05f51a","ios":"levelo://app?vid=6999344b-5507-4548-8372-83034e05f51a"},"vehicle_type_id":"4","last_reported":1758564877,"current_range_meters":6000,"station_id":"ce4bhgp2rcd13ifvqfe0","pricing_plan_id":"cebpf4jnsgd1na2vs0mg"},{"bike_id":"9bb47a27-155e-42c8-9d3a-578d4b95e4b2","system_id":"levelo_inurba_marseille","lat":43.27417,"lon":5.39411,"is_reserved":false,"is_disabled":false,"rental_uris":{"android":"levelo://app?vid=9bb47a27-155e-42c8-9d3a-578d4b95e4b2","ios":"levelo://app?vid=9bb47a27-155e-42c8-9d3a-578d4b95e4b2"},"vehicle_type_id":"4","last_reported":1758564877,"current_range_meters":4400,"station_id":"ce4bhdp2rcd13ifvqf20","pricing_plan_id":"cebpf4jnsgd1na2vs0mg"},{"bike_id":"a8740f4d-ac20-44a0-bf98-6d0b6638c41b","system_id":"levelo_inurba_marseille","lat":43.28373,"lon":5.38635,"is_reserved":false,"is_disabled":false,"rental_uris":{"android":"levelo://app?vid=a8740f4d-ac20-44a0-bf98-6d0b6638c41b","ios":"levelo://app?vid=a8740f4d-ac20-44a0-bf98-6d0b6638c41b"},"vehicle_type_id":"4","last_reported":1758564877,"current_range_meters":5600,"station_id":"ce4bh492rcd13ifvqdvg","pricing_plan_id":"cebpf4jnsgd1na2vs0mg"},{"bike_id":"88099584-aec4-41c5-9e59-c1418d97c60b","system_id":"levelo_inurba_marseille","lat":43.28697,"lon":5.374,"is_reserved":false,"is_disabled":false,"rental_uris":{"android":"levelo://app?vid=88099584-aec4-41c5-9e59-c1418d97c60b","ios":"levelo://app?vid=88099584-aec4-41c5-9e59-c1418d97c60b"},"vehicle_type_id":"4","last_reported":1758564877,"current_range_meters":6000,"station_id":"ce4bh3p2rcd13ifvqdq0","pricing_plan_id":"cebpf4jnsgd1na2vs0mg"},{"bike_id":"aba30b74-d7bf-426e-9d06-18587ca4acb9","system_id":"levelo_inurba_marseille","lat":43.29465,"lon":5.3812,"is_reserved":false,"is_disabled":false,"rental_uris":{"android":"levelo://app?vid=aba30b74-d7bf-426e-9d06-18587ca4acb9","ios":"levelo://app?vid=aba30b74-d7bf-426e-9d06-18587ca4acb9"},"vehicle_type_id":"4","last_reported":1758564877,"current_range_meters":6000,"station_id":"","pricing_plan_id":"cebpf4jnsgd1na2vs0mg"},{"bike_id":"2289a0ff-9c3e-4f79-ad38-4b41158d6057","system_id":"levelo_inurba_marseille","lat":43.29882,"lon":5.37911,"is_reserved":false,"is_disabled":false,"rental_uris":{"android":"levelo://app?vid=2289a0ff-9c3e-4f79-ad38-4b41158d6057","ios":"levelo://app?vid=2289a0ff-9c3e-4f79-ad38-4b41158d6057"},"vehicle_type_id":"4","last_reported":1758564877,"current_range_meters":6000,"station_id":"","pricing_plan_id":"cebpf4jnsgd1na2vs0mg"},{"bike_id":"55d1bc08-fd54-4a82-afc7-2adcaa7b1c4e","system_id":"levelo_inurba_marseille","lat":43.300304,"lon":5.376952,"is_reserved":false,"is_disabled":false,"rental_uris":{"android":"levelo://app?vid=55d1bc08-fd54-4a82-afc7-2adcaa7b1c4e","ios":"levelo://app?vid=55d1bc08-fd54-4a82-afc7-2adcaa7b1c4e"},"vehicle_type_id":"4","last_reported":1758564877,"current_range_meters":6000,"station_id":"","pricing_plan_id":"cebpf4jnsgd1na2vs0mg"},{"bike_id":"e702075c-7aae-46a5-b9e9-3ff1b7e343b4","system_id":"levelo_inurba_marseille","lat":43.27436,"lon":5.39392,"is_reserved":false,"is_disabled":false,"rental_uris":{"android":"levelo://app?vid=e702075c-7aae-46a5-b9e9-3ff1b7e343b4","ios":"levelo://app?vid=e702075c-7aae-46a5-b9e9-3ff1b7e343b4"},"vehicle_type_id":"4","last_reported":1758564877,"current_range_meters":6000,"station_id":"ce4bhdp2rcd13ifvqf20","pricing_plan_id":"cebpf4jnsgd1na2vs0mg"},{"bike_id":"4df2f800-99ac-472f-b09f-98886e37c432","system_id":"levelo_inurba_marseille","lat":43.27829,"lon":5.39216,"is_reserved":false,"is_disabled":false,"rental_uris":{"android":"levelo://app?vid=4df2f800-99ac-472f-b09f-98886e37c432","ios":"levelo://app?vid=4df2f800-99ac-472f-b09f-98886e37c432"},"vehicle_type_id":"4","last_reported":1758564877,"current_range_meters":6000,"station_id":"ce4bhjp2rcd13ifvqga0","pricing_plan_id":"cebpf4jnsgd1na2vs0mg"},{"bike_id":"6e560cba-44f9-4925-ba50-f3a49da1e239","system_id":"levelo_inurba_marseille","lat":43.26786,"lon":5.39413,"is_reserved":false,"is_disabled":false,"rental_uris":{"android":"levelo://app?vid=6e560cba-44f9-4925-ba50-f3a49da1e239","ios":"levelo://app?vid=6e560cba-44f9-4925-ba50-f3a49da1e239"},"vehicle_type_id":"4","last_reported":1758564877,"current_range_meters":6000,"station_id":"ce4bhh12rcd13ifvqfg0","pricing_plan_id":"cebpf4jnsgd1na2vs0mg"},{"bike_id":"ab8426c7-7bdb-4fd4-bd86-a2eebf7bd056","system_id":"levelo_inurba_marseille","lat":43.27318,"lon":5.39097,"is_reserved":false,"is_disabled":false,"rental_uris":{"android":"levelo://app?vid=ab8426c7-7bdb-4fd4-bd86-a2eebf7bd056","ios":"levelo://app?vid=ab8426c7-7bdb-4fd4-bd86-a2eebf7bd056"},"vehicle_type_id":"4","last_reported":1758564877,"current_range_meters":6000,"station_id":"ce4bhgp2rcd13ifvqfe0","pricing_plan_id":"cebpf4jnsgd1na2vs0mg"},{"bike_id":"0f4ee546-ad6e-45c7-9c03-19ff7b2d3e7d","system_id":"levelo_inurba_marseille","lat":43.29551,"lon":5.38552,"is_reserved":false,"is_disabled":false,"rental_uris":{"android":"levelo://app?vid=0f4ee546-ad6e-45c7-9c03-19ff7b2d3e7d","ios":"levelo://app?vid=0f4ee546-ad6e-45c7-9c03-19ff7b2d3e7d"},"vehicle_type_id":"4","last_reported":1758564877,"current_range_meters":6400,"station_id":"ce4bgih2rcd13ifvqba0","pricing_plan_id":"cebpf4jnsgd1na2vs0mg"},{"bike_id":"0ad5c6a5-8b05-4faa-8590-609348c11288","system_id":"levelo_inurba_marseille","lat":43.27824,"lon":5.40711,"is_reserved":false,"is_disabled":true,"rental_uris":{"android":"levelo://app?vid=0ad5c6a5-8b05-4faa-8590-609348c11288","ios":"levelo://app?vid=0ad5c6a5-8b05-4faa-8590-609348c11288"},"vehicle_type_id":"4","last_reported":1758564877,"current_range_meters":6400,"station_id":"ce4bhnh2rcd13ifvqgtg","pricing_plan_id":"cebpf4jnsgd1na2vs0mg"},{"bike_id":"a87738c2-f1ce-4589-83b0-149f6f0aab90","system_id":"levelo_inurba_marseille","lat":43.26784,"lon":5.3941,"is_reserved":false,"is_disabled":false,"rental_uris":{"android":"levelo://app?vid=a87738c2-f1ce-4589-83b0-149f6f0aab90","ios":"levelo://app?vid=a87738c2-f1ce-4589-83b0-149f6f0aab90"},"vehicle_type_id":"4","last_reported":1758564877,"current_range_meters":6400,"station_id":"ce4bhh12rcd13ifvqfg0","pricing_plan_id":"cebpf4jnsgd1na2vs0mg"},{"bike_id":"9e682214-0b8b-4521-b68c-c4387500ff32","system_id":"levelo_inurba_marseille","lat":43.30302,"lon":5.39216,"is_reserved":false,"is_disabled":false,"rental_uris":{"android":"levelo://app?vid=9e682214-0b8b-4521-b68c-c4387500ff32","ios":"levelo://app?vid=9e682214-0b8b-4521-b68c-c4387500ff32"},"vehicle_type_id":"4","last_reported":1758564877,"current_range_meters":6400,"station_id":"ce4bgkh2rcd13ifvqbk0","pricing_plan_id":"cebpf4jnsgd1na2vs0mg"},{"bike_id":"05d5ea6e-1768-40ef-a92d-e6f497bf2586","system_id":"levelo_inurba_marseille","lat":43.33016,"lon":5.39041,"is_reserved":false,"is_disabled":false,"rental_uris":{"android":"levelo://app?vid=05d5ea6e-1768-40ef-a92d-e6f497bf2586","ios":"levelo://app?vid=05d5ea6e-1768-40ef-a92d-e6f497bf2586"},"vehicle_type_id":"4","last_reported":1758564877,"current_range_meters":6400,"station_id":"ce4bhr92rcd13ifvqhrg","pricing_plan_id":"cebpf4jnsgd1na2vs0mg"},{"bike_id":"37eae54e-70e1-4250-b217-b0bd62cd0a85","system_id":"levelo_inurba_marseille","lat":43.265553,"lon":5.372875,"is_reserved":false,"is_disabled":false,"rental_uris":{"android":"levelo://app?vid=37eae54e-70e1-4250-b217-b0bd62cd0a85","ios":"levelo://app?vid=37eae54e-70e1-4250-b217-b0bd62cd0a85"},"vehicle_type_id":"4","last_reported":1758564877,"current_range_meters":6400,"station_id":"ce4bhg12rcd13ifvqf70","pricing_plan_id":"cebpf4jnsgd1na2vs0mg"},{"bike_id":"be9b684f-b5ef-40a7-af5e-a69bf1701843","system_id":"levelo_inurba_marseille","lat":43.29531,"lon":5.3751,"is_reserved":false,"is_disabled":false,"rental_uris":{"android":"levelo://app?vid=be9b684f-b5ef-40a7-af5e-a69bf1701843","ios":"levelo://app?vid=be9b684f-b5ef-40a7-af5e-a69bf1701843"},"vehicle_type_id":"4","last_reported":1758564877,"current_range_meters":6800,"station_id":"ce4bgkp2rcd13ifvqbmg","pricing_plan_id":"cebpf4jnsgd1na2vs0mg"},{"bike_id":"95b2c900-07a9-4d99-822d-5f69058b55f4","system_id":"levelo_inurba_marseille","lat":43.28742,"lon":5.40005,"is_reserved":false,"is_disabled":true,"rental_uris":{"android":"levelo://app?vid=95b2c900-07a9-4d99-822d-5f69058b55f4","ios":"levelo://app?vid=95b2c900-07a9-4d99-822d-5f69058b55f4"},"vehicle_type_id":"4","last_reported":1758564877,"current_range_meters":6400,"station_id":"ce4bho92rcd13ifvqh3g","pricing_plan_id":"cebpf4jnsgd1na2vs0mg"},{"bike_id":"43441ed8-9202-4a95-a23d-310a539cdec8","system_id":"levelo_inurba_marseille","lat":43.29527,"lon":5.38542,"is_reserved":false,"is_disabled":false,"rental_uris":{"android":"levelo://app?vid=43441ed8-9202-4a95-a23d-310a539cdec8","ios":"levelo://app?vid=43441ed8-9202-4a95-a23d-310a539cdec8"},"vehicle_type_id":"4","last_reported":1758564877,"current_range_meters":6400,"station_id":"ce4bgih2rcd13ifvqba0","pricing_plan_id":"cebpf4jnsgd1na2vs0mg"},{"bike_id":"70c3d816-90a7-457f-b679-d59c8b420a59","system_id":"levelo_inurba_marseille","lat":43.29248,"lon":5.38453,"is_reserved":false,"is_disabled":false,"rental_uris":{"android":"levelo://app?vid=70c3d816-90a7-457f-b679-d59c8b420a59","ios":"levelo://app?vid=70c3d816-90a7-457f-b679-d59c8b420a59"},"vehicle_type_id":"4","last_reported":1758564877,"current_range_meters":6400,"station_id":"ce4bh692rcd13ifvqea0","pricing_plan_id":"cebpf4jnsgd1na2vs0mg"},{"bike_id":"ab0bad99-43ea-4089-8224-0b71278ddd95","system_id":"levelo_inurba_marseille","lat":43.2907,"lon":5.37152,"is_reserved":false,"is_disabled":false,"rental_uris":{"android":"levelo://app?vid=ab0bad99-43ea-4089-8224-0b71278ddd95","ios":"levelo://app?vid=ab0bad99-43ea-4089-8224-0b71278ddd95"},"vehicle_type_id":"4","last_reported":1758564877,"current_range_meters":6400,"station_id":"ce4bh5p2rcd13ifvqe4g","pricing_plan_id":"cebpf4jnsgd1na2vs0mg"},{"bike_id":"b6536b39-d494-42d8-975e-cdd406476798","system_id":"levelo_inurba_marseille","lat":43.26774,"lon":5.39431,"is_reserved":false,"is_disabled":true,"rental_uris":{"android":"levelo://app?vid=b6536b39-d494-42d8-975e-cdd406476798","ios":"levelo://app?vid=b6536b39-d494-42d8-975e-cdd406476798"},"vehicle_type_id":"4","last_reported":1758564877,"current_range_meters":6800,"station_id":"ce4bhh12rcd13ifvqfg0","pricing_plan_id":"cebpf4jnsgd1na2vs0mg"},{"bike_id":"68adab37-f5ad-4072-b58a-fe6c68285ca6","system_id":"levelo_inurba_marseille","lat":43.30617,"lon":5.37669,"is_reserved":false,"is_disabled":false,"rental_uris":{"android":"levelo://app?vid=68adab37-f5ad-4072-b58a-fe6c68285ca6","ios":"levelo://app?vid=68adab37-f5ad-4072-b58a-fe6c68285ca6"},"vehicle_type_id":"4","last_reported":1758564877,"current_range_meters":6800,"station_id":"","pricing_plan_id":"cebpf4jnsgd1na2vs0mg"},{"bike_id":"e88f8510-4b9e-4301-95c8-02037183c2f9","system_id":"levelo_inurba_marseille","lat":43.2606,"lon":5.39395,"is_reserved":false,"is_disabled":false,"rental_uris":{"android":"levelo://app?vid=e88f8510-4b9e-4301-95c8-02037183c2f9","ios":"levelo://app?vid=e88f8510-4b9e-4301-95c8-02037183c2f9"},"vehicle_type_id":"4","last_reported":1758564877,"current_range_meters":6800,"station_id":"ce4bhh92rcd13ifvqfj0","pricing_plan_id":"cebpf4jnsgd1na2vs0mg"},{"bike_id":"70f6120c-f50b-4798-a054-01ef920af94c","system_id":"levelo_inurba_marseille","lat":43.27805,"lon":5.40722,"is_reserved":false,"is_disabled":false,"rental_uris":{"android":"levelo://app?vid=70f6120c-f50b-4798-a054-01ef920af94c","ios":"levelo://app?vid=70f6120c-f50b-4798-a054-01ef920af94c"},"vehicle_type_id":"4","last_reported":1758564877,"current_range_meters":6400,"station_id":"ce4bhnh2rcd13ifvqgtg","pricing_plan_id":"cebpf4jnsgd1na2vs0mg"},{"bike_id":"2c0b683e-3831-4641-ac0b-5f67369e4ccf","system_id":"levelo_inurba_marseille","lat":43.28847,"lon":5.39321,"is_reserved":false,"is_disabled":false,"rental_uris":{"android":"levelo://app?vid=2c0b683e-3831-4641-ac0b-5f67369e4ccf","ios":"levelo://app?vid=2c0b683e-3831-4641-ac0b-5f67369e4ccf"},"vehicle_type_id":"4","last_reported":1758564877,"current_range_meters":7200,"station_id":"ce4bh2p2rcd13ifvqdi0","pricing_plan_id":"cebpf4jnsgd1na2vs0mg"},{"bike_id":"d6743920-10b6-40d6-be01-0cf98081976b","system_id":"levelo_inurba_marseille","lat":43.280928,"lon":5.425953,"is_reserved":false,"is_disabled":false,"rental_uris":{"android":"levelo://app?vid=d6743920-10b6-40d6-be01-0cf98081976b","ios":"levelo://app?vid=d6743920-10b6-40d6-be01-0cf98081976b"},"vehicle_type_id":"4","last_reported":1758564877,"current_range_meters":6800,"station_id":"ce4bhnh2rcd13ifvqgug","pricing_plan_id":"cebpf4jnsgd1na2vs0mg"},{"bike_id":"3b6ec900-427e-4f42-a1f2-55274523a86c","system_id":"levelo_inurba_marseille","lat":43.29167,"lon":5.37158,"is_reserved":false,"is_disabled":false,"rental_uris":{"android":"levelo://app?vid=3b6ec900-427e-4f42-a1f2-55274523a86c","ios":"levelo://app?vid=3b6ec900-427e-4f42-a1f2-55274523a86c"},"vehicle_type_id":"4","last_reported":1758564877,"current_range_meters":6800,"station_id":"ce4bha92rcd13ifvqeh0","pricing_plan_id":"cebpf4jnsgd1na2vs0mg"},{"bike_id":"8d92c8e3-4449-4edf-b7e9-6e5ed817380c","system_id":"levelo_inurba_marseille","lat":43.30139,"lon":5.39863,"is_reserved":false,"is_disabled":false,"rental_uris":{"android":"levelo://app?vid=8d92c8e3-4449-4edf-b7e9-6e5ed817380c","ios":"levelo://app?vid=8d92c8e3-4449-4edf-b7e9-6e5ed817380c"},"vehicle_type_id":"4","last_reported":1758564877,"current_range_meters":6400,"station_id":"ce4bh0h2rcd13ifvqd40","pricing_plan_id":"cebpf4jnsgd1na2vs0mg"},{"bike_id":"851e15a3-426d-4eb1-868c-5be2ef3add80","system_id":"levelo_inurba_marseille","lat":43.29195,"lon":5.39314,"is_reserved":false,"is_disabled":false,"rental_uris":{"android":"levelo://app?vid=851e15a3-426d-4eb1-868c-5be2ef3add80","ios":"levelo://app?vid=851e15a3-426d-4eb1-868c-5be2ef3add80"},"vehicle_type_id":"4","last_reported":1758564877,"current_range_meters":9600,"station_id":"ce4bh192rcd13ifvqdd0","pricing_plan_id":"cebpf4jnsgd1na2vs0mg"},{"bike_id":"970d11ea-9948-476b-a673-9efa2e47d50c","system_id":"levelo_inurba_marseille","lat":43.239634,"lon":5.366275,"is_reserved":false,"is_disabled":false,"rental_uris":{"android":"levelo://app?vid=970d11ea-9948-476b-a673-9efa2e47d50c","ios":"levelo://app?vid=970d11ea-9948-476b-a673-9efa2e47d50c"},"vehicle_type_id":"4","last_reported":1758564877,"current_range_meters":7200,"station_id":"ce4bhi12rcd13ifvqfp0","pricing_plan_id":"cebpf4jnsgd1na2vs0mg"},{"bike_id":"7d1664b4-0a1f-49df-a200-5058b8b2e294","system_id":"levelo_inurba_marseille","lat":43.2721,"lon":5.39176,"is_reserved":false,"is_disabled":false,"rental_uris":{"android":"levelo://app?vid=7d1664b4-0a1f-49df-a200-5058b8b2e294","ios":"levelo://app?vid=7d1664b4-0a1f-49df-a200-5058b8b2e294"},"vehicle_type_id":"4","last_reported":1758564877,"current_range_meters":7200,"station_id":"ce4bhhp2rcd13ifvqfm0","pricing_plan_id":"cebpf4jnsgd1na2vs0mg"},{"bike_id":"b5efe5fe-f661-4ad8-bf89-c64dc70497a2","system_id":"levelo_inurba_marseille","lat":43.27084,"lon":5.39262,"is_reserved":false,"is_disabled":false,"rental_uris":{"android":"levelo://app?vid=b5efe5fe-f661-4ad8-bf89-c64dc70497a2","ios":"levelo://app?vid=b5efe5fe-f661-4ad8-bf89-c64dc70497a2"},"vehicle_type_id":"4","last_reported":1758564877,"current_range_meters":7200,"station_id":"","pricing_plan_id":"cebpf4jnsgd1na2vs0mg"},{"bike_id":"1b790372-5d34-489f-a29a-5f2319ad70e0","system_id":"levelo_inurba_marseille","lat":43.28261,"lon":5.35048,"is_reserved":false,"is_disabled":true,"rental_uris":{"android":"levelo://app?vid=1b790372-5d34-489f-a29a-5f2319ad70e0","ios":"levelo://app?vid=1b790372-5d34-489f-a29a-5f2319ad70e0"},"vehicle_type_id":"4","last_reported":1758564877,"current_range_meters":7200,"station_id":"ce4bhbp2rcd13ifvqerg","pricing_plan_id":"cebpf4jnsgd1na2vs0mg"},{"bike_id":"5f8eacb3-c983-4432-be46-751be2c9c1ef","system_id":"levelo_inurba_marseille","lat":43.29532,"lon":5.38539,"is_reserved":false,"is_disabled":false,"rental_uris":{"android":"levelo://app?vid=5f8eacb3-c983-4432-be46-751be2c9c1ef","ios":"levelo://app?vid=5f8eacb3-c983-4432-be46-751be2c9c1ef"},"vehicle_type_id":"4","last_reported":1758564877,"current_range_meters":7200,"station_id":"ce4bgih2rcd13ifvqba0","pricing_plan_id":"cebpf4jnsgd1na2vs0mg"},{"bike_id":"197bffbd-8a89-489d-bd9f-dae3c7cfa3b6","system_id":"levelo_inurba_marseille","lat":43.29262,"lon":5.38449,"is_reserved":false,"is_disabled":false,"rental_uris":{"android":"levelo://app?vid=197bffbd-8a89-489d-bd9f-dae3c7cfa3b6","ios":"levelo://app?vid=197bffbd-8a89-489d-bd9f-dae3c7cfa3b6"},"vehicle_type_id":"4","last_reported":1758564877,"current_range_meters":7200,"station_id":"ce4bh692rcd13ifvqea0","pricing_plan_id":"cebpf4jnsgd1na2vs0mg"},{"bike_id":"fe3fd3ec-c652-4173-9e74-99984dbd1200","system_id":"levelo_inurba_marseille","lat":43.31472,"lon":5.39256,"is_reserved":false,"is_disabled":false,"rental_uris":{"android":"levelo://app?vid=fe3fd3ec-c652-4173-9e74-99984dbd1200","ios":"levelo://app?vid=fe3fd3ec-c652-4173-9e74-99984dbd1200"},"vehicle_type_id":"4","last_reported":1758564877,"current_range_meters":7200,"station_id":"","pricing_plan_id":"cebpf4jnsgd1na2vs0mg"},{"bike_id":"622b1f14-29b8-4b48-b102-1d80d2dfa4b5","system_id":"levelo_inurba_marseille","lat":43.28945,"lon":5.39633,"is_reserved":false,"is_disabled":false,"rental_uris":{"android":"levelo://app?vid=622b1f14-29b8-4b48-b102-1d80d2dfa4b5","ios":"levelo://app?vid=622b1f14-29b8-4b48-b102-1d80d2dfa4b5"},"vehicle_type_id":"4","last_reported":1758564877,"current_range_meters":7200,"station_id":"ce4bh3h2rcd13ifvqdn0","pricing_plan_id":"cebpf4jnsgd1na2vs0mg"},{"bike_id":"0fba9169-66a8-4b46-9d90-79e36a3881e5","system_id":"levelo_inurba_marseille","lat":43.28941,"lon":5.36635,"is_reserved":false,"is_disabled":false,"rental_uris":{"android":"levelo://app?vid=0fba9169-66a8-4b46-9d90-79e36a3881e5","ios":"levelo://app?vid=0fba9169-66a8-4b46-9d90-79e36a3881e5"},"vehicle_type_id":"4","last_reported":1758564877,"current_range_meters":8000,"station_id":"ce4bhap2rcd13ifvqek0","pricing_plan_id":"cebpf4jnsgd1na2vs0mg"},{"bike_id":"f581ccb4-ae4a-44ef-9aee-8da2f62ff531","system_id":"levelo_inurba_marseille","lat":43.31244,"lon":5.36824,"is_reserved":false,"is_disabled":false,"rental_uris":{"android":"levelo://app?vid=f581ccb4-ae4a-44ef-9aee-8da2f62ff531","ios":"levelo://app?vid=f581ccb4-ae4a-44ef-9aee-8da2f62ff531"},"vehicle_type_id":"4","last_reported":1758564877,"current_range_meters":8000,"station_id":"ce4bgl92rcd13ifvqbq0","pricing_plan_id":"cebpf4jnsgd1na2vs0mg"},{"bike_id":"e86857f8-f405-4657-b145-ec58ed187087","system_id":"levelo_inurba_marseille","lat":43.313618,"lon":5.384976,"is_reserved":false,"is_disabled":false,"rental_uris":{"android":"levelo://app?vid=e86857f8-f405-4657-b145-ec58ed187087","ios":"levelo://app?vid=e86857f8-f405-4657-b145-ec58ed187087"},"vehicle_type_id":"4","last_reported":1758564877,"current_range_meters":8000,"station_id":"ce4bgt92rcd13ifvqcf0","pricing_plan_id":"cebpf4jnsgd1na2vs0mg"},{"bike_id":"042c189f-0ad3-4065-98ac-60e64d2fd2d2","system_id":"levelo_inurba_marseille","lat":43.29785,"lon":5.39339,"is_reserved":false,"is_disabled":false,"rental_uris":{"android":"levelo://app?vid=042c189f-0ad3-4065-98ac-60e64d2fd2d2","ios":"levelo://app?vid=042c189f-0ad3-4065-98ac-60e64d2fd2d2"},"vehicle_type_id":"4","last_reported":1758564877,"current_range_meters":8000,"station_id":"chh1huq6cuj3fo74tm60","pricing_plan_id":"cebpf4jnsgd1na2vs0mg"},{"bike_id":"795847d0-9bb1-44ae-81a5-7e9f732b8418","system_id":"levelo_inurba_marseille","lat":43.29288,"lon":5.40128,"is_reserved":false,"is_disabled":false,"rental_uris":{"android":"levelo://app?vid=795847d0-9bb1-44ae-81a5-7e9f732b8418","ios":"levelo://app?vid=795847d0-9bb1-44ae-81a5-7e9f732b8418"},"vehicle_type_id":"4","last_reported":1758564877,"current_range_meters":8400,"station_id":"ce4bh312rcd13ifvqdk0","pricing_plan_id":"cebpf4jnsgd1na2vs0mg"},{"bike_id":"9c9ff537-c399-4793-83f2-0f8fbccdf2ea","system_id":"levelo_inurba_marseille","lat":43.24787,"lon":5.3745,"is_reserved":false,"is_disabled":false,"rental_uris":{"android":"levelo://app?vid=9c9ff537-c399-4793-83f2-0f8fbccdf2ea","ios":"levelo://app?vid=9c9ff537-c399-4793-83f2-0f8fbccdf2ea"},"vehicle_type_id":"4","last_reported":1758564877,"current_range_meters":8400,"station_id":"ce4bhgh2rcd13ifvqfb0","pricing_plan_id":"cebpf4jnsgd1na2vs0mg"},{"bike_id":"9278c8e4-f92e-4b80-9d1a-f8764c260a72","system_id":"levelo_inurba_marseille","lat":43.21754,"lon":5.34601,"is_reserved":false,"is_disabled":false,"rental_uris":{"android":"levelo://app?vid=9278c8e4-f92e-4b80-9d1a-f8764c260a72","ios":"levelo://app?vid=9278c8e4-f92e-4b80-9d1a-f8764c260a72"},"vehicle_type_id":"4","last_reported":1758564877,"current_range_meters":8400,"station_id":"st_cvj6r9ubvosntc0bgbag","pricing_plan_id":"cebpf4jnsgd1na2vs0mg"},{"bike_id":"a8434766-e2a0-461a-8b5f-4b3f14b7104e","system_id":"levelo_inurba_marseille","lat":43.26827,"lon":5.39485,"is_reserved":false,"is_disabled":false,"rental_uris":{"android":"levelo://app?vid=a8434766-e2a0-461a-8b5f-4b3f14b7104e","ios":"levelo://app?vid=a8434766-e2a0-461a-8b5f-4b3f14b7104e"},"vehicle_type_id":"4","last_reported":1758564877,"current_range_meters":8400,"station_id":"","pricing_plan_id":"cebpf4jnsgd1na2vs0mg"},{"bike_id":"ac116588-6885-4187-91c9-c109c8b92bc0","system_id":"levelo_inurba_marseille","lat":43.272096,"lon":5.391788,"is_reserved":false,"is_disabled":false,"rental_uris":{"android":"levelo://app?vid=ac116588-6885-4187-91c9-c109c8b92bc0","ios":"levelo://app?vid=ac116588-6885-4187-91c9-c109c8b92bc0"},"vehicle_type_id":"4","last_reported":1758564877,"current_range_meters":8400,"station_id":"ce4bhhp2rcd13ifvqfm0","pricing_plan_id":"cebpf4jnsgd1na2vs0mg"},{"bike_id":"bd026753-5169-4864-a712-ea992599a435","system_id":"levelo_inurba_marseille","lat":43.27209,"lon":5.39178,"is_reserved":false,"is_disabled":false,"rental_uris":{"android":"levelo://app?vid=bd026753-5169-4864-a712-ea992599a435","ios":"levelo://app?vid=bd026753-5169-4864-a712-ea992599a435"},"vehicle_type_id":"4","last_reported":1758564877,"current_range_meters":8400,"station_id":"ce4bhhp2rcd13ifvqfm0","pricing_plan_id":"cebpf4jnsgd1na2vs0mg"},{"bike_id":"fcf97d58-0ef2-4dc7-bbff-8b1faa9c6aad","system_id":"levelo_inurba_marseille","lat":43.27415,"lon":5.39428,"is_reserved":false,"is_disabled":false,"rental_uris":{"android":"levelo://app?vid=fcf97d58-0ef2-4dc7-bbff-8b1faa9c6aad","ios":"levelo://app?vid=fcf97d58-0ef2-4dc7-bbff-8b1faa9c6aad"},"vehicle_type_id":"4","last_reported":1758564877,"current_range_meters":8000,"station_id":"ce4bhdp2rcd13ifvqf20","pricing_plan_id":"cebpf4jnsgd1na2vs0mg"},{"bike_id":"b3ee816f-19cc-49a8-9318-eed4d78b7758","system_id":"levelo_inurba_marseille","lat":43.29152,"lon":5.38277,"is_reserved":false,"is_disabled":false,"rental_uris":{"android":"levelo://app?vid=b3ee816f-19cc-49a8-9318-eed4d78b7758","ios":"levelo://app?vid=b3ee816f-19cc-49a8-9318-eed4d78b7758"},"vehicle_type_id":"4","last_reported":1758564877,"current_range_meters":8400,"station_id":"","pricing_plan_id":"cebpf4jnsgd1na2vs0mg"},{"bike_id":"54b3de99-6f20-4756-9886-db2bd8dd170c","system_id":"levelo_inurba_marseille","lat":43.29244,"lon":5.40903,"is_reserved":false,"is_disabled":false,"rental_uris":{"android":"levelo://app?vid=54b3de99-6f20-4756-9886-db2bd8dd170c","ios":"levelo://app?vid=54b3de99-6f20-4756-9886-db2bd8dd170c"},"vehicle_type_id":"4","last_reported":1758564877,"current_range_meters":8400,"station_id":"ce4bh192rcd13ifvqdc0","pricing_plan_id":"cebpf4jnsgd1na2vs0mg"},{"bike_id":"76bbf107-7ec5-4826-b296-ab629ecd14ab","system_id":"levelo_inurba_marseille","lat":43.29812,"lon":5.421107,"is_reserved":false,"is_disabled":false,"rental_uris":{"android":"levelo://app?vid=76bbf107-7ec5-4826-b296-ab629ecd14ab","ios":"levelo://app?vid=76bbf107-7ec5-4826-b296-ab629ecd14ab"},"vehicle_type_id":"4","last_reported":1758564877,"current_range_meters":8400,"station_id":"","pricing_plan_id":"cebpf4jnsgd1na2vs0mg"},{"bike_id":"8e65c54f-07c5-4c9d-964b-ab2eaf75b139","system_id":"levelo_inurba_marseille","lat":43.30541,"lon":5.3842,"is_reserved":false,"is_disabled":false,"rental_uris":{"android":"levelo://app?vid=8e65c54f-07c5-4c9d-964b-ab2eaf75b139","ios":"levelo://app?vid=8e65c54f-07c5-4c9d-964b-ab2eaf75b139"},"vehicle_type_id":"4","last_reported":1758564877,"current_range_meters":13600,"station_id":"ce4bgg92rcd13ifvqb30","pricing_plan_id":"cebpf4jnsgd1na2vs0mg"},{"bike_id":"18cbb4ba-7884-4958-8671-7120ee946be0","system_id":"levelo_inurba_marseille","lat":43.27308,"lon":5.39092,"is_reserved":false,"is_disabled":false,"rental_uris":{"android":"levelo://app?vid=18cbb4ba-7884-4958-8671-7120ee946be0","ios":"levelo://app?vid=18cbb4ba-7884-4958-8671-7120ee946be0"},"vehicle_type_id":"4","last_reported":1758564877,"current_range_meters":8800,"station_id":"ce4bhgp2rcd13ifvqfe0","pricing_plan_id":"cebpf4jnsgd1na2vs0mg"},{"bike_id":"b39ffcde-8d4a-4e25-86c3-967d542890a2","system_id":"levelo_inurba_marseille","lat":43.26942,"lon":5.4026,"is_reserved":false,"is_disabled":false,"rental_uris":{"android":"levelo://app?vid=b39ffcde-8d4a-4e25-86c3-967d542890a2","ios":"levelo://app?vid=b39ffcde-8d4a-4e25-86c3-967d542890a2"},"vehicle_type_id":"4","last_reported":1758564877,"current_range_meters":8800,"station_id":"cjm6bp8fraef2m0cb0m0","pricing_plan_id":"cebpf4jnsgd1na2vs0mg"},{"bike_id":"c62055c2-a0a8-45b7-94e8-10b54396c6f4","system_id":"levelo_inurba_marseille","lat":43.25338,"lon":5.42185,"is_reserved":false,"is_disabled":false,"rental_uris":{"android":"levelo://app?vid=c62055c2-a0a8-45b7-94e8-10b54396c6f4","ios":"levelo://app?vid=c62055c2-a0a8-45b7-94e8-10b54396c6f4"},"vehicle_type_id":"4","last_reported":1758564877,"current_range_meters":8800,"station_id":"st_d2m65c5bi1j21697t3ng","pricing_plan_id":"cebpf4jnsgd1na2vs0mg"},{"bike_id":"ca7cfd93-60d9-4fda-b2da-28a86ec02074","system_id":"levelo_inurba_marseille","lat":43.33482,"lon":5.36238,"is_reserved":false,"is_disabled":false,"rental_uris":{"android":"levelo://app?vid=ca7cfd93-60d9-4fda-b2da-28a86ec02074","ios":"levelo://app?vid=ca7cfd93-60d9-4fda-b2da-28a86ec02074"},"vehicle_type_id":"4","last_reported":1758564877,"current_range_meters":8800,"station_id":"","pricing_plan_id":"cebpf4jnsgd1na2vs0mg"},{"bike_id":"a95a546a-691f-414b-9f19-eb455305a59b","system_id":"levelo_inurba_marseille","lat":43.21764,"lon":5.34597,"is_reserved":false,"is_disabled":false,"rental_uris":{"android":"levelo://app?vid=a95a546a-691f-414b-9f19-eb455305a59b","ios":"levelo://app?vid=a95a546a-691f-414b-9f19-eb455305a59b"},"vehicle_type_id":"4","last_reported":1758564877,"current_range_meters":8800,"station_id":"st_cvj6r9ubvosntc0bgbag","pricing_plan_id":"cebpf4jnsgd1na2vs0mg"},{"bike_id":"d078ca7c-25c3-4861-8e45-4fd0d1ee2d70","system_id":"levelo_inurba_marseille","lat":43.27914,"lon":5.39596,"is_reserved":false,"is_disabled":false,"rental_uris":{"android":"levelo://app?vid=d078ca7c-25c3-4861-8e45-4fd0d1ee2d70","ios":"levelo://app?vid=d078ca7c-25c3-4861-8e45-4fd0d1ee2d70"},"vehicle_type_id":"4","last_reported":1758564877,"current_range_meters":8800,"station_id":"ce4bhf92rcd13ifvqf40","pricing_plan_id":"cebpf4jnsgd1na2vs0mg"},{"bike_id":"10bde124-adf9-4218-b638-6b318c1f45ca","system_id":"levelo_inurba_marseille","lat":43.30599,"lon":5.39366,"is_reserved":false,"is_disabled":false,"rental_uris":{"android":"levelo://app?vid=10bde124-adf9-4218-b638-6b318c1f45ca","ios":"levelo://app?vid=10bde124-adf9-4218-b638-6b318c1f45ca"},"vehicle_type_id":"4","last_reported":1758564877,"current_range_meters":8800,"station_id":"ce4bh0p2rcd13ifvqd80","pricing_plan_id":"cebpf4jnsgd1na2vs0mg"},{"bike_id":"7f63abf6-c351-4659-a653-d356862ac27b","system_id":"levelo_inurba_marseille","lat":43.257217,"lon":5.411134,"is_reserved":false,"is_disabled":false,"rental_uris":{"android":"levelo://app?vid=7f63abf6-c351-4659-a653-d356862ac27b","ios":"levelo://app?vid=7f63abf6-c351-4659-a653-d356862ac27b"},"vehicle_type_id":"4","last_reported":1758564877,"current_range_meters":8400,"station_id":"ce4bhkp2rcd13ifvqgd0","pricing_plan_id":"cebpf4jnsgd1na2vs0mg"},{"bike_id":"b95623e4-298f-48cc-b116-b27f62a61d29","system_id":"levelo_inurba_marseille","lat":43.26923,"lon":5.40276,"is_reserved":false,"is_disabled":false,"rental_uris":{"android":"levelo://app?vid=b95623e4-298f-48cc-b116-b27f62a61d29","ios":"levelo://app?vid=b95623e4-298f-48cc-b116-b27f62a61d29"},"vehicle_type_id":"4","last_reported":1758564877,"current_range_meters":8800,"station_id":"cjm6bp8fraef2m0cb0m0","pricing_plan_id":"cebpf4jnsgd1na2vs0mg"},{"bike_id":"f3866ed4-e0ee-4bd4-9d2e-82fbd58ae4e5","system_id":"levelo_inurba_marseille","lat":43.26799,"lon":5.3941,"is_reserved":false,"is_disabled":false,"rental_uris":{"android":"levelo://app?vid=f3866ed4-e0ee-4bd4-9d2e-82fbd58ae4e5","ios":"levelo://app?vid=f3866ed4-e0ee-4bd4-9d2e-82fbd58ae4e5"},"vehicle_type_id":"4","last_reported":1758564877,"current_range_meters":9200,"station_id":"ce4bhh12rcd13ifvqfg0","pricing_plan_id":"cebpf4jnsgd1na2vs0mg"},{"bike_id":"8a569a47-46ff-4e91-972f-c6991b590b75","system_id":"levelo_inurba_marseille","lat":43.30237,"lon":5.40088,"is_reserved":false,"is_disabled":true,"rental_uris":{"android":"levelo://app?vid=8a569a47-46ff-4e91-972f-c6991b590b75","ios":"levelo://app?vid=8a569a47-46ff-4e91-972f-c6991b590b75"},"vehicle_type_id":"4","last_reported":1758564877,"current_range_meters":9200,"station_id":"ce4bgvh2rcd13ifvqcs0","pricing_plan_id":"cebpf4jnsgd1na2vs0mg"},{"bike_id":"59362b21-e7ae-4d89-a581-7623f0cabe74","system_id":"levelo_inurba_marseille","lat":43.29003,"lon":5.35615,"is_reserved":false,"is_disabled":true,"rental_uris":{"android":"levelo://app?vid=59362b21-e7ae-4d89-a581-7623f0cabe74","ios":"levelo://app?vid=59362b21-e7ae-4d89-a581-7623f0cabe74"},"vehicle_type_id":"4","last_reported":1758564877,"current_range_meters":9200,"station_id":"ce4bhb92rcd13ifvqen0","pricing_plan_id":"cebpf4jnsgd1na2vs0mg"},{"bike_id":"dce9d247-eaca-4509-b79f-b8115ac99d2f","system_id":"levelo_inurba_marseille","lat":43.32108,"lon":5.36773,"is_reserved":false,"is_disabled":false,"rental_uris":{"android":"levelo://app?vid=dce9d247-eaca-4509-b79f-b8115ac99d2f","ios":"levelo://app?vid=dce9d247-eaca-4509-b79f-b8115ac99d2f"},"vehicle_type_id":"4","last_reported":1758564877,"current_range_meters":9200,"station_id":"ce4bhrh2rcd13ifvqhug","pricing_plan_id":"cebpf4jnsgd1na2vs0mg"},{"bike_id":"57a554c8-313b-4697-ac11-481f5aecffc8","system_id":"levelo_inurba_marseille","lat":43.29166,"lon":5.37154,"is_reserved":false,"is_disabled":false,"rental_uris":{"android":"levelo://app?vid=57a554c8-313b-4697-ac11-481f5aecffc8","ios":"levelo://app?vid=57a554c8-313b-4697-ac11-481f5aecffc8"},"vehicle_type_id":"4","last_reported":1758564877,"current_range_meters":9200,"station_id":"ce4bha92rcd13ifvqeh0","pricing_plan_id":"cebpf4jnsgd1na2vs0mg"},{"bike_id":"64d457b9-4a4f-487b-876c-b2b7e230c57c","system_id":"levelo_inurba_marseille","lat":43.27436,"lon":5.39414,"is_reserved":false,"is_disabled":false,"rental_uris":{"android":"levelo://app?vid=64d457b9-4a4f-487b-876c-b2b7e230c57c","ios":"levelo://app?vid=64d457b9-4a4f-487b-876c-b2b7e230c57c"},"vehicle_type_id":"4","last_reported":1758564877,"current_range_meters":9200,"station_id":"ce4bhdp2rcd13ifvqf20","pricing_plan_id":"cebpf4jnsgd1na2vs0mg"},{"bike_id":"9176512c-2cc1-4df2-a8e0-6be514fbcdbf","system_id":"levelo_inurba_marseille","lat":43.33748,"lon":5.37465,"is_reserved":false,"is_disabled":false,"rental_uris":{"android":"levelo://app?vid=9176512c-2cc1-4df2-a8e0-6be514fbcdbf","ios":"levelo://app?vid=9176512c-2cc1-4df2-a8e0-6be514fbcdbf"},"vehicle_type_id":"4","last_reported":1758564877,"current_range_meters":9200,"station_id":"","pricing_plan_id":"cebpf4jnsgd1na2vs0mg"},{"bike_id":"438ead59-de14-4fa0-a61d-03a70a4122ae","system_id":"levelo_inurba_marseille","lat":43.97285,"lon":4.89134,"is_reserved":false,"is_disabled":true,"rental_uris":{"android":"levelo://app?vid=438ead59-de14-4fa0-a61d-03a70a4122ae","ios":"levelo://app?vid=438ead59-de14-4fa0-a61d-03a70a4122ae"},"vehicle_type_id":"4","last_reported":1758564877,"current_range_meters":9200,"station_id":"","pricing_plan_id":"cebpf4jnsgd1na2vs0mg"},{"bike_id":"82b7dc30-95b5-4354-a04d-c5890f996539","system_id":"levelo_inurba_marseille","lat":43.29972,"lon":5.385,"is_reserved":false,"is_disabled":false,"rental_uris":{"android":"levelo://app?vid=82b7dc30-95b5-4354-a04d-c5890f996539","ios":"levelo://app?vid=82b7dc30-95b5-4354-a04d-c5890f996539"},"vehicle_type_id":"4","last_reported":1758564877,"current_range_meters":8800,"station_id":"ce4bgj92rcd13ifvqbd0","pricing_plan_id":"cebpf4jnsgd1na2vs0mg"},{"bike_id":"d44317b4-44a0-4130-bdea-af247100bae3","system_id":"levelo_inurba_marseille","lat":43.3065,"lon":5.40103,"is_reserved":false,"is_disabled":false,"rental_uris":{"android":"levelo://app?vid=d44317b4-44a0-4130-bdea-af247100bae3","ios":"levelo://app?vid=d44317b4-44a0-4130-bdea-af247100bae3"},"vehicle_type_id":"4","last_reported":1758564877,"current_range_meters":10800,"station_id":"ce4bh112rcd13ifvqda0","pricing_plan_id":"cebpf4jnsgd1na2vs0mg"},{"bike_id":"0402438e-d72b-4870-8e22-17facef5f22b","system_id":"levelo_inurba_marseille","lat":43.2958,"lon":5.39184,"is_reserved":false,"is_disabled":false,"rental_uris":{"android":"levelo://app?vid=0402438e-d72b-4870-8e22-17facef5f22b","ios":"levelo://app?vid=0402438e-d72b-4870-8e22-17facef5f22b"},"vehicle_type_id":"4","last_reported":1758564877,"current_range_meters":9600,"station_id":"","pricing_plan_id":"cebpf4jnsgd1na2vs0mg"},{"bike_id":"b18cd7b9-9d09-4ce1-a6c5-f92844286246","system_id":"levelo_inurba_marseille","lat":43.2955,"lon":5.39679,"is_reserved":false,"is_disabled":false,"rental_uris":{"android":"levelo://app?vid=b18cd7b9-9d09-4ce1-a6c5-f92844286246","ios":"levelo://app?vid=b18cd7b9-9d09-4ce1-a6c5-f92844286246"},"vehicle_type_id":"4","last_reported":1758564877,"current_range_meters":9600,"station_id":"ce4bh3p2rcd13ifvqdp0","pricing_plan_id":"cebpf4jnsgd1na2vs0mg"},{"bike_id":"21b332ff-d200-4512-b147-e9a4034e1bab","system_id":"levelo_inurba_marseille","lat":43.2781,"lon":5.40731,"is_reserved":false,"is_disabled":false,"rental_uris":{"android":"levelo://app?vid=21b332ff-d200-4512-b147-e9a4034e1bab","ios":"levelo://app?vid=21b332ff-d200-4512-b147-e9a4034e1bab"},"vehicle_type_id":"4","last_reported":1758564877,"current_range_meters":9600,"station_id":"ce4bhnh2rcd13ifvqgtg","pricing_plan_id":"cebpf4jnsgd1na2vs0mg"},{"bike_id":"a76967bb-1969-4c8d-96c8-e68d60bf2f15","system_id":"levelo_inurba_marseille","lat":43.27198,"lon":5.39184,"is_reserved":false,"is_disabled":false,"rental_uris":{"android":"levelo://app?vid=a76967bb-1969-4c8d-96c8-e68d60bf2f15","ios":"levelo://app?vid=a76967bb-1969-4c8d-96c8-e68d60bf2f15"},"vehicle_type_id":"4","last_reported":1758564877,"current_range_meters":9600,"station_id":"ce4bhhp2rcd13ifvqfm0","pricing_plan_id":"cebpf4jnsgd1na2vs0mg"},{"bike_id":"b11b2329-2c7e-4aa7-bad5-398885a2c905","system_id":"levelo_inurba_marseille","lat":43.29532,"lon":5.38547,"is_reserved":false,"is_disabled":false,"rental_uris":{"android":"levelo://app?vid=b11b2329-2c7e-4aa7-bad5-398885a2c905","ios":"levelo://app?vid=b11b2329-2c7e-4aa7-bad5-398885a2c905"},"vehicle_type_id":"4","last_reported":1758564877,"current_range_meters":9600,"station_id":"ce4bgih2rcd13ifvqba0","pricing_plan_id":"cebpf4jnsgd1na2vs0mg"},{"bike_id":"5c0174be-d67f-44ed-a9fe-5aeed44fadf8","system_id":"levelo_inurba_marseille","lat":43.24663,"lon":5.3817,"is_reserved":false,"is_disabled":false,"rental_uris":{"android":"levelo://app?vid=5c0174be-d67f-44ed-a9fe-5aeed44fadf8","ios":"levelo://app?vid=5c0174be-d67f-44ed-a9fe-5aeed44fadf8"},"vehicle_type_id":"4","last_reported":1758564877,"current_range_meters":9200,"station_id":"ce4bhih2rcd13ifvqfr0","pricing_plan_id":"cebpf4jnsgd1na2vs0mg"},{"bike_id":"1acc509b-af85-4b58-bd74-e0c052811dd7","system_id":"levelo_inurba_marseille","lat":43.30284,"lon":5.396613,"is_reserved":false,"is_disabled":false,"rental_uris":{"android":"levelo://app?vid=1acc509b-af85-4b58-bd74-e0c052811dd7","ios":"levelo://app?vid=1acc509b-af85-4b58-bd74-e0c052811dd7"},"vehicle_type_id":"4","last_reported":1758564877,"current_range_meters":10000,"station_id":"","pricing_plan_id":"cebpf4jnsgd1na2vs0mg"},{"bike_id":"a15e48c8-16c3-437e-a237-62b9e19d84cb","system_id":"levelo_inurba_marseille","lat":43.21749,"lon":5.34614,"is_reserved":false,"is_disabled":false,"rental_uris":{"android":"levelo://app?vid=a15e48c8-16c3-437e-a237-62b9e19d84cb","ios":"levelo://app?vid=a15e48c8-16c3-437e-a237-62b9e19d84cb"},"vehicle_type_id":"4","last_reported":1758564877,"current_range_meters":10000,"station_id":"st_cvj6r9ubvosntc0bgbag","pricing_plan_id":"cebpf4jnsgd1na2vs0mg"},{"bike_id":"0ca405c5-50f7-42f0-ad59-fa4f401dba3d","system_id":"levelo_inurba_marseille","lat":43.24665,"lon":5.38171,"is_reserved":false,"is_disabled":true,"rental_uris":{"android":"levelo://app?vid=0ca405c5-50f7-42f0-ad59-fa4f401dba3d","ios":"levelo://app?vid=0ca405c5-50f7-42f0-ad59-fa4f401dba3d"},"vehicle_type_id":"4","last_reported":1758564877,"current_range_meters":10000,"station_id":"ce4bhih2rcd13ifvqfr0","pricing_plan_id":"cebpf4jnsgd1na2vs0mg"},{"bike_id":"91871d43-ab59-4589-ad8d-931663c4f8da","system_id":"levelo_inurba_marseille","lat":43.26784,"lon":5.39436,"is_reserved":false,"is_disabled":false,"rental_uris":{"android":"levelo://app?vid=91871d43-ab59-4589-ad8d-931663c4f8da","ios":"levelo://app?vid=91871d43-ab59-4589-ad8d-931663c4f8da"},"vehicle_type_id":"4","last_reported":1758564877,"current_range_meters":10000,"station_id":"ce4bhh12rcd13ifvqfg0","pricing_plan_id":"cebpf4jnsgd1na2vs0mg"},{"bike_id":"96557ea5-0866-452a-b77b-a48b35a29d44","system_id":"levelo_inurba_marseille","lat":43.27833,"lon":5.39222,"is_reserved":false,"is_disabled":false,"rental_uris":{"android":"levelo://app?vid=96557ea5-0866-452a-b77b-a48b35a29d44","ios":"levelo://app?vid=96557ea5-0866-452a-b77b-a48b35a29d44"},"vehicle_type_id":"4","last_reported":1758564877,"current_range_meters":10000,"station_id":"ce4bhjp2rcd13ifvqga0","pricing_plan_id":"cebpf4jnsgd1na2vs0mg"},{"bike_id":"119a895e-2328-4067-9219-cc34ed58f6ce","system_id":"levelo_inurba_marseille","lat":43.2732,"lon":5.3908,"is_reserved":false,"is_disabled":false,"rental_uris":{"android":"levelo://app?vid=119a895e-2328-4067-9219-cc34ed58f6ce","ios":"levelo://app?vid=119a895e-2328-4067-9219-cc34ed58f6ce"},"vehicle_type_id":"4","last_reported":1758564877,"current_range_meters":10000,"station_id":"ce4bhgp2rcd13ifvqfe0","pricing_plan_id":"cebpf4jnsgd1na2vs0mg"},{"bike_id":"2d3ff896-2133-4ab1-9ba6-4197ddb7fb4d","system_id":"levelo_inurba_marseille","lat":43.27215,"lon":5.39163,"is_reserved":false,"is_disabled":false,"rental_uris":{"android":"levelo://app?vid=2d3ff896-2133-4ab1-9ba6-4197ddb7fb4d","ios":"levelo://app?vid=2d3ff896-2133-4ab1-9ba6-4197ddb7fb4d"},"vehicle_type_id":"4","last_reported":1758564877,"current_range_meters":9600,"station_id":"ce4bhhp2rcd13ifvqfm0","pricing_plan_id":"cebpf4jnsgd1na2vs0mg"},{"bike_id":"902b19cd-3c32-4696-90a7-574e99df3da9","system_id":"levelo_inurba_marseille","lat":43.25333,"lon":5.42178,"is_reserved":false,"is_disabled":false,"rental_uris":{"android":"levelo://app?vid=902b19cd-3c32-4696-90a7-574e99df3da9","ios":"levelo://app?vid=902b19cd-3c32-4696-90a7-574e99df3da9"},"vehicle_type_id":"4","last_reported":1758564877,"current_range_meters":10000,"station_id":"st_d2m65c5bi1j21697t3ng","pricing_plan_id":"cebpf4jnsgd1na2vs0mg"},{"bike_id":"6910a784-9ded-46d2-a4b5-f5e004b10189","system_id":"levelo_inurba_marseille","lat":43.29255,"lon":5.3845,"is_reserved":false,"is_disabled":false,"rental_uris":{"android":"levelo://app?vid=6910a784-9ded-46d2-a4b5-f5e004b10189","ios":"levelo://app?vid=6910a784-9ded-46d2-a4b5-f5e004b10189"},"vehicle_type_id":"4","last_reported":1758564877,"current_range_meters":9200,"station_id":"ce4bh692rcd13ifvqea0","pricing_plan_id":"cebpf4jnsgd1na2vs0mg"},{"bike_id":"d38407fe-69ea-4c06-87e2-b0debf692ccd","system_id":"levelo_inurba_marseille","lat":43.292659,"lon":5.384356,"is_reserved":false,"is_disabled":false,"rental_uris":{"android":"levelo://app?vid=d38407fe-69ea-4c06-87e2-b0debf692ccd","ios":"levelo://app?vid=d38407fe-69ea-4c06-87e2-b0debf692ccd"},"vehicle_type_id":"4","last_reported":1758564877,"current_range_meters":10000,"station_id":"ce4bh692rcd13ifvqea0","pricing_plan_id":"cebpf4jnsgd1na2vs0mg"},{"bike_id":"bbb5a665-7420-497d-aea1-9c7ebeb8e3ce","system_id":"levelo_inurba_marseille","lat":43.31537,"lon":5.38022,"is_reserved":false,"is_disabled":false,"rental_uris":{"android":"levelo://app?vid=bbb5a665-7420-497d-aea1-9c7ebeb8e3ce","ios":"levelo://app?vid=bbb5a665-7420-497d-aea1-9c7ebeb8e3ce"},"vehicle_type_id":"4","last_reported":1758564877,"current_range_meters":10000,"station_id":"ce4bhsp2rcd13ifvqi50","pricing_plan_id":"cebpf4jnsgd1na2vs0mg"},{"bike_id":"9d9648da-eee6-4dda-acb2-2db004b07585","system_id":"levelo_inurba_marseille","lat":43.29252,"lon":5.38454,"is_reserved":false,"is_disabled":false,"rental_uris":{"android":"levelo://app?vid=9d9648da-eee6-4dda-acb2-2db004b07585","ios":"levelo://app?vid=9d9648da-eee6-4dda-acb2-2db004b07585"},"vehicle_type_id":"4","last_reported":1758564877,"current_range_meters":10000,"station_id":"ce4bh692rcd13ifvqea0","pricing_plan_id":"cebpf4jnsgd1na2vs0mg"},{"bike_id":"11502c90-968c-41db-99d3-76854f0915c0","system_id":"levelo_inurba_marseille","lat":43.3372,"lon":5.39193,"is_reserved":false,"is_disabled":false,"rental_uris":{"android":"levelo://app?vid=11502c90-968c-41db-99d3-76854f0915c0","ios":"levelo://app?vid=11502c90-968c-41db-99d3-76854f0915c0"},"vehicle_type_id":"4","last_reported":1758564877,"current_range_meters":14000,"station_id":"ce4bhr92rcd13ifvqhsg","pricing_plan_id":"cebpf4jnsgd1na2vs0mg"},{"bike_id":"f7a10a66-c732-49b7-8f50-c140cc69d24f","system_id":"levelo_inurba_marseille","lat":43.28703,"lon":5.39985,"is_reserved":false,"is_disabled":false,"rental_uris":{"android":"levelo://app?vid=f7a10a66-c732-49b7-8f50-c140cc69d24f","ios":"levelo://app?vid=f7a10a66-c732-49b7-8f50-c140cc69d24f"},"vehicle_type_id":"4","last_reported":1758564877,"current_range_meters":11200,"station_id":"ce4bho92rcd13ifvqh3g","pricing_plan_id":"cebpf4jnsgd1na2vs0mg"},{"bike_id":"eb4e1e2d-cfcf-46fa-8645-8e49641fe521","system_id":"levelo_inurba_marseille","lat":43.26497,"lon":5.39539,"is_reserved":false,"is_disabled":false,"rental_uris":{"android":"levelo://app?vid=eb4e1e2d-cfcf-46fa-8645-8e49641fe521","ios":"levelo://app?vid=eb4e1e2d-cfcf-46fa-8645-8e49641fe521"},"vehicle_type_id":"4","last_reported":1758564877,"current_range_meters":11200,"station_id":"ce4bhi12rcd13ifvqfq0","pricing_plan_id":"cebpf4jnsgd1na2vs0mg"},{"bike_id":"6e417fed-8d43-4963-b52e-c54cd79d652e","system_id":"levelo_inurba_marseille","lat":43.30114,"lon":5.38771,"is_reserved":false,"is_disabled":true,"rental_uris":{"android":"levelo://app?vid=6e417fed-8d43-4963-b52e-c54cd79d652e","ios":"levelo://app?vid=6e417fed-8d43-4963-b52e-c54cd79d652e"},"vehicle_type_id":"4","last_reported":1758564877,"current_range_meters":11200,"station_id":"ce4bghh2rcd13ifvqb60","pricing_plan_id":"cebpf4jnsgd1na2vs0mg"},{"bike_id":"c46575d3-d222-4081-9970-3a38bb708282","system_id":"levelo_inurba_marseille","lat":43.22927,"lon":5.35388,"is_reserved":false,"is_disabled":false,"rental_uris":{"android":"levelo://app?vid=c46575d3-d222-4081-9970-3a38bb708282","ios":"levelo://app?vid=c46575d3-d222-4081-9970-3a38bb708282"},"vehicle_type_id":"4","last_reported":1758564877,"current_range_meters":11200,"station_id":"cpo3532slgdg3j2ikp40","pricing_plan_id":"cebpf4jnsgd1na2vs0mg"},{"bike_id":"e662a005-fee4-4c57-8789-f990601827cd","system_id":"levelo_inurba_marseille","lat":43.29876,"lon":5.39742,"is_reserved":false,"is_disabled":false,"rental_uris":{"android":"levelo://app?vid=e662a005-fee4-4c57-8789-f990601827cd","ios":"levelo://app?vid=e662a005-fee4-4c57-8789-f990601827cd"},"vehicle_type_id":"4","last_reported":1758564877,"current_range_meters":10800,"station_id":"ce4bh0h2rcd13ifvqd50","pricing_plan_id":"cebpf4jnsgd1na2vs0mg"},{"bike_id":"d5cc46b8-e2e3-449e-bae5-96857657ca74","system_id":"levelo_inurba_marseille","lat":43.25718,"lon":5.41117,"is_reserved":false,"is_disabled":false,"rental_uris":{"android":"levelo://app?vid=d5cc46b8-e2e3-449e-bae5-96857657ca74","ios":"levelo://app?vid=d5cc46b8-e2e3-449e-bae5-96857657ca74"},"vehicle_type_id":"4","last_reported":1758564877,"current_range_meters":11200,"station_id":"ce4bhkp2rcd13ifvqgd0","pricing_plan_id":"cebpf4jnsgd1na2vs0mg"},{"bike_id":"8d620b4e-af54-4eb9-aecd-1fb7d5c30461","system_id":"levelo_inurba_marseille","lat":43.26938,"lon":5.40261,"is_reserved":false,"is_disabled":false,"rental_uris":{"android":"levelo://app?vid=8d620b4e-af54-4eb9-aecd-1fb7d5c30461","ios":"levelo://app?vid=8d620b4e-af54-4eb9-aecd-1fb7d5c30461"},"vehicle_type_id":"4","last_reported":1758564877,"current_range_meters":11600,"station_id":"cjm6bp8fraef2m0cb0m0","pricing_plan_id":"cebpf4jnsgd1na2vs0mg"},{"bike_id":"bd8c9cae-1b8f-49c6-9fd9-18457202471c","system_id":"levelo_inurba_marseille","lat":43.25727,"lon":5.41107,"is_reserved":false,"is_disabled":false,"rental_uris":{"android":"levelo://app?vid=bd8c9cae-1b8f-49c6-9fd9-18457202471c","ios":"levelo://app?vid=bd8c9cae-1b8f-49c6-9fd9-18457202471c"},"vehicle_type_id":"4","last_reported":1758564877,"current_range_meters":11600,"station_id":"ce4bhkp2rcd13ifvqgd0","pricing_plan_id":"cebpf4jnsgd1na2vs0mg"},{"bike_id":"7bb4df4e-2320-4fac-9d2f-52410b3e28de","system_id":"levelo_inurba_marseille","lat":43.27304,"lon":5.39115,"is_reserved":false,"is_disabled":false,"rental_uris":{"android":"levelo://app?vid=7bb4df4e-2320-4fac-9d2f-52410b3e28de","ios":"levelo://app?vid=7bb4df4e-2320-4fac-9d2f-52410b3e28de"},"vehicle_type_id":"4","last_reported":1758564877,"current_range_meters":11600,"station_id":"ce4bhgp2rcd13ifvqfe0","pricing_plan_id":"cebpf4jnsgd1na2vs0mg"},{"bike_id":"d65993f8-d018-4626-9c9a-fae0b196f249","system_id":"levelo_inurba_marseille","lat":43.23965,"lon":5.36631,"is_reserved":false,"is_disabled":false,"rental_uris":{"android":"levelo://app?vid=d65993f8-d018-4626-9c9a-fae0b196f249","ios":"levelo://app?vid=d65993f8-d018-4626-9c9a-fae0b196f249"},"vehicle_type_id":"4","last_reported":1758564877,"current_range_meters":11600,"station_id":"ce4bhi12rcd13ifvqfp0","pricing_plan_id":"cebpf4jnsgd1na2vs0mg"},{"bike_id":"1408c3bd-5443-49da-b8b2-c92bb2488b38","system_id":"levelo_inurba_marseille","lat":43.29521,"lon":5.39415,"is_reserved":false,"is_disabled":false,"rental_uris":{"android":"levelo://app?vid=1408c3bd-5443-49da-b8b2-c92bb2488b38","ios":"levelo://app?vid=1408c3bd-5443-49da-b8b2-c92bb2488b38"},"vehicle_type_id":"4","last_reported":1758564877,"current_range_meters":11600,"station_id":"ce4bh292rcd13ifvqdf0","pricing_plan_id":"cebpf4jnsgd1na2vs0mg"},{"bike_id":"91335c10-7336-4301-ba97-4c23c1c69bfd","system_id":"levelo_inurba_marseille","lat":43.27307,"lon":5.39073,"is_reserved":false,"is_disabled":false,"rental_uris":{"android":"levelo://app?vid=91335c10-7336-4301-ba97-4c23c1c69bfd","ios":"levelo://app?vid=91335c10-7336-4301-ba97-4c23c1c69bfd"},"vehicle_type_id":"4","last_reported":1758564877,"current_range_meters":11600,"station_id":"ce4bhgp2rcd13ifvqfe0","pricing_plan_id":"cebpf4jnsgd1na2vs0mg"},{"bike_id":"bc5bdce1-bf12-446e-b31e-3cfc29bb8dd1","system_id":"levelo_inurba_marseille","lat":43.29558,"lon":5.38174,"is_reserved":false,"is_disabled":false,"rental_uris":{"android":"levelo://app?vid=bc5bdce1-bf12-446e-b31e-3cfc29bb8dd1","ios":"levelo://app?vid=bc5bdce1-bf12-446e-b31e-3cfc29bb8dd1"},"vehicle_type_id":"4","last_reported":1758564877,"current_range_meters":11600,"station_id":"","pricing_plan_id":"cebpf4jnsgd1na2vs0mg"},{"bike_id":"2a2fbf45-e13d-4c58-b779-b4c75a4a65c4","system_id":"levelo_inurba_marseille","lat":43.2706,"lon":5.4026,"is_reserved":false,"is_disabled":false,"rental_uris":{"android":"levelo://app?vid=2a2fbf45-e13d-4c58-b779-b4c75a4a65c4","ios":"levelo://app?vid=2a2fbf45-e13d-4c58-b779-b4c75a4a65c4"},"vehicle_type_id":"4","last_reported":1758564877,"current_range_meters":11600,"station_id":"ce4bhk92rcd13ifvqgc0","pricing_plan_id":"cebpf4jnsgd1na2vs0mg"},{"bike_id":"396649d1-8c17-4df3-aa3a-bf0d0c91c89b","system_id":"levelo_inurba_marseille","lat":43.2694,"lon":5.4025,"is_reserved":false,"is_disabled":false,"rental_uris":{"android":"levelo://app?vid=396649d1-8c17-4df3-aa3a-bf0d0c91c89b","ios":"levelo://app?vid=396649d1-8c17-4df3-aa3a-bf0d0c91c89b"},"vehicle_type_id":"4","last_reported":1758564877,"current_range_meters":11600,"station_id":"cjm6bp8fraef2m0cb0m0","pricing_plan_id":"cebpf4jnsgd1na2vs0mg"},{"bike_id":"9da49e3e-0d57-48ed-a25c-4761e53b7892","system_id":"levelo_inurba_marseille","lat":43.284562,"lon":5.392015,"is_reserved":false,"is_disabled":false,"rental_uris":{"android":"levelo://app?vid=9da49e3e-0d57-48ed-a25c-4761e53b7892","ios":"levelo://app?vid=9da49e3e-0d57-48ed-a25c-4761e53b7892"},"vehicle_type_id":"4","last_reported":1758564877,"current_range_meters":11600,"station_id":"ce4bhoh2rcd13ifvqh5g","pricing_plan_id":"cebpf4jnsgd1na2vs0mg"},{"bike_id":"2a10047d-cde4-4adf-b11d-b8818c7913a4","system_id":"levelo_inurba_marseille","lat":43.257053,"lon":5.411178,"is_reserved":false,"is_disabled":false,"rental_uris":{"android":"levelo://app?vid=2a10047d-cde4-4adf-b11d-b8818c7913a4","ios":"levelo://app?vid=2a10047d-cde4-4adf-b11d-b8818c7913a4"},"vehicle_type_id":"4","last_reported":1758564877,"current_range_meters":11600,"station_id":"ce4bhkp2rcd13ifvqgd0","pricing_plan_id":"cebpf4jnsgd1na2vs0mg"},{"bike_id":"7d73570a-4165-46a4-a4d9-6c3b91773a9c","system_id":"levelo_inurba_marseille","lat":43.2292,"lon":5.35408,"is_reserved":false,"is_disabled":false,"rental_uris":{"android":"levelo://app?vid=7d73570a-4165-46a4-a4d9-6c3b91773a9c","ios":"levelo://app?vid=7d73570a-4165-46a4-a4d9-6c3b91773a9c"},"vehicle_type_id":"4","last_reported":1758564877,"current_range_meters":12000,"station_id":"cpo3532slgdg3j2ikp40","pricing_plan_id":"cebpf4jnsgd1na2vs0mg"},{"bike_id":"90e14a2d-1c9e-457a-a1d7-7257e3270581","system_id":"levelo_inurba_marseille","lat":43.27976,"lon":5.41664,"is_reserved":false,"is_disabled":true,"rental_uris":{"android":"levelo://app?vid=90e14a2d-1c9e-457a-a1d7-7257e3270581","ios":"levelo://app?vid=90e14a2d-1c9e-457a-a1d7-7257e3270581"},"vehicle_type_id":"4","last_reported":1758564877,"current_range_meters":12000,"station_id":"ce4bho12rcd13ifvqh1g","pricing_plan_id":"cebpf4jnsgd1na2vs0mg"},{"bike_id":"94dc763b-5c60-4e8c-a6fc-573bcaf8f7f0","system_id":"levelo_inurba_marseille","lat":43.32466,"lon":5.36581,"is_reserved":false,"is_disabled":false,"rental_uris":{"android":"levelo://app?vid=94dc763b-5c60-4e8c-a6fc-573bcaf8f7f0","ios":"levelo://app?vid=94dc763b-5c60-4e8c-a6fc-573bcaf8f7f0"},"vehicle_type_id":"4","last_reported":1758564877,"current_range_meters":12400,"station_id":"ce4bhs12rcd13ifvqhvg","pricing_plan_id":"cebpf4jnsgd1na2vs0mg"},{"bike_id":"51d92c87-aa59-4783-b818-f9c5a7eebd73","system_id":"levelo_inurba_marseille","lat":43.29537,"lon":5.3744,"is_reserved":false,"is_disabled":false,"rental_uris":{"android":"levelo://app?vid=51d92c87-aa59-4783-b818-f9c5a7eebd73","ios":"levelo://app?vid=51d92c87-aa59-4783-b818-f9c5a7eebd73"},"vehicle_type_id":"4","last_reported":1758564877,"current_range_meters":12400,"station_id":"","pricing_plan_id":"cebpf4jnsgd1na2vs0mg"},{"bike_id":"61770c49-cf1c-4cdb-8a76-b62d53617107","system_id":"levelo_inurba_marseille","lat":43.27427,"lon":5.39427,"is_reserved":false,"is_disabled":false,"rental_uris":{"android":"levelo://app?vid=61770c49-cf1c-4cdb-8a76-b62d53617107","ios":"levelo://app?vid=61770c49-cf1c-4cdb-8a76-b62d53617107"},"vehicle_type_id":"4","last_reported":1758564877,"current_range_meters":12400,"station_id":"ce4bhdp2rcd13ifvqf20","pricing_plan_id":"cebpf4jnsgd1na2vs0mg"},{"bike_id":"77eeb9b5-0e68-4a7b-b5d1-530ce6c04cd4","system_id":"levelo_inurba_marseille","lat":43.22933,"lon":5.35377,"is_reserved":false,"is_disabled":false,"rental_uris":{"android":"levelo://app?vid=77eeb9b5-0e68-4a7b-b5d1-530ce6c04cd4","ios":"levelo://app?vid=77eeb9b5-0e68-4a7b-b5d1-530ce6c04cd4"},"vehicle_type_id":"4","last_reported":1758564877,"current_range_meters":12400,"station_id":"cpo3532slgdg3j2ikp40","pricing_plan_id":"cebpf4jnsgd1na2vs0mg"},{"bike_id":"96e81373-8486-4ab3-8d78-bf453c71d3d7","system_id":"levelo_inurba_marseille","lat":43.308,"lon":5.381504,"is_reserved":false,"is_disabled":false,"rental_uris":{"android":"levelo://app?vid=96e81373-8486-4ab3-8d78-bf453c71d3d7","ios":"levelo://app?vid=96e81373-8486-4ab3-8d78-bf453c71d3d7"},"vehicle_type_id":"4","last_reported":1758564877,"current_range_meters":12000,"station_id":"ce4bgt12rcd13ifvqce0","pricing_plan_id":"cebpf4jnsgd1na2vs0mg"},{"bike_id":"a73132a1-c05c-4c58-8309-41d992e6bc75","system_id":"levelo_inurba_marseille","lat":43.279038,"lon":5.380203,"is_reserved":false,"is_disabled":false,"rental_uris":{"android":"levelo://app?vid=a73132a1-c05c-4c58-8309-41d992e6bc75","ios":"levelo://app?vid=a73132a1-c05c-4c58-8309-41d992e6bc75"},"vehicle_type_id":"4","last_reported":1758564877,"current_range_meters":12000,"station_id":"ce4bhf92rcd13ifvqf50","pricing_plan_id":"cebpf4jnsgd1na2vs0mg"},{"bike_id":"0b2230e3-adb9-421c-91b1-c113eb397705","system_id":"levelo_inurba_marseille","lat":43.28881,"lon":5.37653,"is_reserved":false,"is_disabled":false,"rental_uris":{"android":"levelo://app?vid=0b2230e3-adb9-421c-91b1-c113eb397705","ios":"levelo://app?vid=0b2230e3-adb9-421c-91b1-c113eb397705"},"vehicle_type_id":"4","last_reported":1758564877,"current_range_meters":12800,"station_id":"","pricing_plan_id":"cebpf4jnsgd1na2vs0mg"},{"bike_id":"5bf622f2-8889-4c8b-bc74-869bf3d0e0d6","system_id":"levelo_inurba_marseille","lat":43.26225,"lon":5.40453,"is_reserved":false,"is_disabled":false,"rental_uris":{"android":"levelo://app?vid=5bf622f2-8889-4c8b-bc74-869bf3d0e0d6","ios":"levelo://app?vid=5bf622f2-8889-4c8b-bc74-869bf3d0e0d6"},"vehicle_type_id":"4","last_reported":1758564877,"current_range_meters":12800,"station_id":"ce4bhmh2rcd13ifvqgmg","pricing_plan_id":"cebpf4jnsgd1na2vs0mg"},{"bike_id":"cbd1f911-52d2-43b4-9531-f9c11cb9918d","system_id":"levelo_inurba_marseille","lat":43.26501,"lon":5.39534,"is_reserved":false,"is_disabled":false,"rental_uris":{"android":"levelo://app?vid=cbd1f911-52d2-43b4-9531-f9c11cb9918d","ios":"levelo://app?vid=cbd1f911-52d2-43b4-9531-f9c11cb9918d"},"vehicle_type_id":"4","last_reported":1758564877,"current_range_meters":13600,"station_id":"ce4bhi12rcd13ifvqfq0","pricing_plan_id":"cebpf4jnsgd1na2vs0mg"},{"bike_id":"5b6b3b7d-c808-4e60-988f-97a17f8a001f","system_id":"levelo_inurba_marseille","lat":43.28426,"lon":5.3753,"is_reserved":false,"is_disabled":true,"rental_uris":{"android":"levelo://app?vid=5b6b3b7d-c808-4e60-988f-97a17f8a001f","ios":"levelo://app?vid=5b6b3b7d-c808-4e60-988f-97a17f8a001f"},"vehicle_type_id":"4","last_reported":1758564877,"current_range_meters":13600,"station_id":"ce4bh412rcd13ifvqds0","pricing_plan_id":"cebpf4jnsgd1na2vs0mg"},{"bike_id":"94d430e6-52b3-4d21-80c9-c6dd4519a8fb","system_id":"levelo_inurba_marseille","lat":43.3178,"lon":5.38289,"is_reserved":false,"is_disabled":false,"rental_uris":{"android":"levelo://app?vid=94d430e6-52b3-4d21-80c9-c6dd4519a8fb","ios":"levelo://app?vid=94d430e6-52b3-4d21-80c9-c6dd4519a8fb"},"vehicle_type_id":"4","last_reported":1758564877,"current_range_meters":13600,"station_id":"","pricing_plan_id":"cebpf4jnsgd1na2vs0mg"},{"bike_id":"b2be2404-53eb-4f74-9829-8104df3de106","system_id":"levelo_inurba_marseille","lat":43.33597,"lon":5.35444,"is_reserved":false,"is_disabled":false,"rental_uris":{"android":"levelo://app?vid=b2be2404-53eb-4f74-9829-8104df3de106","ios":"levelo://app?vid=b2be2404-53eb-4f74-9829-8104df3de106"},"vehicle_type_id":"4","last_reported":1758564877,"current_range_meters":13600,"station_id":"","pricing_plan_id":"cebpf4jnsgd1na2vs0mg"},{"bike_id":"9a66b3a9-915e-4cc8-83c4-5335bc6f74dd","system_id":"levelo_inurba_marseille","lat":43.27839,"lon":5.3922,"is_reserved":false,"is_disabled":false,"rental_uris":{"android":"levelo://app?vid=9a66b3a9-915e-4cc8-83c4-5335bc6f74dd","ios":"levelo://app?vid=9a66b3a9-915e-4cc8-83c4-5335bc6f74dd"},"vehicle_type_id":"4","last_reported":1758564877,"current_range_meters":13600,"station_id":"ce4bhjp2rcd13ifvqga0","pricing_plan_id":"cebpf4jnsgd1na2vs0mg"},{"bike_id":"067b524d-f692-43ce-ab26-00afc38a5baa","system_id":"levelo_inurba_marseille","lat":43.30597,"lon":5.39352,"is_reserved":false,"is_disabled":false,"rental_uris":{"android":"levelo://app?vid=067b524d-f692-43ce-ab26-00afc38a5baa","ios":"levelo://app?vid=067b524d-f692-43ce-ab26-00afc38a5baa"},"vehicle_type_id":"4","last_reported":1758564877,"current_range_meters":13600,"station_id":"ce4bh0p2rcd13ifvqd80","pricing_plan_id":"cebpf4jnsgd1na2vs0mg"},{"bike_id":"b81d93b5-761a-4ed4-b65f-d96266f11340","system_id":"levelo_inurba_marseille","lat":43.26802,"lon":5.40274,"is_reserved":false,"is_disabled":false,"rental_uris":{"android":"levelo://app?vid=b81d93b5-761a-4ed4-b65f-d96266f11340","ios":"levelo://app?vid=b81d93b5-761a-4ed4-b65f-d96266f11340"},"vehicle_type_id":"4","last_reported":1758564877,"current_range_meters":13600,"station_id":"ce501612rcd8frsf0b60","pricing_plan_id":"cebpf4jnsgd1na2vs0mg"},{"bike_id":"d1d1aac8-f5c0-4ced-a6fe-c9bd87f16172","system_id":"levelo_inurba_marseille","lat":43.27064,"lon":5.4026,"is_reserved":false,"is_disabled":false,"rental_uris":{"android":"levelo://app?vid=d1d1aac8-f5c0-4ced-a6fe-c9bd87f16172","ios":"levelo://app?vid=d1d1aac8-f5c0-4ced-a6fe-c9bd87f16172"},"vehicle_type_id":"4","last_reported":1758564877,"current_range_meters":14000,"station_id":"ce4bhk92rcd13ifvqgc0","pricing_plan_id":"cebpf4jnsgd1na2vs0mg"},{"bike_id":"8b7a9ebc-8383-4311-9c40-d96d0f5ec46a","system_id":"levelo_inurba_marseille","lat":43.29906,"lon":5.40385,"is_reserved":false,"is_disabled":false,"rental_uris":{"android":"levelo://app?vid=8b7a9ebc-8383-4311-9c40-d96d0f5ec46a","ios":"levelo://app?vid=8b7a9ebc-8383-4311-9c40-d96d0f5ec46a"},"vehicle_type_id":"4","last_reported":1758564877,"current_range_meters":14000,"station_id":"","pricing_plan_id":"cebpf4jnsgd1na2vs0mg"},{"bike_id":"8805ab6e-6f37-4330-b53d-36ca2a84c6b9","system_id":"levelo_inurba_marseille","lat":43.28126,"lon":5.37827,"is_reserved":false,"is_disabled":false,"rental_uris":{"android":"levelo://app?vid=8805ab6e-6f37-4330-b53d-36ca2a84c6b9","ios":"levelo://app?vid=8805ab6e-6f37-4330-b53d-36ca2a84c6b9"},"vehicle_type_id":"4","last_reported":1758564877,"current_range_meters":14000,"station_id":"ce4bha12rcd13ifvqee0","pricing_plan_id":"cebpf4jnsgd1na2vs0mg"},{"bike_id":"27b0760d-df19-4858-82ad-d0c4a025109b","system_id":"levelo_inurba_marseille","lat":43.29533,"lon":5.38536,"is_reserved":false,"is_disabled":false,"rental_uris":{"android":"levelo://app?vid=27b0760d-df19-4858-82ad-d0c4a025109b","ios":"levelo://app?vid=27b0760d-df19-4858-82ad-d0c4a025109b"},"vehicle_type_id":"4","last_reported":1758564877,"current_range_meters":14000,"station_id":"ce4bgih2rcd13ifvqba0","pricing_plan_id":"cebpf4jnsgd1na2vs0mg"},{"bike_id":"e2874cef-10ba-46d3-829f-6fefa2772506","system_id":"levelo_inurba_marseille","lat":43.25883,"lon":5.39914,"is_reserved":false,"is_disabled":false,"rental_uris":{"android":"levelo://app?vid=e2874cef-10ba-46d3-829f-6fefa2772506","ios":"levelo://app?vid=e2874cef-10ba-46d3-829f-6fefa2772506"},"vehicle_type_id":"4","last_reported":1758564877,"current_range_meters":13600,"station_id":"ce4bhl92rcd13ifvqghg","pricing_plan_id":"cebpf4jnsgd1na2vs0mg"},{"bike_id":"6a077151-2089-47d0-bcd1-faf1c42cc7b3","system_id":"levelo_inurba_marseille","lat":43.28859,"lon":5.42527,"is_reserved":false,"is_disabled":false,"rental_uris":{"android":"levelo://app?vid=6a077151-2089-47d0-bcd1-faf1c42cc7b3","ios":"levelo://app?vid=6a077151-2089-47d0-bcd1-faf1c42cc7b3"},"vehicle_type_id":"4","last_reported":1758564877,"current_range_meters":14400,"station_id":"","pricing_plan_id":"cebpf4jnsgd1na2vs0mg"},{"bike_id":"a8173706-8534-43a1-9d9b-728c64fdfe61","system_id":"levelo_inurba_marseille","lat":43.272032,"lon":5.39191,"is_reserved":false,"is_disabled":true,"rental_uris":{"android":"levelo://app?vid=a8173706-8534-43a1-9d9b-728c64fdfe61","ios":"levelo://app?vid=a8173706-8534-43a1-9d9b-728c64fdfe61"},"vehicle_type_id":"4","last_reported":1758564877,"current_range_meters":14400,"station_id":"ce4bhhp2rcd13ifvqfm0","pricing_plan_id":"cebpf4jnsgd1na2vs0mg"},{"bike_id":"759b67c6-6a9a-4d56-aa62-ccec2fb516ae","system_id":"levelo_inurba_marseille","lat":43.299379,"lon":5.365623,"is_reserved":false,"is_disabled":false,"rental_uris":{"android":"levelo://app?vid=759b67c6-6a9a-4d56-aa62-ccec2fb516ae","ios":"levelo://app?vid=759b67c6-6a9a-4d56-aa62-ccec2fb516ae"},"vehicle_type_id":"4","last_reported":1758564877,"current_range_meters":14400,"station_id":"ce4bgm92rcd13ifvqbr0","pricing_plan_id":"cebpf4jnsgd1na2vs0mg"},{"bike_id":"e4482bd4-178c-4704-bd4f-831af977e1f8","system_id":"levelo_inurba_marseille","lat":43.2953,"lon":5.38551,"is_reserved":false,"is_disabled":false,"rental_uris":{"android":"levelo://app?vid=e4482bd4-178c-4704-bd4f-831af977e1f8","ios":"levelo://app?vid=e4482bd4-178c-4704-bd4f-831af977e1f8"},"vehicle_type_id":"4","last_reported":1758564877,"current_range_meters":14400,"station_id":"ce4bgih2rcd13ifvqba0","pricing_plan_id":"cebpf4jnsgd1na2vs0mg"},{"bike_id":"17806a5a-9daf-41e7-8f00-0ac790b9b626","system_id":"levelo_inurba_marseille","lat":43.29259,"lon":5.38432,"is_reserved":false,"is_disabled":false,"rental_uris":{"android":"levelo://app?vid=17806a5a-9daf-41e7-8f00-0ac790b9b626","ios":"levelo://app?vid=17806a5a-9daf-41e7-8f00-0ac790b9b626"},"vehicle_type_id":"4","last_reported":1758564877,"current_range_meters":14400,"station_id":"ce4bh692rcd13ifvqea0","pricing_plan_id":"cebpf4jnsgd1na2vs0mg"},{"bike_id":"ef75d15d-c28a-4fe7-853a-ed887e41d629","system_id":"levelo_inurba_marseille","lat":43.21749,"lon":5.34591,"is_reserved":false,"is_disabled":false,"rental_uris":{"android":"levelo://app?vid=ef75d15d-c28a-4fe7-853a-ed887e41d629","ios":"levelo://app?vid=ef75d15d-c28a-4fe7-853a-ed887e41d629"},"vehicle_type_id":"4","last_reported":1758564877,"current_range_meters":14400,"station_id":"st_cvj6r9ubvosntc0bgbag","pricing_plan_id":"cebpf4jnsgd1na2vs0mg"},{"bike_id":"37498fe1-4d5e-42f1-b1cc-f316f5b83da8","system_id":"levelo_inurba_marseille","lat":43.29302,"lon":5.37185,"is_reserved":false,"is_disabled":false,"rental_uris":{"android":"levelo://app?vid=37498fe1-4d5e-42f1-b1cc-f316f5b83da8","ios":"levelo://app?vid=37498fe1-4d5e-42f1-b1cc-f316f5b83da8"},"vehicle_type_id":"4","last_reported":1758564877,"current_range_meters":14400,"station_id":"ce4bgh92rcd13ifvqb40","pricing_plan_id":"cebpf4jnsgd1na2vs0mg"},{"bike_id":"1e7713c3-a289-4939-bb0d-a23928d2ad1c","system_id":"levelo_inurba_marseille","lat":43.27316,"lon":5.3908,"is_reserved":false,"is_disabled":false,"rental_uris":{"android":"levelo://app?vid=1e7713c3-a289-4939-bb0d-a23928d2ad1c","ios":"levelo://app?vid=1e7713c3-a289-4939-bb0d-a23928d2ad1c"},"vehicle_type_id":"4","last_reported":1758564877,"current_range_meters":14400,"station_id":"ce4bhgp2rcd13ifvqfe0","pricing_plan_id":"cebpf4jnsgd1na2vs0mg"},{"bike_id":"37306240-1f8b-4d9d-950f-5144697742a5","system_id":"levelo_inurba_marseille","lat":43.28723,"lon":5.39992,"is_reserved":false,"is_disabled":true,"rental_uris":{"android":"levelo://app?vid=37306240-1f8b-4d9d-950f-5144697742a5","ios":"levelo://app?vid=37306240-1f8b-4d9d-950f-5144697742a5"},"vehicle_type_id":"4","last_reported":1758564877,"current_range_meters":14400,"station_id":"ce4bho92rcd13ifvqh3g","pricing_plan_id":"cebpf4jnsgd1na2vs0mg"},{"bike_id":"3d210c87-141c-444b-a484-58bba1f93959","system_id":"levelo_inurba_marseille","lat":43.267865,"lon":5.394111,"is_reserved":false,"is_disabled":false,"rental_uris":{"android":"levelo://app?vid=3d210c87-141c-444b-a484-58bba1f93959","ios":"levelo://app?vid=3d210c87-141c-444b-a484-58bba1f93959"},"vehicle_type_id":"4","last_reported":1758564877,"current_range_meters":14400,"station_id":"ce4bhh12rcd13ifvqfg0","pricing_plan_id":"cebpf4jnsgd1na2vs0mg"},{"bike_id":"b0b343ee-2bff-4d90-9e24-dd29765c4824","system_id":"levelo_inurba_marseille","lat":43.26803,"lon":5.40273,"is_reserved":false,"is_disabled":false,"rental_uris":{"android":"levelo://app?vid=b0b343ee-2bff-4d90-9e24-dd29765c4824","ios":"levelo://app?vid=b0b343ee-2bff-4d90-9e24-dd29765c4824"},"vehicle_type_id":"4","last_reported":1758564877,"current_range_meters":14000,"station_id":"ce501612rcd8frsf0b60","pricing_plan_id":"cebpf4jnsgd1na2vs0mg"},{"bike_id":"425e6950-6999-4e61-a859-3f10279b202e","system_id":"levelo_inurba_marseille","lat":43.29252,"lon":5.38436,"is_reserved":false,"is_disabled":false,"rental_uris":{"android":"levelo://app?vid=425e6950-6999-4e61-a859-3f10279b202e","ios":"levelo://app?vid=425e6950-6999-4e61-a859-3f10279b202e"},"vehicle_type_id":"4","last_reported":1758564877,"current_range_meters":14800,"station_id":"ce4bh692rcd13ifvqea0","pricing_plan_id":"cebpf4jnsgd1na2vs0mg"},{"bike_id":"cabc4015-1ca1-4400-84b6-412061ece1ff","system_id":"levelo_inurba_marseille","lat":43.28105,"lon":5.37847,"is_reserved":false,"is_disabled":false,"rental_uris":{"android":"levelo://app?vid=cabc4015-1ca1-4400-84b6-412061ece1ff","ios":"levelo://app?vid=cabc4015-1ca1-4400-84b6-412061ece1ff"},"vehicle_type_id":"4","last_reported":1758564877,"current_range_meters":14000,"station_id":"ce4bha12rcd13ifvqee0","pricing_plan_id":"cebpf4jnsgd1na2vs0mg"},{"bike_id":"503a8f18-fa3d-43b2-af46-fcf76149ac95","system_id":"levelo_inurba_marseille","lat":43.27499,"lon":5.3952,"is_reserved":false,"is_disabled":false,"rental_uris":{"android":"levelo://app?vid=503a8f18-fa3d-43b2-af46-fcf76149ac95","ios":"levelo://app?vid=503a8f18-fa3d-43b2-af46-fcf76149ac95"},"vehicle_type_id":"4","last_reported":1758564877,"current_range_meters":14400,"station_id":"","pricing_plan_id":"cebpf4jnsgd1na2vs0mg"},{"bike_id":"eb14e0c2-3194-45ec-8471-2fc50af87dad","system_id":"levelo_inurba_marseille","lat":43.22915,"lon":5.35416,"is_reserved":false,"is_disabled":false,"rental_uris":{"android":"levelo://app?vid=eb14e0c2-3194-45ec-8471-2fc50af87dad","ios":"levelo://app?vid=eb14e0c2-3194-45ec-8471-2fc50af87dad"},"vehicle_type_id":"4","last_reported":1758564877,"current_range_meters":14800,"station_id":"cpo3532slgdg3j2ikp40","pricing_plan_id":"cebpf4jnsgd1na2vs0mg"},{"bike_id":"6e8f08a8-a28b-4118-a426-8a5c1c8571b3","system_id":"levelo_inurba_marseille","lat":43.2733,"lon":5.39061,"is_reserved":false,"is_disabled":false,"rental_uris":{"android":"levelo://app?vid=6e8f08a8-a28b-4118-a426-8a5c1c8571b3","ios":"levelo://app?vid=6e8f08a8-a28b-4118-a426-8a5c1c8571b3"},"vehicle_type_id":"4","last_reported":1758564877,"current_range_meters":14800,"station_id":"ce4bhgp2rcd13ifvqfe0","pricing_plan_id":"cebpf4jnsgd1na2vs0mg"},{"bike_id":"34072093-f9b6-4017-998e-95b181d82c91","system_id":"levelo_inurba_marseille","lat":43.294415,"lon":5.388157,"is_reserved":false,"is_disabled":false,"rental_uris":{"android":"levelo://app?vid=34072093-f9b6-4017-998e-95b181d82c91","ios":"levelo://app?vid=34072093-f9b6-4017-998e-95b181d82c91"},"vehicle_type_id":"4","last_reported":1758564877,"current_range_meters":14800,"station_id":"","pricing_plan_id":"cebpf4jnsgd1na2vs0mg"},{"bike_id":"47fe8ecd-0327-4d83-b8c0-ab7264c95b0b","system_id":"levelo_inurba_marseille","lat":43.24546,"lon":5.39529,"is_reserved":false,"is_disabled":false,"rental_uris":{"android":"levelo://app?vid=47fe8ecd-0327-4d83-b8c0-ab7264c95b0b","ios":"levelo://app?vid=47fe8ecd-0327-4d83-b8c0-ab7264c95b0b"},"vehicle_type_id":"4","last_reported":1758564877,"current_range_meters":14800,"station_id":"ce4bhlp2rcd13ifvqgjg","pricing_plan_id":"cebpf4jnsgd1na2vs0mg"},{"bike_id":"764693a5-6d4e-4a13-9e52-8a9b4aad29b5","system_id":"levelo_inurba_marseille","lat":43.30421,"lon":5.41291,"is_reserved":false,"is_disabled":false,"rental_uris":{"android":"levelo://app?vid=764693a5-6d4e-4a13-9e52-8a9b4aad29b5","ios":"levelo://app?vid=764693a5-6d4e-4a13-9e52-8a9b4aad29b5"},"vehicle_type_id":"4","last_reported":1758564877,"current_range_meters":14800,"station_id":"ce4bhop2rcd13ifvqh8g","pricing_plan_id":"cebpf4jnsgd1na2vs0mg"},{"bike_id":"9402584b-99d6-4b06-864a-41679125a55a","system_id":"levelo_inurba_marseille","lat":43.30089,"lon":5.39085,"is_reserved":false,"is_disabled":false,"rental_uris":{"android":"levelo://app?vid=9402584b-99d6-4b06-864a-41679125a55a","ios":"levelo://app?vid=9402584b-99d6-4b06-864a-41679125a55a"},"vehicle_type_id":"4","last_reported":1758564877,"current_range_meters":15200,"station_id":"ce4bh192rcd13ifvqdb0","pricing_plan_id":"cebpf4jnsgd1na2vs0mg"},{"bike_id":"bf192daa-8b79-4d72-975e-d60e9d8c0b79","system_id":"levelo_inurba_marseille","lat":43.24948,"lon":5.40492,"is_reserved":false,"is_disabled":false,"rental_uris":{"android":"levelo://app?vid=bf192daa-8b79-4d72-975e-d60e9d8c0b79","ios":"levelo://app?vid=bf192daa-8b79-4d72-975e-d60e9d8c0b79"},"vehicle_type_id":"4","last_reported":1758564877,"current_range_meters":16000,"station_id":"st_d2ngiaodas8pm72gd1h0","pricing_plan_id":"cebpf4jnsgd1na2vs0mg"},{"bike_id":"ec6d83fe-b736-418d-9613-b1d895cb4fd8","system_id":"levelo_inurba_marseille","lat":43.24997,"lon":5.38938,"is_reserved":false,"is_disabled":false,"rental_uris":{"android":"levelo://app?vid=ec6d83fe-b736-418d-9613-b1d895cb4fd8","ios":"levelo://app?vid=ec6d83fe-b736-418d-9613-b1d895cb4fd8"},"vehicle_type_id":"4","last_reported":1758564877,"current_range_meters":15200,"station_id":"ce4bhgp2rcd13ifvqfd0","pricing_plan_id":"cebpf4jnsgd1na2vs0mg"},{"bike_id":"c2650db6-c2a1-4d00-b8e5-9a631b9f9b27","system_id":"levelo_inurba_marseille","lat":43.27207,"lon":5.3919,"is_reserved":false,"is_disabled":false,"rental_uris":{"android":"levelo://app?vid=c2650db6-c2a1-4d00-b8e5-9a631b9f9b27","ios":"levelo://app?vid=c2650db6-c2a1-4d00-b8e5-9a631b9f9b27"},"vehicle_type_id":"4","last_reported":1758564877,"current_range_meters":14800,"station_id":"ce4bhhp2rcd13ifvqfm0","pricing_plan_id":"cebpf4jnsgd1na2vs0mg"},{"bike_id":"eba01587-aeed-4123-b2ce-9abc98879f91","system_id":"levelo_inurba_marseille","lat":43.2705,"lon":5.42266,"is_reserved":false,"is_disabled":true,"rental_uris":{"android":"levelo://app?vid=eba01587-aeed-4123-b2ce-9abc98879f91","ios":"levelo://app?vid=eba01587-aeed-4123-b2ce-9abc98879f91"},"vehicle_type_id":"4","last_reported":1758564877,"current_range_meters":16000,"station_id":"ce4bhk92rcd13ifvqgb0","pricing_plan_id":"cebpf4jnsgd1na2vs0mg"},{"bike_id":"b39d4814-e9e4-4c28-8c50-525791cc33f5","system_id":"levelo_inurba_marseille","lat":43.29966,"lon":5.38508,"is_reserved":false,"is_disabled":true,"rental_uris":{"android":"levelo://app?vid=b39d4814-e9e4-4c28-8c50-525791cc33f5","ios":"levelo://app?vid=b39d4814-e9e4-4c28-8c50-525791cc33f5"},"vehicle_type_id":"4","last_reported":1758564877,"current_range_meters":16000,"station_id":"ce4bgj92rcd13ifvqbd0","pricing_plan_id":"cebpf4jnsgd1na2vs0mg"},{"bike_id":"7906cf4d-ce15-47f6-92bf-805aa7c70e9f","system_id":"levelo_inurba_marseille","lat":43.29529,"lon":5.38543,"is_reserved":false,"is_disabled":false,"rental_uris":{"android":"levelo://app?vid=7906cf4d-ce15-47f6-92bf-805aa7c70e9f","ios":"levelo://app?vid=7906cf4d-ce15-47f6-92bf-805aa7c70e9f"},"vehicle_type_id":"4","last_reported":1758564877,"current_range_meters":16000,"station_id":"ce4bgih2rcd13ifvqba0","pricing_plan_id":"cebpf4jnsgd1na2vs0mg"},{"bike_id":"4616c6f4-78d9-401a-9bd0-ff87942ee32e","system_id":"levelo_inurba_marseille","lat":43.28112,"lon":5.37817,"is_reserved":false,"is_disabled":false,"rental_uris":{"android":"levelo://app?vid=4616c6f4-78d9-401a-9bd0-ff87942ee32e","ios":"levelo://app?vid=4616c6f4-78d9-401a-9bd0-ff87942ee32e"},"vehicle_type_id":"4","last_reported":1758564877,"current_range_meters":16000,"station_id":"ce4bha12rcd13ifvqee0","pricing_plan_id":"cebpf4jnsgd1na2vs0mg"},{"bike_id":"31936879-d317-4bea-9fe8-ec8f47bfe52d","system_id":"levelo_inurba_marseille","lat":43.273093,"lon":5.391013,"is_reserved":false,"is_disabled":false,"rental_uris":{"android":"levelo://app?vid=31936879-d317-4bea-9fe8-ec8f47bfe52d","ios":"levelo://app?vid=31936879-d317-4bea-9fe8-ec8f47bfe52d"},"vehicle_type_id":"4","last_reported":1758564877,"current_range_meters":16000,"station_id":"ce4bhgp2rcd13ifvqfe0","pricing_plan_id":"cebpf4jnsgd1na2vs0mg"},{"bike_id":"cc526d1e-9528-448c-9207-c62f36d8af4b","system_id":"levelo_inurba_marseille","lat":43.27216,"lon":5.39156,"is_reserved":false,"is_disabled":false,"rental_uris":{"android":"levelo://app?vid=cc526d1e-9528-448c-9207-c62f36d8af4b","ios":"levelo://app?vid=cc526d1e-9528-448c-9207-c62f36d8af4b"},"vehicle_type_id":"4","last_reported":1758564877,"current_range_meters":16000,"station_id":"ce4bhhp2rcd13ifvqfm0","pricing_plan_id":"cebpf4jnsgd1na2vs0mg"},{"bike_id":"4519ded0-f3b9-42bd-af35-e69456d100e8","system_id":"levelo_inurba_marseille","lat":43.29276,"lon":5.38368,"is_reserved":false,"is_disabled":false,"rental_uris":{"android":"levelo://app?vid=4519ded0-f3b9-42bd-af35-e69456d100e8","ios":"levelo://app?vid=4519ded0-f3b9-42bd-af35-e69456d100e8"},"vehicle_type_id":"4","last_reported":1758564877,"current_range_meters":16000,"station_id":"ce4bh692rcd13ifvqea0","pricing_plan_id":"cebpf4jnsgd1na2vs0mg"},{"bike_id":"f50d7c6a-e56e-4c72-8213-55416270b502","system_id":"levelo_inurba_marseille","lat":43.27204,"lon":5.39168,"is_reserved":false,"is_disabled":false,"rental_uris":{"android":"levelo://app?vid=f50d7c6a-e56e-4c72-8213-55416270b502","ios":"levelo://app?vid=f50d7c6a-e56e-4c72-8213-55416270b502"},"vehicle_type_id":"4","last_reported":1758564877,"current_range_meters":16400,"station_id":"ce4bhhp2rcd13ifvqfm0","pricing_plan_id":"cebpf4jnsgd1na2vs0mg"},{"bike_id":"bf878ec6-d729-4443-a3b4-9fa5cc136616","system_id":"levelo_inurba_marseille","lat":43.27625,"lon":5.42641,"is_reserved":false,"is_disabled":false,"rental_uris":{"android":"levelo://app?vid=bf878ec6-d729-4443-a3b4-9fa5cc136616","ios":"levelo://app?vid=bf878ec6-d729-4443-a3b4-9fa5cc136616"},"vehicle_type_id":"4","last_reported":1758564877,"current_range_meters":16400,"station_id":"","pricing_plan_id":"cebpf4jnsgd1na2vs0mg"},{"bike_id":"312e67d9-c514-48cb-954c-36954929fd3b","system_id":"levelo_inurba_marseille","lat":43.30982,"lon":5.39037,"is_reserved":false,"is_disabled":false,"rental_uris":{"android":"levelo://app?vid=312e67d9-c514-48cb-954c-36954929fd3b","ios":"levelo://app?vid=312e67d9-c514-48cb-954c-36954929fd3b"},"vehicle_type_id":"4","last_reported":1758564877,"current_range_meters":16400,"station_id":"ce4bgup2rcd13ifvqco0","pricing_plan_id":"cebpf4jnsgd1na2vs0mg"},{"bike_id":"e882e5ce-4cca-4119-b861-0a281c65ef25","system_id":"levelo_inurba_marseille","lat":43.25088,"lon":5.39523,"is_reserved":false,"is_disabled":false,"rental_uris":{"android":"levelo://app?vid=e882e5ce-4cca-4119-b861-0a281c65ef25","ios":"levelo://app?vid=e882e5ce-4cca-4119-b861-0a281c65ef25"},"vehicle_type_id":"4","last_reported":1758564877,"current_range_meters":16000,"station_id":"ce4bhm12rcd13ifvqgkg","pricing_plan_id":"cebpf4jnsgd1na2vs0mg"},{"bike_id":"8cac3fdd-5ea7-4c4c-ae1f-15a49ee56f1c","system_id":"levelo_inurba_marseille","lat":43.26795,"lon":5.40274,"is_reserved":false,"is_disabled":false,"rental_uris":{"android":"levelo://app?vid=8cac3fdd-5ea7-4c4c-ae1f-15a49ee56f1c","ios":"levelo://app?vid=8cac3fdd-5ea7-4c4c-ae1f-15a49ee56f1c"},"vehicle_type_id":"4","last_reported":1758564877,"current_range_meters":16400,"station_id":"ce501612rcd8frsf0b60","pricing_plan_id":"cebpf4jnsgd1na2vs0mg"},{"bike_id":"5922c286-282e-4b40-b2c0-d57aae387a5e","system_id":"levelo_inurba_marseille","lat":43.29305,"lon":5.37174,"is_reserved":false,"is_disabled":false,"rental_uris":{"android":"levelo://app?vid=5922c286-282e-4b40-b2c0-d57aae387a5e","ios":"levelo://app?vid=5922c286-282e-4b40-b2c0-d57aae387a5e"},"vehicle_type_id":"4","last_reported":1758564877,"current_range_meters":16400,"station_id":"ce4bgh92rcd13ifvqb40","pricing_plan_id":"cebpf4jnsgd1na2vs0mg"},{"bike_id":"e519d887-a19a-423d-b8a7-432adc3b605a","system_id":"levelo_inurba_marseille","lat":43.28223,"lon":5.39039,"is_reserved":false,"is_disabled":false,"rental_uris":{"android":"levelo://app?vid=e519d887-a19a-423d-b8a7-432adc3b605a","ios":"levelo://app?vid=e519d887-a19a-423d-b8a7-432adc3b605a"},"vehicle_type_id":"4","last_reported":1758564877,"current_range_meters":16400,"station_id":"ce4bhn92rcd13ifvqgsg","pricing_plan_id":"cebpf4jnsgd1na2vs0mg"},{"bike_id":"e1c2b832-d2f3-465e-8590-d54c1cc2455a","system_id":"levelo_inurba_marseille","lat":43.26569,"lon":5.40327,"is_reserved":false,"is_disabled":false,"rental_uris":{"android":"levelo://app?vid=e1c2b832-d2f3-465e-8590-d54c1cc2455a","ios":"levelo://app?vid=e1c2b832-d2f3-465e-8590-d54c1cc2455a"},"vehicle_type_id":"4","last_reported":1758564877,"current_range_meters":16400,"station_id":"ce4bhmp2rcd13ifvqgng","pricing_plan_id":"cebpf4jnsgd1na2vs0mg"},{"bike_id":"0b3d5a85-8297-4194-a25b-5a1a25801181","system_id":"levelo_inurba_marseille","lat":43.26809,"lon":5.39504,"is_reserved":false,"is_disabled":false,"rental_uris":{"android":"levelo://app?vid=0b3d5a85-8297-4194-a25b-5a1a25801181","ios":"levelo://app?vid=0b3d5a85-8297-4194-a25b-5a1a25801181"},"vehicle_type_id":"4","last_reported":1758564877,"current_range_meters":16400,"station_id":"","pricing_plan_id":"cebpf4jnsgd1na2vs0mg"},{"bike_id":"5337dcdc-c6f5-44ae-a466-a1ebe14dfbb3","system_id":"levelo_inurba_marseille","lat":43.24154,"lon":5.36422,"is_reserved":false,"is_disabled":false,"rental_uris":{"android":"levelo://app?vid=5337dcdc-c6f5-44ae-a466-a1ebe14dfbb3","ios":"levelo://app?vid=5337dcdc-c6f5-44ae-a466-a1ebe14dfbb3"},"vehicle_type_id":"4","last_reported":1758564877,"current_range_meters":16400,"station_id":"cpo36qri1sfpv3e86is0","pricing_plan_id":"cebpf4jnsgd1na2vs0mg"},{"bike_id":"56829755-2fd9-4f79-8634-8b3689b344a9","system_id":"levelo_inurba_marseille","lat":43.29306,"lon":5.37157,"is_reserved":false,"is_disabled":false,"rental_uris":{"android":"levelo://app?vid=56829755-2fd9-4f79-8634-8b3689b344a9","ios":"levelo://app?vid=56829755-2fd9-4f79-8634-8b3689b344a9"},"vehicle_type_id":"4","last_reported":1758564877,"current_range_meters":16400,"station_id":"ce4bgh92rcd13ifvqb40","pricing_plan_id":"cebpf4jnsgd1na2vs0mg"},{"bike_id":"ffe4e4a3-3cf3-4394-b73e-9b6ea96ff38d","system_id":"levelo_inurba_marseille","lat":43.2406,"lon":5.37775,"is_reserved":false,"is_disabled":false,"rental_uris":{"android":"levelo://app?vid=ffe4e4a3-3cf3-4394-b73e-9b6ea96ff38d","ios":"levelo://app?vid=ffe4e4a3-3cf3-4394-b73e-9b6ea96ff38d"},"vehicle_type_id":"4","last_reported":1758564877,"current_range_meters":16400,"station_id":"ce4bhnp2rcd13ifvqgvg","pricing_plan_id":"cebpf4jnsgd1na2vs0mg"},{"bike_id":"1dc0664d-bbc9-48d4-b7a9-aa5bd6be4dfc","system_id":"levelo_inurba_marseille","lat":43.24176,"lon":5.39732,"is_reserved":false,"is_disabled":false,"rental_uris":{"android":"levelo://app?vid=1dc0664d-bbc9-48d4-b7a9-aa5bd6be4dfc","ios":"levelo://app?vid=1dc0664d-bbc9-48d4-b7a9-aa5bd6be4dfc"},"vehicle_type_id":"4","last_reported":1758564877,"current_range_meters":16400,"station_id":"ce4bhn12rcd13ifvqgpg","pricing_plan_id":"cebpf4jnsgd1na2vs0mg"},{"bike_id":"37921a0e-44b0-4945-84df-e25486d4695c","system_id":"levelo_inurba_marseille","lat":43.284184,"lon":5.374931,"is_reserved":false,"is_disabled":false,"rental_uris":{"android":"levelo://app?vid=37921a0e-44b0-4945-84df-e25486d4695c","ios":"levelo://app?vid=37921a0e-44b0-4945-84df-e25486d4695c"},"vehicle_type_id":"4","last_reported":1758564877,"current_range_meters":16800,"station_id":"ce4bh412rcd13ifvqds0","pricing_plan_id":"cebpf4jnsgd1na2vs0mg"},{"bike_id":"2fe447d4-ef2c-44a7-8a4f-84fef8b9c6d2","system_id":"levelo_inurba_marseille","lat":43.2721,"lon":5.39198,"is_reserved":false,"is_disabled":false,"rental_uris":{"android":"levelo://app?vid=2fe447d4-ef2c-44a7-8a4f-84fef8b9c6d2","ios":"levelo://app?vid=2fe447d4-ef2c-44a7-8a4f-84fef8b9c6d2"},"vehicle_type_id":"4","last_reported":1758564877,"current_range_meters":16800,"station_id":"ce4bhhp2rcd13ifvqfm0","pricing_plan_id":"cebpf4jnsgd1na2vs0mg"},{"bike_id":"b6beb9be-ef3a-4c76-9ce3-7c5c485be413","system_id":"levelo_inurba_marseille","lat":43.30317,"lon":5.40441,"is_reserved":false,"is_disabled":false,"rental_uris":{"android":"levelo://app?vid=b6beb9be-ef3a-4c76-9ce3-7c5c485be413","ios":"levelo://app?vid=b6beb9be-ef3a-4c76-9ce3-7c5c485be413"},"vehicle_type_id":"4","last_reported":1758564877,"current_range_meters":16400,"station_id":"ce4bh012rcd13ifvqd10","pricing_plan_id":"cebpf4jnsgd1na2vs0mg"},