{"last_updated":1726838183,"ttl":30,"version":"2.2","data":{"bikes":[{"bike_id":"b7a1d266-c238-4ef0-838c-95202d8b05f2","system_id":"levelo_inurba_marseille","lat":43.31693,"lon":5.40468,"is_reserved":false,"is_disabled":false,"rental_uris":{"android":"levelo://app?vid=b7a1d266-c238-4ef0-838c-95202d8b05f2","ios":"levelo://app?vid=b7a1d266-c238-4ef0-838c-95202d8b05f2"},"vehicle_type_id":"4","last_reported":1726838184,"current_range_meters":38800,"station_id":"ce4bh012rcd13ifvqd00","pricing_plan_id":"cebpf4jnsgd1na2vs0mg"},{"bike_id":"9e2ecec6-b69c-4e0a-80db-9b77f7f6e3d7","system_id":"levelo_inurba_marseille","lat":43.27319,"lon":5.39077,"is_reserved":false,"is_disabled":false,"rental_uris":{"android":"levelo://app?vid=9e2ecec6-b69c-4e0a-80db-9b77f7f6e3d7","ios":"levelo://app?vid=9e2ecec6-b69c-4e0a-80db-9b77f7f6e3d7"},"vehicle_type_id":"4","last_reported":1726838184,"current_range_meters":16400,"station_id":"ce4bhgp2rcd13ifvqfe0","pricing_plan_id":"cebpf4jnsgd1na2vs0mg"},{"bike_id":"bc642489-200e-4bd7-a2b4-4cf6fa61926a","system_id":"levelo_inurba_marseille","lat":43.257246,"lon":5.411104,"is_reserved":false,"is_disabled":false,"rental_uris":{"android":"levelo://app?vid=bc642489-200e-4bd7-a2b4-4cf6fa61926a","ios":"levelo://app?vid=bc642489-200e-4bd7-a2b4-4cf6fa61926a"},"vehicle_type_id":"4","last_reported":1726838184,"current_range_meters":12000,"station_id":"ce4bhkp2rcd13ifvqgd0","pricing_plan_id":"cebpf4jnsgd1na2vs0mg"},{"bike_id":"acf436bf-de2b-4870-b9b8-d7ce24a33dda","system_id":"levelo_inurba_marseille","lat":43.231553,"lon":5.437179,"is_reserved":false,"is_disabled":false,"rental_uris":{"android":"levelo://app?vid=acf436bf-de2b-4870-b9b8-d7ce24a33dda","ios":"levelo://app?vid=acf436bf-de2b-4870-b9b8-d7ce24a33dda"},"vehicle_type_id":"4","last_reported":1726838184,"current_range_meters":15200,"station_id":"ce4bhmp2rcd13ifvqgog","pricing_plan_id":"cebpf4jnsgd1na2vs0mg"},{"bike_id":"cc69b976-e26e-42cb-a25b-a71708e51f10","system_id":"levelo_inurba_marseille","lat":43.26952,"lon":5.38626,"is_reserved":false,"is_disabled":false,"rental_uris":{"android":"levelo://app?vid=cc69b976-e26e-42cb-a25b-a71708e51f10","ios":"levelo://app?vid=cc69b976-e26e-42cb-a25b-a71708e51f10"},"vehicle_type_id":"4","last_reported":1726838184,"current_range_meters":6400,"station_id":"ce4bhh92rcd13ifvqfh0","pricing_plan_id":"cebpf4jnsgd1na2vs0mg"},{"bike_id":"caacc5f9-63ca-414d-9124-88e29a835149","system_id":"levelo_inurba_marseille","lat":43.29851,"lon":5.36286,"is_reserved":false,"is_disabled":false,"rental_uris":{"android":"levelo://app?vid=caacc5f9-63ca-414d-9124-88e29a835149","ios":"levelo://app?vid=caacc5f9-63ca-414d-9124-88e29a835149"},"vehicle_type_id":"4","last_reported":1726838184,"current_range_meters":38800,"station_id":"ce4bgpp2rcd13ifvqc3g","pricing_plan_id":"cebpf4jnsgd1na2vs0mg"},{"bike_id":"e6ac2449-822a-43d2-b6be-8ee74f63805f","system_id":"levelo_inurba_marseille","lat":43.31684,"lon":5.40471,"is_reserved":false,"is_disabled":false,"rental_uris":{"android":"levelo://app?vid=e6ac2449-822a-43d2-b6be-8ee74f63805f","ios":"levelo://app?vid=e6ac2449-822a-43d2-b6be-8ee74f63805f"},"vehicle_type_id":"4","last_reported":1726838184,"current_range_meters":13600,"station_id":"ce4bh012rcd13ifvqd00","pricing_plan_id":"cebpf4jnsgd1na2vs0mg"},{"bike_id":"5eb090ec-2b95-4c94-8161-eff4c8f0e709","system_id":"levelo_inurba_marseille","lat":43.32492,"lon":5.36559,"is_reserved":false,"is_disabled":false,"rental_uris":{"android":"levelo://app?vid=5eb090ec-2b95-4c94-8161-eff4c8f0e709","ios":"levelo://app?vid=5eb090ec-2b95-4c94-8161-eff4c8f0e709"},"vehicle_type_id":"4","last_reported":1726838184,"current_range_meters":12800,"station_id":"ce4bhs12rcd13ifvqhvg","pricing_plan_id":"cebpf4jnsgd1na2vs0mg"},{"bike_id":"85105304-2210-473a-a7ae-4c30c34046e2","system_id":"levelo_inurba_marseille","lat":43.30309,"lon":5.3689,"is_reserved":false,"is_disabled":false,"rental_uris":{"android":"levelo://app?vid=85105304-2210-473a-a7ae-4c30c34046e2","ios":"levelo://app?vid=85105304-2210-473a-a7ae-4c30c34046e2"},"vehicle_type_id":"4","last_reported":1726838184,"current_range_meters":26800,"station_id":"ce4bgqh2rcd13ifvqc5g","pricing_plan_id":"cebpf4jnsgd1na2vs0mg"},{"bike_id":"fdc69bcf-7945-4097-982d-215e43619115","system_id":"levelo_inurba_marseille","lat":43.29854,"lon":5.36276,"is_reserved":false,"is_disabled":false,"rental_uris":{"android":"levelo://app?vid=fdc69bcf-7945-4097-982d-215e43619115","ios":"levelo://app?vid=fdc69bcf-7945-4097-982d-215e43619115"},"vehicle_type_id":"4","last_reported":1726838184,"current_range_meters":38800,"station_id":"ce4bgpp2rcd13ifvqc3g","pricing_plan_id":"cebpf4jnsgd1na2vs0mg"},{"bike_id":"4157a7a5-a7db-4a90-9504-66e91e2d691f","system_id":"levelo_inurba_marseille","lat":43.2717,"lon":5.40994,"is_reserved":false,"is_disabled":false,"rental_uris":{"android":"levelo://app?vid=4157a7a5-a7db-4a90-9504-66e91e2d691f","ios":"levelo://app?vid=4157a7a5-a7db-4a90-9504-66e91e2d691f"},"vehicle_type_id":"4","last_reported":1726838184,"current_range_meters":20000,"station_id":"ce4bhl12rcd13ifvqgf0","pricing_plan_id":"cebpf4jnsgd1na2vs0mg"},{"bike_id":"07aa0907-d512-448d-9812-2c607f2bfeb1","system_id":"levelo_inurba_marseille","lat":43.269248,"lon":5.388755,"is_reserved":false,"is_disabled":false,"rental_uris":{"android":"levelo://app?vid=07aa0907-d512-448d-9812-2c607f2bfeb1","ios":"levelo://app?vid=07aa0907-d512-448d-9812-2c607f2bfeb1"},"vehicle_type_id":"4","last_reported":1726838184,"current_range_meters":19600,"station_id":"ce4bhhh2rcd13ifvqfl0","pricing_plan_id":"cebpf4jnsgd1na2vs0mg"},{"bike_id":"d32d3351-f274-439c-a611-b5ba9afedf26","system_id":"levelo_inurba_marseille","lat":43.292633,"lon":5.401211,"is_reserved":false,"is_disabled":false,"rental_uris":{"android":"levelo://app?vid=d32d3351-f274-439c-a611-b5ba9afedf26","ios":"levelo://app?vid=d32d3351-f274-439c-a611-b5ba9afedf26"},"vehicle_type_id":"4","last_reported":1726838184,"current_range_meters":38000,"station_id":"ce4bh312rcd13ifvqdk0","pricing_plan_id":"cebpf4jnsgd1na2vs0mg"},{"bike_id":"838e99a9-3d23-4997-ab0d-600a12008281","system_id":"levelo_inurba_marseille","lat":43.27497,"lon":5.42453,"is_reserved":false,"is_disabled":false,"rental_uris":{"android":"levelo://app?vid=838e99a9-3d23-4997-ab0d-600a12008281","ios":"levelo://app?vid=838e99a9-3d23-4997-ab0d-600a12008281"},"vehicle_type_id":"4","last_reported":1726838184,"current_range_meters":19600,"station_id":"ce4bhn92rcd13ifvqgrg","pricing_plan_id":"cebpf4jnsgd1na2vs0mg"},{"bike_id":"35bc9789-1151-4325-a049-06ab79b3459d","system_id":"levelo_inurba_marseille","lat":43.3053,"lon":5.37323,"is_reserved":false,"is_disabled":false,"rental_uris":{"android":"levelo://app?vid=35bc9789-1151-4325-a049-06ab79b3459d","ios":"levelo://app?vid=35bc9789-1151-4325-a049-06ab79b3459d"},"vehicle_type_id":"4","last_reported":1726838184,"current_range_meters":38800,"station_id":"","pricing_plan_id":"cebpf4jnsgd1na2vs0mg"},{"bike_id":"85c2dc7a-89e4-4761-a9ab-a953ed802d70","system_id":"levelo_inurba_marseille","lat":43.27068,"lon":5.42278,"is_reserved":false,"is_disabled":false,"rental_uris":{"android":"levelo://app?vid=85c2dc7a-89e4-4761-a9ab-a953ed802d70","ios":"levelo://app?vid=85c2dc7a-89e4-4761-a9ab-a953ed802d70"},"vehicle_type_id":"4","last_reported":1726838184,"current_range_meters":8800,"station_id":"ce4bhk92rcd13ifvqgb0","pricing_plan_id":"cebpf4jnsgd1na2vs0mg"},{"bike_id":"49f16248-18e8-4962-9435-dad9616472e7","system_id":"levelo_inurba_marseille","lat":43.27372,"lon":5.3626,"is_reserved":false,"is_disabled":false,"rental_uris":{"android":"levelo://app?vid=49f16248-18e8-4962-9435-dad9616472e7","ios":"levelo://app?vid=49f16248-18e8-4962-9435-dad9616472e7"},"vehicle_type_id":"4","last_reported":1726838184,"current_range_meters":39200,"station_id":"ce4bhbh2rcd13ifvqeo0","pricing_plan_id":"cebpf4jnsgd1na2vs0mg"},{"bike_id":"ff35890d-b554-4d05-bdf1-94a62004aa36","system_id":"levelo_inurba_marseille","lat":43.29937,"lon":5.36548,"is_reserved":false,"is_disabled":false,"rental_uris":{"android":"levelo://app?vid=ff35890d-b554-4d05-bdf1-94a62004aa36","ios":"levelo://app?vid=ff35890d-b554-4d05-bdf1-94a62004aa36"},"vehicle_type_id":"4","last_reported":1726838184,"current_range_meters":17200,"station_id":"ce4bgm92rcd13ifvqbr0","pricing_plan_id":"cebpf4jnsgd1na2vs0mg"},{"bike_id":"a2fc8ce0-af56-4622-8930-a0e17f82bcdc","system_id":"levelo_inurba_marseille","lat":43.301453,"lon":5.374091,"is_reserved":false,"is_disabled":false,"rental_uris":{"android":"levelo://app?vid=a2fc8ce0-af56-4622-8930-a0e17f82bcdc","ios":"levelo://app?vid=a2fc8ce0-af56-4622-8930-a0e17f82bcdc"},"vehicle_type_id":"4","last_reported":1726838184,"current_range_meters":38400,"station_id":"ce4bhah2rcd13ifvqei0","pricing_plan_id":"cebpf4jnsgd1na2vs0mg"},{"bike_id":"0c727f18-7eb4-479b-a38c-2746903fc6ab","system_id":"levelo_inurba_marseille","lat":43.27375,"lon":5.36245,"is_reserved":false,"is_disabled":false,"rental_uris":{"android":"levelo://app?vid=0c727f18-7eb4-479b-a38c-2746903fc6ab","ios":"levelo://app?vid=0c727f18-7eb4-479b-a38c-2746903fc6ab"},"vehicle_type_id":"4","last_reported":1726838184,"current_range_meters":10000,"station_id":"ce4bhbh2rcd13ifvqeo0","pricing_plan_id":"cebpf4jnsgd1na2vs0mg"},{"bike_id":"30f290c4-74a9-48f9-818e-7983d18979c3","system_id":"levelo_inurba_marseille","lat":43.30803,"lon":5.43527,"is_reserved":false,"is_disabled":false,"rental_uris":{"android":"levelo://app?vid=30f290c4-74a9-48f9-818e-7983d18979c3","ios":"levelo://app?vid=30f290c4-74a9-48f9-818e-7983d18979c3"},"vehicle_type_id":"4","last_reported":1726838184,"current_range_meters":2000,"station_id":"ce4bhph2rcd13ifvqheg","pricing_plan_id":"cebpf4jnsgd1na2vs0mg"},{"bike_id":"cf0831c6-9d73-4169-9780-b32c614dc44a","system_id":"levelo_inurba_marseille","lat":43.23975,"lon":5.36627,"is_reserved":false,"is_disabled":false,"rental_uris":{"android":"levelo://app?vid=cf0831c6-9d73-4169-9780-b32c614dc44a","ios":"levelo://app?vid=cf0831c6-9d73-4169-9780-b32c614dc44a"},"vehicle_type_id":"4","last_reported":1726838184,"current_range_meters":19600,"station_id":"ce4bhi12rcd13ifvqfp0","pricing_plan_id":"cebpf4jnsgd1na2vs0mg"},{"bike_id":"bbde4e9f-3b65-43ff-a957-e12f8c6bb50f","system_id":"levelo_inurba_marseille","lat":43.2931,"lon":5.37176,"is_reserved":false,"is_disabled":false,"rental_uris":{"android":"levelo://app?vid=bbde4e9f-3b65-43ff-a957-e12f8c6bb50f","ios":"levelo://app?vid=bbde4e9f-3b65-43ff-a957-e12f8c6bb50f"},"vehicle_type_id":"4","last_reported":1726838184,"current_range_meters":36000,"station_id":"ce4bgh92rcd13ifvqb40","pricing_plan_id":"cebpf4jnsgd1na2vs0mg"},{"bike_id":"525d65ad-c68a-4bc7-81da-ac1570ffba9c","system_id":"levelo_inurba_marseille","lat":43.32365,"lon":5.38885,"is_reserved":false,"is_disabled":false,"rental_uris":{"android":"levelo://app?vid=525d65ad-c68a-4bc7-81da-ac1570ffba9c","ios":"levelo://app?vid=525d65ad-c68a-4bc7-81da-ac1570ffba9c"},"vehicle_type_id":"4","last_reported":1726838184,"current_range_meters":6400,"station_id":"ce4bhqp2rcd13ifvqhog","pricing_plan_id":"cebpf4jnsgd1na2vs0mg"},{"bike_id":"462963e0-738e-40bb-9194-4196be5833f5","system_id":"levelo_inurba_marseille","lat":43.30137,"lon":5.39859,"is_reserved":false,"is_disabled":false,"rental_uris":{"android":"levelo://app?vid=462963e0-738e-40bb-9194-4196be5833f5","ios":"levelo://app?vid=462963e0-738e-40bb-9194-4196be5833f5"},"vehicle_type_id":"4","last_reported":1726838184,"current_range_meters":23200,"station_id":"ce4bh0h2rcd13ifvqd40","pricing_plan_id":"cebpf4jnsgd1na2vs0mg"},{"bike_id":"036ab25f-0c34-4c45-8e88-1fc9200da6fd","system_id":"levelo_inurba_marseille","lat":43.27174,"lon":5.42685,"is_reserved":false,"is_disabled":false,"rental_uris":{"android":"levelo://app?vid=036ab25f-0c34-4c45-8e88-1fc9200da6fd","ios":"levelo://app?vid=036ab25f-0c34-4c45-8e88-1fc9200da6fd"},"vehicle_type_id":"4","last_reported":1726838184,"current_range_meters":25600,"station_id":"","pricing_plan_id":"cebpf4jnsgd1na2vs0mg"},{"bike_id":"68925a1a-2f5c-431f-9b33-d8dddae89e1e","system_id":"levelo_inurba_marseille","lat":43.299683,"lon":5.371697,"is_reserved":false,"is_disabled":false,"rental_uris":{"android":"levelo://app?vid=68925a1a-2f5c-431f-9b33-d8dddae89e1e","ios":"levelo://app?vid=68925a1a-2f5c-431f-9b33-d8dddae89e1e"},"vehicle_type_id":"4","last_reported":1726838184,"current_range_meters":24400,"station_id":"ce4bh192rcd13ifvqdc0","pricing_plan_id":"cebpf4jnsgd1na2vs0mg"},{"bike_id":"a143b59c-ef89-4d2c-9dc3-0c454a53a3d0","system_id":"levelo_inurba_marseille","lat":43.31703,"lon":5.37739,"is_reserved":false,"is_disabled":false,"rental_uris":{"android":"levelo://app?vid=a143b59c-ef89-4d2c-9dc3-0c454a53a3d0","ios":"levelo://app?vid=a143b59c-ef89-4d2c-9dc3-0c454a53a3d0"},"vehicle_type_id":"4","last_reported":1726838184,"current_range_meters":37600,"station_id":"ce4bgth2rcd13ifvqch0","pricing_plan_id":"cebpf4jnsgd1na2vs0mg"},{"bike_id":"809d76c3-2931-4bf7-911e-100e1b844076","system_id":"levelo_inurba_marseille","lat":43.26209,"lon":5.37441,"is_reserved":false,"is_disabled":false,"rental_uris":{"android":"levelo://app?vid=809d76c3-2931-4bf7-911e-100e1b844076","ios":"levelo://app?vid=809d76c3-2931-4bf7-911e-100e1b844076"},"vehicle_type_id":"4","last_reported":1726838184,"current_range_meters":26000,"station_id":"ce4bhgp2rcd13ifvqfc0","pricing_plan_id":"cebpf4jnsgd1na2vs0mg"},{"bike_id":"0fb42f67-e6d4-4b33-8619-af1b1d2a30e9","system_id":"levelo_inurba_marseille","lat":43.23148,"lon":5.43721,"is_reserved":false,"is_disabled":false,"rental_uris":{"android":"levelo://app?vid=0fb42f67-e6d4-4b33-8619-af1b1d2a30e9","ios":"levelo://app?vid=0fb42f67-e6d4-4b33-8619-af1b1d2a30e9"},"vehicle_type_id":"4","last_reported":1726838184,"current_range_meters":38800,"station_id":"ce4bhmp2rcd13ifvqgog","pricing_plan_id":"cebpf4jnsgd1na2vs0mg"},{"bike_id":"b700cd51-dda4-4fb8-8287-cffdb188babb","system_id":"levelo_inurba_marseille","lat":43.29376,"lon":5.37853,"is_reserved":false,"is_disabled":false,"rental_uris":{"android":"levelo://app?vid=b700cd51-dda4-4fb8-8287-cffdb188babb","ios":"levelo://app?vid=b700cd51-dda4-4fb8-8287-cffdb188babb"},"vehicle_type_id":"4","last_reported":1726838184,"current_range_meters":30400,"station_id":"ce4bgjh2rcd13ifvqbf0","pricing_plan_id":"cebpf4jnsgd1na2vs0mg"},{"bike_id":"8e9f88c1-484c-4c43-838e-8d2480acd67c","system_id":"levelo_inurba_marseille","lat":43.337444,"lon":5.374475,"is_reserved":false,"is_disabled":false,"rental_uris":{"android":"levelo://app?vid=8e9f88c1-484c-4c43-838e-8d2480acd67c","ios":"levelo://app?vid=8e9f88c1-484c-4c43-838e-8d2480acd67c"},"vehicle_type_id":"4","last_reported":1726838184,"current_range_meters":17200,"station_id":"ce4bgup2rcd13ifvqcn0","pricing_plan_id":"cebpf4jnsgd1na2vs0mg"},{"bike_id":"e3157b7d-f63e-4215-9b0b-bec081b31a83","system_id":"levelo_inurba_marseille","lat":43.32484,"lon":5.36564,"is_reserved":false,"is_disabled":false,"rental_uris":{"android":"levelo://app?vid=e3157b7d-f63e-4215-9b0b-bec081b31a83","ios":"levelo://app?vid=e3157b7d-f63e-4215-9b0b-bec081b31a83"},"vehicle_type_id":"4","last_reported":1726838184,"current_range_meters":5600,"station_id":"ce4bhs12rcd13ifvqhvg","pricing_plan_id":"cebpf4jnsgd1na2vs0mg"},{"bike_id":"88cffe37-9dfd-4afd-b9b5-df7d5dd7628c","system_id":"levelo_inurba_marseille","lat":43.29883,"lon":5.38896,"is_reserved":false,"is_disabled":false,"rental_uris":{"android":"levelo://app?vid=88cffe37-9dfd-4afd-b9b5-df7d5dd7628c","ios":"levelo://app?vid=88cffe37-9dfd-4afd-b9b5-df7d5dd7628c"},"vehicle_type_id":"4","last_reported":1726838184,"current_range_meters":23200,"station_id":"ce4bh392rcd13ifvqdl0","pricing_plan_id":"cebpf4jnsgd1na2vs0mg"},{"bike_id":"0dc5dee9-0717-4f07-8285-29a04073e9e4","system_id":"levelo_inurba_marseille","lat":43.24811,"lon":5.37457,"is_reserved":false,"is_disabled":false,"rental_uris":{"android":"levelo://app?vid=0dc5dee9-0717-4f07-8285-29a04073e9e4","ios":"levelo://app?vid=0dc5dee9-0717-4f07-8285-29a04073e9e4"},"vehicle_type_id":"4","last_reported":1726838184,"current_range_meters":800,"station_id":"ce4bhgh2rcd13ifvqfb0","pricing_plan_id":"cebpf4jnsgd1na2vs0mg"},{"bike_id":"751f90c9-696d-43a3-abf5-68be55a262c9","system_id":"levelo_inurba_marseille","lat":43.33617,"lon":5.41033,"is_reserved":false,"is_disabled":false,"rental_uris":{"android":"levelo://app?vid=751f90c9-696d-43a3-abf5-68be55a262c9","ios":"levelo://app?vid=751f90c9-696d-43a3-abf5-68be55a262c9"},"vehicle_type_id":"4","last_reported":1726838184,"current_range_meters":36400,"station_id":"ce4bhqh2rcd13ifvqhmg","pricing_plan_id":"cebpf4jnsgd1na2vs0mg"},{"bike_id":"9899969d-4f8e-4fed-bc43-e675716ac04a","system_id":"levelo_inurba_marseille","lat":43.2316,"lon":5.43707,"is_reserved":false,"is_disabled":false,"rental_uris":{"android":"levelo://app?vid=9899969d-4f8e-4fed-bc43-e675716ac04a","ios":"levelo://app?vid=9899969d-4f8e-4fed-bc43-e675716ac04a"},"vehicle_type_id":"4","last_reported":1726838184,"current_range_meters":38800,"station_id":"ce4bhmp2rcd13ifvqgog","pricing_plan_id":"cebpf4jnsgd1na2vs0mg"},{"bike_id":"edfb1ff5-b81b-4225-8da9-100a9115b1e3","system_id":"levelo_inurba_marseille","lat":43.29735,"lon":5.36561,"is_reserved":false,"is_disabled":false,"rental_uris":{"android":"levelo://app?vid=edfb1ff5-b81b-4225-8da9-100a9115b1e3","ios":"levelo://app?vid=edfb1ff5-b81b-4225-8da9-100a9115b1e3"},"vehicle_type_id":"4","last_reported":1726838184,"current_range_meters":12800,"station_id":"","pricing_plan_id":"cebpf4jnsgd1na2vs0mg"},{"bike_id":"15e3060d-1cfb-481c-9f48-257a94bd2c2a","system_id":"levelo_inurba_marseille","lat":43.32477,"lon":5.40757,"is_reserved":false,"is_disabled":false,"rental_uris":{"android":"levelo://app?vid=15e3060d-1cfb-481c-9f48-257a94bd2c2a","ios":"levelo://app?vid=15e3060d-1cfb-481c-9f48-257a94bd2c2a"},"vehicle_type_id":"4","last_reported":1726838184,"current_range_meters":36800,"station_id":"","pricing_plan_id":"cebpf4jnsgd1na2vs0mg"},{"bike_id":"c8558a3e-0779-4454-9c3b-d1ee2706fdca","system_id":"levelo_inurba_marseille","lat":43.3171,"lon":5.43706,"is_reserved":false,"is_disabled":false,"rental_uris":{"android":"levelo://app?vid=c8558a3e-0779-4454-9c3b-d1ee2706fdca","ios":"levelo://app?vid=c8558a3e-0779-4454-9c3b-d1ee2706fdca"},"vehicle_type_id":"4","last_reported":1726838184,"current_range_meters":18000,"station_id":"ce4bhp92rcd13ifvqhcg","pricing_plan_id":"cebpf4jnsgd1na2vs0mg"},{"bike_id":"8615a493-3c1b-4012-af18-f43258e13ff7","system_id":"levelo_inurba_marseille","lat":43.23158,"lon":5.43706,"is_reserved":false,"is_disabled":false,"rental_uris":{"android":"levelo://app?vid=8615a493-3c1b-4012-af18-f43258e13ff7","ios":"levelo://app?vid=8615a493-3c1b-4012-af18-f43258e13ff7"},"vehicle_type_id":"4","last_reported":1726838184,"current_range_meters":14800,"station_id":"ce4bhmp2rcd13ifvqgog","pricing_plan_id":"cebpf4jnsgd1na2vs0mg"},{"bike_id":"0a53591f-592a-43ba-8f24-192330c400cf","system_id":"levelo_inurba_marseille","lat":43.30782,"lon":5.37643,"is_reserved":false,"is_disabled":false,"rental_uris":{"android":"levelo://app?vid=0a53591f-592a-43ba-8f24-192330c400cf","ios":"levelo://app?vid=0a53591f-592a-43ba-8f24-192330c400cf"},"vehicle_type_id":"4","last_reported":1726838184,"current_range_meters":38800,"station_id":"ce4bgv92rcd13ifvqcq0","pricing_plan_id":"cebpf4jnsgd1na2vs0mg"},{"bike_id":"2dbb1663-551c-4fd6-9505-2a6c2c009f8a","system_id":"levelo_inurba_marseille","lat":43.28695,"lon":5.39977,"is_reserved":false,"is_disabled":false,"rental_uris":{"android":"levelo://app?vid=2dbb1663-551c-4fd6-9505-2a6c2c009f8a","ios":"levelo://app?vid=2dbb1663-551c-4fd6-9505-2a6c2c009f8a"},"vehicle_type_id":"4","last_reported":1726838184,"current_range_meters":38800,"station_id":"ce4bho92rcd13ifvqh3g","pricing_plan_id":"cebpf4jnsgd1na2vs0mg"},{"bike_id":"e8a1ac1d-9e10-4e94-9ed7-5b9ab1ebe882","system_id":"levelo_inurba_marseille","lat":43.23147,"lon":5.43725,"is_reserved":false,"is_disabled":false,"rental_uris":{"android":"levelo://app?vid=e8a1ac1d-9e10-4e94-9ed7-5b9ab1ebe882","ios":"levelo://app?vid=e8a1ac1d-9e10-4e94-9ed7-5b9ab1ebe882"},"vehicle_type_id":"4","last_reported":1726838184,"current_range_meters":37600,"station_id":"ce4bhmp2rcd13ifvqgog","pricing_plan_id":"cebpf4jnsgd1na2vs0mg"},{"bike_id":"399c3c10-3e6e-4943-b222-a2cd47ab1aea","system_id":"levelo_inurba_marseille","lat":43.31883,"lon":5.40737,"is_reserved":false,"is_disabled":false,"rental_uris":{"android":"levelo://app?vid=399c3c10-3e6e-4943-b222-a2cd47ab1aea","ios":"levelo://app?vid=399c3c10-3e6e-4943-b222-a2cd47ab1aea"},"vehicle_type_id":"4","last_reported":1726838184,"current_range_meters":38000,"station_id":"ce4bhq12rcd13ifvqhig","pricing_plan_id":"cebpf4jnsgd1na2vs0mg"},{"bike_id":"16e22eff-cd3f-434c-a04e-8504f01073db","system_id":"levelo_inurba_marseille","lat":43.30609,"lon":5.37192,"is_reserved":false,"is_disabled":false,"rental_uris":{"android":"levelo://app?vid=16e22eff-cd3f-434c-a04e-8504f01073db","ios":"levelo://app?vid=16e22eff-cd3f-434c-a04e-8504f01073db"},"vehicle_type_id":"4","last_reported":1726838184,"current_range_meters":27600,"station_id":"ce4bgqh2rcd13ifvqc4g","pricing_plan_id":"cebpf4jnsgd1na2vs0mg"},{"bike_id":"e6805398-14bf-4c72-b165-1bedb5484a2a","system_id":"levelo_inurba_marseille","lat":43.29844,"lon":5.36269,"is_reserved":false,"is_disabled":false,"rental_uris":{"android":"levelo://app?vid=e6805398-14bf-4c72-b165-1bedb5484a2a","ios":"levelo://app?vid=e6805398-14bf-4c72-b165-1bedb5484a2a"},"vehicle_type_id":"4","last_reported":1726838184,"current_range_meters":38800,"station_id":"ce4bgpp2rcd13ifvqc3g","pricing_plan_id":"cebpf4jnsgd1na2vs0mg"},{"bike_id":"bb42d72d-2c83-406c-b3e0-2b261aef5c6a","system_id":"levelo_inurba_marseille","lat":43.29933,"lon":5.3654,"is_reserved":false,"is_disabled":false,"rental_uris":{"android":"levelo://app?vid=bb42d72d-2c83-406c-b3e0-2b261aef5c6a","ios":"levelo://app?vid=bb42d72d-2c83-406c-b3e0-2b261aef5c6a"},"vehicle_type_id":"4","last_reported":1726838184,"current_range_meters":2000,"station_id":"ce4bgm92rcd13ifvqbr0","pricing_plan_id":"cebpf4jnsgd1na2vs0mg"},{"bike_id":"6398ca85-f89a-48b2-9b1b-75064ea5e580","system_id":"levelo_inurba_marseille","lat":43.29975,"lon":5.37176,"is_reserved":false,"is_disabled":false,"rental_uris":{"android":"levelo://app?vid=6398ca85-f89a-48b2-9b1b-75064ea5e580","ios":"levelo://app?vid=6398ca85-f89a-48b2-9b1b-75064ea5e580"},"vehicle_type_id":"4","last_reported":1726838184,"current_range_meters":37600,"station_id":"ce4bgr92rcd13ifvqc7g","pricing_plan_id":"cebpf4jnsgd1na2vs0mg"},{"bike_id":"2289d022-493d-465c-ab05-07543a2f6c21","system_id":"levelo_inurba_marseille","lat":43.286722,"lon":5.385227,"is_reserved":false,"is_disabled":false,"rental_uris":{"android":"levelo://app?vid=2289d022-493d-465c-ab05-07543a2f6c21","ios":"levelo://app?vid=2289d022-493d-465c-ab05-07543a2f6c21"},"vehicle_type_id":"4","last_reported":1726838184,"current_range_meters":32400,"station_id":"ce4bh492rcd13ifvqdug","pricing_plan_id":"cebpf4jnsgd1na2vs0mg"},{"bike_id":"34da7d2b-83ae-4bd1-9efe-d960a589581e","system_id":"levelo_inurba_marseille","lat":43.32497,"lon":5.3656,"is_reserved":false,"is_disabled":false,"rental_uris":{"android":"levelo://app?vid=34da7d2b-83ae-4bd1-9efe-d960a589581e","ios":"levelo://app?vid=34da7d2b-83ae-4bd1-9efe-d960a589581e"},"vehicle_type_id":"4","last_reported":1726838184,"current_range_meters":7200,"station_id":"ce4bhs12rcd13ifvqhvg","pricing_plan_id":"cebpf4jnsgd1na2vs0mg"},{"bike_id":"83f38be9-1744-433d-9b38-c1e85f0b7c7d","system_id":"levelo_inurba_marseille","lat":43.337444,"lon":5.374475,"is_reserved":false,"is_disabled":false,"rental_uris":{"android":"levelo://app?vid=83f38be9-1744-433d-9b38-c1e85f0b7c7d","ios":"levelo://app?vid=83f38be9-1744-433d-9b38-c1e85f0b7c7d"},"vehicle_type_id":"4","last_reported":1726838184,"current_range_meters":24000,"station_id":"","pricing_plan_id":"cebpf4jnsgd1na2vs0mg"},{"bike_id":"e93662b1-08ac-4abd-82f8-d99e5f5f14d3","system_id":"levelo_inurba_marseille","lat":43.30606,"lon":5.37241,"is_reserved":false,"is_disabled":false,"rental_uris":{"android":"levelo://app?vid=e93662b1-08ac-4abd-82f8-d99e5f5f14d3","ios":"levelo://app?vid=e93662b1-08ac-4abd-82f8-d99e5f5f14d3"},"vehicle_type_id":"4","last_reported":1726838184,"current_range_meters":38800,"station_id":"ce4bgqh2rcd13ifvqc4g","pricing_plan_id":"cebpf4jnsgd1na2vs0mg"},{"bike_id":"b7e4520d-3397-4594-b6e0-911789d9c211","system_id":"levelo_inurba_marseille","lat":43.30087,"lon":5.3907,"is_reserved":false,"is_disabled":false,"rental_uris":{"android":"levelo://app?vid=b7e4520d-3397-4594-b6e0-911789d9c211","ios":"levelo://app?vid=b7e4520d-3397-4594-b6e0-911789d9c211"},"vehicle_type_id":"4","last_reported":1726838184,"current_range_meters":24800,"station_id":"ce4bh192rcd13ifvqdb0","pricing_plan_id":"cebpf4jnsgd1na2vs0mg"},{"bike_id":"05543175-9cd9-4cbf-bcae-321dbc92b2c2","system_id":"levelo_inurba_marseille","lat":43.29961,"lon":5.41319,"is_reserved":false,"is_disabled":false,"rental_uris":{"android":"levelo://app?vid=05543175-9cd9-4cbf-bcae-321dbc92b2c2","ios":"levelo://app?vid=05543175-9cd9-4cbf-bcae-321dbc92b2c2"},"vehicle_type_id":"4","last_reported":1726838184,"current_range_meters":8400,"station_id":"ce4bhp12rcd13ifvqh9g","pricing_plan_id":"cebpf4jnsgd1na2vs0mg"},{"bike_id":"20d0c551-28d2-416c-819b-c43858641d3d","system_id":"levelo_inurba_marseille","lat":43.30532,"lon":5.36548,"is_reserved":false,"is_disabled":false,"rental_uris":{"android":"levelo://app?vid=20d0c551-28d2-416c-819b-c43858641d3d","ios":"levelo://app?vid=20d0c551-28d2-416c-819b-c43858641d3d"},"vehicle_type_id":"4","last_reported":1726838184,"current_range_meters":33200,"station_id":"ce4bgs12rcd13ifvqcag","pricing_plan_id":"cebpf4jnsgd1na2vs0mg"},{"bike_id":"930df229-a4fc-46c0-980c-29c1519b09ed","system_id":"levelo_inurba_marseille","lat":43.32367,"lon":5.38884,"is_reserved":false,"is_disabled":false,"rental_uris":{"android":"levelo://app?vid=930df229-a4fc-46c0-980c-29c1519b09ed","ios":"levelo://app?vid=930df229-a4fc-46c0-980c-29c1519b09ed"},"vehicle_type_id":"4","last_reported":1726838184,"current_range_meters":20800,"station_id":"ce4bhqp2rcd13ifvqhog","pricing_plan_id":"cebpf4jnsgd1na2vs0mg"},{"bike_id":"91953c06-50e2-414a-8463-25b3d3044633","system_id":"levelo_inurba_marseille","lat":43.273193,"lon":5.390716,"is_reserved":false,"is_disabled":false,"rental_uris":{"android":"levelo://app?vid=91953c06-50e2-414a-8463-25b3d3044633","ios":"levelo://app?vid=91953c06-50e2-414a-8463-25b3d3044633"},"vehicle_type_id":"4","last_reported":1726838184,"current_range_meters":16400,"station_id":"ce4bhgp2rcd13ifvqfe0","pricing_plan_id":"cebpf4jnsgd1na2vs0mg"},{"bike_id":"9733eb26-9e68-456c-b0c3-d7415e89c90e","system_id":"levelo_inurba_marseille","lat":43.30537,"lon":5.36703,"is_reserved":false,"is_disabled":false,"rental_uris":{"android":"levelo://app?vid=9733eb26-9e68-456c-b0c3-d7415e89c90e","ios":"levelo://app?vid=9733eb26-9e68-456c-b0c3-d7415e89c90e"},"vehicle_type_id":"4","last_reported":1726838184,"current_range_meters":28000,"station_id":"ce4bgrp2rcd13ifvqc9g","pricing_plan_id":"cebpf4jnsgd1na2vs0mg"},{"bike_id":"f1835740-6213-4dca-a948-a3aef36645fa","system_id":"levelo_inurba_marseille","lat":43.292267,"lon":5.360708,"is_reserved":false,"is_disabled":false,"rental_uris":{"android":"levelo://app?vid=f1835740-6213-4dca-a948-a3aef36645fa","ios":"levelo://app?vid=f1835740-6213-4dca-a948-a3aef36645fa"},"vehicle_type_id":"4","last_reported":1726838184,"current_range_meters":31200,"station_id":"ce4bhbh2rcd13ifvqeqg","pricing_plan_id":"cebpf4jnsgd1na2vs0mg"},{"bike_id":"693174a5-6e0b-46fd-b5d7-b0644b1109f8","system_id":"levelo_inurba_marseille","lat":43.30435,"lon":5.38877,"is_reserved":false,"is_disabled":false,"rental_uris":{"android":"levelo://app?vid=693174a5-6e0b-46fd-b5d7-b0644b1109f8","ios":"levelo://app?vid=693174a5-6e0b-46fd-b5d7-b0644b1109f8"},"vehicle_type_id":"4","last_reported":1726838184,"current_range_meters":28800,"station_id":"ce4bgk12rcd13ifvqbi0","pricing_plan_id":"cebpf4jnsgd1na2vs0mg"},{"bike_id":"55f7cc0b-709d-466e-b4a8-98db3a2af14a","system_id":"levelo_inurba_marseille","lat":43.30467,"lon":5.37893,"is_reserved":false,"is_disabled":false,"rental_uris":{"android":"levelo://app?vid=55f7cc0b-709d-466e-b4a8-98db3a2af14a","ios":"levelo://app?vid=55f7cc0b-709d-466e-b4a8-98db3a2af14a"},"vehicle_type_id":"4","last_reported":1726838184,"current_range_meters":38800,"station_id":"ce4bgup2rcd13ifvqcn0","pricing_plan_id":"cebpf4jnsgd1na2vs0mg"},{"bike_id":"6ddf3dc4-e81e-4bca-90c3-a3baabc5458f","system_id":"levelo_inurba_marseille","lat":43.28707,"lon":5.39973,"is_reserved":false,"is_disabled":false,"rental_uris":{"android":"levelo://app?vid=6ddf3dc4-e81e-4bca-90c3-a3baabc5458f","ios":"levelo://app?vid=6ddf3dc4-e81e-4bca-90c3-a3baabc5458f"},"vehicle_type_id":"4","last_reported":1726838184,"current_range_meters":38400,"station_id":"ce4bho92rcd13ifvqh3g","pricing_plan_id":"cebpf4jnsgd1na2vs0mg"},{"bike_id":"8ee6d5db-cb8b-4219-a1d2-5a1a8206952f","system_id":"levelo_inurba_marseille","lat":43.29554,"lon":5.42297,"is_reserved":false,"is_disabled":false,"rental_uris":{"android":"levelo://app?vid=8ee6d5db-cb8b-4219-a1d2-5a1a8206952f","ios":"levelo://app?vid=8ee6d5db-cb8b-4219-a1d2-5a1a8206952f"},"vehicle_type_id":"4","last_reported":1726838184,"current_range_meters":36800,"station_id":"ce4bhph2rcd13ifvqhdg","pricing_plan_id":"cebpf4jnsgd1na2vs0mg"},{"bike_id":"af42f746-66d2-45b8-9e58-3721ab0e338d","system_id":"levelo_inurba_marseille","lat":43.23189,"lon":5.35553,"is_reserved":false,"is_disabled":false,"rental_uris":{"android":"levelo://app?vid=af42f746-66d2-45b8-9e58-3721ab0e338d","ios":"levelo://app?vid=af42f746-66d2-45b8-9e58-3721ab0e338d"},"vehicle_type_id":"4","last_reported":1726838184,"current_range_meters":8400,"station_id":"ce4bhu92rcd13ifvqi70","pricing_plan_id":"cebpf4jnsgd1na2vs0mg"},{"bike_id":"b4d90691-b2ae-447e-84f7-f1a017bf250a","system_id":"levelo_inurba_marseille","lat":43.26555,"lon":5.37286,"is_reserved":false,"is_disabled":false,"rental_uris":{"android":"levelo://app?vid=b4d90691-b2ae-447e-84f7-f1a017bf250a","ios":"levelo://app?vid=b4d90691-b2ae-447e-84f7-f1a017bf250a"},"vehicle_type_id":"4","last_reported":1726838184,"current_range_meters":12000,"station_id":"ce4bhg12rcd13ifvqf70","pricing_plan_id":"cebpf4jnsgd1na2vs0mg"},{"bike_id":"66bdbe49-6c87-4f80-b9c2-4a52c0ab5db0","system_id":"levelo_inurba_marseille","lat":43.30543,"lon":5.36704,"is_reserved":false,"is_disabled":false,"rental_uris":{"android":"levelo://app?vid=66bdbe49-6c87-4f80-b9c2-4a52c0ab5db0","ios":"levelo://app?vid=66bdbe49-6c87-4f80-b9c2-4a52c0ab5db0"},"vehicle_type_id":"4","last_reported":1726838184,"current_range_meters":33600,"station_id":"ce4bgrp2rcd13ifvqc9g","pricing_plan_id":"cebpf4jnsgd1na2vs0mg"},{"bike_id":"4628adea-bc48-4298-a18b-f3e5f20dc523","system_id":"levelo_inurba_marseille","lat":43.2757,"lon":5.38414,"is_reserved":false,"is_disabled":false,"rental_uris":{"android":"levelo://app?vid=4628adea-bc48-4298-a18b-f3e5f20dc523","ios":"levelo://app?vid=4628adea-bc48-4298-a18b-f3e5f20dc523"},"vehicle_type_id":"4","last_reported":1726838184,"current_range_meters":27600,"station_id":"ce4bhh92rcd13ifvqfi0","pricing_plan_id":"cebpf4jnsgd1na2vs0mg"},{"bike_id":"bd248bc7-a1a6-4c83-92d3-231a636890e1","system_id":"levelo_inurba_marseille","lat":43.30801,"lon":5.43527,"is_reserved":false,"is_disabled":false,"rental_uris":{"android":"levelo://app?vid=bd248bc7-a1a6-4c83-92d3-231a636890e1","ios":"levelo://app?vid=bd248bc7-a1a6-4c83-92d3-231a636890e1"},"vehicle_type_id":"4","last_reported":1726838184,"current_range_meters":22800,"station_id":"ce4bhph2rcd13ifvqheg","pricing_plan_id":"cebpf4jnsgd1na2vs0mg"},{"bike_id":"b5621dfd-5609-477f-a3f9-25b1308b3b00","system_id":"levelo_inurba_marseille","lat":43.30093,"lon":5.39073,"is_reserved":false,"is_disabled":false,"rental_uris":{"android":"levelo://app?vid=b5621dfd-5609-477f-a3f9-25b1308b3b00","ios":"levelo://app?vid=b5621dfd-5609-477f-a3f9-25b1308b3b00"},"vehicle_type_id":"4","last_reported":1726838184,"current_range_meters":3200,"station_id":"ce4bh192rcd13ifvqdb0","pricing_plan_id":"cebpf4jnsgd1na2vs0mg"},{"bike_id":"179572e6-dac3-4173-ad61-02ba94d36e84","system_id":"levelo_inurba_marseille","lat":43.28855,"lon":5.39311,"is_reserved":false,"is_disabled":false,"rental_uris":{"android":"levelo://app?vid=179572e6-dac3-4173-ad61-02ba94d36e84","ios":"levelo://app?vid=179572e6-dac3-4173-ad61-02ba94d36e84"},"vehicle_type_id":"4","last_reported":1726838184,"current_range_meters":18000,"station_id":"ce4bh2p2rcd13ifvqdi0","pricing_plan_id":"cebpf4jnsgd1na2vs0mg"},{"bike_id":"97bb952c-69b5-401e-90ab-5e3517c35db7","system_id":"levelo_inurba_marseille","lat":43.33614,"lon":5.41033,"is_reserved":false,"is_disabled":false,"rental_uris":{"android":"levelo://app?vid=97bb952c-69b5-401e-90ab-5e3517c35db7","ios":"levelo://app?vid=97bb952c-69b5-401e-90ab-5e3517c35db7"},"vehicle_type_id":"4","last_reported":1726838184,"current_range_meters":25600,"station_id":"ce4bhqh2rcd13ifvqhmg","pricing_plan_id":"cebpf4jnsgd1na2vs0mg"},{"bike_id":"7cfe88da-ace9-42a7-8b41-35b85bd7b90c","system_id":"levelo_inurba_marseille","lat":43.30556,"lon":5.36547,"is_reserved":false,"is_disabled":false,"rental_uris":{"android":"levelo://app?vid=7cfe88da-ace9-42a7-8b41-35b85bd7b90c","ios":"levelo://app?vid=7cfe88da-ace9-42a7-8b41-35b85bd7b90c"},"vehicle_type_id":"4","last_reported":1726838184,"current_range_meters":36000,"station_id":"ce4bgs12rcd13ifvqcag","pricing_plan_id":"cebpf4jnsgd1na2vs0mg"},{"bike_id":"3c86203a-f6f5-40a2-86a7-739c6469f6ea","system_id":"levelo_inurba_marseille","lat":43.23971,"lon":5.36636,"is_reserved":false,"is_disabled":false,"rental_uris":{"android":"levelo://app?vid=3c86203a-f6f5-40a2-86a7-739c6469f6ea","ios":"levelo://app?vid=3c86203a-f6f5-40a2-86a7-739c6469f6ea"},"vehicle_type_id":"4","last_reported":1726838184,"current_range_meters":24000,"station_id":"ce4bhi12rcd13ifvqfp0","pricing_plan_id":"cebpf4jnsgd1na2vs0mg"},{"bike_id":"89516237-02d3-4cfe-aa25-4f1c11f9f745","system_id":"levelo_inurba_marseille","lat":43.28107,"lon":5.37835,"is_reserved":false,"is_disabled":false,"rental_uris":{"android":"levelo://app?vid=89516237-02d3-4cfe-aa25-4f1c11f9f745","ios":"levelo://app?vid=89516237-02d3-4cfe-aa25-4f1c11f9f745"},"vehicle_type_id":"4","last_reported":1726838184,"current_range_meters":0,"station_id":"ce4bha12rcd13ifvqee0","pricing_plan_id":"cebpf4jnsgd1na2vs0mg"},{"bike_id":"604c9531-be4f-4974-bfe2-bd7828d7386f","system_id":"levelo_inurba_marseille","lat":43.29896,"lon":5.43673,"is_reserved":false,"is_disabled":false,"rental_uris":{"android":"levelo://app?vid=604c9531-be4f-4974-bfe2-bd7828d7386f","ios":"levelo://app?vid=604c9531-be4f-4974-bfe2-bd7828d7386f"},"vehicle_type_id":"4","last_reported":1726838184,"current_range_meters":28000,"station_id":"ce4bhpp2rcd13ifvqhfg","pricing_plan_id":"cebpf4jnsgd1na2vs0mg"},{"bike_id":"44da3e59-dcf2-4354-910f-f3fece0ed467","system_id":"levelo_inurba_marseille","lat":43.27064,"lon":5.42275,"is_reserved":false,"is_disabled":false,"rental_uris":{"android":"levelo://app?vid=44da3e59-dcf2-4354-910f-f3fece0ed467","ios":"levelo://app?vid=44da3e59-dcf2-4354-910f-f3fece0ed467"},"vehicle_type_id":"4","last_reported":1726838184,"current_range_meters":36800,"station_id":"ce4bhk92rcd13ifvqgb0","pricing_plan_id":"cebpf4jnsgd1na2vs0mg"},{"bike_id":"eb2ef9af-e9bb-4b94-aee1-3fb33b5e66f9","system_id":"levelo_inurba_marseille","lat":43.27989,"lon":5.41654,"is_reserved":false,"is_disabled":false,"rental_uris":{"android":"levelo://app?vid=eb2ef9af-e9bb-4b94-aee1-3fb33b5e66f9","ios":"levelo://app?vid=eb2ef9af-e9bb-4b94-aee1-3fb33b5e66f9"},"vehicle_type_id":"4","last_reported":1726838184,"current_range_meters":36800,"station_id":"ce4bho12rcd13ifvqh1g","pricing_plan_id":"cebpf4jnsgd1na2vs0mg"},{"bike_id":"b3709e79-c4a4-4e2b-95a5-ac09030928a9","system_id":"levelo_inurba_marseille","lat":43.3053,"lon":5.37272,"is_reserved":false,"is_disabled":false,"rental_uris":{"android":"levelo://app?vid=b3709e79-c4a4-4e2b-95a5-ac09030928a9","ios":"levelo://app?vid=b3709e79-c4a4-4e2b-95a5-ac09030928a9"},"vehicle_type_id":"4","last_reported":1726838184,"current_range_meters":40000,"station_id":"","pricing_plan_id":"cebpf4jnsgd1na2vs0mg"},{"bike_id":"b1856241-7156-43f2-bbff-450ad13a5cdb","system_id":"levelo_inurba_marseille","lat":43.32115,"lon":5.36771,"is_reserved":false,"is_disabled":false,"rental_uris":{"android":"levelo://app?vid=b1856241-7156-43f2-bbff-450ad13a5cdb","ios":"levelo://app?vid=b1856241-7156-43f2-bbff-450ad13a5cdb"},"vehicle_type_id":"4","last_reported":1726838184,"current_range_meters":33600,"station_id":"","pricing_plan_id":"cebpf4jnsgd1na2vs0mg"},{"bike_id":"9f8649e2-75d2-4d09-94ee-538fd13f9680","system_id":"levelo_inurba_marseille","lat":43.33605,"lon":5.41034,"is_reserved":false,"is_disabled":false,"rental_uris":{"android":"levelo://app?vid=9f8649e2-75d2-4d09-94ee-538fd13f9680","ios":"levelo://app?vid=9f8649e2-75d2-4d09-94ee-538fd13f9680"},"vehicle_type_id":"4","last_reported":1726838184,"current_range_meters":38800,"station_id":"ce4bhqh2rcd13ifvqhmg","pricing_plan_id":"cebpf4jnsgd1na2vs0mg"},{"bike_id":"c5cd5228-ec21-4eaa-8b37-9d0b588219b0","system_id":"levelo_inurba_marseille","lat":43.26688,"lon":5.38274,"is_reserved":false,"is_disabled":false,"rental_uris":{"android":"levelo://app?vid=c5cd5228-ec21-4eaa-8b37-9d0b588219b0","ios":"levelo://app?vid=c5cd5228-ec21-4eaa-8b37-9d0b588219b0"},"vehicle_type_id":"4","last_reported":1726838184,"current_range_meters":35200,"station_id":"ce4bhg92rcd13ifvqf90","pricing_plan_id":"cebpf4jnsgd1na2vs0mg"},{"bike_id":"9a2bc321-25af-42db-96d9-3dbb75bb9889","system_id":"levelo_inurba_marseille","lat":43.27608,"lon":5.36115,"is_reserved":false,"is_disabled":false,"rental_uris":{"android":"levelo://app?vid=9a2bc321-25af-42db-96d9-3dbb75bb9889","ios":"levelo://app?vid=9a2bc321-25af-42db-96d9-3dbb75bb9889"},"vehicle_type_id":"4","last_reported":1726838184,"current_range_meters":30800,"station_id":"ce4bgj92rcd13ifvqbe0","pricing_plan_id":"cebpf4jnsgd1na2vs0mg"},{"bike_id":"863e3475-58a1-4581-99e8-bff4eb5d4204","system_id":"levelo_inurba_marseille","lat":43.25119,"lon":5.40323,"is_reserved":false,"is_disabled":false,"rental_uris":{"android":"levelo://app?vid=863e3475-58a1-4581-99e8-bff4eb5d4204","ios":"levelo://app?vid=863e3475-58a1-4581-99e8-bff4eb5d4204"},"vehicle_type_id":"4","last_reported":1726838184,"current_range_meters":33600,"station_id":"ce4bhlh2rcd13ifvqgig","pricing_plan_id":"cebpf4jnsgd1na2vs0mg"},{"bike_id":"f52d1c94-c030-445a-9a07-7b2bc903c0df","system_id":"levelo_inurba_marseille","lat":43.29864,"lon":5.36281,"is_reserved":false,"is_disabled":false,"rental_uris":{"android":"levelo://app?vid=f52d1c94-c030-445a-9a07-7b2bc903c0df","ios":"levelo://app?vid=f52d1c94-c030-445a-9a07-7b2bc903c0df"},"vehicle_type_id":"4","last_reported":1726838184,"current_range_meters":33200,"station_id":"ce4bgpp2rcd13ifvqc3g","pricing_plan_id":"cebpf4jnsgd1na2vs0mg"},{"bike_id":"7b50d6d5-7fa5-437f-9bd0-20b7660c4900","system_id":"levelo_inurba_marseille","lat":43.2306,"lon":5.35491,"is_reserved":false,"is_disabled":false,"rental_uris":{"android":"levelo://app?vid=7b50d6d5-7fa5-437f-9bd0-20b7660c4900","ios":"levelo://app?vid=7b50d6d5-7fa5-437f-9bd0-20b7660c4900"},"vehicle_type_id":"4","last_reported":1726838184,"current_range_meters":8400,"station_id":"cpo3342slgdg3j2ifvpg","pricing_plan_id":"cebpf4jnsgd1na2vs0mg"},{"bike_id":"b91b3806-beb4-4a8e-af21-29139f4a48f9","system_id":"levelo_inurba_marseille","lat":43.33604,"lon":5.41028,"is_reserved":false,"is_disabled":false,"rental_uris":{"android":"levelo://app?vid=b91b3806-beb4-4a8e-af21-29139f4a48f9","ios":"levelo://app?vid=b91b3806-beb4-4a8e-af21-29139f4a48f9"},"vehicle_type_id":"4","last_reported":1726838184,"current_range_meters":38800,"station_id":"ce4bhqh2rcd13ifvqhmg","pricing_plan_id":"cebpf4jnsgd1na2vs0mg"},{"bike_id":"923be1b8-882a-445b-83fa-e72f0e039471","system_id":"levelo_inurba_marseille","lat":43.30541,"lon":5.36533,"is_reserved":false,"is_disabled":false,"rental_uris":{"android":"levelo://app?vid=923be1b8-882a-445b-83fa-e72f0e039471","ios":"levelo://app?vid=923be1b8-882a-445b-83fa-e72f0e039471"},"vehicle_type_id":"4","last_reported":1726838184,"current_range_meters":38800,"station_id":"ce4bgs12rcd13ifvqcag","pricing_plan_id":"cebpf4jnsgd1na2vs0mg"},{"bike_id":"270d5592-1fbb-4f25-9695-08e55ea71744","system_id":"levelo_inurba_marseille","lat":43.28707,"lon":5.39985,"is_reserved":false,"is_disabled":false,"rental_uris":{"android":"levelo://app?vid=270d5592-1fbb-4f25-9695-08e55ea71744","ios":"levelo://app?vid=270d5592-1fbb-4f25-9695-08e55ea71744"},"vehicle_type_id":"4","last_reported":1726838184,"current_range_meters":22800,"station_id":"ce4bho92rcd13ifvqh3g","pricing_plan_id":"cebpf4jnsgd1na2vs0mg"},{"bike_id":"4fa0ca0d-342c-4cd6-990b-f5e4ae40db2b","system_id":"levelo_inurba_marseille","lat":43.29963,"lon":5.41325,"is_reserved":false,"is_disabled":false,"rental_uris":{"android":"levelo://app?vid=4fa0ca0d-342c-4cd6-990b-f5e4ae40db2b","ios":"levelo://app?vid=4fa0ca0d-342c-4cd6-990b-f5e4ae40db2b"},"vehicle_type_id":"4","last_reported":1726838184,"current_range_meters":36400,"station_id":"ce4bhp12rcd13ifvqh9g","pricing_plan_id":"cebpf4jnsgd1na2vs0mg"},{"bike_id":"cd3eaafd-9606-46ca-8944-d5f34e2d95c6","system_id":"levelo_inurba_marseille","lat":43.24653,"lon":5.38895,"is_reserved":false,"is_disabled":false,"rental_uris":{"android":"levelo://app?vid=cd3eaafd-9606-46ca-8944-d5f34e2d95c6","ios":"levelo://app?vid=cd3eaafd-9606-46ca-8944-d5f34e2d95c6"},"vehicle_type_id":"4","last_reported":1726838184,"current_range_meters":39200,"station_id":"ce4bhg12rcd13ifvqf60","pricing_plan_id":"cebpf4jnsgd1na2vs0mg"},{"bike_id":"449261bb-899a-4310-b854-7a35f348edf5","system_id":"levelo_inurba_marseille","lat":43.29601,"lon":5.37722,"is_reserved":false,"is_disabled":false,"rental_uris":{"android":"levelo://app?vid=449261bb-899a-4310-b854-7a35f348edf5","ios":"levelo://app?vid=449261bb-899a-4310-b854-7a35f348edf5"},"vehicle_type_id":"4","last_reported":1726838184,"current_range_meters":3600,"station_id":"ce4bgi92rcd13ifvqb90","pricing_plan_id":"cebpf4jnsgd1na2vs0mg"},{"bike_id":"f8571aad-5f92-4ec9-b9ed-faec8639629b","system_id":"levelo_inurba_marseille","lat":43.3362,"lon":5.41019,"is_reserved":false,"is_disabled":false,"rental_uris":{"android":"levelo://app?vid=f8571aad-5f92-4ec9-b9ed-faec8639629b","ios":"levelo://app?vid=f8571aad-5f92-4ec9-b9ed-faec8639629b"},"vehicle_type_id":"4","last_reported":1726838184,"current_range_meters":16400,"station_id":"ce4bhqh2rcd13ifvqhmg","pricing_plan_id":"cebpf4jnsgd1na2vs0mg"},{"bike_id":"79c66cf1-cd91-4389-b17f-aaf81e94c310","system_id":"levelo_inurba_marseille","lat":43.2315,"lon":5.43726,"is_reserved":false,"is_disabled":false,"rental_uris":{"android":"levelo://app?vid=79c66cf1-cd91-4389-b17f-aaf81e94c310","ios":"levelo://app?vid=79c66cf1-cd91-4389-b17f-aaf81e94c310"},"vehicle_type_id":"4","last_reported":1726838184,"current_range_meters":28000,"station_id":"ce4bhmp2rcd13ifvqgog","pricing_plan_id":"cebpf4jnsgd1na2vs0mg"},{"bike_id":"00dfdf5b-b438-437d-8f0c-ba2223be61cf","system_id":"levelo_inurba_marseille","lat":43.30537,"lon":5.36545,"is_reserved":false,"is_disabled":false,"rental_uris":{"android":"levelo://app?vid=00dfdf5b-b438-437d-8f0c-ba2223be61cf","ios":"levelo://app?vid=00dfdf5b-b438-437d-8f0c-ba2223be61cf"},"vehicle_type_id":"4","last_reported":1726838184,"current_range_meters":28400,"station_id":"ce4bgs12rcd13ifvqcag","pricing_plan_id":"cebpf4jnsgd1na2vs0mg"},{"bike_id":"169e7ace-863f-4024-83c1-bef2c3d5b575","system_id":"levelo_inurba_marseille","lat":43.3046,"lon":5.37904,"is_reserved":false,"is_disabled":false,"rental_uris":{"android":"levelo://app?vid=169e7ace-863f-4024-83c1-bef2c3d5b575","ios":"levelo://app?vid=169e7ace-863f-4024-83c1-bef2c3d5b575"},"vehicle_type_id":"4","last_reported":1726838184,"current_range_meters":17600,"station_id":"ce4bgup2rcd13ifvqcn0","pricing_plan_id":"cebpf4jnsgd1na2vs0mg"},{"bike_id":"639f796e-de83-4b85-8939-1e0a3b10e422","system_id":"levelo_inurba_marseille","lat":43.25112,"lon":5.40328,"is_reserved":false,"is_disabled":false,"rental_uris":{"android":"levelo://app?vid=639f796e-de83-4b85-8939-1e0a3b10e422","ios":"levelo://app?vid=639f796e-de83-4b85-8939-1e0a3b10e422"},"vehicle_type_id":"4","last_reported":1726838184,"current_range_meters":30800,"station_id":"ce4bhlh2rcd13ifvqgig","pricing_plan_id":"cebpf4jnsgd1na2vs0mg"},{"bike_id":"dbc0fe31-5477-4d4d-a9ac-0afeb73488f9","system_id":"levelo_inurba_marseille","lat":43.26786,"lon":5.39417,"is_reserved":false,"is_disabled":false,"rental_uris":{"android":"levelo://app?vid=dbc0fe31-5477-4d4d-a9ac-0afeb73488f9","ios":"levelo://app?vid=dbc0fe31-5477-4d4d-a9ac-0afeb73488f9"},"vehicle_type_id":"4","last_reported":1726838184,"current_range_meters":38000,"station_id":"ce4bhh12rcd13ifvqfg0","pricing_plan_id":"cebpf4jnsgd1na2vs0mg"},{"bike_id":"686e01d7-4203-4cc2-ab34-b63dc5a76e35","system_id":"levelo_inurba_marseille","lat":43.26552,"lon":5.37284,"is_reserved":false,"is_disabled":false,"rental_uris":{"android":"levelo://app?vid=686e01d7-4203-4cc2-ab34-b63dc5a76e35","ios":"levelo://app?vid=686e01d7-4203-4cc2-ab34-b63dc5a76e35"},"vehicle_type_id":"4","last_reported":1726838184,"current_range_meters":31200,"station_id":"ce4bhg12rcd13ifvqf70","pricing_plan_id":"cebpf4jnsgd1na2vs0mg"},{"bike_id":"5705acbc-d503-4f36-a9f5-13b5f18aa34d","system_id":"levelo_inurba_marseille","lat":43.2395,"lon":5.36635,"is_reserved":false,"is_disabled":false,"rental_uris":{"android":"levelo://app?vid=5705acbc-d503-4f36-a9f5-13b5f18aa34d","ios":"levelo://app?vid=5705acbc-d503-4f36-a9f5-13b5f18aa34d"},"vehicle_type_id":"4","last_reported":1726838184,"current_range_meters":35600,"station_id":"ce4bhi12rcd13ifvqfp0","pricing_plan_id":"cebpf4jnsgd1na2vs0mg"},{"bike_id":"875b8486-c014-4ec7-a065-cb323a3ca57d","system_id":"levelo_inurba_marseille","lat":43.31713,"lon":5.43706,"is_reserved":false,"is_disabled":false,"rental_uris":{"android":"levelo://app?vid=875b8486-c014-4ec7-a065-cb323a3ca57d","ios":"levelo://app?vid=875b8486-c014-4ec7-a065-cb323a3ca57d"},"vehicle_type_id":"4","last_reported":1726838184,"current_range_meters":11600,"station_id":"ce4bhp92rcd13ifvqhcg","pricing_plan_id":"cebpf4jnsgd1na2vs0mg"},{"bike_id":"bc8f72a8-84f7-4ea2-80b8-bf1275de1200","system_id":"levelo_inurba_marseille","lat":43.26785,"lon":5.39413,"is_reserved":false,"is_disabled":false,"rental_uris":{"android":"levelo://app?vid=bc8f72a8-84f7-4ea2-80b8-bf1275de1200","ios":"levelo://app?vid=bc8f72a8-84f7-4ea2-80b8-bf1275de1200"},"vehicle_type_id":"4","last_reported":1726838184,"current_range_meters":34000,"station_id":"ce4bhh12rcd13ifvqfg0","pricing_plan_id":"cebpf4jnsgd1na2vs0mg"},{"bike_id":"7b9dd459-340b-4978-bfb0-6c163a5263e8","system_id":"levelo_inurba_marseille","lat":43.2319,"lon":5.35547,"is_reserved":false,"is_disabled":false,"rental_uris":{"android":"levelo://app?vid=7b9dd459-340b-4978-bfb0-6c163a5263e8","ios":"levelo://app?vid=7b9dd459-340b-4978-bfb0-6c163a5263e8"},"vehicle_type_id":"4","last_reported":1726838184,"current_range_meters":38400,"station_id":"ce4bhu92rcd13ifvqi70","pricing_plan_id":"cebpf4jnsgd1na2vs0mg"},{"bike_id":"537280a3-7a5a-469b-97b5-eadc397f12a5","system_id":"levelo_inurba_marseille","lat":43.28667,"lon":5.38662,"is_reserved":false,"is_disabled":false,"rental_uris":{"android":"levelo://app?vid=537280a3-7a5a-469b-97b5-eadc397f12a5","ios":"levelo://app?vid=537280a3-7a5a-469b-97b5-eadc397f12a5"},"vehicle_type_id":"4","last_reported":1726838184,"current_range_meters":14800,"station_id":"ce4bh492rcd13ifvqdug","pricing_plan_id":"cebpf4jnsgd1na2vs0mg"},{"bike_id":"c44b430a-77e5-4993-9836-2c7e9a96fdcf","system_id":"levelo_inurba_marseille","lat":43.29846,"lon":5.362744,"is_reserved":false,"is_disabled":false,"rental_uris":{"android":"levelo://app?vid=c44b430a-77e5-4993-9836-2c7e9a96fdcf","ios":"levelo://app?vid=c44b430a-77e5-4993-9836-2c7e9a96fdcf"},"vehicle_type_id":"4","last_reported":1726838184,"current_range_meters":22000,"station_id":"ce4bgnh2rcd13ifvqc0g","pricing_plan_id":"cebpf4jnsgd1na2vs0mg"},{"bike_id":"d3ce91d0-8c19-43ed-80cc-9d3a01a52181","system_id":"levelo_inurba_marseille","lat":43.31366,"lon":5.3849,"is_reserved":false,"is_disabled":false,"rental_uris":{"android":"levelo://app?vid=d3ce91d0-8c19-43ed-80cc-9d3a01a52181","ios":"levelo://app?vid=d3ce91d0-8c19-43ed-80cc-9d3a01a52181"},"vehicle_type_id":"4","last_reported":1726838184,"current_range_meters":18800,"station_id":"ce4bgt92rcd13ifvqcf0","pricing_plan_id":"cebpf4jnsgd1na2vs0mg"},{"bike_id":"1e6d8057-549c-4bb8-ba2a-70cf4f881530","system_id":"levelo_inurba_marseille","lat":43.30463,"lon":5.37901,"is_reserved":false,"is_disabled":false,"rental_uris":{"android":"levelo://app?vid=1e6d8057-549c-4bb8-ba2a-70cf4f881530","ios":"levelo://app?vid=1e6d8057-549c-4bb8-ba2a-70cf4f881530"},"vehicle_type_id":"4","last_reported":1726838184,"current_range_meters":31200,"station_id":"ce4bgup2rcd13ifvqcn0","pricing_plan_id":"cebpf4jnsgd1na2vs0mg"},{"bike_id":"bb2ba6dc-496c-4fcb-81e6-47b5ee972deb","system_id":"levelo_inurba_marseille","lat":43.24091,"lon":5.37725,"is_reserved":false,"is_disabled":false,"rental_uris":{"android":"levelo://app?vid=bb2ba6dc-496c-4fcb-81e6-47b5ee972deb","ios":"levelo://app?vid=bb2ba6dc-496c-4fcb-81e6-47b5ee972deb"},"vehicle_type_id":"4","last_reported":1726838184,"current_range_meters":27200,"station_id":"ce4bhnp2rcd13ifvqgvg","pricing_plan_id":"cebpf4jnsgd1na2vs0mg"},{"bike_id":"30d03598-4584-4809-9303-434479df300e","system_id":"levelo_inurba_marseille","lat":43.32487,"lon":5.36556,"is_reserved":false,"is_disabled":false,"rental_uris":{"android":"levelo://app?vid=30d03598-4584-4809-9303-434479df300e","ios":"levelo://app?vid=30d03598-4584-4809-9303-434479df300e"},"vehicle_type_id":"4","last_reported":1726838184,"current_range_meters":30000,"station_id":"ce4bhs12rcd13ifvqhvg","pricing_plan_id":"cebpf4jnsgd1na2vs0mg"},{"bike_id":"59526314-6814-428f-9df0-ead1cf1c2777","system_id":"levelo_inurba_marseille","lat":43.25934,"lon":5.40908,"is_reserved":false,"is_disabled":false,"rental_uris":{"android":"levelo://app?vid=59526314-6814-428f-9df0-ead1cf1c2777","ios":"levelo://app?vid=59526314-6814-428f-9df0-ead1cf1c2777"},"vehicle_type_id":"4","last_reported":1726838184,"current_range_meters":34000,"station_id":"ce4bhm92rcd13ifvqglg","pricing_plan_id":"cebpf4jnsgd1na2vs0mg"},{"bike_id":"0c0f402e-9945-488d-a1ed-d2118c57f15c","system_id":"levelo_inurba_marseille","lat":43.277582,"lon":5.383619,"is_reserved":false,"is_disabled":false,"rental_uris":{"android":"levelo://app?vid=0c0f402e-9945-488d-a1ed-d2118c57f15c","ios":"levelo://app?vid=0c0f402e-9945-488d-a1ed-d2118c57f15c"},"vehicle_type_id":"4","last_reported":1726838184,"current_range_meters":21600,"station_id":"ce4bhh92rcd13ifvqfi0","pricing_plan_id":"cebpf4jnsgd1na2vs0mg"},{"bike_id":"86bc35f8-0389-46cb-acfe-46726346329c","system_id":"levelo_inurba_marseille","lat":43.27494,"lon":5.42456,"is_reserved":false,"is_disabled":false,"rental_uris":{"android":"levelo://app?vid=86bc35f8-0389-46cb-acfe-46726346329c","ios":"levelo://app?vid=86bc35f8-0389-46cb-acfe-46726346329c"},"vehicle_type_id":"4","last_reported":1726838184,"current_range_meters":23200,"station_id":"ce4bhn92rcd13ifvqgrg","pricing_plan_id":"cebpf4jnsgd1na2vs0mg"},{"bike_id":"9d6aad91-3bde-49e8-a584-69fb053fee45","system_id":"levelo_inurba_marseille","lat":43.27997,"lon":5.40012,"is_reserved":false,"is_disabled":false,"rental_uris":{"android":"levelo://app?vid=9d6aad91-3bde-49e8-a584-69fb053fee45","ios":"levelo://app?vid=9d6aad91-3bde-49e8-a584-69fb053fee45"},"vehicle_type_id":"4","last_reported":1726838184,"current_range_meters":38000,"station_id":"ce4bho92rcd13ifvqh4g","pricing_plan_id":"cebpf4jnsgd1na2vs0mg"},{"bike_id":"83d4e477-f9eb-4c1a-a301-3ef614153056","system_id":"levelo_inurba_marseille","lat":43.31707,"lon":5.37747,"is_reserved":false,"is_disabled":false,"rental_uris":{"android":"levelo://app?vid=83d4e477-f9eb-4c1a-a301-3ef614153056","ios":"levelo://app?vid=83d4e477-f9eb-4c1a-a301-3ef614153056"},"vehicle_type_id":"4","last_reported":1726838184,"current_range_meters":17600,"station_id":"ce4bgth2rcd13ifvqch0","pricing_plan_id":"cebpf4jnsgd1na2vs0mg"},{"bike_id":"4eb8481f-4b6b-41fa-9e58-911b623f7c79","system_id":"levelo_inurba_marseille","lat":43.27499,"lon":5.42449,"is_reserved":false,"is_disabled":false,"rental_uris":{"android":"levelo://app?vid=4eb8481f-4b6b-41fa-9e58-911b623f7c79","ios":"levelo://app?vid=4eb8481f-4b6b-41fa-9e58-911b623f7c79"},"vehicle_type_id":"4","last_reported":1726838184,"current_range_meters":32400,"station_id":"ce4bhn92rcd13ifvqgrg","pricing_plan_id":"cebpf4jnsgd1na2vs0mg"},{"bike_id":"3bede82f-14c4-4863-ae11-6d132e584224","system_id":"levelo_inurba_marseille","lat":43.31222,"lon":5.36847,"is_reserved":false,"is_disabled":false,"rental_uris":{"android":"levelo://app?vid=3bede82f-14c4-4863-ae11-6d132e584224","ios":"levelo://app?vid=3bede82f-14c4-4863-ae11-6d132e584224"},"vehicle_type_id":"4","last_reported":1726838184,"current_range_meters":25600,"station_id":"ce4bgl92rcd13ifvqbq0","pricing_plan_id":"cebpf4jnsgd1na2vs0mg"},{"bike_id":"7b028058-ac11-4950-9891-e554edb6abb6","system_id":"levelo_inurba_marseille","lat":43.29574,"lon":5.37508,"is_reserved":false,"is_disabled":false,"rental_uris":{"android":"levelo://app?vid=7b028058-ac11-4950-9891-e554edb6abb6","ios":"levelo://app?vid=7b028058-ac11-4950-9891-e554edb6abb6"},"vehicle_type_id":"4","last_reported":1726838184,"current_range_meters":38800,"station_id":"ce4bgh92rcd13ifvqb50","pricing_plan_id":"cebpf4jnsgd1na2vs0mg"},{"bike_id":"d1aa10ef-e606-4c62-893c-fe3006772a50","system_id":"levelo_inurba_marseille","lat":43.27373,"lon":5.36256,"is_reserved":false,"is_disabled":false,"rental_uris":{"android":"levelo://app?vid=d1aa10ef-e606-4c62-893c-fe3006772a50","ios":"levelo://app?vid=d1aa10ef-e606-4c62-893c-fe3006772a50"},"vehicle_type_id":"4","last_reported":1726838184,"current_range_meters":35200,"station_id":"ce4bhbh2rcd13ifvqeo0","pricing_plan_id":"cebpf4jnsgd1na2vs0mg"},{"bike_id":"bc48981d-4e72-42b3-b28f-fa9b95699bdb","system_id":"levelo_inurba_marseille","lat":43.28925,"lon":5.38388,"is_reserved":false,"is_disabled":false,"rental_uris":{"android":"levelo://app?vid=bc48981d-4e72-42b3-b28f-fa9b95699bdb","ios":"levelo://app?vid=bc48981d-4e72-42b3-b28f-fa9b95699bdb"},"vehicle_type_id":"4","last_reported":1726838184,"current_range_meters":28800,"station_id":"ce4bh612rcd13ifvqe6g","pricing_plan_id":"cebpf4jnsgd1na2vs0mg"},{"bike_id":"625efc9f-ff46-4ca3-aaac-13f8f46af8bc","system_id":"levelo_inurba_marseille","lat":43.30955,"lon":5.39032,"is_reserved":false,"is_disabled":false,"rental_uris":{"android":"levelo://app?vid=625efc9f-ff46-4ca3-aaac-13f8f46af8bc","ios":"levelo://app?vid=625efc9f-ff46-4ca3-aaac-13f8f46af8bc"},"vehicle_type_id":"4","last_reported":1726838184,"current_range_meters":31200,"station_id":"ce4bgup2rcd13ifvqco0","pricing_plan_id":"cebpf4jnsgd1na2vs0mg"},{"bike_id":"ecb50cd3-a0b4-4340-8c56-963d0b4648f1","system_id":"levelo_inurba_marseille","lat":43.299622,"lon":5.384929,"is_reserved":false,"is_disabled":false,"rental_uris":{"android":"levelo://app?vid=ecb50cd3-a0b4-4340-8c56-963d0b4648f1","ios":"levelo://app?vid=ecb50cd3-a0b4-4340-8c56-963d0b4648f1"},"vehicle_type_id":"4","last_reported":1726838184,"current_range_meters":37600,"station_id":"ce4bgi12rcd13ifvqb70","pricing_plan_id":"cebpf4jnsgd1na2vs0mg"},{"bike_id":"de32a1cd-c09b-43e8-a6d0-56a22a46cda4","system_id":"levelo_inurba_marseille","lat":43.28076,"lon":5.39659,"is_reserved":false,"is_disabled":false,"rental_uris":{"android":"levelo://app?vid=de32a1cd-c09b-43e8-a6d0-56a22a46cda4","ios":"levelo://app?vid=de32a1cd-c09b-43e8-a6d0-56a22a46cda4"},"vehicle_type_id":"4","last_reported":1726838184,"current_range_meters":17200,"station_id":"ce4bho12rcd13ifvqh2g","pricing_plan_id":"cebpf4jnsgd1na2vs0mg"},{"bike_id":"e28d3b60-113b-4e6b-a860-6ecf9aa23df3","system_id":"levelo_inurba_marseille","lat":43.24814,"lon":5.37455,"is_reserved":false,"is_disabled":false,"rental_uris":{"android":"levelo://app?vid=e28d3b60-113b-4e6b-a860-6ecf9aa23df3","ios":"levelo://app?vid=e28d3b60-113b-4e6b-a860-6ecf9aa23df3"},"vehicle_type_id":"4","last_reported":1726838184,"current_range_meters":36800,"station_id":"ce4bhgh2rcd13ifvqfb0","pricing_plan_id":"cebpf4jnsgd1na2vs0mg"},{"bike_id":"e7037791-4996-4af8-8962-6d4f1eec3d24","system_id":"levelo_inurba_marseille","lat":43.26028,"lon":5.37547,"is_reserved":false,"is_disabled":false,"rental_uris":{"android":"levelo://app?vid=e7037791-4996-4af8-8962-6d4f1eec3d24","ios":"levelo://app?vid=e7037791-4996-4af8-8962-6d4f1eec3d24"},"vehicle_type_id":"4","last_reported":1726838184,"current_range_meters":4800,"station_id":"ce4bhgh2rcd13ifvqfa0","pricing_plan_id":"cebpf4jnsgd1na2vs0mg"},{"bike_id":"e64aabd5-f308-4cd5-b20b-7d0627efd6bc","system_id":"levelo_inurba_marseille","lat":43.33607,"lon":5.41034,"is_reserved":false,"is_disabled":false,"rental_uris":{"android":"levelo://app?vid=e64aabd5-f308-4cd5-b20b-7d0627efd6bc","ios":"levelo://app?vid=e64aabd5-f308-4cd5-b20b-7d0627efd6bc"},"vehicle_type_id":"4","last_reported":1726838184,"current_range_meters":38800,"station_id":"ce4bhqh2rcd13ifvqhmg","pricing_plan_id":"cebpf4jnsgd1na2vs0mg"},{"bike_id":"e828384b-42f2-4837-aa91-e7b5b8954ad2","system_id":"levelo_inurba_marseille","lat":43.29034,"lon":5.3814,"is_reserved":false,"is_disabled":false,"rental_uris":{"android":"levelo://app?vid=e828384b-42f2-4837-aa91-e7b5b8954ad2","ios":"levelo://app?vid=e828384b-42f2-4837-aa91-e7b5b8954ad2"},"vehicle_type_id":"4","last_reported":1726838184,"current_range_meters":10000,"station_id":"ce4bh4p2rcd13ifvqe1g","pricing_plan_id":"cebpf4jnsgd1na2vs0mg"},{"bike_id":"3f92bbb0-67da-49b7-a380-d3e998be8116","system_id":"levelo_inurba_marseille","lat":43.30535,"lon":5.36701,"is_reserved":false,"is_disabled":false,"rental_uris":{"android":"levelo://app?vid=3f92bbb0-67da-49b7-a380-d3e998be8116","ios":"levelo://app?vid=3f92bbb0-67da-49b7-a380-d3e998be8116"},"vehicle_type_id":"4","last_reported":1726838184,"current_range_meters":38800,"station_id":"ce4bgrp2rcd13ifvqc9g","pricing_plan_id":"cebpf4jnsgd1na2vs0mg"},{"bike_id":"4794d7a0-99e3-4ac8-b0ed-c690b1bad74f","system_id":"levelo_inurba_marseille","lat":43.3093,"lon":5.4015,"is_reserved":false,"is_disabled":false,"rental_uris":{"android":"levelo://app?vid=4794d7a0-99e3-4ac8-b0ed-c690b1bad74f","ios":"levelo://app?vid=4794d7a0-99e3-4ac8-b0ed-c690b1bad74f"},"vehicle_type_id":"4","last_reported":1726838184,"current_range_meters":22400,"station_id":"ce4bgvp2rcd13ifvqct0","pricing_plan_id":"cebpf4jnsgd1na2vs0mg"},{"bike_id":"f53b2445-da7b-4590-8447-3531ea2abea4","system_id":"levelo_inurba_marseille","lat":43.26952,"lon":5.3864,"is_reserved":false,"is_disabled":false,"rental_uris":{"android":"levelo://app?vid=f53b2445-da7b-4590-8447-3531ea2abea4","ios":"levelo://app?vid=f53b2445-da7b-4590-8447-3531ea2abea4"},"vehicle_type_id":"4","last_reported":1726838184,"current_range_meters":38400,"station_id":"ce4bhh92rcd13ifvqfh0","pricing_plan_id":"cebpf4jnsgd1na2vs0mg"},{"bike_id":"4cbb3326-6b53-47f5-a30a-4777541db09e","system_id":"levelo_inurba_marseille","lat":43.306391,"lon":5.400789,"is_reserved":false,"is_disabled":false,"rental_uris":{"android":"levelo://app?vid=4cbb3326-6b53-47f5-a30a-4777541db09e","ios":"levelo://app?vid=4cbb3326-6b53-47f5-a30a-4777541db09e"},"vehicle_type_id":"4","last_reported":1726838184,"current_range_meters":6800,"station_id":"cjm6bp8fraef2m0cb0m0","pricing_plan_id":"cebpf4jnsgd1na2vs0mg"},{"bike_id":"7aa47c6a-b977-485d-b15d-c36c15e25358","system_id":"levelo_inurba_marseille","lat":43.29031,"lon":5.37577,"is_reserved":false,"is_disabled":false,"rental_uris":{"android":"levelo://app?vid=7aa47c6a-b977-485d-b15d-c36c15e25358","ios":"levelo://app?vid=7aa47c6a-b977-485d-b15d-c36c15e25358"},"vehicle_type_id":"4","last_reported":1726838184,"current_range_meters":13600,"station_id":"ce4bh692rcd13ifvqe90","pricing_plan_id":"cebpf4jnsgd1na2vs0mg"},{"bike_id":"703399ba-2e0f-47e7-948f-7f5e6448f708","system_id":"levelo_inurba_marseille","lat":43.2706,"lon":5.4026,"is_reserved":false,"is_disabled":false,"rental_uris":{"android":"levelo://app?vid=703399ba-2e0f-47e7-948f-7f5e6448f708","ios":"levelo://app?vid=703399ba-2e0f-47e7-948f-7f5e6448f708"},"vehicle_type_id":"4","last_reported":1726838184,"current_range_meters":12400,"station_id":"ce4bhk92rcd13ifvqgc0","pricing_plan_id":"cebpf4jnsgd1na2vs0mg"},{"bike_id":"db5bed51-afb9-4548-98e9-7b7ae226c501","system_id":"levelo_inurba_marseille","lat":43.33756,"lon":5.37453,"is_reserved":false,"is_disabled":false,"rental_uris":{"android":"levelo://app?vid=db5bed51-afb9-4548-98e9-7b7ae226c501","ios":"levelo://app?vid=db5bed51-afb9-4548-98e9-7b7ae226c501"},"vehicle_type_id":"4","last_reported":1726838184,"current_range_meters":14800,"station_id":"","pricing_plan_id":"cebpf4jnsgd1na2vs0mg"},{"bike_id":"32692715-53dd-4a36-afcd-7e32287d7a18","system_id":"levelo_inurba_marseille","lat":43.29072,"lon":5.37163,"is_reserved":false,"is_disabled":false,"rental_uris":{"android":"levelo://app?vid=32692715-53dd-4a36-afcd-7e32287d7a18","ios":"levelo://app?vid=32692715-53dd-4a36-afcd-7e32287d7a18"},"vehicle_type_id":"4","last_reported":1726838184,"current_range_meters":28800,"station_id":"ce4bh5p2rcd13ifvqe4g","pricing_plan_id":"cebpf4jnsgd1na2vs0mg"},{"bike_id":"9f661f02-a0fe-4be0-938a-abeb24e7e6af","system_id":"levelo_inurba_marseille","lat":43.29876,"lon":5.3975,"is_reserved":false,"is_disabled":false,"rental_uris":{"android":"levelo://app?vid=9f661f02-a0fe-4be0-938a-abeb24e7e6af","ios":"levelo://app?vid=9f661f02-a0fe-4be0-938a-abeb24e7e6af"},"vehicle_type_id":"4","last_reported":1726838184,"current_range_meters":22000,"station_id":"ce4bh0h2rcd13ifvqd50","pricing_plan_id":"cebpf4jnsgd1na2vs0mg"},{"bike_id":"4f6cd953-65f5-4d4f-a052-70118d864e1d","system_id":"levelo_inurba_marseille","lat":43.29899,"lon":5.43669,"is_reserved":false,"is_disabled":false,"rental_uris":{"android":"levelo://app?vid=4f6cd953-65f5-4d4f-a052-70118d864e1d","ios":"levelo://app?vid=4f6cd953-65f5-4d4f-a052-70118d864e1d"},"vehicle_type_id":"4","last_reported":1726838184,"current_range_meters":14000,"station_id":"ce4bhpp2rcd13ifvqhfg","pricing_plan_id":"cebpf4jnsgd1na2vs0mg"},{"bike_id":"bf34637a-8f06-43b2-b9ab-4f94372b943f","system_id":"levelo_inurba_marseille","lat":43.25727,"lon":5.41108,"is_reserved":false,"is_disabled":false,"rental_uris":{"android":"levelo://app?vid=bf34637a-8f06-43b2-b9ab-4f94372b943f","ios":"levelo://app?vid=bf34637a-8f06-43b2-b9ab-4f94372b943f"},"vehicle_type_id":"4","last_reported":1726838184,"current_range_meters":37600,"station_id":"ce4bhkp2rcd13ifvqgd0","pricing_plan_id":"cebpf4jnsgd1na2vs0mg"},{"bike_id":"9b6f890d-12d7-49a1-91b9-25d312f6fbd2","system_id":"levelo_inurba_marseille","lat":43.269411,"lon":5.402596,"is_reserved":false,"is_disabled":false,"rental_uris":{"android":"levelo://app?vid=9b6f890d-12d7-49a1-91b9-25d312f6fbd2","ios":"levelo://app?vid=9b6f890d-12d7-49a1-91b9-25d312f6fbd2"},"vehicle_type_id":"4","last_reported":1726838184,"current_range_meters":23200,"station_id":"cjm6bp8fraef2m0cb0m0","pricing_plan_id":"cebpf4jnsgd1na2vs0mg"},{"bike_id":"58208f7a-a3d3-484d-af71-4821be6fd689","system_id":"levelo_inurba_marseille","lat":43.33612,"lon":5.41034,"is_reserved":false,"is_disabled":false,"rental_uris":{"android":"levelo://app?vid=58208f7a-a3d3-484d-af71-4821be6fd689","ios":"levelo://app?vid=58208f7a-a3d3-484d-af71-4821be6fd689"},"vehicle_type_id":"4","last_reported":1726838184,"current_range_meters":5600,"station_id":"ce4bhqh2rcd13ifvqhmg","pricing_plan_id":"cebpf4jnsgd1na2vs0mg"},{"bike_id":"7705fd89-6d11-45ce-b917-dbb6d20390d4","system_id":"levelo_inurba_marseille","lat":43.28703,"lon":5.39987,"is_reserved":false,"is_disabled":false,"rental_uris":{"android":"levelo://app?vid=7705fd89-6d11-45ce-b917-dbb6d20390d4","ios":"levelo://app?vid=7705fd89-6d11-45ce-b917-dbb6d20390d4"},"vehicle_type_id":"4","last_reported":1726838184,"current_range_meters":38800,"station_id":"ce4bho92rcd13ifvqh3g","pricing_plan_id":"cebpf4jnsgd1na2vs0mg"},{"bike_id":"1add511c-3dc4-4439-9e24-c548669c707c","system_id":"levelo_inurba_marseille","lat":43.26569,"lon":5.39001,"is_reserved":false,"is_disabled":false,"rental_uris":{"android":"levelo://app?vid=1add511c-3dc4-4439-9e24-c548669c707c","ios":"levelo://app?vid=1add511c-3dc4-4439-9e24-c548669c707c"},"vehicle_type_id":"4","last_reported":1726838184,"current_range_meters":26000,"station_id":"ce4bhe12rcd13ifvqf30","pricing_plan_id":"cebpf4jnsgd1na2vs0mg"},{"bike_id":"dca7a43e-2a7d-49fc-b84f-68cd331d5a9a","system_id":"levelo_inurba_marseille","lat":43.30459,"lon":5.37909,"is_reserved":false,"is_disabled":false,"rental_uris":{"android":"levelo://app?vid=dca7a43e-2a7d-49fc-b84f-68cd331d5a9a","ios":"levelo://app?vid=dca7a43e-2a7d-49fc-b84f-68cd331d5a9a"},"vehicle_type_id":"4","last_reported":1726838184,"current_range_meters":34000,"station_id":"ce4bgup2rcd13ifvqcn0","pricing_plan_id":"cebpf4jnsgd1na2vs0mg"},{"bike_id":"b87c8417-c59f-418d-bd60-25eb8e63567c","system_id":"levelo_inurba_marseille","lat":43.30533,"lon":5.36702,"is_reserved":false,"is_disabled":false,"rental_uris":{"android":"levelo://app?vid=b87c8417-c59f-418d-bd60-25eb8e63567c","ios":"levelo://app?vid=b87c8417-c59f-418d-bd60-25eb8e63567c"},"vehicle_type_id":"4","last_reported":1726838184,"current_range_meters":25200,"station_id":"ce4bgrp2rcd13ifvqc9g","pricing_plan_id":"cebpf4jnsgd1na2vs0mg"},{"bike_id":"d5a5bdea-8f6b-47a4-9751-4cdc48a1716e","system_id":"levelo_inurba_marseille","lat":43.30782,"lon":5.37653,"is_reserved":false,"is_disabled":false,"rental_uris":{"android":"levelo://app?vid=d5a5bdea-8f6b-47a4-9751-4cdc48a1716e","ios":"levelo://app?vid=d5a5bdea-8f6b-47a4-9751-4cdc48a1716e"},"vehicle_type_id":"4","last_reported":1726838184,"current_range_meters":9600,"station_id":"ce4bgv92rcd13ifvqcq0","pricing_plan_id":"cebpf4jnsgd1na2vs0mg"},{"bike_id":"dfa25865-d491-4319-ac0d-4a43b0719215","system_id":"levelo_inurba_marseille","lat":43.32488,"lon":5.3657,"is_reserved":false,"is_disabled":false,"rental_uris":{"android":"levelo://app?vid=dfa25865-d491-4319-ac0d-4a43b0719215","ios":"levelo://app?vid=dfa25865-d491-4319-ac0d-4a43b0719215"},"vehicle_type_id":"4","last_reported":1726838184,"current_range_meters":6800,"station_id":"ce4bhs12rcd13ifvqhvg","pricing_plan_id":"cebpf4jnsgd1na2vs0mg"},{"bike_id":"690445ec-2dba-4594-936e-3ef8e30061aa","system_id":"levelo_inurba_marseille","lat":43.31339,"lon":5.36704,"is_reserved":false,"is_disabled":false,"rental_uris":{"android":"levelo://app?vid=690445ec-2dba-4594-936e-3ef8e30061aa","ios":"levelo://app?vid=690445ec-2dba-4594-936e-3ef8e30061aa"},"vehicle_type_id":"4","last_reported":1726838184,"current_range_meters":38800,"station_id":"ce4bgr92rcd13ifvqc6g","pricing_plan_id":"cebpf4jnsgd1na2vs0mg"},{"bike_id":"58014cc6-4f39-4119-a8a0-cdc0e2507820","system_id":"levelo_inurba_marseille","lat":43.32286,"lon":5.38251,"is_reserved":false,"is_disabled":false,"rental_uris":{"android":"levelo://app?vid=58014cc6-4f39-4119-a8a0-cdc0e2507820","ios":"levelo://app?vid=58014cc6-4f39-4119-a8a0-cdc0e2507820"},"vehicle_type_id":"4","last_reported":1726838184,"current_range_meters":38800,"station_id":"ce4bhr12rcd13ifvqhqg","pricing_plan_id":"cebpf4jnsgd1na2vs0mg"},{"bike_id":"ef624d56-a7a7-464b-a94e-cfeccf75702c","system_id":"levelo_inurba_marseille","lat":43.274247,"lon":5.39417,"is_reserved":false,"is_disabled":false,"rental_uris":{"android":"levelo://app?vid=ef624d56-a7a7-464b-a94e-cfeccf75702c","ios":"levelo://app?vid=ef624d56-a7a7-464b-a94e-cfeccf75702c"},"vehicle_type_id":"4","last_reported":1726838184,"current_range_meters":37600,"station_id":"ce4bhdp2rcd13ifvqf20","pricing_plan_id":"cebpf4jnsgd1na2vs0mg"},{"bike_id":"bce83964-771d-421d-a795-c2b376c5b9dc","system_id":"levelo_inurba_marseille","lat":43.23203,"lon":5.35555,"is_reserved":false,"is_disabled":false,"rental_uris":{"android":"levelo://app?vid=bce83964-771d-421d-a795-c2b376c5b9dc","ios":"levelo://app?vid=bce83964-771d-421d-a795-c2b376c5b9dc"},"vehicle_type_id":"4","last_reported":1726838184,"current_range_meters":18800,"station_id":"ce4bhu92rcd13ifvqi70","pricing_plan_id":"cebpf4jnsgd1na2vs0mg"},{"bike_id":"2dc76788-8eef-4864-884f-207dd12d3166","system_id":"levelo_inurba_marseille","lat":43.33026,"lon":5.39045,"is_reserved":false,"is_disabled":false,"rental_uris":{"android":"levelo://app?vid=2dc76788-8eef-4864-884f-207dd12d3166","ios":"levelo://app?vid=2dc76788-8eef-4864-884f-207dd12d3166"},"vehicle_type_id":"4","last_reported":1726838184,"current_range_meters":14800,"station_id":"ce4bhr92rcd13ifvqhrg","pricing_plan_id":"cebpf4jnsgd1na2vs0mg"},{"bike_id":"d8b60e79-3eae-4454-8b43-e081e1a275eb","system_id":"levelo_inurba_marseille","lat":43.29565,"lon":5.37503,"is_reserved":false,"is_disabled":false,"rental_uris":{"android":"levelo://app?vid=d8b60e79-3eae-4454-8b43-e081e1a275eb","ios":"levelo://app?vid=d8b60e79-3eae-4454-8b43-e081e1a275eb"},"vehicle_type_id":"4","last_reported":1726838184,"current_range_meters":39200,"station_id":"ce4bgh92rcd13ifvqb50","pricing_plan_id":"cebpf4jnsgd1na2vs0mg"},{"bike_id":"caa6f7e5-7d39-4b0a-abcc-14754b00760d","system_id":"levelo_inurba_marseille","lat":43.31169,"lon":5.38713,"is_reserved":false,"is_disabled":false,"rental_uris":{"android":"levelo://app?vid=caa6f7e5-7d39-4b0a-abcc-14754b00760d","ios":"levelo://app?vid=caa6f7e5-7d39-4b0a-abcc-14754b00760d"},"vehicle_type_id":"4","last_reported":1726838184,"current_range_meters":38800,"station_id":"ce4bgv12rcd13ifvqcp0","pricing_plan_id":"cebpf4jnsgd1na2vs0mg"},{"bike_id":"85499bde-a19e-41bd-b75c-be558ed883f3","system_id":"levelo_inurba_marseille","lat":43.3047,"lon":5.37916,"is_reserved":false,"is_disabled":false,"rental_uris":{"android":"levelo://app?vid=85499bde-a19e-41bd-b75c-be558ed883f3","ios":"levelo://app?vid=85499bde-a19e-41bd-b75c-be558ed883f3"},"vehicle_type_id":"4","last_reported":1726838184,"current_range_meters":29600,"station_id":"ce4bgup2rcd13ifvqcn0","pricing_plan_id":"cebpf4jnsgd1na2vs0mg"},{"bike_id":"1a20ed82-ee25-4355-b854-48750e73d671","system_id":"levelo_inurba_marseille","lat":43.30462,"lon":5.37905,"is_reserved":false,"is_disabled":false,"rental_uris":{"android":"levelo://app?vid=1a20ed82-ee25-4355-b854-48750e73d671","ios":"levelo://app?vid=1a20ed82-ee25-4355-b854-48750e73d671"},"vehicle_type_id":"4","last_reported":1726838184,"current_range_meters":38800,"station_id":"ce4bgup2rcd13ifvqcn0","pricing_plan_id":"cebpf4jnsgd1na2vs0mg"},{"bike_id":"09dfc17d-fb02-448d-8ad0-1e719fe3c242","system_id":"levelo_inurba_marseille","lat":43.28608,"lon":5.37067,"is_reserved":false,"is_disabled":false,"rental_uris":{"android":"levelo://app?vid=09dfc17d-fb02-448d-8ad0-1e719fe3c242","ios":"levelo://app?vid=09dfc17d-fb02-448d-8ad0-1e719fe3c242"},"vehicle_type_id":"4","last_reported":1726838184,"current_range_meters":24800,"station_id":"ce4bht12rcd13ifvqi60","pricing_plan_id":"cebpf4jnsgd1na2vs0mg"},{"bike_id":"962eaf4f-cafc-4235-ae2b-a9fd5f65e0a0","system_id":"levelo_inurba_marseille","lat":43.29217,"lon":5.36049,"is_reserved":false,"is_disabled":false,"rental_uris":{"android":"levelo://app?vid=962eaf4f-cafc-4235-ae2b-a9fd5f65e0a0","ios":"levelo://app?vid=962eaf4f-cafc-4235-ae2b-a9fd5f65e0a0"},"vehicle_type_id":"4","last_reported":1726838184,"current_range_meters":30400,"station_id":"ce4bhbh2rcd13ifvqeqg","pricing_plan_id":"cebpf4jnsgd1na2vs0mg"},{"bike_id":"d66b8cc1-7c45-462b-a590-d9f30ff20be4","system_id":"levelo_inurba_marseille","lat":43.29607,"lon":5.37739,"is_reserved":false,"is_disabled":false,"rental_uris":{"android":"levelo://app?vid=d66b8cc1-7c45-462b-a590-d9f30ff20be4","ios":"levelo://app?vid=d66b8cc1-7c45-462b-a590-d9f30ff20be4"},"vehicle_type_id":"4","last_reported":1726838184,"current_range_meters":33200,"station_id":"ce4bgi92rcd13ifvqb90","pricing_plan_id":"cebpf4jnsgd1na2vs0mg"},{"bike_id":"4e0985c7-90e8-4a50-8bde-1b1536b994c4","system_id":"levelo_inurba_marseille","lat":43.31753,"lon":5.39023,"is_reserved":false,"is_disabled":false,"rental_uris":{"android":"levelo://app?vid=4e0985c7-90e8-4a50-8bde-1b1536b994c4","ios":"levelo://app?vid=4e0985c7-90e8-4a50-8bde-1b1536b994c4"},"vehicle_type_id":"4","last_reported":1726838184,"current_range_meters":38000,"station_id":"ce4bhqp2rcd13ifvqhng","pricing_plan_id":"cebpf4jnsgd1na2vs0mg"},{"bike_id":"fa2e946d-01fe-4bb4-a2b0-55af60a0bcec","system_id":"levelo_inurba_marseille","lat":43.33727,"lon":5.39183,"is_reserved":false,"is_disabled":false,"rental_uris":{"android":"levelo://app?vid=fa2e946d-01fe-4bb4-a2b0-55af60a0bcec","ios":"levelo://app?vid=fa2e946d-01fe-4bb4-a2b0-55af60a0bcec"},"vehicle_type_id":"4","last_reported":1726838184,"current_range_meters":36400,"station_id":"ce4bhr92rcd13ifvqhsg","pricing_plan_id":"cebpf4jnsgd1na2vs0mg"},{"bike_id":"c33add25-123c-4b36-8cf5-b7923beb3261","system_id":"levelo_inurba_marseille","lat":43.32481,"lon":5.36573,"is_reserved":false,"is_disabled":false,"rental_uris":{"android":"levelo://app?vid=c33add25-123c-4b36-8cf5-b7923beb3261","ios":"levelo://app?vid=c33add25-123c-4b36-8cf5-b7923beb3261"},"vehicle_type_id":"4","last_reported":1726838184,"current_range_meters":20400,"station_id":"ce4bhs12rcd13ifvqhvg","pricing_plan_id":"cebpf4jnsgd1na2vs0mg"},{"bike_id":"a5fac898-9562-4cb4-8ddf-882b822b4635","system_id":"levelo_inurba_marseille","lat":43.2965,"lon":5.37698,"is_reserved":false,"is_disabled":false,"rental_uris":{"android":"levelo://app?vid=a5fac898-9562-4cb4-8ddf-882b822b4635","ios":"levelo://app?vid=a5fac898-9562-4cb4-8ddf-882b822b4635"},"vehicle_type_id":"4","last_reported":1726838184,"current_range_meters":12800,"station_id":"ce4bgi92rcd13ifvqb90","pricing_plan_id":"cebpf4jnsgd1na2vs0mg"},{"bike_id":"2eb49f73-b3a0-4ea0-9f85-131088d037f3","system_id":"levelo_inurba_marseille","lat":43.29211,"lon":5.36046,"is_reserved":false,"is_disabled":false,"rental_uris":{"android":"levelo://app?vid=2eb49f73-b3a0-4ea0-9f85-131088d037f3","ios":"levelo://app?vid=2eb49f73-b3a0-4ea0-9f85-131088d037f3"},"vehicle_type_id":"4","last_reported":1726838184,"current_range_meters":20000,"station_id":"ce4bhbh2rcd13ifvqeqg","pricing_plan_id":"cebpf4jnsgd1na2vs0mg"},{"bike_id":"47ba5d81-4f1e-4672-8fae-e808f171faaa","system_id":"levelo_inurba_marseille","lat":43.33023,"lon":5.39038,"is_reserved":false,"is_disabled":false,"rental_uris":{"android":"levelo://app?vid=47ba5d81-4f1e-4672-8fae-e808f171faaa","ios":"levelo://app?vid=47ba5d81-4f1e-4672-8fae-e808f171faaa"},"vehicle_type_id":"4","last_reported":1726838184,"current_range_meters":5600,"station_id":"ce4bhr92rcd13ifvqhrg","pricing_plan_id":"cebpf4jnsgd1na2vs0mg"},{"bike_id":"3fb11e53-4df8-4597-ab69-14defbdd307d","system_id":"levelo_inurba_marseille","lat":43.31118,"lon":5.37761,"is_reserved":false,"is_disabled":false,"rental_uris":{"android":"levelo://app?vid=3fb11e53-4df8-4597-ab69-14defbdd307d","ios":"levelo://app?vid=3fb11e53-4df8-4597-ab69-14defbdd307d"},"vehicle_type_id":"4","last_reported":1726838184,"current_range_meters":17600,"station_id":"ce4bgt92rcd13ifvqcg0","pricing_plan_id":"cebpf4jnsgd1na2vs0mg"},{"bike_id":"8a86b40e-7112-48a7-aef0-1e7e096f55d7","system_id":"levelo_inurba_marseille","lat":43.32542,"lon":5.41426,"is_reserved":false,"is_disabled":false,"rental_uris":{"android":"levelo://app?vid=8a86b40e-7112-48a7-aef0-1e7e096f55d7","ios":"levelo://app?vid=8a86b40e-7112-48a7-aef0-1e7e096f55d7"},"vehicle_type_id":"4","last_reported":1726838184,"current_range_meters":9600,"station_id":"ce4bhq12rcd13ifvqhhg","pricing_plan_id":"cebpf4jnsgd1na2vs0mg"},{"bike_id":"6b115e8d-26ac-47ee-a056-2a4cbb4e5da9","system_id":"levelo_inurba_marseille","lat":43.28706,"lon":5.39985,"is_reserved":false,"is_disabled":false,"rental_uris":{"android":"levelo://app?vid=6b115e8d-26ac-47ee-a056-2a4cbb4e5da9","ios":"levelo://app?vid=6b115e8d-26ac-47ee-a056-2a4cbb4e5da9"},"vehicle_type_id":"4","last_reported":1726838184,"current_range_meters":28000,"station_id":"ce4bho92rcd13ifvqh3g","pricing_plan_id":"cebpf4jnsgd1na2vs0mg"},{"bike_id":"5652d86d-c636-47c3-8ee4-ecb04015c474","system_id":"levelo_inurba_marseille","lat":43.337444,"lon":5.374475,"is_reserved":false,"is_disabled":false,"rental_uris":{"android":"levelo://app?vid=5652d86d-c636-47c3-8ee4-ecb04015c474","ios":"levelo://app?vid=5652d86d-c636-47c3-8ee4-ecb04015c474"},"vehicle_type_id":"4","last_reported":1726838184,"current_range_meters":24400,"station_id":"","pricing_plan_id":"cebpf4jnsgd1na2vs0mg"},{"bike_id":"4a450d32-cb61-4ef5-8d5d-7d1d336348d8","system_id":"levelo_inurba_marseille","lat":43.30405,"lon":5.36527,"is_reserved":false,"is_disabled":false,"rental_uris":{"android":"levelo://app?vid=4a450d32-cb61-4ef5-8d5d-7d1d336348d8","ios":"levelo://app?vid=4a450d32-cb61-4ef5-8d5d-7d1d336348d8"},"vehicle_type_id":"4","last_reported":1726838184,"current_range_meters":19600,"station_id":"ce4bgi92rcd13ifvqb90","pricing_plan_id":"cebpf4jnsgd1na2vs0mg"},{"bike_id":"8c9b599e-07c0-4803-bac6-aa180391d235","system_id":"levelo_inurba_marseille","lat":43.26559,"lon":5.37283,"is_reserved":false,"is_disabled":false,"rental_uris":{"android":"levelo://app?vid=8c9b599e-07c0-4803-bac6-aa180391d235","ios":"levelo://app?vid=8c9b599e-07c0-4803-bac6-aa180391d235"},"vehicle_type_id":"4","last_reported":1726838184,"current_range_meters":28800,"station_id":"ce4bhg12rcd13ifvqf70","pricing_plan_id":"cebpf4jnsgd1na2vs0mg"},{"bike_id":"d5546a56-cc14-4883-a464-16d02cb7a49c","system_id":"levelo_inurba_marseille","lat":43.31713,"lon":5.43707,"is_reserved":false,"is_disabled":false,"rental_uris":{"android":"levelo://app?vid=d5546a56-cc14-4883-a464-16d02cb7a49c","ios":"levelo://app?vid=d5546a56-cc14-4883-a464-16d02cb7a49c"},"vehicle_type_id":"4","last_reported":1726838184,"current_range_meters":30800,"station_id":"ce4bhp92rcd13ifvqhcg","pricing_plan_id":"cebpf4jnsgd1na2vs0mg"},{"bike_id":"2fc4fe70-ba40-4869-afc6-7a1d5eb483df","system_id":"levelo_inurba_marseille","lat":43.28941,"lon":5.38393,"is_reserved":false,"is_disabled":false,"rental_uris":{"android":"levelo://app?vid=2fc4fe70-ba40-4869-afc6-7a1d5eb483df","ios":"levelo://app?vid=2fc4fe70-ba40-4869-afc6-7a1d5eb483df"},"vehicle_type_id":"4","last_reported":1726838184,"current_range_meters":28400,"station_id":"ce4bh612rcd13ifvqe6g","pricing_plan_id":"cebpf4jnsgd1na2vs0mg"},{"bike_id":"e37ad71d-11ca-43be-a836-cc67a09fa5ab","system_id":"levelo_inurba_marseille","lat":43.22931,"lon":5.35377,"is_reserved":false,"is_disabled":false,"rental_uris":{"android":"levelo://app?vid=e37ad71d-11ca-43be-a836-cc67a09fa5ab","ios":"levelo://app?vid=e37ad71d-11ca-43be-a836-cc67a09fa5ab"},"vehicle_type_id":"4","last_reported":1726838184,"current_range_meters":34800,"station_id":"cpo3532slgdg3j2ikp40","pricing_plan_id":"cebpf4jnsgd1na2vs0mg"},{"bike_id":"ff56d79d-3b2a-488f-a36e-d247d0264b25","system_id":"levelo_inurba_marseille","lat":43.29634,"lon":5.40598,"is_reserved":false,"is_disabled":false,"rental_uris":{"android":"levelo://app?vid=ff56d79d-3b2a-488f-a36e-d247d0264b25","ios":"levelo://app?vid=ff56d79d-3b2a-488f-a36e-d247d0264b25"},"vehicle_type_id":"4","last_reported":1726838184,"current_range_meters":14800,"station_id":"ce4bh0h2rcd13ifvqd60","pricing_plan_id":"cebpf4jnsgd1na2vs0mg"},{"bike_id":"fa690805-233a-4a70-a9f3-33f1b67cdb1f","system_id":"levelo_inurba_marseille","lat":43.32295,"lon":5.38256,"is_reserved":false,"is_disabled":false,"rental_uris":{"android":"levelo://app?vid=fa690805-233a-4a70-a9f3-33f1b67cdb1f","ios":"levelo://app?vid=fa690805-233a-4a70-a9f3-33f1b67cdb1f"},"vehicle_type_id":"4","last_reported":1726838184,"current_range_meters":17600,"station_id":"ce4bhr12rcd13ifvqhqg","pricing_plan_id":"cebpf4jnsgd1na2vs0mg"},{"bike_id":"577e435a-f36c-4883-b6f0-c48021798d60","system_id":"levelo_inurba_marseille","lat":43.23152,"lon":5.43708,"is_reserved":false,"is_disabled":false,"rental_uris":{"android":"levelo://app?vid=577e435a-f36c-4883-b6f0-c48021798d60","ios":"levelo://app?vid=577e435a-f36c-4883-b6f0-c48021798d60"},"vehicle_type_id":"4","last_reported":1726838184,"current_range_meters":38800,"station_id":"ce4bhmp2rcd13ifvqgog","pricing_plan_id":"cebpf4jnsgd1na2vs0mg"},{"bike_id":"763cca13-3e86-4c54-853b-9a992582ef1b","system_id":"levelo_inurba_marseille","lat":43.28755,"lon":5.36173,"is_reserved":false,"is_disabled":false,"rental_uris":{"android":"levelo://app?vid=763cca13-3e86-4c54-853b-9a992582ef1b","ios":"levelo://app?vid=763cca13-3e86-4c54-853b-9a992582ef1b"},"vehicle_type_id":"4","last_reported":1726838184,"current_range_meters":8000,"station_id":"cki0cbj6b192h4jlfktg","pricing_plan_id":"cebpf4jnsgd1na2vs0mg"},{"bike_id":"728a6da4-dd0c-42ed-bc4c-72c30d202825","system_id":"levelo_inurba_marseille","lat":43.32481,"lon":5.36558,"is_reserved":false,"is_disabled":false,"rental_uris":{"android":"levelo://app?vid=728a6da4-dd0c-42ed-bc4c-72c30d202825","ios":"levelo://app?vid=728a6da4-dd0c-42ed-bc4c-72c30d202825"},"vehicle_type_id":"4","last_reported":1726838184,"current_range_meters":26800,"station_id":"ce4bhs12rcd13ifvqhvg","pricing_plan_id":"cebpf4jnsgd1na2vs0mg"},{"bike_id":"74c4797f-d4f5-40cb-b93b-7c39426cd71e","system_id":"levelo_inurba_marseille","lat":43.29853,"lon":5.36286,"is_reserved":false,"is_disabled":false,"rental_uris":{"android":"levelo://app?vid=74c4797f-d4f5-40cb-b93b-7c39426cd71e","ios":"levelo://app?vid=74c4797f-d4f5-40cb-b93b-7c39426cd71e"},"vehicle_type_id":"4","last_reported":1726838184,"current_range_meters":34800,"station_id":"ce4bgpp2rcd13ifvqc3g","pricing_plan_id":"cebpf4jnsgd1na2vs0mg"},{"bike_id":"b2763354-ec6c-4733-8de6-6c4493759ae9","system_id":"levelo_inurba_marseille","lat":43.29059,"lon":5.40177,"is_reserved":false,"is_disabled":false,"rental_uris":{"android":"levelo://app?vid=b2763354-ec6c-4733-8de6-6c4493759ae9","ios":"levelo://app?vid=b2763354-ec6c-4733-8de6-6c4493759ae9"},"vehicle_type_id":"4","last_reported":1726838184,"current_range_meters":20400,"station_id":"","pricing_plan_id":"cebpf4jnsgd1na2vs0mg"},{"bike_id":"8bc1eade-ce52-4d74-abcf-362ae274a124","system_id":"levelo_inurba_marseille","lat":43.28834,"lon":5.3933,"is_reserved":false,"is_disabled":false,"rental_uris":{"android":"levelo://app?vid=8bc1eade-ce52-4d74-abcf-362ae274a124","ios":"levelo://app?vid=8bc1eade-ce52-4d74-abcf-362ae274a124"},"vehicle_type_id":"4","last_reported":1726838184,"current_range_meters":6800,"station_id":"ce4bh2p2rcd13ifvqdi0","pricing_plan_id":"cebpf4jnsgd1na2vs0mg"},{"bike_id":"ac70f898-127e-4be6-878a-f17419392429","system_id":"levelo_inurba_marseille","lat":43.30907,"lon":5.36854,"is_reserved":false,"is_disabled":false,"rental_uris":{"android":"levelo://app?vid=ac70f898-127e-4be6-878a-f17419392429","ios":"levelo://app?vid=ac70f898-127e-4be6-878a-f17419392429"},"vehicle_type_id":"4","last_reported":1726838184,"current_range_meters":39200,"station_id":"ce4bgn92rcd13ifvqbvg","pricing_plan_id":"cebpf4jnsgd1na2vs0mg"},{"bike_id":"16f3348d-77d1-43da-be43-c830c0d8ccd9","system_id":"levelo_inurba_marseille","lat":43.26928,"lon":5.38917,"is_reserved":false,"is_disabled":false,"rental_uris":{"android":"levelo://app?vid=16f3348d-77d1-43da-be43-c830c0d8ccd9","ios":"levelo://app?vid=16f3348d-77d1-43da-be43-c830c0d8ccd9"},"vehicle_type_id":"4","last_reported":1726838184,"current_range_meters":10800,"station_id":"ce4bhhh2rcd13ifvqfl0","pricing_plan_id":"cebpf4jnsgd1na2vs0mg"},{"bike_id":"bb1fb334-530d-4bb1-9041-6384481e7726","system_id":"levelo_inurba_marseille","lat":43.29166,"lon":5.37153,"is_reserved":false,"is_disabled":false,"rental_uris":{"android":"levelo://app?vid=bb1fb334-530d-4bb1-9041-6384481e7726","ios":"levelo://app?vid=bb1fb334-530d-4bb1-9041-6384481e7726"},"vehicle_type_id":"4","last_reported":1726838184,"current_range_meters":24400,"station_id":"ce4bha92rcd13ifvqeh0","pricing_plan_id":"cebpf4jnsgd1na2vs0mg"},{"bike_id":"fe780c9c-7e13-4b38-81ce-ea43f071d76c","system_id":"levelo_inurba_marseille","lat":43.23061,"lon":5.35495,"is_reserved":false,"is_disabled":false,"rental_uris":{"android":"levelo://app?vid=fe780c9c-7e13-4b38-81ce-ea43f071d76c","ios":"levelo://app?vid=fe780c9c-7e13-4b38-81ce-ea43f071d76c"},"vehicle_type_id":"4","last_reported":1726838184,"current_range_meters":30400,"station_id":"cpo3342slgdg3j2ifvpg","pricing_plan_id":"cebpf4jnsgd1na2vs0mg"},{"bike_id":"df26bd81-cd3d-4de2-8ca3-706d698f32af","system_id":"levelo_inurba_marseille","lat":43.32481,"lon":5.36572,"is_reserved":false,"is_disabled":false,"rental_uris":{"android":"levelo://app?vid=df26bd81-cd3d-4de2-8ca3-706d698f32af","ios":"levelo://app?vid=df26bd81-cd3d-4de2-8ca3-706d698f32af"},"vehicle_type_id":"4","last_reported":1726838184,"current_range_meters":8800,"station_id":"ce4bhs12rcd13ifvqhvg","pricing_plan_id":"cebpf4jnsgd1na2vs0mg"},{"bike_id":"cc88646a-71d2-4219-8a80-e547b8fb958f","system_id":"levelo_inurba_marseille","lat":43.30516,"lon":5.37324,"is_reserved":false,"is_disabled":false,"rental_uris":{"android":"levelo://app?vid=cc88646a-71d2-4219-8a80-e547b8fb958f","ios":"levelo://app?vid=cc88646a-71d2-4219-8a80-e547b8fb958f"},"vehicle_type_id":"4","last_reported":1726838184,"current_range_meters":24400,"station_id":"","pricing_plan_id":"cebpf4jnsgd1na2vs0mg"},{"bike_id":"8d800646-9abe-42b6-8b3a-3d5eee2f8a33","system_id":"levelo_inurba_marseille","lat":43.33766,"lon":5.37441,"is_reserved":false,"is_disabled":false,"rental_uris":{"android":"levelo://app?vid=8d800646-9abe-42b6-8b3a-3d5eee2f8a33","ios":"levelo://app?vid=8d800646-9abe-42b6-8b3a-3d5eee2f8a33"},"vehicle_type_id":"4","last_reported":1726838184,"current_range_meters":38800,"station_id":"","pricing_plan_id":"cebpf4jnsgd1na2vs0mg"},{"bike_id":"cc3c5d92-9d7d-401f-9574-853e67ff49cc","system_id":"levelo_inurba_marseille","lat":43.33604,"lon":5.41022,"is_reserved":false,"is_disabled":false,"rental_uris":{"android":"levelo://app?vid=cc3c5d92-9d7d-401f-9574-853e67ff49cc","ios":"levelo://app?vid=cc3c5d92-9d7d-401f-9574-853e67ff49cc"},"vehicle_type_id":"4","last_reported":1726838184,"current_range_meters":38800,"station_id":"ce4bhqh2rcd13ifvqhmg","pricing_plan_id":"cebpf4jnsgd1na2vs0mg"},{"bike_id":"0653cb10-c12e-4c27-af75-8f3495a98f89","system_id":"levelo_inurba_marseille","lat":43.32298,"lon":5.38255,"is_reserved":false,"is_disabled":false,"rental_uris":{"android":"levelo://app?vid=0653cb10-c12e-4c27-af75-8f3495a98f89","ios":"levelo://app?vid=0653cb10-c12e-4c27-af75-8f3495a98f89"},"vehicle_type_id":"4","last_reported":1726838184,"current_range_meters":6400,"station_id":"ce4bhr12rcd13ifvqhqg","pricing_plan_id":"cebpf4jnsgd1na2vs0mg"},{"bike_id":"26192ca8-304e-4a27-8e8b-1eda741ff676","system_id":"levelo_inurba_marseille","lat":43.30545,"lon":5.36691,"is_reserved":false,"is_disabled":false,"rental_uris":{"android":"levelo://app?vid=26192ca8-304e-4a27-8e8b-1eda741ff676","ios":"levelo://app?vid=26192ca8-304e-4a27-8e8b-1eda741ff676"},"vehicle_type_id":"4","last_reported":1726838184,"current_range_meters":3600,"station_id":"ce4bgrp2rcd13ifvqc9g","pricing_plan_id":"cebpf4jnsgd1na2vs0mg"},{"bike_id":"f70da415-1fb2-4ed4-98cb-0261a21f6989","system_id":"levelo_inurba_marseille","lat":43.23155,"lon":5.43721,"is_reserved":false,"is_disabled":false,"rental_uris":{"android":"levelo://app?vid=f70da415-1fb2-4ed4-98cb-0261a21f6989","ios":"levelo://app?vid=f70da415-1fb2-4ed4-98cb-0261a21f6989"},"vehicle_type_id":"4","last_reported":1726838184,"current_range_meters":10800,"station_id":"ce4bhmp2rcd13ifvqgog","pricing_plan_id":"cebpf4jnsgd1na2vs0mg"},{"bike_id":"542f3989-a9c1-426a-acb3-13a89074c889","system_id":"levelo_inurba_marseille","lat":43.323384,"lon":5.406272,"is_reserved":false,"is_disabled":false,"rental_uris":{"android":"levelo://app?vid=542f3989-a9c1-426a-acb3-13a89074c889","ios":"levelo://app?vid=542f3989-a9c1-426a-acb3-13a89074c889"},"vehicle_type_id":"4","last_reported":1726838184,"current_range_meters":36000,"station_id":"ce4bhq92rcd13ifvqhjg","pricing_plan_id":"cebpf4jnsgd1na2vs0mg"},{"bike_id":"c6d95910-b1bd-4520-8e9d-65cc3ef4f177","system_id":"levelo_inurba_marseille","lat":43.2944,"lon":5.39761,"is_reserved":false,"is_disabled":false,"rental_uris":{"android":"levelo://app?vid=c6d95910-b1bd-4520-8e9d-65cc3ef4f177","ios":"levelo://app?vid=c6d95910-b1bd-4520-8e9d-65cc3ef4f177"},"vehicle_type_id":"4","last_reported":1726838184,"current_range_meters":38000,"station_id":"ce4bh3h2rcd13ifvqdo0","pricing_plan_id":"cebpf4jnsgd1na2vs0mg"},{"bike_id":"c2c9a555-6ec8-4b92-b33e-073571605c93","system_id":"levelo_inurba_marseille","lat":43.232,"lon":5.35552,"is_reserved":false,"is_disabled":false,"rental_uris":{"android":"levelo://app?vid=c2c9a555-6ec8-4b92-b33e-073571605c93","ios":"levelo://app?vid=c2c9a555-6ec8-4b92-b33e-073571605c93"},"vehicle_type_id":"4","last_reported":1726838184,"current_range_meters":27200,"station_id":"ce4bhu92rcd13ifvqi70","pricing_plan_id":"cebpf4jnsgd1na2vs0mg"},{"bike_id":"5a2b69eb-6827-4f15-830c-520fb888f0a4","system_id":"levelo_inurba_marseille","lat":43.32035,"lon":5.415441,"is_reserved":false,"is_disabled":false,"rental_uris":{"android":"levelo://app?vid=5a2b69eb-6827-4f15-830c-520fb888f0a4","ios":"levelo://app?vid=5a2b69eb-6827-4f15-830c-520fb888f0a4"},"vehicle_type_id":"4","last_reported":1726838184,"current_range_meters":38800,"station_id":"ce4bhq92rcd13ifvqhkg","pricing_plan_id":"cebpf4jnsgd1na2vs0mg"},{"bike_id":"62997862-0566-49dc-92c6-a8477c05ade8","system_id":"levelo_inurba_marseille","lat":43.27073,"lon":5.42277,"is_reserved":false,"is_disabled":false,"rental_uris":{"android":"levelo://app?vid=62997862-0566-49dc-92c6-a8477c05ade8","ios":"levelo://app?vid=62997862-0566-49dc-92c6-a8477c05ade8"},"vehicle_type_id":"4","last_reported":1726838184,"current_range_meters":39200,"station_id":"ce4bhk92rcd13ifvqgb0","pricing_plan_id":"cebpf4jnsgd1na2vs0mg"},{"bike_id":"6bb79fa3-ee0a-4c93-b03f-99cea7e7b637","system_id":"levelo_inurba_marseille","lat":43.25113,"lon":5.40319,"is_reserved":false,"is_disabled":false,"rental_uris":{"android":"levelo://app?vid=6bb79fa3-ee0a-4c93-b03f-99cea7e7b637","ios":"levelo://app?vid=6bb79fa3-ee0a-4c93-b03f-99cea7e7b637"},"vehicle_type_id":"4","last_reported":1726838184,"current_range_meters":38800,"station_id":"ce4bhlh2rcd13ifvqgig","pricing_plan_id":"cebpf4jnsgd1na2vs0mg"},{"bike_id":"32b6af54-0e74-448c-b2dd-265b1609d34c","system_id":"levelo_inurba_marseille","lat":43.26574,"lon":5.39023,"is_reserved":false,"is_disabled":false,"rental_uris":{"android":"levelo://app?vid=32b6af54-0e74-448c-b2dd-265b1609d34c","ios":"levelo://app?vid=32b6af54-0e74-448c-b2dd-265b1609d34c"},"vehicle_type_id":"4","last_reported":1726838184,"current_range_meters":9200,"station_id":"ce4bhe12rcd13ifvqf30","pricing_plan_id":"cebpf4jnsgd1na2vs0mg"},{"bike_id":"3ea8f54f-9145-4e7d-b8dd-375864b1fadc","system_id":"levelo_inurba_marseille","lat":43.31996,"lon":5.37196,"is_reserved":false,"is_disabled":false,"rental_uris":{"android":"levelo://app?vid=3ea8f54f-9145-4e7d-b8dd-375864b1fadc","ios":"levelo://app?vid=3ea8f54f-9145-4e7d-b8dd-375864b1fadc"},"vehicle_type_id":"4","last_reported":1726838184,"current_range_meters":13600,"station_id":"","pricing_plan_id":"cebpf4jnsgd1na2vs0mg"},{"bike_id":"9d4a3758-5017-4c9d-9eb2-539cfbac19c3","system_id":"levelo_inurba_marseille","lat":43.337444,"lon":5.374475,"is_reserved":false,"is_disabled":false,"rental_uris":{"android":"levelo://app?vid=9d4a3758-5017-4c9d-9eb2-539cfbac19c3","ios":"levelo://app?vid=9d4a3758-5017-4c9d-9eb2-539cfbac19c3"},"vehicle_type_id":"4","last_reported":1726838184,"current_range_meters":10800,"station_id":"ce4bh0p2rcd13ifvqd80","pricing_plan_id":"cebpf4jnsgd1na2vs0mg"},{"bike_id":"19cc3c46-d133-46cd-9b50-ed1363b03a65","system_id":"levelo_inurba_marseille","lat":43.33612,"lon":5.41023,"is_reserved":false,"is_disabled":false,"rental_uris":{"android":"levelo://app?vid=19cc3c46-d133-46cd-9b50-ed1363b03a65","ios":"levelo://app?vid=19cc3c46-d133-46cd-9b50-ed1363b03a65"},"vehicle_type_id":"4","last_reported":1726838184,"current_range_meters":38800,"station_id":"ce4bhqh2rcd13ifvqhmg","pricing_plan_id":"cebpf4jnsgd1na2vs0mg"},{"bike_id":"80bd2b26-d6d2-4068-a0ac-4254100eb4d7","system_id":"levelo_inurba_marseille","lat":43.28618,"lon":5.35105,"is_reserved":false,"is_disabled":false,"rental_uris":{"android":"levelo://app?vid=80bd2b26-d6d2-4068-a0ac-4254100eb4d7","ios":"levelo://app?vid=80bd2b26-d6d2-4068-a0ac-4254100eb4d7"},"vehicle_type_id":"4","last_reported":1726838184,"current_range_meters":38800,"station_id":"ce4bhch2rcd13ifvqeug","pricing_plan_id":"cebpf4jnsgd1na2vs0mg"},{"bike_id":"75daae73-f01b-4472-bdb7-f1c4ffdff51f","system_id":"levelo_inurba_marseille","lat":43.31308,"lon":5.38574,"is_reserved":false,"is_disabled":false,"rental_uris":{"android":"levelo://app?vid=75daae73-f01b-4472-bdb7-f1c4ffdff51f","ios":"levelo://app?vid=75daae73-f01b-4472-bdb7-f1c4ffdff51f"},"vehicle_type_id":"4","last_reported":1726838184,"current_range_meters":24800,"station_id":"","pricing_plan_id":"cebpf4jnsgd1na2vs0mg"},{"bike_id":"a3e591ca-ddaf-4323-a156-e5d028d61885","system_id":"levelo_inurba_marseille","lat":43.23144,"lon":5.43712,"is_reserved":false,"is_disabled":false,"rental_uris":{"android":"levelo://app?vid=a3e591ca-ddaf-4323-a156-e5d028d61885","ios":"levelo://app?vid=a3e591ca-ddaf-4323-a156-e5d028d61885"},"vehicle_type_id":"4","last_reported":1726838184,"current_range_meters":21600,"station_id":"ce4bhmp2rcd13ifvqgog","pricing_plan_id":"cebpf4jnsgd1na2vs0mg"},{"bike_id":"8d040f59-fcc9-40c0-80dc-2159afd0a381","system_id":"levelo_inurba_marseille","lat":43.27376,"lon":5.42715,"is_reserved":false,"is_disabled":false,"rental_uris":{"android":"levelo://app?vid=8d040f59-fcc9-40c0-80dc-2159afd0a381","ios":"levelo://app?vid=8d040f59-fcc9-40c0-80dc-2159afd0a381"},"vehicle_type_id":"4","last_reported":1726838184,"current_range_meters":17200,"station_id":"","pricing_plan_id":"cebpf4jnsgd1na2vs0mg"},{"bike_id":"e8c7953a-e656-4568-8052-858afecba594","system_id":"levelo_inurba_marseille","lat":43.30212,"lon":5.39467,"is_reserved":false,"is_disabled":false,"rental_uris":{"android":"levelo://app?vid=e8c7953a-e656-4568-8052-858afecba594","ios":"levelo://app?vid=e8c7953a-e656-4568-8052-858afecba594"},"vehicle_type_id":"4","last_reported":1726838184,"current_range_meters":29600,"station_id":"ce4bh0p2rcd13ifvqd70","pricing_plan_id":"cebpf4jnsgd1na2vs0mg"},{"bike_id":"d65205b8-2ada-4783-8143-68e2e92bc860","system_id":"levelo_inurba_marseille","lat":43.30431,"lon":5.388947,"is_reserved":false,"is_disabled":false,"rental_uris":{"android":"levelo://app?vid=d65205b8-2ada-4783-8143-68e2e92bc860","ios":"levelo://app?vid=d65205b8-2ada-4783-8143-68e2e92bc860"},"vehicle_type_id":"4","last_reported":1726838184,"current_range_meters":24400,"station_id":"ce4bgk12rcd13ifvqbi0","pricing_plan_id":"cebpf4jnsgd1na2vs0mg"},{"bike_id":"e93c8e7d-b88f-4ef9-87e1-b444c1bd3ced","system_id":"levelo_inurba_marseille","lat":43.31713,"lon":5.43701,"is_reserved":false,"is_disabled":false,"rental_uris":{"android":"levelo://app?vid=e93c8e7d-b88f-4ef9-87e1-b444c1bd3ced","ios":"levelo://app?vid=e93c8e7d-b88f-4ef9-87e1-b444c1bd3ced"},"vehicle_type_id":"4","last_reported":1726838184,"current_range_meters":26000,"station_id":"ce4bhp92rcd13ifvqhcg","pricing_plan_id":"cebpf4jnsgd1na2vs0mg"},{"bike_id":"68159eba-e301-4077-943e-46befe1273f0","system_id":"levelo_inurba_marseille","lat":43.23187,"lon":5.35559,"is_reserved":false,"is_disabled":false,"rental_uris":{"android":"levelo://app?vid=68159eba-e301-4077-943e-46befe1273f0","ios":"levelo://app?vid=68159eba-e301-4077-943e-46befe1273f0"},"vehicle_type_id":"4","last_reported":1726838184,"current_range_meters":33200,"station_id":"ce4bhu92rcd13ifvqi70","pricing_plan_id":"cebpf4jnsgd1na2vs0mg"},{"bike_id":"7d66f339-e9a1-4deb-8e88-576eebb910a0","system_id":"levelo_inurba_marseille","lat":43.31761,"lon":5.39016,"is_reserved":false,"is_disabled":false,"rental_uris":{"android":"levelo://app?vid=7d66f339-e9a1-4deb-8e88-576eebb910a0","ios":"levelo://app?vid=7d66f339-e9a1-4deb-8e88-576eebb910a0"},"vehicle_type_id":"4","last_reported":1726838184,"current_range_meters":6800,"station_id":"ce4bhqp2rcd13ifvqhng","pricing_plan_id":"cebpf4jnsgd1na2vs0mg"},{"bike_id":"8ccbdee9-9f28-4251-9ce4-2ca79ae0f6ba","system_id":"levelo_inurba_marseille","lat":43.24656,"lon":5.38898,"is_reserved":false,"is_disabled":false,"rental_uris":{"android":"levelo://app?vid=8ccbdee9-9f28-4251-9ce4-2ca79ae0f6ba","ios":"levelo://app?vid=8ccbdee9-9f28-4251-9ce4-2ca79ae0f6ba"},"vehicle_type_id":"4","last_reported":1726838184,"current_range_meters":2000,"station_id":"ce4bhg12rcd13ifvqf60","pricing_plan_id":"cebpf4jnsgd1na2vs0mg"},{"bike_id":"a1c7eaf1-ec47-4c7f-adc5-bdc4db681f8f","system_id":"levelo_inurba_marseille","lat":43.29613,"lon":5.37718,"is_reserved":false,"is_disabled":false,"rental_uris":{"android":"levelo://app?vid=a1c7eaf1-ec47-4c7f-adc5-bdc4db681f8f","ios":"levelo://app?vid=a1c7eaf1-ec47-4c7f-adc5-bdc4db681f8f"},"vehicle_type_id":"4","last_reported":1726838184,"current_range_meters":20400,"station_id":"ce4bgi92rcd13ifvqb90","pricing_plan_id":"cebpf4jnsgd1na2vs0mg"},{"bike_id":"a29344e5-4aa4-47f2-b35a-f74d059a7d86","system_id":"levelo_inurba_marseille","lat":43.24171,"lon":5.36402,"is_reserved":false,"is_disabled":false,"rental_uris":{"android":"levelo://app?vid=a29344e5-4aa4-47f2-b35a-f74d059a7d86","ios":"levelo://app?vid=a29344e5-4aa4-47f2-b35a-f74d059a7d86"},"vehicle_type_id":"4","last_reported":1726838184,"current_range_meters":10000,"station_id":"cpo36qri1sfpv3e86is0","pricing_plan_id":"cebpf4jnsgd1na2vs0mg"},{"bike_id":"e4fc98a0-da74-49e0-8aaa-1fc1c5c486f3","system_id":"levelo_inurba_marseille","lat":43.30913,"lon":5.36839,"is_reserved":false,"is_disabled":false,"rental_uris":{"android":"levelo://app?vid=e4fc98a0-da74-49e0-8aaa-1fc1c5c486f3","ios":"levelo://app?vid=e4fc98a0-da74-49e0-8aaa-1fc1c5c486f3"},"vehicle_type_id":"4","last_reported":1726838184,"current_range_meters":32800,"station_id":"ce4bgn92rcd13ifvqbvg","pricing_plan_id":"cebpf4jnsgd1na2vs0mg"},{"bike_id":"e692e5bc-bd12-4d53-9862-9d646dc6564a","system_id":"levelo_inurba_marseille","lat":43.2985,"lon":5.36285,"is_reserved":false,"is_disabled":false,"rental_uris":{"android":"levelo://app?vid=e692e5bc-bd12-4d53-9862-9d646dc6564a","ios":"levelo://app?vid=e692e5bc-bd12-4d53-9862-9d646dc6564a"},"vehicle_type_id":"4","last_reported":1726838184,"current_range_meters":38800,"station_id":"ce4bgpp2rcd13ifvqc3g","pricing_plan_id":"cebpf4jnsgd1na2vs0mg"},{"bike_id":"105b7d49-ac79-4cb1-9a1c-aba841630723","system_id":"levelo_inurba_marseille","lat":43.2994,"lon":5.36541,"is_reserved":false,"is_disabled":false,"rental_uris":{"android":"levelo://app?vid=105b7d49-ac79-4cb1-9a1c-aba841630723","ios":"levelo://app?vid=105b7d49-ac79-4cb1-9a1c-aba841630723"},"vehicle_type_id":"4","last_reported":1726838184,"current_range_meters":37600,"station_id":"ce4bgm92rcd13ifvqbr0","pricing_plan_id":"cebpf4jnsgd1na2vs0mg"},{"bike_id":"0f9e353b-34be-4131-bc94-f528c8afe4b7","system_id":"levelo_inurba_marseille","lat":43.32482,"lon":5.36565,"is_reserved":false,"is_disabled":false,"rental_uris":{"android":"levelo://app?vid=0f9e353b-34be-4131-bc94-f528c8afe4b7","ios":"levelo://app?vid=0f9e353b-34be-4131-bc94-f528c8afe4b7"},"vehicle_type_id":"4","last_reported":1726838184,"current_range_meters":16000,"station_id":"ce4bhs12rcd13ifvqhvg","pricing_plan_id":"cebpf4jnsgd1na2vs0mg"},{"bike_id":"b0ea9129-a863-4fb2-b248-a032c962d202","system_id":"levelo_inurba_marseille","lat":43.3361,"lon":5.41031,"is_reserved":false,"is_disabled":false,"rental_uris":{"android":"levelo://app?vid=b0ea9129-a863-4fb2-b248-a032c962d202","ios":"levelo://app?vid=b0ea9129-a863-4fb2-b248-a032c962d202"},"vehicle_type_id":"4","last_reported":1726838184,"current_range_meters":28800,"station_id":"ce4bhqh2rcd13ifvqhmg","pricing_plan_id":"cebpf4jnsgd1na2vs0mg"},{"bike_id":"72679e70-f431-4c63-88b9-8f3eb6bf2c63","system_id":"levelo_inurba_marseille","lat":43.24654,"lon":5.38893,"is_reserved":false,"is_disabled":false,"rental_uris":{"android":"levelo://app?vid=72679e70-f431-4c63-88b9-8f3eb6bf2c63","ios":"levelo://app?vid=72679e70-f431-4c63-88b9-8f3eb6bf2c63"},"vehicle_type_id":"4","last_reported":1726838184,"current_range_meters":33600,"station_id":"ce4bhg12rcd13ifvqf60","pricing_plan_id":"cebpf4jnsgd1na2vs0mg"},