{"last_updated":1686845276,"ttl":30,"version":"2.2","data":{"bikes":[{"bike_id":"a142fcc1-dd44-4e45-a4d3-f750f9811ffe","system_id":"levelo_inurba_marseille","lat":43.3123,"lon":5.36808,"is_reserved":false,"is_disabled":false,"rental_uris":{"android":"levelo://app?vid=a142fcc1-dd44-4e45-a4d3-f750f9811ffe","ios":"levelo://app?vid=a142fcc1-dd44-4e45-a4d3-f750f9811ffe"},"vehicle_type_id":"4","last_reported":1686845277,"current_range_meters":2400,"station_id":"","pricing_plan_id":"free"},{"bike_id":"35486b3a-0dd4-45a4-bfb5-fce3e43b205a","system_id":"levelo_inurba_marseille","lat":43.309076,"lon":5.368465,"is_reserved":false,"is_disabled":false,"rental_uris":{"android":"levelo://app?vid=35486b3a-0dd4-45a4-bfb5-fce3e43b205a","ios":"levelo://app?vid=35486b3a-0dd4-45a4-bfb5-fce3e43b205a"},"vehicle_type_id":"4","last_reported":1686845277,"current_range_meters":25200,"station_id":"ce4bgn92rcd13ifvqbvg","pricing_plan_id":"free"},{"bike_id":"554d7456-09e7-46b2-8c3f-1587c3495ae9","system_id":"levelo_inurba_marseille","lat":43.309,"lon":5.37189,"is_reserved":false,"is_disabled":false,"rental_uris":{"android":"levelo://app?vid=554d7456-09e7-46b2-8c3f-1587c3495ae9","ios":"levelo://app?vid=554d7456-09e7-46b2-8c3f-1587c3495ae9"},"vehicle_type_id":"4","last_reported":1686845277,"current_range_meters":11600,"station_id":"","pricing_plan_id":"free"},{"bike_id":"55baa5ed-f1de-42e1-880c-a5900301c10c","system_id":"levelo_inurba_marseille","lat":43.3148,"lon":5.37397,"is_reserved":false,"is_disabled":false,"rental_uris":{"android":"levelo://app?vid=55baa5ed-f1de-42e1-880c-a5900301c10c","ios":"levelo://app?vid=55baa5ed-f1de-42e1-880c-a5900301c10c"},"vehicle_type_id":"4","last_reported":1686845277,"current_range_meters":16800,"station_id":"","pricing_plan_id":"free"},{"bike_id":"29f24983-f2d3-4dc6-8dab-cdaade594f0c","system_id":"levelo_inurba_marseille","lat":43.305706,"lon":5.365654,"is_reserved":false,"is_disabled":false,"rental_uris":{"android":"levelo://app?vid=29f24983-f2d3-4dc6-8dab-cdaade594f0c","ios":"levelo://app?vid=29f24983-f2d3-4dc6-8dab-cdaade594f0c"},"vehicle_type_id":"4","last_reported":1686845277,"current_range_meters":1200,"station_id":"ce4bgs12rcd13ifvqcag","pricing_plan_id":"free"},{"bike_id":"4a754460-fadd-46aa-8025-e29151f697b6","system_id":"levelo_inurba_marseille","lat":43.31714,"lon":5.37702,"is_reserved":false,"is_disabled":false,"rental_uris":{"android":"levelo://app?vid=4a754460-fadd-46aa-8025-e29151f697b6","ios":"levelo://app?vid=4a754460-fadd-46aa-8025-e29151f697b6"},"vehicle_type_id":"4","last_reported":1686845277,"current_range_meters":30400,"station_id":"","pricing_plan_id":"free"},{"bike_id":"2424216c-0462-4ad0-b127-d0366c91b61c","system_id":"levelo_inurba_marseille","lat":43.317075,"lon":5.377367,"is_reserved":false,"is_disabled":false,"rental_uris":{"android":"levelo://app?vid=2424216c-0462-4ad0-b127-d0366c91b61c","ios":"levelo://app?vid=2424216c-0462-4ad0-b127-d0366c91b61c"},"vehicle_type_id":"4","last_reported":1686845277,"current_range_meters":31200,"station_id":"ce4bgth2rcd13ifvqch0","pricing_plan_id":"free"},{"bike_id":"adb22399-8f8c-468d-8ea8-c5a3f6364689","system_id":"levelo_inurba_marseille","lat":43.315293,"lon":5.380349,"is_reserved":false,"is_disabled":false,"rental_uris":{"android":"levelo://app?vid=adb22399-8f8c-468d-8ea8-c5a3f6364689","ios":"levelo://app?vid=adb22399-8f8c-468d-8ea8-c5a3f6364689"},"vehicle_type_id":"4","last_reported":1686845277,"current_range_meters":0,"station_id":"ce4bhsp2rcd13ifvqi50","pricing_plan_id":"free"},{"bike_id":"806199c4-3937-4b0b-af58-cb721666c1a9","system_id":"levelo_inurba_marseille","lat":43.301939,"lon":5.366286,"is_reserved":false,"is_disabled":false,"rental_uris":{"android":"levelo://app?vid=806199c4-3937-4b0b-af58-cb721666c1a9","ios":"levelo://app?vid=806199c4-3937-4b0b-af58-cb721666c1a9"},"vehicle_type_id":"4","last_reported":1686845277,"current_range_meters":10800,"station_id":"ce4bgrh2rcd13ifvqc8g","pricing_plan_id":"free"},{"bike_id":"45bb36ac-6902-4042-bac9-febed392546d","system_id":"levelo_inurba_marseille","lat":43.301939,"lon":5.366286,"is_reserved":false,"is_disabled":false,"rental_uris":{"android":"levelo://app?vid=45bb36ac-6902-4042-bac9-febed392546d","ios":"levelo://app?vid=45bb36ac-6902-4042-bac9-febed392546d"},"vehicle_type_id":"4","last_reported":1686845277,"current_range_meters":20400,"station_id":"ce4bgrh2rcd13ifvqc8g","pricing_plan_id":"free"},{"bike_id":"59bbb2a5-7253-4740-8cf7-9ea05abbf84f","system_id":"levelo_inurba_marseille","lat":43.30849,"lon":5.3812,"is_reserved":false,"is_disabled":false,"rental_uris":{"android":"levelo://app?vid=59bbb2a5-7253-4740-8cf7-9ea05abbf84f","ios":"levelo://app?vid=59bbb2a5-7253-4740-8cf7-9ea05abbf84f"},"vehicle_type_id":"4","last_reported":1686845277,"current_range_meters":25200,"station_id":"","pricing_plan_id":"free"},{"bike_id":"ae33307b-fcd5-479b-9ae1-9002ed226c6e","system_id":"levelo_inurba_marseille","lat":43.308012,"lon":5.381511,"is_reserved":false,"is_disabled":false,"rental_uris":{"android":"levelo://app?vid=ae33307b-fcd5-479b-9ae1-9002ed226c6e","ios":"levelo://app?vid=ae33307b-fcd5-479b-9ae1-9002ed226c6e"},"vehicle_type_id":"4","last_reported":1686845277,"current_range_meters":19200,"station_id":"ce4bgt12rcd13ifvqce0","pricing_plan_id":"free"},{"bike_id":"32827146-2d6b-4fb1-b00e-6b2f535ca544","system_id":"levelo_inurba_marseille","lat":43.304606,"lon":5.379026,"is_reserved":false,"is_disabled":false,"rental_uris":{"android":"levelo://app?vid=32827146-2d6b-4fb1-b00e-6b2f535ca544","ios":"levelo://app?vid=32827146-2d6b-4fb1-b00e-6b2f535ca544"},"vehicle_type_id":"4","last_reported":1686845277,"current_range_meters":31200,"station_id":"ce4bgup2rcd13ifvqcn0","pricing_plan_id":"free"},{"bike_id":"fc4a69da-5dee-4c68-8631-20ee11bc487b","system_id":"levelo_inurba_marseille","lat":43.304606,"lon":5.379026,"is_reserved":false,"is_disabled":false,"rental_uris":{"android":"levelo://app?vid=fc4a69da-5dee-4c68-8631-20ee11bc487b","ios":"levelo://app?vid=fc4a69da-5dee-4c68-8631-20ee11bc487b"},"vehicle_type_id":"4","last_reported":1686845277,"current_range_meters":27600,"station_id":"ce4bgup2rcd13ifvqcn0","pricing_plan_id":"free"},{"bike_id":"744943b2-af19-46c4-969b-690e8b7b0efd","system_id":"levelo_inurba_marseille","lat":43.319935,"lon":5.381699,"is_reserved":false,"is_disabled":false,"rental_uris":{"android":"levelo://app?vid=744943b2-af19-46c4-969b-690e8b7b0efd","ios":"levelo://app?vid=744943b2-af19-46c4-969b-690e8b7b0efd"},"vehicle_type_id":"4","last_reported":1686845277,"current_range_meters":2400,"station_id":"ce4bhr12rcd13ifvqhpg","pricing_plan_id":"free"},{"bike_id":"1a66c3d4-2366-4d67-8cdc-a83a3d7333fd","system_id":"levelo_inurba_marseille","lat":43.313571,"lon":5.384829,"is_reserved":false,"is_disabled":false,"rental_uris":{"android":"levelo://app?vid=1a66c3d4-2366-4d67-8cdc-a83a3d7333fd","ios":"levelo://app?vid=1a66c3d4-2366-4d67-8cdc-a83a3d7333fd"},"vehicle_type_id":"4","last_reported":1686845277,"current_range_meters":30000,"station_id":"ce4bgt92rcd13ifvqcf0","pricing_plan_id":"free"},{"bike_id":"7a62d47e-b7ea-461d-854e-9a5d2e4419d9","system_id":"levelo_inurba_marseille","lat":43.313571,"lon":5.384829,"is_reserved":false,"is_disabled":false,"rental_uris":{"android":"levelo://app?vid=7a62d47e-b7ea-461d-854e-9a5d2e4419d9","ios":"levelo://app?vid=7a62d47e-b7ea-461d-854e-9a5d2e4419d9"},"vehicle_type_id":"4","last_reported":1686845277,"current_range_meters":8800,"station_id":"ce4bgt92rcd13ifvqcf0","pricing_plan_id":"free"},{"bike_id":"539824f0-bbaf-48a8-b9dd-7b1f67df023c","system_id":"levelo_inurba_marseille","lat":43.31366,"lon":5.38496,"is_reserved":false,"is_disabled":false,"rental_uris":{"android":"levelo://app?vid=539824f0-bbaf-48a8-b9dd-7b1f67df023c","ios":"levelo://app?vid=539824f0-bbaf-48a8-b9dd-7b1f67df023c"},"vehicle_type_id":"4","last_reported":1686845277,"current_range_meters":0,"station_id":"ce4bgt92rcd13ifvqcf0","pricing_plan_id":"free"},{"bike_id":"33a334e7-a07a-4e43-92ab-6bc963bc2e38","system_id":"levelo_inurba_marseille","lat":43.29939,"lon":5.36528,"is_reserved":false,"is_disabled":false,"rental_uris":{"android":"levelo://app?vid=33a334e7-a07a-4e43-92ab-6bc963bc2e38","ios":"levelo://app?vid=33a334e7-a07a-4e43-92ab-6bc963bc2e38"},"vehicle_type_id":"4","last_reported":1686845277,"current_range_meters":31200,"station_id":"","pricing_plan_id":"free"},{"bike_id":"2e7531b0-11fa-435d-9c68-67db9faad818","system_id":"levelo_inurba_marseille","lat":43.30044,"lon":5.37509,"is_reserved":false,"is_disabled":false,"rental_uris":{"android":"levelo://app?vid=2e7531b0-11fa-435d-9c68-67db9faad818","ios":"levelo://app?vid=2e7531b0-11fa-435d-9c68-67db9faad818"},"vehicle_type_id":"4","last_reported":1686845277,"current_range_meters":14800,"station_id":"","pricing_plan_id":"free"},{"bike_id":"31a25f69-8d75-4d69-aeda-aec76c4b541c","system_id":"levelo_inurba_marseille","lat":43.305364,"lon":5.384119,"is_reserved":false,"is_disabled":false,"rental_uris":{"android":"levelo://app?vid=31a25f69-8d75-4d69-aeda-aec76c4b541c","ios":"levelo://app?vid=31a25f69-8d75-4d69-aeda-aec76c4b541c"},"vehicle_type_id":"4","last_reported":1686845277,"current_range_meters":8400,"station_id":"ce4bgg92rcd13ifvqb30","pricing_plan_id":"free"},{"bike_id":"c57f4673-74be-4b36-a31b-89870c56b01a","system_id":"levelo_inurba_marseille","lat":43.298433,"lon":5.362774,"is_reserved":false,"is_disabled":false,"rental_uris":{"android":"levelo://app?vid=c57f4673-74be-4b36-a31b-89870c56b01a","ios":"levelo://app?vid=c57f4673-74be-4b36-a31b-89870c56b01a"},"vehicle_type_id":"4","last_reported":1686845277,"current_range_meters":0,"station_id":"ce4bgpp2rcd13ifvqc3g","pricing_plan_id":"free"},{"bike_id":"d71beb9a-427c-4bad-960e-55fdc1b35b3b","system_id":"levelo_inurba_marseille","lat":43.31523,"lon":5.38734,"is_reserved":false,"is_disabled":false,"rental_uris":{"android":"levelo://app?vid=d71beb9a-427c-4bad-960e-55fdc1b35b3b","ios":"levelo://app?vid=d71beb9a-427c-4bad-960e-55fdc1b35b3b"},"vehicle_type_id":"4","last_reported":1686845277,"current_range_meters":0,"station_id":"","pricing_plan_id":"free"},{"bike_id":"d2958eeb-7fb2-447d-ac09-fe95f5a350c2","system_id":"levelo_inurba_marseille","lat":43.29767,"lon":5.37098,"is_reserved":false,"is_disabled":false,"rental_uris":{"android":"levelo://app?vid=d2958eeb-7fb2-447d-ac09-fe95f5a350c2","ios":"levelo://app?vid=d2958eeb-7fb2-447d-ac09-fe95f5a350c2"},"vehicle_type_id":"4","last_reported":1686845277,"current_range_meters":0,"station_id":"ce4bgop2rcd13ifvqc1g","pricing_plan_id":"free"},{"bike_id":"6938353d-b323-4b5d-9339-e3d5397a084a","system_id":"levelo_inurba_marseille","lat":43.32813,"lon":5.36685,"is_reserved":false,"is_disabled":false,"rental_uris":{"android":"levelo://app?vid=6938353d-b323-4b5d-9339-e3d5397a084a","ios":"levelo://app?vid=6938353d-b323-4b5d-9339-e3d5397a084a"},"vehicle_type_id":"4","last_reported":1686845277,"current_range_meters":26000,"station_id":"","pricing_plan_id":"free"},{"bike_id":"54f6c840-8b46-407c-b594-3587fefcc3c5","system_id":"levelo_inurba_marseille","lat":43.32827,"lon":5.367,"is_reserved":false,"is_disabled":false,"rental_uris":{"android":"levelo://app?vid=54f6c840-8b46-407c-b594-3587fefcc3c5","ios":"levelo://app?vid=54f6c840-8b46-407c-b594-3587fefcc3c5"},"vehicle_type_id":"4","last_reported":1686845277,"current_range_meters":22400,"station_id":"ce4bhs92rcd13ifvqi0g","pricing_plan_id":"free"},{"bike_id":"7f15b603-b73c-46ec-98b9-f0762535e7c0","system_id":"levelo_inurba_marseille","lat":43.29722,"lon":5.36612,"is_reserved":false,"is_disabled":false,"rental_uris":{"android":"levelo://app?vid=7f15b603-b73c-46ec-98b9-f0762535e7c0","ios":"levelo://app?vid=7f15b603-b73c-46ec-98b9-f0762535e7c0"},"vehicle_type_id":"4","last_reported":1686845277,"current_range_meters":19600,"station_id":"","pricing_plan_id":"free"},{"bike_id":"88d0330c-5bb0-4a19-9b65-d4683b42e015","system_id":"levelo_inurba_marseille","lat":43.29683,"lon":5.36046,"is_reserved":false,"is_disabled":false,"rental_uris":{"android":"levelo://app?vid=88d0330c-5bb0-4a19-9b65-d4683b42e015","ios":"levelo://app?vid=88d0330c-5bb0-4a19-9b65-d4683b42e015"},"vehicle_type_id":"4","last_reported":1686845277,"current_range_meters":13600,"station_id":"ce4bgpp2rcd13ifvqc3g","pricing_plan_id":"free"},{"bike_id":"113d8f7e-ffd1-4394-aaba-49ba04306712","system_id":"levelo_inurba_marseille","lat":43.317557,"lon":5.390173,"is_reserved":false,"is_disabled":false,"rental_uris":{"android":"levelo://app?vid=113d8f7e-ffd1-4394-aaba-49ba04306712","ios":"levelo://app?vid=113d8f7e-ffd1-4394-aaba-49ba04306712"},"vehicle_type_id":"4","last_reported":1686845277,"current_range_meters":15600,"station_id":"ce4bhqp2rcd13ifvqhng","pricing_plan_id":"free"},{"bike_id":"f4ed1572-c241-4607-9dc3-6b1499bbc672","system_id":"levelo_inurba_marseille","lat":43.298037,"lon":5.381066,"is_reserved":false,"is_disabled":false,"rental_uris":{"android":"levelo://app?vid=f4ed1572-c241-4607-9dc3-6b1499bbc672","ios":"levelo://app?vid=f4ed1572-c241-4607-9dc3-6b1499bbc672"},"vehicle_type_id":"4","last_reported":1686845277,"current_range_meters":11600,"station_id":"ce4bgip2rcd13ifvqbb0","pricing_plan_id":"free"},{"bike_id":"40d734c4-3d4a-4dc6-b2da-e99128302df6","system_id":"levelo_inurba_marseille","lat":43.295279,"lon":5.375048,"is_reserved":false,"is_disabled":false,"rental_uris":{"android":"levelo://app?vid=40d734c4-3d4a-4dc6-b2da-e99128302df6","ios":"levelo://app?vid=40d734c4-3d4a-4dc6-b2da-e99128302df6"},"vehicle_type_id":"4","last_reported":1686845277,"current_range_meters":1600,"station_id":"ce4bgkp2rcd13ifvqbmg","pricing_plan_id":"free"},{"bike_id":"e25ef686-10bc-4eb7-8f36-2ae8450187d2","system_id":"levelo_inurba_marseille","lat":43.295279,"lon":5.375048,"is_reserved":false,"is_disabled":false,"rental_uris":{"android":"levelo://app?vid=e25ef686-10bc-4eb7-8f36-2ae8450187d2","ios":"levelo://app?vid=e25ef686-10bc-4eb7-8f36-2ae8450187d2"},"vehicle_type_id":"4","last_reported":1686845277,"current_range_meters":0,"station_id":"ce4bgkp2rcd13ifvqbmg","pricing_plan_id":"free"},{"bike_id":"86ad423a-c7a1-4936-a2e7-4ecc22b4082c","system_id":"levelo_inurba_marseille","lat":43.295279,"lon":5.375048,"is_reserved":false,"is_disabled":false,"rental_uris":{"android":"levelo://app?vid=86ad423a-c7a1-4936-a2e7-4ecc22b4082c","ios":"levelo://app?vid=86ad423a-c7a1-4936-a2e7-4ecc22b4082c"},"vehicle_type_id":"4","last_reported":1686845277,"current_range_meters":2800,"station_id":"ce4bgkp2rcd13ifvqbmg","pricing_plan_id":"free"},{"bike_id":"f38e544e-36c7-486c-a568-2d430f2964a0","system_id":"levelo_inurba_marseille","lat":43.29971,"lon":5.3849,"is_reserved":false,"is_disabled":false,"rental_uris":{"android":"levelo://app?vid=f38e544e-36c7-486c-a568-2d430f2964a0","ios":"levelo://app?vid=f38e544e-36c7-486c-a568-2d430f2964a0"},"vehicle_type_id":"4","last_reported":1686845277,"current_range_meters":400,"station_id":"ce4bgj92rcd13ifvqbd0","pricing_plan_id":"free"},{"bike_id":"c0d0fc85-a7ab-44ed-8d22-71fceff31b19","system_id":"levelo_inurba_marseille","lat":43.299724,"lon":5.384848,"is_reserved":false,"is_disabled":false,"rental_uris":{"android":"levelo://app?vid=c0d0fc85-a7ab-44ed-8d22-71fceff31b19","ios":"levelo://app?vid=c0d0fc85-a7ab-44ed-8d22-71fceff31b19"},"vehicle_type_id":"4","last_reported":1686845277,"current_range_meters":0,"station_id":"ce4bgj92rcd13ifvqbd0","pricing_plan_id":"free"},{"bike_id":"2c9ad911-25e0-4222-8751-d809dfadd582","system_id":"levelo_inurba_marseille","lat":43.32365,"lon":5.3889,"is_reserved":false,"is_disabled":false,"rental_uris":{"android":"levelo://app?vid=2c9ad911-25e0-4222-8751-d809dfadd582","ios":"levelo://app?vid=2c9ad911-25e0-4222-8751-d809dfadd582"},"vehicle_type_id":"4","last_reported":1686845277,"current_range_meters":10400,"station_id":"ce4bhqp2rcd13ifvqhog","pricing_plan_id":"free"},{"bike_id":"3662ce46-7093-4873-8826-c7440e8bfb9b","system_id":"levelo_inurba_marseille","lat":43.29601,"lon":5.381084,"is_reserved":false,"is_disabled":false,"rental_uris":{"android":"levelo://app?vid=3662ce46-7093-4873-8826-c7440e8bfb9b","ios":"levelo://app?vid=3662ce46-7093-4873-8826-c7440e8bfb9b"},"vehicle_type_id":"4","last_reported":1686845277,"current_range_meters":2800,"station_id":"ce4bgl12rcd13ifvqbo0","pricing_plan_id":"free"},{"bike_id":"57eaeddb-1464-4974-83ff-290026f914bc","system_id":"levelo_inurba_marseille","lat":43.302992,"lon":5.392136,"is_reserved":false,"is_disabled":false,"rental_uris":{"android":"levelo://app?vid=57eaeddb-1464-4974-83ff-290026f914bc","ios":"levelo://app?vid=57eaeddb-1464-4974-83ff-290026f914bc"},"vehicle_type_id":"4","last_reported":1686845277,"current_range_meters":3200,"station_id":"ce4bgkh2rcd13ifvqbk0","pricing_plan_id":"free"},{"bike_id":"32c55a7c-2e4f-4fe7-af80-bc00175d7e3a","system_id":"levelo_inurba_marseille","lat":43.305994,"lon":5.393687,"is_reserved":false,"is_disabled":false,"rental_uris":{"android":"levelo://app?vid=32c55a7c-2e4f-4fe7-af80-bc00175d7e3a","ios":"levelo://app?vid=32c55a7c-2e4f-4fe7-af80-bc00175d7e3a"},"vehicle_type_id":"4","last_reported":1686845277,"current_range_meters":3600,"station_id":"ce4bh0p2rcd13ifvqd80","pricing_plan_id":"free"},{"bike_id":"0f9d983c-d5ae-4d5a-9196-6a528cb48a90","system_id":"levelo_inurba_marseille","lat":43.293009,"lon":5.374584,"is_reserved":false,"is_disabled":false,"rental_uris":{"android":"levelo://app?vid=0f9d983c-d5ae-4d5a-9196-6a528cb48a90","ios":"levelo://app?vid=0f9d983c-d5ae-4d5a-9196-6a528cb48a90"},"vehicle_type_id":"4","last_reported":1686845277,"current_range_meters":6800,"station_id":"ce4bgi12rcd13ifvqb70","pricing_plan_id":"free"},{"bike_id":"3fa79c62-5e52-467a-9f78-655cc1511a52","system_id":"levelo_inurba_marseille","lat":43.302992,"lon":5.392136,"is_reserved":false,"is_disabled":false,"rental_uris":{"android":"levelo://app?vid=3fa79c62-5e52-467a-9f78-655cc1511a52","ios":"levelo://app?vid=3fa79c62-5e52-467a-9f78-655cc1511a52"},"vehicle_type_id":"4","last_reported":1686845277,"current_range_meters":0,"station_id":"ce4bgkh2rcd13ifvqbk0","pricing_plan_id":"free"},{"bike_id":"7211f0cb-115d-4608-842b-ca6b37e2ad3d","system_id":"levelo_inurba_marseille","lat":43.302992,"lon":5.392136,"is_reserved":false,"is_disabled":false,"rental_uris":{"android":"levelo://app?vid=7211f0cb-115d-4608-842b-ca6b37e2ad3d","ios":"levelo://app?vid=7211f0cb-115d-4608-842b-ca6b37e2ad3d"},"vehicle_type_id":"4","last_reported":1686845277,"current_range_meters":2000,"station_id":"ce4bgkh2rcd13ifvqbk0","pricing_plan_id":"free"},{"bike_id":"a993c299-3221-404b-a7b4-2bf26f3104cc","system_id":"levelo_inurba_marseille","lat":43.30295,"lon":5.39193,"is_reserved":false,"is_disabled":false,"rental_uris":{"android":"levelo://app?vid=a993c299-3221-404b-a7b4-2bf26f3104cc","ios":"levelo://app?vid=a993c299-3221-404b-a7b4-2bf26f3104cc"},"vehicle_type_id":"4","last_reported":1686845277,"current_range_meters":0,"station_id":"ce4bgkh2rcd13ifvqbk0","pricing_plan_id":"free"},{"bike_id":"689e4e4d-16f8-4fe0-8253-ca0a9079424a","system_id":"levelo_inurba_marseille","lat":43.302992,"lon":5.392136,"is_reserved":false,"is_disabled":false,"rental_uris":{"android":"levelo://app?vid=689e4e4d-16f8-4fe0-8253-ca0a9079424a","ios":"levelo://app?vid=689e4e4d-16f8-4fe0-8253-ca0a9079424a"},"vehicle_type_id":"4","last_reported":1686845277,"current_range_meters":0,"station_id":"ce4bgkh2rcd13ifvqbk0","pricing_plan_id":"free"},{"bike_id":"d3e5ec50-cdd2-4dda-b3aa-56eb536bbb12","system_id":"levelo_inurba_marseille","lat":43.29269,"lon":5.35974,"is_reserved":false,"is_disabled":false,"rental_uris":{"android":"levelo://app?vid=d3e5ec50-cdd2-4dda-b3aa-56eb536bbb12","ios":"levelo://app?vid=d3e5ec50-cdd2-4dda-b3aa-56eb536bbb12"},"vehicle_type_id":"4","last_reported":1686845277,"current_range_meters":29600,"station_id":"","pricing_plan_id":"free"},{"bike_id":"ecf4adcd-73d1-4c93-88a5-743cf7430b66","system_id":"levelo_inurba_marseille","lat":43.300852,"lon":5.390859,"is_reserved":false,"is_disabled":false,"rental_uris":{"android":"levelo://app?vid=ecf4adcd-73d1-4c93-88a5-743cf7430b66","ios":"levelo://app?vid=ecf4adcd-73d1-4c93-88a5-743cf7430b66"},"vehicle_type_id":"4","last_reported":1686845277,"current_range_meters":3600,"station_id":"ce4bh192rcd13ifvqdb0","pricing_plan_id":"free"},{"bike_id":"9f1ff35c-2ca2-4959-a6db-ae6043ab7837","system_id":"levelo_inurba_marseille","lat":43.292311,"lon":5.360731,"is_reserved":false,"is_disabled":false,"rental_uris":{"android":"levelo://app?vid=9f1ff35c-2ca2-4959-a6db-ae6043ab7837","ios":"levelo://app?vid=9f1ff35c-2ca2-4959-a6db-ae6043ab7837"},"vehicle_type_id":"4","last_reported":1686845277,"current_range_meters":13200,"station_id":"ce4bhbh2rcd13ifvqeqg","pricing_plan_id":"free"},{"bike_id":"111532d5-6d7d-484b-8330-d1e5596e164d","system_id":"levelo_inurba_marseille","lat":43.300852,"lon":5.390859,"is_reserved":false,"is_disabled":false,"rental_uris":{"android":"levelo://app?vid=111532d5-6d7d-484b-8330-d1e5596e164d","ios":"levelo://app?vid=111532d5-6d7d-484b-8330-d1e5596e164d"},"vehicle_type_id":"4","last_reported":1686845277,"current_range_meters":13200,"station_id":"ce4bh192rcd13ifvqdb0","pricing_plan_id":"free"},{"bike_id":"0e89c20b-c50f-4af6-be61-46855bc5551a","system_id":"levelo_inurba_marseille","lat":43.298764,"lon":5.388973,"is_reserved":false,"is_disabled":false,"rental_uris":{"android":"levelo://app?vid=0e89c20b-c50f-4af6-be61-46855bc5551a","ios":"levelo://app?vid=0e89c20b-c50f-4af6-be61-46855bc5551a"},"vehicle_type_id":"4","last_reported":1686845277,"current_range_meters":8000,"station_id":"ce4bh392rcd13ifvqdl0","pricing_plan_id":"free"},{"bike_id":"0682c17c-2ef6-4061-996a-9bb33a8cb405","system_id":"levelo_inurba_marseille","lat":43.298764,"lon":5.388973,"is_reserved":false,"is_disabled":false,"rental_uris":{"android":"levelo://app?vid=0682c17c-2ef6-4061-996a-9bb33a8cb405","ios":"levelo://app?vid=0682c17c-2ef6-4061-996a-9bb33a8cb405"},"vehicle_type_id":"4","last_reported":1686845277,"current_range_meters":22000,"station_id":"ce4bh392rcd13ifvqdl0","pricing_plan_id":"free"},{"bike_id":"bc253969-4160-4cf6-81ad-24d4b3dc9b55","system_id":"levelo_inurba_marseille","lat":43.298764,"lon":5.388973,"is_reserved":false,"is_disabled":false,"rental_uris":{"android":"levelo://app?vid=bc253969-4160-4cf6-81ad-24d4b3dc9b55","ios":"levelo://app?vid=bc253969-4160-4cf6-81ad-24d4b3dc9b55"},"vehicle_type_id":"4","last_reported":1686845277,"current_range_meters":0,"station_id":"ce4bh392rcd13ifvqdl0","pricing_plan_id":"free"},{"bike_id":"30f0df74-0a33-4fb1-90f2-c659ec0afc12","system_id":"levelo_inurba_marseille","lat":43.29197,"lon":5.358,"is_reserved":false,"is_disabled":false,"rental_uris":{"android":"levelo://app?vid=30f0df74-0a33-4fb1-90f2-c659ec0afc12","ios":"levelo://app?vid=30f0df74-0a33-4fb1-90f2-c659ec0afc12"},"vehicle_type_id":"4","last_reported":1686845277,"current_range_meters":24400,"station_id":"ce4bhb12rcd13ifvqel0","pricing_plan_id":"free"},{"bike_id":"318da0c4-a932-4200-a883-524d5f6fce9c","system_id":"levelo_inurba_marseille","lat":43.313291,"lon":5.396838,"is_reserved":false,"is_disabled":false,"rental_uris":{"android":"levelo://app?vid=318da0c4-a932-4200-a883-524d5f6fce9c","ios":"levelo://app?vid=318da0c4-a932-4200-a883-524d5f6fce9c"},"vehicle_type_id":"4","last_reported":1686845277,"current_range_meters":0,"station_id":"ce4bgvp2rcd13ifvqcu0","pricing_plan_id":"free"},{"bike_id":"e3f597e3-27b5-42a5-bd0e-15cc50e2796b","system_id":"levelo_inurba_marseille","lat":43.313291,"lon":5.396838,"is_reserved":false,"is_disabled":false,"rental_uris":{"android":"levelo://app?vid=e3f597e3-27b5-42a5-bd0e-15cc50e2796b","ios":"levelo://app?vid=e3f597e3-27b5-42a5-bd0e-15cc50e2796b"},"vehicle_type_id":"4","last_reported":1686845277,"current_range_meters":1200,"station_id":"ce4bgvp2rcd13ifvqcu0","pricing_plan_id":"free"},{"bike_id":"35b63009-c7aa-4e95-9433-d0f6e89efb87","system_id":"levelo_inurba_marseille","lat":43.313291,"lon":5.396838,"is_reserved":false,"is_disabled":false,"rental_uris":{"android":"levelo://app?vid=35b63009-c7aa-4e95-9433-d0f6e89efb87","ios":"levelo://app?vid=35b63009-c7aa-4e95-9433-d0f6e89efb87"},"vehicle_type_id":"4","last_reported":1686845277,"current_range_meters":6000,"station_id":"ce4bgvp2rcd13ifvqcu0","pricing_plan_id":"free"},{"bike_id":"b6afaef6-8a7d-4074-a9ef-53df2a86c307","system_id":"levelo_inurba_marseille","lat":43.313291,"lon":5.396838,"is_reserved":false,"is_disabled":false,"rental_uris":{"android":"levelo://app?vid=b6afaef6-8a7d-4074-a9ef-53df2a86c307","ios":"levelo://app?vid=b6afaef6-8a7d-4074-a9ef-53df2a86c307"},"vehicle_type_id":"4","last_reported":1686845277,"current_range_meters":25200,"station_id":"ce4bgvp2rcd13ifvqcu0","pricing_plan_id":"free"},{"bike_id":"5f7b6ec8-42c3-465d-8f11-86034bf62305","system_id":"levelo_inurba_marseille","lat":43.313291,"lon":5.396838,"is_reserved":false,"is_disabled":false,"rental_uris":{"android":"levelo://app?vid=5f7b6ec8-42c3-465d-8f11-86034bf62305","ios":"levelo://app?vid=5f7b6ec8-42c3-465d-8f11-86034bf62305"},"vehicle_type_id":"4","last_reported":1686845277,"current_range_meters":6400,"station_id":"ce4bgvp2rcd13ifvqcu0","pricing_plan_id":"free"},{"bike_id":"28296fc0-20dc-4a6e-b8b4-090a5f3ef09d","system_id":"levelo_inurba_marseille","lat":43.313291,"lon":5.396838,"is_reserved":false,"is_disabled":false,"rental_uris":{"android":"levelo://app?vid=28296fc0-20dc-4a6e-b8b4-090a5f3ef09d","ios":"levelo://app?vid=28296fc0-20dc-4a6e-b8b4-090a5f3ef09d"},"vehicle_type_id":"4","last_reported":1686845277,"current_range_meters":7200,"station_id":"ce4bgvp2rcd13ifvqcu0","pricing_plan_id":"free"},{"bike_id":"a476a77c-3d6d-47e5-b17a-4dcf3576854c","system_id":"levelo_inurba_marseille","lat":43.29532,"lon":5.38542,"is_reserved":false,"is_disabled":false,"rental_uris":{"android":"levelo://app?vid=a476a77c-3d6d-47e5-b17a-4dcf3576854c","ios":"levelo://app?vid=a476a77c-3d6d-47e5-b17a-4dcf3576854c"},"vehicle_type_id":"4","last_reported":1686845277,"current_range_meters":24000,"station_id":"ce4bgih2rcd13ifvqba0","pricing_plan_id":"free"},{"bike_id":"ed249b16-9f5f-46a3-adb2-bbe410f500ec","system_id":"levelo_inurba_marseille","lat":43.29529,"lon":5.385581,"is_reserved":false,"is_disabled":false,"rental_uris":{"android":"levelo://app?vid=ed249b16-9f5f-46a3-adb2-bbe410f500ec","ios":"levelo://app?vid=ed249b16-9f5f-46a3-adb2-bbe410f500ec"},"vehicle_type_id":"4","last_reported":1686845277,"current_range_meters":22000,"station_id":"ce4bgih2rcd13ifvqba0","pricing_plan_id":"free"},{"bike_id":"15693629-c004-483e-9c74-91e7b25e98ab","system_id":"levelo_inurba_marseille","lat":43.302008,"lon":5.394694,"is_reserved":false,"is_disabled":false,"rental_uris":{"android":"levelo://app?vid=15693629-c004-483e-9c74-91e7b25e98ab","ios":"levelo://app?vid=15693629-c004-483e-9c74-91e7b25e98ab"},"vehicle_type_id":"4","last_reported":1686845277,"current_range_meters":1600,"station_id":"ce4bh0p2rcd13ifvqd70","pricing_plan_id":"free"},{"bike_id":"20011baa-120f-4e53-91eb-9c3cdc3d06cc","system_id":"levelo_inurba_marseille","lat":43.290624,"lon":5.359245,"is_reserved":false,"is_disabled":false,"rental_uris":{"android":"levelo://app?vid=20011baa-120f-4e53-91eb-9c3cdc3d06cc","ios":"levelo://app?vid=20011baa-120f-4e53-91eb-9c3cdc3d06cc"},"vehicle_type_id":"4","last_reported":1686845277,"current_range_meters":2000,"station_id":"ce4bha92rcd13ifvqeg0","pricing_plan_id":"free"},{"bike_id":"7cf30ab3-9876-47aa-891a-f597298eed94","system_id":"levelo_inurba_marseille","lat":43.302008,"lon":5.394694,"is_reserved":false,"is_disabled":false,"rental_uris":{"android":"levelo://app?vid=7cf30ab3-9876-47aa-891a-f597298eed94","ios":"levelo://app?vid=7cf30ab3-9876-47aa-891a-f597298eed94"},"vehicle_type_id":"4","last_reported":1686845277,"current_range_meters":0,"station_id":"ce4bh0p2rcd13ifvqd70","pricing_plan_id":"free"},{"bike_id":"85316ca5-9cf7-4835-be9b-082bba7134ca","system_id":"levelo_inurba_marseille","lat":43.294153,"lon":5.386305,"is_reserved":false,"is_disabled":false,"rental_uris":{"android":"levelo://app?vid=85316ca5-9cf7-4835-be9b-082bba7134ca","ios":"levelo://app?vid=85316ca5-9cf7-4835-be9b-082bba7134ca"},"vehicle_type_id":"4","last_reported":1686845277,"current_range_meters":18800,"station_id":"ce4bh2h2rcd13ifvqdh0","pricing_plan_id":"free"},{"bike_id":"fbe56417-64e5-49c6-a426-f4f6d82b8dbd","system_id":"levelo_inurba_marseille","lat":43.294162,"lon":5.386292,"is_reserved":false,"is_disabled":false,"rental_uris":{"android":"levelo://app?vid=fbe56417-64e5-49c6-a426-f4f6d82b8dbd","ios":"levelo://app?vid=fbe56417-64e5-49c6-a426-f4f6d82b8dbd"},"vehicle_type_id":"4","last_reported":1686845277,"current_range_meters":0,"station_id":"ce4bh2h2rcd13ifvqdh0","pricing_plan_id":"free"},{"bike_id":"674c1a8c-e1c7-4613-b548-b25b693a9807","system_id":"levelo_inurba_marseille","lat":43.289468,"lon":5.363719,"is_reserved":false,"is_disabled":false,"rental_uris":{"android":"levelo://app?vid=674c1a8c-e1c7-4613-b548-b25b693a9807","ios":"levelo://app?vid=674c1a8c-e1c7-4613-b548-b25b693a9807"},"vehicle_type_id":"4","last_reported":1686845277,"current_range_meters":4000,"station_id":"ce4bhc92rcd13ifvqetg","pricing_plan_id":"free"},{"bike_id":"031b0d2c-f636-4915-9c37-57fe86c9e0bc","system_id":"levelo_inurba_marseille","lat":43.289468,"lon":5.363719,"is_reserved":false,"is_disabled":false,"rental_uris":{"android":"levelo://app?vid=031b0d2c-f636-4915-9c37-57fe86c9e0bc","ios":"levelo://app?vid=031b0d2c-f636-4915-9c37-57fe86c9e0bc"},"vehicle_type_id":"4","last_reported":1686845277,"current_range_meters":0,"station_id":"ce4bhc92rcd13ifvqetg","pricing_plan_id":"free"},{"bike_id":"747d05e7-5f1f-46a1-b0b8-2eaeab583922","system_id":"levelo_inurba_marseille","lat":43.3042,"lon":5.39735,"is_reserved":false,"is_disabled":false,"rental_uris":{"android":"levelo://app?vid=747d05e7-5f1f-46a1-b0b8-2eaeab583922","ios":"levelo://app?vid=747d05e7-5f1f-46a1-b0b8-2eaeab583922"},"vehicle_type_id":"4","last_reported":1686845277,"current_range_meters":1600,"station_id":"","pricing_plan_id":"free"},{"bike_id":"603b1363-8ac4-4d74-a562-e83cfc74a23e","system_id":"levelo_inurba_marseille","lat":43.292644,"lon":5.384257,"is_reserved":false,"is_disabled":false,"rental_uris":{"android":"levelo://app?vid=603b1363-8ac4-4d74-a562-e83cfc74a23e","ios":"levelo://app?vid=603b1363-8ac4-4d74-a562-e83cfc74a23e"},"vehicle_type_id":"4","last_reported":1686845277,"current_range_meters":4000,"station_id":"ce4bh692rcd13ifvqea0","pricing_plan_id":"free"},{"bike_id":"6316e39b-8959-44c6-b039-55f4a288705d","system_id":"levelo_inurba_marseille","lat":43.290104,"lon":5.356111,"is_reserved":false,"is_disabled":false,"rental_uris":{"android":"levelo://app?vid=6316e39b-8959-44c6-b039-55f4a288705d","ios":"levelo://app?vid=6316e39b-8959-44c6-b039-55f4a288705d"},"vehicle_type_id":"4","last_reported":1686845277,"current_range_meters":18000,"station_id":"ce4bhb92rcd13ifvqen0","pricing_plan_id":"free"},{"bike_id":"4cec421e-8eec-4a92-a8ae-3bb9bd63bc15","system_id":"levelo_inurba_marseille","lat":43.290103,"lon":5.356114,"is_reserved":false,"is_disabled":false,"rental_uris":{"android":"levelo://app?vid=4cec421e-8eec-4a92-a8ae-3bb9bd63bc15","ios":"levelo://app?vid=4cec421e-8eec-4a92-a8ae-3bb9bd63bc15"},"vehicle_type_id":"4","last_reported":1686845277,"current_range_meters":4000,"station_id":"ce4bhb92rcd13ifvqen0","pricing_plan_id":"free"},{"bike_id":"0b9f7553-6cd4-426b-8ce0-140f2b664b40","system_id":"levelo_inurba_marseille","lat":43.290104,"lon":5.356111,"is_reserved":false,"is_disabled":false,"rental_uris":{"android":"levelo://app?vid=0b9f7553-6cd4-426b-8ce0-140f2b664b40","ios":"levelo://app?vid=0b9f7553-6cd4-426b-8ce0-140f2b664b40"},"vehicle_type_id":"4","last_reported":1686845277,"current_range_meters":11200,"station_id":"ce4bhb92rcd13ifvqen0","pricing_plan_id":"free"},{"bike_id":"8d72e798-05ae-4ead-8cc8-532efdb6c7fb","system_id":"levelo_inurba_marseille","lat":43.290103,"lon":5.356114,"is_reserved":false,"is_disabled":false,"rental_uris":{"android":"levelo://app?vid=8d72e798-05ae-4ead-8cc8-532efdb6c7fb","ios":"levelo://app?vid=8d72e798-05ae-4ead-8cc8-532efdb6c7fb"},"vehicle_type_id":"4","last_reported":1686845277,"current_range_meters":0,"station_id":"ce4bhb92rcd13ifvqen0","pricing_plan_id":"free"},{"bike_id":"4828fe20-4ccb-48a7-91cd-ef88cd86a8a1","system_id":"levelo_inurba_marseille","lat":43.330462,"lon":5.38915,"is_reserved":false,"is_disabled":false,"rental_uris":{"android":"levelo://app?vid=4828fe20-4ccb-48a7-91cd-ef88cd86a8a1","ios":"levelo://app?vid=4828fe20-4ccb-48a7-91cd-ef88cd86a8a1"},"vehicle_type_id":"4","last_reported":1686845277,"current_range_meters":25600,"station_id":"","pricing_plan_id":"free"},{"bike_id":"554193d9-ff51-4a00-a63e-b54be86ed5aa","system_id":"levelo_inurba_marseille","lat":43.290104,"lon":5.356111,"is_reserved":false,"is_disabled":false,"rental_uris":{"android":"levelo://app?vid=554193d9-ff51-4a00-a63e-b54be86ed5aa","ios":"levelo://app?vid=554193d9-ff51-4a00-a63e-b54be86ed5aa"},"vehicle_type_id":"4","last_reported":1686845277,"current_range_meters":14400,"station_id":"ce4bhb92rcd13ifvqen0","pricing_plan_id":"free"},{"bike_id":"f3491ab1-5aff-43b5-9fe0-8c56de07b76f","system_id":"levelo_inurba_marseille","lat":43.290995,"lon":5.381361,"is_reserved":false,"is_disabled":false,"rental_uris":{"android":"levelo://app?vid=f3491ab1-5aff-43b5-9fe0-8c56de07b76f","ios":"levelo://app?vid=f3491ab1-5aff-43b5-9fe0-8c56de07b76f"},"vehicle_type_id":"4","last_reported":1686845277,"current_range_meters":10800,"station_id":"ce4bh512rcd13ifvqe2g","pricing_plan_id":"free"},{"bike_id":"ef2a08ca-6c8f-4378-94d7-a8a20234cc52","system_id":"levelo_inurba_marseille","lat":43.290995,"lon":5.381361,"is_reserved":false,"is_disabled":false,"rental_uris":{"android":"levelo://app?vid=ef2a08ca-6c8f-4378-94d7-a8a20234cc52","ios":"levelo://app?vid=ef2a08ca-6c8f-4378-94d7-a8a20234cc52"},"vehicle_type_id":"4","last_reported":1686845277,"current_range_meters":15200,"station_id":"ce4bh512rcd13ifvqe2g","pricing_plan_id":"free"},{"bike_id":"998d4701-f637-4e65-b27b-8edea4e9dedb","system_id":"levelo_inurba_marseille","lat":43.2979,"lon":5.3934,"is_reserved":false,"is_disabled":false,"rental_uris":{"android":"levelo://app?vid=998d4701-f637-4e65-b27b-8edea4e9dedb","ios":"levelo://app?vid=998d4701-f637-4e65-b27b-8edea4e9dedb"},"vehicle_type_id":"4","last_reported":1686845277,"current_range_meters":12800,"station_id":"chh1huq6cuj3fo74tm60","pricing_plan_id":"free"},{"bike_id":"cab0c3fe-951f-4bd9-8ecf-814616851645","system_id":"levelo_inurba_marseille","lat":43.297815,"lon":5.393548,"is_reserved":false,"is_disabled":false,"rental_uris":{"android":"levelo://app?vid=cab0c3fe-951f-4bd9-8ecf-814616851645","ios":"levelo://app?vid=cab0c3fe-951f-4bd9-8ecf-814616851645"},"vehicle_type_id":"4","last_reported":1686845277,"current_range_meters":0,"station_id":"chh1huq6cuj3fo74tm60","pricing_plan_id":"free"},{"bike_id":"03611a39-b58f-4b54-8ad0-e4f69b6336b2","system_id":"levelo_inurba_marseille","lat":43.297815,"lon":5.393548,"is_reserved":false,"is_disabled":false,"rental_uris":{"android":"levelo://app?vid=03611a39-b58f-4b54-8ad0-e4f69b6336b2","ios":"levelo://app?vid=03611a39-b58f-4b54-8ad0-e4f69b6336b2"},"vehicle_type_id":"4","last_reported":1686845277,"current_range_meters":0,"station_id":"chh1huq6cuj3fo74tm60","pricing_plan_id":"free"},{"bike_id":"2fe3aac7-c162-48c0-8f28-c546777f9d96","system_id":"levelo_inurba_marseille","lat":43.28856,"lon":5.358371,"is_reserved":false,"is_disabled":false,"rental_uris":{"android":"levelo://app?vid=2fe3aac7-c162-48c0-8f28-c546777f9d96","ios":"levelo://app?vid=2fe3aac7-c162-48c0-8f28-c546777f9d96"},"vehicle_type_id":"4","last_reported":1686845277,"current_range_meters":0,"station_id":"ce4bhb12rcd13ifvqem0","pricing_plan_id":"free"},{"bike_id":"1e6f07e8-3b91-434b-bba2-21a2b138f718","system_id":"levelo_inurba_marseille","lat":43.28856,"lon":5.358371,"is_reserved":false,"is_disabled":false,"rental_uris":{"android":"levelo://app?vid=1e6f07e8-3b91-434b-bba2-21a2b138f718","ios":"levelo://app?vid=1e6f07e8-3b91-434b-bba2-21a2b138f718"},"vehicle_type_id":"4","last_reported":1686845277,"current_range_meters":26400,"station_id":"ce4bhb12rcd13ifvqem0","pricing_plan_id":"free"},{"bike_id":"c0fb8083-e02d-4dec-b1b9-fa095e6c5b75","system_id":"levelo_inurba_marseille","lat":43.337396,"lon":5.374526,"is_reserved":false,"is_disabled":false,"rental_uris":{"android":"levelo://app?vid=c0fb8083-e02d-4dec-b1b9-fa095e6c5b75","ios":"levelo://app?vid=c0fb8083-e02d-4dec-b1b9-fa095e6c5b75"},"vehicle_type_id":"4","last_reported":1686845277,"current_range_meters":4800,"station_id":"ce4bhp92rcd13ifvqhag","pricing_plan_id":"free"},{"bike_id":"9b29a533-50cf-4f7c-95d2-03dc1f60def8","system_id":"levelo_inurba_marseille","lat":43.33764,"lon":5.37443,"is_reserved":false,"is_disabled":false,"rental_uris":{"android":"levelo://app?vid=9b29a533-50cf-4f7c-95d2-03dc1f60def8","ios":"levelo://app?vid=9b29a533-50cf-4f7c-95d2-03dc1f60def8"},"vehicle_type_id":"4","last_reported":1686845277,"current_range_meters":15600,"station_id":"","pricing_plan_id":"free"},{"bike_id":"8f38b714-745e-4acf-8a49-5921eb618392","system_id":"levelo_inurba_marseille","lat":43.30642,"lon":5.401031,"is_reserved":false,"is_disabled":false,"rental_uris":{"android":"levelo://app?vid=8f38b714-745e-4acf-8a49-5921eb618392","ios":"levelo://app?vid=8f38b714-745e-4acf-8a49-5921eb618392"},"vehicle_type_id":"4","last_reported":1686845277,"current_range_meters":12400,"station_id":"ce4bh112rcd13ifvqda0","pricing_plan_id":"free"},{"bike_id":"47ee5115-3a11-4d28-afcc-14ef23d55878","system_id":"levelo_inurba_marseille","lat":43.30642,"lon":5.401031,"is_reserved":false,"is_disabled":false,"rental_uris":{"android":"levelo://app?vid=47ee5115-3a11-4d28-afcc-14ef23d55878","ios":"levelo://app?vid=47ee5115-3a11-4d28-afcc-14ef23d55878"},"vehicle_type_id":"4","last_reported":1686845277,"current_range_meters":17200,"station_id":"ce4bh112rcd13ifvqda0","pricing_plan_id":"free"},{"bike_id":"8b2c48ed-825e-4836-8a14-abb1a1e8c5d5","system_id":"levelo_inurba_marseille","lat":43.30642,"lon":5.401031,"is_reserved":false,"is_disabled":false,"rental_uris":{"android":"levelo://app?vid=8b2c48ed-825e-4836-8a14-abb1a1e8c5d5","ios":"levelo://app?vid=8b2c48ed-825e-4836-8a14-abb1a1e8c5d5"},"vehicle_type_id":"4","last_reported":1686845277,"current_range_meters":0,"station_id":"ce4bh112rcd13ifvqda0","pricing_plan_id":"free"},{"bike_id":"3b3d0520-a4c2-471a-b70f-d08dece5470f","system_id":"levelo_inurba_marseille","lat":43.29924,"lon":5.39752,"is_reserved":false,"is_disabled":false,"rental_uris":{"android":"levelo://app?vid=3b3d0520-a4c2-471a-b70f-d08dece5470f","ios":"levelo://app?vid=3b3d0520-a4c2-471a-b70f-d08dece5470f"},"vehicle_type_id":"4","last_reported":1686845277,"current_range_meters":25200,"station_id":"","pricing_plan_id":"free"},{"bike_id":"85b195e5-ba33-4db5-ac03-7e8b1b271a13","system_id":"levelo_inurba_marseille","lat":43.298681,"lon":5.397225,"is_reserved":false,"is_disabled":false,"rental_uris":{"android":"levelo://app?vid=85b195e5-ba33-4db5-ac03-7e8b1b271a13","ios":"levelo://app?vid=85b195e5-ba33-4db5-ac03-7e8b1b271a13"},"vehicle_type_id":"4","last_reported":1686845277,"current_range_meters":15600,"station_id":"ce4bh0h2rcd13ifvqd50","pricing_plan_id":"free"},{"bike_id":"569a3e29-4a7a-4543-bb1c-a3fa950e7788","system_id":"levelo_inurba_marseille","lat":43.28711,"lon":5.37399,"is_reserved":false,"is_disabled":false,"rental_uris":{"android":"levelo://app?vid=569a3e29-4a7a-4543-bb1c-a3fa950e7788","ios":"levelo://app?vid=569a3e29-4a7a-4543-bb1c-a3fa950e7788"},"vehicle_type_id":"4","last_reported":1686845277,"current_range_meters":2400,"station_id":"","pricing_plan_id":"free"},{"bike_id":"3b3d1bec-d392-4030-827b-79f9313517cb","system_id":"levelo_inurba_marseille","lat":43.28843,"lon":5.35305,"is_reserved":false,"is_disabled":false,"rental_uris":{"android":"levelo://app?vid=3b3d1bec-d392-4030-827b-79f9313517cb","ios":"levelo://app?vid=3b3d1bec-d392-4030-827b-79f9313517cb"},"vehicle_type_id":"4","last_reported":1686845277,"current_range_meters":10800,"station_id":"","pricing_plan_id":"free"},{"bike_id":"be3d886f-033d-4a0f-a9cc-a26d9f562a0f","system_id":"levelo_inurba_marseille","lat":43.295194,"lon":5.39397,"is_reserved":false,"is_disabled":false,"rental_uris":{"android":"levelo://app?vid=be3d886f-033d-4a0f-a9cc-a26d9f562a0f","ios":"levelo://app?vid=be3d886f-033d-4a0f-a9cc-a26d9f562a0f"},"vehicle_type_id":"4","last_reported":1686845277,"current_range_meters":11600,"station_id":"ce4bh292rcd13ifvqdf0","pricing_plan_id":"free"},{"bike_id":"bf5a2a4e-c072-4866-8245-894aabce16ce","system_id":"levelo_inurba_marseille","lat":43.286591,"lon":5.363346,"is_reserved":false,"is_disabled":false,"rental_uris":{"android":"levelo://app?vid=bf5a2a4e-c072-4866-8245-894aabce16ce","ios":"levelo://app?vid=bf5a2a4e-c072-4866-8245-894aabce16ce"},"vehicle_type_id":"4","last_reported":1686845277,"current_range_meters":21600,"station_id":"ce4bhah2rcd13ifvqej0","pricing_plan_id":"free"},{"bike_id":"187a366b-b921-44b2-9fb8-204851cd5518","system_id":"levelo_inurba_marseille","lat":43.30255,"lon":5.40085,"is_reserved":false,"is_disabled":false,"rental_uris":{"android":"levelo://app?vid=187a366b-b921-44b2-9fb8-204851cd5518","ios":"levelo://app?vid=187a366b-b921-44b2-9fb8-204851cd5518"},"vehicle_type_id":"4","last_reported":1686845277,"current_range_meters":4800,"station_id":"ce4bgvh2rcd13ifvqcs0","pricing_plan_id":"free"},{"bike_id":"6c0b32f1-093d-466c-9776-562f44577cfc","system_id":"levelo_inurba_marseille","lat":43.28608,"lon":5.37071,"is_reserved":false,"is_disabled":false,"rental_uris":{"android":"levelo://app?vid=6c0b32f1-093d-466c-9776-562f44577cfc","ios":"levelo://app?vid=6c0b32f1-093d-466c-9776-562f44577cfc"},"vehicle_type_id":"4","last_reported":1686845277,"current_range_meters":20800,"station_id":"ce4bht12rcd13ifvqi60","pricing_plan_id":"free"},{"bike_id":"428455fd-b5d3-490c-91dd-6019cfc92106","system_id":"levelo_inurba_marseille","lat":43.287184,"lon":5.37937,"is_reserved":false,"is_disabled":false,"rental_uris":{"android":"levelo://app?vid=428455fd-b5d3-490c-91dd-6019cfc92106","ios":"levelo://app?vid=428455fd-b5d3-490c-91dd-6019cfc92106"},"vehicle_type_id":"4","last_reported":1686845277,"current_range_meters":12800,"station_id":"ce4bh9p2rcd13ifvqec0","pricing_plan_id":"free"},{"bike_id":"f0f28a67-8c49-481e-969d-bc56a1eeda17","system_id":"levelo_inurba_marseille","lat":43.316517,"lon":5.404375,"is_reserved":false,"is_disabled":false,"rental_uris":{"android":"levelo://app?vid=f0f28a67-8c49-481e-969d-bc56a1eeda17","ios":"levelo://app?vid=f0f28a67-8c49-481e-969d-bc56a1eeda17"},"vehicle_type_id":"4","last_reported":1686845277,"current_range_meters":5600,"station_id":"ce4bh012rcd13ifvqd00","pricing_plan_id":"free"},{"bike_id":"f08809ad-73ec-47ea-8563-8dc2b936f039","system_id":"levelo_inurba_marseille","lat":43.316517,"lon":5.404375,"is_reserved":false,"is_disabled":false,"rental_uris":{"android":"levelo://app?vid=f08809ad-73ec-47ea-8563-8dc2b936f039","ios":"levelo://app?vid=f08809ad-73ec-47ea-8563-8dc2b936f039"},"vehicle_type_id":"4","last_reported":1686845277,"current_range_meters":12000,"station_id":"ce4bh012rcd13ifvqd00","pricing_plan_id":"free"},{"bike_id":"11a87c5a-884a-4fda-8e0c-496e7fbd4ba6","system_id":"levelo_inurba_marseille","lat":43.295194,"lon":5.39397,"is_reserved":false,"is_disabled":false,"rental_uris":{"android":"levelo://app?vid=11a87c5a-884a-4fda-8e0c-496e7fbd4ba6","ios":"levelo://app?vid=11a87c5a-884a-4fda-8e0c-496e7fbd4ba6"},"vehicle_type_id":"4","last_reported":1686845277,"current_range_meters":17200,"station_id":"ce4bh292rcd13ifvqdf0","pricing_plan_id":"free"},{"bike_id":"e9d87113-aa1c-4cca-86d8-25ea3654d95c","system_id":"levelo_inurba_marseille","lat":43.284538,"lon":5.358657,"is_reserved":false,"is_disabled":false,"rental_uris":{"android":"levelo://app?vid=e9d87113-aa1c-4cca-86d8-25ea3654d95c","ios":"levelo://app?vid=e9d87113-aa1c-4cca-86d8-25ea3654d95c"},"vehicle_type_id":"4","last_reported":1686845277,"current_range_meters":14400,"station_id":"ce4bhah2rcd13ifvqei0","pricing_plan_id":"free"},{"bike_id":"3f684f41-59ab-4f88-b68d-5b5f0deb8089","system_id":"levelo_inurba_marseille","lat":43.284538,"lon":5.358657,"is_reserved":false,"is_disabled":false,"rental_uris":{"android":"levelo://app?vid=3f684f41-59ab-4f88-b68d-5b5f0deb8089","ios":"levelo://app?vid=3f684f41-59ab-4f88-b68d-5b5f0deb8089"},"vehicle_type_id":"4","last_reported":1686845277,"current_range_meters":17600,"station_id":"ce4bhah2rcd13ifvqei0","pricing_plan_id":"free"},{"bike_id":"72460455-0bb6-4271-ab64-895e9dbaef5c","system_id":"levelo_inurba_marseille","lat":43.284534,"lon":5.358662,"is_reserved":false,"is_disabled":false,"rental_uris":{"android":"levelo://app?vid=72460455-0bb6-4271-ab64-895e9dbaef5c","ios":"levelo://app?vid=72460455-0bb6-4271-ab64-895e9dbaef5c"},"vehicle_type_id":"4","last_reported":1686845277,"current_range_meters":20000,"station_id":"ce4bhah2rcd13ifvqei0","pricing_plan_id":"free"},{"bike_id":"0d9ec475-11a7-4374-9878-542a4bf2f9eb","system_id":"levelo_inurba_marseille","lat":43.284538,"lon":5.358657,"is_reserved":false,"is_disabled":false,"rental_uris":{"android":"levelo://app?vid=0d9ec475-11a7-4374-9878-542a4bf2f9eb","ios":"levelo://app?vid=0d9ec475-11a7-4374-9878-542a4bf2f9eb"},"vehicle_type_id":"4","last_reported":1686845277,"current_range_meters":14400,"station_id":"ce4bhah2rcd13ifvqei0","pricing_plan_id":"free"},{"bike_id":"c1870959-b5b4-4ec2-9885-7bd877f60230","system_id":"levelo_inurba_marseille","lat":43.28461,"lon":5.35897,"is_reserved":false,"is_disabled":false,"rental_uris":{"android":"levelo://app?vid=c1870959-b5b4-4ec2-9885-7bd877f60230","ios":"levelo://app?vid=c1870959-b5b4-4ec2-9885-7bd877f60230"},"vehicle_type_id":"4","last_reported":1686845277,"current_range_meters":10800,"station_id":"ce4bhah2rcd13ifvqei0","pricing_plan_id":"free"},{"bike_id":"ff24642e-2550-48f1-a0fc-749335ef45a9","system_id":"levelo_inurba_marseille","lat":43.28463,"lon":5.35879,"is_reserved":false,"is_disabled":false,"rental_uris":{"android":"levelo://app?vid=ff24642e-2550-48f1-a0fc-749335ef45a9","ios":"levelo://app?vid=ff24642e-2550-48f1-a0fc-749335ef45a9"},"vehicle_type_id":"4","last_reported":1686845277,"current_range_meters":11600,"station_id":"ce4bhah2rcd13ifvqei0","pricing_plan_id":"free"},{"bike_id":"0202a84b-c929-459b-a009-82429e868350","system_id":"levelo_inurba_marseille","lat":43.284534,"lon":5.358662,"is_reserved":false,"is_disabled":false,"rental_uris":{"android":"levelo://app?vid=0202a84b-c929-459b-a009-82429e868350","ios":"levelo://app?vid=0202a84b-c929-459b-a009-82429e868350"},"vehicle_type_id":"4","last_reported":1686845277,"current_range_meters":26400,"station_id":"ce4bhah2rcd13ifvqei0","pricing_plan_id":"free"},{"bike_id":"fe095dad-973b-4dcc-9c9d-76773319cd3e","system_id":"levelo_inurba_marseille","lat":43.28624,"lon":5.35106,"is_reserved":false,"is_disabled":false,"rental_uris":{"android":"levelo://app?vid=fe095dad-973b-4dcc-9c9d-76773319cd3e","ios":"levelo://app?vid=fe095dad-973b-4dcc-9c9d-76773319cd3e"},"vehicle_type_id":"4","last_reported":1686845277,"current_range_meters":11600,"station_id":"","pricing_plan_id":"free"},{"bike_id":"3087d22c-08a9-4641-bda2-3695b8a31c6b","system_id":"levelo_inurba_marseille","lat":43.28619,"lon":5.35104,"is_reserved":false,"is_disabled":false,"rental_uris":{"android":"levelo://app?vid=3087d22c-08a9-4641-bda2-3695b8a31c6b","ios":"levelo://app?vid=3087d22c-08a9-4641-bda2-3695b8a31c6b"},"vehicle_type_id":"4","last_reported":1686845277,"current_range_meters":8400,"station_id":"","pricing_plan_id":"free"},{"bike_id":"e6a753c0-be55-4b87-9671-690a89182b1d","system_id":"levelo_inurba_marseille","lat":43.285856,"lon":5.350771,"is_reserved":false,"is_disabled":false,"rental_uris":{"android":"levelo://app?vid=e6a753c0-be55-4b87-9671-690a89182b1d","ios":"levelo://app?vid=e6a753c0-be55-4b87-9671-690a89182b1d"},"vehicle_type_id":"4","last_reported":1686845277,"current_range_meters":20800,"station_id":"ce4bhch2rcd13ifvqeug","pricing_plan_id":"free"},{"bike_id":"2c4a8984-75ed-47d6-9cc0-046b3cf70b53","system_id":"levelo_inurba_marseille","lat":43.285856,"lon":5.350771,"is_reserved":false,"is_disabled":false,"rental_uris":{"android":"levelo://app?vid=2c4a8984-75ed-47d6-9cc0-046b3cf70b53","ios":"levelo://app?vid=2c4a8984-75ed-47d6-9cc0-046b3cf70b53"},"vehicle_type_id":"4","last_reported":1686845277,"current_range_meters":800,"station_id":"ce4bhch2rcd13ifvqeug","pricing_plan_id":"free"},{"bike_id":"7ab49200-30c7-4915-9b5f-4da464bd5ab7","system_id":"levelo_inurba_marseille","lat":43.283998,"lon":5.375062,"is_reserved":false,"is_disabled":false,"rental_uris":{"android":"levelo://app?vid=7ab49200-30c7-4915-9b5f-4da464bd5ab7","ios":"levelo://app?vid=7ab49200-30c7-4915-9b5f-4da464bd5ab7"},"vehicle_type_id":"4","last_reported":1686845277,"current_range_meters":3200,"station_id":"ce4bh412rcd13ifvqds0","pricing_plan_id":"free"},{"bike_id":"25c0f92c-eadc-465e-98a2-ee55e97528e6","system_id":"levelo_inurba_marseille","lat":43.283998,"lon":5.375062,"is_reserved":false,"is_disabled":false,"rental_uris":{"android":"levelo://app?vid=25c0f92c-eadc-465e-98a2-ee55e97528e6","ios":"levelo://app?vid=25c0f92c-eadc-465e-98a2-ee55e97528e6"},"vehicle_type_id":"4","last_reported":1686845277,"current_range_meters":6000,"station_id":"ce4bh412rcd13ifvqds0","pricing_plan_id":"free"},{"bike_id":"19309034-c23a-4bb3-81e7-8179d62d947e","system_id":"levelo_inurba_marseille","lat":43.283998,"lon":5.375062,"is_reserved":false,"is_disabled":false,"rental_uris":{"android":"levelo://app?vid=19309034-c23a-4bb3-81e7-8179d62d947e","ios":"levelo://app?vid=19309034-c23a-4bb3-81e7-8179d62d947e"},"vehicle_type_id":"4","last_reported":1686845277,"current_range_meters":10000,"station_id":"ce4bh412rcd13ifvqds0","pricing_plan_id":"free"},{"bike_id":"16e5fedd-6e86-436a-a0a2-72c7cd60a6ea","system_id":"levelo_inurba_marseille","lat":43.32332,"lon":5.40612,"is_reserved":false,"is_disabled":false,"rental_uris":{"android":"levelo://app?vid=16e5fedd-6e86-436a-a0a2-72c7cd60a6ea","ios":"levelo://app?vid=16e5fedd-6e86-436a-a0a2-72c7cd60a6ea"},"vehicle_type_id":"4","last_reported":1686845277,"current_range_meters":31200,"station_id":"ce4bhq92rcd13ifvqhjg","pricing_plan_id":"free"},{"bike_id":"26c128b2-24ff-4735-8883-1c86ed16010f","system_id":"levelo_inurba_marseille","lat":43.33732,"lon":5.39191,"is_reserved":false,"is_disabled":false,"rental_uris":{"android":"levelo://app?vid=26c128b2-24ff-4735-8883-1c86ed16010f","ios":"levelo://app?vid=26c128b2-24ff-4735-8883-1c86ed16010f"},"vehicle_type_id":"4","last_reported":1686845277,"current_range_meters":4800,"station_id":"","pricing_plan_id":"free"},{"bike_id":"00b4d942-d645-4a17-a320-9c02b5ecca68","system_id":"levelo_inurba_marseille","lat":43.288497,"lon":5.393089,"is_reserved":false,"is_disabled":false,"rental_uris":{"android":"levelo://app?vid=00b4d942-d645-4a17-a320-9c02b5ecca68","ios":"levelo://app?vid=00b4d942-d645-4a17-a320-9c02b5ecca68"},"vehicle_type_id":"4","last_reported":1686845277,"current_range_meters":21200,"station_id":"ce4bh2p2rcd13ifvqdi0","pricing_plan_id":"free"},{"bike_id":"cf2d49c2-e479-47aa-a8b5-8dff781031eb","system_id":"levelo_inurba_marseille","lat":43.28433,"lon":5.35001,"is_reserved":false,"is_disabled":false,"rental_uris":{"android":"levelo://app?vid=cf2d49c2-e479-47aa-a8b5-8dff781031eb","ios":"levelo://app?vid=cf2d49c2-e479-47aa-a8b5-8dff781031eb"},"vehicle_type_id":"4","last_reported":1686845277,"current_range_meters":22000,"station_id":"","pricing_plan_id":"free"},{"bike_id":"b85c31ef-79ac-49bf-92a3-370c0b79f547","system_id":"levelo_inurba_marseille","lat":43.28424,"lon":5.34988,"is_reserved":false,"is_disabled":false,"rental_uris":{"android":"levelo://app?vid=b85c31ef-79ac-49bf-92a3-370c0b79f547","ios":"levelo://app?vid=b85c31ef-79ac-49bf-92a3-370c0b79f547"},"vehicle_type_id":"4","last_reported":1686845277,"current_range_meters":14000,"station_id":"ce4bhbh2rcd13ifvqepg","pricing_plan_id":"free"},{"bike_id":"299d0b30-1fdb-4195-a691-e38ed99b81cd","system_id":"levelo_inurba_marseille","lat":43.28423,"lon":5.34988,"is_reserved":false,"is_disabled":false,"rental_uris":{"android":"levelo://app?vid=299d0b30-1fdb-4195-a691-e38ed99b81cd","ios":"levelo://app?vid=299d0b30-1fdb-4195-a691-e38ed99b81cd"},"vehicle_type_id":"4","last_reported":1686845277,"current_range_meters":5200,"station_id":"ce4bhbh2rcd13ifvqepg","pricing_plan_id":"free"},{"bike_id":"7a39ed81-d63f-481c-9955-d670e9e8dfac","system_id":"levelo_inurba_marseille","lat":43.28418,"lon":5.34994,"is_reserved":false,"is_disabled":false,"rental_uris":{"android":"levelo://app?vid=7a39ed81-d63f-481c-9955-d670e9e8dfac","ios":"levelo://app?vid=7a39ed81-d63f-481c-9955-d670e9e8dfac"},"vehicle_type_id":"4","last_reported":1686845277,"current_range_meters":30800,"station_id":"ce4bhbh2rcd13ifvqepg","pricing_plan_id":"free"},{"bike_id":"cfdcc4dd-2aa4-426e-a209-82aa6f34486a","system_id":"levelo_inurba_marseille","lat":43.28268,"lon":5.35072,"is_reserved":false,"is_disabled":false,"rental_uris":{"android":"levelo://app?vid=cfdcc4dd-2aa4-426e-a209-82aa6f34486a","ios":"levelo://app?vid=cfdcc4dd-2aa4-426e-a209-82aa6f34486a"},"vehicle_type_id":"4","last_reported":1686845277,"current_range_meters":0,"station_id":"ce4bhbp2rcd13ifvqerg","pricing_plan_id":"free"},{"bike_id":"4c96ae84-af31-4e51-b81a-e75b32680dbd","system_id":"levelo_inurba_marseille","lat":43.280382,"lon":5.369291,"is_reserved":false,"is_disabled":false,"rental_uris":{"android":"levelo://app?vid=4c96ae84-af31-4e51-b81a-e75b32680dbd","ios":"levelo://app?vid=4c96ae84-af31-4e51-b81a-e75b32680dbd"},"vehicle_type_id":"4","last_reported":1686845277,"current_range_meters":9600,"station_id":"ce4bha12rcd13ifvqef0","pricing_plan_id":"free"},{"bike_id":"fa7133be-337c-42de-9917-cb9df945a783","system_id":"levelo_inurba_marseille","lat":43.28039,"lon":5.369297,"is_reserved":false,"is_disabled":false,"rental_uris":{"android":"levelo://app?vid=fa7133be-337c-42de-9917-cb9df945a783","ios":"levelo://app?vid=fa7133be-337c-42de-9917-cb9df945a783"},"vehicle_type_id":"4","last_reported":1686845277,"current_range_meters":31600,"station_id":"ce4bha12rcd13ifvqef0","pricing_plan_id":"free"},{"bike_id":"0a9438b6-d269-492e-b96e-1d9e7a876333","system_id":"levelo_inurba_marseille","lat":43.28039,"lon":5.369297,"is_reserved":false,"is_disabled":false,"rental_uris":{"android":"levelo://app?vid=0a9438b6-d269-492e-b96e-1d9e7a876333","ios":"levelo://app?vid=0a9438b6-d269-492e-b96e-1d9e7a876333"},"vehicle_type_id":"4","last_reported":1686845277,"current_range_meters":5600,"station_id":"ce4bha12rcd13ifvqef0","pricing_plan_id":"free"},{"bike_id":"637582f7-24d9-4618-8602-6939952e1a38","system_id":"levelo_inurba_marseille","lat":43.283502,"lon":5.386471,"is_reserved":false,"is_disabled":false,"rental_uris":{"android":"levelo://app?vid=637582f7-24d9-4618-8602-6939952e1a38","ios":"levelo://app?vid=637582f7-24d9-4618-8602-6939952e1a38"},"vehicle_type_id":"4","last_reported":1686845277,"current_range_meters":0,"station_id":"ce4bh492rcd13ifvqdvg","pricing_plan_id":"free"},{"bike_id":"275bc1eb-061e-45e4-a237-3eb70723d0dd","system_id":"levelo_inurba_marseille","lat":43.280382,"lon":5.369291,"is_reserved":false,"is_disabled":false,"rental_uris":{"android":"levelo://app?vid=275bc1eb-061e-45e4-a237-3eb70723d0dd","ios":"levelo://app?vid=275bc1eb-061e-45e4-a237-3eb70723d0dd"},"vehicle_type_id":"4","last_reported":1686845277,"current_range_meters":25200,"station_id":"ce4bha12rcd13ifvqef0","pricing_plan_id":"free"},{"bike_id":"0487ba0b-945a-4737-b550-52e537286131","system_id":"levelo_inurba_marseille","lat":43.280382,"lon":5.369291,"is_reserved":false,"is_disabled":false,"rental_uris":{"android":"levelo://app?vid=0487ba0b-945a-4737-b550-52e537286131","ios":"levelo://app?vid=0487ba0b-945a-4737-b550-52e537286131"},"vehicle_type_id":"4","last_reported":1686845277,"current_range_meters":10800,"station_id":"ce4bha12rcd13ifvqef0","pricing_plan_id":"free"},{"bike_id":"68890571-e651-4c1e-832f-2315664bfb80","system_id":"levelo_inurba_marseille","lat":43.280382,"lon":5.369291,"is_reserved":false,"is_disabled":false,"rental_uris":{"android":"levelo://app?vid=68890571-e651-4c1e-832f-2315664bfb80","ios":"levelo://app?vid=68890571-e651-4c1e-832f-2315664bfb80"},"vehicle_type_id":"4","last_reported":1686845277,"current_range_meters":20000,"station_id":"ce4bha12rcd13ifvqef0","pricing_plan_id":"free"},{"bike_id":"4e39b2d7-c627-4b95-9d45-4a57dbf48254","system_id":"levelo_inurba_marseille","lat":43.28039,"lon":5.369297,"is_reserved":false,"is_disabled":false,"rental_uris":{"android":"levelo://app?vid=4e39b2d7-c627-4b95-9d45-4a57dbf48254","ios":"levelo://app?vid=4e39b2d7-c627-4b95-9d45-4a57dbf48254"},"vehicle_type_id":"4","last_reported":1686845277,"current_range_meters":24400,"station_id":"ce4bha12rcd13ifvqef0","pricing_plan_id":"free"},{"bike_id":"db07f6e5-b6d5-4f7e-84fc-210bfbaded13","system_id":"levelo_inurba_marseille","lat":43.28035,"lon":5.36966,"is_reserved":false,"is_disabled":false,"rental_uris":{"android":"levelo://app?vid=db07f6e5-b6d5-4f7e-84fc-210bfbaded13","ios":"levelo://app?vid=db07f6e5-b6d5-4f7e-84fc-210bfbaded13"},"vehicle_type_id":"4","last_reported":1686845277,"current_range_meters":31600,"station_id":"ce4bha12rcd13ifvqef0","pricing_plan_id":"free"},{"bike_id":"6f0f745c-9fa1-4c32-9565-7d95e89d9c0b","system_id":"levelo_inurba_marseille","lat":43.28039,"lon":5.369297,"is_reserved":false,"is_disabled":false,"rental_uris":{"android":"levelo://app?vid=6f0f745c-9fa1-4c32-9565-7d95e89d9c0b","ios":"levelo://app?vid=6f0f745c-9fa1-4c32-9565-7d95e89d9c0b"},"vehicle_type_id":"4","last_reported":1686845277,"current_range_meters":8400,"station_id":"ce4bha12rcd13ifvqef0","pricing_plan_id":"free"},{"bike_id":"d82fd641-bb9e-4e03-b84a-11af45edf71c","system_id":"levelo_inurba_marseille","lat":43.28039,"lon":5.369297,"is_reserved":false,"is_disabled":false,"rental_uris":{"android":"levelo://app?vid=d82fd641-bb9e-4e03-b84a-11af45edf71c","ios":"levelo://app?vid=d82fd641-bb9e-4e03-b84a-11af45edf71c"},"vehicle_type_id":"4","last_reported":1686845277,"current_range_meters":31600,"station_id":"ce4bha12rcd13ifvqef0","pricing_plan_id":"free"},{"bike_id":"f80fa8c1-b453-4dde-b4b3-93ef701a329d","system_id":"levelo_inurba_marseille","lat":43.28039,"lon":5.369297,"is_reserved":false,"is_disabled":false,"rental_uris":{"android":"levelo://app?vid=f80fa8c1-b453-4dde-b4b3-93ef701a329d","ios":"levelo://app?vid=f80fa8c1-b453-4dde-b4b3-93ef701a329d"},"vehicle_type_id":"4","last_reported":1686845277,"current_range_meters":11600,"station_id":"ce4bha12rcd13ifvqef0","pricing_plan_id":"free"},{"bike_id":"49e50103-a213-43e2-802a-632d0e024a61","system_id":"levelo_inurba_marseille","lat":43.296263,"lon":5.40601,"is_reserved":false,"is_disabled":false,"rental_uris":{"android":"levelo://app?vid=49e50103-a213-43e2-802a-632d0e024a61","ios":"levelo://app?vid=49e50103-a213-43e2-802a-632d0e024a61"},"vehicle_type_id":"4","last_reported":1686845277,"current_range_meters":2800,"station_id":"ce4bh0h2rcd13ifvqd60","pricing_plan_id":"free"},{"bike_id":"f6b52fad-d030-46e4-854f-1fe857f71fa7","system_id":"levelo_inurba_marseille","lat":43.285742,"lon":5.395004,"is_reserved":false,"is_disabled":false,"rental_uris":{"android":"levelo://app?vid=f6b52fad-d030-46e4-854f-1fe857f71fa7","ios":"levelo://app?vid=f6b52fad-d030-46e4-854f-1fe857f71fa7"},"vehicle_type_id":"4","last_reported":1686845277,"current_range_meters":14800,"station_id":"ce4bh292rcd13ifvqdg0","pricing_plan_id":"free"},{"bike_id":"ac65b73e-2465-468c-8289-45bb06f465f6","system_id":"levelo_inurba_marseille","lat":43.326605,"lon":5.409903,"is_reserved":false,"is_disabled":false,"rental_uris":{"android":"levelo://app?vid=ac65b73e-2465-468c-8289-45bb06f465f6","ios":"levelo://app?vid=ac65b73e-2465-468c-8289-45bb06f465f6"},"vehicle_type_id":"4","last_reported":1686845277,"current_range_meters":26400,"station_id":"ce4bhpp2rcd13ifvqhgg","pricing_plan_id":"free"},{"bike_id":"1b0675aa-faf3-4820-a1b3-a5b4e6f3dc35","system_id":"levelo_inurba_marseille","lat":43.32664,"lon":5.4099,"is_reserved":false,"is_disabled":false,"rental_uris":{"android":"levelo://app?vid=1b0675aa-faf3-4820-a1b3-a5b4e6f3dc35","ios":"levelo://app?vid=1b0675aa-faf3-4820-a1b3-a5b4e6f3dc35"},"vehicle_type_id":"4","last_reported":1686845277,"current_range_meters":15600,"station_id":"ce4bhpp2rcd13ifvqhgg","pricing_plan_id":"free"},{"bike_id":"769bb55a-abcb-4c6d-8011-2fb4f28d97be","system_id":"levelo_inurba_marseille","lat":43.326605,"lon":5.409903,"is_reserved":false,"is_disabled":false,"rental_uris":{"android":"levelo://app?vid=769bb55a-abcb-4c6d-8011-2fb4f28d97be","ios":"levelo://app?vid=769bb55a-abcb-4c6d-8011-2fb4f28d97be"},"vehicle_type_id":"4","last_reported":1686845277,"current_range_meters":8800,"station_id":"ce4bhpp2rcd13ifvqhgg","pricing_plan_id":"free"},{"bike_id":"559238fb-dd05-4af4-8d61-d4df202e767f","system_id":"levelo_inurba_marseille","lat":43.32667,"lon":5.40992,"is_reserved":false,"is_disabled":false,"rental_uris":{"android":"levelo://app?vid=559238fb-dd05-4af4-8d61-d4df202e767f","ios":"levelo://app?vid=559238fb-dd05-4af4-8d61-d4df202e767f"},"vehicle_type_id":"4","last_reported":1686845277,"current_range_meters":23600,"station_id":"ce4bhpp2rcd13ifvqhgg","pricing_plan_id":"free"},{"bike_id":"6cb918a1-7465-46de-881e-6995ae3ef98f","system_id":"levelo_inurba_marseille","lat":43.287154,"lon":5.399979,"is_reserved":false,"is_disabled":false,"rental_uris":{"android":"levelo://app?vid=6cb918a1-7465-46de-881e-6995ae3ef98f","ios":"levelo://app?vid=6cb918a1-7465-46de-881e-6995ae3ef98f"},"vehicle_type_id":"4","last_reported":1686845277,"current_range_meters":0,"station_id":"ce4bho92rcd13ifvqh3g","pricing_plan_id":"free"},{"bike_id":"c9528dda-eadc-4db7-b0f8-989e57614768","system_id":"levelo_inurba_marseille","lat":43.28066,"lon":5.38746,"is_reserved":false,"is_disabled":false,"rental_uris":{"android":"levelo://app?vid=c9528dda-eadc-4db7-b0f8-989e57614768","ios":"levelo://app?vid=c9528dda-eadc-4db7-b0f8-989e57614768"},"vehicle_type_id":"4","last_reported":1686845277,"current_range_meters":16800,"station_id":"","pricing_plan_id":"free"},{"bike_id":"1e87f2a7-b39f-4f76-9939-bd1562f3aa47","system_id":"levelo_inurba_marseille","lat":43.279742,"lon":5.38744,"is_reserved":false,"is_disabled":false,"rental_uris":{"android":"levelo://app?vid=1e87f2a7-b39f-4f76-9939-bd1562f3aa47","ios":"levelo://app?vid=1e87f2a7-b39f-4f76-9939-bd1562f3aa47"},"vehicle_type_id":"4","last_reported":1686845277,"current_range_meters":7200,"station_id":"ce4bhg12rcd13ifvqf80","pricing_plan_id":"free"},{"bike_id":"47024854-e41a-4509-b8a3-7b540be5e122","system_id":"levelo_inurba_marseille","lat":43.320045,"lon":5.415048,"is_reserved":false,"is_disabled":false,"rental_uris":{"android":"levelo://app?vid=47024854-e41a-4509-b8a3-7b540be5e122","ios":"levelo://app?vid=47024854-e41a-4509-b8a3-7b540be5e122"},"vehicle_type_id":"4","last_reported":1686845277,"current_range_meters":31200,"station_id":"ce4bhq92rcd13ifvqhkg","pricing_plan_id":"free"},{"bike_id":"a39ec750-1e0c-4e6e-860b-1932ca108867","system_id":"levelo_inurba_marseille","lat":43.320045,"lon":5.415046,"is_reserved":false,"is_disabled":false,"rental_uris":{"android":"levelo://app?vid=a39ec750-1e0c-4e6e-860b-1932ca108867","ios":"levelo://app?vid=a39ec750-1e0c-4e6e-860b-1932ca108867"},"vehicle_type_id":"4","last_reported":1686845277,"current_range_meters":30800,"station_id":"ce4bhq92rcd13ifvqhkg","pricing_plan_id":"free"},{"bike_id":"4c690297-2995-44ba-9c9b-859f25452df9","system_id":"levelo_inurba_marseille","lat":43.320045,"lon":5.415048,"is_reserved":false,"is_disabled":false,"rental_uris":{"android":"levelo://app?vid=4c690297-2995-44ba-9c9b-859f25452df9","ios":"levelo://app?vid=4c690297-2995-44ba-9c9b-859f25452df9"},"vehicle_type_id":"4","last_reported":1686845277,"current_range_meters":27600,"station_id":"ce4bhq92rcd13ifvqhkg","pricing_plan_id":"free"},{"bike_id":"98637cae-a152-4843-a02f-d30ac99ec946","system_id":"levelo_inurba_marseille","lat":43.320045,"lon":5.415048,"is_reserved":false,"is_disabled":false,"rental_uris":{"android":"levelo://app?vid=98637cae-a152-4843-a02f-d30ac99ec946","ios":"levelo://app?vid=98637cae-a152-4843-a02f-d30ac99ec946"},"vehicle_type_id":"4","last_reported":1686845277,"current_range_meters":21200,"station_id":"ce4bhq92rcd13ifvqhkg","pricing_plan_id":"free"},{"bike_id":"d1816290-ceb3-480c-914c-8cd16fa9657e","system_id":"levelo_inurba_marseille","lat":43.320045,"lon":5.415046,"is_reserved":false,"is_disabled":false,"rental_uris":{"android":"levelo://app?vid=d1816290-ceb3-480c-914c-8cd16fa9657e","ios":"levelo://app?vid=d1816290-ceb3-480c-914c-8cd16fa9657e"},"vehicle_type_id":"4","last_reported":1686845277,"current_range_meters":18000,"station_id":"ce4bhq92rcd13ifvqhkg","pricing_plan_id":"free"},{"bike_id":"aaa08283-b9de-4916-8a2b-1936aa2d28de","system_id":"levelo_inurba_marseille","lat":43.320045,"lon":5.415048,"is_reserved":false,"is_disabled":false,"rental_uris":{"android":"levelo://app?vid=aaa08283-b9de-4916-8a2b-1936aa2d28de","ios":"levelo://app?vid=aaa08283-b9de-4916-8a2b-1936aa2d28de"},"vehicle_type_id":"4","last_reported":1686845277,"current_range_meters":31600,"station_id":"ce4bhq92rcd13ifvqhkg","pricing_plan_id":"free"},{"bike_id":"b3016403-edd8-4ffd-a2b9-1b615850a062","system_id":"levelo_inurba_marseille","lat":43.320045,"lon":5.415046,"is_reserved":false,"is_disabled":false,"rental_uris":{"android":"levelo://app?vid=b3016403-edd8-4ffd-a2b9-1b615850a062","ios":"levelo://app?vid=b3016403-edd8-4ffd-a2b9-1b615850a062"},"vehicle_type_id":"4","last_reported":1686845277,"current_range_meters":30400,"station_id":"ce4bhq92rcd13ifvqhkg","pricing_plan_id":"free"},{"bike_id":"a5ffcb6a-ff26-425d-a95e-89e965d453b5","system_id":"levelo_inurba_marseille","lat":43.27618,"lon":5.361009,"is_reserved":false,"is_disabled":false,"rental_uris":{"android":"levelo://app?vid=a5ffcb6a-ff26-425d-a95e-89e965d453b5","ios":"levelo://app?vid=a5ffcb6a-ff26-425d-a95e-89e965d453b5"},"vehicle_type_id":"4","last_reported":1686845277,"current_range_meters":14000,"station_id":"ce4bgj92rcd13ifvqbe0","pricing_plan_id":"free"},{"bike_id":"ad13db9c-6659-4523-bb3d-12059a026b83","system_id":"levelo_inurba_marseille","lat":43.276179,"lon":5.361009,"is_reserved":false,"is_disabled":false,"rental_uris":{"android":"levelo://app?vid=ad13db9c-6659-4523-bb3d-12059a026b83","ios":"levelo://app?vid=ad13db9c-6659-4523-bb3d-12059a026b83"},"vehicle_type_id":"4","last_reported":1686845277,"current_range_meters":20800,"station_id":"ce4bgj92rcd13ifvqbe0","pricing_plan_id":"free"},{"bike_id":"f86c5787-99d9-4e6d-9943-d07a7cc3b5fd","system_id":"levelo_inurba_marseille","lat":43.32549,"lon":5.41448,"is_reserved":false,"is_disabled":false,"rental_uris":{"android":"levelo://app?vid=f86c5787-99d9-4e6d-9943-d07a7cc3b5fd","ios":"levelo://app?vid=f86c5787-99d9-4e6d-9943-d07a7cc3b5fd"},"vehicle_type_id":"4","last_reported":1686845277,"current_range_meters":19600,"station_id":"","pricing_plan_id":"free"},{"bike_id":"970366a0-aa12-4866-9c0f-ca9c0603513b","system_id":"levelo_inurba_marseille","lat":43.325233,"lon":5.414318,"is_reserved":false,"is_disabled":false,"rental_uris":{"android":"levelo://app?vid=970366a0-aa12-4866-9c0f-ca9c0603513b","ios":"levelo://app?vid=970366a0-aa12-4866-9c0f-ca9c0603513b"},"vehicle_type_id":"4","last_reported":1686845277,"current_range_meters":31200,"station_id":"ce4bhq12rcd13ifvqhhg","pricing_plan_id":"free"},{"bike_id":"58c2cfda-3a79-4559-a0e3-c25159d2d281","system_id":"levelo_inurba_marseille","lat":43.280725,"lon":5.396522,"is_reserved":false,"is_disabled":false,"rental_uris":{"android":"levelo://app?vid=58c2cfda-3a79-4559-a0e3-c25159d2d281","ios":"levelo://app?vid=58c2cfda-3a79-4559-a0e3-c25159d2d281"},"vehicle_type_id":"4","last_reported":1686845277,"current_range_meters":20400,"station_id":"ce4bho12rcd13ifvqh2g","pricing_plan_id":"free"},{"bike_id":"d06a801c-20e2-4a3f-840d-5af8312b9242","system_id":"levelo_inurba_marseille","lat":43.273613,"lon":5.362705,"is_reserved":false,"is_disabled":false,"rental_uris":{"android":"levelo://app?vid=d06a801c-20e2-4a3f-840d-5af8312b9242","ios":"levelo://app?vid=d06a801c-20e2-4a3f-840d-5af8312b9242"},"vehicle_type_id":"4","last_reported":1686845277,"current_range_meters":31600,"station_id":"ce4bhbh2rcd13ifvqeo0","pricing_plan_id":"free"},{"bike_id":"a8e3e458-e8f0-4032-99ed-3b44bec93a12","system_id":"levelo_inurba_marseille","lat":43.275625,"lon":5.384392,"is_reserved":false,"is_disabled":false,"rental_uris":{"android":"levelo://app?vid=a8e3e458-e8f0-4032-99ed-3b44bec93a12","ios":"levelo://app?vid=a8e3e458-e8f0-4032-99ed-3b44bec93a12"},"vehicle_type_id":"4","last_reported":1686845277,"current_range_meters":18400,"station_id":"ce4bhh92rcd13ifvqfi0","pricing_plan_id":"free"},{"bike_id":"3c88d91b-fdfd-4015-a72d-74659c1d1937","system_id":"levelo_inurba_marseille","lat":43.27384,"lon":5.36254,"is_reserved":false,"is_disabled":false,"rental_uris":{"android":"levelo://app?vid=3c88d91b-fdfd-4015-a72d-74659c1d1937","ios":"levelo://app?vid=3c88d91b-fdfd-4015-a72d-74659c1d1937"},"vehicle_type_id":"4","last_reported":1686845277,"current_range_meters":14000,"station_id":"","pricing_plan_id":"free"},{"bike_id":"5b6bee49-7634-4286-a0eb-90fc2f483b3f","system_id":"levelo_inurba_marseille","lat":43.273613,"lon":5.362705,"is_reserved":false,"is_disabled":false,"rental_uris":{"android":"levelo://app?vid=5b6bee49-7634-4286-a0eb-90fc2f483b3f","ios":"levelo://app?vid=5b6bee49-7634-4286-a0eb-90fc2f483b3f"},"vehicle_type_id":"4","last_reported":1686845277,"current_range_meters":31200,"station_id":"ce4bhbh2rcd13ifvqeo0","pricing_plan_id":"free"},{"bike_id":"9af07c37-369a-482c-95bc-4e3b9bf4976c","system_id":"levelo_inurba_marseille","lat":43.273613,"lon":5.362705,"is_reserved":false,"is_disabled":false,"rental_uris":{"android":"levelo://app?vid=9af07c37-369a-482c-95bc-4e3b9bf4976c","ios":"levelo://app?vid=9af07c37-369a-482c-95bc-4e3b9bf4976c"},"vehicle_type_id":"4","last_reported":1686845277,"current_range_meters":12000,"station_id":"ce4bhbh2rcd13ifvqeo0","pricing_plan_id":"free"},{"bike_id":"e8c99334-4905-48e2-b3d8-07d40351b41d","system_id":"levelo_inurba_marseille","lat":43.27383,"lon":5.36257,"is_reserved":false,"is_disabled":false,"rental_uris":{"android":"levelo://app?vid=e8c99334-4905-48e2-b3d8-07d40351b41d","ios":"levelo://app?vid=e8c99334-4905-48e2-b3d8-07d40351b41d"},"vehicle_type_id":"4","last_reported":1686845277,"current_range_meters":29600,"station_id":"","pricing_plan_id":"free"},{"bike_id":"016dc143-d186-4a4a-b4ef-6d472f3a0e8a","system_id":"levelo_inurba_marseille","lat":43.273609,"lon":5.362708,"is_reserved":false,"is_disabled":false,"rental_uris":{"android":"levelo://app?vid=016dc143-d186-4a4a-b4ef-6d472f3a0e8a","ios":"levelo://app?vid=016dc143-d186-4a4a-b4ef-6d472f3a0e8a"},"vehicle_type_id":"4","last_reported":1686845277,"current_range_meters":13600,"station_id":"ce4bhbh2rcd13ifvqeo0","pricing_plan_id":"free"},{"bike_id":"fc783805-8cb1-4e67-ab15-28bb6de08597","system_id":"levelo_inurba_marseille","lat":43.27382,"lon":5.3627,"is_reserved":false,"is_disabled":false,"rental_uris":{"android":"levelo://app?vid=fc783805-8cb1-4e67-ab15-28bb6de08597","ios":"levelo://app?vid=fc783805-8cb1-4e67-ab15-28bb6de08597"},"vehicle_type_id":"4","last_reported":1686845277,"current_range_meters":10800,"station_id":"ce4bhbh2rcd13ifvqeo0","pricing_plan_id":"free"},{"bike_id":"5590fea3-ba20-4ce7-a8c0-e1d07cc61fe2","system_id":"levelo_inurba_marseille","lat":43.273613,"lon":5.362705,"is_reserved":false,"is_disabled":false,"rental_uris":{"android":"levelo://app?vid=5590fea3-ba20-4ce7-a8c0-e1d07cc61fe2","ios":"levelo://app?vid=5590fea3-ba20-4ce7-a8c0-e1d07cc61fe2"},"vehicle_type_id":"4","last_reported":1686845277,"current_range_meters":31200,"station_id":"ce4bhbh2rcd13ifvqeo0","pricing_plan_id":"free"},{"bike_id":"0a953ba9-4297-4c5f-a6fb-c55bef4392a1","system_id":"levelo_inurba_marseille","lat":43.273613,"lon":5.362705,"is_reserved":false,"is_disabled":false,"rental_uris":{"android":"levelo://app?vid=0a953ba9-4297-4c5f-a6fb-c55bef4392a1","ios":"levelo://app?vid=0a953ba9-4297-4c5f-a6fb-c55bef4392a1"},"vehicle_type_id":"4","last_reported":1686845277,"current_range_meters":17200,"station_id":"ce4bhbh2rcd13ifvqeo0","pricing_plan_id":"free"},{"bike_id":"d5ce0bbc-52ce-4d8b-b06e-c73c0d59182f","system_id":"levelo_inurba_marseille","lat":43.2738,"lon":5.3627,"is_reserved":false,"is_disabled":false,"rental_uris":{"android":"levelo://app?vid=d5ce0bbc-52ce-4d8b-b06e-c73c0d59182f","ios":"levelo://app?vid=d5ce0bbc-52ce-4d8b-b06e-c73c0d59182f"},"vehicle_type_id":"4","last_reported":1686845277,"current_range_meters":31200,"station_id":"ce4bhbh2rcd13ifvqeo0","pricing_plan_id":"free"},{"bike_id":"ee05eaa3-25e3-4af2-98bf-c2d8f67c04be","system_id":"levelo_inurba_marseille","lat":43.2738,"lon":5.36267,"is_reserved":false,"is_disabled":false,"rental_uris":{"android":"levelo://app?vid=ee05eaa3-25e3-4af2-98bf-c2d8f67c04be","ios":"levelo://app?vid=ee05eaa3-25e3-4af2-98bf-c2d8f67c04be"},"vehicle_type_id":"4","last_reported":1686845277,"current_range_meters":2400,"station_id":"ce4bhbh2rcd13ifvqeo0","pricing_plan_id":"free"},{"bike_id":"86ab447d-849e-4bd2-b63e-dc35a7de548a","system_id":"levelo_inurba_marseille","lat":43.2738,"lon":5.36265,"is_reserved":false,"is_disabled":false,"rental_uris":{"android":"levelo://app?vid=86ab447d-849e-4bd2-b63e-dc35a7de548a","ios":"levelo://app?vid=86ab447d-849e-4bd2-b63e-dc35a7de548a"},"vehicle_type_id":"4","last_reported":1686845277,"current_range_meters":400,"station_id":"ce4bhbh2rcd13ifvqeo0","pricing_plan_id":"free"},{"bike_id":"023e9a9e-db6b-4f4e-a1a8-68b285de7f2a","system_id":"levelo_inurba_marseille","lat":43.2738,"lon":5.36263,"is_reserved":false,"is_disabled":false,"rental_uris":{"android":"levelo://app?vid=023e9a9e-db6b-4f4e-a1a8-68b285de7f2a","ios":"levelo://app?vid=023e9a9e-db6b-4f4e-a1a8-68b285de7f2a"},"vehicle_type_id":"4","last_reported":1686845277,"current_range_meters":31200,"station_id":"ce4bhbh2rcd13ifvqeo0","pricing_plan_id":"free"},{"bike_id":"4820a02d-6192-458b-a469-26c9ac6a0e74","system_id":"levelo_inurba_marseille","lat":43.2738,"lon":5.36263,"is_reserved":false,"is_disabled":false,"rental_uris":{"android":"levelo://app?vid=4820a02d-6192-458b-a469-26c9ac6a0e74","ios":"levelo://app?vid=4820a02d-6192-458b-a469-26c9ac6a0e74"},"vehicle_type_id":"4","last_reported":1686845277,"current_range_meters":14800,"station_id":"ce4bhbh2rcd13ifvqeo0","pricing_plan_id":"free"},{"bike_id":"37c5d6e6-56db-4dea-8447-a7a954015d02","system_id":"levelo_inurba_marseille","lat":43.2738,"lon":5.36261,"is_reserved":false,"is_disabled":false,"rental_uris":{"android":"levelo://app?vid=37c5d6e6-56db-4dea-8447-a7a954015d02","ios":"levelo://app?vid=37c5d6e6-56db-4dea-8447-a7a954015d02"},"vehicle_type_id":"4","last_reported":1686845277,"current_range_meters":31200,"station_id":"ce4bhbh2rcd13ifvqeo0","pricing_plan_id":"free"},{"bike_id":"bc6a90c4-b9c3-49e7-8c15-fb95e284d397","system_id":"levelo_inurba_marseille","lat":43.273613,"lon":5.362705,"is_reserved":false,"is_disabled":false,"rental_uris":{"android":"levelo://app?vid=bc6a90c4-b9c3-49e7-8c15-fb95e284d397","ios":"levelo://app?vid=bc6a90c4-b9c3-49e7-8c15-fb95e284d397"},"vehicle_type_id":"4","last_reported":1686845277,"current_range_meters":12000,"station_id":"ce4bhbh2rcd13ifvqeo0","pricing_plan_id":"free"},{"bike_id":"d6cc7d5c-469e-485e-9870-b73789558f4a","system_id":"levelo_inurba_marseille","lat":43.27378,"lon":5.36264,"is_reserved":false,"is_disabled":false,"rental_uris":{"android":"levelo://app?vid=d6cc7d5c-469e-485e-9870-b73789558f4a","ios":"levelo://app?vid=d6cc7d5c-469e-485e-9870-b73789558f4a"},"vehicle_type_id":"4","last_reported":1686845277,"current_range_meters":800,"station_id":"ce4bhbh2rcd13ifvqeo0","pricing_plan_id":"free"},{"bike_id":"5070c2a1-4479-411d-9cdd-bec8ed7fd20d","system_id":"levelo_inurba_marseille","lat":43.27378,"lon":5.36258,"is_reserved":false,"is_disabled":false,"rental_uris":{"android":"levelo://app?vid=5070c2a1-4479-411d-9cdd-bec8ed7fd20d","ios":"levelo://app?vid=5070c2a1-4479-411d-9cdd-bec8ed7fd20d"},"vehicle_type_id":"4","last_reported":1686845277,"current_range_meters":17600,"station_id":"ce4bhbh2rcd13ifvqeo0","pricing_plan_id":"free"},{"bike_id":"eb7a8773-bf74-482c-85ce-366254c274c3","system_id":"levelo_inurba_marseille","lat":43.27377,"lon":5.36262,"is_reserved":false,"is_disabled":false,"rental_uris":{"android":"levelo://app?vid=eb7a8773-bf74-482c-85ce-366254c274c3","ios":"levelo://app?vid=eb7a8773-bf74-482c-85ce-366254c274c3"},"vehicle_type_id":"4","last_reported":1686845277,"current_range_meters":31200,"station_id":"ce4bhbh2rcd13ifvqeo0","pricing_plan_id":"free"},{"bike_id":"8726f82b-744e-406f-8df6-ebdc8c97cce3","system_id":"levelo_inurba_marseille","lat":43.27377,"lon":5.36261,"is_reserved":false,"is_disabled":false,"rental_uris":{"android":"levelo://app?vid=8726f82b-744e-406f-8df6-ebdc8c97cce3","ios":"levelo://app?vid=8726f82b-744e-406f-8df6-ebdc8c97cce3"},"vehicle_type_id":"4","last_reported":1686845277,"current_range_meters":18400,"station_id":"ce4bhbh2rcd13ifvqeo0","pricing_plan_id":"free"},{"bike_id":"98383bee-f4ce-4a09-82d3-1b239daef471","system_id":"levelo_inurba_marseille","lat":43.273609,"lon":5.362708,"is_reserved":false,"is_disabled":false,"rental_uris":{"android":"levelo://app?vid=98383bee-f4ce-4a09-82d3-1b239daef471","ios":"levelo://app?vid=98383bee-f4ce-4a09-82d3-1b239daef471"},"vehicle_type_id":"4","last_reported":1686845277,"current_range_meters":20000,"station_id":"ce4bhbh2rcd13ifvqeo0","pricing_plan_id":"free"},{"bike_id":"57215a58-8b19-4bce-9f7d-ef4c72066ff6","system_id":"levelo_inurba_marseille","lat":43.273609,"lon":5.362708,"is_reserved":false,"is_disabled":false,"rental_uris":{"android":"levelo://app?vid=57215a58-8b19-4bce-9f7d-ef4c72066ff6","ios":"levelo://app?vid=57215a58-8b19-4bce-9f7d-ef4c72066ff6"},"vehicle_type_id":"4","last_reported":1686845277,"current_range_meters":18000,"station_id":"ce4bhbh2rcd13ifvqeo0","pricing_plan_id":"free"},{"bike_id":"9f05e714-4070-42aa-93e0-c548e370b4fc","system_id":"levelo_inurba_marseille","lat":43.273609,"lon":5.362708,"is_reserved":false,"is_disabled":false,"rental_uris":{"android":"levelo://app?vid=9f05e714-4070-42aa-93e0-c548e370b4fc","ios":"levelo://app?vid=9f05e714-4070-42aa-93e0-c548e370b4fc"},"vehicle_type_id":"4","last_reported":1686845277,"current_range_meters":23600,"station_id":"ce4bhbh2rcd13ifvqeo0","pricing_plan_id":"free"},{"bike_id":"217764b2-8226-4aef-8adf-a1c9d4cca177","system_id":"levelo_inurba_marseille","lat":43.273609,"lon":5.362708,"is_reserved":false,"is_disabled":false,"rental_uris":{"android":"levelo://app?vid=217764b2-8226-4aef-8adf-a1c9d4cca177","ios":"levelo://app?vid=217764b2-8226-4aef-8adf-a1c9d4cca177"},"vehicle_type_id":"4","last_reported":1686845277,"current_range_meters":27600,"station_id":"ce4bhbh2rcd13ifvqeo0","pricing_plan_id":"free"},{"bike_id":"ce158903-f4b9-4bc7-9480-e53dc532b1b6","system_id":"levelo_inurba_marseille","lat":43.273613,"lon":5.362705,"is_reserved":false,"is_disabled":false,"rental_uris":{"android":"levelo://app?vid=ce158903-f4b9-4bc7-9480-e53dc532b1b6","ios":"levelo://app?vid=ce158903-f4b9-4bc7-9480-e53dc532b1b6"},"vehicle_type_id":"4","last_reported":1686845277,"current_range_meters":30800,"station_id":"ce4bhbh2rcd13ifvqeo0","pricing_plan_id":"free"},{"bike_id":"14729b10-ca16-4050-b4d5-a772eb158039","system_id":"levelo_inurba_marseille","lat":43.273609,"lon":5.362708,"is_reserved":false,"is_disabled":false,"rental_uris":{"android":"levelo://app?vid=14729b10-ca16-4050-b4d5-a772eb158039","ios":"levelo://app?vid=14729b10-ca16-4050-b4d5-a772eb158039"},"vehicle_type_id":"4","last_reported":1686845277,"current_range_meters":14400,"station_id":"ce4bhbh2rcd13ifvqeo0","pricing_plan_id":"free"},{"bike_id":"d226d61d-eeed-49fd-813c-955d1e9e3e58","system_id":"levelo_inurba_marseille","lat":43.317121,"lon":5.423936,"is_reserved":false,"is_disabled":false,"rental_uris":{"android":"levelo://app?vid=d226d61d-eeed-49fd-813c-955d1e9e3e58","ios":"levelo://app?vid=d226d61d-eeed-49fd-813c-955d1e9e3e58"},"vehicle_type_id":"4","last_reported":1686845277,"current_range_meters":18800,"station_id":"ce4bhp92rcd13ifvqhbg","pricing_plan_id":"free"},{"bike_id":"6def1dc0-31ff-4863-aa5f-4a93a7f268ad","system_id":"levelo_inurba_marseille","lat":43.27433,"lon":5.39408,"is_reserved":false,"is_disabled":false,"rental_uris":{"android":"levelo://app?vid=6def1dc0-31ff-4863-aa5f-4a93a7f268ad","ios":"levelo://app?vid=6def1dc0-31ff-4863-aa5f-4a93a7f268ad"},"vehicle_type_id":"4","last_reported":1686845277,"current_range_meters":6400,"station_id":"ce4bhdp2rcd13ifvqf20","pricing_plan_id":"free"},{"bike_id":"f82c4e0b-ce86-4de4-962b-f266d6ba506e","system_id":"levelo_inurba_marseille","lat":43.273125,"lon":5.390731,"is_reserved":false,"is_disabled":false,"rental_uris":{"android":"levelo://app?vid=f82c4e0b-ce86-4de4-962b-f266d6ba506e","ios":"levelo://app?vid=f82c4e0b-ce86-4de4-962b-f266d6ba506e"},"vehicle_type_id":"4","last_reported":1686845277,"current_range_meters":16800,"station_id":"ce4bhgp2rcd13ifvqfe0","pricing_plan_id":"free"},{"bike_id":"bc430ca5-473c-4980-8441-b60dd217676e","system_id":"levelo_inurba_marseille","lat":43.304096,"lon":5.425385,"is_reserved":false,"is_disabled":false,"rental_uris":{"android":"levelo://app?vid=bc430ca5-473c-4980-8441-b60dd217676e","ios":"levelo://app?vid=bc430ca5-473c-4980-8441-b60dd217676e"},"vehicle_type_id":"4","last_reported":1686845277,"current_range_meters":5600,"station_id":"ce4bhoh2rcd13ifvqh6g","pricing_plan_id":"free"},{"bike_id":"b6ae69e0-7c94-485c-91e3-c97468913591","system_id":"levelo_inurba_marseille","lat":43.295523,"lon":5.422926,"is_reserved":false,"is_disabled":false,"rental_uris":{"android":"levelo://app?vid=b6ae69e0-7c94-485c-91e3-c97468913591","ios":"levelo://app?vid=b6ae69e0-7c94-485c-91e3-c97468913591"},"vehicle_type_id":"4","last_reported":1686845277,"current_range_meters":1200,"station_id":"ce4bhph2rcd13ifvqhdg","pricing_plan_id":"free"},{"bike_id":"31161e2e-cc62-4002-b971-a68aa35b1642","system_id":"levelo_inurba_marseille","lat":43.29492,"lon":5.42265,"is_reserved":false,"is_disabled":false,"rental_uris":{"android":"levelo://app?vid=31161e2e-cc62-4002-b971-a68aa35b1642","ios":"levelo://app?vid=31161e2e-cc62-4002-b971-a68aa35b1642"},"vehicle_type_id":"4","last_reported":1686845277,"current_range_meters":23600,"station_id":"ce4bhph2rcd13ifvqhdg","pricing_plan_id":"free"},{"bike_id":"a4653729-b8d9-403a-a861-5bfa3d97a051","system_id":"levelo_inurba_marseille","lat":43.2935,"lon":5.42411,"is_reserved":false,"is_disabled":false,"rental_uris":{"android":"levelo://app?vid=a4653729-b8d9-403a-a861-5bfa3d97a051","ios":"levelo://app?vid=a4653729-b8d9-403a-a861-5bfa3d97a051"},"vehicle_type_id":"4","last_reported":1686845277,"current_range_meters":0,"station_id":"","pricing_plan_id":"free"},{"bike_id":"e4025567-4188-4618-afa7-52ea5a03d84a","system_id":"levelo_inurba_marseille","lat":43.269319,"lon":5.389397,"is_reserved":false,"is_disabled":false,"rental_uris":{"android":"levelo://app?vid=e4025567-4188-4618-afa7-52ea5a03d84a","ios":"levelo://app?vid=e4025567-4188-4618-afa7-52ea5a03d84a"},"vehicle_type_id":"4","last_reported":1686845277,"current_range_meters":0,"station_id":"ce4bhhh2rcd13ifvqfl0","pricing_plan_id":"free"},{"bike_id":"cfba2fbe-9ed5-423f-b411-8d6c38451715","system_id":"levelo_inurba_marseille","lat":43.26681,"lon":5.382694,"is_reserved":false,"is_disabled":false,"rental_uris":{"android":"levelo://app?vid=cfba2fbe-9ed5-423f-b411-8d6c38451715","ios":"levelo://app?vid=cfba2fbe-9ed5-423f-b411-8d6c38451715"},"vehicle_type_id":"4","last_reported":1686845277,"current_range_meters":31200,"station_id":"ce4bhg92rcd13ifvqf90","pricing_plan_id":"free"},{"bike_id":"6275aaca-a354-407f-be44-df40f2969d44","system_id":"levelo_inurba_marseille","lat":43.26681,"lon":5.382694,"is_reserved":false,"is_disabled":false,"rental_uris":{"android":"levelo://app?vid=6275aaca-a354-407f-be44-df40f2969d44","ios":"levelo://app?vid=6275aaca-a354-407f-be44-df40f2969d44"},"vehicle_type_id":"4","last_reported":1686845277,"current_range_meters":31200,"station_id":"ce4bhg92rcd13ifvqf90","pricing_plan_id":"free"},{"bike_id":"8f12b3e4-d904-4681-a504-f4abd09d4d5b","system_id":"levelo_inurba_marseille","lat":43.26427,"lon":5.37227,"is_reserved":false,"is_disabled":false,"rental_uris":{"android":"levelo://app?vid=8f12b3e4-d904-4681-a504-f4abd09d4d5b","ios":"levelo://app?vid=8f12b3e4-d904-4681-a504-f4abd09d4d5b"},"vehicle_type_id":"4","last_reported":1686845277,"current_range_meters":18400,"station_id":"","pricing_plan_id":"free"},{"bike_id":"3987290e-fd4b-4f2b-81c0-57fca98f9cde","system_id":"levelo_inurba_marseille","lat":43.26783,"lon":5.39419,"is_reserved":false,"is_disabled":false,"rental_uris":{"android":"levelo://app?vid=3987290e-fd4b-4f2b-81c0-57fca98f9cde","ios":"levelo://app?vid=3987290e-fd4b-4f2b-81c0-57fca98f9cde"},"vehicle_type_id":"4","last_reported":1686845277,"current_range_meters":30800,"station_id":"ce4bhh12rcd13ifvqfg0","pricing_plan_id":"free"},{"bike_id":"4550bee8-c2d0-4bc2-acff-eceecc929a3a","system_id":"levelo_inurba_marseille","lat":43.265569,"lon":5.390047,"is_reserved":false,"is_disabled":false,"rental_uris":{"android":"levelo://app?vid=4550bee8-c2d0-4bc2-acff-eceecc929a3a","ios":"levelo://app?vid=4550bee8-c2d0-4bc2-acff-eceecc929a3a"},"vehicle_type_id":"4","last_reported":1686845277,"current_range_meters":4800,"station_id":"ce4bhe12rcd13ifvqf30","pricing_plan_id":"free"},{"bike_id":"24fdc7ed-2e62-431a-8cb3-cae03eae0498","system_id":"levelo_inurba_marseille","lat":43.26191,"lon":5.3745,"is_reserved":false,"is_disabled":false,"rental_uris":{"android":"levelo://app?vid=24fdc7ed-2e62-431a-8cb3-cae03eae0498","ios":"levelo://app?vid=24fdc7ed-2e62-431a-8cb3-cae03eae0498"},"vehicle_type_id":"4","last_reported":1686845277,"current_range_meters":10000,"station_id":"ce4bhgp2rcd13ifvqfc0","pricing_plan_id":"free"},{"bike_id":"595c0715-3727-485a-807c-e8c002fda9c6","system_id":"levelo_inurba_marseille","lat":43.317104,"lon":5.436818,"is_reserved":false,"is_disabled":false,"rental_uris":{"android":"levelo://app?vid=595c0715-3727-485a-807c-e8c002fda9c6","ios":"levelo://app?vid=595c0715-3727-485a-807c-e8c002fda9c6"},"vehicle_type_id":"4","last_reported":1686845277,"current_range_meters":29600,"station_id":"ce4bhp92rcd13ifvqhcg","pricing_plan_id":"free"},{"bike_id":"ec796da6-a42c-4f19-b0ba-0a82f82b536a","system_id":"levelo_inurba_marseille","lat":43.31713,"lon":5.4371,"is_reserved":false,"is_disabled":false,"rental_uris":{"android":"levelo://app?vid=ec796da6-a42c-4f19-b0ba-0a82f82b536a","ios":"levelo://app?vid=ec796da6-a42c-4f19-b0ba-0a82f82b536a"},"vehicle_type_id":"4","last_reported":1686845277,"current_range_meters":28800,"station_id":"ce4bhp92rcd13ifvqhcg","pricing_plan_id":"free"},{"bike_id":"56ec3155-ad6d-41db-aefb-918a203f0864","system_id":"levelo_inurba_marseille","lat":43.26208,"lon":5.37931,"is_reserved":false,"is_disabled":false,"rental_uris":{"android":"levelo://app?vid=56ec3155-ad6d-41db-aefb-918a203f0864","ios":"levelo://app?vid=56ec3155-ad6d-41db-aefb-918a203f0864"},"vehicle_type_id":"4","last_reported":1686845277,"current_range_meters":0,"station_id":"ce4bhjp2rcd13ifvqg90","pricing_plan_id":"free"},{"bike_id":"78bfd6e1-405b-4aa6-abf0-061f070712e1","system_id":"levelo_inurba_marseille","lat":43.27186,"lon":5.40994,"is_reserved":false,"is_disabled":false,"rental_uris":{"android":"levelo://app?vid=78bfd6e1-405b-4aa6-abf0-061f070712e1","ios":"levelo://app?vid=78bfd6e1-405b-4aa6-abf0-061f070712e1"},"vehicle_type_id":"4","last_reported":1686845277,"current_range_meters":28800,"station_id":"","pricing_plan_id":"free"},{"bike_id":"14d950e8-0be6-4d17-887e-2aa52ba454bf","system_id":"levelo_inurba_marseille","lat":43.27189,"lon":5.41,"is_reserved":false,"is_disabled":false,"rental_uris":{"android":"levelo://app?vid=14d950e8-0be6-4d17-887e-2aa52ba454bf","ios":"levelo://app?vid=14d950e8-0be6-4d17-887e-2aa52ba454bf"},"vehicle_type_id":"4","last_reported":1686845277,"current_range_meters":21600,"station_id":"","pricing_plan_id":"free"},{"bike_id":"8cef4df0-69b8-4c21-a763-577c04b1e207","system_id":"levelo_inurba_marseille","lat":43.271849,"lon":5.40994,"is_reserved":false,"is_disabled":false,"rental_uris":{"android":"levelo://app?vid=8cef4df0-69b8-4c21-a763-577c04b1e207","ios":"levelo://app?vid=8cef4df0-69b8-4c21-a763-577c04b1e207"},"vehicle_type_id":"4","last_reported":1686845277,"current_range_meters":25200,"station_id":"","pricing_plan_id":"free"},{"bike_id":"5137a758-9a33-4c6f-8ca9-7bcf26cfab19","system_id":"levelo_inurba_marseille","lat":43.27176,"lon":5.40992,"is_reserved":false,"is_disabled":false,"rental_uris":{"android":"levelo://app?vid=5137a758-9a33-4c6f-8ca9-7bcf26cfab19","ios":"levelo://app?vid=5137a758-9a33-4c6f-8ca9-7bcf26cfab19"},"vehicle_type_id":"4","last_reported":1686845277,"current_range_meters":24400,"station_id":"","pricing_plan_id":"free"},{"bike_id":"fcf4b64c-59e9-4305-9647-1b38892cbdca","system_id":"levelo_inurba_marseille","lat":43.267959,"lon":5.402687,"is_reserved":false,"is_disabled":false,"rental_uris":{"android":"levelo://app?vid=fcf4b64c-59e9-4305-9647-1b38892cbdca","ios":"levelo://app?vid=fcf4b64c-59e9-4305-9647-1b38892cbdca"},"vehicle_type_id":"4","last_reported":1686845277,"current_range_meters":0,"station_id":"ce501612rcd8frsf0b60","pricing_plan_id":"free"},{"bike_id":"7514b99c-3716-4cbb-8aab-87a256813c41","system_id":"levelo_inurba_marseille","lat":43.267959,"lon":5.402685,"is_reserved":false,"is_disabled":false,"rental_uris":{"android":"levelo://app?vid=7514b99c-3716-4cbb-8aab-87a256813c41","ios":"levelo://app?vid=7514b99c-3716-4cbb-8aab-87a256813c41"},"vehicle_type_id":"4","last_reported":1686845277,"current_range_meters":8400,"station_id":"ce501612rcd8frsf0b60","pricing_plan_id":"free"},{"bike_id":"372cf4ce-dc37-43d3-99b1-5a5a8c148832","system_id":"levelo_inurba_marseille","lat":43.267959,"lon":5.402685,"is_reserved":false,"is_disabled":false,"rental_uris":{"android":"levelo://app?vid=372cf4ce-dc37-43d3-99b1-5a5a8c148832","ios":"levelo://app?vid=372cf4ce-dc37-43d3-99b1-5a5a8c148832"},"vehicle_type_id":"4","last_reported":1686845277,"current_range_meters":3600,"station_id":"ce501612rcd8frsf0b60","pricing_plan_id":"free"},{"bike_id":"78b253ea-fef0-4188-936a-4b7b48286f9e","system_id":"levelo_inurba_marseille","lat":43.267959,"lon":5.402685,"is_reserved":false,"is_disabled":false,"rental_uris":{"android":"levelo://app?vid=78b253ea-fef0-4188-936a-4b7b48286f9e","ios":"levelo://app?vid=78b253ea-fef0-4188-936a-4b7b48286f9e"},"vehicle_type_id":"4","last_reported":1686845277,"current_range_meters":17200,"station_id":"ce501612rcd8frsf0b60","pricing_plan_id":"free"},{"bike_id":"95dcc9c2-1bd7-410a-bde7-1ed97dc0b973","system_id":"levelo_inurba_marseille","lat":43.299,"lon":5.43668,"is_reserved":false,"is_disabled":false,"rental_uris":{"android":"levelo://app?vid=95dcc9c2-1bd7-410a-bde7-1ed97dc0b973","ios":"levelo://app?vid=95dcc9c2-1bd7-410a-bde7-1ed97dc0b973"},"vehicle_type_id":"4","last_reported":1686845277,"current_range_meters":17600,"station_id":"","pricing_plan_id":"free"},{"bike_id":"740ca7ce-6c74-4b7a-86c9-0a6aa9705a3e","system_id":"levelo_inurba_marseille","lat":43.26034,"lon":5.37547,"is_reserved":false,"is_disabled":false,"rental_uris":{"android":"levelo://app?vid=740ca7ce-6c74-4b7a-86c9-0a6aa9705a3e","ios":"levelo://app?vid=740ca7ce-6c74-4b7a-86c9-0a6aa9705a3e"},"vehicle_type_id":"4","last_reported":1686845277,"current_range_meters":30400,"station_id":"ce4bhgh2rcd13ifvqfa0","pricing_plan_id":"free"},{"bike_id":"6eb70c9b-ccd8-42e3-8883-ae20faf06937","system_id":"levelo_inurba_marseille","lat":43.26033,"lon":5.37555,"is_reserved":false,"is_disabled":false,"rental_uris":{"android":"levelo://app?vid=6eb70c9b-ccd8-42e3-8883-ae20faf06937","ios":"levelo://app?vid=6eb70c9b-ccd8-42e3-8883-ae20faf06937"},"vehicle_type_id":"4","last_reported":1686845277,"current_range_meters":0,"station_id":"ce4bhgh2rcd13ifvqfa0","pricing_plan_id":"free"},{"bike_id":"4955eb87-edc3-4797-a0db-e51fdab22b8b","system_id":"levelo_inurba_marseille","lat":43.26031,"lon":5.37553,"is_reserved":false,"is_disabled":false,"rental_uris":{"android":"levelo://app?vid=4955eb87-edc3-4797-a0db-e51fdab22b8b","ios":"levelo://app?vid=4955eb87-edc3-4797-a0db-e51fdab22b8b"},"vehicle_type_id":"4","last_reported":1686845277,"current_range_meters":0,"station_id":"ce4bhgh2rcd13ifvqfa0","pricing_plan_id":"free"},{"bike_id":"9cbb3c98-ff46-48e2-869d-6af233e98ab6","system_id":"levelo_inurba_marseille","lat":43.26026,"lon":5.37551,"is_reserved":false,"is_disabled":false,"rental_uris":{"android":"levelo://app?vid=9cbb3c98-ff46-48e2-869d-6af233e98ab6","ios":"levelo://app?vid=9cbb3c98-ff46-48e2-869d-6af233e98ab6"},"vehicle_type_id":"4","last_reported":1686845277,"current_range_meters":0,"station_id":"ce4bhgh2rcd13ifvqfa0","pricing_plan_id":"free"},{"bike_id":"d5a8e1ec-bf19-4e8b-83ba-0db33b2672be","system_id":"levelo_inurba_marseille","lat":43.26067,"lon":5.39395,"is_reserved":false,"is_disabled":false,"rental_uris":{"android":"levelo://app?vid=d5a8e1ec-bf19-4e8b-83ba-0db33b2672be","ios":"levelo://app?vid=d5a8e1ec-bf19-4e8b-83ba-0db33b2672be"},"vehicle_type_id":"4","last_reported":1686845277,"current_range_meters":2000,"station_id":"ce4bhh92rcd13ifvqfj0","pricing_plan_id":"free"},{"bike_id":"3a508f17-70d5-4d05-b3a4-e87381af597e","system_id":"levelo_inurba_marseille","lat":43.2607,"lon":5.393983,"is_reserved":false,"is_disabled":false,"rental_uris":{"android":"levelo://app?vid=3a508f17-70d5-4d05-b3a4-e87381af597e","ios":"levelo://app?vid=3a508f17-70d5-4d05-b3a4-e87381af597e"},"vehicle_type_id":"4","last_reported":1686845277,"current_range_meters":17600,"station_id":"ce4bhh92rcd13ifvqfj0","pricing_plan_id":"free"},{"bike_id":"d7ff504d-beb5-4f65-9fa6-eedf51fa45f1","system_id":"levelo_inurba_marseille","lat":43.2632,"lon":5.40278,"is_reserved":false,"is_disabled":false,"rental_uris":{"android":"levelo://app?vid=d7ff504d-beb5-4f65-9fa6-eedf51fa45f1","ios":"levelo://app?vid=d7ff504d-beb5-4f65-9fa6-eedf51fa45f1"},"vehicle_type_id":"4","last_reported":1686845277,"current_range_meters":15200,"station_id":"","pricing_plan_id":"free"},{"bike_id":"4e6f1fc9-6ac8-4e3f-90b0-20cecb05bf93","system_id":"levelo_inurba_marseille","lat":43.275028,"lon":5.424534,"is_reserved":false,"is_disabled":false,"rental_uris":{"android":"levelo://app?vid=4e6f1fc9-6ac8-4e3f-90b0-20cecb05bf93","ios":"levelo://app?vid=4e6f1fc9-6ac8-4e3f-90b0-20cecb05bf93"},"vehicle_type_id":"4","last_reported":1686845277,"current_range_meters":13200,"station_id":"ce4bhn92rcd13ifvqgrg","pricing_plan_id":"free"},{"bike_id":"1199d5db-dd29-45de-9a95-b5f39d35db41","system_id":"levelo_inurba_marseille","lat":43.255756,"lon":5.382303,"is_reserved":false,"is_disabled":false,"rental_uris":{"android":"levelo://app?vid=1199d5db-dd29-45de-9a95-b5f39d35db41","ios":"levelo://app?vid=1199d5db-dd29-45de-9a95-b5f39d35db41"},"vehicle_type_id":"4","last_reported":1686845277,"current_range_meters":1200,"station_id":"ce4bhih2rcd13ifvqfs0","pricing_plan_id":"free"},{"bike_id":"1937f9d1-59cb-4048-a7bc-f6b822b9fa55","system_id":"levelo_inurba_marseille","lat":43.255756,"lon":5.382303,"is_reserved":false,"is_disabled":false,"rental_uris":{"android":"levelo://app?vid=1937f9d1-59cb-4048-a7bc-f6b822b9fa55","ios":"levelo://app?vid=1937f9d1-59cb-4048-a7bc-f6b822b9fa55"},"vehicle_type_id":"4","last_reported":1686845277,"current_range_meters":6400,"station_id":"ce4bhih2rcd13ifvqfs0","pricing_plan_id":"free"},{"bike_id":"412c3765-249b-4b58-b479-52ca8407e6c2","system_id":"levelo_inurba_marseille","lat":43.25506,"lon":5.37649,"is_reserved":false,"is_disabled":false,"rental_uris":{"android":"levelo://app?vid=412c3765-249b-4b58-b479-52ca8407e6c2","ios":"levelo://app?vid=412c3765-249b-4b58-b479-52ca8407e6c2"},"vehicle_type_id":"4","last_reported":1686845277,"current_range_meters":7600,"station_id":"ce4bhh12rcd13ifvqff0","pricing_plan_id":"free"},{"bike_id":"b62648d4-373a-4430-bd71-d181e12dcfdb","system_id":"levelo_inurba_marseille","lat":43.254945,"lon":5.376454,"is_reserved":false,"is_disabled":false,"rental_uris":{"android":"levelo://app?vid=b62648d4-373a-4430-bd71-d181e12dcfdb","ios":"levelo://app?vid=b62648d4-373a-4430-bd71-d181e12dcfdb"},"vehicle_type_id":"4","last_reported":1686845277,"current_range_meters":23600,"station_id":"ce4bhh12rcd13ifvqff0","pricing_plan_id":"free"},{"bike_id":"a7f4bbc3-7d80-451a-a1c9-22c5047509b2","system_id":"levelo_inurba_marseille","lat":43.254947,"lon":5.376454,"is_reserved":false,"is_disabled":false,"rental_uris":{"android":"levelo://app?vid=a7f4bbc3-7d80-451a-a1c9-22c5047509b2","ios":"levelo://app?vid=a7f4bbc3-7d80-451a-a1c9-22c5047509b2"},"vehicle_type_id":"4","last_reported":1686845277,"current_range_meters":14400,"station_id":"ce4bhh12rcd13ifvqff0","pricing_plan_id":"free"},{"bike_id":"8f8fb9cb-c386-4776-8f62-5959a3f6d412","system_id":"levelo_inurba_marseille","lat":43.254945,"lon":5.376454,"is_reserved":false,"is_disabled":false,"rental_uris":{"android":"levelo://app?vid=8f8fb9cb-c386-4776-8f62-5959a3f6d412","ios":"levelo://app?vid=8f8fb9cb-c386-4776-8f62-5959a3f6d412"},"vehicle_type_id":"4","last_reported":1686845277,"current_range_meters":4800,"station_id":"ce4bhh12rcd13ifvqff0","pricing_plan_id":"free"},{"bike_id":"5bd83e40-07b5-4d37-952e-4c7cbf226a47","system_id":"levelo_inurba_marseille","lat":43.254945,"lon":5.376454,"is_reserved":false,"is_disabled":false,"rental_uris":{"android":"levelo://app?vid=5bd83e40-07b5-4d37-952e-4c7cbf226a47","ios":"levelo://app?vid=5bd83e40-07b5-4d37-952e-4c7cbf226a47"},"vehicle_type_id":"4","last_reported":1686845277,"current_range_meters":28000,"station_id":"ce4bhh12rcd13ifvqff0","pricing_plan_id":"free"},{"bike_id":"3a8e1862-888c-4f5e-8001-55a6887eb3be","system_id":"levelo_inurba_marseille","lat":43.25499,"lon":5.37655,"is_reserved":false,"is_disabled":false,"rental_uris":{"android":"levelo://app?vid=3a8e1862-888c-4f5e-8001-55a6887eb3be","ios":"levelo://app?vid=3a8e1862-888c-4f5e-8001-55a6887eb3be"},"vehicle_type_id":"4","last_reported":1686845277,"current_range_meters":0,"station_id":"ce4bhh12rcd13ifvqff0","pricing_plan_id":"free"},{"bike_id":"37d80df3-39dd-44bd-a0c2-89fa2f29a32e","system_id":"levelo_inurba_marseille","lat":43.270721,"lon":5.422764,"is_reserved":false,"is_disabled":false,"rental_uris":{"android":"levelo://app?vid=37d80df3-39dd-44bd-a0c2-89fa2f29a32e","ios":"levelo://app?vid=37d80df3-39dd-44bd-a0c2-89fa2f29a32e"},"vehicle_type_id":"4","last_reported":1686845277,"current_range_meters":10400,"station_id":"ce4bhk92rcd13ifvqgb0","pricing_plan_id":"free"},{"bike_id":"b8e22036-e2f3-40de-a574-a294ebc5d735","system_id":"levelo_inurba_marseille","lat":43.270721,"lon":5.422764,"is_reserved":false,"is_disabled":false,"rental_uris":{"android":"levelo://app?vid=b8e22036-e2f3-40de-a574-a294ebc5d735","ios":"levelo://app?vid=b8e22036-e2f3-40de-a574-a294ebc5d735"},"vehicle_type_id":"4","last_reported":1686845277,"current_range_meters":14400,"station_id":"ce4bhk92rcd13ifvqgb0","pricing_plan_id":"free"},{"bike_id":"66db9bc3-b4cc-4939-9870-fa45cf391791","system_id":"levelo_inurba_marseille","lat":43.270721,"lon":5.422764,"is_reserved":false,"is_disabled":false,"rental_uris":{"android":"levelo://app?vid=66db9bc3-b4cc-4939-9870-fa45cf391791","ios":"levelo://app?vid=66db9bc3-b4cc-4939-9870-fa45cf391791"},"vehicle_type_id":"4","last_reported":1686845277,"current_range_meters":19600,"station_id":"ce4bhk92rcd13ifvqgb0","pricing_plan_id":"free"},{"bike_id":"a41a6de0-ae6b-4231-bfee-e4c0e365e882","system_id":"levelo_inurba_marseille","lat":43.270721,"lon":5.422764,"is_reserved":false,"is_disabled":false,"rental_uris":{"android":"levelo://app?vid=a41a6de0-ae6b-4231-bfee-e4c0e365e882","ios":"levelo://app?vid=a41a6de0-ae6b-4231-bfee-e4c0e365e882"},"vehicle_type_id":"4","last_reported":1686845277,"current_range_meters":16000,"station_id":"ce4bhk92rcd13ifvqgb0","pricing_plan_id":"free"},{"bike_id":"b1fa9910-ea30-43ac-b734-ca4260a31669","system_id":"levelo_inurba_marseille","lat":43.259013,"lon":5.409301,"is_reserved":false,"is_disabled":false,"rental_uris":{"android":"levelo://app?vid=b1fa9910-ea30-43ac-b734-ca4260a31669","ios":"levelo://app?vid=b1fa9910-ea30-43ac-b734-ca4260a31669"},