{"last_updated":1690733220,"ttl":30,"version":"2.2","data":{"bikes":[{"bike_id":"93eff169-043e-42d3-a506-0a4c84c2b543","system_id":"levelo_inurba_marseille","lat":43.31341,"lon":5.367098,"is_reserved":false,"is_disabled":false,"rental_uris":{"android":"levelo://app?vid=93eff169-043e-42d3-a506-0a4c84c2b543","ios":"levelo://app?vid=93eff169-043e-42d3-a506-0a4c84c2b543"},"vehicle_type_id":"4","last_reported":1690733222,"current_range_meters":28800,"station_id":"ce4bgr92rcd13ifvqc6g","pricing_plan_id":"free"},{"bike_id":"5950250c-3483-415f-9aa7-650584037e91","system_id":"levelo_inurba_marseille","lat":43.31221,"lon":5.36849,"is_reserved":false,"is_disabled":false,"rental_uris":{"android":"levelo://app?vid=5950250c-3483-415f-9aa7-650584037e91","ios":"levelo://app?vid=5950250c-3483-415f-9aa7-650584037e91"},"vehicle_type_id":"4","last_reported":1690733222,"current_range_meters":24000,"station_id":"ce4bgl92rcd13ifvqbq0","pricing_plan_id":"free"},{"bike_id":"35c135bf-da20-4b06-a815-35c3d6397dfc","system_id":"levelo_inurba_marseille","lat":43.312239,"lon":5.368562,"is_reserved":false,"is_disabled":false,"rental_uris":{"android":"levelo://app?vid=35c135bf-da20-4b06-a815-35c3d6397dfc","ios":"levelo://app?vid=35c135bf-da20-4b06-a815-35c3d6397dfc"},"vehicle_type_id":"4","last_reported":1690733222,"current_range_meters":17600,"station_id":"ce4bgl92rcd13ifvqbq0","pricing_plan_id":"free"},{"bike_id":"82965255-b609-4f58-8668-5cfed233fe5b","system_id":"levelo_inurba_marseille","lat":43.312239,"lon":5.368562,"is_reserved":false,"is_disabled":false,"rental_uris":{"android":"levelo://app?vid=82965255-b609-4f58-8668-5cfed233fe5b","ios":"levelo://app?vid=82965255-b609-4f58-8668-5cfed233fe5b"},"vehicle_type_id":"4","last_reported":1690733222,"current_range_meters":24000,"station_id":"ce4bgl92rcd13ifvqbq0","pricing_plan_id":"free"},{"bike_id":"e526d4e2-849c-44ae-a0d7-5572a62df909","system_id":"levelo_inurba_marseille","lat":43.31218,"lon":5.36864,"is_reserved":false,"is_disabled":false,"rental_uris":{"android":"levelo://app?vid=e526d4e2-849c-44ae-a0d7-5572a62df909","ios":"levelo://app?vid=e526d4e2-849c-44ae-a0d7-5572a62df909"},"vehicle_type_id":"4","last_reported":1690733222,"current_range_meters":22400,"station_id":"ce4bgl92rcd13ifvqbq0","pricing_plan_id":"free"},{"bike_id":"f9875e44-aeaf-47c3-8e55-21df25abe02a","system_id":"levelo_inurba_marseille","lat":43.305706,"lon":5.365654,"is_reserved":false,"is_disabled":false,"rental_uris":{"android":"levelo://app?vid=f9875e44-aeaf-47c3-8e55-21df25abe02a","ios":"levelo://app?vid=f9875e44-aeaf-47c3-8e55-21df25abe02a"},"vehicle_type_id":"4","last_reported":1690733222,"current_range_meters":5600,"station_id":"ce4bgs12rcd13ifvqcag","pricing_plan_id":"free"},{"bike_id":"5e8c32f5-a8f8-4169-b7a3-2983cf62f9f1","system_id":"levelo_inurba_marseille","lat":43.305714,"lon":5.365633,"is_reserved":false,"is_disabled":false,"rental_uris":{"android":"levelo://app?vid=5e8c32f5-a8f8-4169-b7a3-2983cf62f9f1","ios":"levelo://app?vid=5e8c32f5-a8f8-4169-b7a3-2983cf62f9f1"},"vehicle_type_id":"4","last_reported":1690733222,"current_range_meters":6400,"station_id":"ce4bgs12rcd13ifvqcag","pricing_plan_id":"free"},{"bike_id":"ad2ffaf3-0e2e-4a97-8c19-0c41ef8f219a","system_id":"levelo_inurba_marseille","lat":43.305989,"lon":5.37225,"is_reserved":false,"is_disabled":false,"rental_uris":{"android":"levelo://app?vid=ad2ffaf3-0e2e-4a97-8c19-0c41ef8f219a","ios":"levelo://app?vid=ad2ffaf3-0e2e-4a97-8c19-0c41ef8f219a"},"vehicle_type_id":"4","last_reported":1690733222,"current_range_meters":23600,"station_id":"ce4bgqh2rcd13ifvqc4g","pricing_plan_id":"free"},{"bike_id":"37201168-481f-4b35-858b-1264eee94a6b","system_id":"levelo_inurba_marseille","lat":43.30591,"lon":5.37163,"is_reserved":false,"is_disabled":false,"rental_uris":{"android":"levelo://app?vid=37201168-481f-4b35-858b-1264eee94a6b","ios":"levelo://app?vid=37201168-481f-4b35-858b-1264eee94a6b"},"vehicle_type_id":"4","last_reported":1690733222,"current_range_meters":18000,"station_id":"ce4bgqh2rcd13ifvqc4g","pricing_plan_id":"free"},{"bike_id":"3d40d9d2-32f5-4daf-8e58-8467cc6ebcd3","system_id":"levelo_inurba_marseille","lat":43.305989,"lon":5.37225,"is_reserved":false,"is_disabled":false,"rental_uris":{"android":"levelo://app?vid=3d40d9d2-32f5-4daf-8e58-8467cc6ebcd3","ios":"levelo://app?vid=3d40d9d2-32f5-4daf-8e58-8467cc6ebcd3"},"vehicle_type_id":"4","last_reported":1690733222,"current_range_meters":0,"station_id":"ce4bgqh2rcd13ifvqc4g","pricing_plan_id":"free"},{"bike_id":"c35d6381-d227-4be7-9b4d-844752740353","system_id":"levelo_inurba_marseille","lat":43.305989,"lon":5.37225,"is_reserved":false,"is_disabled":false,"rental_uris":{"android":"levelo://app?vid=c35d6381-d227-4be7-9b4d-844752740353","ios":"levelo://app?vid=c35d6381-d227-4be7-9b4d-844752740353"},"vehicle_type_id":"4","last_reported":1690733222,"current_range_meters":3600,"station_id":"ce4bgqh2rcd13ifvqc4g","pricing_plan_id":"free"},{"bike_id":"f20ea888-8740-440b-bfeb-8eb2a7c1f652","system_id":"levelo_inurba_marseille","lat":43.305989,"lon":5.37225,"is_reserved":false,"is_disabled":false,"rental_uris":{"android":"levelo://app?vid=f20ea888-8740-440b-bfeb-8eb2a7c1f652","ios":"levelo://app?vid=f20ea888-8740-440b-bfeb-8eb2a7c1f652"},"vehicle_type_id":"4","last_reported":1690733222,"current_range_meters":24400,"station_id":"ce4bgqh2rcd13ifvqc4g","pricing_plan_id":"free"},{"bike_id":"93608623-7077-42ec-be46-6283160ceca1","system_id":"levelo_inurba_marseille","lat":43.311131,"lon":5.377651,"is_reserved":false,"is_disabled":false,"rental_uris":{"android":"levelo://app?vid=93608623-7077-42ec-be46-6283160ceca1","ios":"levelo://app?vid=93608623-7077-42ec-be46-6283160ceca1"},"vehicle_type_id":"4","last_reported":1690733222,"current_range_meters":15200,"station_id":"ce4bgt92rcd13ifvqcg0","pricing_plan_id":"free"},{"bike_id":"07ce7733-9ce5-44dc-ad15-81659cfaaa0a","system_id":"levelo_inurba_marseille","lat":43.305989,"lon":5.37225,"is_reserved":false,"is_disabled":false,"rental_uris":{"android":"levelo://app?vid=07ce7733-9ce5-44dc-ad15-81659cfaaa0a","ios":"levelo://app?vid=07ce7733-9ce5-44dc-ad15-81659cfaaa0a"},"vehicle_type_id":"4","last_reported":1690733222,"current_range_meters":20800,"station_id":"ce4bgqh2rcd13ifvqc4g","pricing_plan_id":"free"},{"bike_id":"faf2c4c4-a88f-4e4f-9fd7-3bc59f517c6e","system_id":"levelo_inurba_marseille","lat":43.30957,"lon":5.37958,"is_reserved":false,"is_disabled":false,"rental_uris":{"android":"levelo://app?vid=faf2c4c4-a88f-4e4f-9fd7-3bc59f517c6e","ios":"levelo://app?vid=faf2c4c4-a88f-4e4f-9fd7-3bc59f517c6e"},"vehicle_type_id":"4","last_reported":1690733222,"current_range_meters":28000,"station_id":"","pricing_plan_id":"free"},{"bike_id":"2e7e8bd6-0e11-4889-8ec0-def8de7a20f5","system_id":"levelo_inurba_marseille","lat":43.303,"lon":5.36889,"is_reserved":false,"is_disabled":false,"rental_uris":{"android":"levelo://app?vid=2e7e8bd6-0e11-4889-8ec0-def8de7a20f5","ios":"levelo://app?vid=2e7e8bd6-0e11-4889-8ec0-def8de7a20f5"},"vehicle_type_id":"4","last_reported":1690733222,"current_range_meters":6000,"station_id":"ce4bgqh2rcd13ifvqc5g","pricing_plan_id":"free"},{"bike_id":"7fe6a77b-2f43-4388-b8fd-a88abff8a277","system_id":"levelo_inurba_marseille","lat":43.301939,"lon":5.366286,"is_reserved":false,"is_disabled":false,"rental_uris":{"android":"levelo://app?vid=7fe6a77b-2f43-4388-b8fd-a88abff8a277","ios":"levelo://app?vid=7fe6a77b-2f43-4388-b8fd-a88abff8a277"},"vehicle_type_id":"4","last_reported":1690733222,"current_range_meters":30000,"station_id":"ce4bgrh2rcd13ifvqc8g","pricing_plan_id":"free"},{"bike_id":"4e945ffc-0c2f-4efa-a322-4dfd8b769029","system_id":"levelo_inurba_marseille","lat":43.30805,"lon":5.38155,"is_reserved":false,"is_disabled":false,"rental_uris":{"android":"levelo://app?vid=4e945ffc-0c2f-4efa-a322-4dfd8b769029","ios":"levelo://app?vid=4e945ffc-0c2f-4efa-a322-4dfd8b769029"},"vehicle_type_id":"4","last_reported":1690733222,"current_range_meters":16400,"station_id":"ce4bgt12rcd13ifvqce0","pricing_plan_id":"free"},{"bike_id":"f9508746-fa0d-4018-8fe9-06467004a3d8","system_id":"levelo_inurba_marseille","lat":43.304606,"lon":5.379026,"is_reserved":false,"is_disabled":false,"rental_uris":{"android":"levelo://app?vid=f9508746-fa0d-4018-8fe9-06467004a3d8","ios":"levelo://app?vid=f9508746-fa0d-4018-8fe9-06467004a3d8"},"vehicle_type_id":"4","last_reported":1690733222,"current_range_meters":22000,"station_id":"ce4bgup2rcd13ifvqcn0","pricing_plan_id":"free"},{"bike_id":"bcb039dd-f433-4d46-b348-e202c58e048e","system_id":"levelo_inurba_marseille","lat":43.304606,"lon":5.379026,"is_reserved":false,"is_disabled":false,"rental_uris":{"android":"levelo://app?vid=bcb039dd-f433-4d46-b348-e202c58e048e","ios":"levelo://app?vid=bcb039dd-f433-4d46-b348-e202c58e048e"},"vehicle_type_id":"4","last_reported":1690733222,"current_range_meters":22000,"station_id":"ce4bgup2rcd13ifvqcn0","pricing_plan_id":"free"},{"bike_id":"cd3d972a-0aa6-4bc0-b7a9-f635bf489c3f","system_id":"levelo_inurba_marseille","lat":43.304606,"lon":5.379026,"is_reserved":false,"is_disabled":false,"rental_uris":{"android":"levelo://app?vid=cd3d972a-0aa6-4bc0-b7a9-f635bf489c3f","ios":"levelo://app?vid=cd3d972a-0aa6-4bc0-b7a9-f635bf489c3f"},"vehicle_type_id":"4","last_reported":1690733222,"current_range_meters":24800,"station_id":"ce4bgup2rcd13ifvqcn0","pricing_plan_id":"free"},{"bike_id":"8ac10de0-97e9-45eb-9536-99d299d0f8aa","system_id":"levelo_inurba_marseille","lat":43.304606,"lon":5.379026,"is_reserved":false,"is_disabled":false,"rental_uris":{"android":"levelo://app?vid=8ac10de0-97e9-45eb-9536-99d299d0f8aa","ios":"levelo://app?vid=8ac10de0-97e9-45eb-9536-99d299d0f8aa"},"vehicle_type_id":"4","last_reported":1690733222,"current_range_meters":9200,"station_id":"ce4bgup2rcd13ifvqcn0","pricing_plan_id":"free"},{"bike_id":"7bf7cbb7-5efb-47bd-93e5-1ad986e8520e","system_id":"levelo_inurba_marseille","lat":43.302784,"lon":5.377158,"is_reserved":false,"is_disabled":false,"rental_uris":{"android":"levelo://app?vid=7bf7cbb7-5efb-47bd-93e5-1ad986e8520e","ios":"levelo://app?vid=7bf7cbb7-5efb-47bd-93e5-1ad986e8520e"},"vehicle_type_id":"4","last_reported":1690733222,"current_range_meters":9200,"station_id":"ce4bguh2rcd13ifvqcj0","pricing_plan_id":"free"},{"bike_id":"7099b7ac-0885-4284-ae58-b3bfb4181e1a","system_id":"levelo_inurba_marseille","lat":43.30273,"lon":5.37698,"is_reserved":false,"is_disabled":false,"rental_uris":{"android":"levelo://app?vid=7099b7ac-0885-4284-ae58-b3bfb4181e1a","ios":"levelo://app?vid=7099b7ac-0885-4284-ae58-b3bfb4181e1a"},"vehicle_type_id":"4","last_reported":1690733222,"current_range_meters":30400,"station_id":"","pricing_plan_id":"free"},{"bike_id":"30537d43-af02-4a10-b928-7b9b8cf633d2","system_id":"levelo_inurba_marseille","lat":43.305364,"lon":5.384119,"is_reserved":false,"is_disabled":false,"rental_uris":{"android":"levelo://app?vid=30537d43-af02-4a10-b928-7b9b8cf633d2","ios":"levelo://app?vid=30537d43-af02-4a10-b928-7b9b8cf633d2"},"vehicle_type_id":"4","last_reported":1690733222,"current_range_meters":30400,"station_id":"ce4bgg92rcd13ifvqb30","pricing_plan_id":"free"},{"bike_id":"333c85b9-5be5-4e7d-b22a-b85abdac096f","system_id":"levelo_inurba_marseille","lat":43.311722,"lon":5.387247,"is_reserved":false,"is_disabled":false,"rental_uris":{"android":"levelo://app?vid=333c85b9-5be5-4e7d-b22a-b85abdac096f","ios":"levelo://app?vid=333c85b9-5be5-4e7d-b22a-b85abdac096f"},"vehicle_type_id":"4","last_reported":1690733222,"current_range_meters":29600,"station_id":"ce4bgv12rcd13ifvqcp0","pricing_plan_id":"free"},{"bike_id":"8fd43030-9be3-4a9f-a305-813f16b415dc","system_id":"levelo_inurba_marseille","lat":43.311722,"lon":5.387247,"is_reserved":false,"is_disabled":false,"rental_uris":{"android":"levelo://app?vid=8fd43030-9be3-4a9f-a305-813f16b415dc","ios":"levelo://app?vid=8fd43030-9be3-4a9f-a305-813f16b415dc"},"vehicle_type_id":"4","last_reported":1690733222,"current_range_meters":4000,"station_id":"ce4bgv12rcd13ifvqcp0","pricing_plan_id":"free"},{"bike_id":"fead3f1e-e9e6-4830-9da4-e98cba309113","system_id":"levelo_inurba_marseille","lat":43.32284,"lon":5.38249,"is_reserved":false,"is_disabled":false,"rental_uris":{"android":"levelo://app?vid=fead3f1e-e9e6-4830-9da4-e98cba309113","ios":"levelo://app?vid=fead3f1e-e9e6-4830-9da4-e98cba309113"},"vehicle_type_id":"4","last_reported":1690733222,"current_range_meters":11200,"station_id":"ce4bhr12rcd13ifvqhqg","pricing_plan_id":"free"},{"bike_id":"74b1a9c8-90a4-46a4-9bea-9341cdeee686","system_id":"levelo_inurba_marseille","lat":43.3228,"lon":5.3826,"is_reserved":false,"is_disabled":false,"rental_uris":{"android":"levelo://app?vid=74b1a9c8-90a4-46a4-9bea-9341cdeee686","ios":"levelo://app?vid=74b1a9c8-90a4-46a4-9bea-9341cdeee686"},"vehicle_type_id":"4","last_reported":1690733222,"current_range_meters":29600,"station_id":"ce4bhr12rcd13ifvqhqg","pricing_plan_id":"free"},{"bike_id":"87ae9f90-94a6-4da3-816d-05c9f494a960","system_id":"levelo_inurba_marseille","lat":43.32285,"lon":5.38258,"is_reserved":false,"is_disabled":false,"rental_uris":{"android":"levelo://app?vid=87ae9f90-94a6-4da3-816d-05c9f494a960","ios":"levelo://app?vid=87ae9f90-94a6-4da3-816d-05c9f494a960"},"vehicle_type_id":"4","last_reported":1690733222,"current_range_meters":29600,"station_id":"ce4bhr12rcd13ifvqhqg","pricing_plan_id":"free"},{"bike_id":"01768fa1-df85-472a-bce4-e98c4f1a7eed","system_id":"levelo_inurba_marseille","lat":43.32288,"lon":5.38266,"is_reserved":false,"is_disabled":false,"rental_uris":{"android":"levelo://app?vid=01768fa1-df85-472a-bce4-e98c4f1a7eed","ios":"levelo://app?vid=01768fa1-df85-472a-bce4-e98c4f1a7eed"},"vehicle_type_id":"4","last_reported":1690733222,"current_range_meters":31200,"station_id":"ce4bhr12rcd13ifvqhqg","pricing_plan_id":"free"},{"bike_id":"aff0017d-8d19-4b8c-8490-dfc322af04d7","system_id":"levelo_inurba_marseille","lat":43.32288,"lon":5.38267,"is_reserved":false,"is_disabled":false,"rental_uris":{"android":"levelo://app?vid=aff0017d-8d19-4b8c-8490-dfc322af04d7","ios":"levelo://app?vid=aff0017d-8d19-4b8c-8490-dfc322af04d7"},"vehicle_type_id":"4","last_reported":1690733222,"current_range_meters":31600,"station_id":"ce4bhr12rcd13ifvqhqg","pricing_plan_id":"free"},{"bike_id":"a87c3d89-8ecc-4c20-a387-7842b25267e1","system_id":"levelo_inurba_marseille","lat":43.32289,"lon":5.38269,"is_reserved":false,"is_disabled":false,"rental_uris":{"android":"levelo://app?vid=a87c3d89-8ecc-4c20-a387-7842b25267e1","ios":"levelo://app?vid=a87c3d89-8ecc-4c20-a387-7842b25267e1"},"vehicle_type_id":"4","last_reported":1690733222,"current_range_meters":28400,"station_id":"ce4bhr12rcd13ifvqhqg","pricing_plan_id":"free"},{"bike_id":"a196dbb0-0ca2-44b0-8b03-b7d3a734d20c","system_id":"levelo_inurba_marseille","lat":43.32292,"lon":5.38267,"is_reserved":false,"is_disabled":false,"rental_uris":{"android":"levelo://app?vid=a196dbb0-0ca2-44b0-8b03-b7d3a734d20c","ios":"levelo://app?vid=a196dbb0-0ca2-44b0-8b03-b7d3a734d20c"},"vehicle_type_id":"4","last_reported":1690733222,"current_range_meters":24000,"station_id":"ce4bhr12rcd13ifvqhqg","pricing_plan_id":"free"},{"bike_id":"82f1e03d-e4c3-4aac-b6f0-c9fc3950fe62","system_id":"levelo_inurba_marseille","lat":43.322919,"lon":5.382674,"is_reserved":false,"is_disabled":false,"rental_uris":{"android":"levelo://app?vid=82f1e03d-e4c3-4aac-b6f0-c9fc3950fe62","ios":"levelo://app?vid=82f1e03d-e4c3-4aac-b6f0-c9fc3950fe62"},"vehicle_type_id":"4","last_reported":1690733222,"current_range_meters":20400,"station_id":"","pricing_plan_id":"free"},{"bike_id":"79bf6da4-5f08-488b-96b1-6e23f74ec5ec","system_id":"levelo_inurba_marseille","lat":43.32291,"lon":5.38275,"is_reserved":false,"is_disabled":false,"rental_uris":{"android":"levelo://app?vid=79bf6da4-5f08-488b-96b1-6e23f74ec5ec","ios":"levelo://app?vid=79bf6da4-5f08-488b-96b1-6e23f74ec5ec"},"vehicle_type_id":"4","last_reported":1690733222,"current_range_meters":31200,"station_id":"ce4bhr12rcd13ifvqhqg","pricing_plan_id":"free"},{"bike_id":"3f56ab11-c8db-4856-8929-e236d19fea1e","system_id":"levelo_inurba_marseille","lat":43.3283,"lon":5.36668,"is_reserved":false,"is_disabled":false,"rental_uris":{"android":"levelo://app?vid=3f56ab11-c8db-4856-8929-e236d19fea1e","ios":"levelo://app?vid=3f56ab11-c8db-4856-8929-e236d19fea1e"},"vehicle_type_id":"4","last_reported":1690733222,"current_range_meters":31200,"station_id":"ce4bhs92rcd13ifvqi0g","pricing_plan_id":"free"},{"bike_id":"dd789220-e7b5-42c1-b9dc-dc4243148021","system_id":"levelo_inurba_marseille","lat":43.297163,"lon":5.365866,"is_reserved":false,"is_disabled":false,"rental_uris":{"android":"levelo://app?vid=dd789220-e7b5-42c1-b9dc-dc4243148021","ios":"levelo://app?vid=dd789220-e7b5-42c1-b9dc-dc4243148021"},"vehicle_type_id":"4","last_reported":1690733222,"current_range_meters":31600,"station_id":"ce4bgn12rcd13ifvqbt0","pricing_plan_id":"free"},{"bike_id":"39248a4f-8c21-439e-84e1-587cadb68bd6","system_id":"levelo_inurba_marseille","lat":43.29584,"lon":5.3674,"is_reserved":false,"is_disabled":false,"rental_uris":{"android":"levelo://app?vid=39248a4f-8c21-439e-84e1-587cadb68bd6","ios":"levelo://app?vid=39248a4f-8c21-439e-84e1-587cadb68bd6"},"vehicle_type_id":"4","last_reported":1690733222,"current_range_meters":21600,"station_id":"","pricing_plan_id":"free"},{"bike_id":"84f4abcf-3602-4143-8fb5-18a570022acb","system_id":"levelo_inurba_marseille","lat":43.29573,"lon":5.367355,"is_reserved":false,"is_disabled":false,"rental_uris":{"android":"levelo://app?vid=84f4abcf-3602-4143-8fb5-18a570022acb","ios":"levelo://app?vid=84f4abcf-3602-4143-8fb5-18a570022acb"},"vehicle_type_id":"4","last_reported":1690733222,"current_range_meters":14000,"station_id":"ce4bgph2rcd13ifvqc2g","pricing_plan_id":"free"},{"bike_id":"e2e55067-e6d6-499c-a568-a655277d9d1c","system_id":"levelo_inurba_marseille","lat":43.29573,"lon":5.367355,"is_reserved":false,"is_disabled":false,"rental_uris":{"android":"levelo://app?vid=e2e55067-e6d6-499c-a568-a655277d9d1c","ios":"levelo://app?vid=e2e55067-e6d6-499c-a568-a655277d9d1c"},"vehicle_type_id":"4","last_reported":1690733222,"current_range_meters":9600,"station_id":"ce4bgph2rcd13ifvqc2g","pricing_plan_id":"free"},{"bike_id":"03393e75-4d32-41c2-871f-d2a71cab1595","system_id":"levelo_inurba_marseille","lat":43.29573,"lon":5.367355,"is_reserved":false,"is_disabled":false,"rental_uris":{"android":"levelo://app?vid=03393e75-4d32-41c2-871f-d2a71cab1595","ios":"levelo://app?vid=03393e75-4d32-41c2-871f-d2a71cab1595"},"vehicle_type_id":"4","last_reported":1690733222,"current_range_meters":19200,"station_id":"ce4bgph2rcd13ifvqc2g","pricing_plan_id":"free"},{"bike_id":"634e743d-e157-419d-8224-19657084a133","system_id":"levelo_inurba_marseille","lat":43.309589,"lon":5.390258,"is_reserved":false,"is_disabled":false,"rental_uris":{"android":"levelo://app?vid=634e743d-e157-419d-8224-19657084a133","ios":"levelo://app?vid=634e743d-e157-419d-8224-19657084a133"},"vehicle_type_id":"4","last_reported":1690733222,"current_range_meters":22800,"station_id":"ce4bgup2rcd13ifvqco0","pricing_plan_id":"free"},{"bike_id":"f0b1921d-8fc5-42f6-8214-26455e772ce5","system_id":"levelo_inurba_marseille","lat":43.309589,"lon":5.390258,"is_reserved":false,"is_disabled":false,"rental_uris":{"android":"levelo://app?vid=f0b1921d-8fc5-42f6-8214-26455e772ce5","ios":"levelo://app?vid=f0b1921d-8fc5-42f6-8214-26455e772ce5"},"vehicle_type_id":"4","last_reported":1690733222,"current_range_meters":28400,"station_id":"ce4bgup2rcd13ifvqco0","pricing_plan_id":"free"},{"bike_id":"1a0d3f0b-5bf4-4fb4-8d5b-d15ad4c520dd","system_id":"levelo_inurba_marseille","lat":43.298037,"lon":5.381066,"is_reserved":false,"is_disabled":false,"rental_uris":{"android":"levelo://app?vid=1a0d3f0b-5bf4-4fb4-8d5b-d15ad4c520dd","ios":"levelo://app?vid=1a0d3f0b-5bf4-4fb4-8d5b-d15ad4c520dd"},"vehicle_type_id":"4","last_reported":1690733222,"current_range_meters":0,"station_id":"ce4bgip2rcd13ifvqbb0","pricing_plan_id":"free"},{"bike_id":"ad14e2f2-4239-4071-a96a-a4ba5aa748be","system_id":"levelo_inurba_marseille","lat":43.304257,"lon":5.38889,"is_reserved":false,"is_disabled":false,"rental_uris":{"android":"levelo://app?vid=ad14e2f2-4239-4071-a96a-a4ba5aa748be","ios":"levelo://app?vid=ad14e2f2-4239-4071-a96a-a4ba5aa748be"},"vehicle_type_id":"4","last_reported":1690733222,"current_range_meters":13200,"station_id":"ce4bgk12rcd13ifvqbi0","pricing_plan_id":"free"},{"bike_id":"8b954bff-60ee-455d-8a8a-0d5c9efbe12b","system_id":"levelo_inurba_marseille","lat":43.30428,"lon":5.38892,"is_reserved":false,"is_disabled":false,"rental_uris":{"android":"levelo://app?vid=8b954bff-60ee-455d-8a8a-0d5c9efbe12b","ios":"levelo://app?vid=8b954bff-60ee-455d-8a8a-0d5c9efbe12b"},"vehicle_type_id":"4","last_reported":1690733222,"current_range_meters":25600,"station_id":"ce4bgk12rcd13ifvqbi0","pricing_plan_id":"free"},{"bike_id":"8ba7f136-801f-4922-a24a-757f5dacb511","system_id":"levelo_inurba_marseille","lat":43.30423,"lon":5.3889,"is_reserved":false,"is_disabled":false,"rental_uris":{"android":"levelo://app?vid=8ba7f136-801f-4922-a24a-757f5dacb511","ios":"levelo://app?vid=8ba7f136-801f-4922-a24a-757f5dacb511"},"vehicle_type_id":"4","last_reported":1690733222,"current_range_meters":24800,"station_id":"ce4bgk12rcd13ifvqbi0","pricing_plan_id":"free"},{"bike_id":"03ef01f4-e7e5-462d-ad9a-c718d59fc6ae","system_id":"levelo_inurba_marseille","lat":43.30429,"lon":5.38904,"is_reserved":false,"is_disabled":false,"rental_uris":{"android":"levelo://app?vid=03ef01f4-e7e5-462d-ad9a-c718d59fc6ae","ios":"levelo://app?vid=03ef01f4-e7e5-462d-ad9a-c718d59fc6ae"},"vehicle_type_id":"4","last_reported":1690733222,"current_range_meters":16400,"station_id":"ce4bgk12rcd13ifvqbi0","pricing_plan_id":"free"},{"bike_id":"8d5e77d9-64a0-4e88-9559-06e2265265ca","system_id":"levelo_inurba_marseille","lat":43.296263,"lon":5.377094,"is_reserved":false,"is_disabled":false,"rental_uris":{"android":"levelo://app?vid=8d5e77d9-64a0-4e88-9559-06e2265265ca","ios":"levelo://app?vid=8d5e77d9-64a0-4e88-9559-06e2265265ca"},"vehicle_type_id":"4","last_reported":1690733222,"current_range_meters":7200,"station_id":"ce4bgi92rcd13ifvqb90","pricing_plan_id":"free"},{"bike_id":"a5bef45b-d4dd-4c08-81ec-3a95325a54d7","system_id":"levelo_inurba_marseille","lat":43.299717,"lon":5.384845,"is_reserved":false,"is_disabled":false,"rental_uris":{"android":"levelo://app?vid=a5bef45b-d4dd-4c08-81ec-3a95325a54d7","ios":"levelo://app?vid=a5bef45b-d4dd-4c08-81ec-3a95325a54d7"},"vehicle_type_id":"4","last_reported":1690733222,"current_range_meters":19200,"station_id":"ce4bgj92rcd13ifvqbd0","pricing_plan_id":"free"},{"bike_id":"7ade1b13-8c4b-4945-883e-442a6ff03bee","system_id":"levelo_inurba_marseille","lat":43.299717,"lon":5.384845,"is_reserved":false,"is_disabled":false,"rental_uris":{"android":"levelo://app?vid=7ade1b13-8c4b-4945-883e-442a6ff03bee","ios":"levelo://app?vid=7ade1b13-8c4b-4945-883e-442a6ff03bee"},"vehicle_type_id":"4","last_reported":1690733222,"current_range_meters":16800,"station_id":"ce4bgj92rcd13ifvqbd0","pricing_plan_id":"free"},{"bike_id":"d6268ade-21df-460f-aaea-6e4a09b78f23","system_id":"levelo_inurba_marseille","lat":43.32369,"lon":5.38886,"is_reserved":false,"is_disabled":false,"rental_uris":{"android":"levelo://app?vid=d6268ade-21df-460f-aaea-6e4a09b78f23","ios":"levelo://app?vid=d6268ade-21df-460f-aaea-6e4a09b78f23"},"vehicle_type_id":"4","last_reported":1690733222,"current_range_meters":4000,"station_id":"ce4bhqp2rcd13ifvqhog","pricing_plan_id":"free"},{"bike_id":"63142f57-cfa5-4375-9db7-4e73c6551222","system_id":"levelo_inurba_marseille","lat":43.29308,"lon":5.37158,"is_reserved":false,"is_disabled":false,"rental_uris":{"android":"levelo://app?vid=63142f57-cfa5-4375-9db7-4e73c6551222","ios":"levelo://app?vid=63142f57-cfa5-4375-9db7-4e73c6551222"},"vehicle_type_id":"4","last_reported":1690733222,"current_range_meters":0,"station_id":"ce4bgh92rcd13ifvqb40","pricing_plan_id":"free"},{"bike_id":"cfaddce7-a85a-440d-a340-1e4e6dd56490","system_id":"levelo_inurba_marseille","lat":43.29304,"lon":5.37169,"is_reserved":false,"is_disabled":false,"rental_uris":{"android":"levelo://app?vid=cfaddce7-a85a-440d-a340-1e4e6dd56490","ios":"levelo://app?vid=cfaddce7-a85a-440d-a340-1e4e6dd56490"},"vehicle_type_id":"4","last_reported":1690733222,"current_range_meters":17600,"station_id":"ce4bgh92rcd13ifvqb40","pricing_plan_id":"free"},{"bike_id":"676f49ec-c2e1-442b-9dc5-540a2bf7e3a8","system_id":"levelo_inurba_marseille","lat":43.29273,"lon":5.36839,"is_reserved":false,"is_disabled":false,"rental_uris":{"android":"levelo://app?vid=676f49ec-c2e1-442b-9dc5-540a2bf7e3a8","ios":"levelo://app?vid=676f49ec-c2e1-442b-9dc5-540a2bf7e3a8"},"vehicle_type_id":"4","last_reported":1690733222,"current_range_meters":0,"station_id":"ce4bhbp2rcd13ifvqesg","pricing_plan_id":"free"},{"bike_id":"0545d4f5-a3cb-48e8-9fbd-8b1a5ccf3b34","system_id":"levelo_inurba_marseille","lat":43.29298,"lon":5.37184,"is_reserved":false,"is_disabled":false,"rental_uris":{"android":"levelo://app?vid=0545d4f5-a3cb-48e8-9fbd-8b1a5ccf3b34","ios":"levelo://app?vid=0545d4f5-a3cb-48e8-9fbd-8b1a5ccf3b34"},"vehicle_type_id":"4","last_reported":1690733222,"current_range_meters":23200,"station_id":"ce4bgh92rcd13ifvqb40","pricing_plan_id":"free"},{"bike_id":"60bea00b-df19-47a8-864c-5a5525ea2036","system_id":"levelo_inurba_marseille","lat":43.292311,"lon":5.360731,"is_reserved":false,"is_disabled":false,"rental_uris":{"android":"levelo://app?vid=60bea00b-df19-47a8-864c-5a5525ea2036","ios":"levelo://app?vid=60bea00b-df19-47a8-864c-5a5525ea2036"},"vehicle_type_id":"4","last_reported":1690733222,"current_range_meters":0,"station_id":"ce4bhbh2rcd13ifvqeqg","pricing_plan_id":"free"},{"bike_id":"9ccf9e19-742b-454b-8276-0dfc757c0087","system_id":"levelo_inurba_marseille","lat":43.292311,"lon":5.360731,"is_reserved":false,"is_disabled":false,"rental_uris":{"android":"levelo://app?vid=9ccf9e19-742b-454b-8276-0dfc757c0087","ios":"levelo://app?vid=9ccf9e19-742b-454b-8276-0dfc757c0087"},"vehicle_type_id":"4","last_reported":1690733222,"current_range_meters":16800,"station_id":"ce4bhbh2rcd13ifvqeqg","pricing_plan_id":"free"},{"bike_id":"6b6c592f-6b95-4f36-85a8-b567b5bbc756","system_id":"levelo_inurba_marseille","lat":43.300852,"lon":5.390859,"is_reserved":false,"is_disabled":false,"rental_uris":{"android":"levelo://app?vid=6b6c592f-6b95-4f36-85a8-b567b5bbc756","ios":"levelo://app?vid=6b6c592f-6b95-4f36-85a8-b567b5bbc756"},"vehicle_type_id":"4","last_reported":1690733222,"current_range_meters":15200,"station_id":"ce4bh192rcd13ifvqdb0","pricing_plan_id":"free"},{"bike_id":"a573f92b-98d5-4872-b469-a18ef47daf16","system_id":"levelo_inurba_marseille","lat":43.29194,"lon":5.35806,"is_reserved":false,"is_disabled":false,"rental_uris":{"android":"levelo://app?vid=a573f92b-98d5-4872-b469-a18ef47daf16","ios":"levelo://app?vid=a573f92b-98d5-4872-b469-a18ef47daf16"},"vehicle_type_id":"4","last_reported":1690733222,"current_range_meters":800,"station_id":"ce4bhb12rcd13ifvqel0","pricing_plan_id":"free"},{"bike_id":"dac69412-29e1-446c-a454-d91e05233a5c","system_id":"levelo_inurba_marseille","lat":43.313291,"lon":5.396838,"is_reserved":false,"is_disabled":false,"rental_uris":{"android":"levelo://app?vid=dac69412-29e1-446c-a454-d91e05233a5c","ios":"levelo://app?vid=dac69412-29e1-446c-a454-d91e05233a5c"},"vehicle_type_id":"4","last_reported":1690733222,"current_range_meters":24400,"station_id":"ce4bgvp2rcd13ifvqcu0","pricing_plan_id":"free"},{"bike_id":"1664ffd4-9042-47c6-b0a6-39b882d728a8","system_id":"levelo_inurba_marseille","lat":43.2919,"lon":5.35801,"is_reserved":false,"is_disabled":false,"rental_uris":{"android":"levelo://app?vid=1664ffd4-9042-47c6-b0a6-39b882d728a8","ios":"levelo://app?vid=1664ffd4-9042-47c6-b0a6-39b882d728a8"},"vehicle_type_id":"4","last_reported":1690733222,"current_range_meters":20000,"station_id":"ce4bhb12rcd13ifvqel0","pricing_plan_id":"free"},{"bike_id":"ce15265e-cae7-4a9a-b32b-f446a31fdc21","system_id":"levelo_inurba_marseille","lat":43.290779,"lon":5.371482,"is_reserved":false,"is_disabled":false,"rental_uris":{"android":"levelo://app?vid=ce15265e-cae7-4a9a-b32b-f446a31fdc21","ios":"levelo://app?vid=ce15265e-cae7-4a9a-b32b-f446a31fdc21"},"vehicle_type_id":"4","last_reported":1690733222,"current_range_meters":15200,"station_id":"ce4bh5p2rcd13ifvqe4g","pricing_plan_id":"free"},{"bike_id":"8aa776a4-8529-4f97-b37e-704560723bb5","system_id":"levelo_inurba_marseille","lat":43.290327,"lon":5.375711,"is_reserved":false,"is_disabled":false,"rental_uris":{"android":"levelo://app?vid=8aa776a4-8529-4f97-b37e-704560723bb5","ios":"levelo://app?vid=8aa776a4-8529-4f97-b37e-704560723bb5"},"vehicle_type_id":"4","last_reported":1690733222,"current_range_meters":13600,"station_id":"ce4bh692rcd13ifvqe90","pricing_plan_id":"free"},{"bike_id":"9287a09f-4866-4bc7-8962-f0913bf0b332","system_id":"levelo_inurba_marseille","lat":43.28943,"lon":5.36638,"is_reserved":false,"is_disabled":false,"rental_uris":{"android":"levelo://app?vid=9287a09f-4866-4bc7-8962-f0913bf0b332","ios":"levelo://app?vid=9287a09f-4866-4bc7-8962-f0913bf0b332"},"vehicle_type_id":"4","last_reported":1690733222,"current_range_meters":23200,"station_id":"ce4bhap2rcd13ifvqek0","pricing_plan_id":"free"},{"bike_id":"ac1a0ceb-0a14-4e76-8db3-f10dfad351c2","system_id":"levelo_inurba_marseille","lat":43.294162,"lon":5.386292,"is_reserved":false,"is_disabled":false,"rental_uris":{"android":"levelo://app?vid=ac1a0ceb-0a14-4e76-8db3-f10dfad351c2","ios":"levelo://app?vid=ac1a0ceb-0a14-4e76-8db3-f10dfad351c2"},"vehicle_type_id":"4","last_reported":1690733222,"current_range_meters":5200,"station_id":"ce4bh2h2rcd13ifvqdh0","pricing_plan_id":"free"},{"bike_id":"646beb4f-38ca-4db8-9a01-fac4d961e183","system_id":"levelo_inurba_marseille","lat":43.289184,"lon":5.366408,"is_reserved":false,"is_disabled":false,"rental_uris":{"android":"levelo://app?vid=646beb4f-38ca-4db8-9a01-fac4d961e183","ios":"levelo://app?vid=646beb4f-38ca-4db8-9a01-fac4d961e183"},"vehicle_type_id":"4","last_reported":1690733222,"current_range_meters":16800,"station_id":"ce4bhap2rcd13ifvqek0","pricing_plan_id":"free"},{"bike_id":"c07cf2b6-bb58-45a4-94ee-dc55b4f5e385","system_id":"levelo_inurba_marseille","lat":43.29048,"lon":5.3559,"is_reserved":false,"is_disabled":false,"rental_uris":{"android":"levelo://app?vid=c07cf2b6-bb58-45a4-94ee-dc55b4f5e385","ios":"levelo://app?vid=c07cf2b6-bb58-45a4-94ee-dc55b4f5e385"},"vehicle_type_id":"4","last_reported":1690733222,"current_range_meters":18000,"station_id":"ce4bhb92rcd13ifvqen0","pricing_plan_id":"free"},{"bike_id":"7745ea6f-a0ec-4076-89cb-8d21641fcdaa","system_id":"levelo_inurba_marseille","lat":43.29042,"lon":5.35592,"is_reserved":false,"is_disabled":false,"rental_uris":{"android":"levelo://app?vid=7745ea6f-a0ec-4076-89cb-8d21641fcdaa","ios":"levelo://app?vid=7745ea6f-a0ec-4076-89cb-8d21641fcdaa"},"vehicle_type_id":"4","last_reported":1690733222,"current_range_meters":23600,"station_id":"ce4bhb92rcd13ifvqen0","pricing_plan_id":"free"},{"bike_id":"faa1bde1-1774-499f-b109-8c9a5a463360","system_id":"levelo_inurba_marseille","lat":43.292642,"lon":5.384254,"is_reserved":false,"is_disabled":false,"rental_uris":{"android":"levelo://app?vid=faa1bde1-1774-499f-b109-8c9a5a463360","ios":"levelo://app?vid=faa1bde1-1774-499f-b109-8c9a5a463360"},"vehicle_type_id":"4","last_reported":1690733222,"current_range_meters":4800,"station_id":"ce4bh692rcd13ifvqea0","pricing_plan_id":"free"},{"bike_id":"6d27a6de-b0f3-4c85-a85b-10245b113671","system_id":"levelo_inurba_marseille","lat":43.292642,"lon":5.384254,"is_reserved":false,"is_disabled":false,"rental_uris":{"android":"levelo://app?vid=6d27a6de-b0f3-4c85-a85b-10245b113671","ios":"levelo://app?vid=6d27a6de-b0f3-4c85-a85b-10245b113671"},"vehicle_type_id":"4","last_reported":1690733222,"current_range_meters":19600,"station_id":"ce4bh692rcd13ifvqea0","pricing_plan_id":"free"},{"bike_id":"583d0e8a-0302-4c8c-9f14-4fd08d24daa9","system_id":"levelo_inurba_marseille","lat":43.292644,"lon":5.384257,"is_reserved":false,"is_disabled":false,"rental_uris":{"android":"levelo://app?vid=583d0e8a-0302-4c8c-9f14-4fd08d24daa9","ios":"levelo://app?vid=583d0e8a-0302-4c8c-9f14-4fd08d24daa9"},"vehicle_type_id":"4","last_reported":1690733222,"current_range_meters":20400,"station_id":"ce4bh692rcd13ifvqea0","pricing_plan_id":"free"},{"bike_id":"009e1f8e-69b2-407c-832d-53668f2625ed","system_id":"levelo_inurba_marseille","lat":43.33043,"lon":5.38915,"is_reserved":false,"is_disabled":false,"rental_uris":{"android":"levelo://app?vid=009e1f8e-69b2-407c-832d-53668f2625ed","ios":"levelo://app?vid=009e1f8e-69b2-407c-832d-53668f2625ed"},"vehicle_type_id":"4","last_reported":1690733222,"current_range_meters":29200,"station_id":"ce4bhr92rcd13ifvqhrg","pricing_plan_id":"free"},{"bike_id":"4031e07c-3812-4dd4-9840-651d80dc70e1","system_id":"levelo_inurba_marseille","lat":43.33045,"lon":5.38916,"is_reserved":false,"is_disabled":false,"rental_uris":{"android":"levelo://app?vid=4031e07c-3812-4dd4-9840-651d80dc70e1","ios":"levelo://app?vid=4031e07c-3812-4dd4-9840-651d80dc70e1"},"vehicle_type_id":"4","last_reported":1690733222,"current_range_meters":30400,"station_id":"ce4bhr92rcd13ifvqhrg","pricing_plan_id":"free"},{"bike_id":"15826b93-93a4-4083-bb32-5201a2212194","system_id":"levelo_inurba_marseille","lat":43.33048,"lon":5.38915,"is_reserved":false,"is_disabled":false,"rental_uris":{"android":"levelo://app?vid=15826b93-93a4-4083-bb32-5201a2212194","ios":"levelo://app?vid=15826b93-93a4-4083-bb32-5201a2212194"},"vehicle_type_id":"4","last_reported":1690733222,"current_range_meters":30400,"station_id":"ce4bhr92rcd13ifvqhrg","pricing_plan_id":"free"},{"bike_id":"134ef223-0af9-48f2-bbd1-4d84dd8cb35c","system_id":"levelo_inurba_marseille","lat":43.29006,"lon":5.35607,"is_reserved":false,"is_disabled":false,"rental_uris":{"android":"levelo://app?vid=134ef223-0af9-48f2-bbd1-4d84dd8cb35c","ios":"levelo://app?vid=134ef223-0af9-48f2-bbd1-4d84dd8cb35c"},"vehicle_type_id":"4","last_reported":1690733222,"current_range_meters":31200,"station_id":"ce4bhb92rcd13ifvqen0","pricing_plan_id":"free"},{"bike_id":"d8afb2b5-0158-41e3-b407-30be3a55b763","system_id":"levelo_inurba_marseille","lat":43.33044,"lon":5.38928,"is_reserved":false,"is_disabled":false,"rental_uris":{"android":"levelo://app?vid=d8afb2b5-0158-41e3-b407-30be3a55b763","ios":"levelo://app?vid=d8afb2b5-0158-41e3-b407-30be3a55b763"},"vehicle_type_id":"4","last_reported":1690733222,"current_range_meters":24000,"station_id":"ce4bhr92rcd13ifvqhrg","pricing_plan_id":"free"},{"bike_id":"26b5bc9c-9625-46e9-9fb5-fa5dd8eb86f6","system_id":"levelo_inurba_marseille","lat":43.330468,"lon":5.38924,"is_reserved":false,"is_disabled":false,"rental_uris":{"android":"levelo://app?vid=26b5bc9c-9625-46e9-9fb5-fa5dd8eb86f6","ios":"levelo://app?vid=26b5bc9c-9625-46e9-9fb5-fa5dd8eb86f6"},"vehicle_type_id":"4","last_reported":1690733222,"current_range_meters":4800,"station_id":"ce4bhr92rcd13ifvqhrg","pricing_plan_id":"free"},{"bike_id":"f4b8a937-478a-4113-a141-eec483a34759","system_id":"levelo_inurba_marseille","lat":43.29509,"lon":5.38943,"is_reserved":false,"is_disabled":false,"rental_uris":{"android":"levelo://app?vid=f4b8a937-478a-4113-a141-eec483a34759","ios":"levelo://app?vid=f4b8a937-478a-4113-a141-eec483a34759"},"vehicle_type_id":"4","last_reported":1690733222,"current_range_meters":9200,"station_id":"","pricing_plan_id":"free"},{"bike_id":"05bf2cc0-c80b-4d3b-9303-5cea93148e89","system_id":"levelo_inurba_marseille","lat":43.290995,"lon":5.381361,"is_reserved":false,"is_disabled":false,"rental_uris":{"android":"levelo://app?vid=05bf2cc0-c80b-4d3b-9303-5cea93148e89","ios":"levelo://app?vid=05bf2cc0-c80b-4d3b-9303-5cea93148e89"},"vehicle_type_id":"4","last_reported":1690733222,"current_range_meters":30000,"station_id":"ce4bh512rcd13ifvqe2g","pricing_plan_id":"free"},{"bike_id":"84a3003a-825a-4178-b142-1e0940a76041","system_id":"levelo_inurba_marseille","lat":43.295169,"lon":5.390426,"is_reserved":false,"is_disabled":false,"rental_uris":{"android":"levelo://app?vid=84a3003a-825a-4178-b142-1e0940a76041","ios":"levelo://app?vid=84a3003a-825a-4178-b142-1e0940a76041"},"vehicle_type_id":"4","last_reported":1690733222,"current_range_meters":15600,"station_id":"ce4bh3p2rcd13ifvqdp0","pricing_plan_id":"free"},{"bike_id":"b133c602-c380-4572-bbe1-27b833f74862","system_id":"levelo_inurba_marseille","lat":43.28856,"lon":5.358371,"is_reserved":false,"is_disabled":false,"rental_uris":{"android":"levelo://app?vid=b133c602-c380-4572-bbe1-27b833f74862","ios":"levelo://app?vid=b133c602-c380-4572-bbe1-27b833f74862"},"vehicle_type_id":"4","last_reported":1690733222,"current_range_meters":3200,"station_id":"ce4bhb12rcd13ifvqem0","pricing_plan_id":"free"},{"bike_id":"dac07c62-e19e-4535-98de-283253dbe5e5","system_id":"levelo_inurba_marseille","lat":43.28856,"lon":5.358371,"is_reserved":false,"is_disabled":false,"rental_uris":{"android":"levelo://app?vid=dac07c62-e19e-4535-98de-283253dbe5e5","ios":"levelo://app?vid=dac07c62-e19e-4535-98de-283253dbe5e5"},"vehicle_type_id":"4","last_reported":1690733222,"current_range_meters":28400,"station_id":"ce4bhb12rcd13ifvqem0","pricing_plan_id":"free"},{"bike_id":"794dbedd-524b-4b95-b846-7de08c5f8a79","system_id":"levelo_inurba_marseille","lat":43.28856,"lon":5.358371,"is_reserved":false,"is_disabled":false,"rental_uris":{"android":"levelo://app?vid=794dbedd-524b-4b95-b846-7de08c5f8a79","ios":"levelo://app?vid=794dbedd-524b-4b95-b846-7de08c5f8a79"},"vehicle_type_id":"4","last_reported":1690733222,"current_range_meters":24400,"station_id":"ce4bhb12rcd13ifvqem0","pricing_plan_id":"free"},{"bike_id":"bb78f793-0e6e-419c-89fd-d7a9aff57fbc","system_id":"levelo_inurba_marseille","lat":43.31281,"lon":5.40169,"is_reserved":false,"is_disabled":false,"rental_uris":{"android":"levelo://app?vid=bb78f793-0e6e-419c-89fd-d7a9aff57fbc","ios":"levelo://app?vid=bb78f793-0e6e-419c-89fd-d7a9aff57fbc"},"vehicle_type_id":"4","last_reported":1690733222,"current_range_meters":400,"station_id":"ce4bh092rcd13ifvqd30","pricing_plan_id":"free"},{"bike_id":"53796e28-b162-4f55-a9f6-352e24ce1162","system_id":"levelo_inurba_marseille","lat":43.301117,"lon":5.398795,"is_reserved":false,"is_disabled":false,"rental_uris":{"android":"levelo://app?vid=53796e28-b162-4f55-a9f6-352e24ce1162","ios":"levelo://app?vid=53796e28-b162-4f55-a9f6-352e24ce1162"},"vehicle_type_id":"4","last_reported":1690733222,"current_range_meters":27200,"station_id":"ce4bh0h2rcd13ifvqd40","pricing_plan_id":"free"},{"bike_id":"d92715c8-b655-4f25-8cfe-36191e692862","system_id":"levelo_inurba_marseille","lat":43.286591,"lon":5.363346,"is_reserved":false,"is_disabled":false,"rental_uris":{"android":"levelo://app?vid=d92715c8-b655-4f25-8cfe-36191e692862","ios":"levelo://app?vid=d92715c8-b655-4f25-8cfe-36191e692862"},"vehicle_type_id":"4","last_reported":1690733222,"current_range_meters":8800,"station_id":"ce4bhah2rcd13ifvqej0","pricing_plan_id":"free"},{"bike_id":"75199276-b705-4ad7-b6a9-49aeaa84628a","system_id":"levelo_inurba_marseille","lat":43.286593,"lon":5.363346,"is_reserved":false,"is_disabled":false,"rental_uris":{"android":"levelo://app?vid=75199276-b705-4ad7-b6a9-49aeaa84628a","ios":"levelo://app?vid=75199276-b705-4ad7-b6a9-49aeaa84628a"},"vehicle_type_id":"4","last_reported":1690733222,"current_range_meters":32000,"station_id":"ce4bhah2rcd13ifvqej0","pricing_plan_id":"free"},{"bike_id":"3baf0699-9fec-45f4-b3af-b33e2b822313","system_id":"levelo_inurba_marseille","lat":43.286593,"lon":5.363346,"is_reserved":false,"is_disabled":false,"rental_uris":{"android":"levelo://app?vid=3baf0699-9fec-45f4-b3af-b33e2b822313","ios":"levelo://app?vid=3baf0699-9fec-45f4-b3af-b33e2b822313"},"vehicle_type_id":"4","last_reported":1690733222,"current_range_meters":30400,"station_id":"ce4bhah2rcd13ifvqej0","pricing_plan_id":"free"},{"bike_id":"ff45d0b7-65c4-4544-b3bb-5a2956f5c29b","system_id":"levelo_inurba_marseille","lat":43.286593,"lon":5.363346,"is_reserved":false,"is_disabled":false,"rental_uris":{"android":"levelo://app?vid=ff45d0b7-65c4-4544-b3bb-5a2956f5c29b","ios":"levelo://app?vid=ff45d0b7-65c4-4544-b3bb-5a2956f5c29b"},"vehicle_type_id":"4","last_reported":1690733222,"current_range_meters":13600,"station_id":"ce4bhah2rcd13ifvqej0","pricing_plan_id":"free"},{"bike_id":"fcaa1707-084a-4ddc-89d4-72c79d92657c","system_id":"levelo_inurba_marseille","lat":43.295196,"lon":5.39397,"is_reserved":false,"is_disabled":false,"rental_uris":{"android":"levelo://app?vid=fcaa1707-084a-4ddc-89d4-72c79d92657c","ios":"levelo://app?vid=fcaa1707-084a-4ddc-89d4-72c79d92657c"},"vehicle_type_id":"4","last_reported":1690733222,"current_range_meters":6400,"station_id":"ce4bh292rcd13ifvqdf0","pricing_plan_id":"free"},{"bike_id":"bccc506d-1524-4a28-aef6-595e0fe17286","system_id":"levelo_inurba_marseille","lat":43.302759,"lon":5.400793,"is_reserved":false,"is_disabled":false,"rental_uris":{"android":"levelo://app?vid=bccc506d-1524-4a28-aef6-595e0fe17286","ios":"levelo://app?vid=bccc506d-1524-4a28-aef6-595e0fe17286"},"vehicle_type_id":"4","last_reported":1690733222,"current_range_meters":0,"station_id":"ce4bgvh2rcd13ifvqcs0","pricing_plan_id":"free"},{"bike_id":"66826c2c-ad47-4bb1-a45f-a2d561301ae4","system_id":"levelo_inurba_marseille","lat":43.28822,"lon":5.35263,"is_reserved":false,"is_disabled":false,"rental_uris":{"android":"levelo://app?vid=66826c2c-ad47-4bb1-a45f-a2d561301ae4","ios":"levelo://app?vid=66826c2c-ad47-4bb1-a45f-a2d561301ae4"},"vehicle_type_id":"4","last_reported":1690733222,"current_range_meters":0,"station_id":"","pricing_plan_id":"free"},{"bike_id":"9707c2b5-49ea-42b6-8faf-7b11f49c3b3f","system_id":"levelo_inurba_marseille","lat":43.31651,"lon":5.40431,"is_reserved":false,"is_disabled":false,"rental_uris":{"android":"levelo://app?vid=9707c2b5-49ea-42b6-8faf-7b11f49c3b3f","ios":"levelo://app?vid=9707c2b5-49ea-42b6-8faf-7b11f49c3b3f"},"vehicle_type_id":"4","last_reported":1690733222,"current_range_meters":4800,"station_id":"ce4bh012rcd13ifvqd00","pricing_plan_id":"free"},{"bike_id":"90a7b027-06c4-4292-8961-a905bfd7f9cd","system_id":"levelo_inurba_marseille","lat":43.316517,"lon":5.404375,"is_reserved":false,"is_disabled":false,"rental_uris":{"android":"levelo://app?vid=90a7b027-06c4-4292-8961-a905bfd7f9cd","ios":"levelo://app?vid=90a7b027-06c4-4292-8961-a905bfd7f9cd"},"vehicle_type_id":"4","last_reported":1690733222,"current_range_meters":4000,"station_id":"ce4bh012rcd13ifvqd00","pricing_plan_id":"free"},{"bike_id":"cba2fe08-5950-45df-a2c3-b8ff216eb4ef","system_id":"levelo_inurba_marseille","lat":43.3164,"lon":5.4044,"is_reserved":false,"is_disabled":false,"rental_uris":{"android":"levelo://app?vid=cba2fe08-5950-45df-a2c3-b8ff216eb4ef","ios":"levelo://app?vid=cba2fe08-5950-45df-a2c3-b8ff216eb4ef"},"vehicle_type_id":"4","last_reported":1690733222,"current_range_meters":22400,"station_id":"ce4bh012rcd13ifvqd00","pricing_plan_id":"free"},{"bike_id":"b1dcb30e-0eb7-4fd4-bbbf-566730c83c4b","system_id":"levelo_inurba_marseille","lat":43.31655,"lon":5.40439,"is_reserved":false,"is_disabled":false,"rental_uris":{"android":"levelo://app?vid=b1dcb30e-0eb7-4fd4-bbbf-566730c83c4b","ios":"levelo://app?vid=b1dcb30e-0eb7-4fd4-bbbf-566730c83c4b"},"vehicle_type_id":"4","last_reported":1690733222,"current_range_meters":0,"station_id":"ce4bh012rcd13ifvqd00","pricing_plan_id":"free"},{"bike_id":"023251d4-1386-48e2-80a6-0cfc06549ba5","system_id":"levelo_inurba_marseille","lat":43.316517,"lon":5.404375,"is_reserved":false,"is_disabled":false,"rental_uris":{"android":"levelo://app?vid=023251d4-1386-48e2-80a6-0cfc06549ba5","ios":"levelo://app?vid=023251d4-1386-48e2-80a6-0cfc06549ba5"},"vehicle_type_id":"4","last_reported":1690733222,"current_range_meters":18400,"station_id":"ce4bh012rcd13ifvqd00","pricing_plan_id":"free"},{"bike_id":"99c50597-4800-4e25-bd3e-243b23cee58b","system_id":"levelo_inurba_marseille","lat":43.29193,"lon":5.39308,"is_reserved":false,"is_disabled":false,"rental_uris":{"android":"levelo://app?vid=99c50597-4800-4e25-bd3e-243b23cee58b","ios":"levelo://app?vid=99c50597-4800-4e25-bd3e-243b23cee58b"},"vehicle_type_id":"4","last_reported":1690733222,"current_range_meters":0,"station_id":"ce4bh192rcd13ifvqdd0","pricing_plan_id":"free"},{"bike_id":"c6c9bc46-ec75-45b8-9df9-a93505d38d6c","system_id":"levelo_inurba_marseille","lat":43.291994,"lon":5.392907,"is_reserved":false,"is_disabled":false,"rental_uris":{"android":"levelo://app?vid=c6c9bc46-ec75-45b8-9df9-a93505d38d6c","ios":"levelo://app?vid=c6c9bc46-ec75-45b8-9df9-a93505d38d6c"},"vehicle_type_id":"4","last_reported":1690733222,"current_range_meters":7200,"station_id":"ce4bh192rcd13ifvqdd0","pricing_plan_id":"free"},{"bike_id":"46f38c80-3d9f-46aa-8a72-20ef5a2d2cb4","system_id":"levelo_inurba_marseille","lat":43.291994,"lon":5.392907,"is_reserved":false,"is_disabled":false,"rental_uris":{"android":"levelo://app?vid=46f38c80-3d9f-46aa-8a72-20ef5a2d2cb4","ios":"levelo://app?vid=46f38c80-3d9f-46aa-8a72-20ef5a2d2cb4"},"vehicle_type_id":"4","last_reported":1690733222,"current_range_meters":6400,"station_id":"ce4bh192rcd13ifvqdd0","pricing_plan_id":"free"},{"bike_id":"c32ed5a1-4c1a-4218-a891-7586eb24436d","system_id":"levelo_inurba_marseille","lat":43.28457,"lon":5.35886,"is_reserved":false,"is_disabled":false,"rental_uris":{"android":"levelo://app?vid=c32ed5a1-4c1a-4218-a891-7586eb24436d","ios":"levelo://app?vid=c32ed5a1-4c1a-4218-a891-7586eb24436d"},"vehicle_type_id":"4","last_reported":1690733222,"current_range_meters":18800,"station_id":"ce4bhah2rcd13ifvqei0","pricing_plan_id":"free"},{"bike_id":"2874ac78-adc8-4e97-a83c-dcf9501c8615","system_id":"levelo_inurba_marseille","lat":43.28453,"lon":5.35893,"is_reserved":false,"is_disabled":false,"rental_uris":{"android":"levelo://app?vid=2874ac78-adc8-4e97-a83c-dcf9501c8615","ios":"levelo://app?vid=2874ac78-adc8-4e97-a83c-dcf9501c8615"},"vehicle_type_id":"4","last_reported":1690733222,"current_range_meters":21200,"station_id":"ce4bhah2rcd13ifvqei0","pricing_plan_id":"free"},{"bike_id":"a3fdb558-526c-4cda-9d8a-176f1b8a43c4","system_id":"levelo_inurba_marseille","lat":43.28618,"lon":5.35109,"is_reserved":false,"is_disabled":false,"rental_uris":{"android":"levelo://app?vid=a3fdb558-526c-4cda-9d8a-176f1b8a43c4","ios":"levelo://app?vid=a3fdb558-526c-4cda-9d8a-176f1b8a43c4"},"vehicle_type_id":"4","last_reported":1690733222,"current_range_meters":23600,"station_id":"ce4bhch2rcd13ifvqeug","pricing_plan_id":"free"},{"bike_id":"bdd97db1-668e-4692-8a22-4860d3ba0420","system_id":"levelo_inurba_marseille","lat":43.28618,"lon":5.35107,"is_reserved":false,"is_disabled":false,"rental_uris":{"android":"levelo://app?vid=bdd97db1-668e-4692-8a22-4860d3ba0420","ios":"levelo://app?vid=bdd97db1-668e-4692-8a22-4860d3ba0420"},"vehicle_type_id":"4","last_reported":1690733222,"current_range_meters":31200,"station_id":"ce4bhch2rcd13ifvqeug","pricing_plan_id":"free"},{"bike_id":"db8ad659-91dd-4333-bf3b-aa080dd7b7e4","system_id":"levelo_inurba_marseille","lat":43.285856,"lon":5.350771,"is_reserved":false,"is_disabled":false,"rental_uris":{"android":"levelo://app?vid=db8ad659-91dd-4333-bf3b-aa080dd7b7e4","ios":"levelo://app?vid=db8ad659-91dd-4333-bf3b-aa080dd7b7e4"},"vehicle_type_id":"4","last_reported":1690733222,"current_range_meters":17200,"station_id":"ce4bhch2rcd13ifvqeug","pricing_plan_id":"free"},{"bike_id":"ab338ad7-0783-4a65-b5bb-67843b53b5df","system_id":"levelo_inurba_marseille","lat":43.28619,"lon":5.351,"is_reserved":false,"is_disabled":false,"rental_uris":{"android":"levelo://app?vid=ab338ad7-0783-4a65-b5bb-67843b53b5df","ios":"levelo://app?vid=ab338ad7-0783-4a65-b5bb-67843b53b5df"},"vehicle_type_id":"4","last_reported":1690733222,"current_range_meters":31200,"station_id":"ce4bhch2rcd13ifvqeug","pricing_plan_id":"free"},{"bike_id":"594bb192-9e43-416f-a44c-b6e1052cfdd7","system_id":"levelo_inurba_marseille","lat":43.28618,"lon":5.35103,"is_reserved":false,"is_disabled":false,"rental_uris":{"android":"levelo://app?vid=594bb192-9e43-416f-a44c-b6e1052cfdd7","ios":"levelo://app?vid=594bb192-9e43-416f-a44c-b6e1052cfdd7"},"vehicle_type_id":"4","last_reported":1690733222,"current_range_meters":24000,"station_id":"ce4bhch2rcd13ifvqeug","pricing_plan_id":"free"},{"bike_id":"c0a40e6d-e3d9-4572-8b42-cf5f8a58bf53","system_id":"levelo_inurba_marseille","lat":43.28618,"lon":5.35102,"is_reserved":false,"is_disabled":false,"rental_uris":{"android":"levelo://app?vid=c0a40e6d-e3d9-4572-8b42-cf5f8a58bf53","ios":"levelo://app?vid=c0a40e6d-e3d9-4572-8b42-cf5f8a58bf53"},"vehicle_type_id":"4","last_reported":1690733222,"current_range_meters":31200,"station_id":"ce4bhch2rcd13ifvqeug","pricing_plan_id":"free"},{"bike_id":"3e2a5d47-cbef-4665-88b5-f5b578f067b2","system_id":"levelo_inurba_marseille","lat":43.28618,"lon":5.351,"is_reserved":false,"is_disabled":false,"rental_uris":{"android":"levelo://app?vid=3e2a5d47-cbef-4665-88b5-f5b578f067b2","ios":"levelo://app?vid=3e2a5d47-cbef-4665-88b5-f5b578f067b2"},"vehicle_type_id":"4","last_reported":1690733222,"current_range_meters":31200,"station_id":"ce4bhch2rcd13ifvqeug","pricing_plan_id":"free"},{"bike_id":"1e2583a6-c052-48fa-a25c-e7c2283c5bd0","system_id":"levelo_inurba_marseille","lat":43.28619,"lon":5.35096,"is_reserved":false,"is_disabled":false,"rental_uris":{"android":"levelo://app?vid=1e2583a6-c052-48fa-a25c-e7c2283c5bd0","ios":"levelo://app?vid=1e2583a6-c052-48fa-a25c-e7c2283c5bd0"},"vehicle_type_id":"4","last_reported":1690733222,"current_range_meters":22800,"station_id":"ce4bhch2rcd13ifvqeug","pricing_plan_id":"free"},{"bike_id":"4559ea41-1e35-4075-aeb8-5c1b41bca5ec","system_id":"levelo_inurba_marseille","lat":43.28618,"lon":5.35099,"is_reserved":false,"is_disabled":false,"rental_uris":{"android":"levelo://app?vid=4559ea41-1e35-4075-aeb8-5c1b41bca5ec","ios":"levelo://app?vid=4559ea41-1e35-4075-aeb8-5c1b41bca5ec"},"vehicle_type_id":"4","last_reported":1690733222,"current_range_meters":31200,"station_id":"ce4bhch2rcd13ifvqeug","pricing_plan_id":"free"},{"bike_id":"f7361d53-1805-4285-aaac-1154b9ec5118","system_id":"levelo_inurba_marseille","lat":43.28616,"lon":5.35104,"is_reserved":false,"is_disabled":false,"rental_uris":{"android":"levelo://app?vid=f7361d53-1805-4285-aaac-1154b9ec5118","ios":"levelo://app?vid=f7361d53-1805-4285-aaac-1154b9ec5118"},"vehicle_type_id":"4","last_reported":1690733222,"current_range_meters":31200,"station_id":"ce4bhch2rcd13ifvqeug","pricing_plan_id":"free"},{"bike_id":"8b3de30a-816e-4297-9cba-9f2c5c99e809","system_id":"levelo_inurba_marseille","lat":43.28618,"lon":5.35097,"is_reserved":false,"is_disabled":false,"rental_uris":{"android":"levelo://app?vid=8b3de30a-816e-4297-9cba-9f2c5c99e809","ios":"levelo://app?vid=8b3de30a-816e-4297-9cba-9f2c5c99e809"},"vehicle_type_id":"4","last_reported":1690733222,"current_range_meters":30400,"station_id":"ce4bhch2rcd13ifvqeug","pricing_plan_id":"free"},{"bike_id":"590ffa09-07f1-44b1-a93c-ea69e13c3b04","system_id":"levelo_inurba_marseille","lat":43.28614,"lon":5.35104,"is_reserved":false,"is_disabled":false,"rental_uris":{"android":"levelo://app?vid=590ffa09-07f1-44b1-a93c-ea69e13c3b04","ios":"levelo://app?vid=590ffa09-07f1-44b1-a93c-ea69e13c3b04"},"vehicle_type_id":"4","last_reported":1690733222,"current_range_meters":29600,"station_id":"ce4bhch2rcd13ifvqeug","pricing_plan_id":"free"},{"bike_id":"7ce939e2-b2b1-413e-af8e-6ecee33d0a43","system_id":"levelo_inurba_marseille","lat":43.285856,"lon":5.350771,"is_reserved":false,"is_disabled":false,"rental_uris":{"android":"levelo://app?vid=7ce939e2-b2b1-413e-af8e-6ecee33d0a43","ios":"levelo://app?vid=7ce939e2-b2b1-413e-af8e-6ecee33d0a43"},"vehicle_type_id":"4","last_reported":1690733222,"current_range_meters":31200,"station_id":"ce4bhch2rcd13ifvqeug","pricing_plan_id":"free"},{"bike_id":"d18ea0f6-674c-448b-9467-51a93d0aa045","system_id":"levelo_inurba_marseille","lat":43.28616,"lon":5.35095,"is_reserved":false,"is_disabled":false,"rental_uris":{"android":"levelo://app?vid=d18ea0f6-674c-448b-9467-51a93d0aa045","ios":"levelo://app?vid=d18ea0f6-674c-448b-9467-51a93d0aa045"},"vehicle_type_id":"4","last_reported":1690733222,"current_range_meters":19200,"station_id":"ce4bhch2rcd13ifvqeug","pricing_plan_id":"free"},{"bike_id":"ab6f1d40-9c2e-46e0-9c35-c3e5a929b070","system_id":"levelo_inurba_marseille","lat":43.28613,"lon":5.35104,"is_reserved":false,"is_disabled":false,"rental_uris":{"android":"levelo://app?vid=ab6f1d40-9c2e-46e0-9c35-c3e5a929b070","ios":"levelo://app?vid=ab6f1d40-9c2e-46e0-9c35-c3e5a929b070"},"vehicle_type_id":"4","last_reported":1690733222,"current_range_meters":400,"station_id":"ce4bhch2rcd13ifvqeug","pricing_plan_id":"free"},{"bike_id":"5b112069-dd75-4a1c-a0d8-84fb8f414b25","system_id":"levelo_inurba_marseille","lat":43.28617,"lon":5.35091,"is_reserved":false,"is_disabled":false,"rental_uris":{"android":"levelo://app?vid=5b112069-dd75-4a1c-a0d8-84fb8f414b25","ios":"levelo://app?vid=5b112069-dd75-4a1c-a0d8-84fb8f414b25"},"vehicle_type_id":"4","last_reported":1690733222,"current_range_meters":25200,"station_id":"ce4bhch2rcd13ifvqeug","pricing_plan_id":"free"},{"bike_id":"f837b13e-c74d-4cce-a8fc-9e15c1070f07","system_id":"levelo_inurba_marseille","lat":43.28612,"lon":5.35102,"is_reserved":false,"is_disabled":false,"rental_uris":{"android":"levelo://app?vid=f837b13e-c74d-4cce-a8fc-9e15c1070f07","ios":"levelo://app?vid=f837b13e-c74d-4cce-a8fc-9e15c1070f07"},"vehicle_type_id":"4","last_reported":1690733222,"current_range_meters":22000,"station_id":"ce4bhch2rcd13ifvqeug","pricing_plan_id":"free"},{"bike_id":"c25c7198-4c87-40f5-b95d-bdadde192348","system_id":"levelo_inurba_marseille","lat":43.28611,"lon":5.35104,"is_reserved":false,"is_disabled":false,"rental_uris":{"android":"levelo://app?vid=c25c7198-4c87-40f5-b95d-bdadde192348","ios":"levelo://app?vid=c25c7198-4c87-40f5-b95d-bdadde192348"},"vehicle_type_id":"4","last_reported":1690733222,"current_range_meters":31200,"station_id":"ce4bhch2rcd13ifvqeug","pricing_plan_id":"free"},{"bike_id":"8cdf3f03-dfe7-449c-bf0c-4f0782716300","system_id":"levelo_inurba_marseille","lat":43.283998,"lon":5.375062,"is_reserved":false,"is_disabled":false,"rental_uris":{"android":"levelo://app?vid=8cdf3f03-dfe7-449c-bf0c-4f0782716300","ios":"levelo://app?vid=8cdf3f03-dfe7-449c-bf0c-4f0782716300"},"vehicle_type_id":"4","last_reported":1690733222,"current_range_meters":18000,"station_id":"ce4bh412rcd13ifvqds0","pricing_plan_id":"free"},{"bike_id":"55ab07cd-2db3-4ad5-82ac-43729fb98b7b","system_id":"levelo_inurba_marseille","lat":43.283998,"lon":5.375062,"is_reserved":false,"is_disabled":false,"rental_uris":{"android":"levelo://app?vid=55ab07cd-2db3-4ad5-82ac-43729fb98b7b","ios":"levelo://app?vid=55ab07cd-2db3-4ad5-82ac-43729fb98b7b"},"vehicle_type_id":"4","last_reported":1690733222,"current_range_meters":12800,"station_id":"ce4bh412rcd13ifvqds0","pricing_plan_id":"free"},{"bike_id":"05e1f6ce-e1bd-414a-bdd1-f3901cce46a1","system_id":"levelo_inurba_marseille","lat":43.295713,"lon":5.399639,"is_reserved":false,"is_disabled":false,"rental_uris":{"android":"levelo://app?vid=05e1f6ce-e1bd-414a-bdd1-f3901cce46a1","ios":"levelo://app?vid=05e1f6ce-e1bd-414a-bdd1-f3901cce46a1"},"vehicle_type_id":"4","last_reported":1690733222,"current_range_meters":400,"station_id":"ce4bh312rcd13ifvqdj0","pricing_plan_id":"free"},{"bike_id":"bfa39431-ce14-4780-9e8c-661b26586147","system_id":"levelo_inurba_marseille","lat":43.283998,"lon":5.375062,"is_reserved":false,"is_disabled":false,"rental_uris":{"android":"levelo://app?vid=bfa39431-ce14-4780-9e8c-661b26586147","ios":"levelo://app?vid=bfa39431-ce14-4780-9e8c-661b26586147"},"vehicle_type_id":"4","last_reported":1690733222,"current_range_meters":0,"station_id":"ce4bh412rcd13ifvqds0","pricing_plan_id":"free"},{"bike_id":"254df7a8-30a8-4318-84d0-a65a19d23a6d","system_id":"levelo_inurba_marseille","lat":43.28571,"lon":5.3507,"is_reserved":false,"is_disabled":false,"rental_uris":{"android":"levelo://app?vid=254df7a8-30a8-4318-84d0-a65a19d23a6d","ios":"levelo://app?vid=254df7a8-30a8-4318-84d0-a65a19d23a6d"},"vehicle_type_id":"4","last_reported":1690733222,"current_range_meters":16000,"station_id":"","pricing_plan_id":"free"},{"bike_id":"89483ede-3542-4ff6-b4b7-4d2d38117d81","system_id":"levelo_inurba_marseille","lat":43.319179,"lon":5.407725,"is_reserved":false,"is_disabled":false,"rental_uris":{"android":"levelo://app?vid=89483ede-3542-4ff6-b4b7-4d2d38117d81","ios":"levelo://app?vid=89483ede-3542-4ff6-b4b7-4d2d38117d81"},"vehicle_type_id":"4","last_reported":1690733222,"current_range_meters":15600,"station_id":"ce4bhq12rcd13ifvqhig","pricing_plan_id":"free"},{"bike_id":"677e934d-ed18-492c-8920-06a358ac1da1","system_id":"levelo_inurba_marseille","lat":43.31888,"lon":5.40728,"is_reserved":false,"is_disabled":false,"rental_uris":{"android":"levelo://app?vid=677e934d-ed18-492c-8920-06a358ac1da1","ios":"levelo://app?vid=677e934d-ed18-492c-8920-06a358ac1da1"},"vehicle_type_id":"4","last_reported":1690733222,"current_range_meters":16400,"station_id":"ce4bhq12rcd13ifvqhig","pricing_plan_id":"free"},{"bike_id":"1f1c940e-4aa1-40b4-9a4a-31d3b9770aad","system_id":"levelo_inurba_marseille","lat":43.319179,"lon":5.407725,"is_reserved":false,"is_disabled":false,"rental_uris":{"android":"levelo://app?vid=1f1c940e-4aa1-40b4-9a4a-31d3b9770aad","ios":"levelo://app?vid=1f1c940e-4aa1-40b4-9a4a-31d3b9770aad"},"vehicle_type_id":"4","last_reported":1690733222,"current_range_meters":14800,"station_id":"ce4bhq12rcd13ifvqhig","pricing_plan_id":"free"},{"bike_id":"b86cc898-193c-4909-953c-57c61ca39dd6","system_id":"levelo_inurba_marseille","lat":43.31891,"lon":5.40732,"is_reserved":false,"is_disabled":false,"rental_uris":{"android":"levelo://app?vid=b86cc898-193c-4909-953c-57c61ca39dd6","ios":"levelo://app?vid=b86cc898-193c-4909-953c-57c61ca39dd6"},"vehicle_type_id":"4","last_reported":1690733222,"current_range_meters":22800,"station_id":"ce4bhq12rcd13ifvqhig","pricing_plan_id":"free"},{"bike_id":"1cd10330-8c82-4645-9e31-791aa547d0aa","system_id":"levelo_inurba_marseille","lat":43.3372,"lon":5.39181,"is_reserved":false,"is_disabled":false,"rental_uris":{"android":"levelo://app?vid=1cd10330-8c82-4645-9e31-791aa547d0aa","ios":"levelo://app?vid=1cd10330-8c82-4645-9e31-791aa547d0aa"},"vehicle_type_id":"4","last_reported":1690733222,"current_range_meters":26000,"station_id":"ce4bhr92rcd13ifvqhsg","pricing_plan_id":"free"},{"bike_id":"26bfcad4-2dc6-43bb-9f00-91622fd750a3","system_id":"levelo_inurba_marseille","lat":43.323464,"lon":5.406297,"is_reserved":false,"is_disabled":false,"rental_uris":{"android":"levelo://app?vid=26bfcad4-2dc6-43bb-9f00-91622fd750a3","ios":"levelo://app?vid=26bfcad4-2dc6-43bb-9f00-91622fd750a3"},"vehicle_type_id":"4","last_reported":1690733222,"current_range_meters":31600,"station_id":"ce4bhq92rcd13ifvqhjg","pricing_plan_id":"free"},{"bike_id":"4a59383e-c24a-49eb-b341-b501111dd738","system_id":"levelo_inurba_marseille","lat":43.323464,"lon":5.406297,"is_reserved":false,"is_disabled":false,"rental_uris":{"android":"levelo://app?vid=4a59383e-c24a-49eb-b341-b501111dd738","ios":"levelo://app?vid=4a59383e-c24a-49eb-b341-b501111dd738"},"vehicle_type_id":"4","last_reported":1690733222,"current_range_meters":13200,"station_id":"ce4bhq92rcd13ifvqhjg","pricing_plan_id":"free"},{"bike_id":"1c48fc14-d16f-474c-9687-3d62f3e3c8fe","system_id":"levelo_inurba_marseille","lat":43.323464,"lon":5.406297,"is_reserved":false,"is_disabled":false,"rental_uris":{"android":"levelo://app?vid=1c48fc14-d16f-474c-9687-3d62f3e3c8fe","ios":"levelo://app?vid=1c48fc14-d16f-474c-9687-3d62f3e3c8fe"},"vehicle_type_id":"4","last_reported":1690733222,"current_range_meters":19200,"station_id":"ce4bhq92rcd13ifvqhjg","pricing_plan_id":"free"},{"bike_id":"e78794ab-1147-4e07-9747-4f03804e7014","system_id":"levelo_inurba_marseille","lat":43.3374,"lon":5.39185,"is_reserved":false,"is_disabled":false,"rental_uris":{"android":"levelo://app?vid=e78794ab-1147-4e07-9747-4f03804e7014","ios":"levelo://app?vid=e78794ab-1147-4e07-9747-4f03804e7014"},"vehicle_type_id":"4","last_reported":1690733222,"current_range_meters":24400,"station_id":"ce4bhr92rcd13ifvqhsg","pricing_plan_id":"free"},{"bike_id":"3f485b7d-dfd5-4437-a4b2-2182652bf1fa","system_id":"levelo_inurba_marseille","lat":43.284793,"lon":5.384119,"is_reserved":false,"is_disabled":false,"rental_uris":{"android":"levelo://app?vid=3f485b7d-dfd5-4437-a4b2-2182652bf1fa","ios":"levelo://app?vid=3f485b7d-dfd5-4437-a4b2-2182652bf1fa"},"vehicle_type_id":"4","last_reported":1690733222,"current_range_meters":8800,"station_id":"ce4bh512rcd13ifvqe3g","pricing_plan_id":"free"},{"bike_id":"3fe901f6-c3f9-4e78-9fdd-efd177bb2a2b","system_id":"levelo_inurba_marseille","lat":43.288497,"lon":5.393089,"is_reserved":false,"is_disabled":false,"rental_uris":{"android":"levelo://app?vid=3fe901f6-c3f9-4e78-9fdd-efd177bb2a2b","ios":"levelo://app?vid=3fe901f6-c3f9-4e78-9fdd-efd177bb2a2b"},"vehicle_type_id":"4","last_reported":1690733222,"current_range_meters":14400,"station_id":"ce4bh2p2rcd13ifvqdi0","pricing_plan_id":"free"},{"bike_id":"fa42f368-ca52-4875-a58f-9cd336203445","system_id":"levelo_inurba_marseille","lat":43.288497,"lon":5.393089,"is_reserved":false,"is_disabled":false,"rental_uris":{"android":"levelo://app?vid=fa42f368-ca52-4875-a58f-9cd336203445","ios":"levelo://app?vid=fa42f368-ca52-4875-a58f-9cd336203445"},"vehicle_type_id":"4","last_reported":1690733222,"current_range_meters":3600,"station_id":"ce4bh2p2rcd13ifvqdi0","pricing_plan_id":"free"},{"bike_id":"dcb9498b-bd3f-43d9-bd67-c8d2de1e87ac","system_id":"levelo_inurba_marseille","lat":43.283494,"lon":5.380945,"is_reserved":false,"is_disabled":false,"rental_uris":{"android":"levelo://app?vid=dcb9498b-bd3f-43d9-bd67-c8d2de1e87ac","ios":"levelo://app?vid=dcb9498b-bd3f-43d9-bd67-c8d2de1e87ac"},"vehicle_type_id":"4","last_reported":1690733222,"current_range_meters":24400,"station_id":"ce4bh412rcd13ifvqdr0","pricing_plan_id":"free"},{"bike_id":"be2c53e4-b193-41bb-a8fc-0a19985541f8","system_id":"levelo_inurba_marseille","lat":43.28423,"lon":5.3499,"is_reserved":false,"is_disabled":false,"rental_uris":{"android":"levelo://app?vid=be2c53e4-b193-41bb-a8fc-0a19985541f8","ios":"levelo://app?vid=be2c53e4-b193-41bb-a8fc-0a19985541f8"},"vehicle_type_id":"4","last_reported":1690733222,"current_range_meters":21600,"station_id":"ce4bhbh2rcd13ifvqepg","pricing_plan_id":"free"},{"bike_id":"d4341498-4e23-44c9-9189-fc35f1a9e3c6","system_id":"levelo_inurba_marseille","lat":43.28422,"lon":5.3499,"is_reserved":false,"is_disabled":false,"rental_uris":{"android":"levelo://app?vid=d4341498-4e23-44c9-9189-fc35f1a9e3c6","ios":"levelo://app?vid=d4341498-4e23-44c9-9189-fc35f1a9e3c6"},"vehicle_type_id":"4","last_reported":1690733222,"current_range_meters":25200,"station_id":"ce4bhbh2rcd13ifvqepg","pricing_plan_id":"free"},{"bike_id":"e88ca40e-e466-4651-bb8e-809cdfcd7d60","system_id":"levelo_inurba_marseille","lat":43.28422,"lon":5.34984,"is_reserved":false,"is_disabled":false,"rental_uris":{"android":"levelo://app?vid=e88ca40e-e466-4651-bb8e-809cdfcd7d60","ios":"levelo://app?vid=e88ca40e-e466-4651-bb8e-809cdfcd7d60"},"vehicle_type_id":"4","last_reported":1690733222,"current_range_meters":31200,"station_id":"ce4bhbh2rcd13ifvqepg","pricing_plan_id":"free"},{"bike_id":"e7580945-26bb-46e1-8b7d-0cff46f02a67","system_id":"levelo_inurba_marseille","lat":43.28421,"lon":5.34985,"is_reserved":false,"is_disabled":false,"rental_uris":{"android":"levelo://app?vid=e7580945-26bb-46e1-8b7d-0cff46f02a67","ios":"levelo://app?vid=e7580945-26bb-46e1-8b7d-0cff46f02a67"},"vehicle_type_id":"4","last_reported":1690733222,"current_range_meters":31200,"station_id":"ce4bhbh2rcd13ifvqepg","pricing_plan_id":"free"},{"bike_id":"12f4f3c6-6183-4a66-b87d-0212667557d9","system_id":"levelo_inurba_marseille","lat":43.28419,"lon":5.34985,"is_reserved":false,"is_disabled":false,"rental_uris":{"android":"levelo://app?vid=12f4f3c6-6183-4a66-b87d-0212667557d9","ios":"levelo://app?vid=12f4f3c6-6183-4a66-b87d-0212667557d9"},"vehicle_type_id":"4","last_reported":1690733222,"current_range_meters":24000,"station_id":"ce4bhbh2rcd13ifvqepg","pricing_plan_id":"free"},{"bike_id":"7f7abcd0-6da2-48b6-9cff-e02556c986cb","system_id":"levelo_inurba_marseille","lat":43.28418,"lon":5.34985,"is_reserved":false,"is_disabled":false,"rental_uris":{"android":"levelo://app?vid=7f7abcd0-6da2-48b6-9cff-e02556c986cb","ios":"levelo://app?vid=7f7abcd0-6da2-48b6-9cff-e02556c986cb"},"vehicle_type_id":"4","last_reported":1690733222,"current_range_meters":20000,"station_id":"ce4bhbh2rcd13ifvqepg","pricing_plan_id":"free"},{"bike_id":"389e87b5-d8d4-425d-bf6e-b1f805d5eee4","system_id":"levelo_inurba_marseille","lat":43.28418,"lon":5.34983,"is_reserved":false,"is_disabled":false,"rental_uris":{"android":"levelo://app?vid=389e87b5-d8d4-425d-bf6e-b1f805d5eee4","ios":"levelo://app?vid=389e87b5-d8d4-425d-bf6e-b1f805d5eee4"},"vehicle_type_id":"4","last_reported":1690733222,"current_range_meters":22800,"station_id":"ce4bhbh2rcd13ifvqepg","pricing_plan_id":"free"},{"bike_id":"2246e638-4885-422e-8776-ad27fb10d9ff","system_id":"levelo_inurba_marseille","lat":43.28418,"lon":5.34983,"is_reserved":false,"is_disabled":false,"rental_uris":{"android":"levelo://app?vid=2246e638-4885-422e-8776-ad27fb10d9ff","ios":"levelo://app?vid=2246e638-4885-422e-8776-ad27fb10d9ff"},"vehicle_type_id":"4","last_reported":1690733222,"current_range_meters":18400,"station_id":"ce4bhbh2rcd13ifvqepg","pricing_plan_id":"free"},{"bike_id":"2ee79664-ba1b-4d86-9bd6-a4d1f8036fbd","system_id":"levelo_inurba_marseille","lat":43.28415,"lon":5.3499,"is_reserved":false,"is_disabled":false,"rental_uris":{"android":"levelo://app?vid=2ee79664-ba1b-4d86-9bd6-a4d1f8036fbd","ios":"levelo://app?vid=2ee79664-ba1b-4d86-9bd6-a4d1f8036fbd"},"vehicle_type_id":"4","last_reported":1690733222,"current_range_meters":31600,"station_id":"ce4bhbh2rcd13ifvqepg","pricing_plan_id":"free"},{"bike_id":"2d73a4c8-3f42-447e-a7f4-9507e942b8dc","system_id":"levelo_inurba_marseille","lat":43.28416,"lon":5.34986,"is_reserved":false,"is_disabled":false,"rental_uris":{"android":"levelo://app?vid=2d73a4c8-3f42-447e-a7f4-9507e942b8dc","ios":"levelo://app?vid=2d73a4c8-3f42-447e-a7f4-9507e942b8dc"},"vehicle_type_id":"4","last_reported":1690733222,"current_range_meters":14000,"station_id":"ce4bhbh2rcd13ifvqepg","pricing_plan_id":"free"},{"bike_id":"1bc8b30f-f70d-4945-9bac-3f309d0fc18b","system_id":"levelo_inurba_marseille","lat":43.28418,"lon":5.34979,"is_reserved":false,"is_disabled":false,"rental_uris":{"android":"levelo://app?vid=1bc8b30f-f70d-4945-9bac-3f309d0fc18b","ios":"levelo://app?vid=1bc8b30f-f70d-4945-9bac-3f309d0fc18b"},"vehicle_type_id":"4","last_reported":1690733222,"current_range_meters":22800,"station_id":"ce4bhbh2rcd13ifvqepg","pricing_plan_id":"free"},{"bike_id":"7644bdb0-494f-4c71-9bd7-af1d173c62e9","system_id":"levelo_inurba_marseille","lat":43.28416,"lon":5.34985,"is_reserved":false,"is_disabled":false,"rental_uris":{"android":"levelo://app?vid=7644bdb0-494f-4c71-9bd7-af1d173c62e9","ios":"levelo://app?vid=7644bdb0-494f-4c71-9bd7-af1d173c62e9"},"vehicle_type_id":"4","last_reported":1690733222,"current_range_meters":19600,"station_id":"ce4bhbh2rcd13ifvqepg","pricing_plan_id":"free"},{"bike_id":"161caab7-0b16-4dae-826a-a1276616d6c9","system_id":"levelo_inurba_marseille","lat":43.2842,"lon":5.34972,"is_reserved":false,"is_disabled":false,"rental_uris":{"android":"levelo://app?vid=161caab7-0b16-4dae-826a-a1276616d6c9","ios":"levelo://app?vid=161caab7-0b16-4dae-826a-a1276616d6c9"},"vehicle_type_id":"4","last_reported":1690733222,"current_range_meters":23200,"station_id":"ce4bhbh2rcd13ifvqepg","pricing_plan_id":"free"},{"bike_id":"587acf24-22c5-4b82-b8c6-d904dd2b7812","system_id":"levelo_inurba_marseille","lat":43.292642,"lon":5.384254,"is_reserved":false,"is_disabled":false,"rental_uris":{"android":"levelo://app?vid=587acf24-22c5-4b82-b8c6-d904dd2b7812","ios":"levelo://app?vid=587acf24-22c5-4b82-b8c6-d904dd2b7812"},"vehicle_type_id":"4","last_reported":1690733222,"current_range_meters":15200,"station_id":"ce4bh692rcd13ifvqea0","pricing_plan_id":"free"},{"bike_id":"2c0f3cdd-d8d6-4919-844a-2be066961245","system_id":"levelo_inurba_marseille","lat":43.28417,"lon":5.34979,"is_reserved":false,"is_disabled":false,"rental_uris":{"android":"levelo://app?vid=2c0f3cdd-d8d6-4919-844a-2be066961245","ios":"levelo://app?vid=2c0f3cdd-d8d6-4919-844a-2be066961245"},"vehicle_type_id":"4","last_reported":1690733222,"current_range_meters":23200,"station_id":"ce4bhbh2rcd13ifvqepg","pricing_plan_id":"free"},{"bike_id":"bb7b44ff-4b6d-49de-9e33-da7046e8c7d4","system_id":"levelo_inurba_marseille","lat":43.28417,"lon":5.34979,"is_reserved":false,"is_disabled":false,"rental_uris":{"android":"levelo://app?vid=bb7b44ff-4b6d-49de-9e33-da7046e8c7d4","ios":"levelo://app?vid=bb7b44ff-4b6d-49de-9e33-da7046e8c7d4"},"vehicle_type_id":"4","last_reported":1690733222,"current_range_meters":31200,"station_id":"ce4bhbh2rcd13ifvqepg","pricing_plan_id":"free"},{"bike_id":"84b48735-950f-435c-8ed5-228fa98ae30c","system_id":"levelo_inurba_marseille","lat":43.28417,"lon":5.34979,"is_reserved":false,"is_disabled":false,"rental_uris":{"android":"levelo://app?vid=84b48735-950f-435c-8ed5-228fa98ae30c","ios":"levelo://app?vid=84b48735-950f-435c-8ed5-228fa98ae30c"},"vehicle_type_id":"4","last_reported":1690733222,"current_range_meters":29200,"station_id":"ce4bhbh2rcd13ifvqepg","pricing_plan_id":"free"},{"bike_id":"727920a0-fe1e-48ee-bbd2-739ab9ace9c1","system_id":"levelo_inurba_marseille","lat":43.28415,"lon":5.34984,"is_reserved":false,"is_disabled":false,"rental_uris":{"android":"levelo://app?vid=727920a0-fe1e-48ee-bbd2-739ab9ace9c1","ios":"levelo://app?vid=727920a0-fe1e-48ee-bbd2-739ab9ace9c1"},"vehicle_type_id":"4","last_reported":1690733222,"current_range_meters":31200,"station_id":"ce4bhbh2rcd13ifvqepg","pricing_plan_id":"free"},{"bike_id":"3c2160d9-68e7-4dc6-bfee-99b8e92c92b3","system_id":"levelo_inurba_marseille","lat":43.28412,"lon":5.34989,"is_reserved":false,"is_disabled":false,"rental_uris":{"android":"levelo://app?vid=3c2160d9-68e7-4dc6-bfee-99b8e92c92b3","ios":"levelo://app?vid=3c2160d9-68e7-4dc6-bfee-99b8e92c92b3"},"vehicle_type_id":"4","last_reported":1690733222,"current_range_meters":9200,"station_id":"ce4bhbh2rcd13ifvqepg","pricing_plan_id":"free"},{"bike_id":"868829cd-fb59-41b2-878c-e62909b34248","system_id":"levelo_inurba_marseille","lat":43.28414,"lon":5.34982,"is_reserved":false,"is_disabled":false,"rental_uris":{"android":"levelo://app?vid=868829cd-fb59-41b2-878c-e62909b34248","ios":"levelo://app?vid=868829cd-fb59-41b2-878c-e62909b34248"},"vehicle_type_id":"4","last_reported":1690733222,"current_range_meters":31200,"station_id":"ce4bhbh2rcd13ifvqepg","pricing_plan_id":"free"},{"bike_id":"84273c73-45a6-4ae2-9009-0467f57b9bcf","system_id":"levelo_inurba_marseille","lat":43.284219,"lon":5.3497,"is_reserved":false,"is_disabled":false,"rental_uris":{"android":"levelo://app?vid=84273c73-45a6-4ae2-9009-0467f57b9bcf","ios":"levelo://app?vid=84273c73-45a6-4ae2-9009-0467f57b9bcf"},"vehicle_type_id":"4","last_reported":1690733222,"current_range_meters":27600,"station_id":"ce4bhbh2rcd13ifvqepg","pricing_plan_id":"free"},{"bike_id":"30d0ff74-2859-498f-b874-56d4054e256d","system_id":"levelo_inurba_marseille","lat":43.28413,"lon":5.34974,"is_reserved":false,"is_disabled":false,"rental_uris":{"android":"levelo://app?vid=30d0ff74-2859-498f-b874-56d4054e256d","ios":"levelo://app?vid=30d0ff74-2859-498f-b874-56d4054e256d"},"vehicle_type_id":"4","last_reported":1690733222,"current_range_meters":20800,"station_id":"ce4bhbh2rcd13ifvqepg","pricing_plan_id":"free"},{"bike_id":"2aff9119-8c83-467c-b99c-d68522a226b3","system_id":"levelo_inurba_marseille","lat":43.284099,"lon":5.349745,"is_reserved":false,"is_disabled":false,"rental_uris":{"android":"levelo://app?vid=2aff9119-8c83-467c-b99c-d68522a226b3","ios":"levelo://app?vid=2aff9119-8c83-467c-b99c-d68522a226b3"},"vehicle_type_id":"4","last_reported":1690733222,"current_range_meters":30000,"station_id":"ce4bhbh2rcd13ifvqepg","pricing_plan_id":"free"},{"bike_id":"f766232b-38ba-4942-8fec-310cf235314a","system_id":"levelo_inurba_marseille","lat":43.28409,"lon":5.34975,"is_reserved":false,"is_disabled":false,"rental_uris":{"android":"levelo://app?vid=f766232b-38ba-4942-8fec-310cf235314a","ios":"levelo://app?vid=f766232b-38ba-4942-8fec-310cf235314a"},"vehicle_type_id":"4","last_reported":1690733222,"current_range_meters":19600,"station_id":"ce4bhbh2rcd13ifvqepg","pricing_plan_id":"free"},{"bike_id":"64dec623-dd56-462f-8083-6a2865978c98","system_id":"levelo_inurba_marseille","lat":43.28282,"lon":5.35071,"is_reserved":false,"is_disabled":false,"rental_uris":{"android":"levelo://app?vid=64dec623-dd56-462f-8083-6a2865978c98","ios":"levelo://app?vid=64dec623-dd56-462f-8083-6a2865978c98"},"vehicle_type_id":"4","last_reported":1690733222,"current_range_meters":19200,"station_id":"ce4bhbp2rcd13ifvqerg","pricing_plan_id":"free"},{"bike_id":"36349f22-e528-46c8-b87f-2a0bf47da1dd","system_id":"levelo_inurba_marseille","lat":43.282744,"lon":5.350533,"is_reserved":false,"is_disabled":false,"rental_uris":{"android":"levelo://app?vid=36349f22-e528-46c8-b87f-2a0bf47da1dd","ios":"levelo://app?vid=36349f22-e528-46c8-b87f-2a0bf47da1dd"},"vehicle_type_id":"4","last_reported":1690733222,"current_range_meters":22400,"station_id":"ce4bhbp2rcd13ifvqerg","pricing_plan_id":"free"},{"bike_id":"fff1dd3e-5ba7-4806-ad1a-ed1fdc95b8f3","system_id":"levelo_inurba_marseille","lat":43.28276,"lon":5.35071,"is_reserved":false,"is_disabled":false,"rental_uris":{"android":"levelo://app?vid=fff1dd3e-5ba7-4806-ad1a-ed1fdc95b8f3","ios":"levelo://app?vid=fff1dd3e-5ba7-4806-ad1a-ed1fdc95b8f3"},"vehicle_type_id":"4","last_reported":1690733222,"current_range_meters":31600,"station_id":"ce4bhbp2rcd13ifvqerg","pricing_plan_id":"free"},{"bike_id":"02a2be77-a52d-4b2f-8b2e-4d44bf349036","system_id":"levelo_inurba_marseille","lat":43.282765,"lon":5.350642,"is_reserved":false,"is_disabled":false,"rental_uris":{"android":"levelo://app?vid=02a2be77-a52d-4b2f-8b2e-4d44bf349036","ios":"levelo://app?vid=02a2be77-a52d-4b2f-8b2e-4d44bf349036"},"vehicle_type_id":"4","last_reported":1690733222,"current_range_meters":0,"station_id":"ce4bhbp2rcd13ifvqerg","pricing_plan_id":"free"},{"bike_id":"a8bdbcff-15f8-4262-bcc4-a14dc38abd54","system_id":"levelo_inurba_marseille","lat":43.28278,"lon":5.35056,"is_reserved":false,"is_disabled":false,"rental_uris":{"android":"levelo://app?vid=a8bdbcff-15f8-4262-bcc4-a14dc38abd54","ios":"levelo://app?vid=a8bdbcff-15f8-4262-bcc4-a14dc38abd54"},"vehicle_type_id":"4","last_reported":1690733222,"current_range_meters":12800,"station_id":"ce4bhbp2rcd13ifvqerg","pricing_plan_id":"free"},{"bike_id":"7bcb7f2a-6dd3-4196-a5ec-06dd90fbf60e","system_id":"levelo_inurba_marseille","lat":43.28275,"lon":5.35064,"is_reserved":false,"is_disabled":false,"rental_uris":{"android":"levelo://app?vid=7bcb7f2a-6dd3-4196-a5ec-06dd90fbf60e","ios":"levelo://app?vid=7bcb7f2a-6dd3-4196-a5ec-06dd90fbf60e"},"vehicle_type_id":"4","last_reported":1690733222,"current_range_meters":16000,"station_id":"ce4bhbp2rcd13ifvqerg","pricing_plan_id":"free"},{"bike_id":"025385e0-a975-4064-a1d9-1fe2c8e54510","system_id":"levelo_inurba_marseille","lat":43.28276,"lon":5.3506,"is_reserved":false,"is_disabled":false,"rental_uris":{"android":"levelo://app?vid=025385e0-a975-4064-a1d9-1fe2c8e54510","ios":"levelo://app?vid=025385e0-a975-4064-a1d9-1fe2c8e54510"},"vehicle_type_id":"4","last_reported":1690733222,"current_range_meters":23600,"station_id":"ce4bhbp2rcd13ifvqerg","pricing_plan_id":"free"},{"bike_id":"07c95196-ed05-4340-a2c2-69761366c71f","system_id":"levelo_inurba_marseille","lat":43.282739,"lon":5.350622,"is_reserved":false,"is_disabled":false,"rental_uris":{"android":"levelo://app?vid=07c95196-ed05-4340-a2c2-69761366c71f","ios":"levelo://app?vid=07c95196-ed05-4340-a2c2-69761366c71f"},"vehicle_type_id":"4","last_reported":1690733222,"current_range_meters":21600,"station_id":"ce4bhbp2rcd13ifvqerg","pricing_plan_id":"free"},{"bike_id":"15939baa-485a-4a3d-87e5-e1953a140996","system_id":"levelo_inurba_marseille","lat":43.2827,"lon":5.35071,"is_reserved":false,"is_disabled":false,"rental_uris":{"android":"levelo://app?vid=15939baa-485a-4a3d-87e5-e1953a140996","ios":"levelo://app?vid=15939baa-485a-4a3d-87e5-e1953a140996"},"vehicle_type_id":"4","last_reported":1690733222,"current_range_meters":31200,"station_id":"ce4bhbp2rcd13ifvqerg","pricing_plan_id":"free"},{"bike_id":"eb059d82-dcc2-45bb-9032-267bc79d211c","system_id":"levelo_inurba_marseille","lat":43.28268,"lon":5.35064,"is_reserved":false,"is_disabled":false,"rental_uris":{"android":"levelo://app?vid=eb059d82-dcc2-45bb-9032-267bc79d211c","ios":"levelo://app?vid=eb059d82-dcc2-45bb-9032-267bc79d211c"},"vehicle_type_id":"4","last_reported":1690733222,"current_range_meters":22400,"station_id":"ce4bhbp2rcd13ifvqerg","pricing_plan_id":"free"},{"bike_id":"310116e4-c066-4845-b90e-d028b7280339","system_id":"levelo_inurba_marseille","lat":43.282744,"lon":5.350533,"is_reserved":false,"is_disabled":false,"rental_uris":{"android":"levelo://app?vid=310116e4-c066-4845-b90e-d028b7280339","ios":"levelo://app?vid=310116e4-c066-4845-b90e-d028b7280339"},"vehicle_type_id":"4","last_reported":1690733222,"current_range_meters":31200,"station_id":"ce4bhbp2rcd13ifvqerg","pricing_plan_id":"free"},{"bike_id":"a8c24d88-705a-4bf2-a8b4-3b0d309f6402","system_id":"levelo_inurba_marseille","lat":43.32497,"lon":5.40818,"is_reserved":false,"is_disabled":false,"rental_uris":{"android":"levelo://app?vid=a8c24d88-705a-4bf2-a8b4-3b0d309f6402","ios":"levelo://app?vid=a8c24d88-705a-4bf2-a8b4-3b0d309f6402"},"vehicle_type_id":"4","last_reported":1690733222,"current_range_meters":8000,"station_id":"","pricing_plan_id":"free"},{"bike_id":"e8f441a1-5f23-4c94-a3df-18f5ede921e4","system_id":"levelo_inurba_marseille","lat":43.28039,"lon":5.369297,"is_reserved":false,"is_disabled":false,"rental_uris":{"android":"levelo://app?vid=e8f441a1-5f23-4c94-a3df-18f5ede921e4","ios":"levelo://app?vid=e8f441a1-5f23-4c94-a3df-18f5ede921e4"},"vehicle_type_id":"4","last_reported":1690733222,"current_range_meters":15200,"station_id":"ce4bha12rcd13ifvqef0","pricing_plan_id":"free"},{"bike_id":"d5db3a57-c12d-4877-a042-fef565c48897","system_id":"levelo_inurba_marseille","lat":43.29041,"lon":5.399634,"is_reserved":false,"is_disabled":false,"rental_uris":{"android":"levelo://app?vid=d5db3a57-c12d-4877-a042-fef565c48897","ios":"levelo://app?vid=d5db3a57-c12d-4877-a042-fef565c48897"},"vehicle_type_id":"4","last_reported":1690733222,"current_range_meters":4400,"station_id":"ce4bh392rcd13ifvqdm0","pricing_plan_id":"free"},{"bike_id":"66a4cda2-70a3-4da7-abff-72d5c4e364c1","system_id":"levelo_inurba_marseille","lat":43.281044,"lon":5.378308,"is_reserved":false,"is_disabled":false,"rental_uris":{"android":"levelo://app?vid=66a4cda2-70a3-4da7-abff-72d5c4e364c1","ios":"levelo://app?vid=66a4cda2-70a3-4da7-abff-72d5c4e364c1"},"vehicle_type_id":"4","last_reported":1690733222,"current_range_meters":400,"station_id":"ce4bha12rcd13ifvqee0","pricing_plan_id":"free"},{"bike_id":"3fe9aba7-42f3-40bd-8494-48f15f54ae12","system_id":"levelo_inurba_marseille","lat":43.29041,"lon":5.399634,"is_reserved":false,"is_disabled":false,"rental_uris":{"android":"levelo://app?vid=3fe9aba7-42f3-40bd-8494-48f15f54ae12","ios":"levelo://app?vid=3fe9aba7-42f3-40bd-8494-48f15f54ae12"},"vehicle_type_id":"4","last_reported":1690733222,"current_range_meters":2800,"station_id":"ce4bh392rcd13ifvqdm0","pricing_plan_id":"free"},{"bike_id":"162d854e-68f7-49d9-a56d-6c50e96304e5","system_id":"levelo_inurba_marseille","lat":43.281044,"lon":5.378308,"is_reserved":false,"is_disabled":false,"rental_uris":{"android":"levelo://app?vid=162d854e-68f7-49d9-a56d-6c50e96304e5","ios":"levelo://app?vid=162d854e-68f7-49d9-a56d-6c50e96304e5"},"vehicle_type_id":"4","last_reported":1690733222,"current_range_meters":12800,"station_id":"ce4bha12rcd13ifvqee0","pricing_plan_id":"free"},{"bike_id":"5fc62844-38f1-43ca-9b6d-b74675103304","system_id":"levelo_inurba_marseille","lat":43.32529,"lon":5.41,"is_reserved":false,"is_disabled":false,"rental_uris":{"android":"levelo://app?vid=5fc62844-38f1-43ca-9b6d-b74675103304","ios":"levelo://app?vid=5fc62844-38f1-43ca-9b6d-b74675103304"},"vehicle_type_id":"4","last_reported":1690733222,"current_range_meters":4800,"station_id":"","pricing_plan_id":"free"},{"bike_id":"67cd9990-b590-470e-a55b-dd8053123964","system_id":"levelo_inurba_marseille","lat":43.285742,"lon":5.395004,"is_reserved":false,"is_disabled":false,"rental_uris":{"android":"levelo://app?vid=67cd9990-b590-470e-a55b-dd8053123964","ios":"levelo://app?vid=67cd9990-b590-470e-a55b-dd8053123964"},"vehicle_type_id":"4","last_reported":1690733222,"current_range_meters":30400,"station_id":"ce4bh292rcd13ifvqdg0","pricing_plan_id":"free"},{"bike_id":"8d82395a-84d4-4621-a7c5-fdf9ca5b345c","system_id":"levelo_inurba_marseille","lat":43.304188,"lon":5.412904,"is_reserved":false,"is_disabled":false,"rental_uris":{"android":"levelo://app?vid=8d82395a-84d4-4621-a7c5-fdf9ca5b345c","ios":"levelo://app?vid=8d82395a-84d4-4621-a7c5-fdf9ca5b345c"},"vehicle_type_id":"4","last_reported":1690733222,"current_range_meters":31600,"station_id":"ce4bhop2rcd13ifvqh8g","pricing_plan_id":"free"},{"bike_id":"e92800b8-623b-4f13-a7c4-05f2cde5ce64","system_id":"levelo_inurba_marseille","lat":43.304188,"lon":5.412904,"is_reserved":false,"is_disabled":false,"rental_uris":{"android":"levelo://app?vid=e92800b8-623b-4f13-a7c4-05f2cde5ce64","ios":"levelo://app?vid=e92800b8-623b-4f13-a7c4-05f2cde5ce64"},"vehicle_type_id":"4","last_reported":1690733222,"current_range_meters":19200,"station_id":"ce4bhop2rcd13ifvqh8g","pricing_plan_id":"free"},{"bike_id":"e4847f13-c685-4013-bdf9-42efd6e48c0a","system_id":"levelo_inurba_marseille","lat":43.304188,"lon":5.412904,"is_reserved":false,"is_disabled":false,"rental_uris":{"android":"levelo://app?vid=e4847f13-c685-4013-bdf9-42efd6e48c0a","ios":"levelo://app?vid=e4847f13-c685-4013-bdf9-42efd6e48c0a"},"vehicle_type_id":"4","last_reported":1690733222,"current_range_meters":24400,"station_id":"ce4bhop2rcd13ifvqh8g","pricing_plan_id":"free"},{"bike_id":"4ee69007-33b1-435a-8958-ca88268097c1","system_id":"levelo_inurba_marseille","lat":43.304188,"lon":5.412904,"is_reserved":false,"is_disabled":false,"rental_uris":{"android":"levelo://app?vid=4ee69007-33b1-435a-8958-ca88268097c1","ios":"levelo://app?vid=4ee69007-33b1-435a-8958-ca88268097c1"},"vehicle_type_id":"4","last_reported":1690733222,"current_range_meters":10400,"station_id":"ce4bhop2rcd13ifvqh8g","pricing_plan_id":"free"},{"bike_id":"20da83d1-2254-4617-81d1-964ed61ccff4","system_id":"levelo_inurba_marseille","lat":43.30412,"lon":5.41284,"is_reserved":false,"is_disabled":false,"rental_uris":{"android":"levelo://app?vid=20da83d1-2254-4617-81d1-964ed61ccff4","ios":"levelo://app?vid=20da83d1-2254-4617-81d1-964ed61ccff4"},"vehicle_type_id":"4","last_reported":1690733222,"current_range_meters":22400,"station_id":"ce4bhop2rcd13ifvqh8g","pricing_plan_id":"free"},{"bike_id":"51b64500-38d2-44f7-9c34-e23bab07d631","system_id":"levelo_inurba_marseille","lat":43.30414,"lon":5.41287,"is_reserved":false,"is_disabled":false,"rental_uris":{"android":"levelo://app?vid=51b64500-38d2-44f7-9c34-e23bab07d631","ios":"levelo://app?vid=51b64500-38d2-44f7-9c34-e23bab07d631"},"vehicle_type_id":"4","last_reported":1690733222,"current_range_meters":25200,"station_id":"ce4bhop2rcd13ifvqh8g","pricing_plan_id":"free"},{"bike_id":"fc254724-65d6-48f4-866a-7787ad717a7a","system_id":"levelo_inurba_marseille","lat":43.304188,"lon":5.412904,"is_reserved":false,"is_disabled":false,"rental_uris":{"android":"levelo://app?vid=fc254724-65d6-48f4-866a-7787ad717a7a","ios":"levelo://app?vid=fc254724-65d6-48f4-866a-7787ad717a7a"},"vehicle_type_id":"4","last_reported":1690733222,"current_range_meters":0,"station_id":"ce4bhop2rcd13ifvqh8g","pricing_plan_id":"free"},{"bike_id":"c891facb-d1c6-41cc-ae92-6999f18259a7","system_id":"levelo_inurba_marseille","lat":43.304188,"lon":5.412904,"is_reserved":false,"is_disabled":false,"rental_uris":{"android":"levelo://app?vid=c891facb-d1c6-41cc-ae92-6999f18259a7","ios":"levelo://app?vid=c891facb-d1c6-41cc-ae92-6999f18259a7"},"vehicle_type_id":"4","last_reported":1690733222,"current_range_meters":12400,"station_id":"ce4bhop2rcd13ifvqh8g","pricing_plan_id":"free"},{"bike_id":"8f775cc2-222d-42fc-826f-4e1a1c2a8857","system_id":"levelo_inurba_marseille","lat":43.304188,"lon":5.412904,"is_reserved":false,"is_disabled":false,"rental_uris":{"android":"levelo://app?vid=8f775cc2-222d-42fc-826f-4e1a1c2a8857","ios":"levelo://app?vid=8f775cc2-222d-42fc-826f-4e1a1c2a8857"},"vehicle_type_id":"4","last_reported":1690733222,"current_range_meters":26000,"station_id":"ce4bhop2rcd13ifvqh8g","pricing_plan_id":"free"},{"bike_id":"da74851f-183f-4ed8-bc32-44e1d656b516","system_id":"levelo_inurba_marseille","lat":43.32095,"lon":5.41512,"is_reserved":false,"is_disabled":false,"rental_uris":{"android":"levelo://app?vid=da74851f-183f-4ed8-bc32-44e1d656b516","ios":"levelo://app?vid=da74851f-183f-4ed8-bc32-44e1d656b516"},"vehicle_type_id":"4","last_reported":1690733222,"current_range_meters":18400,"station_id":"","pricing_plan_id":"free"},{"bike_id":"e9fbe7f4-c376-4a74-9a01-c2dfa71d30c2","system_id":"levelo_inurba_marseille","lat":43.3209,"lon":5.41514,"is_reserved":false,"is_disabled":false,"rental_uris":{"android":"levelo://app?vid=e9fbe7f4-c376-4a74-9a01-c2dfa71d30c2","ios":"levelo://app?vid=e9fbe7f4-c376-4a74-9a01-c2dfa71d30c2"},"vehicle_type_id":"4","last_reported":1690733222,"current_range_meters":14800,"station_id":"","pricing_plan_id":"free"},{"bike_id":"94f9bd9a-8376-4f9a-9803-375b36e777e7","system_id":"levelo_inurba_marseille","lat":43.299579,"lon":5.413255,"is_reserved":false,"is_disabled":false,"rental_uris":{"android":"levelo://app?vid=94f9bd9a-8376-4f9a-9803-375b36e777e7","ios":"levelo://app?vid=94f9bd9a-8376-4f9a-9803-375b36e777e7"},"vehicle_type_id":"4","last_reported":1690733222,"current_range_meters":31600,"station_id":"ce4bhp12rcd13ifvqh9g","pricing_plan_id":"free"},{"bike_id":"cdcd753a-4a9a-455e-a5ca-a773fea8741e","system_id":"levelo_inurba_marseille","lat":43.299577,"lon":5.413277,"is_reserved":false,"is_disabled":false,"rental_uris":{"android":"levelo://app?vid=cdcd753a-4a9a-455e-a5ca-a773fea8741e","ios":"levelo://app?vid=cdcd753a-4a9a-455e-a5ca-a773fea8741e"},"vehicle_type_id":"4","last_reported":1690733222,"current_range_meters":31600,"station_id":"ce4bhp12rcd13ifvqh9g","pricing_plan_id":"free"},{"bike_id":"39bfc890-c530-4457-ac62-976f6049a2e0","system_id":"levelo_inurba_marseille","lat":43.299579,"lon":5.413255,"is_reserved":false,"is_disabled":false,"rental_uris":{"android":"levelo://app?vid=39bfc890-c530-4457-ac62-976f6049a2e0","ios":"levelo://app?vid=39bfc890-c530-4457-ac62-976f6049a2e0"},"vehicle_type_id":"4","last_reported":1690733222,"current_range_meters":28000,"station_id":"ce4bhp12rcd13ifvqh9g","pricing_plan_id":"free"},{"bike_id":"5c3747dc-84c8-4dbd-a8e4-3d5d5d848bfb","system_id":"levelo_inurba_marseille","lat":43.299577,"lon":5.413277,"is_reserved":false,"is_disabled":false,"rental_uris":{"android":"levelo://app?vid=5c3747dc-84c8-4dbd-a8e4-3d5d5d848bfb","ios":"levelo://app?vid=5c3747dc-84c8-4dbd-a8e4-3d5d5d848bfb"},"vehicle_type_id":"4","last_reported":1690733222,"current_range_meters":30800,"station_id":"ce4bhp12rcd13ifvqh9g","pricing_plan_id":"free"},{"bike_id":"c327718a-8fe6-4791-a349-aba0f8f94e82","system_id":"levelo_inurba_marseille","lat":43.279742,"lon":5.38744,"is_reserved":false,"is_disabled":false,"rental_uris":{"android":"levelo://app?vid=c327718a-8fe6-4791-a349-aba0f8f94e82","ios":"levelo://app?vid=c327718a-8fe6-4791-a349-aba0f8f94e82"},"vehicle_type_id":"4","last_reported":1690733222,"current_range_meters":27600,"station_id":"ce4bhg12rcd13ifvqf80","pricing_plan_id":"free"},{"bike_id":"d5d9571c-8834-4533-9044-170057dfd01a","system_id":"levelo_inurba_marseille","lat":43.27618,"lon":5.361009,"is_reserved":false,"is_disabled":false,"rental_uris":{"android":"levelo://app?vid=d5d9571c-8834-4533-9044-170057dfd01a","ios":"levelo://app?vid=d5d9571c-8834-4533-9044-170057dfd01a"},"vehicle_type_id":"4","last_reported":1690733222,"current_range_meters":10000,"station_id":"ce4bgj92rcd13ifvqbe0","pricing_plan_id":"free"},{"bike_id":"e991e305-3ae3-48c6-9d4a-7a2c0663b105","system_id":"levelo_inurba_marseille","lat":43.273613,"lon":5.362705,"is_reserved":false,"is_disabled":false,"rental_uris":{"android":"levelo://app?vid=e991e305-3ae3-48c6-9d4a-7a2c0663b105","ios":"levelo://app?vid=e991e305-3ae3-48c6-9d4a-7a2c0663b105"},"vehicle_type_id":"4","last_reported":1690733222,"current_range_meters":31600,"station_id":"ce4bhbh2rcd13ifvqeo0","pricing_plan_id":"free"},{"bike_id":"841cf9f5-58f9-4b55-a5ba-d74437c178fe","system_id":"levelo_inurba_marseille","lat":43.273613,"lon":5.362705,"is_reserved":false,"is_disabled":false,"rental_uris":{"android":"levelo://app?vid=841cf9f5-58f9-4b55-a5ba-d74437c178fe","ios":"levelo://app?vid=841cf9f5-58f9-4b55-a5ba-d74437c178fe"},"vehicle_type_id":"4","last_reported":1690733222,"current_range_meters":31600,"station_id":"ce4bhbh2rcd13ifvqeo0","pricing_plan_id":"free"},{"bike_id":"2a8e0cbd-9b8f-46cd-90aa-62c961bf22d0","system_id":"levelo_inurba_marseille","lat":43.273609,"lon":5.362708,"is_reserved":false,"is_disabled":false,"rental_uris":{"android":"levelo://app?vid=2a8e0cbd-9b8f-46cd-90aa-62c961bf22d0","ios":"levelo://app?vid=2a8e0cbd-9b8f-46cd-90aa-62c961bf22d0"},"vehicle_type_id":"4","last_reported":1690733222,"current_range_meters":31200,"station_id":"ce4bhbh2rcd13ifvqeo0","pricing_plan_id":"free"},{"bike_id":"e82d354b-06bc-45c7-aa26-e409dc959b3b","system_id":"levelo_inurba_marseille","lat":43.273613,"lon":5.362705,"is_reserved":false,"is_disabled":false,"rental_uris":{"android":"levelo://app?vid=e82d354b-06bc-45c7-aa26-e409dc959b3b","ios":"levelo://app?vid=e82d354b-06bc-45c7-aa26-e409dc959b3b"},"vehicle_type_id":"4","last_reported":1690733222,"current_range_meters":20400,"station_id":"ce4bhbh2rcd13ifvqeo0","pricing_plan_id":"free"},{"bike_id":"a4e6ea18-c73f-4786-b45c-bc6010a3244f","system_id":"levelo_inurba_marseille","lat":43.273613,"lon":5.362705,"is_reserved":false,"is_disabled":false,"rental_uris":{"android":"levelo://app?vid=a4e6ea18-c73f-4786-b45c-bc6010a3244f","ios":"levelo://app?vid=a4e6ea18-c73f-4786-b45c-bc6010a3244f"},"vehicle_type_id":"4","last_reported":1690733222,"current_range_meters":21600,"station_id":"ce4bhbh2rcd13ifvqeo0","pricing_plan_id":"free"},{"bike_id":"94ec50da-9630-45e8-961f-94e66b32daa9","system_id":"levelo_inurba_marseille","lat":43.273613,"lon":5.362705,"is_reserved":false,"is_disabled":false,"rental_uris":{"android":"levelo://app?vid=94ec50da-9630-45e8-961f-94e66b32daa9","ios":"levelo://app?vid=94ec50da-9630-45e8-961f-94e66b32daa9"},"vehicle_type_id":"4","last_reported":1690733222,"current_range_meters":31600,"station_id":"ce4bhbh2rcd13ifvqeo0","pricing_plan_id":"free"},{"bike_id":"615fddd4-7b0c-4daf-a8c5-00d9774904cf","system_id":"levelo_inurba_marseille","lat":43.273613,"lon":5.362705,"is_reserved":false,"is_disabled":false,"rental_uris":{"android":"levelo://app?vid=615fddd4-7b0c-4daf-a8c5-00d9774904cf","ios":"levelo://app?vid=615fddd4-7b0c-4daf-a8c5-00d9774904cf"},"vehicle_type_id":"4","last_reported":1690733222,"current_range_meters":31600,"station_id":"ce4bhbh2rcd13ifvqeo0","pricing_plan_id":"free"},{"bike_id":"44652a6a-07ab-4305-9cf0-018dae117926","system_id":"levelo_inurba_marseille","lat":43.273613,"lon":5.362705,"is_reserved":false,"is_disabled":false,"rental_uris":{"android":"levelo://app?vid=44652a6a-07ab-4305-9cf0-018dae117926","ios":"levelo://app?vid=44652a6a-07ab-4305-9cf0-018dae117926"},"vehicle_type_id":"4","last_reported":1690733222,"current_range_meters":29200,"station_id":"ce4bhbh2rcd13ifvqeo0","pricing_plan_id":"free"},{"bike_id":"d1a254c3-1d83-43cb-b0c9-1a029fd56d0d","system_id":"levelo_inurba_marseille","lat":43.275625,"lon":5.384392,"is_reserved":false,"is_disabled":false,"rental_uris":{"android":"levelo://app?vid=d1a254c3-1d83-43cb-b0c9-1a029fd56d0d","ios":"levelo://app?vid=d1a254c3-1d83-43cb-b0c9-1a029fd56d0d"},"vehicle_type_id":"4","last_reported":1690733222,"current_range_meters":4800,"station_id":"ce4bhh92rcd13ifvqfi0","pricing_plan_id":"free"},{"bike_id":"bc11e8da-94ef-48b3-b8f8-7fe242a738ea","system_id":"levelo_inurba_marseille","lat":43.317121,"lon":5.423936,"is_reserved":false,"is_disabled":false,"rental_uris":{"android":"levelo://app?vid=bc11e8da-94ef-48b3-b8f8-7fe242a738ea","ios":"levelo://app?vid=bc11e8da-94ef-48b3-b8f8-7fe242a738ea"},"vehicle_type_id":"4","last_reported":1690733222,"current_range_meters":23200,"station_id":"ce4bhp92rcd13ifvqhbg","pricing_plan_id":"free"},{"bike_id":"eb098a7d-a877-46db-b003-7cf445c6a5bb","system_id":"levelo_inurba_marseille","lat":43.317121,"lon":5.423936,"is_reserved":false,"is_disabled":false,"rental_uris":{"android":"levelo://app?vid=eb098a7d-a877-46db-b003-7cf445c6a5bb","ios":"levelo://app?vid=eb098a7d-a877-46db-b003-7cf445c6a5bb"},"vehicle_type_id":"4","last_reported":1690733222,"current_range_meters":31600,"station_id":"ce4bhp92rcd13ifvqhbg","pricing_plan_id":"free"},{"bike_id":"d3e2a09c-f903-47b2-bf78-aa8a7ca501bb","system_id":"levelo_inurba_marseille","lat":43.317121,"lon":5.423936,"is_reserved":false,"is_disabled":false,"rental_uris":{"android":"levelo://app?vid=d3e2a09c-f903-47b2-bf78-aa8a7ca501bb","ios":"levelo://app?vid=d3e2a09c-f903-47b2-bf78-aa8a7ca501bb"},"vehicle_type_id":"4","last_reported":1690733222,"current_range_meters":31600,"station_id":"ce4bhp92rcd13ifvqhbg","pricing_plan_id":"free"},{"bike_id":"62418d0c-39c7-423b-9533-ef4d0b347d01","system_id":"levelo_inurba_marseille","lat":43.317121,"lon":5.423936,"is_reserved":false,"is_disabled":false,"rental_uris":{"android":"levelo://app?vid=62418d0c-39c7-423b-9533-ef4d0b347d01","ios":"levelo://app?vid=62418d0c-39c7-423b-9533-ef4d0b347d01"},"vehicle_type_id":"4","last_reported":1690733222,"current_range_meters":31600,"station_id":"ce4bhp92rcd13ifvqhbg","pricing_plan_id":"free"},{"bike_id":"1789e30a-07aa-4fe3-8fc8-7b52ceb586a2","system_id":"levelo_inurba_marseille","lat":43.317121,"lon":5.423936,"is_reserved":false,"is_disabled":false,"rental_uris":{"android":"levelo://app?vid=1789e30a-07aa-4fe3-8fc8-7b52ceb586a2","ios":"levelo://app?vid=1789e30a-07aa-4fe3-8fc8-7b52ceb586a2"},"vehicle_type_id":"4","last_reported":1690733222,"current_range_meters":16400,"station_id":"ce4bhp92rcd13ifvqhbg","pricing_plan_id":"free"},{"bike_id":"dd27cd58-e614-4dbe-a374-8e3d0be345cb","system_id":"levelo_inurba_marseille","lat":43.317121,"lon":5.423936,"is_reserved":false,"is_disabled":false,"rental_uris":{"android":"levelo://app?vid=dd27cd58-e614-4dbe-a374-8e3d0be345cb","ios":"levelo://app?vid=dd27cd58-e614-4dbe-a374-8e3d0be345cb"},"vehicle_type_id":"4","last_reported":1690733222,"current_range_meters":31600,"station_id":"ce4bhp92rcd13ifvqhbg","pricing_plan_id":"free"},{"bike_id":"5ce721e4-ed1a-4860-89e6-4a736700eb75","system_id":"levelo_inurba_marseille","lat":43.310785,"lon":5.424305,"is_reserved":false,"is_disabled":false,"rental_uris":{"android":"levelo://app?vid=5ce721e4-ed1a-4860-89e6-4a736700eb75","ios":"levelo://app?vid=5ce721e4-ed1a-4860-89e6-4a736700eb75"},"vehicle_type_id":"4","last_reported":1690733222,"current_range_meters":30800,"station_id":"ce4bhp92rcd13ifvqhag","pricing_plan_id":"free"},{"bike_id":"7d098a68-7d4b-41fa-bc1e-4dd1cfce6dd2","system_id":"levelo_inurba_marseille","lat":43.317121,"lon":5.423936,"is_reserved":false,"is_disabled":false,"rental_uris":{"android":"levelo://app?vid=7d098a68-7d4b-41fa-bc1e-4dd1cfce6dd2","ios":"levelo://app?vid=7d098a68-7d4b-41fa-bc1e-4dd1cfce6dd2"},"vehicle_type_id":"4","last_reported":1690733222,"current_range_meters":31600,"station_id":"ce4bhp92rcd13ifvqhbg","pricing_plan_id":"free"},{"bike_id":"9cd0a21f-c8f4-4d63-964a-0fa64a40ca44","system_id":"levelo_inurba_marseille","lat":43.317121,"lon":5.423936,"is_reserved":false,"is_disabled":false,"rental_uris":{"android":"levelo://app?vid=9cd0a21f-c8f4-4d63-964a-0fa64a40ca44","ios":"levelo://app?vid=9cd0a21f-c8f4-4d63-964a-0fa64a40ca44"},"vehicle_type_id":"4","last_reported":1690733222,"current_range_meters":29200,"station_id":"ce4bhp92rcd13ifvqhbg","pricing_plan_id":"free"},{"bike_id":"e53aed83-c0f4-4e20-a148-fb34729ce561","system_id":"levelo_inurba_marseille","lat":43.27608,"lon":5.39479,"is_reserved":false,"is_disabled":false,"rental_uris":{"android":"levelo://app?vid=e53aed83-c0f4-4e20-a148-fb34729ce561","ios":"levelo://app?vid=e53aed83-c0f4-4e20-a148-fb34729ce561"},"vehicle_type_id":"4","last_reported":1690733222,"current_range_meters":23600,"station_id":"","pricing_plan_id":"free"},{"bike_id":"d7a9aee2-ab15-4766-b9ef-2d9ae48e963b","system_id":"levelo_inurba_marseille","lat":43.34136,"lon":5.40903,"is_reserved":false,"is_disabled":false,"rental_uris":{"android":"levelo://app?vid=d7a9aee2-ab15-4766-b9ef-2d9ae48e963b","ios":"levelo://app?vid=d7a9aee2-ab15-4766-b9ef-2d9ae48e963b"},"vehicle_type_id":"4","last_reported":1690733222,"current_range_meters":28400,"station_id":"ce4bhqh2rcd13ifvqhlg","pricing_plan_id":"free"},{"bike_id":"4eb1c21a-7c62-4a68-9ada-c2575cb8f9a3","system_id":"levelo_inurba_marseille","lat":43.341373,"lon":5.409101,"is_reserved":false,"is_disabled":false,"rental_uris":{"android":"levelo://app?vid=4eb1c21a-7c62-4a68-9ada-c2575cb8f9a3","ios":"levelo://app?vid=4eb1c21a-7c62-4a68-9ada-c2575cb8f9a3"},"vehicle_type_id":"4","last_reported":1690733222,"current_range_meters":27200,"station_id":"","pricing_plan_id":"free"},{"bike_id":"6d98a089-8961-42e4-a6fa-7de81c6742c8","system_id":"levelo_inurba_marseille","lat":43.34143,"lon":5.40905,"is_reserved":false,"is_disabled":false,"rental_uris":{"android":"levelo://app?vid=6d98a089-8961-42e4-a6fa-7de81c6742c8","ios":"levelo://app?vid=6d98a089-8961-42e4-a6fa-7de81c6742c8"},"vehicle_type_id":"4","last_reported":1690733222,"current_range_meters":22800,"station_id":"ce4bhqh2rcd13ifvqhlg","pricing_plan_id":"free"},{"bike_id":"0ed3a11c-92c3-46e9-9d4a-814c95af0e42","system_id":"levelo_inurba_marseille","lat":43.274189,"lon":5.394184,"is_reserved":false,"is_disabled":false,"rental_uris":{"android":"levelo://app?vid=0ed3a11c-92c3-46e9-9d4a-814c95af0e42","ios":"levelo://app?vid=0ed3a11c-92c3-46e9-9d4a-814c95af0e42"},"vehicle_type_id":"4","last_reported":1690733222,"current_range_meters":2000,"station_id":"","pricing_plan_id":"free"},{"bike_id":"8eda387f-bca6-4ae3-9472-b9139bfc87cf","system_id":"levelo_inurba_marseille","lat":43.29559,"lon":5.42269,"is_reserved":false,"is_disabled":false,"rental_uris":{"android":"levelo://app?vid=8eda387f-bca6-4ae3-9472-b9139bfc87cf","ios":"levelo://app?vid=8eda387f-bca6-4ae3-9472-b9139bfc87cf"},"vehicle_type_id":"4","last_reported":1690733222,"current_range_meters":30800,"station_id":"ce4bhph2rcd13ifvqhdg","pricing_plan_id":"free"},{"bike_id":"3e75ff8f-8129-4bec-9c60-d2e87d3b8b1b","system_id":"levelo_inurba_marseille","lat":43.295511,"lon":5.422926,"is_reserved":false,"is_disabled":false,"rental_uris":{"android":"levelo://app?vid=3e75ff8f-8129-4bec-9c60-d2e87d3b8b1b","ios":"levelo://app?vid=3e75ff8f-8129-4bec-9c60-d2e87d3b8b1b"},"vehicle_type_id":"4","last_reported":1690733222,"current_range_meters":31600,"station_id":"ce4bhph2rcd13ifvqhdg","pricing_plan_id":"free"},{"bike_id":"6edd3a7f-34a1-4da4-a161-46b14b578a6f","system_id":"levelo_inurba_marseille","lat":43.295511,"lon":5.422926,"is_reserved":false,"is_disabled":false,"rental_uris":{"android":"levelo://app?vid=6edd3a7f-34a1-4da4-a161-46b14b578a6f","ios":"levelo://app?vid=6edd3a7f-34a1-4da4-a161-46b14b578a6f"},"vehicle_type_id":"4","last_reported":1690733222,"current_range_meters":31600,"station_id":"ce4bhph2rcd13ifvqhdg","pricing_plan_id":"free"},{"bike_id":"019545f2-4c73-47e8-95a8-790fd5a71bbc","system_id":"levelo_inurba_marseille","lat":43.295604,"lon":5.422917,"is_reserved":false,"is_disabled":false,"rental_uris":{"android":"levelo://app?vid=019545f2-4c73-47e8-95a8-790fd5a71bbc","ios":"levelo://app?vid=019545f2-4c73-47e8-95a8-790fd5a71bbc"},