{"last_updated":1731064035,"ttl":60,"version":"2.2","data":{"bikes":[{"bike_id":"87abb553-64a5-44b4-a45d-e769d7cf79a8","system_id":"levelo_inurba_marseille","lat":43.2861,"lon":5.35099,"is_reserved":false,"is_disabled":false,"rental_uris":{"android":"levelo://app?vid=87abb553-64a5-44b4-a45d-e769d7cf79a8","ios":"levelo://app?vid=87abb553-64a5-44b4-a45d-e769d7cf79a8"},"vehicle_type_id":"4","last_reported":1731064035,"current_range_meters":20000,"station_id":"ce4bhch2rcd13ifvqeug","pricing_plan_id":"cebpf4jnsgd1na2vs0mg"},{"bike_id":"b6f62ace-b41e-4419-904e-fcc7933e6893","system_id":"levelo_inurba_marseille","lat":43.29573,"lon":5.36732,"is_reserved":false,"is_disabled":false,"rental_uris":{"android":"levelo://app?vid=b6f62ace-b41e-4419-904e-fcc7933e6893","ios":"levelo://app?vid=b6f62ace-b41e-4419-904e-fcc7933e6893"},"vehicle_type_id":"4","last_reported":1731064035,"current_range_meters":38800,"station_id":"ce4bgph2rcd13ifvqc2g","pricing_plan_id":"cebpf4jnsgd1na2vs0mg"},{"bike_id":"a04c7e7f-d191-42e4-9f7d-83c681f6fac9","system_id":"levelo_inurba_marseille","lat":43.30538,"lon":5.36554,"is_reserved":false,"is_disabled":false,"rental_uris":{"android":"levelo://app?vid=a04c7e7f-d191-42e4-9f7d-83c681f6fac9","ios":"levelo://app?vid=a04c7e7f-d191-42e4-9f7d-83c681f6fac9"},"vehicle_type_id":"4","last_reported":1731064035,"current_range_meters":38800,"station_id":"ce4bgs12rcd13ifvqcag","pricing_plan_id":"cebpf4jnsgd1na2vs0mg"},{"bike_id":"635abd5b-6f4e-4367-92c2-c92431583300","system_id":"levelo_inurba_marseille","lat":43.29566,"lon":5.37506,"is_reserved":false,"is_disabled":false,"rental_uris":{"android":"levelo://app?vid=635abd5b-6f4e-4367-92c2-c92431583300","ios":"levelo://app?vid=635abd5b-6f4e-4367-92c2-c92431583300"},"vehicle_type_id":"4","last_reported":1731064035,"current_range_meters":36800,"station_id":"ce4bgh92rcd13ifvqb50","pricing_plan_id":"cebpf4jnsgd1na2vs0mg"},{"bike_id":"e5e7465d-1f89-4768-b017-15428809116f","system_id":"levelo_inurba_marseille","lat":43.26678,"lon":5.38268,"is_reserved":false,"is_disabled":false,"rental_uris":{"android":"levelo://app?vid=e5e7465d-1f89-4768-b017-15428809116f","ios":"levelo://app?vid=e5e7465d-1f89-4768-b017-15428809116f"},"vehicle_type_id":"4","last_reported":1731064035,"current_range_meters":28800,"station_id":"ce4bhg92rcd13ifvqf90","pricing_plan_id":"cebpf4jnsgd1na2vs0mg"},{"bike_id":"2b783626-d1c8-4f0c-8266-9671985242ef","system_id":"levelo_inurba_marseille","lat":43.28153,"lon":5.4265,"is_reserved":false,"is_disabled":false,"rental_uris":{"android":"levelo://app?vid=2b783626-d1c8-4f0c-8266-9671985242ef","ios":"levelo://app?vid=2b783626-d1c8-4f0c-8266-9671985242ef"},"vehicle_type_id":"4","last_reported":1731064035,"current_range_meters":35600,"station_id":"ce4bhnh2rcd13ifvqgug","pricing_plan_id":"cebpf4jnsgd1na2vs0mg"},{"bike_id":"7f774ae5-6cb7-4c53-91e0-4e9519e7a5f3","system_id":"levelo_inurba_marseille","lat":43.31726,"lon":5.42386,"is_reserved":false,"is_disabled":false,"rental_uris":{"android":"levelo://app?vid=7f774ae5-6cb7-4c53-91e0-4e9519e7a5f3","ios":"levelo://app?vid=7f774ae5-6cb7-4c53-91e0-4e9519e7a5f3"},"vehicle_type_id":"4","last_reported":1731064035,"current_range_meters":31200,"station_id":"ce4bhp92rcd13ifvqhbg","pricing_plan_id":"cebpf4jnsgd1na2vs0mg"},{"bike_id":"6541c83f-290c-44b3-a472-aa915c826997","system_id":"levelo_inurba_marseille","lat":43.2837,"lon":5.3814,"is_reserved":false,"is_disabled":false,"rental_uris":{"android":"levelo://app?vid=6541c83f-290c-44b3-a472-aa915c826997","ios":"levelo://app?vid=6541c83f-290c-44b3-a472-aa915c826997"},"vehicle_type_id":"4","last_reported":1731064035,"current_range_meters":37600,"station_id":"ce4bh412rcd13ifvqdr0","pricing_plan_id":"cebpf4jnsgd1na2vs0mg"},{"bike_id":"3be020d0-d14a-4b26-8243-12c3a44122c5","system_id":"levelo_inurba_marseille","lat":43.24259,"lon":5.37105,"is_reserved":false,"is_disabled":false,"rental_uris":{"android":"levelo://app?vid=3be020d0-d14a-4b26-8243-12c3a44122c5","ios":"levelo://app?vid=3be020d0-d14a-4b26-8243-12c3a44122c5"},"vehicle_type_id":"4","last_reported":1731064035,"current_range_meters":16000,"station_id":"","pricing_plan_id":"cebpf4jnsgd1na2vs0mg"},{"bike_id":"f0580123-09e6-48b9-8683-0c14e0462951","system_id":"levelo_inurba_marseille","lat":43.29717,"lon":5.37691,"is_reserved":false,"is_disabled":false,"rental_uris":{"android":"levelo://app?vid=f0580123-09e6-48b9-8683-0c14e0462951","ios":"levelo://app?vid=f0580123-09e6-48b9-8683-0c14e0462951"},"vehicle_type_id":"4","last_reported":1731064035,"current_range_meters":39200,"station_id":"ce4bgkh2rcd13ifvqbl0","pricing_plan_id":"cebpf4jnsgd1na2vs0mg"},{"bike_id":"41dc0cdc-e2a3-4364-9502-e92dd8e24227","system_id":"levelo_inurba_marseille","lat":43.313385,"lon":5.36717,"is_reserved":false,"is_disabled":false,"rental_uris":{"android":"levelo://app?vid=41dc0cdc-e2a3-4364-9502-e92dd8e24227","ios":"levelo://app?vid=41dc0cdc-e2a3-4364-9502-e92dd8e24227"},"vehicle_type_id":"4","last_reported":1731064035,"current_range_meters":13600,"station_id":"ce4bgr92rcd13ifvqc6g","pricing_plan_id":"cebpf4jnsgd1na2vs0mg"},{"bike_id":"85ec6972-2474-4903-af30-b7a390d3db72","system_id":"levelo_inurba_marseille","lat":43.2621,"lon":5.37444,"is_reserved":false,"is_disabled":false,"rental_uris":{"android":"levelo://app?vid=85ec6972-2474-4903-af30-b7a390d3db72","ios":"levelo://app?vid=85ec6972-2474-4903-af30-b7a390d3db72"},"vehicle_type_id":"4","last_reported":1731064035,"current_range_meters":38000,"station_id":"ce4bhgp2rcd13ifvqfc0","pricing_plan_id":"cebpf4jnsgd1na2vs0mg"},{"bike_id":"c88f1b31-dd3c-4e82-a81a-152198c83c26","system_id":"levelo_inurba_marseille","lat":43.31225,"lon":5.36863,"is_reserved":false,"is_disabled":false,"rental_uris":{"android":"levelo://app?vid=c88f1b31-dd3c-4e82-a81a-152198c83c26","ios":"levelo://app?vid=c88f1b31-dd3c-4e82-a81a-152198c83c26"},"vehicle_type_id":"4","last_reported":1731064035,"current_range_meters":9600,"station_id":"ce4bgl92rcd13ifvqbq0","pricing_plan_id":"cebpf4jnsgd1na2vs0mg"},{"bike_id":"a0748d87-c76d-419a-946d-7f7564b4a5ea","system_id":"levelo_inurba_marseille","lat":43.30418,"lon":5.39754,"is_reserved":false,"is_disabled":false,"rental_uris":{"android":"levelo://app?vid=a0748d87-c76d-419a-946d-7f7564b4a5ea","ios":"levelo://app?vid=a0748d87-c76d-419a-946d-7f7564b4a5ea"},"vehicle_type_id":"4","last_reported":1731064035,"current_range_meters":8800,"station_id":"ce4bh092rcd13ifvqd20","pricing_plan_id":"cebpf4jnsgd1na2vs0mg"},{"bike_id":"159cf0f5-631d-4182-9697-afd7a075c262","system_id":"levelo_inurba_marseille","lat":43.28469,"lon":5.38573,"is_reserved":false,"is_disabled":false,"rental_uris":{"android":"levelo://app?vid=159cf0f5-631d-4182-9697-afd7a075c262","ios":"levelo://app?vid=159cf0f5-631d-4182-9697-afd7a075c262"},"vehicle_type_id":"4","last_reported":1731064035,"current_range_meters":27200,"station_id":"ce4bh8p2rcd13ifvqeb0","pricing_plan_id":"cebpf4jnsgd1na2vs0mg"},{"bike_id":"504e5d62-7828-485f-b5c5-e0859c494a6c","system_id":"levelo_inurba_marseille","lat":43.32487,"lon":5.36572,"is_reserved":false,"is_disabled":false,"rental_uris":{"android":"levelo://app?vid=504e5d62-7828-485f-b5c5-e0859c494a6c","ios":"levelo://app?vid=504e5d62-7828-485f-b5c5-e0859c494a6c"},"vehicle_type_id":"4","last_reported":1731064035,"current_range_meters":36800,"station_id":"ce4bhs12rcd13ifvqhvg","pricing_plan_id":"cebpf4jnsgd1na2vs0mg"},{"bike_id":"87ddfd09-7506-40f5-b667-d6f59ca28e99","system_id":"levelo_inurba_marseille","lat":43.27972,"lon":5.38732,"is_reserved":false,"is_disabled":false,"rental_uris":{"android":"levelo://app?vid=87ddfd09-7506-40f5-b667-d6f59ca28e99","ios":"levelo://app?vid=87ddfd09-7506-40f5-b667-d6f59ca28e99"},"vehicle_type_id":"4","last_reported":1731064035,"current_range_meters":24800,"station_id":"ce4bhg12rcd13ifvqf80","pricing_plan_id":"cebpf4jnsgd1na2vs0mg"},{"bike_id":"8425ace5-9714-43c4-b795-2b558dd18411","system_id":"levelo_inurba_marseille","lat":43.290035,"lon":5.381205,"is_reserved":false,"is_disabled":false,"rental_uris":{"android":"levelo://app?vid=8425ace5-9714-43c4-b795-2b558dd18411","ios":"levelo://app?vid=8425ace5-9714-43c4-b795-2b558dd18411"},"vehicle_type_id":"4","last_reported":1731064035,"current_range_meters":3600,"station_id":"ce4bh4p2rcd13ifvqe1g","pricing_plan_id":"cebpf4jnsgd1na2vs0mg"},{"bike_id":"34bf0988-2d5a-4a4f-bad9-f1dee3aacc94","system_id":"levelo_inurba_marseille","lat":43.30596,"lon":5.37218,"is_reserved":false,"is_disabled":false,"rental_uris":{"android":"levelo://app?vid=34bf0988-2d5a-4a4f-bad9-f1dee3aacc94","ios":"levelo://app?vid=34bf0988-2d5a-4a4f-bad9-f1dee3aacc94"},"vehicle_type_id":"4","last_reported":1731064035,"current_range_meters":22400,"station_id":"ce4bgqh2rcd13ifvqc4g","pricing_plan_id":"cebpf4jnsgd1na2vs0mg"},{"bike_id":"e382a5f5-b97c-4326-befe-74fa542b41c7","system_id":"levelo_inurba_marseille","lat":43.23152,"lon":5.4371,"is_reserved":false,"is_disabled":false,"rental_uris":{"android":"levelo://app?vid=e382a5f5-b97c-4326-befe-74fa542b41c7","ios":"levelo://app?vid=e382a5f5-b97c-4326-befe-74fa542b41c7"},"vehicle_type_id":"4","last_reported":1731064035,"current_range_meters":28000,"station_id":"ce4bhmp2rcd13ifvqgog","pricing_plan_id":"cebpf4jnsgd1na2vs0mg"},{"bike_id":"a08c735d-a2ad-4fec-b005-ca5bb0562260","system_id":"levelo_inurba_marseille","lat":43.31492,"lon":5.37306,"is_reserved":false,"is_disabled":false,"rental_uris":{"android":"levelo://app?vid=a08c735d-a2ad-4fec-b005-ca5bb0562260","ios":"levelo://app?vid=a08c735d-a2ad-4fec-b005-ca5bb0562260"},"vehicle_type_id":"4","last_reported":1731064035,"current_range_meters":38800,"station_id":"ce4bgt12rcd13ifvqcd0","pricing_plan_id":"cebpf4jnsgd1na2vs0mg"},{"bike_id":"fd12b793-66ca-4f7d-ad00-0679e21d5de7","system_id":"levelo_inurba_marseille","lat":43.30523,"lon":5.36538,"is_reserved":false,"is_disabled":false,"rental_uris":{"android":"levelo://app?vid=fd12b793-66ca-4f7d-ad00-0679e21d5de7","ios":"levelo://app?vid=fd12b793-66ca-4f7d-ad00-0679e21d5de7"},"vehicle_type_id":"4","last_reported":1731064035,"current_range_meters":30800,"station_id":"ce4bgs12rcd13ifvqcag","pricing_plan_id":"cebpf4jnsgd1na2vs0mg"},{"bike_id":"e22b98a5-9773-4f71-85ed-e74c4dff6249","system_id":"levelo_inurba_marseille","lat":43.30544,"lon":5.36696,"is_reserved":false,"is_disabled":false,"rental_uris":{"android":"levelo://app?vid=e22b98a5-9773-4f71-85ed-e74c4dff6249","ios":"levelo://app?vid=e22b98a5-9773-4f71-85ed-e74c4dff6249"},"vehicle_type_id":"4","last_reported":1731064035,"current_range_meters":30000,"station_id":"ce4bgrp2rcd13ifvqc9g","pricing_plan_id":"cebpf4jnsgd1na2vs0mg"},{"bike_id":"a773c60d-75b1-400f-b744-7c7bc21c76a0","system_id":"levelo_inurba_marseille","lat":43.31076,"lon":5.42427,"is_reserved":false,"is_disabled":false,"rental_uris":{"android":"levelo://app?vid=a773c60d-75b1-400f-b744-7c7bc21c76a0","ios":"levelo://app?vid=a773c60d-75b1-400f-b744-7c7bc21c76a0"},"vehicle_type_id":"4","last_reported":1731064035,"current_range_meters":36800,"station_id":"ce4bhp92rcd13ifvqhag","pricing_plan_id":"cebpf4jnsgd1na2vs0mg"},{"bike_id":"d4d7b366-a7ee-4cc3-b75e-75f71ef7b91f","system_id":"levelo_inurba_marseille","lat":43.29438,"lon":5.39748,"is_reserved":false,"is_disabled":false,"rental_uris":{"android":"levelo://app?vid=d4d7b366-a7ee-4cc3-b75e-75f71ef7b91f","ios":"levelo://app?vid=d4d7b366-a7ee-4cc3-b75e-75f71ef7b91f"},"vehicle_type_id":"4","last_reported":1731064035,"current_range_meters":11200,"station_id":"ce4bh3h2rcd13ifvqdo0","pricing_plan_id":"cebpf4jnsgd1na2vs0mg"},{"bike_id":"08bbbc3d-8729-4390-9e99-fb03082c935f","system_id":"levelo_inurba_marseille","lat":43.28409,"lon":5.34993,"is_reserved":false,"is_disabled":false,"rental_uris":{"android":"levelo://app?vid=08bbbc3d-8729-4390-9e99-fb03082c935f","ios":"levelo://app?vid=08bbbc3d-8729-4390-9e99-fb03082c935f"},"vehicle_type_id":"4","last_reported":1731064035,"current_range_meters":29600,"station_id":"ce4bhbh2rcd13ifvqepg","pricing_plan_id":"cebpf4jnsgd1na2vs0mg"},{"bike_id":"ba569e7d-f4f6-402f-b157-604ec0e55f5f","system_id":"levelo_inurba_marseille","lat":43.23183,"lon":5.39983,"is_reserved":false,"is_disabled":false,"rental_uris":{"android":"levelo://app?vid=ba569e7d-f4f6-402f-b157-604ec0e55f5f","ios":"levelo://app?vid=ba569e7d-f4f6-402f-b157-604ec0e55f5f"},"vehicle_type_id":"4","last_reported":1731064035,"current_range_meters":2800,"station_id":"ce4bhn12rcd13ifvqgqg","pricing_plan_id":"cebpf4jnsgd1na2vs0mg"},{"bike_id":"6fb32bb1-acec-47e9-a78c-5f0271edfd7f","system_id":"levelo_inurba_marseille","lat":43.26177,"lon":5.37501,"is_reserved":false,"is_disabled":false,"rental_uris":{"android":"levelo://app?vid=6fb32bb1-acec-47e9-a78c-5f0271edfd7f","ios":"levelo://app?vid=6fb32bb1-acec-47e9-a78c-5f0271edfd7f"},"vehicle_type_id":"4","last_reported":1731064035,"current_range_meters":22400,"station_id":"ce4bhgp2rcd13ifvqfc0","pricing_plan_id":"cebpf4jnsgd1na2vs0mg"},{"bike_id":"3d32f789-a044-47cc-8444-b1887a88a83f","system_id":"levelo_inurba_marseille","lat":43.30544,"lon":5.36705,"is_reserved":false,"is_disabled":false,"rental_uris":{"android":"levelo://app?vid=3d32f789-a044-47cc-8444-b1887a88a83f","ios":"levelo://app?vid=3d32f789-a044-47cc-8444-b1887a88a83f"},"vehicle_type_id":"4","last_reported":1731064035,"current_range_meters":38400,"station_id":"ce4bgrp2rcd13ifvqc9g","pricing_plan_id":"cebpf4jnsgd1na2vs0mg"},{"bike_id":"e507d365-9255-4b2a-90fc-6978326419e9","system_id":"levelo_inurba_marseille","lat":43.2955,"lon":5.42286,"is_reserved":false,"is_disabled":false,"rental_uris":{"android":"levelo://app?vid=e507d365-9255-4b2a-90fc-6978326419e9","ios":"levelo://app?vid=e507d365-9255-4b2a-90fc-6978326419e9"},"vehicle_type_id":"4","last_reported":1731064035,"current_range_meters":3200,"station_id":"ce4bhph2rcd13ifvqhdg","pricing_plan_id":"cebpf4jnsgd1na2vs0mg"},{"bike_id":"ea3e44e4-5607-432c-a36c-1dd1c2026358","system_id":"levelo_inurba_marseille","lat":43.32368,"lon":5.38886,"is_reserved":false,"is_disabled":false,"rental_uris":{"android":"levelo://app?vid=ea3e44e4-5607-432c-a36c-1dd1c2026358","ios":"levelo://app?vid=ea3e44e4-5607-432c-a36c-1dd1c2026358"},"vehicle_type_id":"4","last_reported":1731064035,"current_range_meters":35600,"station_id":"ce4bhqp2rcd13ifvqhog","pricing_plan_id":"cebpf4jnsgd1na2vs0mg"},{"bike_id":"6b28c2b8-5976-4249-8135-469930495b04","system_id":"levelo_inurba_marseille","lat":43.29526,"lon":5.3905,"is_reserved":false,"is_disabled":false,"rental_uris":{"android":"levelo://app?vid=6b28c2b8-5976-4249-8135-469930495b04","ios":"levelo://app?vid=6b28c2b8-5976-4249-8135-469930495b04"},"vehicle_type_id":"4","last_reported":1731064035,"current_range_meters":19600,"station_id":"ce4bh3p2rcd13ifvqdp0","pricing_plan_id":"cebpf4jnsgd1na2vs0mg"},{"bike_id":"533a9f77-d491-4dcc-a301-f4805bc01f05","system_id":"levelo_inurba_marseille","lat":43.24386,"lon":5.37057,"is_reserved":false,"is_disabled":false,"rental_uris":{"android":"levelo://app?vid=533a9f77-d491-4dcc-a301-f4805bc01f05","ios":"levelo://app?vid=533a9f77-d491-4dcc-a301-f4805bc01f05"},"vehicle_type_id":"4","last_reported":1731064035,"current_range_meters":9200,"station_id":"ce4bhhh2rcd13ifvqfk0","pricing_plan_id":"cebpf4jnsgd1na2vs0mg"},{"bike_id":"1ed8831a-a3da-44b2-8f67-fa4791d6ae74","system_id":"levelo_inurba_marseille","lat":43.28151,"lon":5.42638,"is_reserved":false,"is_disabled":false,"rental_uris":{"android":"levelo://app?vid=1ed8831a-a3da-44b2-8f67-fa4791d6ae74","ios":"levelo://app?vid=1ed8831a-a3da-44b2-8f67-fa4791d6ae74"},"vehicle_type_id":"4","last_reported":1731064035,"current_range_meters":32400,"station_id":"ce4bhnh2rcd13ifvqgug","pricing_plan_id":"cebpf4jnsgd1na2vs0mg"},{"bike_id":"22c2910c-c395-401a-9c60-3a72ab53ce1d","system_id":"levelo_inurba_marseille","lat":43.26543,"lon":5.39502,"is_reserved":false,"is_disabled":false,"rental_uris":{"android":"levelo://app?vid=22c2910c-c395-401a-9c60-3a72ab53ce1d","ios":"levelo://app?vid=22c2910c-c395-401a-9c60-3a72ab53ce1d"},"vehicle_type_id":"4","last_reported":1731064035,"current_range_meters":30400,"station_id":"ce4bhh12rcd13ifvqfg0","pricing_plan_id":"cebpf4jnsgd1na2vs0mg"},{"bike_id":"f4ef053d-e709-4411-bdd9-de1d0f41e46f","system_id":"levelo_inurba_marseille","lat":43.2293,"lon":5.35374,"is_reserved":false,"is_disabled":false,"rental_uris":{"android":"levelo://app?vid=f4ef053d-e709-4411-bdd9-de1d0f41e46f","ios":"levelo://app?vid=f4ef053d-e709-4411-bdd9-de1d0f41e46f"},"vehicle_type_id":"4","last_reported":1731064035,"current_range_meters":38800,"station_id":"cpo3532slgdg3j2ikp40","pricing_plan_id":"cebpf4jnsgd1na2vs0mg"},{"bike_id":"ddbea684-a5a0-4cd1-b109-23bf37867ced","system_id":"levelo_inurba_marseille","lat":43.29043,"lon":5.399726,"is_reserved":false,"is_disabled":false,"rental_uris":{"android":"levelo://app?vid=ddbea684-a5a0-4cd1-b109-23bf37867ced","ios":"levelo://app?vid=ddbea684-a5a0-4cd1-b109-23bf37867ced"},"vehicle_type_id":"4","last_reported":1731064035,"current_range_meters":30000,"station_id":"ce4bh012rcd13ifvqcv0","pricing_plan_id":"cebpf4jnsgd1na2vs0mg"},{"bike_id":"b180ed9d-bdf4-4cdf-82e8-e4b1abac085e","system_id":"levelo_inurba_marseille","lat":43.304634,"lon":5.413014,"is_reserved":false,"is_disabled":false,"rental_uris":{"android":"levelo://app?vid=b180ed9d-bdf4-4cdf-82e8-e4b1abac085e","ios":"levelo://app?vid=b180ed9d-bdf4-4cdf-82e8-e4b1abac085e"},"vehicle_type_id":"4","last_reported":1731064035,"current_range_meters":32000,"station_id":"ce4bhop2rcd13ifvqh8g","pricing_plan_id":"cebpf4jnsgd1na2vs0mg"},{"bike_id":"5209bd22-82fc-42f1-ab3c-f8bf16a141aa","system_id":"levelo_inurba_marseille","lat":43.29566,"lon":5.37531,"is_reserved":false,"is_disabled":false,"rental_uris":{"android":"levelo://app?vid=5209bd22-82fc-42f1-ab3c-f8bf16a141aa","ios":"levelo://app?vid=5209bd22-82fc-42f1-ab3c-f8bf16a141aa"},"vehicle_type_id":"4","last_reported":1731064035,"current_range_meters":24400,"station_id":"ce4bgh92rcd13ifvqb50","pricing_plan_id":"cebpf4jnsgd1na2vs0mg"},{"bike_id":"1c42e69e-6462-434c-879b-e1abe7b741d5","system_id":"levelo_inurba_marseille","lat":43.30422,"lon":5.39747,"is_reserved":false,"is_disabled":false,"rental_uris":{"android":"levelo://app?vid=1c42e69e-6462-434c-879b-e1abe7b741d5","ios":"levelo://app?vid=1c42e69e-6462-434c-879b-e1abe7b741d5"},"vehicle_type_id":"4","last_reported":1731064035,"current_range_meters":34000,"station_id":"ce4bh092rcd13ifvqd20","pricing_plan_id":"cebpf4jnsgd1na2vs0mg"},{"bike_id":"b6d5e9f4-a929-4ef2-919c-464ed3295f6b","system_id":"levelo_inurba_marseille","lat":43.29253,"lon":5.38449,"is_reserved":false,"is_disabled":false,"rental_uris":{"android":"levelo://app?vid=b6d5e9f4-a929-4ef2-919c-464ed3295f6b","ios":"levelo://app?vid=b6d5e9f4-a929-4ef2-919c-464ed3295f6b"},"vehicle_type_id":"4","last_reported":1731064035,"current_range_meters":19600,"station_id":"ce4bh692rcd13ifvqea0","pricing_plan_id":"cebpf4jnsgd1na2vs0mg"},{"bike_id":"7a419be2-700a-40fe-9a2e-c4d1abef876c","system_id":"levelo_inurba_marseille","lat":43.23147,"lon":5.43702,"is_reserved":false,"is_disabled":false,"rental_uris":{"android":"levelo://app?vid=7a419be2-700a-40fe-9a2e-c4d1abef876c","ios":"levelo://app?vid=7a419be2-700a-40fe-9a2e-c4d1abef876c"},"vehicle_type_id":"4","last_reported":1731064035,"current_range_meters":5600,"station_id":"ce4bhmp2rcd13ifvqgog","pricing_plan_id":"cebpf4jnsgd1na2vs0mg"},{"bike_id":"ca10a5c3-f3ce-4f91-8de9-8bcbe8db6bbe","system_id":"levelo_inurba_marseille","lat":43.24365,"lon":5.3859,"is_reserved":false,"is_disabled":false,"rental_uris":{"android":"levelo://app?vid=ca10a5c3-f3ce-4f91-8de9-8bcbe8db6bbe","ios":"levelo://app?vid=ca10a5c3-f3ce-4f91-8de9-8bcbe8db6bbe"},"vehicle_type_id":"4","last_reported":1731064035,"current_range_meters":28000,"station_id":"","pricing_plan_id":"cebpf4jnsgd1na2vs0mg"},{"bike_id":"97920df3-ab3b-478d-a723-8ec37c1534a7","system_id":"levelo_inurba_marseille","lat":43.29698,"lon":5.36593,"is_reserved":false,"is_disabled":false,"rental_uris":{"android":"levelo://app?vid=97920df3-ab3b-478d-a723-8ec37c1534a7","ios":"levelo://app?vid=97920df3-ab3b-478d-a723-8ec37c1534a7"},"vehicle_type_id":"4","last_reported":1731064035,"current_range_meters":37600,"station_id":"ce4bgn12rcd13ifvqbt0","pricing_plan_id":"cebpf4jnsgd1na2vs0mg"},{"bike_id":"4747ebe4-1671-4191-a78e-3553c138e8f2","system_id":"levelo_inurba_marseille","lat":43.337444,"lon":5.374475,"is_reserved":false,"is_disabled":false,"rental_uris":{"android":"levelo://app?vid=4747ebe4-1671-4191-a78e-3553c138e8f2","ios":"levelo://app?vid=4747ebe4-1671-4191-a78e-3553c138e8f2"},"vehicle_type_id":"4","last_reported":1731064035,"current_range_meters":26000,"station_id":"","pricing_plan_id":"cebpf4jnsgd1na2vs0mg"},{"bike_id":"bbc38332-d08d-491b-aff5-7b33e6d207c9","system_id":"levelo_inurba_marseille","lat":43.29963,"lon":5.36514,"is_reserved":false,"is_disabled":false,"rental_uris":{"android":"levelo://app?vid=bbc38332-d08d-491b-aff5-7b33e6d207c9","ios":"levelo://app?vid=bbc38332-d08d-491b-aff5-7b33e6d207c9"},"vehicle_type_id":"4","last_reported":1731064035,"current_range_meters":38800,"station_id":"ce4bgm92rcd13ifvqbr0","pricing_plan_id":"cebpf4jnsgd1na2vs0mg"},{"bike_id":"a000d3c2-f3b7-4a46-8579-c0ae5b38e883","system_id":"levelo_inurba_marseille","lat":43.29527,"lon":5.37504,"is_reserved":false,"is_disabled":false,"rental_uris":{"android":"levelo://app?vid=a000d3c2-f3b7-4a46-8579-c0ae5b38e883","ios":"levelo://app?vid=a000d3c2-f3b7-4a46-8579-c0ae5b38e883"},"vehicle_type_id":"4","last_reported":1731064035,"current_range_meters":30800,"station_id":"ce4bgkp2rcd13ifvqbmg","pricing_plan_id":"cebpf4jnsgd1na2vs0mg"},{"bike_id":"b8fdd341-0697-41ca-82c9-e4253415f4e6","system_id":"levelo_inurba_marseille","lat":43.23055,"lon":5.35495,"is_reserved":false,"is_disabled":false,"rental_uris":{"android":"levelo://app?vid=b8fdd341-0697-41ca-82c9-e4253415f4e6","ios":"levelo://app?vid=b8fdd341-0697-41ca-82c9-e4253415f4e6"},"vehicle_type_id":"4","last_reported":1731064035,"current_range_meters":37600,"station_id":"cpo3342slgdg3j2ifvpg","pricing_plan_id":"cebpf4jnsgd1na2vs0mg"},{"bike_id":"9b96d1a7-1bb0-4837-8ce5-5f6325109a7b","system_id":"levelo_inurba_marseille","lat":43.23188,"lon":5.39983,"is_reserved":false,"is_disabled":false,"rental_uris":{"android":"levelo://app?vid=9b96d1a7-1bb0-4837-8ce5-5f6325109a7b","ios":"levelo://app?vid=9b96d1a7-1bb0-4837-8ce5-5f6325109a7b"},"vehicle_type_id":"4","last_reported":1731064035,"current_range_meters":36800,"station_id":"ce4bhn12rcd13ifvqgqg","pricing_plan_id":"cebpf4jnsgd1na2vs0mg"},{"bike_id":"23471502-d7a4-4794-8634-fd068f754d93","system_id":"levelo_inurba_marseille","lat":43.30916,"lon":5.36855,"is_reserved":false,"is_disabled":false,"rental_uris":{"android":"levelo://app?vid=23471502-d7a4-4794-8634-fd068f754d93","ios":"levelo://app?vid=23471502-d7a4-4794-8634-fd068f754d93"},"vehicle_type_id":"4","last_reported":1731064035,"current_range_meters":36400,"station_id":"ce4bgn92rcd13ifvqbvg","pricing_plan_id":"cebpf4jnsgd1na2vs0mg"},{"bike_id":"ffa6a709-cf7b-41fd-acb6-77573eab6973","system_id":"levelo_inurba_marseille","lat":43.32478,"lon":5.36568,"is_reserved":false,"is_disabled":false,"rental_uris":{"android":"levelo://app?vid=ffa6a709-cf7b-41fd-acb6-77573eab6973","ios":"levelo://app?vid=ffa6a709-cf7b-41fd-acb6-77573eab6973"},"vehicle_type_id":"4","last_reported":1731064035,"current_range_meters":14400,"station_id":"ce4bhs12rcd13ifvqhvg","pricing_plan_id":"cebpf4jnsgd1na2vs0mg"},{"bike_id":"70cb8752-7cdc-473d-8547-9e63a42728da","system_id":"levelo_inurba_marseille","lat":43.2306,"lon":5.3549,"is_reserved":false,"is_disabled":false,"rental_uris":{"android":"levelo://app?vid=70cb8752-7cdc-473d-8547-9e63a42728da","ios":"levelo://app?vid=70cb8752-7cdc-473d-8547-9e63a42728da"},"vehicle_type_id":"4","last_reported":1731064035,"current_range_meters":27600,"station_id":"cpo3342slgdg3j2ifvpg","pricing_plan_id":"cebpf4jnsgd1na2vs0mg"},{"bike_id":"a8c379e9-4777-4dda-b09f-f9983c01cdce","system_id":"levelo_inurba_marseille","lat":43.30523,"lon":5.36706,"is_reserved":false,"is_disabled":false,"rental_uris":{"android":"levelo://app?vid=a8c379e9-4777-4dda-b09f-f9983c01cdce","ios":"levelo://app?vid=a8c379e9-4777-4dda-b09f-f9983c01cdce"},"vehicle_type_id":"4","last_reported":1731064035,"current_range_meters":20800,"station_id":"ce4bgrp2rcd13ifvqc9g","pricing_plan_id":"cebpf4jnsgd1na2vs0mg"},{"bike_id":"bc695a9b-18a5-4613-b255-9f19e0d39a61","system_id":"levelo_inurba_marseille","lat":43.28455,"lon":5.35894,"is_reserved":false,"is_disabled":false,"rental_uris":{"android":"levelo://app?vid=bc695a9b-18a5-4613-b255-9f19e0d39a61","ios":"levelo://app?vid=bc695a9b-18a5-4613-b255-9f19e0d39a61"},"vehicle_type_id":"4","last_reported":1731064035,"current_range_meters":15200,"station_id":"ce4bhah2rcd13ifvqei0","pricing_plan_id":"cebpf4jnsgd1na2vs0mg"},{"bike_id":"ef57e218-9955-47bf-87ff-46575a3147ff","system_id":"levelo_inurba_marseille","lat":43.26923,"lon":5.38919,"is_reserved":false,"is_disabled":false,"rental_uris":{"android":"levelo://app?vid=ef57e218-9955-47bf-87ff-46575a3147ff","ios":"levelo://app?vid=ef57e218-9955-47bf-87ff-46575a3147ff"},"vehicle_type_id":"4","last_reported":1731064035,"current_range_meters":5600,"station_id":"ce4bhhh2rcd13ifvqfl0","pricing_plan_id":"cebpf4jnsgd1na2vs0mg"},{"bike_id":"ebecea3d-5cd4-4ce7-ba3f-60249a706db9","system_id":"levelo_inurba_marseille","lat":43.329987,"lon":5.410324,"is_reserved":false,"is_disabled":false,"rental_uris":{"android":"levelo://app?vid=ebecea3d-5cd4-4ce7-ba3f-60249a706db9","ios":"levelo://app?vid=ebecea3d-5cd4-4ce7-ba3f-60249a706db9"},"vehicle_type_id":"4","last_reported":1731064035,"current_range_meters":10000,"station_id":"ce4bhpp2rcd13ifvqhgg","pricing_plan_id":"cebpf4jnsgd1na2vs0mg"},{"bike_id":"0f8df7c8-9916-44ee-932e-09302422ab97","system_id":"levelo_inurba_marseille","lat":43.337444,"lon":5.374475,"is_reserved":false,"is_disabled":false,"rental_uris":{"android":"levelo://app?vid=0f8df7c8-9916-44ee-932e-09302422ab97","ios":"levelo://app?vid=0f8df7c8-9916-44ee-932e-09302422ab97"},"vehicle_type_id":"4","last_reported":1731064035,"current_range_meters":10000,"station_id":"ce4bh092rcd13ifvqd20","pricing_plan_id":"cebpf4jnsgd1na2vs0mg"},{"bike_id":"7ee475b4-5d63-490f-99bf-09c3d327b4ef","system_id":"levelo_inurba_marseille","lat":43.2979,"lon":5.3809,"is_reserved":false,"is_disabled":false,"rental_uris":{"android":"levelo://app?vid=7ee475b4-5d63-490f-99bf-09c3d327b4ef","ios":"levelo://app?vid=7ee475b4-5d63-490f-99bf-09c3d327b4ef"},"vehicle_type_id":"4","last_reported":1731064035,"current_range_meters":4800,"station_id":"ce4bgip2rcd13ifvqbb0","pricing_plan_id":"cebpf4jnsgd1na2vs0mg"},{"bike_id":"3420b168-0a4d-440c-a8ea-f271ea71b987","system_id":"levelo_inurba_marseille","lat":43.29851,"lon":5.36286,"is_reserved":false,"is_disabled":false,"rental_uris":{"android":"levelo://app?vid=3420b168-0a4d-440c-a8ea-f271ea71b987","ios":"levelo://app?vid=3420b168-0a4d-440c-a8ea-f271ea71b987"},"vehicle_type_id":"4","last_reported":1731064035,"current_range_meters":31200,"station_id":"ce4bgpp2rcd13ifvqc3g","pricing_plan_id":"cebpf4jnsgd1na2vs0mg"},{"bike_id":"1f986931-33a6-407d-9691-981e5af33791","system_id":"levelo_inurba_marseille","lat":43.25938,"lon":5.40904,"is_reserved":false,"is_disabled":false,"rental_uris":{"android":"levelo://app?vid=1f986931-33a6-407d-9691-981e5af33791","ios":"levelo://app?vid=1f986931-33a6-407d-9691-981e5af33791"},"vehicle_type_id":"4","last_reported":1731064035,"current_range_meters":8400,"station_id":"ce4bhm92rcd13ifvqglg","pricing_plan_id":"cebpf4jnsgd1na2vs0mg"},{"bike_id":"03e102d6-9161-4d54-805e-83fe5fe54a64","system_id":"levelo_inurba_marseille","lat":43.281,"lon":5.37854,"is_reserved":false,"is_disabled":false,"rental_uris":{"android":"levelo://app?vid=03e102d6-9161-4d54-805e-83fe5fe54a64","ios":"levelo://app?vid=03e102d6-9161-4d54-805e-83fe5fe54a64"},"vehicle_type_id":"4","last_reported":1731064035,"current_range_meters":38800,"station_id":"ce4bha12rcd13ifvqee0","pricing_plan_id":"cebpf4jnsgd1na2vs0mg"},{"bike_id":"d5806dc7-3dde-4561-9bb9-75852ef28336","system_id":"levelo_inurba_marseille","lat":43.28143,"lon":5.42634,"is_reserved":false,"is_disabled":false,"rental_uris":{"android":"levelo://app?vid=d5806dc7-3dde-4561-9bb9-75852ef28336","ios":"levelo://app?vid=d5806dc7-3dde-4561-9bb9-75852ef28336"},"vehicle_type_id":"4","last_reported":1731064035,"current_range_meters":39200,"station_id":"ce4bhnh2rcd13ifvqgug","pricing_plan_id":"cebpf4jnsgd1na2vs0mg"},{"bike_id":"91467fd7-7280-4988-b47e-736b2926b157","system_id":"levelo_inurba_marseille","lat":43.24172,"lon":5.39734,"is_reserved":false,"is_disabled":false,"rental_uris":{"android":"levelo://app?vid=91467fd7-7280-4988-b47e-736b2926b157","ios":"levelo://app?vid=91467fd7-7280-4988-b47e-736b2926b157"},"vehicle_type_id":"4","last_reported":1731064035,"current_range_meters":32000,"station_id":"ce4bhn12rcd13ifvqgpg","pricing_plan_id":"cebpf4jnsgd1na2vs0mg"},{"bike_id":"a3a653f3-c027-47c2-92ec-f59a4ce1d26d","system_id":"levelo_inurba_marseille","lat":43.26557,"lon":5.3729,"is_reserved":false,"is_disabled":false,"rental_uris":{"android":"levelo://app?vid=a3a653f3-c027-47c2-92ec-f59a4ce1d26d","ios":"levelo://app?vid=a3a653f3-c027-47c2-92ec-f59a4ce1d26d"},"vehicle_type_id":"4","last_reported":1731064035,"current_range_meters":31200,"station_id":"ce4bhg12rcd13ifvqf70","pricing_plan_id":"cebpf4jnsgd1na2vs0mg"},{"bike_id":"48c28cb6-2ae6-4852-a70e-27e8f1ebe5dd","system_id":"levelo_inurba_marseille","lat":43.293684,"lon":5.378578,"is_reserved":false,"is_disabled":false,"rental_uris":{"android":"levelo://app?vid=48c28cb6-2ae6-4852-a70e-27e8f1ebe5dd","ios":"levelo://app?vid=48c28cb6-2ae6-4852-a70e-27e8f1ebe5dd"},"vehicle_type_id":"4","last_reported":1731064035,"current_range_meters":21600,"station_id":"ce4bgih2rcd13ifvqba0","pricing_plan_id":"cebpf4jnsgd1na2vs0mg"},{"bike_id":"c68419ae-5304-473c-904a-721cc7490645","system_id":"levelo_inurba_marseille","lat":43.26556,"lon":5.37283,"is_reserved":false,"is_disabled":false,"rental_uris":{"android":"levelo://app?vid=c68419ae-5304-473c-904a-721cc7490645","ios":"levelo://app?vid=c68419ae-5304-473c-904a-721cc7490645"},"vehicle_type_id":"4","last_reported":1731064035,"current_range_meters":27200,"station_id":"ce4bhg12rcd13ifvqf70","pricing_plan_id":"cebpf4jnsgd1na2vs0mg"},{"bike_id":"b4a9b982-0d09-4959-9186-3153c383a403","system_id":"levelo_inurba_marseille","lat":43.2396,"lon":5.36629,"is_reserved":false,"is_disabled":false,"rental_uris":{"android":"levelo://app?vid=b4a9b982-0d09-4959-9186-3153c383a403","ios":"levelo://app?vid=b4a9b982-0d09-4959-9186-3153c383a403"},"vehicle_type_id":"4","last_reported":1731064035,"current_range_meters":21600,"station_id":"ce4bhi12rcd13ifvqfp0","pricing_plan_id":"cebpf4jnsgd1na2vs0mg"},{"bike_id":"79738a20-79ee-4196-a4da-3e4548f85bb9","system_id":"levelo_inurba_marseille","lat":43.295501,"lon":5.374743,"is_reserved":false,"is_disabled":false,"rental_uris":{"android":"levelo://app?vid=79738a20-79ee-4196-a4da-3e4548f85bb9","ios":"levelo://app?vid=79738a20-79ee-4196-a4da-3e4548f85bb9"},"vehicle_type_id":"4","last_reported":1731064035,"current_range_meters":2800,"station_id":"ce4bgkp2rcd13ifvqbmg","pricing_plan_id":"cebpf4jnsgd1na2vs0mg"},{"bike_id":"60d28e21-5e2f-4a06-b267-fa43c6b5c374","system_id":"levelo_inurba_marseille","lat":43.28255,"lon":5.35055,"is_reserved":false,"is_disabled":false,"rental_uris":{"android":"levelo://app?vid=60d28e21-5e2f-4a06-b267-fa43c6b5c374","ios":"levelo://app?vid=60d28e21-5e2f-4a06-b267-fa43c6b5c374"},"vehicle_type_id":"4","last_reported":1731064035,"current_range_meters":6400,"station_id":"ce4bhbp2rcd13ifvqerg","pricing_plan_id":"cebpf4jnsgd1na2vs0mg"},{"bike_id":"f2b88fdd-2e0b-4b5e-888c-35155555732c","system_id":"levelo_inurba_marseille","lat":43.31997,"lon":5.38156,"is_reserved":false,"is_disabled":false,"rental_uris":{"android":"levelo://app?vid=f2b88fdd-2e0b-4b5e-888c-35155555732c","ios":"levelo://app?vid=f2b88fdd-2e0b-4b5e-888c-35155555732c"},"vehicle_type_id":"4","last_reported":1731064035,"current_range_meters":35600,"station_id":"ce4bhr12rcd13ifvqhpg","pricing_plan_id":"cebpf4jnsgd1na2vs0mg"},{"bike_id":"deb6fd55-6624-4362-8704-677f2e675800","system_id":"levelo_inurba_marseille","lat":43.29785,"lon":5.38099,"is_reserved":false,"is_disabled":false,"rental_uris":{"android":"levelo://app?vid=deb6fd55-6624-4362-8704-677f2e675800","ios":"levelo://app?vid=deb6fd55-6624-4362-8704-677f2e675800"},"vehicle_type_id":"4","last_reported":1731064035,"current_range_meters":17200,"station_id":"ce4bgip2rcd13ifvqbb0","pricing_plan_id":"cebpf4jnsgd1na2vs0mg"},{"bike_id":"db981da9-5b19-41da-85b4-0825a6e71150","system_id":"levelo_inurba_marseille","lat":43.27505,"lon":5.42454,"is_reserved":false,"is_disabled":false,"rental_uris":{"android":"levelo://app?vid=db981da9-5b19-41da-85b4-0825a6e71150","ios":"levelo://app?vid=db981da9-5b19-41da-85b4-0825a6e71150"},"vehicle_type_id":"4","last_reported":1731064035,"current_range_meters":12000,"station_id":"ce4bhn92rcd13ifvqgrg","pricing_plan_id":"cebpf4jnsgd1na2vs0mg"},{"bike_id":"de0fc64f-7cd2-46fd-ae35-74aa6d0e9e58","system_id":"levelo_inurba_marseille","lat":43.26681,"lon":5.38267,"is_reserved":false,"is_disabled":false,"rental_uris":{"android":"levelo://app?vid=de0fc64f-7cd2-46fd-ae35-74aa6d0e9e58","ios":"levelo://app?vid=de0fc64f-7cd2-46fd-ae35-74aa6d0e9e58"},"vehicle_type_id":"4","last_reported":1731064035,"current_range_meters":38800,"station_id":"ce4bhg92rcd13ifvqf90","pricing_plan_id":"cebpf4jnsgd1na2vs0mg"},{"bike_id":"a22c8628-4bc0-44b2-be4c-984ffb516df0","system_id":"levelo_inurba_marseille","lat":43.28723,"lon":5.36075,"is_reserved":false,"is_disabled":false,"rental_uris":{"android":"levelo://app?vid=a22c8628-4bc0-44b2-be4c-984ffb516df0","ios":"levelo://app?vid=a22c8628-4bc0-44b2-be4c-984ffb516df0"},"vehicle_type_id":"4","last_reported":1731064035,"current_range_meters":36800,"station_id":"cki0cbj6b192h4jlfktg","pricing_plan_id":"cebpf4jnsgd1na2vs0mg"},{"bike_id":"065cc511-f6c2-41de-9ebc-8db637bb7c30","system_id":"levelo_inurba_marseille","lat":43.30137,"lon":5.37422,"is_reserved":false,"is_disabled":false,"rental_uris":{"android":"levelo://app?vid=065cc511-f6c2-41de-9ebc-8db637bb7c30","ios":"levelo://app?vid=065cc511-f6c2-41de-9ebc-8db637bb7c30"},"vehicle_type_id":"4","last_reported":1731064035,"current_range_meters":18000,"station_id":"ce4bgs92rcd13ifvqcc0","pricing_plan_id":"cebpf4jnsgd1na2vs0mg"},{"bike_id":"49c8e9f7-590f-40a8-bfa4-3cc87e4e2150","system_id":"levelo_inurba_marseille","lat":43.31355,"lon":5.38495,"is_reserved":false,"is_disabled":false,"rental_uris":{"android":"levelo://app?vid=49c8e9f7-590f-40a8-bfa4-3cc87e4e2150","ios":"levelo://app?vid=49c8e9f7-590f-40a8-bfa4-3cc87e4e2150"},"vehicle_type_id":"4","last_reported":1731064035,"current_range_meters":31200,"station_id":"ce4bgt92rcd13ifvqcf0","pricing_plan_id":"cebpf4jnsgd1na2vs0mg"},{"bike_id":"04cd3841-a84b-4b91-bc27-bb10f63e2a0f","system_id":"levelo_inurba_marseille","lat":43.26806,"lon":5.40273,"is_reserved":false,"is_disabled":false,"rental_uris":{"android":"levelo://app?vid=04cd3841-a84b-4b91-bc27-bb10f63e2a0f","ios":"levelo://app?vid=04cd3841-a84b-4b91-bc27-bb10f63e2a0f"},"vehicle_type_id":"4","last_reported":1731064035,"current_range_meters":28000,"station_id":"ce501612rcd8frsf0b60","pricing_plan_id":"cebpf4jnsgd1na2vs0mg"},{"bike_id":"781005c8-e92d-4538-ad39-54fa82b03703","system_id":"levelo_inurba_marseille","lat":43.3028,"lon":5.3769,"is_reserved":false,"is_disabled":false,"rental_uris":{"android":"levelo://app?vid=781005c8-e92d-4538-ad39-54fa82b03703","ios":"levelo://app?vid=781005c8-e92d-4538-ad39-54fa82b03703"},"vehicle_type_id":"4","last_reported":1731064035,"current_range_meters":38800,"station_id":"ce4bguh2rcd13ifvqcj0","pricing_plan_id":"cebpf4jnsgd1na2vs0mg"},{"bike_id":"2fe77fe1-22de-4287-b409-02ccb832da80","system_id":"levelo_inurba_marseille","lat":43.2991,"lon":5.37478,"is_reserved":false,"is_disabled":false,"rental_uris":{"android":"levelo://app?vid=2fe77fe1-22de-4287-b409-02ccb832da80","ios":"levelo://app?vid=2fe77fe1-22de-4287-b409-02ccb832da80"},"vehicle_type_id":"4","last_reported":1731064035,"current_range_meters":39200,"station_id":"ce4bgjh2rcd13ifvqbg0","pricing_plan_id":"cebpf4jnsgd1na2vs0mg"},{"bike_id":"4d15416b-0c4f-454d-8d2b-90eb59749104","system_id":"levelo_inurba_marseille","lat":43.30528,"lon":5.36534,"is_reserved":false,"is_disabled":false,"rental_uris":{"android":"levelo://app?vid=4d15416b-0c4f-454d-8d2b-90eb59749104","ios":"levelo://app?vid=4d15416b-0c4f-454d-8d2b-90eb59749104"},"vehicle_type_id":"4","last_reported":1731064035,"current_range_meters":36800,"station_id":"ce4bgs12rcd13ifvqcag","pricing_plan_id":"cebpf4jnsgd1na2vs0mg"},{"bike_id":"b5e5b3d6-763e-4b46-9370-e5773670db10","system_id":"levelo_inurba_marseille","lat":43.25722,"lon":5.41111,"is_reserved":false,"is_disabled":false,"rental_uris":{"android":"levelo://app?vid=b5e5b3d6-763e-4b46-9370-e5773670db10","ios":"levelo://app?vid=b5e5b3d6-763e-4b46-9370-e5773670db10"},"vehicle_type_id":"4","last_reported":1731064035,"current_range_meters":37600,"station_id":"ce4bhkp2rcd13ifvqgd0","pricing_plan_id":"cebpf4jnsgd1na2vs0mg"},{"bike_id":"29824cde-4cdc-4355-9b22-a5922a403deb","system_id":"levelo_inurba_marseille","lat":43.337444,"lon":5.374475,"is_reserved":false,"is_disabled":false,"rental_uris":{"android":"levelo://app?vid=29824cde-4cdc-4355-9b22-a5922a403deb","ios":"levelo://app?vid=29824cde-4cdc-4355-9b22-a5922a403deb"},"vehicle_type_id":"4","last_reported":1731064035,"current_range_meters":38400,"station_id":"","pricing_plan_id":"cebpf4jnsgd1na2vs0mg"},{"bike_id":"49b1a6ec-c2a2-4eca-bc72-81c8fc4fb330","system_id":"levelo_inurba_marseille","lat":43.28331,"lon":5.38104,"is_reserved":false,"is_disabled":false,"rental_uris":{"android":"levelo://app?vid=49b1a6ec-c2a2-4eca-bc72-81c8fc4fb330","ios":"levelo://app?vid=49b1a6ec-c2a2-4eca-bc72-81c8fc4fb330"},"vehicle_type_id":"4","last_reported":1731064035,"current_range_meters":38800,"station_id":"ce4bh412rcd13ifvqdr0","pricing_plan_id":"cebpf4jnsgd1na2vs0mg"},{"bike_id":"80d5c89e-745d-46d6-9ab9-4f5ea40b6def","system_id":"levelo_inurba_marseille","lat":43.27177,"lon":5.40993,"is_reserved":false,"is_disabled":false,"rental_uris":{"android":"levelo://app?vid=80d5c89e-745d-46d6-9ab9-4f5ea40b6def","ios":"levelo://app?vid=80d5c89e-745d-46d6-9ab9-4f5ea40b6def"},"vehicle_type_id":"4","last_reported":1731064035,"current_range_meters":36800,"station_id":"ce4bhl12rcd13ifvqgf0","pricing_plan_id":"cebpf4jnsgd1na2vs0mg"},{"bike_id":"eccb9bf1-4a0c-4df5-8229-bf46f21c4329","system_id":"levelo_inurba_marseille","lat":43.31717,"lon":5.42407,"is_reserved":false,"is_disabled":false,"rental_uris":{"android":"levelo://app?vid=eccb9bf1-4a0c-4df5-8229-bf46f21c4329","ios":"levelo://app?vid=eccb9bf1-4a0c-4df5-8229-bf46f21c4329"},"vehicle_type_id":"4","last_reported":1731064035,"current_range_meters":38000,"station_id":"ce4bhp92rcd13ifvqhbg","pricing_plan_id":"cebpf4jnsgd1na2vs0mg"},{"bike_id":"ef288286-229d-4b9a-a189-8d61840dcffb","system_id":"levelo_inurba_marseille","lat":43.23189,"lon":5.35549,"is_reserved":false,"is_disabled":false,"rental_uris":{"android":"levelo://app?vid=ef288286-229d-4b9a-a189-8d61840dcffb","ios":"levelo://app?vid=ef288286-229d-4b9a-a189-8d61840dcffb"},"vehicle_type_id":"4","last_reported":1731064035,"current_range_meters":38800,"station_id":"ce4bhu92rcd13ifvqi70","pricing_plan_id":"cebpf4jnsgd1na2vs0mg"},{"bike_id":"984dfa41-8f78-4aa7-bb5b-9cf1a524e318","system_id":"levelo_inurba_marseille","lat":43.278229,"lon":5.406287,"is_reserved":false,"is_disabled":false,"rental_uris":{"android":"levelo://app?vid=984dfa41-8f78-4aa7-bb5b-9cf1a524e318","ios":"levelo://app?vid=984dfa41-8f78-4aa7-bb5b-9cf1a524e318"},"vehicle_type_id":"4","last_reported":1731064035,"current_range_meters":28800,"station_id":"","pricing_plan_id":"cebpf4jnsgd1na2vs0mg"},{"bike_id":"68a16cb1-5aff-45bf-9786-11e01f81ed1f","system_id":"levelo_inurba_marseille","lat":43.337444,"lon":5.374475,"is_reserved":false,"is_disabled":false,"rental_uris":{"android":"levelo://app?vid=68a16cb1-5aff-45bf-9786-11e01f81ed1f","ios":"levelo://app?vid=68a16cb1-5aff-45bf-9786-11e01f81ed1f"},"vehicle_type_id":"4","last_reported":1731064035,"current_range_meters":38000,"station_id":"","pricing_plan_id":"cebpf4jnsgd1na2vs0mg"},{"bike_id":"96e0f11a-99c0-490d-beb0-808dd187abb1","system_id":"levelo_inurba_marseille","lat":43.3078,"lon":5.36863,"is_reserved":false,"is_disabled":false,"rental_uris":{"android":"levelo://app?vid=96e0f11a-99c0-490d-beb0-808dd187abb1","ios":"levelo://app?vid=96e0f11a-99c0-490d-beb0-808dd187abb1"},"vehicle_type_id":"4","last_reported":1731064035,"current_range_meters":35600,"station_id":"ce4bguh2rcd13ifvqckg","pricing_plan_id":"cebpf4jnsgd1na2vs0mg"},{"bike_id":"abb6f704-20e9-4628-aef7-5968c7a6db7d","system_id":"levelo_inurba_marseille","lat":43.306427,"lon":5.40105,"is_reserved":false,"is_disabled":false,"rental_uris":{"android":"levelo://app?vid=abb6f704-20e9-4628-aef7-5968c7a6db7d","ios":"levelo://app?vid=abb6f704-20e9-4628-aef7-5968c7a6db7d"},"vehicle_type_id":"4","last_reported":1731064035,"current_range_meters":32000,"station_id":"ce4bhpp2rcd13ifvqhfg","pricing_plan_id":"cebpf4jnsgd1na2vs0mg"},{"bike_id":"ea45cc8b-b4d1-487c-b970-be2aa0c6eefa","system_id":"levelo_inurba_marseille","lat":43.29286,"lon":5.37463,"is_reserved":false,"is_disabled":false,"rental_uris":{"android":"levelo://app?vid=ea45cc8b-b4d1-487c-b970-be2aa0c6eefa","ios":"levelo://app?vid=ea45cc8b-b4d1-487c-b970-be2aa0c6eefa"},"vehicle_type_id":"4","last_reported":1731064035,"current_range_meters":18000,"station_id":"ce4bgi12rcd13ifvqb70","pricing_plan_id":"cebpf4jnsgd1na2vs0mg"},{"bike_id":"546c522c-d858-4cc2-9ba9-af678b98d67a","system_id":"levelo_inurba_marseille","lat":43.2655,"lon":5.37284,"is_reserved":false,"is_disabled":false,"rental_uris":{"android":"levelo://app?vid=546c522c-d858-4cc2-9ba9-af678b98d67a","ios":"levelo://app?vid=546c522c-d858-4cc2-9ba9-af678b98d67a"},"vehicle_type_id":"4","last_reported":1731064035,"current_range_meters":22800,"station_id":"ce4bhg12rcd13ifvqf70","pricing_plan_id":"cebpf4jnsgd1na2vs0mg"},{"bike_id":"795d93dc-58cd-47d3-954f-fe5d9510e8f0","system_id":"levelo_inurba_marseille","lat":43.23153,"lon":5.4371,"is_reserved":false,"is_disabled":false,"rental_uris":{"android":"levelo://app?vid=795d93dc-58cd-47d3-954f-fe5d9510e8f0","ios":"levelo://app?vid=795d93dc-58cd-47d3-954f-fe5d9510e8f0"},"vehicle_type_id":"4","last_reported":1731064035,"current_range_meters":23200,"station_id":"ce4bhmp2rcd13ifvqgog","pricing_plan_id":"cebpf4jnsgd1na2vs0mg"},{"bike_id":"1cf528f7-2b3e-40ea-b06a-3db5faa6e0af","system_id":"levelo_inurba_marseille","lat":43.30545,"lon":5.36694,"is_reserved":false,"is_disabled":false,"rental_uris":{"android":"levelo://app?vid=1cf528f7-2b3e-40ea-b06a-3db5faa6e0af","ios":"levelo://app?vid=1cf528f7-2b3e-40ea-b06a-3db5faa6e0af"},"vehicle_type_id":"4","last_reported":1731064035,"current_range_meters":24400,"station_id":"ce4bgrp2rcd13ifvqc9g","pricing_plan_id":"cebpf4jnsgd1na2vs0mg"},{"bike_id":"4be4a1fd-4cef-4fb5-8749-3bacc59f2b16","system_id":"levelo_inurba_marseille","lat":43.27059,"lon":5.40257,"is_reserved":false,"is_disabled":false,"rental_uris":{"android":"levelo://app?vid=4be4a1fd-4cef-4fb5-8749-3bacc59f2b16","ios":"levelo://app?vid=4be4a1fd-4cef-4fb5-8749-3bacc59f2b16"},"vehicle_type_id":"4","last_reported":1731064035,"current_range_meters":8400,"station_id":"ce4bhk92rcd13ifvqgc0","pricing_plan_id":"cebpf4jnsgd1na2vs0mg"},{"bike_id":"f159a216-3f34-4840-a87f-14cfda860195","system_id":"levelo_inurba_marseille","lat":43.307983,"lon":5.435309,"is_reserved":false,"is_disabled":false,"rental_uris":{"android":"levelo://app?vid=f159a216-3f34-4840-a87f-14cfda860195","ios":"levelo://app?vid=f159a216-3f34-4840-a87f-14cfda860195"},"vehicle_type_id":"4","last_reported":1731064035,"current_range_meters":36000,"station_id":"ce4bhph2rcd13ifvqheg","pricing_plan_id":"cebpf4jnsgd1na2vs0mg"},{"bike_id":"12ab8a2b-bf2e-44a7-8096-67ee8e37b5b1","system_id":"levelo_inurba_marseille","lat":43.26942,"lon":5.40247,"is_reserved":false,"is_disabled":false,"rental_uris":{"android":"levelo://app?vid=12ab8a2b-bf2e-44a7-8096-67ee8e37b5b1","ios":"levelo://app?vid=12ab8a2b-bf2e-44a7-8096-67ee8e37b5b1"},"vehicle_type_id":"4","last_reported":1731064035,"current_range_meters":38800,"station_id":"cjm6bp8fraef2m0cb0m0","pricing_plan_id":"cebpf4jnsgd1na2vs0mg"},{"bike_id":"841c9df1-f0db-4c1b-b9a9-575f56c5769d","system_id":"levelo_inurba_marseille","lat":43.29198,"lon":5.39328,"is_reserved":false,"is_disabled":false,"rental_uris":{"android":"levelo://app?vid=841c9df1-f0db-4c1b-b9a9-575f56c5769d","ios":"levelo://app?vid=841c9df1-f0db-4c1b-b9a9-575f56c5769d"},"vehicle_type_id":"4","last_reported":1731064035,"current_range_meters":38400,"station_id":"ce4bh192rcd13ifvqdd0","pricing_plan_id":"cebpf4jnsgd1na2vs0mg"},{"bike_id":"8faa22dc-5f3c-4af6-b84b-f554e09d6313","system_id":"levelo_inurba_marseille","lat":43.337444,"lon":5.374475,"is_reserved":false,"is_disabled":false,"rental_uris":{"android":"levelo://app?vid=8faa22dc-5f3c-4af6-b84b-f554e09d6313","ios":"levelo://app?vid=8faa22dc-5f3c-4af6-b84b-f554e09d6313"},"vehicle_type_id":"4","last_reported":1731064035,"current_range_meters":38400,"station_id":"","pricing_plan_id":"cebpf4jnsgd1na2vs0mg"},{"bike_id":"ed6a1554-d58d-47e7-b608-91e0c82235ff","system_id":"levelo_inurba_marseille","lat":43.29292,"lon":5.37461,"is_reserved":false,"is_disabled":false,"rental_uris":{"android":"levelo://app?vid=ed6a1554-d58d-47e7-b608-91e0c82235ff","ios":"levelo://app?vid=ed6a1554-d58d-47e7-b608-91e0c82235ff"},"vehicle_type_id":"4","last_reported":1731064035,"current_range_meters":28800,"station_id":"ce4bgi12rcd13ifvqb70","pricing_plan_id":"cebpf4jnsgd1na2vs0mg"},{"bike_id":"4eecdf01-2312-4036-b477-5b5650016af3","system_id":"levelo_inurba_marseille","lat":43.28334,"lon":5.38094,"is_reserved":false,"is_disabled":false,"rental_uris":{"android":"levelo://app?vid=4eecdf01-2312-4036-b477-5b5650016af3","ios":"levelo://app?vid=4eecdf01-2312-4036-b477-5b5650016af3"},"vehicle_type_id":"4","last_reported":1731064035,"current_range_meters":38000,"station_id":"ce4bh412rcd13ifvqdr0","pricing_plan_id":"cebpf4jnsgd1na2vs0mg"},{"bike_id":"1260319e-875a-495e-866b-01a112f4bbd0","system_id":"levelo_inurba_marseille","lat":43.29574,"lon":5.37498,"is_reserved":false,"is_disabled":false,"rental_uris":{"android":"levelo://app?vid=1260319e-875a-495e-866b-01a112f4bbd0","ios":"levelo://app?vid=1260319e-875a-495e-866b-01a112f4bbd0"},"vehicle_type_id":"4","last_reported":1731064035,"current_range_meters":37600,"station_id":"ce4bgh92rcd13ifvqb50","pricing_plan_id":"cebpf4jnsgd1na2vs0mg"},{"bike_id":"959d59bd-f72f-4994-94f8-56a070a04e8a","system_id":"levelo_inurba_marseille","lat":43.23148,"lon":5.43709,"is_reserved":false,"is_disabled":false,"rental_uris":{"android":"levelo://app?vid=959d59bd-f72f-4994-94f8-56a070a04e8a","ios":"levelo://app?vid=959d59bd-f72f-4994-94f8-56a070a04e8a"},"vehicle_type_id":"4","last_reported":1731064035,"current_range_meters":24400,"station_id":"ce4bhmp2rcd13ifvqgog","pricing_plan_id":"cebpf4jnsgd1na2vs0mg"},{"bike_id":"e7cd005d-d362-4c36-a955-3c59f122a64d","system_id":"levelo_inurba_marseille","lat":43.28154,"lon":5.4264,"is_reserved":false,"is_disabled":false,"rental_uris":{"android":"levelo://app?vid=e7cd005d-d362-4c36-a955-3c59f122a64d","ios":"levelo://app?vid=e7cd005d-d362-4c36-a955-3c59f122a64d"},"vehicle_type_id":"4","last_reported":1731064035,"current_range_meters":25600,"station_id":"ce4bhnh2rcd13ifvqgug","pricing_plan_id":"cebpf4jnsgd1na2vs0mg"},{"bike_id":"d1fe14ed-13c3-4535-90af-3f1b5eee58a8","system_id":"levelo_inurba_marseille","lat":43.27989,"lon":5.41656,"is_reserved":false,"is_disabled":false,"rental_uris":{"android":"levelo://app?vid=d1fe14ed-13c3-4535-90af-3f1b5eee58a8","ios":"levelo://app?vid=d1fe14ed-13c3-4535-90af-3f1b5eee58a8"},"vehicle_type_id":"4","last_reported":1731064035,"current_range_meters":6400,"station_id":"ce4bho12rcd13ifvqh1g","pricing_plan_id":"cebpf4jnsgd1na2vs0mg"},{"bike_id":"fb06b436-1a4d-4d0e-ba5c-4a4d9060c046","system_id":"levelo_inurba_marseille","lat":43.230724,"lon":5.354971,"is_reserved":false,"is_disabled":false,"rental_uris":{"android":"levelo://app?vid=fb06b436-1a4d-4d0e-ba5c-4a4d9060c046","ios":"levelo://app?vid=fb06b436-1a4d-4d0e-ba5c-4a4d9060c046"},"vehicle_type_id":"4","last_reported":1731064035,"current_range_meters":4800,"station_id":"cpo3342slgdg3j2ifvpg","pricing_plan_id":"cebpf4jnsgd1na2vs0mg"},{"bike_id":"9deff287-2e48-412d-a109-4f4880f11966","system_id":"levelo_inurba_marseille","lat":43.31262,"lon":5.40164,"is_reserved":false,"is_disabled":false,"rental_uris":{"android":"levelo://app?vid=9deff287-2e48-412d-a109-4f4880f11966","ios":"levelo://app?vid=9deff287-2e48-412d-a109-4f4880f11966"},"vehicle_type_id":"4","last_reported":1731064035,"current_range_meters":22800,"station_id":"ce4bh092rcd13ifvqd30","pricing_plan_id":"cebpf4jnsgd1na2vs0mg"},{"bike_id":"71655dbe-ce6c-47d2-97d5-cb062ba24e62","system_id":"levelo_inurba_marseille","lat":43.26048,"lon":5.39393,"is_reserved":false,"is_disabled":false,"rental_uris":{"android":"levelo://app?vid=71655dbe-ce6c-47d2-97d5-cb062ba24e62","ios":"levelo://app?vid=71655dbe-ce6c-47d2-97d5-cb062ba24e62"},"vehicle_type_id":"4","last_reported":1731064035,"current_range_meters":38800,"station_id":"ce4bhh92rcd13ifvqfj0","pricing_plan_id":"cebpf4jnsgd1na2vs0mg"},{"bike_id":"7e3135bb-d8fe-4a72-b755-620b4d0f29f8","system_id":"levelo_inurba_marseille","lat":43.27172,"lon":5.40989,"is_reserved":false,"is_disabled":false,"rental_uris":{"android":"levelo://app?vid=7e3135bb-d8fe-4a72-b755-620b4d0f29f8","ios":"levelo://app?vid=7e3135bb-d8fe-4a72-b755-620b4d0f29f8"},"vehicle_type_id":"4","last_reported":1731064035,"current_range_meters":4400,"station_id":"ce4bhl12rcd13ifvqgf0","pricing_plan_id":"cebpf4jnsgd1na2vs0mg"},{"bike_id":"c7022000-40bb-4946-aca4-3a5058fa7b80","system_id":"levelo_inurba_marseille","lat":43.26551,"lon":5.37285,"is_reserved":false,"is_disabled":false,"rental_uris":{"android":"levelo://app?vid=c7022000-40bb-4946-aca4-3a5058fa7b80","ios":"levelo://app?vid=c7022000-40bb-4946-aca4-3a5058fa7b80"},"vehicle_type_id":"4","last_reported":1731064035,"current_range_meters":9200,"station_id":"ce4bhg12rcd13ifvqf70","pricing_plan_id":"cebpf4jnsgd1na2vs0mg"},{"bike_id":"eefd0687-4492-41ad-9368-b877bab02ae1","system_id":"levelo_inurba_marseille","lat":43.312273,"lon":5.36863,"is_reserved":false,"is_disabled":false,"rental_uris":{"android":"levelo://app?vid=eefd0687-4492-41ad-9368-b877bab02ae1","ios":"levelo://app?vid=eefd0687-4492-41ad-9368-b877bab02ae1"},"vehicle_type_id":"4","last_reported":1731064035,"current_range_meters":36000,"station_id":"ce4bgl92rcd13ifvqbq0","pricing_plan_id":"cebpf4jnsgd1na2vs0mg"},{"bike_id":"1ff27a5d-c89d-469c-8b86-4802d98ba224","system_id":"levelo_inurba_marseille","lat":43.337444,"lon":5.374475,"is_reserved":false,"is_disabled":false,"rental_uris":{"android":"levelo://app?vid=1ff27a5d-c89d-469c-8b86-4802d98ba224","ios":"levelo://app?vid=1ff27a5d-c89d-469c-8b86-4802d98ba224"},"vehicle_type_id":"4","last_reported":1731064035,"current_range_meters":27600,"station_id":"ce4bgup2rcd13ifvqco0","pricing_plan_id":"cebpf4jnsgd1na2vs0mg"},{"bike_id":"1f3ba906-6e07-4370-b207-43e1aae1c14a","system_id":"levelo_inurba_marseille","lat":43.31337,"lon":5.36728,"is_reserved":false,"is_disabled":false,"rental_uris":{"android":"levelo://app?vid=1f3ba906-6e07-4370-b207-43e1aae1c14a","ios":"levelo://app?vid=1f3ba906-6e07-4370-b207-43e1aae1c14a"},"vehicle_type_id":"4","last_reported":1731064035,"current_range_meters":12400,"station_id":"ce4bgr92rcd13ifvqc6g","pricing_plan_id":"cebpf4jnsgd1na2vs0mg"},{"bike_id":"d6fdae69-642e-4d84-a8fd-edeb75ed0ef4","system_id":"levelo_inurba_marseille","lat":43.22932,"lon":5.35376,"is_reserved":false,"is_disabled":false,"rental_uris":{"android":"levelo://app?vid=d6fdae69-642e-4d84-a8fd-edeb75ed0ef4","ios":"levelo://app?vid=d6fdae69-642e-4d84-a8fd-edeb75ed0ef4"},"vehicle_type_id":"4","last_reported":1731064035,"current_range_meters":38800,"station_id":"cpo3532slgdg3j2ikp40","pricing_plan_id":"cebpf4jnsgd1na2vs0mg"},{"bike_id":"bdc2614c-f690-4a70-b4fe-4ce04e111f7f","system_id":"levelo_inurba_marseille","lat":43.31327,"lon":5.36725,"is_reserved":false,"is_disabled":false,"rental_uris":{"android":"levelo://app?vid=bdc2614c-f690-4a70-b4fe-4ce04e111f7f","ios":"levelo://app?vid=bdc2614c-f690-4a70-b4fe-4ce04e111f7f"},"vehicle_type_id":"4","last_reported":1731064035,"current_range_meters":39200,"station_id":"ce4bgr92rcd13ifvqc6g","pricing_plan_id":"cebpf4jnsgd1na2vs0mg"},{"bike_id":"bb44c556-a5f4-4b7f-b745-d43a6d5511b2","system_id":"levelo_inurba_marseille","lat":43.2732,"lon":5.39101,"is_reserved":false,"is_disabled":false,"rental_uris":{"android":"levelo://app?vid=bb44c556-a5f4-4b7f-b745-d43a6d5511b2","ios":"levelo://app?vid=bb44c556-a5f4-4b7f-b745-d43a6d5511b2"},"vehicle_type_id":"4","last_reported":1731064035,"current_range_meters":39200,"station_id":"ce4bhgp2rcd13ifvqfe0","pricing_plan_id":"cebpf4jnsgd1na2vs0mg"},{"bike_id":"86d64521-d332-4842-b4fb-5fa4820d8c81","system_id":"levelo_inurba_marseille","lat":43.337444,"lon":5.374475,"is_reserved":false,"is_disabled":false,"rental_uris":{"android":"levelo://app?vid=86d64521-d332-4842-b4fb-5fa4820d8c81","ios":"levelo://app?vid=86d64521-d332-4842-b4fb-5fa4820d8c81"},"vehicle_type_id":"4","last_reported":1731064035,"current_range_meters":38000,"station_id":"","pricing_plan_id":"cebpf4jnsgd1na2vs0mg"},{"bike_id":"bde08989-23ea-4b54-bef5-ef219bd6bfde","system_id":"levelo_inurba_marseille","lat":43.25501,"lon":5.37651,"is_reserved":false,"is_disabled":false,"rental_uris":{"android":"levelo://app?vid=bde08989-23ea-4b54-bef5-ef219bd6bfde","ios":"levelo://app?vid=bde08989-23ea-4b54-bef5-ef219bd6bfde"},"vehicle_type_id":"4","last_reported":1731064035,"current_range_meters":24000,"station_id":"ce4bhh12rcd13ifvqff0","pricing_plan_id":"cebpf4jnsgd1na2vs0mg"},{"bike_id":"9b73f4a7-bd7e-46c7-9f9d-5e7ba5c5b218","system_id":"levelo_inurba_marseille","lat":43.2958,"lon":5.36742,"is_reserved":false,"is_disabled":false,"rental_uris":{"android":"levelo://app?vid=9b73f4a7-bd7e-46c7-9f9d-5e7ba5c5b218","ios":"levelo://app?vid=9b73f4a7-bd7e-46c7-9f9d-5e7ba5c5b218"},"vehicle_type_id":"4","last_reported":1731064035,"current_range_meters":30800,"station_id":"ce4bgph2rcd13ifvqc2g","pricing_plan_id":"cebpf4jnsgd1na2vs0mg"},{"bike_id":"c4ac7b5f-13b8-480f-a908-40d55e68e3a7","system_id":"levelo_inurba_marseille","lat":43.28483,"lon":5.38421,"is_reserved":false,"is_disabled":false,"rental_uris":{"android":"levelo://app?vid=c4ac7b5f-13b8-480f-a908-40d55e68e3a7","ios":"levelo://app?vid=c4ac7b5f-13b8-480f-a908-40d55e68e3a7"},"vehicle_type_id":"4","last_reported":1731064035,"current_range_meters":12400,"station_id":"ce4bh512rcd13ifvqe3g","pricing_plan_id":"cebpf4jnsgd1na2vs0mg"},{"bike_id":"80f88f91-d648-453a-88b2-cfa7d57ba25b","system_id":"levelo_inurba_marseille","lat":43.23181,"lon":5.39991,"is_reserved":false,"is_disabled":false,"rental_uris":{"android":"levelo://app?vid=80f88f91-d648-453a-88b2-cfa7d57ba25b","ios":"levelo://app?vid=80f88f91-d648-453a-88b2-cfa7d57ba25b"},"vehicle_type_id":"4","last_reported":1731064035,"current_range_meters":24400,"station_id":"ce4bhn12rcd13ifvqgqg","pricing_plan_id":"cebpf4jnsgd1na2vs0mg"},{"bike_id":"0aff79ea-edc2-45be-8f84-f1663ce96f84","system_id":"levelo_inurba_marseille","lat":43.31351,"lon":5.38482,"is_reserved":false,"is_disabled":false,"rental_uris":{"android":"levelo://app?vid=0aff79ea-edc2-45be-8f84-f1663ce96f84","ios":"levelo://app?vid=0aff79ea-edc2-45be-8f84-f1663ce96f84"},"vehicle_type_id":"4","last_reported":1731064035,"current_range_meters":22800,"station_id":"ce4bgt92rcd13ifvqcf0","pricing_plan_id":"cebpf4jnsgd1na2vs0mg"},{"bike_id":"d6e0b3db-764d-4a45-ac0f-71d2bad2610c","system_id":"levelo_inurba_marseille","lat":43.30418,"lon":5.3975,"is_reserved":false,"is_disabled":false,"rental_uris":{"android":"levelo://app?vid=d6e0b3db-764d-4a45-ac0f-71d2bad2610c","ios":"levelo://app?vid=d6e0b3db-764d-4a45-ac0f-71d2bad2610c"},"vehicle_type_id":"4","last_reported":1731064035,"current_range_meters":34000,"station_id":"ce4bh092rcd13ifvqd20","pricing_plan_id":"cebpf4jnsgd1na2vs0mg"},{"bike_id":"30c759a2-6df1-49dd-8b4a-2f09b3c85fab","system_id":"levelo_inurba_marseille","lat":43.28111,"lon":5.37832,"is_reserved":false,"is_disabled":false,"rental_uris":{"android":"levelo://app?vid=30c759a2-6df1-49dd-8b4a-2f09b3c85fab","ios":"levelo://app?vid=30c759a2-6df1-49dd-8b4a-2f09b3c85fab"},"vehicle_type_id":"4","last_reported":1731064035,"current_range_meters":28000,"station_id":"ce4bha12rcd13ifvqee0","pricing_plan_id":"cebpf4jnsgd1na2vs0mg"},{"bike_id":"c85efc68-938d-4596-8c3f-229a875f048d","system_id":"levelo_inurba_marseille","lat":43.2721,"lon":5.39191,"is_reserved":false,"is_disabled":false,"rental_uris":{"android":"levelo://app?vid=c85efc68-938d-4596-8c3f-229a875f048d","ios":"levelo://app?vid=c85efc68-938d-4596-8c3f-229a875f048d"},"vehicle_type_id":"4","last_reported":1731064035,"current_range_meters":14000,"station_id":"ce4bhhp2rcd13ifvqfm0","pricing_plan_id":"cebpf4jnsgd1na2vs0mg"},{"bike_id":"73ab35f1-bfdb-4678-85b3-28a9d7db8a08","system_id":"levelo_inurba_marseille","lat":43.28417,"lon":5.34989,"is_reserved":false,"is_disabled":false,"rental_uris":{"android":"levelo://app?vid=73ab35f1-bfdb-4678-85b3-28a9d7db8a08","ios":"levelo://app?vid=73ab35f1-bfdb-4678-85b3-28a9d7db8a08"},"vehicle_type_id":"4","last_reported":1731064035,"current_range_meters":34000,"station_id":"ce4bhbh2rcd13ifvqepg","pricing_plan_id":"cebpf4jnsgd1na2vs0mg"},{"bike_id":"c0ff6ac5-e73d-4157-b6f1-8368225d277a","system_id":"levelo_inurba_marseille","lat":43.24996,"lon":5.3894,"is_reserved":false,"is_disabled":false,"rental_uris":{"android":"levelo://app?vid=c0ff6ac5-e73d-4157-b6f1-8368225d277a","ios":"levelo://app?vid=c0ff6ac5-e73d-4157-b6f1-8368225d277a"},"vehicle_type_id":"4","last_reported":1731064035,"current_range_meters":8800,"station_id":"ce4bhgp2rcd13ifvqfd0","pricing_plan_id":"cebpf4jnsgd1na2vs0mg"},{"bike_id":"cae62d25-1c45-42ca-8894-1b5dd145f125","system_id":"levelo_inurba_marseille","lat":43.30278,"lon":5.37694,"is_reserved":false,"is_disabled":false,"rental_uris":{"android":"levelo://app?vid=cae62d25-1c45-42ca-8894-1b5dd145f125","ios":"levelo://app?vid=cae62d25-1c45-42ca-8894-1b5dd145f125"},"vehicle_type_id":"4","last_reported":1731064035,"current_range_meters":39200,"station_id":"ce4bguh2rcd13ifvqcj0","pricing_plan_id":"cebpf4jnsgd1na2vs0mg"},{"bike_id":"2cb320b0-81b9-4856-bcf9-9037aaefbc8a","system_id":"levelo_inurba_marseille","lat":43.2466,"lon":5.38166,"is_reserved":false,"is_disabled":false,"rental_uris":{"android":"levelo://app?vid=2cb320b0-81b9-4856-bcf9-9037aaefbc8a","ios":"levelo://app?vid=2cb320b0-81b9-4856-bcf9-9037aaefbc8a"},"vehicle_type_id":"4","last_reported":1731064035,"current_range_meters":20400,"station_id":"ce4bhih2rcd13ifvqfr0","pricing_plan_id":"cebpf4jnsgd1na2vs0mg"},{"bike_id":"13ad741b-5269-4348-a9e8-09ad65ab743f","system_id":"levelo_inurba_marseille","lat":43.23155,"lon":5.43708,"is_reserved":false,"is_disabled":false,"rental_uris":{"android":"levelo://app?vid=13ad741b-5269-4348-a9e8-09ad65ab743f","ios":"levelo://app?vid=13ad741b-5269-4348-a9e8-09ad65ab743f"},"vehicle_type_id":"4","last_reported":1731064035,"current_range_meters":28800,"station_id":"ce4bhmp2rcd13ifvqgog","pricing_plan_id":"cebpf4jnsgd1na2vs0mg"},{"bike_id":"93f22be1-f1d4-40e6-9b32-f90befdc8177","system_id":"levelo_inurba_marseille","lat":43.23154,"lon":5.43714,"is_reserved":false,"is_disabled":false,"rental_uris":{"android":"levelo://app?vid=93f22be1-f1d4-40e6-9b32-f90befdc8177","ios":"levelo://app?vid=93f22be1-f1d4-40e6-9b32-f90befdc8177"},"vehicle_type_id":"4","last_reported":1731064035,"current_range_meters":36400,"station_id":"ce4bhmp2rcd13ifvqgog","pricing_plan_id":"cebpf4jnsgd1na2vs0mg"},{"bike_id":"ec131ae5-88c6-4665-9149-1e69ea03d8aa","system_id":"levelo_inurba_marseille","lat":43.3014,"lon":5.37421,"is_reserved":false,"is_disabled":false,"rental_uris":{"android":"levelo://app?vid=ec131ae5-88c6-4665-9149-1e69ea03d8aa","ios":"levelo://app?vid=ec131ae5-88c6-4665-9149-1e69ea03d8aa"},"vehicle_type_id":"4","last_reported":1731064035,"current_range_meters":24000,"station_id":"ce4bgs92rcd13ifvqcc0","pricing_plan_id":"cebpf4jnsgd1na2vs0mg"},{"bike_id":"eb117832-b879-4edf-8795-86fc8cbbd11e","system_id":"levelo_inurba_marseille","lat":43.27998,"lon":5.40008,"is_reserved":false,"is_disabled":false,"rental_uris":{"android":"levelo://app?vid=eb117832-b879-4edf-8795-86fc8cbbd11e","ios":"levelo://app?vid=eb117832-b879-4edf-8795-86fc8cbbd11e"},"vehicle_type_id":"4","last_reported":1731064035,"current_range_meters":8800,"station_id":"ce4bho92rcd13ifvqh4g","pricing_plan_id":"cebpf4jnsgd1na2vs0mg"},{"bike_id":"42084707-787d-47f2-a181-32f7e0d83fbf","system_id":"levelo_inurba_marseille","lat":43.28456,"lon":5.35889,"is_reserved":false,"is_disabled":false,"rental_uris":{"android":"levelo://app?vid=42084707-787d-47f2-a181-32f7e0d83fbf","ios":"levelo://app?vid=42084707-787d-47f2-a181-32f7e0d83fbf"},"vehicle_type_id":"4","last_reported":1731064035,"current_range_meters":19200,"station_id":"ce4bhah2rcd13ifvqei0","pricing_plan_id":"cebpf4jnsgd1na2vs0mg"},{"bike_id":"e1298e98-38f4-4f03-af86-984cae027c59","system_id":"levelo_inurba_marseille","lat":43.26932,"lon":5.38917,"is_reserved":false,"is_disabled":false,"rental_uris":{"android":"levelo://app?vid=e1298e98-38f4-4f03-af86-984cae027c59","ios":"levelo://app?vid=e1298e98-38f4-4f03-af86-984cae027c59"},"vehicle_type_id":"4","last_reported":1731064035,"current_range_meters":38800,"station_id":"ce4bhhh2rcd13ifvqfl0","pricing_plan_id":"cebpf4jnsgd1na2vs0mg"},{"bike_id":"ee57e61c-d077-4b8f-9842-5b05c01839e5","system_id":"levelo_inurba_marseille","lat":43.27812,"lon":5.40718,"is_reserved":false,"is_disabled":false,"rental_uris":{"android":"levelo://app?vid=ee57e61c-d077-4b8f-9842-5b05c01839e5","ios":"levelo://app?vid=ee57e61c-d077-4b8f-9842-5b05c01839e5"},"vehicle_type_id":"4","last_reported":1731064035,"current_range_meters":12800,"station_id":"ce4bhnh2rcd13ifvqgtg","pricing_plan_id":"cebpf4jnsgd1na2vs0mg"},{"bike_id":"8f3662cb-9945-4af6-a86d-648bac82fa58","system_id":"levelo_inurba_marseille","lat":43.32287,"lon":5.38274,"is_reserved":false,"is_disabled":false,"rental_uris":{"android":"levelo://app?vid=8f3662cb-9945-4af6-a86d-648bac82fa58","ios":"levelo://app?vid=8f3662cb-9945-4af6-a86d-648bac82fa58"},"vehicle_type_id":"4","last_reported":1731064035,"current_range_meters":35200,"station_id":"ce4bhr12rcd13ifvqhqg","pricing_plan_id":"cebpf4jnsgd1na2vs0mg"},{"bike_id":"19c6e086-6200-40ec-9e6b-5c60a6ab3ce6","system_id":"levelo_inurba_marseille","lat":43.30413,"lon":5.39753,"is_reserved":false,"is_disabled":false,"rental_uris":{"android":"levelo://app?vid=19c6e086-6200-40ec-9e6b-5c60a6ab3ce6","ios":"levelo://app?vid=19c6e086-6200-40ec-9e6b-5c60a6ab3ce6"},"vehicle_type_id":"4","last_reported":1731064035,"current_range_meters":36000,"station_id":"ce4bh092rcd13ifvqd20","pricing_plan_id":"cebpf4jnsgd1na2vs0mg"},{"bike_id":"ff72051d-7e8f-46d3-bc5a-ce8f35154003","system_id":"levelo_inurba_marseille","lat":43.28603,"lon":5.35108,"is_reserved":false,"is_disabled":false,"rental_uris":{"android":"levelo://app?vid=ff72051d-7e8f-46d3-bc5a-ce8f35154003","ios":"levelo://app?vid=ff72051d-7e8f-46d3-bc5a-ce8f35154003"},"vehicle_type_id":"4","last_reported":1731064035,"current_range_meters":6400,"station_id":"ce4bhch2rcd13ifvqeug","pricing_plan_id":"cebpf4jnsgd1na2vs0mg"},{"bike_id":"1b23b6c0-9779-4a9c-9ef0-ae7906244709","system_id":"levelo_inurba_marseille","lat":43.32472,"lon":5.36575,"is_reserved":false,"is_disabled":false,"rental_uris":{"android":"levelo://app?vid=1b23b6c0-9779-4a9c-9ef0-ae7906244709","ios":"levelo://app?vid=1b23b6c0-9779-4a9c-9ef0-ae7906244709"},"vehicle_type_id":"4","last_reported":1731064035,"current_range_meters":36800,"station_id":"ce4bhs12rcd13ifvqhvg","pricing_plan_id":"cebpf4jnsgd1na2vs0mg"},{"bike_id":"073db6a0-4e45-4b6c-89c4-2b86f3ebb2f9","system_id":"levelo_inurba_marseille","lat":43.29525,"lon":5.39042,"is_reserved":false,"is_disabled":false,"rental_uris":{"android":"levelo://app?vid=073db6a0-4e45-4b6c-89c4-2b86f3ebb2f9","ios":"levelo://app?vid=073db6a0-4e45-4b6c-89c4-2b86f3ebb2f9"},"vehicle_type_id":"4","last_reported":1731064035,"current_range_meters":19200,"station_id":"ce4bh3p2rcd13ifvqdp0","pricing_plan_id":"cebpf4jnsgd1na2vs0mg"},{"bike_id":"c8eec097-173b-49b6-9351-6e91308980ab","system_id":"levelo_inurba_marseille","lat":43.2511,"lon":5.40321,"is_reserved":false,"is_disabled":false,"rental_uris":{"android":"levelo://app?vid=c8eec097-173b-49b6-9351-6e91308980ab","ios":"levelo://app?vid=c8eec097-173b-49b6-9351-6e91308980ab"},"vehicle_type_id":"4","last_reported":1731064035,"current_range_meters":24400,"station_id":"ce4bhlh2rcd13ifvqgig","pricing_plan_id":"cebpf4jnsgd1na2vs0mg"},{"bike_id":"3fce9907-5a94-48a8-9013-cc802630286d","system_id":"levelo_inurba_marseille","lat":43.31347,"lon":5.36726,"is_reserved":false,"is_disabled":false,"rental_uris":{"android":"levelo://app?vid=3fce9907-5a94-48a8-9013-cc802630286d","ios":"levelo://app?vid=3fce9907-5a94-48a8-9013-cc802630286d"},"vehicle_type_id":"4","last_reported":1731064035,"current_range_meters":22800,"station_id":"ce4bgr92rcd13ifvqc6g","pricing_plan_id":"cebpf4jnsgd1na2vs0mg"},{"bike_id":"d2d58693-8b25-4a43-bf33-e84c7e774b82","system_id":"levelo_inurba_marseille","lat":43.30428,"lon":5.39746,"is_reserved":false,"is_disabled":false,"rental_uris":{"android":"levelo://app?vid=d2d58693-8b25-4a43-bf33-e84c7e774b82","ios":"levelo://app?vid=d2d58693-8b25-4a43-bf33-e84c7e774b82"},"vehicle_type_id":"4","last_reported":1731064035,"current_range_meters":27200,"station_id":"ce4bh092rcd13ifvqd20","pricing_plan_id":"cebpf4jnsgd1na2vs0mg"},{"bike_id":"92bbe5af-b5d9-48fc-afb8-3b15fc8d3190","system_id":"levelo_inurba_marseille","lat":43.31718,"lon":5.42405,"is_reserved":false,"is_disabled":false,"rental_uris":{"android":"levelo://app?vid=92bbe5af-b5d9-48fc-afb8-3b15fc8d3190","ios":"levelo://app?vid=92bbe5af-b5d9-48fc-afb8-3b15fc8d3190"},"vehicle_type_id":"4","last_reported":1731064035,"current_range_meters":28800,"station_id":"ce4bhp92rcd13ifvqhbg","pricing_plan_id":"cebpf4jnsgd1na2vs0mg"},{"bike_id":"75eaf369-4a6d-49f4-92b4-b6d2925b63f9","system_id":"levelo_inurba_marseille","lat":43.29052,"lon":5.37163,"is_reserved":false,"is_disabled":false,"rental_uris":{"android":"levelo://app?vid=75eaf369-4a6d-49f4-92b4-b6d2925b63f9","ios":"levelo://app?vid=75eaf369-4a6d-49f4-92b4-b6d2925b63f9"},"vehicle_type_id":"4","last_reported":1731064035,"current_range_meters":38800,"station_id":"ce4bh5p2rcd13ifvqe4g","pricing_plan_id":"cebpf4jnsgd1na2vs0mg"},{"bike_id":"3354451f-055c-4ed3-84fc-10618a5e1e4c","system_id":"levelo_inurba_marseille","lat":43.29958,"lon":5.38475,"is_reserved":false,"is_disabled":false,"rental_uris":{"android":"levelo://app?vid=3354451f-055c-4ed3-84fc-10618a5e1e4c","ios":"levelo://app?vid=3354451f-055c-4ed3-84fc-10618a5e1e4c"},"vehicle_type_id":"4","last_reported":1731064035,"current_range_meters":37600,"station_id":"ce4bgj92rcd13ifvqbd0","pricing_plan_id":"cebpf4jnsgd1na2vs0mg"},{"bike_id":"ae6411f3-ae31-4f90-8975-cbb8b6d77600","system_id":"levelo_inurba_marseille","lat":43.32482,"lon":5.36556,"is_reserved":false,"is_disabled":false,"rental_uris":{"android":"levelo://app?vid=ae6411f3-ae31-4f90-8975-cbb8b6d77600","ios":"levelo://app?vid=ae6411f3-ae31-4f90-8975-cbb8b6d77600"},"vehicle_type_id":"4","last_reported":1731064035,"current_range_meters":11200,"station_id":"ce4bhs12rcd13ifvqhvg","pricing_plan_id":"cebpf4jnsgd1na2vs0mg"},{"bike_id":"4b918122-42c5-46f4-98ac-7a2d6c6f4495","system_id":"levelo_inurba_marseille","lat":43.25925,"lon":5.4091,"is_reserved":false,"is_disabled":false,"rental_uris":{"android":"levelo://app?vid=4b918122-42c5-46f4-98ac-7a2d6c6f4495","ios":"levelo://app?vid=4b918122-42c5-46f4-98ac-7a2d6c6f4495"},"vehicle_type_id":"4","last_reported":1731064035,"current_range_meters":24800,"station_id":"ce4bhm92rcd13ifvqglg","pricing_plan_id":"cebpf4jnsgd1na2vs0mg"},{"bike_id":"f54bde22-39d9-429c-beb9-5c655cc1564e","system_id":"levelo_inurba_marseille","lat":43.312228,"lon":5.368488,"is_reserved":false,"is_disabled":false,"rental_uris":{"android":"levelo://app?vid=f54bde22-39d9-429c-beb9-5c655cc1564e","ios":"levelo://app?vid=f54bde22-39d9-429c-beb9-5c655cc1564e"},"vehicle_type_id":"4","last_reported":1731064035,"current_range_meters":40000,"station_id":"ce4bgl92rcd13ifvqbq0","pricing_plan_id":"cebpf4jnsgd1na2vs0mg"},{"bike_id":"95148b88-228e-47b1-9a0c-3baa9b1ffef9","system_id":"levelo_inurba_marseille","lat":43.3108,"lon":5.42427,"is_reserved":false,"is_disabled":false,"rental_uris":{"android":"levelo://app?vid=95148b88-228e-47b1-9a0c-3baa9b1ffef9","ios":"levelo://app?vid=95148b88-228e-47b1-9a0c-3baa9b1ffef9"},"vehicle_type_id":"4","last_reported":1731064035,"current_range_meters":32000,"station_id":"ce4bhp92rcd13ifvqhag","pricing_plan_id":"cebpf4jnsgd1na2vs0mg"},{"bike_id":"2807a860-4f15-47e1-86a7-a4f76d364cae","system_id":"levelo_inurba_marseille","lat":43.298697,"lon":5.397331,"is_reserved":false,"is_disabled":false,"rental_uris":{"android":"levelo://app?vid=2807a860-4f15-47e1-86a7-a4f76d364cae","ios":"levelo://app?vid=2807a860-4f15-47e1-86a7-a4f76d364cae"},"vehicle_type_id":"4","last_reported":1731064035,"current_range_meters":14800,"station_id":"ce4bh0h2rcd13ifvqd50","pricing_plan_id":"cebpf4jnsgd1na2vs0mg"},{"bike_id":"d7941fdf-2072-45a7-a371-6646192d9432","system_id":"levelo_inurba_marseille","lat":43.31111,"lon":5.37775,"is_reserved":false,"is_disabled":false,"rental_uris":{"android":"levelo://app?vid=d7941fdf-2072-45a7-a371-6646192d9432","ios":"levelo://app?vid=d7941fdf-2072-45a7-a371-6646192d9432"},"vehicle_type_id":"4","last_reported":1731064035,"current_range_meters":28000,"station_id":"ce4bgt92rcd13ifvqcg0","pricing_plan_id":"cebpf4jnsgd1na2vs0mg"},{"bike_id":"473786c3-ad31-49b4-9f79-6932383050d3","system_id":"levelo_inurba_marseille","lat":43.29371,"lon":5.37847,"is_reserved":false,"is_disabled":false,"rental_uris":{"android":"levelo://app?vid=473786c3-ad31-49b4-9f79-6932383050d3","ios":"levelo://app?vid=473786c3-ad31-49b4-9f79-6932383050d3"},"vehicle_type_id":"4","last_reported":1731064035,"current_range_meters":37600,"station_id":"ce4bgjh2rcd13ifvqbf0","pricing_plan_id":"cebpf4jnsgd1na2vs0mg"},{"bike_id":"27a50299-178b-461c-8bfe-e9c0249ffc99","system_id":"levelo_inurba_marseille","lat":43.28041,"lon":5.36943,"is_reserved":false,"is_disabled":false,"rental_uris":{"android":"levelo://app?vid=27a50299-178b-461c-8bfe-e9c0249ffc99","ios":"levelo://app?vid=27a50299-178b-461c-8bfe-e9c0249ffc99"},"vehicle_type_id":"4","last_reported":1731064035,"current_range_meters":14000,"station_id":"ce4bha12rcd13ifvqef0","pricing_plan_id":"cebpf4jnsgd1na2vs0mg"},{"bike_id":"224b4f9b-8964-41f7-a92d-d6f79ed1277c","system_id":"levelo_inurba_marseille","lat":43.33603,"lon":5.41022,"is_reserved":false,"is_disabled":false,"rental_uris":{"android":"levelo://app?vid=224b4f9b-8964-41f7-a92d-d6f79ed1277c","ios":"levelo://app?vid=224b4f9b-8964-41f7-a92d-d6f79ed1277c"},"vehicle_type_id":"4","last_reported":1731064035,"current_range_meters":19600,"station_id":"ce4bhqh2rcd13ifvqhmg","pricing_plan_id":"cebpf4jnsgd1na2vs0mg"},{"bike_id":"a2a161e1-be15-4ee2-a638-37ebdf866f3e","system_id":"levelo_inurba_marseille","lat":43.29301,"lon":5.37177,"is_reserved":false,"is_disabled":false,"rental_uris":{"android":"levelo://app?vid=a2a161e1-be15-4ee2-a638-37ebdf866f3e","ios":"levelo://app?vid=a2a161e1-be15-4ee2-a638-37ebdf866f3e"},"vehicle_type_id":"4","last_reported":1731064035,"current_range_meters":38800,"station_id":"ce4bgh92rcd13ifvqb40","pricing_plan_id":"cebpf4jnsgd1na2vs0mg"},{"bike_id":"3e7d8579-7dcf-477a-9381-f39a70ae00a4","system_id":"levelo_inurba_marseille","lat":43.24805,"lon":5.37458,"is_reserved":false,"is_disabled":false,"rental_uris":{"android":"levelo://app?vid=3e7d8579-7dcf-477a-9381-f39a70ae00a4","ios":"levelo://app?vid=3e7d8579-7dcf-477a-9381-f39a70ae00a4"},"vehicle_type_id":"4","last_reported":1731064035,"current_range_meters":28400,"station_id":"ce4bhgh2rcd13ifvqfb0","pricing_plan_id":"cebpf4jnsgd1na2vs0mg"},{"bike_id":"f5da078b-5359-4a72-8642-c4bd0f9e6885","system_id":"levelo_inurba_marseille","lat":43.28338,"lon":5.381,"is_reserved":false,"is_disabled":false,"rental_uris":{"android":"levelo://app?vid=f5da078b-5359-4a72-8642-c4bd0f9e6885","ios":"levelo://app?vid=f5da078b-5359-4a72-8642-c4bd0f9e6885"},"vehicle_type_id":"4","last_reported":1731064035,"current_range_meters":32400,"station_id":"ce4bh412rcd13ifvqdr0","pricing_plan_id":"cebpf4jnsgd1na2vs0mg"},{"bike_id":"8d79b87c-32f3-48d3-9997-98c9621a4f29","system_id":"levelo_inurba_marseille","lat":43.29843,"lon":5.36262,"is_reserved":false,"is_disabled":false,"rental_uris":{"android":"levelo://app?vid=8d79b87c-32f3-48d3-9997-98c9621a4f29","ios":"levelo://app?vid=8d79b87c-32f3-48d3-9997-98c9621a4f29"},"vehicle_type_id":"4","last_reported":1731064035,"current_range_meters":38800,"station_id":"ce4bgpp2rcd13ifvqc3g","pricing_plan_id":"cebpf4jnsgd1na2vs0mg"},{"bike_id":"76c3f570-9822-418a-98dd-e774c2b3f9d7","system_id":"levelo_inurba_marseille","lat":43.29298,"lon":5.37169,"is_reserved":false,"is_disabled":false,"rental_uris":{"android":"levelo://app?vid=76c3f570-9822-418a-98dd-e774c2b3f9d7","ios":"levelo://app?vid=76c3f570-9822-418a-98dd-e774c2b3f9d7"},"vehicle_type_id":"4","last_reported":1731064035,"current_range_meters":24800,"station_id":"ce4bgh92rcd13ifvqb40","pricing_plan_id":"cebpf4jnsgd1na2vs0mg"},{"bike_id":"8ef2c44a-04a5-4865-9d59-845ae065b7fb","system_id":"levelo_inurba_marseille","lat":43.284637,"lon":5.375646,"is_reserved":false,"is_disabled":false,"rental_uris":{"android":"levelo://app?vid=8ef2c44a-04a5-4865-9d59-845ae065b7fb","ios":"levelo://app?vid=8ef2c44a-04a5-4865-9d59-845ae065b7fb"},"vehicle_type_id":"4","last_reported":1731064035,"current_range_meters":17600,"station_id":"ce4bh412rcd13ifvqds0","pricing_plan_id":"cebpf4jnsgd1na2vs0mg"},{"bike_id":"1b5f618d-a914-4802-8c57-fa72c1821853","system_id":"levelo_inurba_marseille","lat":43.27811,"lon":5.40716,"is_reserved":false,"is_disabled":false,"rental_uris":{"android":"levelo://app?vid=1b5f618d-a914-4802-8c57-fa72c1821853","ios":"levelo://app?vid=1b5f618d-a914-4802-8c57-fa72c1821853"},"vehicle_type_id":"4","last_reported":1731064035,"current_range_meters":18000,"station_id":"ce4bhnh2rcd13ifvqgtg","pricing_plan_id":"cebpf4jnsgd1na2vs0mg"},{"bike_id":"f6d38f1b-a961-4fc5-9ca0-372bcffbe2c7","system_id":"levelo_inurba_marseille","lat":43.30375,"lon":5.3707,"is_reserved":false,"is_disabled":false,"rental_uris":{"android":"levelo://app?vid=f6d38f1b-a961-4fc5-9ca0-372bcffbe2c7","ios":"levelo://app?vid=f6d38f1b-a961-4fc5-9ca0-372bcffbe2c7"},"vehicle_type_id":"4","last_reported":1731064035,"current_range_meters":30800,"station_id":"","pricing_plan_id":"cebpf4jnsgd1na2vs0mg"},{"bike_id":"fdc815cd-77ba-49ee-bf59-96cbdf065268","system_id":"levelo_inurba_marseille","lat":43.34145,"lon":5.40901,"is_reserved":false,"is_disabled":false,"rental_uris":{"android":"levelo://app?vid=fdc815cd-77ba-49ee-bf59-96cbdf065268","ios":"levelo://app?vid=fdc815cd-77ba-49ee-bf59-96cbdf065268"},"vehicle_type_id":"4","last_reported":1731064035,"current_range_meters":27200,"station_id":"ce4bhqh2rcd13ifvqhlg","pricing_plan_id":"cebpf4jnsgd1na2vs0mg"},{"bike_id":"1a278f87-9283-466b-97e0-36d36f134453","system_id":"levelo_inurba_marseille","lat":43.29584,"lon":5.36736,"is_reserved":false,"is_disabled":false,"rental_uris":{"android":"levelo://app?vid=1a278f87-9283-466b-97e0-36d36f134453","ios":"levelo://app?vid=1a278f87-9283-466b-97e0-36d36f134453"},"vehicle_type_id":"4","last_reported":1731064035,"current_range_meters":36400,"station_id":"ce4bgph2rcd13ifvqc2g","pricing_plan_id":"cebpf4jnsgd1na2vs0mg"},{"bike_id":"8d1dc39d-667b-4910-8dcb-f7222808e781","system_id":"levelo_inurba_marseille","lat":43.29002,"lon":5.35611,"is_reserved":false,"is_disabled":false,"rental_uris":{"android":"levelo://app?vid=8d1dc39d-667b-4910-8dcb-f7222808e781","ios":"levelo://app?vid=8d1dc39d-667b-4910-8dcb-f7222808e781"},"vehicle_type_id":"4","last_reported":1731064035,"current_range_meters":36800,"station_id":"ce4bhb92rcd13ifvqen0","pricing_plan_id":"cebpf4jnsgd1na2vs0mg"},{"bike_id":"a857852f-ab68-41f9-9316-7113b72659b6","system_id":"levelo_inurba_marseille","lat":43.25011,"lon":5.38914,"is_reserved":false,"is_disabled":false,"rental_uris":{"android":"levelo://app?vid=a857852f-ab68-41f9-9316-7113b72659b6","ios":"levelo://app?vid=a857852f-ab68-41f9-9316-7113b72659b6"},"vehicle_type_id":"4","last_reported":1731064035,"current_range_meters":12000,"station_id":"ce4bhgp2rcd13ifvqfd0","pricing_plan_id":"cebpf4jnsgd1na2vs0mg"},{"bike_id":"0cec42bc-097a-4518-8eac-006afafe4f68","system_id":"levelo_inurba_marseille","lat":43.246108,"lon":5.380732,"is_reserved":false,"is_disabled":false,"rental_uris":{"android":"levelo://app?vid=0cec42bc-097a-4518-8eac-006afafe4f68","ios":"levelo://app?vid=0cec42bc-097a-4518-8eac-006afafe4f68"},"vehicle_type_id":"4","last_reported":1731064035,"current_range_meters":16400,"station_id":"ce4bhih2rcd13ifvqfr0","pricing_plan_id":"cebpf4jnsgd1na2vs0mg"},{"bike_id":"a94bdce7-6023-4e07-851a-93a5d9e5a2cb","system_id":"levelo_inurba_marseille","lat":43.30212,"lon":5.36443,"is_reserved":false,"is_disabled":false,"rental_uris":{"android":"levelo://app?vid=a94bdce7-6023-4e07-851a-93a5d9e5a2cb","ios":"levelo://app?vid=a94bdce7-6023-4e07-851a-93a5d9e5a2cb"},"vehicle_type_id":"4","last_reported":1731064035,"current_range_meters":34800,"station_id":"ce4bhap2rcd13ifvqek0","pricing_plan_id":"cebpf4jnsgd1na2vs0mg"},{"bike_id":"cf8f8482-f782-4c29-b6ce-e440f1c1c735","system_id":"levelo_inurba_marseille","lat":43.30533,"lon":5.36691,"is_reserved":false,"is_disabled":false,"rental_uris":{"android":"levelo://app?vid=cf8f8482-f782-4c29-b6ce-e440f1c1c735","ios":"levelo://app?vid=cf8f8482-f782-4c29-b6ce-e440f1c1c735"},"vehicle_type_id":"4","last_reported":1731064035,"current_range_meters":38000,"station_id":"ce4bgrp2rcd13ifvqc9g","pricing_plan_id":"cebpf4jnsgd1na2vs0mg"},{"bike_id":"4bea9e98-7c2d-4b56-905d-3bfc829bbe3e","system_id":"levelo_inurba_marseille","lat":43.26052,"lon":5.39396,"is_reserved":false,"is_disabled":false,"rental_uris":{"android":"levelo://app?vid=4bea9e98-7c2d-4b56-905d-3bfc829bbe3e","ios":"levelo://app?vid=4bea9e98-7c2d-4b56-905d-3bfc829bbe3e"},"vehicle_type_id":"4","last_reported":1731064035,"current_range_meters":38000,"station_id":"ce4bhh92rcd13ifvqfj0","pricing_plan_id":"cebpf4jnsgd1na2vs0mg"},{"bike_id":"b54c4cc2-0687-4e94-bdfa-67c7526a95d4","system_id":"levelo_inurba_marseille","lat":43.27202,"lon":5.39173,"is_reserved":false,"is_disabled":false,"rental_uris":{"android":"levelo://app?vid=b54c4cc2-0687-4e94-bdfa-67c7526a95d4","ios":"levelo://app?vid=b54c4cc2-0687-4e94-bdfa-67c7526a95d4"},"vehicle_type_id":"4","last_reported":1731064035,"current_range_meters":23200,"station_id":"ce4bhhp2rcd13ifvqfm0","pricing_plan_id":"cebpf4jnsgd1na2vs0mg"},{"bike_id":"1cb0e821-8883-4b96-afbf-302013677ae8","system_id":"levelo_inurba_marseille","lat":43.29567,"lon":5.37517,"is_reserved":false,"is_disabled":false,"rental_uris":{"android":"levelo://app?vid=1cb0e821-8883-4b96-afbf-302013677ae8","ios":"levelo://app?vid=1cb0e821-8883-4b96-afbf-302013677ae8"},"vehicle_type_id":"4","last_reported":1731064035,"current_range_meters":24800,"station_id":"ce4bgh92rcd13ifvqb50","pricing_plan_id":"cebpf4jnsgd1na2vs0mg"},{"bike_id":"ff989801-f59b-46d1-867b-7c2b6eab1cca","system_id":"levelo_inurba_marseille","lat":43.337444,"lon":5.374475,"is_reserved":false,"is_disabled":false,"rental_uris":{"android":"levelo://app?vid=ff989801-f59b-46d1-867b-7c2b6eab1cca","ios":"levelo://app?vid=ff989801-f59b-46d1-867b-7c2b6eab1cca"},"vehicle_type_id":"4","last_reported":1731064035,"current_range_meters":38400,"station_id":"","pricing_plan_id":"cebpf4jnsgd1na2vs0mg"},{"bike_id":"0f445d8d-c5c6-4426-9c60-d64eb330cd19","system_id":"levelo_inurba_marseille","lat":43.32294,"lon":5.38267,"is_reserved":false,"is_disabled":false,"rental_uris":{"android":"levelo://app?vid=0f445d8d-c5c6-4426-9c60-d64eb330cd19","ios":"levelo://app?vid=0f445d8d-c5c6-4426-9c60-d64eb330cd19"},"vehicle_type_id":"4","last_reported":1731064035,"current_range_meters":37600,"station_id":"ce4bhr12rcd13ifvqhqg","pricing_plan_id":"cebpf4jnsgd1na2vs0mg"},{"bike_id":"e9c8a630-2d73-4117-9bf7-aca5570a0743","system_id":"levelo_inurba_marseille","lat":43.23191,"lon":5.399926,"is_reserved":false,"is_disabled":false,"rental_uris":{"android":"levelo://app?vid=e9c8a630-2d73-4117-9bf7-aca5570a0743","ios":"levelo://app?vid=e9c8a630-2d73-4117-9bf7-aca5570a0743"},"vehicle_type_id":"4","last_reported":1731064035,"current_range_meters":36800,"station_id":"ce4bhn12rcd13ifvqgqg","pricing_plan_id":"cebpf4jnsgd1na2vs0mg"},{"bike_id":"4b6a46d4-26ae-4101-bbd0-9f440eaafa94","system_id":"levelo_inurba_marseille","lat":43.2799,"lon":5.41655,"is_reserved":false,"is_disabled":false,"rental_uris":{"android":"levelo://app?vid=4b6a46d4-26ae-4101-bbd0-9f440eaafa94","ios":"levelo://app?vid=4b6a46d4-26ae-4101-bbd0-9f440eaafa94"},"vehicle_type_id":"4","last_reported":1731064035,"current_range_meters":30400,"station_id":"ce4bho12rcd13ifvqh1g","pricing_plan_id":"cebpf4jnsgd1na2vs0mg"},{"bike_id":"85d549e1-157f-4567-8929-023f8f7e817c","system_id":"levelo_inurba_marseille","lat":43.25582,"lon":5.38231,"is_reserved":false,"is_disabled":false,"rental_uris":{"android":"levelo://app?vid=85d549e1-157f-4567-8929-023f8f7e817c","ios":"levelo://app?vid=85d549e1-157f-4567-8929-023f8f7e817c"},"vehicle_type_id":"4","last_reported":1731064035,"current_range_meters":37600,"station_id":"ce4bhih2rcd13ifvqfs0","pricing_plan_id":"cebpf4jnsgd1na2vs0mg"},{"bike_id":"5789fe9f-e777-4e7f-a23d-14f60f725ffd","system_id":"levelo_inurba_marseille","lat":43.29886,"lon":5.38896,"is_reserved":false,"is_disabled":false,"rental_uris":{"android":"levelo://app?vid=5789fe9f-e777-4e7f-a23d-14f60f725ffd","ios":"levelo://app?vid=5789fe9f-e777-4e7f-a23d-14f60f725ffd"},"vehicle_type_id":"4","last_reported":1731064035,"current_range_meters":37600,"station_id":"ce4bh392rcd13ifvqdl0","pricing_plan_id":"cebpf4jnsgd1na2vs0mg"},{"bike_id":"0a881f64-c2bf-43a5-ba4e-a9dc766826ca","system_id":"levelo_inurba_marseille","lat":43.29024,"lon":5.38644,"is_reserved":false,"is_disabled":false,"rental_uris":{"android":"levelo://app?vid=0a881f64-c2bf-43a5-ba4e-a9dc766826ca","ios":"levelo://app?vid=0a881f64-c2bf-43a5-ba4e-a9dc766826ca"},"vehicle_type_id":"4","last_reported":1731064035,"current_range_meters":34800,"station_id":"ce4bh4p2rcd13ifvqe0g","pricing_plan_id":"cebpf4jnsgd1na2vs0mg"},{"bike_id":"502c538f-739d-4605-9214-99ec0c3fdafd","system_id":"levelo_inurba_marseille","lat":43.25004,"lon":5.38925,"is_reserved":false,"is_disabled":false,"rental_uris":{"android":"levelo://app?vid=502c538f-739d-4605-9214-99ec0c3fdafd","ios":"levelo://app?vid=502c538f-739d-4605-9214-99ec0c3fdafd"},"vehicle_type_id":"4","last_reported":1731064035,"current_range_meters":39200,"station_id":"ce4bhgp2rcd13ifvqfd0","pricing_plan_id":"cebpf4jnsgd1na2vs0mg"},{"bike_id":"17a3eb7e-c0d2-4acf-a8b1-f2731359af9e","system_id":"levelo_inurba_marseille","lat":43.31218,"lon":5.36862,"is_reserved":false,"is_disabled":false,"rental_uris":{"android":"levelo://app?vid=17a3eb7e-c0d2-4acf-a8b1-f2731359af9e","ios":"levelo://app?vid=17a3eb7e-c0d2-4acf-a8b1-f2731359af9e"},"vehicle_type_id":"4","last_reported":1731064035,"current_range_meters":21600,"station_id":"ce4bgl92rcd13ifvqbq0","pricing_plan_id":"cebpf4jnsgd1na2vs0mg"},{"bike_id":"36e44c8a-c997-49fd-9d3e-8db3824cffb5","system_id":"levelo_inurba_marseille","lat":43.29067,"lon":5.37171,"is_reserved":false,"is_disabled":false,"rental_uris":{"android":"levelo://app?vid=36e44c8a-c997-49fd-9d3e-8db3824cffb5","ios":"levelo://app?vid=36e44c8a-c997-49fd-9d3e-8db3824cffb5"},"vehicle_type_id":"4","last_reported":1731064035,"current_range_meters":30000,"station_id":"ce4bh5p2rcd13ifvqe4g","pricing_plan_id":"cebpf4jnsgd1na2vs0mg"},{"bike_id":"207e56ce-a511-4661-9af5-8808382282f4","system_id":"levelo_inurba_marseille","lat":43.25495,"lon":5.37647,"is_reserved":false,"is_disabled":false,"rental_uris":{"android":"levelo://app?vid=207e56ce-a511-4661-9af5-8808382282f4","ios":"levelo://app?vid=207e56ce-a511-4661-9af5-8808382282f4"},"vehicle_type_id":"4","last_reported":1731064035,"current_range_meters":22800,"station_id":"ce4bhh12rcd13ifvqff0","pricing_plan_id":"cebpf4jnsgd1na2vs0mg"},{"bike_id":"6ba9ca98-cdab-46e8-bcb3-d22861a3b09f","system_id":"levelo_inurba_marseille","lat":43.26212,"lon":5.37441,"is_reserved":false,"is_disabled":false,"rental_uris":{"android":"levelo://app?vid=6ba9ca98-cdab-46e8-bcb3-d22861a3b09f","ios":"levelo://app?vid=6ba9ca98-cdab-46e8-bcb3-d22861a3b09f"},"vehicle_type_id":"4","last_reported":1731064035,"current_range_meters":38000,"station_id":"ce4bhgp2rcd13ifvqfc0","pricing_plan_id":"cebpf4jnsgd1na2vs0mg"},{"bike_id":"fc7f83a7-009e-48ef-a8ff-3ce00ef445de","system_id":"levelo_inurba_marseille","lat":43.31222,"lon":5.36849,"is_reserved":false,"is_disabled":false,"rental_uris":{"android":"levelo://app?vid=fc7f83a7-009e-48ef-a8ff-3ce00ef445de","ios":"levelo://app?vid=fc7f83a7-009e-48ef-a8ff-3ce00ef445de"},"vehicle_type_id":"4","last_reported":1731064035,"current_range_meters":40000,"station_id":"ce4bgl92rcd13ifvqbq0","pricing_plan_id":"cebpf4jnsgd1na2vs0mg"},{"bike_id":"c96da567-0fab-45f9-b80a-1e0725fdf961","system_id":"levelo_inurba_marseille","lat":43.27809,"lon":5.40713,"is_reserved":false,"is_disabled":false,"rental_uris":{"android":"levelo://app?vid=c96da567-0fab-45f9-b80a-1e0725fdf961","ios":"levelo://app?vid=c96da567-0fab-45f9-b80a-1e0725fdf961"},"vehicle_type_id":"4","last_reported":1731064035,"current_range_meters":28400,"station_id":"ce4bhnh2rcd13ifvqgtg","pricing_plan_id":"cebpf4jnsgd1na2vs0mg"},{"bike_id":"a1c19c6a-4fac-4951-857d-6a42ce63ea62","system_id":"levelo_inurba_marseille","lat":43.3014,"lon":5.37413,"is_reserved":false,"is_disabled":false,"rental_uris":{"android":"levelo://app?vid=a1c19c6a-4fac-4951-857d-6a42ce63ea62","ios":"levelo://app?vid=a1c19c6a-4fac-4951-857d-6a42ce63ea62"},"vehicle_type_id":"4","last_reported":1731064035,"current_range_meters":22800,"station_id":"ce4bgs92rcd13ifvqcc0","pricing_plan_id":"cebpf4jnsgd1na2vs0mg"},{"bike_id":"d48480fc-8690-41e4-834e-572153cbeda0","system_id":"levelo_inurba_marseille","lat":43.32109,"lon":5.36775,"is_reserved":false,"is_disabled":false,"rental_uris":{"android":"levelo://app?vid=d48480fc-8690-41e4-834e-572153cbeda0","ios":"levelo://app?vid=d48480fc-8690-41e4-834e-572153cbeda0"},"vehicle_type_id":"4","last_reported":1731064035,"current_range_meters":10000,"station_id":"ce4bhrh2rcd13ifvqhug","pricing_plan_id":"cebpf4jnsgd1na2vs0mg"},{"bike_id":"f23efb47-e7ec-4ca6-8adb-c9a037f54f23","system_id":"levelo_inurba_marseille","lat":43.30136,"lon":5.38071,"is_reserved":false,"is_disabled":false,"rental_uris":{"android":"levelo://app?vid=f23efb47-e7ec-4ca6-8adb-c9a037f54f23","ios":"levelo://app?vid=f23efb47-e7ec-4ca6-8adb-c9a037f54f23"},"vehicle_type_id":"4","last_reported":1731064035,"current_range_meters":36800,"station_id":"ce4bgjp2rcd13ifvqbh0","pricing_plan_id":"cebpf4jnsgd1na2vs0mg"},{"bike_id":"7d75a5b3-3b12-4a5e-8908-c3eac4cdd72a","system_id":"levelo_inurba_marseille","lat":43.31075,"lon":5.38354,"is_reserved":false,"is_disabled":false,"rental_uris":{"android":"levelo://app?vid=7d75a5b3-3b12-4a5e-8908-c3eac4cdd72a","ios":"levelo://app?vid=7d75a5b3-3b12-4a5e-8908-c3eac4cdd72a"},"vehicle_type_id":"4","last_reported":1731064035,"current_range_meters":36000,"station_id":"ce4bgv92rcd13ifvqcr0","pricing_plan_id":"cebpf4jnsgd1na2vs0mg"},{"bike_id":"43927b32-4a44-4c42-9b3a-d782bec5bda2","system_id":"levelo_inurba_marseille","lat":43.24544,"lon":5.39522,"is_reserved":false,"is_disabled":false,"rental_uris":{"android":"levelo://app?vid=43927b32-4a44-4c42-9b3a-d782bec5bda2","ios":"levelo://app?vid=43927b32-4a44-4c42-9b3a-d782bec5bda2"},"vehicle_type_id":"4","last_reported":1731064035,"current_range_meters":27600,"station_id":"ce4bhlp2rcd13ifvqgjg","pricing_plan_id":"cebpf4jnsgd1na2vs0mg"},{"bike_id":"a32b6b3e-23d8-4dea-86ad-63981946e370","system_id":"levelo_inurba_marseille","lat":43.28268,"lon":5.3506,"is_reserved":false,"is_disabled":false,"rental_uris":{"android":"levelo://app?vid=a32b6b3e-23d8-4dea-86ad-63981946e370","ios":"levelo://app?vid=a32b6b3e-23d8-4dea-86ad-63981946e370"},"vehicle_type_id":"4","last_reported":1731064035,"current_range_meters":21600,"station_id":"ce4bhbp2rcd13ifvqerg","pricing_plan_id":"cebpf4jnsgd1na2vs0mg"},{"bike_id":"466e07b6-05cc-4a9d-8049-8a9f9adcd283","system_id":"levelo_inurba_marseille","lat":43.30301,"lon":5.36883,"is_reserved":false,"is_disabled":false,"rental_uris":{"android":"levelo://app?vid=466e07b6-05cc-4a9d-8049-8a9f9adcd283","ios":"levelo://app?vid=466e07b6-05cc-4a9d-8049-8a9f9adcd283"},"vehicle_type_id":"4","last_reported":1731064035,"current_range_meters":10800,"station_id":"ce4bgqh2rcd13ifvqc5g","pricing_plan_id":"cebpf4jnsgd1na2vs0mg"},{"bike_id":"e52420d4-63e9-418f-89d3-416320262e35","system_id":"levelo_inurba_marseille","lat":43.23954,"lon":5.36634,"is_reserved":false,"is_disabled":false,"rental_uris":{"android":"levelo://app?vid=e52420d4-63e9-418f-89d3-416320262e35","ios":"levelo://app?vid=e52420d4-63e9-418f-89d3-416320262e35"},"vehicle_type_id":"4","last_reported":1731064035,"current_range_meters":39200,"station_id":"ce4bhi12rcd13ifvqfp0","pricing_plan_id":"cebpf4jnsgd1na2vs0mg"},{"bike_id":"df2d5b46-42ca-4bbe-ab9f-59e1aa65626c","system_id":"levelo_inurba_marseille","lat":43.293737,"lon":5.378458,"is_reserved":false,"is_disabled":false,"rental_uris":{"android":"levelo://app?vid=df2d5b46-42ca-4bbe-ab9f-59e1aa65626c","ios":"levelo://app?vid=df2d5b46-42ca-4bbe-ab9f-59e1aa65626c"},"vehicle_type_id":"4","last_reported":1731064035,"current_range_meters":3600,"station_id":"ce4bgjh2rcd13ifvqbf0","pricing_plan_id":"cebpf4jnsgd1na2vs0mg"},{"bike_id":"02f3bd69-c440-439f-96d2-1f56246cbb70","system_id":"levelo_inurba_marseille","lat":43.23055,"lon":5.35489,"is_reserved":false,"is_disabled":false,"rental_uris":{"android":"levelo://app?vid=02f3bd69-c440-439f-96d2-1f56246cbb70","ios":"levelo://app?vid=02f3bd69-c440-439f-96d2-1f56246cbb70"},"vehicle_type_id":"4","last_reported":1731064035,"current_range_meters":33200,"station_id":"cpo3342slgdg3j2ifvpg","pricing_plan_id":"cebpf4jnsgd1na2vs0mg"},{"bike_id":"cca2255e-8fbc-45d1-9211-fe85bcfb0313","system_id":"levelo_inurba_marseille","lat":43.28152,"lon":5.42639,"is_reserved":false,"is_disabled":false,"rental_uris":{"android":"levelo://app?vid=cca2255e-8fbc-45d1-9211-fe85bcfb0313","ios":"levelo://app?vid=cca2255e-8fbc-45d1-9211-fe85bcfb0313"},"vehicle_type_id":"4","last_reported":1731064035,"current_range_meters":34800,"station_id":"ce4bhnh2rcd13ifvqgug","pricing_plan_id":"cebpf4jnsgd1na2vs0mg"},{"bike_id":"97ee9428-9454-42a8-89df-286db8e4a882","system_id":"levelo_inurba_marseille","lat":43.28566,"lon":5.39492,"is_reserved":false,"is_disabled":false,"rental_uris":{"android":"levelo://app?vid=97ee9428-9454-42a8-89df-286db8e4a882","ios":"levelo://app?vid=97ee9428-9454-42a8-89df-286db8e4a882"},"vehicle_type_id":"4","last_reported":1731064035,"current_range_meters":36800,"station_id":"ce4bh292rcd13ifvqdg0","pricing_plan_id":"cebpf4jnsgd1na2vs0mg"},{"bike_id":"ad1a4eed-0121-40c8-8c1a-96a29bb86511","system_id":"levelo_inurba_marseille","lat":43.31763,"lon":5.39014,"is_reserved":false,"is_disabled":false,"rental_uris":{"android":"levelo://app?vid=ad1a4eed-0121-40c8-8c1a-96a29bb86511","ios":"levelo://app?vid=ad1a4eed-0121-40c8-8c1a-96a29bb86511"},"vehicle_type_id":"4","last_reported":1731064035,"current_range_meters":38000,"station_id":"ce4bhqp2rcd13ifvqhng","pricing_plan_id":"cebpf4jnsgd1na2vs0mg"},{"bike_id":"2d2f20bf-d7e7-4f1d-9da6-d9786e5be9ae","system_id":"levelo_inurba_marseille","lat":43.23145,"lon":5.43718,"is_reserved":false,"is_disabled":false,"rental_uris":{"android":"levelo://app?vid=2d2f20bf-d7e7-4f1d-9da6-d9786e5be9ae","ios":"levelo://app?vid=2d2f20bf-d7e7-4f1d-9da6-d9786e5be9ae"},"vehicle_type_id":"4","last_reported":1731064035,"current_range_meters":24400,"station_id":"ce4bhmp2rcd13ifvqgog","pricing_plan_id":"cebpf4jnsgd1na2vs0mg"},{"bike_id":"f6240ba0-900a-4bbb-b767-16165ed8fd4d","system_id":"levelo_inurba_marseille","lat":43.3181,"lon":5.38766,"is_reserved":false,"is_disabled":false,"rental_uris":{"android":"levelo://app?vid=f6240ba0-900a-4bbb-b767-16165ed8fd4d","ios":"levelo://app?vid=f6240ba0-900a-4bbb-b767-16165ed8fd4d"},"vehicle_type_id":"4","last_reported":1731064035,"current_range_meters":11600,"station_id":"","pricing_plan_id":"cebpf4jnsgd1na2vs0mg"},{"bike_id":"3be4ec7d-5fc9-4a64-95c9-c60de75c6791","system_id":"levelo_inurba_marseille","lat":43.26195,"lon":5.37448,"is_reserved":false,"is_disabled":false,"rental_uris":{"android":"levelo://app?vid=3be4ec7d-5fc9-4a64-95c9-c60de75c6791","ios":"levelo://app?vid=3be4ec7d-5fc9-4a64-95c9-c60de75c6791"},"vehicle_type_id":"4","last_reported":1731064035,"current_range_meters":38800,"station_id":"ce4bhgp2rcd13ifvqfc0","pricing_plan_id":"cebpf4jnsgd1na2vs0mg"},{"bike_id":"8bb4010e-0b34-443b-a6fd-0380e464fa66","system_id":"levelo_inurba_marseille","lat":43.29532,"lon":5.37506,"is_reserved":false,"is_disabled":false,"rental_uris":{"android":"levelo://app?vid=8bb4010e-0b34-443b-a6fd-0380e464fa66","ios":"levelo://app?vid=8bb4010e-0b34-443b-a6fd-0380e464fa66"},"vehicle_type_id":"4","last_reported":1731064035,"current_range_meters":29600,"station_id":"ce4bgkp2rcd13ifvqbmg","pricing_plan_id":"cebpf4jnsgd1na2vs0mg"},{"bike_id":"d4fe4fbf-74ed-4992-978d-2a10509cd04f","system_id":"levelo_inurba_marseille","lat":43.29573,"lon":5.37503,"is_reserved":false,"is_disabled":false,"rental_uris":{"android":"levelo://app?vid=d4fe4fbf-74ed-4992-978d-2a10509cd04f","ios":"levelo://app?vid=d4fe4fbf-74ed-4992-978d-2a10509cd04f"},"vehicle_type_id":"4","last_reported":1731064035,"current_range_meters":4800,"station_id":"ce4bgh92rcd13ifvqb50","pricing_plan_id":"cebpf4jnsgd1na2vs0mg"},{"bike_id":"3d5f0c6d-6cce-49b5-bdbd-f78cbbcbcaa0","system_id":"levelo_inurba_marseille","lat":43.30534,"lon":5.36533,"is_reserved":false,"is_disabled":false,"rental_uris":{"android":"levelo://app?vid=3d5f0c6d-6cce-49b5-bdbd-f78cbbcbcaa0","ios":"levelo://app?vid=3d5f0c6d-6cce-49b5-bdbd-f78cbbcbcaa0"},"vehicle_type_id":"4","last_reported":1731064035,"current_range_meters":25200,"station_id":"ce4bgs12rcd13ifvqcag","pricing_plan_id":"cebpf4jnsgd1na2vs0mg"},{"bike_id":"a266ef1e-42b0-42b2-8c07-c3f9e4bc1c56","system_id":"levelo_inurba_marseille","lat":43.27808,"lon":5.40718,"is_reserved":false,"is_disabled":false,"rental_uris":{"android":"levelo://app?vid=a266ef1e-42b0-42b2-8c07-c3f9e4bc1c56","ios":"levelo://app?vid=a266ef1e-42b0-42b2-8c07-c3f9e4bc1c56"},"vehicle_type_id":"4","last_reported":1731064035,"current_range_meters":30000,"station_id":"ce4bhnh2rcd13ifvqgtg","pricing_plan_id":"cebpf4jnsgd1na2vs0mg"},{"bike_id":"f70c3782-0eb8-420d-8122-dba71fdd5f0e","system_id":"levelo_inurba_marseille","lat":43.28153,"lon":5.42637,"is_reserved":false,"is_disabled":false,"rental_uris":{"android":"levelo://app?vid=f70c3782-0eb8-420d-8122-dba71fdd5f0e","ios":"levelo://app?vid=f70c3782-0eb8-420d-8122-dba71fdd5f0e"},"vehicle_type_id":"4","last_reported":1731064035,"current_range_meters":25600,"station_id":"ce4bhnh2rcd13ifvqgug","pricing_plan_id":"cebpf4jnsgd1na2vs0mg"},{"bike_id":"3bb04ed5-a840-4c90-b544-f2374a5241a6","system_id":"levelo_inurba_marseille","lat":43.31355,"lon":5.36718,"is_reserved":false,"is_disabled":false,"rental_uris":{"android":"levelo://app?vid=3bb04ed5-a840-4c90-b544-f2374a5241a6","ios":"levelo://app?vid=3bb04ed5-a840-4c90-b544-f2374a5241a6"},"vehicle_type_id":"4","last_reported":1731064035,"current_range_meters":30800,"station_id":"ce4bgr92rcd13ifvqc6g","pricing_plan_id":"cebpf4jnsgd1na2vs0mg"},{"bike_id":"adb85f89-af0a-4cff-b4eb-2f0eeda541de","system_id":"levelo_inurba_marseille","lat":43.3236,"lon":5.38884,"is_reserved":false,"is_disabled":false,"rental_uris":{"android":"levelo://app?vid=adb85f89-af0a-4cff-b4eb-2f0eeda541de","ios":"levelo://app?vid=adb85f89-af0a-4cff-b4eb-2f0eeda541de"},"vehicle_type_id":"4","last_reported":1731064035,"current_range_meters":27600,"station_id":"ce4bhqp2rcd13ifvqhog","pricing_plan_id":"cebpf4jnsgd1na2vs0mg"},{"bike_id":"692a78bd-ec81-41e1-a11d-e1889abe5871","system_id":"levelo_inurba_marseille","lat":43.31342,"lon":5.36717,"is_reserved":false,"is_disabled":false,"rental_uris":{"android":"levelo://app?vid=692a78bd-ec81-41e1-a11d-e1889abe5871","ios":"levelo://app?vid=692a78bd-ec81-41e1-a11d-e1889abe5871"},"vehicle_type_id":"4","last_reported":1731064035,"current_range_meters":39200,"station_id":"ce4bgr92rcd13ifvqc6g","pricing_plan_id":"cebpf4jnsgd1na2vs0mg"},{"bike_id":"f8899161-20d9-4281-b58f-7f2190d2c630","system_id":"levelo_inurba_marseille","lat":43.2794,"lon":5.4104,"is_reserved":false,"is_disabled":false,"rental_uris":{"android":"levelo://app?vid=f8899161-20d9-4281-b58f-7f2190d2c630","ios":"levelo://app?vid=f8899161-20d9-4281-b58f-7f2190d2c630"},"vehicle_type_id":"4","last_reported":1731064035,"current_range_meters":34800,"station_id":"ce4bhnp2rcd13ifvqh0g","pricing_plan_id":"cebpf4jnsgd1na2vs0mg"},{"bike_id":"24d3c1c9-987c-44c6-8219-1d9687dfe7f4","system_id":"levelo_inurba_marseille","lat":43.31493,"lon":5.37301,"is_reserved":false,"is_disabled":false,"rental_uris":{"android":"levelo://app?vid=24d3c1c9-987c-44c6-8219-1d9687dfe7f4","ios":"levelo://app?vid=24d3c1c9-987c-44c6-8219-1d9687dfe7f4"},"vehicle_type_id":"4","last_reported":1731064035,"current_range_meters":38800,"station_id":"ce4bgt12rcd13ifvqcd0","pricing_plan_id":"cebpf4jnsgd1na2vs0mg"},{"bike_id":"6b66fff9-15c4-4566-93fe-41af6513d173","system_id":"levelo_inurba_marseille","lat":43.27999,"lon":5.40006,"is_reserved":false,"is_disabled":false,"rental_uris":{"android":"levelo://app?vid=6b66fff9-15c4-4566-93fe-41af6513d173","ios":"levelo://app?vid=6b66fff9-15c4-4566-93fe-41af6513d173"},"vehicle_type_id":"4","last_reported":1731064035,"current_range_meters":10000,"station_id":"ce4bho92rcd13ifvqh4g","pricing_plan_id":"cebpf4jnsgd1na2vs0mg"},{"bike_id":"50f9f0f9-8fba-480f-9999-844d869a5695","system_id":"levelo_inurba_marseille","lat":43.29108,"lon":5.41747,"is_reserved":false,"is_disabled":false,"rental_uris":{"android":"levelo://app?vid=50f9f0f9-8fba-480f-9999-844d869a5695","ios":"levelo://app?vid=50f9f0f9-8fba-480f-9999-844d869a5695"},"vehicle_type_id":"4","last_reported":1731064035,"current_range_meters":30800,"station_id":"","pricing_plan_id":"cebpf4jnsgd1na2vs0mg"},{"bike_id":"4834af39-0ec3-43bf-b73e-7f6ffe6b3beb","system_id":"levelo_inurba_marseille","lat":43.30423,"lon":5.412928,"is_reserved":false,"is_disabled":false,"rental_uris":{"android":"levelo://app?vid=4834af39-0ec3-43bf-b73e-7f6ffe6b3beb","ios":"levelo://app?vid=4834af39-0ec3-43bf-b73e-7f6ffe6b3beb"},"vehicle_type_id":"4","last_reported":1731064035,"current_range_meters":16800,"station_id":"ce4bhop2rcd13ifvqh8g","pricing_plan_id":"cebpf4jnsgd1na2vs0mg"},{"bike_id":"60fe3928-f6f0-45ac-b815-47d9aa5344f2","system_id":"levelo_inurba_marseille","lat":43.28829,"lon":5.39356,"is_reserved":false,"is_disabled":false,"rental_uris":{"android":"levelo://app?vid=60fe3928-f6f0-45ac-b815-47d9aa5344f2","ios":"levelo://app?vid=60fe3928-f6f0-45ac-b815-47d9aa5344f2"},"vehicle_type_id":"4","last_reported":1731064035,"current_range_meters":24400,"station_id":"ce4bh2p2rcd13ifvqdi0","pricing_plan_id":"cebpf4jnsgd1na2vs0mg"},{"bike_id":"82ee39fb-80cb-45e2-96fc-f298d0e6d2de","system_id":"levelo_inurba_marseille","lat":43.32476,"lon":5.36571,"is_reserved":false,"is_disabled":false,"rental_uris":{"android":"levelo://app?vid=82ee39fb-80cb-45e2-96fc-f298d0e6d2de","ios":"levelo://app?vid=82ee39fb-80cb-45e2-96fc-f298d0e6d2de"},"vehicle_type_id":"4","last_reported":1731064035,"current_range_meters":38800,"station_id":"ce4bhs12rcd13ifvqhvg","pricing_plan_id":"cebpf4jnsgd1na2vs0mg"},