{"last_updated":1727111294,"ttl":30,"version":"2.2","data":{"bikes":[{"bike_id":"62f424c1-b018-44ba-9b79-d22da7940811","system_id":"levelo_inurba_marseille","lat":43.33025,"lon":5.39045,"is_reserved":false,"is_disabled":false,"rental_uris":{"android":"levelo://app?vid=62f424c1-b018-44ba-9b79-d22da7940811","ios":"levelo://app?vid=62f424c1-b018-44ba-9b79-d22da7940811"},"vehicle_type_id":"4","last_reported":1727111294,"current_range_meters":12800,"station_id":"ce4bhr92rcd13ifvqhrg","pricing_plan_id":"cebpf4jnsgd1na2vs0mg"},{"bike_id":"9b7ee46f-09d3-4ae0-8c89-b39370d6261f","system_id":"levelo_inurba_marseille","lat":43.32669,"lon":5.40997,"is_reserved":false,"is_disabled":false,"rental_uris":{"android":"levelo://app?vid=9b7ee46f-09d3-4ae0-8c89-b39370d6261f","ios":"levelo://app?vid=9b7ee46f-09d3-4ae0-8c89-b39370d6261f"},"vehicle_type_id":"4","last_reported":1727111294,"current_range_meters":39200,"station_id":"ce4bhpp2rcd13ifvqhgg","pricing_plan_id":"cebpf4jnsgd1na2vs0mg"},{"bike_id":"5f0b1244-d634-4717-ab1d-dd6db718fb6d","system_id":"levelo_inurba_marseille","lat":43.30794,"lon":5.43528,"is_reserved":false,"is_disabled":false,"rental_uris":{"android":"levelo://app?vid=5f0b1244-d634-4717-ab1d-dd6db718fb6d","ios":"levelo://app?vid=5f0b1244-d634-4717-ab1d-dd6db718fb6d"},"vehicle_type_id":"4","last_reported":1727111294,"current_range_meters":28400,"station_id":"ce4bhph2rcd13ifvqheg","pricing_plan_id":"cebpf4jnsgd1na2vs0mg"},{"bike_id":"0160c0a3-c45d-49a4-8010-9881359040ab","system_id":"levelo_inurba_marseille","lat":43.30142,"lon":5.37419,"is_reserved":false,"is_disabled":false,"rental_uris":{"android":"levelo://app?vid=0160c0a3-c45d-49a4-8010-9881359040ab","ios":"levelo://app?vid=0160c0a3-c45d-49a4-8010-9881359040ab"},"vehicle_type_id":"4","last_reported":1727111294,"current_range_meters":17200,"station_id":"ce4bgs92rcd13ifvqcc0","pricing_plan_id":"cebpf4jnsgd1na2vs0mg"},{"bike_id":"de020e8f-20e3-497d-ac1a-bf8aea82917c","system_id":"levelo_inurba_marseille","lat":43.299,"lon":5.43664,"is_reserved":false,"is_disabled":false,"rental_uris":{"android":"levelo://app?vid=de020e8f-20e3-497d-ac1a-bf8aea82917c","ios":"levelo://app?vid=de020e8f-20e3-497d-ac1a-bf8aea82917c"},"vehicle_type_id":"4","last_reported":1727111294,"current_range_meters":15200,"station_id":"ce4bhpp2rcd13ifvqhfg","pricing_plan_id":"cebpf4jnsgd1na2vs0mg"},{"bike_id":"2dd7327d-40f0-4257-b412-d42e84fb7e0d","system_id":"levelo_inurba_marseille","lat":43.268245,"lon":5.402751,"is_reserved":false,"is_disabled":false,"rental_uris":{"android":"levelo://app?vid=2dd7327d-40f0-4257-b412-d42e84fb7e0d","ios":"levelo://app?vid=2dd7327d-40f0-4257-b412-d42e84fb7e0d"},"vehicle_type_id":"4","last_reported":1727111294,"current_range_meters":7200,"station_id":"ce501612rcd8frsf0b60","pricing_plan_id":"cebpf4jnsgd1na2vs0mg"},{"bike_id":"0f891a4f-b884-41dd-a70a-4ad171400496","system_id":"levelo_inurba_marseille","lat":43.337444,"lon":5.374475,"is_reserved":false,"is_disabled":false,"rental_uris":{"android":"levelo://app?vid=0f891a4f-b884-41dd-a70a-4ad171400496","ios":"levelo://app?vid=0f891a4f-b884-41dd-a70a-4ad171400496"},"vehicle_type_id":"4","last_reported":1727111294,"current_range_meters":38800,"station_id":"ce4bhq92rcd13ifvqhkg","pricing_plan_id":"cebpf4jnsgd1na2vs0mg"},{"bike_id":"20a042f1-81aa-4cde-8548-4f002e395336","system_id":"levelo_inurba_marseille","lat":43.30192,"lon":5.39835,"is_reserved":false,"is_disabled":false,"rental_uris":{"android":"levelo://app?vid=20a042f1-81aa-4cde-8548-4f002e395336","ios":"levelo://app?vid=20a042f1-81aa-4cde-8548-4f002e395336"},"vehicle_type_id":"4","last_reported":1727111294,"current_range_meters":30000,"station_id":"ce4bgvp2rcd13ifvqct0","pricing_plan_id":"cebpf4jnsgd1na2vs0mg"},{"bike_id":"bf59c401-14e8-4291-8546-38e89526f0f3","system_id":"levelo_inurba_marseille","lat":43.262054,"lon":5.37456,"is_reserved":false,"is_disabled":false,"rental_uris":{"android":"levelo://app?vid=bf59c401-14e8-4291-8546-38e89526f0f3","ios":"levelo://app?vid=bf59c401-14e8-4291-8546-38e89526f0f3"},"vehicle_type_id":"4","last_reported":1727111294,"current_range_meters":8000,"station_id":"ce4bhgp2rcd13ifvqfc0","pricing_plan_id":"cebpf4jnsgd1na2vs0mg"},{"bike_id":"8422990e-8823-4d96-af43-839cc39d19a0","system_id":"levelo_inurba_marseille","lat":43.27083,"lon":5.42288,"is_reserved":false,"is_disabled":false,"rental_uris":{"android":"levelo://app?vid=8422990e-8823-4d96-af43-839cc39d19a0","ios":"levelo://app?vid=8422990e-8823-4d96-af43-839cc39d19a0"},"vehicle_type_id":"4","last_reported":1727111294,"current_range_meters":39200,"station_id":"ce4bhk92rcd13ifvqgb0","pricing_plan_id":"cebpf4jnsgd1na2vs0mg"},{"bike_id":"206a5c6a-b19f-4676-97f7-f424800f4b67","system_id":"levelo_inurba_marseille","lat":43.27182,"lon":5.40988,"is_reserved":false,"is_disabled":false,"rental_uris":{"android":"levelo://app?vid=206a5c6a-b19f-4676-97f7-f424800f4b67","ios":"levelo://app?vid=206a5c6a-b19f-4676-97f7-f424800f4b67"},"vehicle_type_id":"4","last_reported":1727111294,"current_range_meters":39200,"station_id":"ce4bhl12rcd13ifvqgf0","pricing_plan_id":"cebpf4jnsgd1na2vs0mg"},{"bike_id":"6d3c264d-37c8-45dd-95cf-f65c81bca196","system_id":"levelo_inurba_marseille","lat":43.229328,"lon":5.353768,"is_reserved":false,"is_disabled":false,"rental_uris":{"android":"levelo://app?vid=6d3c264d-37c8-45dd-95cf-f65c81bca196","ios":"levelo://app?vid=6d3c264d-37c8-45dd-95cf-f65c81bca196"},"vehicle_type_id":"4","last_reported":1727111294,"current_range_meters":30000,"station_id":"cpo3532slgdg3j2ikp40","pricing_plan_id":"cebpf4jnsgd1na2vs0mg"},{"bike_id":"9e931182-60a5-40b6-925a-300f0b0581a2","system_id":"levelo_inurba_marseille","lat":43.31079,"lon":5.38369,"is_reserved":false,"is_disabled":false,"rental_uris":{"android":"levelo://app?vid=9e931182-60a5-40b6-925a-300f0b0581a2","ios":"levelo://app?vid=9e931182-60a5-40b6-925a-300f0b0581a2"},"vehicle_type_id":"4","last_reported":1727111294,"current_range_meters":20000,"station_id":"ce4bgv92rcd13ifvqcr0","pricing_plan_id":"cebpf4jnsgd1na2vs0mg"},{"bike_id":"39be51df-6ea9-45f8-be06-e31c9d4d2231","system_id":"levelo_inurba_marseille","lat":43.27815,"lon":5.40714,"is_reserved":false,"is_disabled":false,"rental_uris":{"android":"levelo://app?vid=39be51df-6ea9-45f8-be06-e31c9d4d2231","ios":"levelo://app?vid=39be51df-6ea9-45f8-be06-e31c9d4d2231"},"vehicle_type_id":"4","last_reported":1727111294,"current_range_meters":34800,"station_id":"ce4bhnh2rcd13ifvqgtg","pricing_plan_id":"cebpf4jnsgd1na2vs0mg"},{"bike_id":"4117225d-fbf7-489f-a9f9-a7903758f15d","system_id":"levelo_inurba_marseille","lat":43.337444,"lon":5.374475,"is_reserved":false,"is_disabled":false,"rental_uris":{"android":"levelo://app?vid=4117225d-fbf7-489f-a9f9-a7903758f15d","ios":"levelo://app?vid=4117225d-fbf7-489f-a9f9-a7903758f15d"},"vehicle_type_id":"4","last_reported":1727111294,"current_range_meters":25200,"station_id":"","pricing_plan_id":"cebpf4jnsgd1na2vs0mg"},{"bike_id":"148f31cf-8b08-4ebe-9af7-6cdde44c02cc","system_id":"levelo_inurba_marseille","lat":43.30891,"lon":5.37197,"is_reserved":false,"is_disabled":false,"rental_uris":{"android":"levelo://app?vid=148f31cf-8b08-4ebe-9af7-6cdde44c02cc","ios":"levelo://app?vid=148f31cf-8b08-4ebe-9af7-6cdde44c02cc"},"vehicle_type_id":"4","last_reported":1727111294,"current_range_meters":32800,"station_id":"ce4bguh2rcd13ifvqckg","pricing_plan_id":"cebpf4jnsgd1na2vs0mg"},{"bike_id":"cb0e14f6-31a6-41bd-9d0a-3e7975834d5b","system_id":"levelo_inurba_marseille","lat":43.25581,"lon":5.38228,"is_reserved":false,"is_disabled":false,"rental_uris":{"android":"levelo://app?vid=cb0e14f6-31a6-41bd-9d0a-3e7975834d5b","ios":"levelo://app?vid=cb0e14f6-31a6-41bd-9d0a-3e7975834d5b"},"vehicle_type_id":"4","last_reported":1727111294,"current_range_meters":8000,"station_id":"ce4bhih2rcd13ifvqfs0","pricing_plan_id":"cebpf4jnsgd1na2vs0mg"},{"bike_id":"6d83808e-715d-4f85-b096-95f727d37ae7","system_id":"levelo_inurba_marseille","lat":43.2846,"lon":5.35884,"is_reserved":false,"is_disabled":false,"rental_uris":{"android":"levelo://app?vid=6d83808e-715d-4f85-b096-95f727d37ae7","ios":"levelo://app?vid=6d83808e-715d-4f85-b096-95f727d37ae7"},"vehicle_type_id":"4","last_reported":1727111294,"current_range_meters":38800,"station_id":"ce4bhah2rcd13ifvqei0","pricing_plan_id":"cebpf4jnsgd1na2vs0mg"},{"bike_id":"ad4b7f98-dc9b-4ec6-b38d-da6c215d3fa6","system_id":"levelo_inurba_marseille","lat":43.32662,"lon":5.40997,"is_reserved":false,"is_disabled":false,"rental_uris":{"android":"levelo://app?vid=ad4b7f98-dc9b-4ec6-b38d-da6c215d3fa6","ios":"levelo://app?vid=ad4b7f98-dc9b-4ec6-b38d-da6c215d3fa6"},"vehicle_type_id":"4","last_reported":1727111294,"current_range_meters":38000,"station_id":"ce4bhpp2rcd13ifvqhgg","pricing_plan_id":"cebpf4jnsgd1na2vs0mg"},{"bike_id":"f2eaab60-ba0a-48f5-a10b-7b86ae945c42","system_id":"levelo_inurba_marseille","lat":43.32058,"lon":5.4156,"is_reserved":false,"is_disabled":false,"rental_uris":{"android":"levelo://app?vid=f2eaab60-ba0a-48f5-a10b-7b86ae945c42","ios":"levelo://app?vid=f2eaab60-ba0a-48f5-a10b-7b86ae945c42"},"vehicle_type_id":"4","last_reported":1727111294,"current_range_meters":32000,"station_id":"ce4bhq92rcd13ifvqhkg","pricing_plan_id":"cebpf4jnsgd1na2vs0mg"},{"bike_id":"1bd0571a-875e-4e85-a170-19d8892906e3","system_id":"levelo_inurba_marseille","lat":43.27186,"lon":5.40993,"is_reserved":false,"is_disabled":false,"rental_uris":{"android":"levelo://app?vid=1bd0571a-875e-4e85-a170-19d8892906e3","ios":"levelo://app?vid=1bd0571a-875e-4e85-a170-19d8892906e3"},"vehicle_type_id":"4","last_reported":1727111294,"current_range_meters":9600,"station_id":"ce4bhl12rcd13ifvqgf0","pricing_plan_id":"cebpf4jnsgd1na2vs0mg"},{"bike_id":"3a87c530-31f2-4774-8b2d-78206314cb4f","system_id":"levelo_inurba_marseille","lat":43.28435,"lon":5.39206,"is_reserved":false,"is_disabled":false,"rental_uris":{"android":"levelo://app?vid=3a87c530-31f2-4774-8b2d-78206314cb4f","ios":"levelo://app?vid=3a87c530-31f2-4774-8b2d-78206314cb4f"},"vehicle_type_id":"4","last_reported":1727111294,"current_range_meters":10800,"station_id":"ce4bhoh2rcd13ifvqh5g","pricing_plan_id":"cebpf4jnsgd1na2vs0mg"},{"bike_id":"5b77ac25-d58a-4069-8beb-dc7bc35ccb2f","system_id":"levelo_inurba_marseille","lat":43.24807,"lon":5.3746,"is_reserved":false,"is_disabled":false,"rental_uris":{"android":"levelo://app?vid=5b77ac25-d58a-4069-8beb-dc7bc35ccb2f","ios":"levelo://app?vid=5b77ac25-d58a-4069-8beb-dc7bc35ccb2f"},"vehicle_type_id":"4","last_reported":1727111294,"current_range_meters":6800,"station_id":"ce4bhgh2rcd13ifvqfb0","pricing_plan_id":"cebpf4jnsgd1na2vs0mg"},{"bike_id":"f98c305f-2fed-4588-ae9d-42d3748ef4bd","system_id":"levelo_inurba_marseille","lat":43.28432,"lon":5.39186,"is_reserved":false,"is_disabled":false,"rental_uris":{"android":"levelo://app?vid=f98c305f-2fed-4588-ae9d-42d3748ef4bd","ios":"levelo://app?vid=f98c305f-2fed-4588-ae9d-42d3748ef4bd"},"vehicle_type_id":"4","last_reported":1727111294,"current_range_meters":8400,"station_id":"ce4bhoh2rcd13ifvqh5g","pricing_plan_id":"cebpf4jnsgd1na2vs0mg"},{"bike_id":"9978d5be-a96d-4a92-a8e6-f5b6ee8fafc8","system_id":"levelo_inurba_marseille","lat":43.30637,"lon":5.40102,"is_reserved":false,"is_disabled":false,"rental_uris":{"android":"levelo://app?vid=9978d5be-a96d-4a92-a8e6-f5b6ee8fafc8","ios":"levelo://app?vid=9978d5be-a96d-4a92-a8e6-f5b6ee8fafc8"},"vehicle_type_id":"4","last_reported":1727111294,"current_range_meters":17200,"station_id":"ce4bh112rcd13ifvqda0","pricing_plan_id":"cebpf4jnsgd1na2vs0mg"},{"bike_id":"1a108c67-bfd6-4ec1-bbd7-f904000be4ea","system_id":"levelo_inurba_marseille","lat":43.28722,"lon":5.36081,"is_reserved":false,"is_disabled":false,"rental_uris":{"android":"levelo://app?vid=1a108c67-bfd6-4ec1-bbd7-f904000be4ea","ios":"levelo://app?vid=1a108c67-bfd6-4ec1-bbd7-f904000be4ea"},"vehicle_type_id":"4","last_reported":1727111294,"current_range_meters":19200,"station_id":"cki0cbj6b192h4jlfktg","pricing_plan_id":"cebpf4jnsgd1na2vs0mg"},{"bike_id":"8130be1a-3e82-47c6-95d8-218a863937a6","system_id":"levelo_inurba_marseille","lat":43.33023,"lon":5.39041,"is_reserved":false,"is_disabled":false,"rental_uris":{"android":"levelo://app?vid=8130be1a-3e82-47c6-95d8-218a863937a6","ios":"levelo://app?vid=8130be1a-3e82-47c6-95d8-218a863937a6"},"vehicle_type_id":"4","last_reported":1727111294,"current_range_meters":24000,"station_id":"ce4bhr92rcd13ifvqhrg","pricing_plan_id":"cebpf4jnsgd1na2vs0mg"},{"bike_id":"3ebaaaec-15d2-494c-ab9e-13e8bcbe1874","system_id":"levelo_inurba_marseille","lat":43.29276,"lon":5.3686,"is_reserved":false,"is_disabled":false,"rental_uris":{"android":"levelo://app?vid=3ebaaaec-15d2-494c-ab9e-13e8bcbe1874","ios":"levelo://app?vid=3ebaaaec-15d2-494c-ab9e-13e8bcbe1874"},"vehicle_type_id":"4","last_reported":1727111294,"current_range_meters":29600,"station_id":"ce4bhbp2rcd13ifvqesg","pricing_plan_id":"cebpf4jnsgd1na2vs0mg"},{"bike_id":"0acb8fda-8c8b-45d6-a605-e76d40778e66","system_id":"levelo_inurba_marseille","lat":43.28467,"lon":5.35895,"is_reserved":false,"is_disabled":false,"rental_uris":{"android":"levelo://app?vid=0acb8fda-8c8b-45d6-a605-e76d40778e66","ios":"levelo://app?vid=0acb8fda-8c8b-45d6-a605-e76d40778e66"},"vehicle_type_id":"4","last_reported":1727111294,"current_range_meters":36400,"station_id":"ce4bhah2rcd13ifvqei0","pricing_plan_id":"cebpf4jnsgd1na2vs0mg"},{"bike_id":"244a7b83-85c6-49c4-b18a-afa00a842e56","system_id":"levelo_inurba_marseille","lat":43.31278,"lon":5.40175,"is_reserved":false,"is_disabled":false,"rental_uris":{"android":"levelo://app?vid=244a7b83-85c6-49c4-b18a-afa00a842e56","ios":"levelo://app?vid=244a7b83-85c6-49c4-b18a-afa00a842e56"},"vehicle_type_id":"4","last_reported":1727111294,"current_range_meters":25200,"station_id":"ce4bh092rcd13ifvqd30","pricing_plan_id":"cebpf4jnsgd1na2vs0mg"},{"bike_id":"276aa096-2b51-40c0-926e-66d0d5399356","system_id":"levelo_inurba_marseille","lat":43.27378,"lon":5.36257,"is_reserved":false,"is_disabled":false,"rental_uris":{"android":"levelo://app?vid=276aa096-2b51-40c0-926e-66d0d5399356","ios":"levelo://app?vid=276aa096-2b51-40c0-926e-66d0d5399356"},"vehicle_type_id":"4","last_reported":1727111294,"current_range_meters":38400,"station_id":"ce4bhbh2rcd13ifvqeo0","pricing_plan_id":"cebpf4jnsgd1na2vs0mg"},{"bike_id":"42ab4af4-d339-4d57-8a34-8534ea0f5417","system_id":"levelo_inurba_marseille","lat":43.27951,"lon":5.41057,"is_reserved":false,"is_disabled":false,"rental_uris":{"android":"levelo://app?vid=42ab4af4-d339-4d57-8a34-8534ea0f5417","ios":"levelo://app?vid=42ab4af4-d339-4d57-8a34-8534ea0f5417"},"vehicle_type_id":"4","last_reported":1727111294,"current_range_meters":23200,"station_id":"ce4bhnp2rcd13ifvqh0g","pricing_plan_id":"cebpf4jnsgd1na2vs0mg"},{"bike_id":"4a917c45-7e84-4f00-a6a4-66a8ee45b13d","system_id":"levelo_inurba_marseille","lat":43.27817,"lon":5.40716,"is_reserved":false,"is_disabled":false,"rental_uris":{"android":"levelo://app?vid=4a917c45-7e84-4f00-a6a4-66a8ee45b13d","ios":"levelo://app?vid=4a917c45-7e84-4f00-a6a4-66a8ee45b13d"},"vehicle_type_id":"4","last_reported":1727111294,"current_range_meters":4000,"station_id":"ce4bhnh2rcd13ifvqgtg","pricing_plan_id":"cebpf4jnsgd1na2vs0mg"},{"bike_id":"79b6158e-9ef9-4ee7-af53-4952e795c2df","system_id":"levelo_inurba_marseille","lat":43.27999,"lon":5.40022,"is_reserved":false,"is_disabled":false,"rental_uris":{"android":"levelo://app?vid=79b6158e-9ef9-4ee7-af53-4952e795c2df","ios":"levelo://app?vid=79b6158e-9ef9-4ee7-af53-4952e795c2df"},"vehicle_type_id":"4","last_reported":1727111294,"current_range_meters":11600,"station_id":"ce4bho92rcd13ifvqh4g","pricing_plan_id":"cebpf4jnsgd1na2vs0mg"},{"bike_id":"d3d263ca-d335-49dc-9ad9-7c6b264e8d3f","system_id":"levelo_inurba_marseille","lat":43.290014,"lon":5.356163,"is_reserved":false,"is_disabled":false,"rental_uris":{"android":"levelo://app?vid=d3d263ca-d335-49dc-9ad9-7c6b264e8d3f","ios":"levelo://app?vid=d3d263ca-d335-49dc-9ad9-7c6b264e8d3f"},"vehicle_type_id":"4","last_reported":1727111294,"current_range_meters":2800,"station_id":"ce4bhb92rcd13ifvqen0","pricing_plan_id":"cebpf4jnsgd1na2vs0mg"},{"bike_id":"39ef693d-a693-43ba-9ee6-ece05a4b9f38","system_id":"levelo_inurba_marseille","lat":43.292664,"lon":5.384399,"is_reserved":false,"is_disabled":false,"rental_uris":{"android":"levelo://app?vid=39ef693d-a693-43ba-9ee6-ece05a4b9f38","ios":"levelo://app?vid=39ef693d-a693-43ba-9ee6-ece05a4b9f38"},"vehicle_type_id":"4","last_reported":1727111294,"current_range_meters":8800,"station_id":"ce4bh692rcd13ifvqea0","pricing_plan_id":"cebpf4jnsgd1na2vs0mg"},{"bike_id":"36c416da-9158-44af-aa3a-06b103bea7bf","system_id":"levelo_inurba_marseille","lat":43.337444,"lon":5.374475,"is_reserved":false,"is_disabled":false,"rental_uris":{"android":"levelo://app?vid=36c416da-9158-44af-aa3a-06b103bea7bf","ios":"levelo://app?vid=36c416da-9158-44af-aa3a-06b103bea7bf"},"vehicle_type_id":"4","last_reported":1727111294,"current_range_meters":22800,"station_id":"","pricing_plan_id":"cebpf4jnsgd1na2vs0mg"},{"bike_id":"250aec29-1065-4827-b09d-dbd693ff8f50","system_id":"levelo_inurba_marseille","lat":43.28464,"lon":5.35885,"is_reserved":false,"is_disabled":false,"rental_uris":{"android":"levelo://app?vid=250aec29-1065-4827-b09d-dbd693ff8f50","ios":"levelo://app?vid=250aec29-1065-4827-b09d-dbd693ff8f50"},"vehicle_type_id":"4","last_reported":1727111294,"current_range_meters":8400,"station_id":"ce4bhah2rcd13ifvqei0","pricing_plan_id":"cebpf4jnsgd1na2vs0mg"},{"bike_id":"14bcbdfd-0044-4414-82b7-c589790b3645","system_id":"levelo_inurba_marseille","lat":43.29557,"lon":5.42288,"is_reserved":false,"is_disabled":false,"rental_uris":{"android":"levelo://app?vid=14bcbdfd-0044-4414-82b7-c589790b3645","ios":"levelo://app?vid=14bcbdfd-0044-4414-82b7-c589790b3645"},"vehicle_type_id":"4","last_reported":1727111294,"current_range_meters":36800,"station_id":"ce4bhph2rcd13ifvqhdg","pricing_plan_id":"cebpf4jnsgd1na2vs0mg"},{"bike_id":"d5f5db2f-2c3d-4046-a044-391b3f72b76d","system_id":"levelo_inurba_marseille","lat":43.32365,"lon":5.38887,"is_reserved":false,"is_disabled":false,"rental_uris":{"android":"levelo://app?vid=d5f5db2f-2c3d-4046-a044-391b3f72b76d","ios":"levelo://app?vid=d5f5db2f-2c3d-4046-a044-391b3f72b76d"},"vehicle_type_id":"4","last_reported":1727111294,"current_range_meters":24800,"station_id":"ce4bhqp2rcd13ifvqhog","pricing_plan_id":"cebpf4jnsgd1na2vs0mg"},{"bike_id":"5abf3738-3056-45d0-ad36-b5f63eb6c7bd","system_id":"levelo_inurba_marseille","lat":43.31721,"lon":5.43708,"is_reserved":false,"is_disabled":false,"rental_uris":{"android":"levelo://app?vid=5abf3738-3056-45d0-ad36-b5f63eb6c7bd","ios":"levelo://app?vid=5abf3738-3056-45d0-ad36-b5f63eb6c7bd"},"vehicle_type_id":"4","last_reported":1727111294,"current_range_meters":20000,"station_id":"ce4bhp92rcd13ifvqhcg","pricing_plan_id":"cebpf4jnsgd1na2vs0mg"},{"bike_id":"6958bd5d-7ee1-4eac-9bbb-9219a78817d1","system_id":"levelo_inurba_marseille","lat":43.28154,"lon":5.42653,"is_reserved":false,"is_disabled":false,"rental_uris":{"android":"levelo://app?vid=6958bd5d-7ee1-4eac-9bbb-9219a78817d1","ios":"levelo://app?vid=6958bd5d-7ee1-4eac-9bbb-9219a78817d1"},"vehicle_type_id":"4","last_reported":1727111294,"current_range_meters":8000,"station_id":"ce4bhnh2rcd13ifvqgug","pricing_plan_id":"cebpf4jnsgd1na2vs0mg"},{"bike_id":"f06b9cdf-f6a3-4552-b36a-a849ce815568","system_id":"levelo_inurba_marseille","lat":43.23193,"lon":5.35553,"is_reserved":false,"is_disabled":false,"rental_uris":{"android":"levelo://app?vid=f06b9cdf-f6a3-4552-b36a-a849ce815568","ios":"levelo://app?vid=f06b9cdf-f6a3-4552-b36a-a849ce815568"},"vehicle_type_id":"4","last_reported":1727111294,"current_range_meters":3200,"station_id":"ce4bhu92rcd13ifvqi70","pricing_plan_id":"cebpf4jnsgd1na2vs0mg"},{"bike_id":"37e27118-9e69-40fc-a96c-b00ca6f8b472","system_id":"levelo_inurba_marseille","lat":43.29929,"lon":5.36557,"is_reserved":false,"is_disabled":false,"rental_uris":{"android":"levelo://app?vid=37e27118-9e69-40fc-a96c-b00ca6f8b472","ios":"levelo://app?vid=37e27118-9e69-40fc-a96c-b00ca6f8b472"},"vehicle_type_id":"4","last_reported":1727111294,"current_range_meters":37600,"station_id":"ce4bgm92rcd13ifvqbr0","pricing_plan_id":"cebpf4jnsgd1na2vs0mg"},{"bike_id":"0e0074cf-a30a-4ba3-99d8-76d9e492b624","system_id":"levelo_inurba_marseille","lat":43.23196,"lon":5.3555,"is_reserved":false,"is_disabled":false,"rental_uris":{"android":"levelo://app?vid=0e0074cf-a30a-4ba3-99d8-76d9e492b624","ios":"levelo://app?vid=0e0074cf-a30a-4ba3-99d8-76d9e492b624"},"vehicle_type_id":"4","last_reported":1727111294,"current_range_meters":8400,"station_id":"ce4bhu92rcd13ifvqi70","pricing_plan_id":"cebpf4jnsgd1na2vs0mg"},{"bike_id":"a45ad49e-27f1-4100-b816-24c7682ba67b","system_id":"levelo_inurba_marseille","lat":43.31279,"lon":5.4016,"is_reserved":false,"is_disabled":false,"rental_uris":{"android":"levelo://app?vid=a45ad49e-27f1-4100-b816-24c7682ba67b","ios":"levelo://app?vid=a45ad49e-27f1-4100-b816-24c7682ba67b"},"vehicle_type_id":"4","last_reported":1727111294,"current_range_meters":30400,"station_id":"ce4bh092rcd13ifvqd30","pricing_plan_id":"cebpf4jnsgd1na2vs0mg"},{"bike_id":"97b7a43b-cedc-4ed1-903e-6243f72dea61","system_id":"levelo_inurba_marseille","lat":43.28465,"lon":5.35888,"is_reserved":false,"is_disabled":false,"rental_uris":{"android":"levelo://app?vid=97b7a43b-cedc-4ed1-903e-6243f72dea61","ios":"levelo://app?vid=97b7a43b-cedc-4ed1-903e-6243f72dea61"},"vehicle_type_id":"4","last_reported":1727111294,"current_range_meters":12800,"station_id":"ce4bhah2rcd13ifvqei0","pricing_plan_id":"cebpf4jnsgd1na2vs0mg"},{"bike_id":"18540f15-c84f-4858-9d32-26d0a3f92a79","system_id":"levelo_inurba_marseille","lat":43.27675,"lon":5.38876,"is_reserved":false,"is_disabled":false,"rental_uris":{"android":"levelo://app?vid=18540f15-c84f-4858-9d32-26d0a3f92a79","ios":"levelo://app?vid=18540f15-c84f-4858-9d32-26d0a3f92a79"},"vehicle_type_id":"4","last_reported":1727111294,"current_range_meters":4400,"station_id":"ce4bhi12rcd13ifvqfo0","pricing_plan_id":"cebpf4jnsgd1na2vs0mg"},{"bike_id":"09dc80f0-1de9-4947-a0d2-94bdefce4552","system_id":"levelo_inurba_marseille","lat":43.30409,"lon":5.39748,"is_reserved":false,"is_disabled":false,"rental_uris":{"android":"levelo://app?vid=09dc80f0-1de9-4947-a0d2-94bdefce4552","ios":"levelo://app?vid=09dc80f0-1de9-4947-a0d2-94bdefce4552"},"vehicle_type_id":"4","last_reported":1727111294,"current_range_meters":32400,"station_id":"ce4bh092rcd13ifvqd20","pricing_plan_id":"cebpf4jnsgd1na2vs0mg"},{"bike_id":"4ac998f4-cf54-46db-b1f0-a594035d7a70","system_id":"levelo_inurba_marseille","lat":43.27921,"lon":5.39578,"is_reserved":false,"is_disabled":false,"rental_uris":{"android":"levelo://app?vid=4ac998f4-cf54-46db-b1f0-a594035d7a70","ios":"levelo://app?vid=4ac998f4-cf54-46db-b1f0-a594035d7a70"},"vehicle_type_id":"4","last_reported":1727111294,"current_range_meters":28000,"station_id":"ce4bhf92rcd13ifvqf40","pricing_plan_id":"cebpf4jnsgd1na2vs0mg"},{"bike_id":"61a4574b-3b21-457b-9ef1-3e922f86625d","system_id":"levelo_inurba_marseille","lat":43.25583,"lon":5.38251,"is_reserved":false,"is_disabled":false,"rental_uris":{"android":"levelo://app?vid=61a4574b-3b21-457b-9ef1-3e922f86625d","ios":"levelo://app?vid=61a4574b-3b21-457b-9ef1-3e922f86625d"},"vehicle_type_id":"4","last_reported":1727111294,"current_range_meters":17200,"station_id":"ce4bhih2rcd13ifvqfs0","pricing_plan_id":"cebpf4jnsgd1na2vs0mg"},{"bike_id":"80e593fc-7480-466c-a9ef-6d5ddec9f9c5","system_id":"levelo_inurba_marseille","lat":43.306,"lon":5.37482,"is_reserved":false,"is_disabled":false,"rental_uris":{"android":"levelo://app?vid=80e593fc-7480-466c-a9ef-6d5ddec9f9c5","ios":"levelo://app?vid=80e593fc-7480-466c-a9ef-6d5ddec9f9c5"},"vehicle_type_id":"4","last_reported":1727111294,"current_range_meters":10800,"station_id":"","pricing_plan_id":"cebpf4jnsgd1na2vs0mg"},{"bike_id":"9ce390e9-2077-48fe-a051-419d51b97fec","system_id":"levelo_inurba_marseille","lat":43.28344,"lon":5.38113,"is_reserved":false,"is_disabled":false,"rental_uris":{"android":"levelo://app?vid=9ce390e9-2077-48fe-a051-419d51b97fec","ios":"levelo://app?vid=9ce390e9-2077-48fe-a051-419d51b97fec"},"vehicle_type_id":"4","last_reported":1727111294,"current_range_meters":25600,"station_id":"ce4bh412rcd13ifvqdr0","pricing_plan_id":"cebpf4jnsgd1na2vs0mg"},{"bike_id":"4d34be00-08f7-486d-8f4b-cd92555cd2e1","system_id":"levelo_inurba_marseille","lat":43.2439,"lon":5.37063,"is_reserved":false,"is_disabled":false,"rental_uris":{"android":"levelo://app?vid=4d34be00-08f7-486d-8f4b-cd92555cd2e1","ios":"levelo://app?vid=4d34be00-08f7-486d-8f4b-cd92555cd2e1"},"vehicle_type_id":"4","last_reported":1727111294,"current_range_meters":24000,"station_id":"ce4bhhh2rcd13ifvqfk0","pricing_plan_id":"cebpf4jnsgd1na2vs0mg"},{"bike_id":"7eec7c41-832a-4e06-b15f-fdf04acb23fa","system_id":"levelo_inurba_marseille","lat":43.29278,"lon":5.3684,"is_reserved":false,"is_disabled":false,"rental_uris":{"android":"levelo://app?vid=7eec7c41-832a-4e06-b15f-fdf04acb23fa","ios":"levelo://app?vid=7eec7c41-832a-4e06-b15f-fdf04acb23fa"},"vehicle_type_id":"4","last_reported":1727111294,"current_range_meters":17600,"station_id":"ce4bhbp2rcd13ifvqesg","pricing_plan_id":"cebpf4jnsgd1na2vs0mg"},{"bike_id":"7372a312-5bea-45b7-8688-b40ea5a41292","system_id":"levelo_inurba_marseille","lat":43.28454,"lon":5.35881,"is_reserved":false,"is_disabled":false,"rental_uris":{"android":"levelo://app?vid=7372a312-5bea-45b7-8688-b40ea5a41292","ios":"levelo://app?vid=7372a312-5bea-45b7-8688-b40ea5a41292"},"vehicle_type_id":"4","last_reported":1727111294,"current_range_meters":38800,"station_id":"ce4bhah2rcd13ifvqei0","pricing_plan_id":"cebpf4jnsgd1na2vs0mg"},{"bike_id":"c0bf08f8-39b8-43bf-8302-ac2a4dd5ad58","system_id":"levelo_inurba_marseille","lat":43.29553,"lon":5.42281,"is_reserved":false,"is_disabled":false,"rental_uris":{"android":"levelo://app?vid=c0bf08f8-39b8-43bf-8302-ac2a4dd5ad58","ios":"levelo://app?vid=c0bf08f8-39b8-43bf-8302-ac2a4dd5ad58"},"vehicle_type_id":"4","last_reported":1727111294,"current_range_meters":26800,"station_id":"ce4bhph2rcd13ifvqhdg","pricing_plan_id":"cebpf4jnsgd1na2vs0mg"},{"bike_id":"aeb4d4cd-760c-403c-8e90-daf1a834f5dd","system_id":"levelo_inurba_marseille","lat":43.3108,"lon":5.38375,"is_reserved":false,"is_disabled":false,"rental_uris":{"android":"levelo://app?vid=aeb4d4cd-760c-403c-8e90-daf1a834f5dd","ios":"levelo://app?vid=aeb4d4cd-760c-403c-8e90-daf1a834f5dd"},"vehicle_type_id":"4","last_reported":1727111294,"current_range_meters":31200,"station_id":"ce4bgv92rcd13ifvqcr0","pricing_plan_id":"cebpf4jnsgd1na2vs0mg"},{"bike_id":"8463ecad-a4cf-4eba-a213-ade13053be92","system_id":"levelo_inurba_marseille","lat":43.24176,"lon":5.39738,"is_reserved":false,"is_disabled":false,"rental_uris":{"android":"levelo://app?vid=8463ecad-a4cf-4eba-a213-ade13053be92","ios":"levelo://app?vid=8463ecad-a4cf-4eba-a213-ade13053be92"},"vehicle_type_id":"4","last_reported":1727111294,"current_range_meters":20400,"station_id":"ce4bhn12rcd13ifvqgpg","pricing_plan_id":"cebpf4jnsgd1na2vs0mg"},{"bike_id":"9bed6c35-d0b8-465f-97ea-f19252e51213","system_id":"levelo_inurba_marseille","lat":43.28155,"lon":5.42643,"is_reserved":false,"is_disabled":false,"rental_uris":{"android":"levelo://app?vid=9bed6c35-d0b8-465f-97ea-f19252e51213","ios":"levelo://app?vid=9bed6c35-d0b8-465f-97ea-f19252e51213"},"vehicle_type_id":"4","last_reported":1727111294,"current_range_meters":20800,"station_id":"ce4bhnh2rcd13ifvqgug","pricing_plan_id":"cebpf4jnsgd1na2vs0mg"},{"bike_id":"cc9c07f8-4953-45e7-b223-7aa1cc9eec35","system_id":"levelo_inurba_marseille","lat":43.31116,"lon":5.37769,"is_reserved":false,"is_disabled":false,"rental_uris":{"android":"levelo://app?vid=cc9c07f8-4953-45e7-b223-7aa1cc9eec35","ios":"levelo://app?vid=cc9c07f8-4953-45e7-b223-7aa1cc9eec35"},"vehicle_type_id":"4","last_reported":1727111294,"current_range_meters":26000,"station_id":"ce4bgt92rcd13ifvqcg0","pricing_plan_id":"cebpf4jnsgd1na2vs0mg"},{"bike_id":"729a7eee-bcf8-4897-b93a-b2ea3ca3b6d1","system_id":"levelo_inurba_marseille","lat":43.23972,"lon":5.36651,"is_reserved":false,"is_disabled":false,"rental_uris":{"android":"levelo://app?vid=729a7eee-bcf8-4897-b93a-b2ea3ca3b6d1","ios":"levelo://app?vid=729a7eee-bcf8-4897-b93a-b2ea3ca3b6d1"},"vehicle_type_id":"4","last_reported":1727111294,"current_range_meters":18000,"station_id":"ce4bhi12rcd13ifvqfp0","pricing_plan_id":"cebpf4jnsgd1na2vs0mg"},{"bike_id":"61c38dd3-fff6-47a0-a629-6762b80b78ae","system_id":"levelo_inurba_marseille","lat":43.30418,"lon":5.41288,"is_reserved":false,"is_disabled":false,"rental_uris":{"android":"levelo://app?vid=61c38dd3-fff6-47a0-a629-6762b80b78ae","ios":"levelo://app?vid=61c38dd3-fff6-47a0-a629-6762b80b78ae"},"vehicle_type_id":"4","last_reported":1727111294,"current_range_meters":12800,"station_id":"ce4bhop2rcd13ifvqh8g","pricing_plan_id":"cebpf4jnsgd1na2vs0mg"},{"bike_id":"715c4804-6a86-4398-98ec-b57358573177","system_id":"levelo_inurba_marseille","lat":43.22929,"lon":5.35374,"is_reserved":false,"is_disabled":false,"rental_uris":{"android":"levelo://app?vid=715c4804-6a86-4398-98ec-b57358573177","ios":"levelo://app?vid=715c4804-6a86-4398-98ec-b57358573177"},"vehicle_type_id":"4","last_reported":1727111294,"current_range_meters":34800,"station_id":"cpo3532slgdg3j2ikp40","pricing_plan_id":"cebpf4jnsgd1na2vs0mg"},{"bike_id":"d16d903a-7689-4132-83e0-9849efc079f5","system_id":"levelo_inurba_marseille","lat":43.32363,"lon":5.389777,"is_reserved":false,"is_disabled":false,"rental_uris":{"android":"levelo://app?vid=d16d903a-7689-4132-83e0-9849efc079f5","ios":"levelo://app?vid=d16d903a-7689-4132-83e0-9849efc079f5"},"vehicle_type_id":"4","last_reported":1727111294,"current_range_meters":38800,"station_id":"ce4bhqp2rcd13ifvqhog","pricing_plan_id":"cebpf4jnsgd1na2vs0mg"},{"bike_id":"ba2542eb-4a30-47aa-b57a-68ac954d789a","system_id":"levelo_inurba_marseille","lat":43.23192,"lon":5.35552,"is_reserved":false,"is_disabled":false,"rental_uris":{"android":"levelo://app?vid=ba2542eb-4a30-47aa-b57a-68ac954d789a","ios":"levelo://app?vid=ba2542eb-4a30-47aa-b57a-68ac954d789a"},"vehicle_type_id":"4","last_reported":1727111294,"current_range_meters":17600,"station_id":"ce4bhu92rcd13ifvqi70","pricing_plan_id":"cebpf4jnsgd1na2vs0mg"},{"bike_id":"2ab80a6f-3ef8-4392-9cbb-166283ee31c5","system_id":"levelo_inurba_marseille","lat":43.2844,"lon":5.39197,"is_reserved":false,"is_disabled":false,"rental_uris":{"android":"levelo://app?vid=2ab80a6f-3ef8-4392-9cbb-166283ee31c5","ios":"levelo://app?vid=2ab80a6f-3ef8-4392-9cbb-166283ee31c5"},"vehicle_type_id":"4","last_reported":1727111294,"current_range_meters":38800,"station_id":"ce4bhoh2rcd13ifvqh5g","pricing_plan_id":"cebpf4jnsgd1na2vs0mg"},{"bike_id":"a47db776-52ef-4712-92ee-19d58c786c5f","system_id":"levelo_inurba_marseille","lat":43.30318,"lon":5.36914,"is_reserved":false,"is_disabled":false,"rental_uris":{"android":"levelo://app?vid=a47db776-52ef-4712-92ee-19d58c786c5f","ios":"levelo://app?vid=a47db776-52ef-4712-92ee-19d58c786c5f"},"vehicle_type_id":"4","last_reported":1727111294,"current_range_meters":30800,"station_id":"ce4bgqh2rcd13ifvqc5g","pricing_plan_id":"cebpf4jnsgd1na2vs0mg"},{"bike_id":"6d9ab5af-35fe-4e75-8f44-cdbb87953609","system_id":"levelo_inurba_marseille","lat":43.30136,"lon":5.3988,"is_reserved":false,"is_disabled":false,"rental_uris":{"android":"levelo://app?vid=6d9ab5af-35fe-4e75-8f44-cdbb87953609","ios":"levelo://app?vid=6d9ab5af-35fe-4e75-8f44-cdbb87953609"},"vehicle_type_id":"4","last_reported":1727111294,"current_range_meters":30800,"station_id":"ce4bh0h2rcd13ifvqd40","pricing_plan_id":"cebpf4jnsgd1na2vs0mg"},{"bike_id":"de7a9364-01a3-4992-abd0-885eede3f774","system_id":"levelo_inurba_marseille","lat":43.33024,"lon":5.39035,"is_reserved":false,"is_disabled":false,"rental_uris":{"android":"levelo://app?vid=de7a9364-01a3-4992-abd0-885eede3f774","ios":"levelo://app?vid=de7a9364-01a3-4992-abd0-885eede3f774"},"vehicle_type_id":"4","last_reported":1727111294,"current_range_meters":37600,"station_id":"ce4bhr92rcd13ifvqhrg","pricing_plan_id":"cebpf4jnsgd1na2vs0mg"},{"bike_id":"3ef1ed49-63ee-4668-b8e5-46cd6444f6a2","system_id":"levelo_inurba_marseille","lat":43.29067,"lon":5.37169,"is_reserved":false,"is_disabled":false,"rental_uris":{"android":"levelo://app?vid=3ef1ed49-63ee-4668-b8e5-46cd6444f6a2","ios":"levelo://app?vid=3ef1ed49-63ee-4668-b8e5-46cd6444f6a2"},"vehicle_type_id":"4","last_reported":1727111294,"current_range_meters":27600,"station_id":"ce4bh5p2rcd13ifvqe4g","pricing_plan_id":"cebpf4jnsgd1na2vs0mg"},{"bike_id":"4af9ee4b-1c6d-45af-baba-9c340d66ac29","system_id":"levelo_inurba_marseille","lat":43.26215,"lon":5.37449,"is_reserved":false,"is_disabled":false,"rental_uris":{"android":"levelo://app?vid=4af9ee4b-1c6d-45af-baba-9c340d66ac29","ios":"levelo://app?vid=4af9ee4b-1c6d-45af-baba-9c340d66ac29"},"vehicle_type_id":"4","last_reported":1727111294,"current_range_meters":28000,"station_id":"ce4bhgp2rcd13ifvqfc0","pricing_plan_id":"cebpf4jnsgd1na2vs0mg"},{"bike_id":"145cbcd5-fc67-4b82-b57e-a55874aa762d","system_id":"levelo_inurba_marseille","lat":43.23184,"lon":5.39977,"is_reserved":false,"is_disabled":false,"rental_uris":{"android":"levelo://app?vid=145cbcd5-fc67-4b82-b57e-a55874aa762d","ios":"levelo://app?vid=145cbcd5-fc67-4b82-b57e-a55874aa762d"},"vehicle_type_id":"4","last_reported":1727111294,"current_range_meters":17200,"station_id":"ce4bhn12rcd13ifvqgqg","pricing_plan_id":"cebpf4jnsgd1na2vs0mg"},{"bike_id":"61087251-7505-46bb-a381-567ebbde2271","system_id":"levelo_inurba_marseille","lat":43.28154,"lon":5.42642,"is_reserved":false,"is_disabled":false,"rental_uris":{"android":"levelo://app?vid=61087251-7505-46bb-a381-567ebbde2271","ios":"levelo://app?vid=61087251-7505-46bb-a381-567ebbde2271"},"vehicle_type_id":"4","last_reported":1727111294,"current_range_meters":10000,"station_id":"ce4bhnh2rcd13ifvqgug","pricing_plan_id":"cebpf4jnsgd1na2vs0mg"},{"bike_id":"438971c7-8dfd-405e-8f81-34c440e8ec23","system_id":"levelo_inurba_marseille","lat":43.27619,"lon":5.36108,"is_reserved":false,"is_disabled":false,"rental_uris":{"android":"levelo://app?vid=438971c7-8dfd-405e-8f81-34c440e8ec23","ios":"levelo://app?vid=438971c7-8dfd-405e-8f81-34c440e8ec23"},"vehicle_type_id":"4","last_reported":1727111294,"current_range_meters":37600,"station_id":"ce4bgj92rcd13ifvqbe0","pricing_plan_id":"cebpf4jnsgd1na2vs0mg"},{"bike_id":"a9976275-fafa-4f69-8675-413d7629718a","system_id":"levelo_inurba_marseille","lat":43.28578,"lon":5.39502,"is_reserved":false,"is_disabled":false,"rental_uris":{"android":"levelo://app?vid=a9976275-fafa-4f69-8675-413d7629718a","ios":"levelo://app?vid=a9976275-fafa-4f69-8675-413d7629718a"},"vehicle_type_id":"4","last_reported":1727111294,"current_range_meters":16000,"station_id":"ce4bh292rcd13ifvqdg0","pricing_plan_id":"cebpf4jnsgd1na2vs0mg"},{"bike_id":"418e58dc-68ed-4694-bb4a-823bcd5dc44b","system_id":"levelo_inurba_marseille","lat":43.262054,"lon":5.374431,"is_reserved":false,"is_disabled":false,"rental_uris":{"android":"levelo://app?vid=418e58dc-68ed-4694-bb4a-823bcd5dc44b","ios":"levelo://app?vid=418e58dc-68ed-4694-bb4a-823bcd5dc44b"},"vehicle_type_id":"4","last_reported":1727111294,"current_range_meters":5600,"station_id":"ce4bhgp2rcd13ifvqfc0","pricing_plan_id":"cebpf4jnsgd1na2vs0mg"},{"bike_id":"c164cf44-3a0e-4b46-8f55-1d90db6c78b7","system_id":"levelo_inurba_marseille","lat":43.27379,"lon":5.36267,"is_reserved":false,"is_disabled":false,"rental_uris":{"android":"levelo://app?vid=c164cf44-3a0e-4b46-8f55-1d90db6c78b7","ios":"levelo://app?vid=c164cf44-3a0e-4b46-8f55-1d90db6c78b7"},"vehicle_type_id":"4","last_reported":1727111294,"current_range_meters":14800,"station_id":"ce4bhbh2rcd13ifvqeo0","pricing_plan_id":"cebpf4jnsgd1na2vs0mg"},{"bike_id":"fce734b4-6c36-4cb6-983c-c95238702258","system_id":"levelo_inurba_marseille","lat":43.31076,"lon":5.38112,"is_reserved":false,"is_disabled":false,"rental_uris":{"android":"levelo://app?vid=fce734b4-6c36-4cb6-983c-c95238702258","ios":"levelo://app?vid=fce734b4-6c36-4cb6-983c-c95238702258"},"vehicle_type_id":"4","last_reported":1727111294,"current_range_meters":7200,"station_id":"","pricing_plan_id":"cebpf4jnsgd1na2vs0mg"},{"bike_id":"f7949831-abac-4dd2-b535-535ebaaee764","system_id":"levelo_inurba_marseille","lat":43.25582,"lon":5.38227,"is_reserved":false,"is_disabled":false,"rental_uris":{"android":"levelo://app?vid=f7949831-abac-4dd2-b535-535ebaaee764","ios":"levelo://app?vid=f7949831-abac-4dd2-b535-535ebaaee764"},"vehicle_type_id":"4","last_reported":1727111294,"current_range_meters":38800,"station_id":"ce4bhih2rcd13ifvqfs0","pricing_plan_id":"cebpf4jnsgd1na2vs0mg"},{"bike_id":"3cda9349-2e12-4344-aa0d-37eb925476b4","system_id":"levelo_inurba_marseille","lat":43.30425,"lon":5.41291,"is_reserved":false,"is_disabled":false,"rental_uris":{"android":"levelo://app?vid=3cda9349-2e12-4344-aa0d-37eb925476b4","ios":"levelo://app?vid=3cda9349-2e12-4344-aa0d-37eb925476b4"},"vehicle_type_id":"4","last_reported":1727111294,"current_range_meters":20800,"station_id":"ce4bhop2rcd13ifvqh8g","pricing_plan_id":"cebpf4jnsgd1na2vs0mg"},{"bike_id":"c32c9f99-2785-472b-a64b-1235b0b8e4b2","system_id":"levelo_inurba_marseille","lat":43.23966,"lon":5.36629,"is_reserved":false,"is_disabled":false,"rental_uris":{"android":"levelo://app?vid=c32c9f99-2785-472b-a64b-1235b0b8e4b2","ios":"levelo://app?vid=c32c9f99-2785-472b-a64b-1235b0b8e4b2"},"vehicle_type_id":"4","last_reported":1727111294,"current_range_meters":12800,"station_id":"ce4bhi12rcd13ifvqfp0","pricing_plan_id":"cebpf4jnsgd1na2vs0mg"},{"bike_id":"43494b8d-a814-4a23-bc73-14e548a53fff","system_id":"levelo_inurba_marseille","lat":43.27376,"lon":5.36286,"is_reserved":false,"is_disabled":false,"rental_uris":{"android":"levelo://app?vid=43494b8d-a814-4a23-bc73-14e548a53fff","ios":"levelo://app?vid=43494b8d-a814-4a23-bc73-14e548a53fff"},"vehicle_type_id":"4","last_reported":1727111294,"current_range_meters":8000,"station_id":"ce4bhbh2rcd13ifvqeo0","pricing_plan_id":"cebpf4jnsgd1na2vs0mg"},{"bike_id":"3cf942cf-db2f-44d9-a923-52b915402c9f","system_id":"levelo_inurba_marseille","lat":43.27954,"lon":5.41047,"is_reserved":false,"is_disabled":false,"rental_uris":{"android":"levelo://app?vid=3cf942cf-db2f-44d9-a923-52b915402c9f","ios":"levelo://app?vid=3cf942cf-db2f-44d9-a923-52b915402c9f"},"vehicle_type_id":"4","last_reported":1727111294,"current_range_meters":12800,"station_id":"ce4bhnp2rcd13ifvqh0g","pricing_plan_id":"cebpf4jnsgd1na2vs0mg"},{"bike_id":"7318b349-074b-4770-a900-06f5b5c627b3","system_id":"levelo_inurba_marseille","lat":43.27176,"lon":5.40998,"is_reserved":false,"is_disabled":false,"rental_uris":{"android":"levelo://app?vid=7318b349-074b-4770-a900-06f5b5c627b3","ios":"levelo://app?vid=7318b349-074b-4770-a900-06f5b5c627b3"},"vehicle_type_id":"4","last_reported":1727111294,"current_range_meters":39200,"station_id":"ce4bhl12rcd13ifvqgf0","pricing_plan_id":"cebpf4jnsgd1na2vs0mg"},{"bike_id":"09bec9e3-5ab1-479e-a697-3df50341eb2d","system_id":"levelo_inurba_marseille","lat":43.299055,"lon":5.38154,"is_reserved":false,"is_disabled":false,"rental_uris":{"android":"levelo://app?vid=09bec9e3-5ab1-479e-a697-3df50341eb2d","ios":"levelo://app?vid=09bec9e3-5ab1-479e-a697-3df50341eb2d"},"vehicle_type_id":"4","last_reported":1727111294,"current_range_meters":25600,"station_id":"ce4bgj12rcd13ifvqbc0","pricing_plan_id":"cebpf4jnsgd1na2vs0mg"},{"bike_id":"011d8a25-1e12-4199-b385-43e6f9cc4f79","system_id":"levelo_inurba_marseille","lat":43.28833,"lon":5.37344,"is_reserved":false,"is_disabled":false,"rental_uris":{"android":"levelo://app?vid=011d8a25-1e12-4199-b385-43e6f9cc4f79","ios":"levelo://app?vid=011d8a25-1e12-4199-b385-43e6f9cc4f79"},"vehicle_type_id":"4","last_reported":1727111294,"current_range_meters":16400,"station_id":"ce4bh5p2rcd13ifvqe4g","pricing_plan_id":"cebpf4jnsgd1na2vs0mg"},{"bike_id":"ece46625-db63-40b7-b71f-d95c31f95105","system_id":"levelo_inurba_marseille","lat":43.30957,"lon":5.390248,"is_reserved":false,"is_disabled":false,"rental_uris":{"android":"levelo://app?vid=ece46625-db63-40b7-b71f-d95c31f95105","ios":"levelo://app?vid=ece46625-db63-40b7-b71f-d95c31f95105"},"vehicle_type_id":"4","last_reported":1727111294,"current_range_meters":17200,"station_id":"ce4bgup2rcd13ifvqco0","pricing_plan_id":"cebpf4jnsgd1na2vs0mg"},{"bike_id":"c959ca8d-ba53-4b69-b028-aa3156c88619","system_id":"levelo_inurba_marseille","lat":43.28384,"lon":5.38626,"is_reserved":false,"is_disabled":false,"rental_uris":{"android":"levelo://app?vid=c959ca8d-ba53-4b69-b028-aa3156c88619","ios":"levelo://app?vid=c959ca8d-ba53-4b69-b028-aa3156c88619"},"vehicle_type_id":"4","last_reported":1727111294,"current_range_meters":35200,"station_id":"","pricing_plan_id":"cebpf4jnsgd1na2vs0mg"},{"bike_id":"daa83b28-09e9-4e6a-a19c-c7e39b15d823","system_id":"levelo_inurba_marseille","lat":43.26793,"lon":5.3941,"is_reserved":false,"is_disabled":false,"rental_uris":{"android":"levelo://app?vid=daa83b28-09e9-4e6a-a19c-c7e39b15d823","ios":"levelo://app?vid=daa83b28-09e9-4e6a-a19c-c7e39b15d823"},"vehicle_type_id":"4","last_reported":1727111294,"current_range_meters":18000,"station_id":"ce4bhh12rcd13ifvqfg0","pricing_plan_id":"cebpf4jnsgd1na2vs0mg"},{"bike_id":"f5ed63a8-85cc-4306-a6d8-a192164394a0","system_id":"levelo_inurba_marseille","lat":43.24998,"lon":5.38934,"is_reserved":false,"is_disabled":false,"rental_uris":{"android":"levelo://app?vid=f5ed63a8-85cc-4306-a6d8-a192164394a0","ios":"levelo://app?vid=f5ed63a8-85cc-4306-a6d8-a192164394a0"},"vehicle_type_id":"4","last_reported":1727111294,"current_range_meters":22800,"station_id":"ce4bhgp2rcd13ifvqfd0","pricing_plan_id":"cebpf4jnsgd1na2vs0mg"},{"bike_id":"d9c7303e-59ca-4b88-9fab-1e8961628fb9","system_id":"levelo_inurba_marseille","lat":43.26058,"lon":5.39395,"is_reserved":false,"is_disabled":false,"rental_uris":{"android":"levelo://app?vid=d9c7303e-59ca-4b88-9fab-1e8961628fb9","ios":"levelo://app?vid=d9c7303e-59ca-4b88-9fab-1e8961628fb9"},"vehicle_type_id":"4","last_reported":1727111294,"current_range_meters":39200,"station_id":"ce4bhh92rcd13ifvqfj0","pricing_plan_id":"cebpf4jnsgd1na2vs0mg"},{"bike_id":"32e5af61-0b62-4833-a083-2c1b04beb610","system_id":"levelo_inurba_marseille","lat":43.28714,"lon":5.3794,"is_reserved":false,"is_disabled":false,"rental_uris":{"android":"levelo://app?vid=32e5af61-0b62-4833-a083-2c1b04beb610","ios":"levelo://app?vid=32e5af61-0b62-4833-a083-2c1b04beb610"},"vehicle_type_id":"4","last_reported":1727111294,"current_range_meters":16800,"station_id":"ce4bh9p2rcd13ifvqec0","pricing_plan_id":"cebpf4jnsgd1na2vs0mg"},{"bike_id":"617b218b-2b8c-4e15-91d8-a565edb3c879","system_id":"levelo_inurba_marseille","lat":43.285965,"lon":5.370731,"is_reserved":false,"is_disabled":false,"rental_uris":{"android":"levelo://app?vid=617b218b-2b8c-4e15-91d8-a565edb3c879","ios":"levelo://app?vid=617b218b-2b8c-4e15-91d8-a565edb3c879"},"vehicle_type_id":"4","last_reported":1727111294,"current_range_meters":31200,"station_id":"ce4bht12rcd13ifvqi60","pricing_plan_id":"cebpf4jnsgd1na2vs0mg"},{"bike_id":"fa690805-233a-4a70-a9f3-33f1b67cdb1f","system_id":"levelo_inurba_marseille","lat":43.32293,"lon":5.38267,"is_reserved":false,"is_disabled":false,"rental_uris":{"android":"levelo://app?vid=fa690805-233a-4a70-a9f3-33f1b67cdb1f","ios":"levelo://app?vid=fa690805-233a-4a70-a9f3-33f1b67cdb1f"},"vehicle_type_id":"4","last_reported":1727111294,"current_range_meters":37600,"station_id":"ce4bhr12rcd13ifvqhqg","pricing_plan_id":"cebpf4jnsgd1na2vs0mg"},{"bike_id":"ac3c408e-2941-4826-818d-72b69dd2d5cd","system_id":"levelo_inurba_marseille","lat":43.28615,"lon":5.35106,"is_reserved":false,"is_disabled":false,"rental_uris":{"android":"levelo://app?vid=ac3c408e-2941-4826-818d-72b69dd2d5cd","ios":"levelo://app?vid=ac3c408e-2941-4826-818d-72b69dd2d5cd"},"vehicle_type_id":"4","last_reported":1727111294,"current_range_meters":5600,"station_id":"ce4bhch2rcd13ifvqeug","pricing_plan_id":"cebpf4jnsgd1na2vs0mg"},{"bike_id":"9eeee145-aae6-4b0d-9265-57aa8c7ef466","system_id":"levelo_inurba_marseille","lat":43.29528,"lon":5.39055,"is_reserved":false,"is_disabled":false,"rental_uris":{"android":"levelo://app?vid=9eeee145-aae6-4b0d-9265-57aa8c7ef466","ios":"levelo://app?vid=9eeee145-aae6-4b0d-9265-57aa8c7ef466"},"vehicle_type_id":"4","last_reported":1727111294,"current_range_meters":22800,"station_id":"ce4bh3p2rcd13ifvqdp0","pricing_plan_id":"cebpf4jnsgd1na2vs0mg"},{"bike_id":"fb80d3f5-6256-4939-9568-0b56707bb6ad","system_id":"levelo_inurba_marseille","lat":43.31288,"lon":5.40178,"is_reserved":false,"is_disabled":false,"rental_uris":{"android":"levelo://app?vid=fb80d3f5-6256-4939-9568-0b56707bb6ad","ios":"levelo://app?vid=fb80d3f5-6256-4939-9568-0b56707bb6ad"},"vehicle_type_id":"4","last_reported":1727111294,"current_range_meters":23200,"station_id":"ce4bh092rcd13ifvqd30","pricing_plan_id":"cebpf4jnsgd1na2vs0mg"},{"bike_id":"33de6991-6b21-48a9-9957-69656f340760","system_id":"levelo_inurba_marseille","lat":43.28339,"lon":5.38114,"is_reserved":false,"is_disabled":false,"rental_uris":{"android":"levelo://app?vid=33de6991-6b21-48a9-9957-69656f340760","ios":"levelo://app?vid=33de6991-6b21-48a9-9957-69656f340760"},"vehicle_type_id":"4","last_reported":1727111294,"current_range_meters":18000,"station_id":"ce4bh412rcd13ifvqdr0","pricing_plan_id":"cebpf4jnsgd1na2vs0mg"},{"bike_id":"7eacd0ae-7015-4504-8187-36e3b5fe6fb0","system_id":"levelo_inurba_marseille","lat":43.2707,"lon":5.42281,"is_reserved":false,"is_disabled":false,"rental_uris":{"android":"levelo://app?vid=7eacd0ae-7015-4504-8187-36e3b5fe6fb0","ios":"levelo://app?vid=7eacd0ae-7015-4504-8187-36e3b5fe6fb0"},"vehicle_type_id":"4","last_reported":1727111294,"current_range_meters":27600,"station_id":"ce4bhk92rcd13ifvqgb0","pricing_plan_id":"cebpf4jnsgd1na2vs0mg"},{"bike_id":"e86219e1-6617-41ef-aa78-0f86a56ddb20","system_id":"levelo_inurba_marseille","lat":43.29009,"lon":5.35618,"is_reserved":false,"is_disabled":false,"rental_uris":{"android":"levelo://app?vid=e86219e1-6617-41ef-aa78-0f86a56ddb20","ios":"levelo://app?vid=e86219e1-6617-41ef-aa78-0f86a56ddb20"},"vehicle_type_id":"4","last_reported":1727111294,"current_range_meters":38800,"station_id":"ce4bhb92rcd13ifvqen0","pricing_plan_id":"cebpf4jnsgd1na2vs0mg"},{"bike_id":"377c2dc0-064c-4913-833f-3086e7faf6fa","system_id":"levelo_inurba_marseille","lat":43.27074,"lon":5.42282,"is_reserved":false,"is_disabled":false,"rental_uris":{"android":"levelo://app?vid=377c2dc0-064c-4913-833f-3086e7faf6fa","ios":"levelo://app?vid=377c2dc0-064c-4913-833f-3086e7faf6fa"},"vehicle_type_id":"4","last_reported":1727111294,"current_range_meters":21600,"station_id":"ce4bhk92rcd13ifvqgb0","pricing_plan_id":"cebpf4jnsgd1na2vs0mg"},{"bike_id":"40ec77eb-6257-4910-b338-910ef8290bad","system_id":"levelo_inurba_marseille","lat":43.28106,"lon":5.40646,"is_reserved":false,"is_disabled":false,"rental_uris":{"android":"levelo://app?vid=40ec77eb-6257-4910-b338-910ef8290bad","ios":"levelo://app?vid=40ec77eb-6257-4910-b338-910ef8290bad"},"vehicle_type_id":"4","last_reported":1727111294,"current_range_meters":8800,"station_id":"","pricing_plan_id":"cebpf4jnsgd1na2vs0mg"},{"bike_id":"83d63a8f-e705-4757-87fc-dd35de8b7f79","system_id":"levelo_inurba_marseille","lat":43.29849,"lon":5.36287,"is_reserved":false,"is_disabled":false,"rental_uris":{"android":"levelo://app?vid=83d63a8f-e705-4757-87fc-dd35de8b7f79","ios":"levelo://app?vid=83d63a8f-e705-4757-87fc-dd35de8b7f79"},"vehicle_type_id":"4","last_reported":1727111294,"current_range_meters":14400,"station_id":"ce4bgpp2rcd13ifvqc3g","pricing_plan_id":"cebpf4jnsgd1na2vs0mg"},{"bike_id":"b0f4d08d-9574-447c-9f76-6a11e8a82ce4","system_id":"levelo_inurba_marseille","lat":43.31334,"lon":5.39696,"is_reserved":false,"is_disabled":false,"rental_uris":{"android":"levelo://app?vid=b0f4d08d-9574-447c-9f76-6a11e8a82ce4","ios":"levelo://app?vid=b0f4d08d-9574-447c-9f76-6a11e8a82ce4"},"vehicle_type_id":"4","last_reported":1727111294,"current_range_meters":40000,"station_id":"ce4bgvp2rcd13ifvqcu0","pricing_plan_id":"cebpf4jnsgd1na2vs0mg"},{"bike_id":"ed1f0c4b-c2ec-4633-9b10-9782357e4a7c","system_id":"levelo_inurba_marseille","lat":43.30809,"lon":5.43527,"is_reserved":false,"is_disabled":false,"rental_uris":{"android":"levelo://app?vid=ed1f0c4b-c2ec-4633-9b10-9782357e4a7c","ios":"levelo://app?vid=ed1f0c4b-c2ec-4633-9b10-9782357e4a7c"},"vehicle_type_id":"4","last_reported":1727111294,"current_range_meters":12800,"station_id":"ce4bhph2rcd13ifvqheg","pricing_plan_id":"cebpf4jnsgd1na2vs0mg"},{"bike_id":"0074696f-e649-4639-9210-689b92842bdc","system_id":"levelo_inurba_marseille","lat":43.30803,"lon":5.43526,"is_reserved":false,"is_disabled":false,"rental_uris":{"android":"levelo://app?vid=0074696f-e649-4639-9210-689b92842bdc","ios":"levelo://app?vid=0074696f-e649-4639-9210-689b92842bdc"},"vehicle_type_id":"4","last_reported":1727111294,"current_range_meters":38800,"station_id":"ce4bhph2rcd13ifvqheg","pricing_plan_id":"cebpf4jnsgd1na2vs0mg"},{"bike_id":"60206450-ad2a-478c-8c6d-1144a01e9b1c","system_id":"levelo_inurba_marseille","lat":43.302856,"lon":5.396678,"is_reserved":false,"is_disabled":false,"rental_uris":{"android":"levelo://app?vid=60206450-ad2a-478c-8c6d-1144a01e9b1c","ios":"levelo://app?vid=60206450-ad2a-478c-8c6d-1144a01e9b1c"},"vehicle_type_id":"4","last_reported":1727111294,"current_range_meters":8000,"station_id":"ce4bh092rcd13ifvqd20","pricing_plan_id":"cebpf4jnsgd1na2vs0mg"},{"bike_id":"877753fc-658d-4c7a-bbb8-46de59f59494","system_id":"levelo_inurba_marseille","lat":43.33024,"lon":5.39045,"is_reserved":false,"is_disabled":false,"rental_uris":{"android":"levelo://app?vid=877753fc-658d-4c7a-bbb8-46de59f59494","ios":"levelo://app?vid=877753fc-658d-4c7a-bbb8-46de59f59494"},"vehicle_type_id":"4","last_reported":1727111294,"current_range_meters":23200,"station_id":"ce4bhr92rcd13ifvqhrg","pricing_plan_id":"cebpf4jnsgd1na2vs0mg"},{"bike_id":"d85aa9c8-e262-4b4c-9884-e576996fc2ed","system_id":"levelo_inurba_marseille","lat":43.28669,"lon":5.36351,"is_reserved":false,"is_disabled":false,"rental_uris":{"android":"levelo://app?vid=d85aa9c8-e262-4b4c-9884-e576996fc2ed","ios":"levelo://app?vid=d85aa9c8-e262-4b4c-9884-e576996fc2ed"},"vehicle_type_id":"4","last_reported":1727111294,"current_range_meters":33200,"station_id":"ce4bhah2rcd13ifvqej0","pricing_plan_id":"cebpf4jnsgd1na2vs0mg"},{"bike_id":"20c322fd-654e-42ef-8773-7ebadd40b4c4","system_id":"levelo_inurba_marseille","lat":43.33025,"lon":5.3904,"is_reserved":false,"is_disabled":false,"rental_uris":{"android":"levelo://app?vid=20c322fd-654e-42ef-8773-7ebadd40b4c4","ios":"levelo://app?vid=20c322fd-654e-42ef-8773-7ebadd40b4c4"},"vehicle_type_id":"4","last_reported":1727111294,"current_range_meters":14400,"station_id":"ce4bhr92rcd13ifvqhrg","pricing_plan_id":"cebpf4jnsgd1na2vs0mg"},{"bike_id":"318a52b1-3ab3-4692-9981-1869022ccf38","system_id":"levelo_inurba_marseille","lat":43.28616,"lon":5.35106,"is_reserved":false,"is_disabled":false,"rental_uris":{"android":"levelo://app?vid=318a52b1-3ab3-4692-9981-1869022ccf38","ios":"levelo://app?vid=318a52b1-3ab3-4692-9981-1869022ccf38"},"vehicle_type_id":"4","last_reported":1727111294,"current_range_meters":37600,"station_id":"ce4bhch2rcd13ifvqeug","pricing_plan_id":"cebpf4jnsgd1na2vs0mg"},{"bike_id":"5e2f72d5-4559-41b2-b3d0-9bec673a16db","system_id":"levelo_inurba_marseille","lat":43.28269,"lon":5.3507,"is_reserved":false,"is_disabled":false,"rental_uris":{"android":"levelo://app?vid=5e2f72d5-4559-41b2-b3d0-9bec673a16db","ios":"levelo://app?vid=5e2f72d5-4559-41b2-b3d0-9bec673a16db"},"vehicle_type_id":"4","last_reported":1727111294,"current_range_meters":38800,"station_id":"ce4bhbp2rcd13ifvqerg","pricing_plan_id":"cebpf4jnsgd1na2vs0mg"},{"bike_id":"fa389a28-fbc0-443d-ae17-61deeb7eddc4","system_id":"levelo_inurba_marseille","lat":43.29793,"lon":5.39356,"is_reserved":false,"is_disabled":false,"rental_uris":{"android":"levelo://app?vid=fa389a28-fbc0-443d-ae17-61deeb7eddc4","ios":"levelo://app?vid=fa389a28-fbc0-443d-ae17-61deeb7eddc4"},"vehicle_type_id":"4","last_reported":1727111294,"current_range_meters":36400,"station_id":"chh1huq6cuj3fo74tm60","pricing_plan_id":"cebpf4jnsgd1na2vs0mg"},{"bike_id":"4b9130c8-c699-4637-8e31-bcaab3d2cd8e","system_id":"levelo_inurba_marseille","lat":43.32481,"lon":5.36564,"is_reserved":false,"is_disabled":false,"rental_uris":{"android":"levelo://app?vid=4b9130c8-c699-4637-8e31-bcaab3d2cd8e","ios":"levelo://app?vid=4b9130c8-c699-4637-8e31-bcaab3d2cd8e"},"vehicle_type_id":"4","last_reported":1727111294,"current_range_meters":8800,"station_id":"ce4bhs12rcd13ifvqhvg","pricing_plan_id":"cebpf4jnsgd1na2vs0mg"},{"bike_id":"c45a9dda-ed77-4e8e-ab90-ffb88d4e9730","system_id":"levelo_inurba_marseille","lat":43.2902,"lon":5.35612,"is_reserved":false,"is_disabled":false,"rental_uris":{"android":"levelo://app?vid=c45a9dda-ed77-4e8e-ab90-ffb88d4e9730","ios":"levelo://app?vid=c45a9dda-ed77-4e8e-ab90-ffb88d4e9730"},"vehicle_type_id":"4","last_reported":1727111294,"current_range_meters":15200,"station_id":"ce4bhb92rcd13ifvqen0","pricing_plan_id":"cebpf4jnsgd1na2vs0mg"},{"bike_id":"9293bf76-669c-44b1-ab3c-e5210753b52f","system_id":"levelo_inurba_marseille","lat":43.30417,"lon":5.41287,"is_reserved":false,"is_disabled":false,"rental_uris":{"android":"levelo://app?vid=9293bf76-669c-44b1-ab3c-e5210753b52f","ios":"levelo://app?vid=9293bf76-669c-44b1-ab3c-e5210753b52f"},"vehicle_type_id":"4","last_reported":1727111294,"current_range_meters":19600,"station_id":"ce4bhop2rcd13ifvqh8g","pricing_plan_id":"cebpf4jnsgd1na2vs0mg"},{"bike_id":"4fc26e79-ca68-4d19-a78e-5a0c11efe4bf","system_id":"levelo_inurba_marseille","lat":43.284077,"lon":5.349685,"is_reserved":false,"is_disabled":false,"rental_uris":{"android":"levelo://app?vid=4fc26e79-ca68-4d19-a78e-5a0c11efe4bf","ios":"levelo://app?vid=4fc26e79-ca68-4d19-a78e-5a0c11efe4bf"},"vehicle_type_id":"4","last_reported":1727111294,"current_range_meters":26000,"station_id":"ce4bhhh2rcd13ifvqfk0","pricing_plan_id":"cebpf4jnsgd1na2vs0mg"},{"bike_id":"7e3920a9-97d9-483d-b7ba-9d14c34ba84c","system_id":"levelo_inurba_marseille","lat":43.2847,"lon":5.35898,"is_reserved":false,"is_disabled":false,"rental_uris":{"android":"levelo://app?vid=7e3920a9-97d9-483d-b7ba-9d14c34ba84c","ios":"levelo://app?vid=7e3920a9-97d9-483d-b7ba-9d14c34ba84c"},"vehicle_type_id":"4","last_reported":1727111294,"current_range_meters":8400,"station_id":"ce4bhah2rcd13ifvqei0","pricing_plan_id":"cebpf4jnsgd1na2vs0mg"},{"bike_id":"330805d2-bb17-4ae9-9453-397bcf2108a2","system_id":"levelo_inurba_marseille","lat":43.2782,"lon":5.40717,"is_reserved":false,"is_disabled":false,"rental_uris":{"android":"levelo://app?vid=330805d2-bb17-4ae9-9453-397bcf2108a2","ios":"levelo://app?vid=330805d2-bb17-4ae9-9453-397bcf2108a2"},"vehicle_type_id":"4","last_reported":1727111294,"current_range_meters":11200,"station_id":"ce4bhnh2rcd13ifvqgtg","pricing_plan_id":"cebpf4jnsgd1na2vs0mg"},{"bike_id":"16ae6180-f6e5-47e0-8f4b-70a0144490cf","system_id":"levelo_inurba_marseille","lat":43.30419,"lon":5.41287,"is_reserved":false,"is_disabled":false,"rental_uris":{"android":"levelo://app?vid=16ae6180-f6e5-47e0-8f4b-70a0144490cf","ios":"levelo://app?vid=16ae6180-f6e5-47e0-8f4b-70a0144490cf"},"vehicle_type_id":"4","last_reported":1727111294,"current_range_meters":14800,"station_id":"ce4bhop2rcd13ifvqh8g","pricing_plan_id":"cebpf4jnsgd1na2vs0mg"},{"bike_id":"e406e86e-c628-4e4d-93a3-97e11d0f5986","system_id":"levelo_inurba_marseille","lat":43.29054,"lon":5.35916,"is_reserved":false,"is_disabled":false,"rental_uris":{"android":"levelo://app?vid=e406e86e-c628-4e4d-93a3-97e11d0f5986","ios":"levelo://app?vid=e406e86e-c628-4e4d-93a3-97e11d0f5986"},"vehicle_type_id":"4","last_reported":1727111294,"current_range_meters":12000,"station_id":"ce4bha92rcd13ifvqeg0","pricing_plan_id":"cebpf4jnsgd1na2vs0mg"},{"bike_id":"00191aa7-8d1a-4674-9d93-bbc45f0bb2c9","system_id":"levelo_inurba_marseille","lat":43.29571,"lon":5.39987,"is_reserved":false,"is_disabled":false,"rental_uris":{"android":"levelo://app?vid=00191aa7-8d1a-4674-9d93-bbc45f0bb2c9","ios":"levelo://app?vid=00191aa7-8d1a-4674-9d93-bbc45f0bb2c9"},"vehicle_type_id":"4","last_reported":1727111294,"current_range_meters":27600,"station_id":"ce4bh312rcd13ifvqdj0","pricing_plan_id":"cebpf4jnsgd1na2vs0mg"},{"bike_id":"28462b70-74e4-4f26-af9f-6cd55d2ea55c","system_id":"levelo_inurba_marseille","lat":43.304306,"lon":5.389009,"is_reserved":false,"is_disabled":false,"rental_uris":{"android":"levelo://app?vid=28462b70-74e4-4f26-af9f-6cd55d2ea55c","ios":"levelo://app?vid=28462b70-74e4-4f26-af9f-6cd55d2ea55c"},"vehicle_type_id":"4","last_reported":1727111294,"current_range_meters":8800,"station_id":"ce4bgk12rcd13ifvqbi0","pricing_plan_id":"cebpf4jnsgd1na2vs0mg"},{"bike_id":"564b776d-b444-44ad-af3b-69d4c6268136","system_id":"levelo_inurba_marseille","lat":43.24808,"lon":5.3746,"is_reserved":false,"is_disabled":false,"rental_uris":{"android":"levelo://app?vid=564b776d-b444-44ad-af3b-69d4c6268136","ios":"levelo://app?vid=564b776d-b444-44ad-af3b-69d4c6268136"},"vehicle_type_id":"4","last_reported":1727111294,"current_range_meters":4000,"station_id":"ce4bhgh2rcd13ifvqfb0","pricing_plan_id":"cebpf4jnsgd1na2vs0mg"},{"bike_id":"58047f74-9a6a-4a6a-a806-eeabc3271183","system_id":"levelo_inurba_marseille","lat":43.26801,"lon":5.40273,"is_reserved":false,"is_disabled":false,"rental_uris":{"android":"levelo://app?vid=58047f74-9a6a-4a6a-a806-eeabc3271183","ios":"levelo://app?vid=58047f74-9a6a-4a6a-a806-eeabc3271183"},"vehicle_type_id":"4","last_reported":1727111294,"current_range_meters":7200,"station_id":"ce501612rcd8frsf0b60","pricing_plan_id":"cebpf4jnsgd1na2vs0mg"},{"bike_id":"a2e3713a-9a87-4543-a36c-64528aff4c05","system_id":"levelo_inurba_marseille","lat":43.29985,"lon":5.38508,"is_reserved":false,"is_disabled":false,"rental_uris":{"android":"levelo://app?vid=a2e3713a-9a87-4543-a36c-64528aff4c05","ios":"levelo://app?vid=a2e3713a-9a87-4543-a36c-64528aff4c05"},"vehicle_type_id":"4","last_reported":1727111294,"current_range_meters":17200,"station_id":"ce4bgj92rcd13ifvqbd0","pricing_plan_id":"cebpf4jnsgd1na2vs0mg"},{"bike_id":"da12dab4-cf6f-4205-97d4-2c964fa537b5","system_id":"levelo_inurba_marseille","lat":43.32258,"lon":5.38284,"is_reserved":false,"is_disabled":false,"rental_uris":{"android":"levelo://app?vid=da12dab4-cf6f-4205-97d4-2c964fa537b5","ios":"levelo://app?vid=da12dab4-cf6f-4205-97d4-2c964fa537b5"},"vehicle_type_id":"4","last_reported":1727111294,"current_range_meters":17600,"station_id":"ce4bhr12rcd13ifvqhqg","pricing_plan_id":"cebpf4jnsgd1na2vs0mg"},{"bike_id":"16c8da09-9a9e-43ca-ac6f-e0f7f3ed9dd0","system_id":"levelo_inurba_marseille","lat":43.29877,"lon":5.38891,"is_reserved":false,"is_disabled":false,"rental_uris":{"android":"levelo://app?vid=16c8da09-9a9e-43ca-ac6f-e0f7f3ed9dd0","ios":"levelo://app?vid=16c8da09-9a9e-43ca-ac6f-e0f7f3ed9dd0"},"vehicle_type_id":"4","last_reported":1727111294,"current_range_meters":5600,"station_id":"ce4bh392rcd13ifvqdl0","pricing_plan_id":"cebpf4jnsgd1na2vs0mg"},{"bike_id":"3c6acd89-0bec-4dc5-bf20-aa64025fcec3","system_id":"levelo_inurba_marseille","lat":43.29024,"lon":5.38651,"is_reserved":false,"is_disabled":false,"rental_uris":{"android":"levelo://app?vid=3c6acd89-0bec-4dc5-bf20-aa64025fcec3","ios":"levelo://app?vid=3c6acd89-0bec-4dc5-bf20-aa64025fcec3"},"vehicle_type_id":"4","last_reported":1727111294,"current_range_meters":6800,"station_id":"ce4bh4p2rcd13ifvqe0g","pricing_plan_id":"cebpf4jnsgd1na2vs0mg"},{"bike_id":"36dc71fe-bfc9-4a4d-b2ef-39ebb067c458","system_id":"levelo_inurba_marseille","lat":43.29554,"lon":5.42284,"is_reserved":false,"is_disabled":false,"rental_uris":{"android":"levelo://app?vid=36dc71fe-bfc9-4a4d-b2ef-39ebb067c458","ios":"levelo://app?vid=36dc71fe-bfc9-4a4d-b2ef-39ebb067c458"},"vehicle_type_id":"4","last_reported":1727111294,"current_range_meters":40000,"station_id":"ce4bhph2rcd13ifvqhdg","pricing_plan_id":"cebpf4jnsgd1na2vs0mg"},{"bike_id":"4e442a34-1c41-4d3c-9b65-5b0b3be50276","system_id":"levelo_inurba_marseille","lat":43.33728,"lon":5.39194,"is_reserved":false,"is_disabled":false,"rental_uris":{"android":"levelo://app?vid=4e442a34-1c41-4d3c-9b65-5b0b3be50276","ios":"levelo://app?vid=4e442a34-1c41-4d3c-9b65-5b0b3be50276"},"vehicle_type_id":"4","last_reported":1727111294,"current_range_meters":36800,"station_id":"ce4bhr92rcd13ifvqhsg","pricing_plan_id":"cebpf4jnsgd1na2vs0mg"},{"bike_id":"298a2554-9041-42b8-a91e-93ae37ca56c4","system_id":"levelo_inurba_marseille","lat":43.26554,"lon":5.37295,"is_reserved":false,"is_disabled":false,"rental_uris":{"android":"levelo://app?vid=298a2554-9041-42b8-a91e-93ae37ca56c4","ios":"levelo://app?vid=298a2554-9041-42b8-a91e-93ae37ca56c4"},"vehicle_type_id":"4","last_reported":1727111294,"current_range_meters":6800,"station_id":"ce4bhg12rcd13ifvqf70","pricing_plan_id":"cebpf4jnsgd1na2vs0mg"},{"bike_id":"fbf88d4e-258e-4616-a822-fe43dc338639","system_id":"levelo_inurba_marseille","lat":43.25826,"lon":5.39442,"is_reserved":false,"is_disabled":false,"rental_uris":{"android":"levelo://app?vid=fbf88d4e-258e-4616-a822-fe43dc338639","ios":"levelo://app?vid=fbf88d4e-258e-4616-a822-fe43dc338639"},"vehicle_type_id":"4","last_reported":1727111294,"current_range_meters":10000,"station_id":"ce4bhip2rcd13ifvqft0","pricing_plan_id":"cebpf4jnsgd1na2vs0mg"},{"bike_id":"734ed3be-85ec-418d-9bf6-a20dfdcbe134","system_id":"levelo_inurba_marseille","lat":43.294067,"lon":5.386426,"is_reserved":false,"is_disabled":false,"rental_uris":{"android":"levelo://app?vid=734ed3be-85ec-418d-9bf6-a20dfdcbe134","ios":"levelo://app?vid=734ed3be-85ec-418d-9bf6-a20dfdcbe134"},"vehicle_type_id":"4","last_reported":1727111294,"current_range_meters":10000,"station_id":"ce4bh2h2rcd13ifvqdh0","pricing_plan_id":"cebpf4jnsgd1na2vs0mg"},{"bike_id":"02552a84-93ac-4f47-9115-b594cbf16674","system_id":"levelo_inurba_marseille","lat":43.29556,"lon":5.42289,"is_reserved":false,"is_disabled":false,"rental_uris":{"android":"levelo://app?vid=02552a84-93ac-4f47-9115-b594cbf16674","ios":"levelo://app?vid=02552a84-93ac-4f47-9115-b594cbf16674"},"vehicle_type_id":"4","last_reported":1727111294,"current_range_meters":40000,"station_id":"ce4bhph2rcd13ifvqhdg","pricing_plan_id":"cebpf4jnsgd1na2vs0mg"},{"bike_id":"b2991cee-51c7-4e84-83da-117316c520a1","system_id":"levelo_inurba_marseille","lat":43.28405,"lon":5.37508,"is_reserved":false,"is_disabled":false,"rental_uris":{"android":"levelo://app?vid=b2991cee-51c7-4e84-83da-117316c520a1","ios":"levelo://app?vid=b2991cee-51c7-4e84-83da-117316c520a1"},"vehicle_type_id":"4","last_reported":1727111294,"current_range_meters":3200,"station_id":"ce4bh412rcd13ifvqds0","pricing_plan_id":"cebpf4jnsgd1na2vs0mg"},{"bike_id":"80704a6d-1d27-491d-9be6-fa4e714b6f64","system_id":"levelo_inurba_marseille","lat":43.286107,"lon":5.37069,"is_reserved":false,"is_disabled":false,"rental_uris":{"android":"levelo://app?vid=80704a6d-1d27-491d-9be6-fa4e714b6f64","ios":"levelo://app?vid=80704a6d-1d27-491d-9be6-fa4e714b6f64"},"vehicle_type_id":"4","last_reported":1727111294,"current_range_meters":38400,"station_id":"ce4bht12rcd13ifvqi60","pricing_plan_id":"cebpf4jnsgd1na2vs0mg"},{"bike_id":"b49e8aa4-b4d7-4f9d-a437-8d1bbdfe618a","system_id":"levelo_inurba_marseille","lat":43.29557,"lon":5.42284,"is_reserved":false,"is_disabled":false,"rental_uris":{"android":"levelo://app?vid=b49e8aa4-b4d7-4f9d-a437-8d1bbdfe618a","ios":"levelo://app?vid=b49e8aa4-b4d7-4f9d-a437-8d1bbdfe618a"},"vehicle_type_id":"4","last_reported":1727111294,"current_range_meters":39200,"station_id":"ce4bhph2rcd13ifvqhdg","pricing_plan_id":"cebpf4jnsgd1na2vs0mg"},{"bike_id":"b8a353d4-4f46-4ff4-945d-8fe67fbe63dc","system_id":"levelo_inurba_marseille","lat":43.29611,"lon":5.37724,"is_reserved":false,"is_disabled":false,"rental_uris":{"android":"levelo://app?vid=b8a353d4-4f46-4ff4-945d-8fe67fbe63dc","ios":"levelo://app?vid=b8a353d4-4f46-4ff4-945d-8fe67fbe63dc"},"vehicle_type_id":"4","last_reported":1727111294,"current_range_meters":6400,"station_id":"ce4bgi92rcd13ifvqb90","pricing_plan_id":"cebpf4jnsgd1na2vs0mg"},{"bike_id":"1b424706-aab3-4959-99b9-2559df57b28b","system_id":"levelo_inurba_marseille","lat":43.26552,"lon":5.39002,"is_reserved":false,"is_disabled":false,"rental_uris":{"android":"levelo://app?vid=1b424706-aab3-4959-99b9-2559df57b28b","ios":"levelo://app?vid=1b424706-aab3-4959-99b9-2559df57b28b"},"vehicle_type_id":"4","last_reported":1727111294,"current_range_meters":38800,"station_id":"","pricing_plan_id":"cebpf4jnsgd1na2vs0mg"},{"bike_id":"043c5fe9-8448-412f-acc9-54570bc91474","system_id":"levelo_inurba_marseille","lat":43.337444,"lon":5.374475,"is_reserved":false,"is_disabled":false,"rental_uris":{"android":"levelo://app?vid=043c5fe9-8448-412f-acc9-54570bc91474","ios":"levelo://app?vid=043c5fe9-8448-412f-acc9-54570bc91474"},"vehicle_type_id":"4","last_reported":1727111294,"current_range_meters":39200,"station_id":"ce4bhq92rcd13ifvqhkg","pricing_plan_id":"cebpf4jnsgd1na2vs0mg"},{"bike_id":"67945c8c-812d-41ff-8cce-dc0029adea7e","system_id":"levelo_inurba_marseille","lat":43.274451,"lon":5.394574,"is_reserved":false,"is_disabled":false,"rental_uris":{"android":"levelo://app?vid=67945c8c-812d-41ff-8cce-dc0029adea7e","ios":"levelo://app?vid=67945c8c-812d-41ff-8cce-dc0029adea7e"},"vehicle_type_id":"4","last_reported":1727111294,"current_range_meters":16000,"station_id":"ce4bhdp2rcd13ifvqf20","pricing_plan_id":"cebpf4jnsgd1na2vs0mg"},{"bike_id":"018b1815-9dea-4ea1-b5bd-2fb12624a0c8","system_id":"levelo_inurba_marseille","lat":43.24994,"lon":5.38937,"is_reserved":false,"is_disabled":false,"rental_uris":{"android":"levelo://app?vid=018b1815-9dea-4ea1-b5bd-2fb12624a0c8","ios":"levelo://app?vid=018b1815-9dea-4ea1-b5bd-2fb12624a0c8"},"vehicle_type_id":"4","last_reported":1727111294,"current_range_meters":32000,"station_id":"ce4bhgp2rcd13ifvqfd0","pricing_plan_id":"cebpf4jnsgd1na2vs0mg"},{"bike_id":"0132fb87-8873-4a4d-b94a-72511fc6ea3f","system_id":"levelo_inurba_marseille","lat":43.28719,"lon":5.37954,"is_reserved":false,"is_disabled":false,"rental_uris":{"android":"levelo://app?vid=0132fb87-8873-4a4d-b94a-72511fc6ea3f","ios":"levelo://app?vid=0132fb87-8873-4a4d-b94a-72511fc6ea3f"},"vehicle_type_id":"4","last_reported":1727111294,"current_range_meters":38800,"station_id":"ce4bh9p2rcd13ifvqec0","pricing_plan_id":"cebpf4jnsgd1na2vs0mg"},{"bike_id":"5461ea1c-76b0-4429-a05e-d6299ebc8ba1","system_id":"levelo_inurba_marseille","lat":43.31727,"lon":5.42413,"is_reserved":false,"is_disabled":false,"rental_uris":{"android":"levelo://app?vid=5461ea1c-76b0-4429-a05e-d6299ebc8ba1","ios":"levelo://app?vid=5461ea1c-76b0-4429-a05e-d6299ebc8ba1"},"vehicle_type_id":"4","last_reported":1727111294,"current_range_meters":40000,"station_id":"ce4bhp92rcd13ifvqhbg","pricing_plan_id":"cebpf4jnsgd1na2vs0mg"},{"bike_id":"086ce38e-540e-4e07-bece-22e101c79a1e","system_id":"levelo_inurba_marseille","lat":43.299,"lon":5.43661,"is_reserved":false,"is_disabled":false,"rental_uris":{"android":"levelo://app?vid=086ce38e-540e-4e07-bece-22e101c79a1e","ios":"levelo://app?vid=086ce38e-540e-4e07-bece-22e101c79a1e"},"vehicle_type_id":"4","last_reported":1727111294,"current_range_meters":6400,"station_id":"ce4bhpp2rcd13ifvqhfg","pricing_plan_id":"cebpf4jnsgd1na2vs0mg"},{"bike_id":"4fe77e0d-fa3c-4cb2-954b-e7acf6ebef84","system_id":"levelo_inurba_marseille","lat":43.280017,"lon":5.39976,"is_reserved":false,"is_disabled":false,"rental_uris":{"android":"levelo://app?vid=4fe77e0d-fa3c-4cb2-954b-e7acf6ebef84","ios":"levelo://app?vid=4fe77e0d-fa3c-4cb2-954b-e7acf6ebef84"},"vehicle_type_id":"4","last_reported":1727111294,"current_range_meters":30400,"station_id":"ce4bho92rcd13ifvqh4g","pricing_plan_id":"cebpf4jnsgd1na2vs0mg"},{"bike_id":"0de092fd-7496-4481-b63d-44bb37196bb8","system_id":"levelo_inurba_marseille","lat":43.29227,"lon":5.36079,"is_reserved":false,"is_disabled":false,"rental_uris":{"android":"levelo://app?vid=0de092fd-7496-4481-b63d-44bb37196bb8","ios":"levelo://app?vid=0de092fd-7496-4481-b63d-44bb37196bb8"},"vehicle_type_id":"4","last_reported":1727111294,"current_range_meters":14400,"station_id":"ce4bhbh2rcd13ifvqeqg","pricing_plan_id":"cebpf4jnsgd1na2vs0mg"},{"bike_id":"1ae51f38-7f2f-4c55-8516-3d24a06f267f","system_id":"levelo_inurba_marseille","lat":43.27177,"lon":5.41,"is_reserved":false,"is_disabled":false,"rental_uris":{"android":"levelo://app?vid=1ae51f38-7f2f-4c55-8516-3d24a06f267f","ios":"levelo://app?vid=1ae51f38-7f2f-4c55-8516-3d24a06f267f"},"vehicle_type_id":"4","last_reported":1727111294,"current_range_meters":17600,"station_id":"ce4bhl12rcd13ifvqgf0","pricing_plan_id":"cebpf4jnsgd1na2vs0mg"},{"bike_id":"4390c4ed-31ed-46dd-9529-e49fa7367ac0","system_id":"levelo_inurba_marseille","lat":43.23964,"lon":5.36629,"is_reserved":false,"is_disabled":false,"rental_uris":{"android":"levelo://app?vid=4390c4ed-31ed-46dd-9529-e49fa7367ac0","ios":"levelo://app?vid=4390c4ed-31ed-46dd-9529-e49fa7367ac0"},"vehicle_type_id":"4","last_reported":1727111294,"current_range_meters":28800,"station_id":"ce4bhi12rcd13ifvqfp0","pricing_plan_id":"cebpf4jnsgd1na2vs0mg"},{"bike_id":"378f93b3-09b5-44c3-9122-668224d31ab7","system_id":"levelo_inurba_marseille","lat":43.28483,"lon":5.38566,"is_reserved":false,"is_disabled":false,"rental_uris":{"android":"levelo://app?vid=378f93b3-09b5-44c3-9122-668224d31ab7","ios":"levelo://app?vid=378f93b3-09b5-44c3-9122-668224d31ab7"},"vehicle_type_id":"4","last_reported":1727111294,"current_range_meters":30000,"station_id":"ce4bh8p2rcd13ifvqeb0","pricing_plan_id":"cebpf4jnsgd1na2vs0mg"},{"bike_id":"79fbde49-81be-48ba-8361-c51521c1134f","system_id":"levelo_inurba_marseille","lat":43.250898,"lon":5.395263,"is_reserved":false,"is_disabled":false,"rental_uris":{"android":"levelo://app?vid=79fbde49-81be-48ba-8361-c51521c1134f","ios":"levelo://app?vid=79fbde49-81be-48ba-8361-c51521c1134f"},"vehicle_type_id":"4","last_reported":1727111294,"current_range_meters":7200,"station_id":"ce4bgjh2rcd13ifvqbf0","pricing_plan_id":"cebpf4jnsgd1na2vs0mg"},{"bike_id":"24c55590-4335-4132-a81a-a371fba572ba","system_id":"levelo_inurba_marseille","lat":43.2836,"lon":5.38611,"is_reserved":false,"is_disabled":false,"rental_uris":{"android":"levelo://app?vid=24c55590-4335-4132-a81a-a371fba572ba","ios":"levelo://app?vid=24c55590-4335-4132-a81a-a371fba572ba"},"vehicle_type_id":"4","last_reported":1727111294,"current_range_meters":4000,"station_id":"ce4bh492rcd13ifvqdvg","pricing_plan_id":"cebpf4jnsgd1na2vs0mg"},{"bike_id":"edbd5f0c-2fdd-4bb0-b30f-453fe05466fc","system_id":"levelo_inurba_marseille","lat":43.2862,"lon":5.35103,"is_reserved":false,"is_disabled":false,"rental_uris":{"android":"levelo://app?vid=edbd5f0c-2fdd-4bb0-b30f-453fe05466fc","ios":"levelo://app?vid=edbd5f0c-2fdd-4bb0-b30f-453fe05466fc"},"vehicle_type_id":"4","last_reported":1727111294,"current_range_meters":39200,"station_id":"ce4bhch2rcd13ifvqeug","pricing_plan_id":"cebpf4jnsgd1na2vs0mg"},{"bike_id":"c429af3a-5fab-4f7a-b780-ea6574037308","system_id":"levelo_inurba_marseille","lat":43.305832,"lon":5.393552,"is_reserved":false,"is_disabled":false,"rental_uris":{"android":"levelo://app?vid=c429af3a-5fab-4f7a-b780-ea6574037308","ios":"levelo://app?vid=c429af3a-5fab-4f7a-b780-ea6574037308"},"vehicle_type_id":"4","last_reported":1727111294,"current_range_meters":18000,"station_id":"ce4bh612rcd13ifvqe6g","pricing_plan_id":"cebpf4jnsgd1na2vs0mg"},{"bike_id":"a52b2ba9-043e-4ac2-aba8-73847cafd1e9","system_id":"levelo_inurba_marseille","lat":43.30724,"lon":5.3825,"is_reserved":false,"is_disabled":false,"rental_uris":{"android":"levelo://app?vid=a52b2ba9-043e-4ac2-aba8-73847cafd1e9","ios":"levelo://app?vid=a52b2ba9-043e-4ac2-aba8-73847cafd1e9"},"vehicle_type_id":"4","last_reported":1727111294,"current_range_meters":38800,"station_id":"ce4bh0h2rcd13ifvqd50","pricing_plan_id":"cebpf4jnsgd1na2vs0mg"},{"bike_id":"02e2d360-f924-4d00-935f-7ac12bb5ffbe","system_id":"levelo_inurba_marseille","lat":43.31113,"lon":5.44707,"is_reserved":false,"is_disabled":false,"rental_uris":{"android":"levelo://app?vid=02e2d360-f924-4d00-935f-7ac12bb5ffbe","ios":"levelo://app?vid=02e2d360-f924-4d00-935f-7ac12bb5ffbe"},"vehicle_type_id":"4","last_reported":1727111294,"current_range_meters":7200,"station_id":"","pricing_plan_id":"cebpf4jnsgd1na2vs0mg"},{"bike_id":"b9e95c11-6c24-4d9e-97a7-7cc8b9c2e70b","system_id":"levelo_inurba_marseille","lat":43.24387,"lon":5.37057,"is_reserved":false,"is_disabled":false,"rental_uris":{"android":"levelo://app?vid=b9e95c11-6c24-4d9e-97a7-7cc8b9c2e70b","ios":"levelo://app?vid=b9e95c11-6c24-4d9e-97a7-7cc8b9c2e70b"},"vehicle_type_id":"4","last_reported":1727111294,"current_range_meters":37600,"station_id":"ce4bhhh2rcd13ifvqfk0","pricing_plan_id":"cebpf4jnsgd1na2vs0mg"},{"bike_id":"a67b4287-da83-43eb-8e86-126974c9a016","system_id":"levelo_inurba_marseille","lat":43.29553,"lon":5.42283,"is_reserved":false,"is_disabled":false,"rental_uris":{"android":"levelo://app?vid=a67b4287-da83-43eb-8e86-126974c9a016","ios":"levelo://app?vid=a67b4287-da83-43eb-8e86-126974c9a016"},"vehicle_type_id":"4","last_reported":1727111294,"current_range_meters":23200,"station_id":"ce4bhph2rcd13ifvqhdg","pricing_plan_id":"cebpf4jnsgd1na2vs0mg"},{"bike_id":"ab54b165-ce36-4803-80c8-e097ea045984","system_id":"levelo_inurba_marseille","lat":43.29869,"lon":5.39739,"is_reserved":false,"is_disabled":false,"rental_uris":{"android":"levelo://app?vid=ab54b165-ce36-4803-80c8-e097ea045984","ios":"levelo://app?vid=ab54b165-ce36-4803-80c8-e097ea045984"},"vehicle_type_id":"4","last_reported":1727111294,"current_range_meters":25200,"station_id":"ce4bh0h2rcd13ifvqd50","pricing_plan_id":"cebpf4jnsgd1na2vs0mg"},{"bike_id":"231df590-15eb-4c0a-bdf6-dddd3cb861cb","system_id":"levelo_inurba_marseille","lat":43.337444,"lon":5.374475,"is_reserved":false,"is_disabled":false,"rental_uris":{"android":"levelo://app?vid=231df590-15eb-4c0a-bdf6-dddd3cb861cb","ios":"levelo://app?vid=231df590-15eb-4c0a-bdf6-dddd3cb861cb"},"vehicle_type_id":"4","last_reported":1727111294,"current_range_meters":20800,"station_id":"","pricing_plan_id":"cebpf4jnsgd1na2vs0mg"},{"bike_id":"3b211465-5030-4ebd-b5e2-78bdfeebc435","system_id":"levelo_inurba_marseille","lat":43.33728,"lon":5.39191,"is_reserved":false,"is_disabled":false,"rental_uris":{"android":"levelo://app?vid=3b211465-5030-4ebd-b5e2-78bdfeebc435","ios":"levelo://app?vid=3b211465-5030-4ebd-b5e2-78bdfeebc435"},"vehicle_type_id":"4","last_reported":1727111294,"current_range_meters":20800,"station_id":"ce4bhr92rcd13ifvqhsg","pricing_plan_id":"cebpf4jnsgd1na2vs0mg"},{"bike_id":"6af536df-a3f6-497c-a4a9-43032fc8874c","system_id":"levelo_inurba_marseille","lat":43.33729,"lon":5.39185,"is_reserved":false,"is_disabled":false,"rental_uris":{"android":"levelo://app?vid=6af536df-a3f6-497c-a4a9-43032fc8874c","ios":"levelo://app?vid=6af536df-a3f6-497c-a4a9-43032fc8874c"},"vehicle_type_id":"4","last_reported":1727111294,"current_range_meters":38800,"station_id":"ce4bhr92rcd13ifvqhsg","pricing_plan_id":"cebpf4jnsgd1na2vs0mg"},{"bike_id":"d1103f98-5668-4edb-a5aa-1032ecaa8f1e","system_id":"levelo_inurba_marseille","lat":43.28943,"lon":5.36644,"is_reserved":false,"is_disabled":false,"rental_uris":{"android":"levelo://app?vid=d1103f98-5668-4edb-a5aa-1032ecaa8f1e","ios":"levelo://app?vid=d1103f98-5668-4edb-a5aa-1032ecaa8f1e"},"vehicle_type_id":"4","last_reported":1727111294,"current_range_meters":38400,"station_id":"ce4bhap2rcd13ifvqek0","pricing_plan_id":"cebpf4jnsgd1na2vs0mg"},{"bike_id":"af38b91b-5552-4460-acd5-5ca7d35f08d7","system_id":"levelo_inurba_marseille","lat":43.28918,"lon":5.384116,"is_reserved":false,"is_disabled":false,"rental_uris":{"android":"levelo://app?vid=af38b91b-5552-4460-acd5-5ca7d35f08d7","ios":"levelo://app?vid=af38b91b-5552-4460-acd5-5ca7d35f08d7"},"vehicle_type_id":"4","last_reported":1727111294,"current_range_meters":9200,"station_id":"ce4bh612rcd13ifvqe6g","pricing_plan_id":"cebpf4jnsgd1na2vs0mg"},{"bike_id":"f9a65f4a-d4de-4c5e-a34c-a87136c7df08","system_id":"levelo_inurba_marseille","lat":43.295258,"lon":5.390438,"is_reserved":false,"is_disabled":false,"rental_uris":{"android":"levelo://app?vid=f9a65f4a-d4de-4c5e-a34c-a87136c7df08","ios":"levelo://app?vid=f9a65f4a-d4de-4c5e-a34c-a87136c7df08"},"vehicle_type_id":"4","last_reported":1727111294,"current_range_meters":38800,"station_id":"ce4bh3p2rcd13ifvqdp0","pricing_plan_id":"cebpf4jnsgd1na2vs0mg"},{"bike_id":"3e156987-96e3-48ad-8746-0582637bdaa1","system_id":"levelo_inurba_marseille","lat":43.29896,"lon":5.43663,"is_reserved":false,"is_disabled":false,"rental_uris":{"android":"levelo://app?vid=3e156987-96e3-48ad-8746-0582637bdaa1","ios":"levelo://app?vid=3e156987-96e3-48ad-8746-0582637bdaa1"},"vehicle_type_id":"4","last_reported":1727111294,"current_range_meters":16800,"station_id":"ce4bhpp2rcd13ifvqhfg","pricing_plan_id":"cebpf4jnsgd1na2vs0mg"},{"bike_id":"5ed9aa98-9cd3-48d6-8a77-8d701b2c5481","system_id":"levelo_inurba_marseille","lat":43.29603,"lon":5.38115,"is_reserved":false,"is_disabled":false,"rental_uris":{"android":"levelo://app?vid=5ed9aa98-9cd3-48d6-8a77-8d701b2c5481","ios":"levelo://app?vid=5ed9aa98-9cd3-48d6-8a77-8d701b2c5481"},"vehicle_type_id":"4","last_reported":1727111294,"current_range_meters":6800,"station_id":"ce4bgl12rcd13ifvqbo0","pricing_plan_id":"cebpf4jnsgd1na2vs0mg"},{"bike_id":"76f2ffa0-04f3-42c7-89f6-69531c958cae","system_id":"levelo_inurba_marseille","lat":43.31686,"lon":5.40479,"is_reserved":false,"is_disabled":false,"rental_uris":{"android":"levelo://app?vid=76f2ffa0-04f3-42c7-89f6-69531c958cae","ios":"levelo://app?vid=76f2ffa0-04f3-42c7-89f6-69531c958cae"},"vehicle_type_id":"4","last_reported":1727111294,"current_range_meters":38800,"station_id":"ce4bh012rcd13ifvqd00","pricing_plan_id":"cebpf4jnsgd1na2vs0mg"},{"bike_id":"8477c866-d50b-40a2-b2b9-b86328dfbfb2","system_id":"levelo_inurba_marseille","lat":43.24387,"lon":5.37056,"is_reserved":false,"is_disabled":false,"rental_uris":{"android":"levelo://app?vid=8477c866-d50b-40a2-b2b9-b86328dfbfb2","ios":"levelo://app?vid=8477c866-d50b-40a2-b2b9-b86328dfbfb2"},"vehicle_type_id":"4","last_reported":1727111294,"current_range_meters":4400,"station_id":"ce4bhhh2rcd13ifvqfk0","pricing_plan_id":"cebpf4jnsgd1na2vs0mg"},{"bike_id":"28237f71-ce7d-44b2-b026-8f52cf5fd5b7","system_id":"levelo_inurba_marseille","lat":43.3414,"lon":5.40912,"is_reserved":false,"is_disabled":false,"rental_uris":{"android":"levelo://app?vid=28237f71-ce7d-44b2-b026-8f52cf5fd5b7","ios":"levelo://app?vid=28237f71-ce7d-44b2-b026-8f52cf5fd5b7"},"vehicle_type_id":"4","last_reported":1727111294,"current_range_meters":28800,"station_id":"ce4bhqh2rcd13ifvqhlg","pricing_plan_id":"cebpf4jnsgd1na2vs0mg"},{"bike_id":"3035da21-6f0a-4cd3-8b9c-f90eef7686d8","system_id":"levelo_inurba_marseille","lat":43.30661,"lon":5.40104,"is_reserved":false,"is_disabled":false,"rental_uris":{"android":"levelo://app?vid=3035da21-6f0a-4cd3-8b9c-f90eef7686d8","ios":"levelo://app?vid=3035da21-6f0a-4cd3-8b9c-f90eef7686d8"},"vehicle_type_id":"4","last_reported":1727111294,"current_range_meters":8800,"station_id":"ce4bh112rcd13ifvqda0","pricing_plan_id":"cebpf4jnsgd1na2vs0mg"},{"bike_id":"2a23e07a-a8fc-493f-9945-610ad6388200","system_id":"levelo_inurba_marseille","lat":43.28941,"lon":5.36399,"is_reserved":false,"is_disabled":false,"rental_uris":{"android":"levelo://app?vid=2a23e07a-a8fc-493f-9945-610ad6388200","ios":"levelo://app?vid=2a23e07a-a8fc-493f-9945-610ad6388200"},"vehicle_type_id":"4","last_reported":1727111294,"current_range_meters":25200,"station_id":"ce4bhc92rcd13ifvqetg","pricing_plan_id":"cebpf4jnsgd1na2vs0mg"},{"bike_id":"5b09da83-c7d3-43f9-97df-dc8e0d20560a","system_id":"levelo_inurba_marseille","lat":43.285278,"lon":5.35345,"is_reserved":false,"is_disabled":false,"rental_uris":{"android":"levelo://app?vid=5b09da83-c7d3-43f9-97df-dc8e0d20560a","ios":"levelo://app?vid=5b09da83-c7d3-43f9-97df-dc8e0d20560a"},"vehicle_type_id":"4","last_reported":1727111294,"current_range_meters":36000,"station_id":"ce4bhah2rcd13ifvqei0","pricing_plan_id":"cebpf4jnsgd1na2vs0mg"},{"bike_id":"593c260c-e239-4949-8c2d-61b159ecc5e8","system_id":"levelo_inurba_marseille","lat":43.28706,"lon":5.37929,"is_reserved":false,"is_disabled":false,"rental_uris":{"android":"levelo://app?vid=593c260c-e239-4949-8c2d-61b159ecc5e8","ios":"levelo://app?vid=593c260c-e239-4949-8c2d-61b159ecc5e8"},"vehicle_type_id":"4","last_reported":1727111294,"current_range_meters":8400,"station_id":"ce4bh9p2rcd13ifvqec0","pricing_plan_id":"cebpf4jnsgd1na2vs0mg"},{"bike_id":"13080899-a68b-4dbc-82c4-f13f454c2dcc","system_id":"levelo_inurba_marseille","lat":43.33034,"lon":5.3906,"is_reserved":false,"is_disabled":false,"rental_uris":{"android":"levelo://app?vid=13080899-a68b-4dbc-82c4-f13f454c2dcc","ios":"levelo://app?vid=13080899-a68b-4dbc-82c4-f13f454c2dcc"},"vehicle_type_id":"4","last_reported":1727111294,"current_range_meters":20000,"station_id":"ce4bhr92rcd13ifvqhrg","pricing_plan_id":"cebpf4jnsgd1na2vs0mg"},{"bike_id":"2347817f-e20e-4496-af0e-1f65e3ba6aef","system_id":"levelo_inurba_marseille","lat":43.32115,"lon":5.36769,"is_reserved":false,"is_disabled":false,"rental_uris":{"android":"levelo://app?vid=2347817f-e20e-4496-af0e-1f65e3ba6aef","ios":"levelo://app?vid=2347817f-e20e-4496-af0e-1f65e3ba6aef"},"vehicle_type_id":"4","last_reported":1727111294,"current_range_meters":30800,"station_id":"ce4bhrh2rcd13ifvqhug","pricing_plan_id":"cebpf4jnsgd1na2vs0mg"},{"bike_id":"504a3db8-57d1-459e-9776-672cf0c27d15","system_id":"levelo_inurba_marseille","lat":43.30422,"lon":5.41287,"is_reserved":false,"is_disabled":false,"rental_uris":{"android":"levelo://app?vid=504a3db8-57d1-459e-9776-672cf0c27d15","ios":"levelo://app?vid=504a3db8-57d1-459e-9776-672cf0c27d15"},"vehicle_type_id":"4","last_reported":1727111294,"current_range_meters":6000,"station_id":"ce4bhop2rcd13ifvqh8g","pricing_plan_id":"cebpf4jnsgd1na2vs0mg"},{"bike_id":"906f6c66-988a-415d-a5e4-86f1a05009d3","system_id":"levelo_inurba_marseille","lat":43.25721,"lon":5.41116,"is_reserved":false,"is_disabled":false,"rental_uris":{"android":"levelo://app?vid=906f6c66-988a-415d-a5e4-86f1a05009d3","ios":"levelo://app?vid=906f6c66-988a-415d-a5e4-86f1a05009d3"},"vehicle_type_id":"4","last_reported":1727111294,"current_range_meters":17200,"station_id":"ce4bhkp2rcd13ifvqgd0","pricing_plan_id":"cebpf4jnsgd1na2vs0mg"},{"bike_id":"527069b8-853a-46e9-b3dd-17efd8ebab91","system_id":"levelo_inurba_marseille","lat":43.32479,"lon":5.3657,"is_reserved":false,"is_disabled":false,"rental_uris":{"android":"levelo://app?vid=527069b8-853a-46e9-b3dd-17efd8ebab91","ios":"levelo://app?vid=527069b8-853a-46e9-b3dd-17efd8ebab91"},"vehicle_type_id":"4","last_reported":1727111294,"current_range_meters":36000,"station_id":"ce4bhs12rcd13ifvqhvg","pricing_plan_id":"cebpf4jnsgd1na2vs0mg"},{"bike_id":"4f4136e2-fba5-4b4e-8381-3be540a768c8","system_id":"levelo_inurba_marseille","lat":43.25318,"lon":5.40883,"is_reserved":false,"is_disabled":false,"rental_uris":{"android":"levelo://app?vid=4f4136e2-fba5-4b4e-8381-3be540a768c8","ios":"levelo://app?vid=4f4136e2-fba5-4b4e-8381-3be540a768c8"},"vehicle_type_id":"4","last_reported":1727111294,"current_range_meters":26000,"station_id":"","pricing_plan_id":"cebpf4jnsgd1na2vs0mg"},{"bike_id":"9032d99d-aa2b-4b86-ad18-1ed36ec1e2d3","system_id":"levelo_inurba_marseille","lat":43.28457,"lon":5.35894,"is_reserved":false,"is_disabled":false,"rental_uris":{"android":"levelo://app?vid=9032d99d-aa2b-4b86-ad18-1ed36ec1e2d3","ios":"levelo://app?vid=9032d99d-aa2b-4b86-ad18-1ed36ec1e2d3"},"vehicle_type_id":"4","last_reported":1727111294,"current_range_meters":7200,"station_id":"ce4bhah2rcd13ifvqei0","pricing_plan_id":"cebpf4jnsgd1na2vs0mg"},{"bike_id":"35317608-6f8d-499b-8a00-0cdbf754a7a0","system_id":"levelo_inurba_marseille","lat":43.25868,"lon":5.39898,"is_reserved":false,"is_disabled":false,"rental_uris":{"android":"levelo://app?vid=35317608-6f8d-499b-8a00-0cdbf754a7a0","ios":"levelo://app?vid=35317608-6f8d-499b-8a00-0cdbf754a7a0"},"vehicle_type_id":"4","last_reported":1727111294,"current_range_meters":9200,"station_id":"ce4bhl92rcd13ifvqghg","pricing_plan_id":"cebpf4jnsgd1na2vs0mg"},{"bike_id":"88d99b06-f13d-406f-a0e7-c6d687144b6a","system_id":"levelo_inurba_marseille","lat":43.24181,"lon":5.39732,"is_reserved":false,"is_disabled":false,"rental_uris":{"android":"levelo://app?vid=88d99b06-f13d-406f-a0e7-c6d687144b6a","ios":"levelo://app?vid=88d99b06-f13d-406f-a0e7-c6d687144b6a"},"vehicle_type_id":"4","last_reported":1727111294,"current_range_meters":11600,"station_id":"ce4bhn12rcd13ifvqgpg","pricing_plan_id":"cebpf4jnsgd1na2vs0mg"},{"bike_id":"18253573-1d7d-4d5d-8098-582a7e7fd0f2","system_id":"levelo_inurba_marseille","lat":43.2587,"lon":5.399,"is_reserved":false,"is_disabled":false,"rental_uris":{"android":"levelo://app?vid=18253573-1d7d-4d5d-8098-582a7e7fd0f2","ios":"levelo://app?vid=18253573-1d7d-4d5d-8098-582a7e7fd0f2"},"vehicle_type_id":"4","last_reported":1727111294,"current_range_meters":8400,"station_id":"ce4bhl92rcd13ifvqghg","pricing_plan_id":"cebpf4jnsgd1na2vs0mg"},{"bike_id":"1b0b250e-6d58-4c87-b502-d67ecce3cb04","system_id":"levelo_inurba_marseille","lat":43.29969,"lon":5.38495,"is_reserved":false,"is_disabled":false,"rental_uris":{"android":"levelo://app?vid=1b0b250e-6d58-4c87-b502-d67ecce3cb04","ios":"levelo://app?vid=1b0b250e-6d58-4c87-b502-d67ecce3cb04"},"vehicle_type_id":"4","last_reported":1727111294,"current_range_meters":39200,"station_id":"ce4bgj92rcd13ifvqbd0","pricing_plan_id":"cebpf4jnsgd1na2vs0mg"},{"bike_id":"40d45a9d-122f-47a1-bffe-0c18f082e868","system_id":"levelo_inurba_marseille","lat":43.26783,"lon":5.39421,"is_reserved":false,"is_disabled":false,"rental_uris":{"android":"levelo://app?vid=40d45a9d-122f-47a1-bffe-0c18f082e868","ios":"levelo://app?vid=40d45a9d-122f-47a1-bffe-0c18f082e868"},"vehicle_type_id":"4","last_reported":1727111294,"current_range_meters":22000,"station_id":"ce4bhh12rcd13ifvqfg0","pricing_plan_id":"cebpf4jnsgd1na2vs0mg"},{"bike_id":"7352b3bc-f058-4f73-91f6-9296b70b4973","system_id":"levelo_inurba_marseille","lat":43.27996,"lon":5.41662,"is_reserved":false,"is_disabled":false,"rental_uris":{"android":"levelo://app?vid=7352b3bc-f058-4f73-91f6-9296b70b4973","ios":"levelo://app?vid=7352b3bc-f058-4f73-91f6-9296b70b4973"},"vehicle_type_id":"4","last_reported":1727111294,"current_range_meters":32800,"station_id":"ce4bho12rcd13ifvqh1g","pricing_plan_id":"cebpf4jnsgd1na2vs0mg"},{"bike_id":"ba406401-e4e0-48aa-9196-72657a86a711","system_id":"levelo_inurba_marseille","lat":43.26203,"lon":5.37935,"is_reserved":false,"is_disabled":false,"rental_uris":{"android":"levelo://app?vid=ba406401-e4e0-48aa-9196-72657a86a711","ios":"levelo://app?vid=ba406401-e4e0-48aa-9196-72657a86a711"},"vehicle_type_id":"4","last_reported":1727111294,"current_range_meters":14800,"station_id":"ce4bhjp2rcd13ifvqg90","pricing_plan_id":"cebpf4jnsgd1na2vs0mg"},{"bike_id":"a231ef57-638e-4932-b53c-941657a128bf","system_id":"levelo_inurba_marseille","lat":43.29011,"lon":5.37266,"is_reserved":false,"is_disabled":false,"rental_uris":{"android":"levelo://app?vid=a231ef57-638e-4932-b53c-941657a128bf","ios":"levelo://app?vid=a231ef57-638e-4932-b53c-941657a128bf"},"vehicle_type_id":"4","last_reported":1727111294,"current_range_meters":9600,"station_id":"","pricing_plan_id":"cebpf4jnsgd1na2vs0mg"},{"bike_id":"ee8b6911-99a8-49c7-96eb-89c84f1dcc3a","system_id":"levelo_inurba_marseille","lat":43.33016,"lon":5.39049,"is_reserved":false,"is_disabled":false,"rental_uris":{"android":"levelo://app?vid=ee8b6911-99a8-49c7-96eb-89c84f1dcc3a","ios":"levelo://app?vid=ee8b6911-99a8-49c7-96eb-89c84f1dcc3a"},"vehicle_type_id":"4","last_reported":1727111294,"current_range_meters":8000,"station_id":"ce4bhr92rcd13ifvqhrg","pricing_plan_id":"cebpf4jnsgd1na2vs0mg"},{"bike_id":"824e086c-7b10-41f2-bf74-970fe6d2f19f","system_id":"levelo_inurba_marseille","lat":43.29801,"lon":5.40417,"is_reserved":false,"is_disabled":false,"rental_uris":{"android":"levelo://app?vid=824e086c-7b10-41f2-bf74-970fe6d2f19f","ios":"levelo://app?vid=824e086c-7b10-41f2-bf74-970fe6d2f19f"},"vehicle_type_id":"4","last_reported":1727111294,"current_range_meters":39200,"station_id":"ce4bh112rcd13ifvqd90","pricing_plan_id":"cebpf4jnsgd1na2vs0mg"},{"bike_id":"8290d734-3be9-4d11-a77d-c959dd50d3ea","system_id":"levelo_inurba_marseille","lat":43.32544,"lon":5.41437,"is_reserved":false,"is_disabled":false,"rental_uris":{"android":"levelo://app?vid=8290d734-3be9-4d11-a77d-c959dd50d3ea","ios":"levelo://app?vid=8290d734-3be9-4d11-a77d-c959dd50d3ea"},"vehicle_type_id":"4","last_reported":1727111294,"current_range_meters":38800,"station_id":"ce4bhq12rcd13ifvqhhg","pricing_plan_id":"cebpf4jnsgd1na2vs0mg"},{"bike_id":"5ad8605f-c870-4b98-8e5c-1453dd6fce75","system_id":"levelo_inurba_marseille","lat":43.29552,"lon":5.42292,"is_reserved":false,"is_disabled":false,"rental_uris":{"android":"levelo://app?vid=5ad8605f-c870-4b98-8e5c-1453dd6fce75","ios":"levelo://app?vid=5ad8605f-c870-4b98-8e5c-1453dd6fce75"},"vehicle_type_id":"4","last_reported":1727111294,"current_range_meters":24400,"station_id":"ce4bhph2rcd13ifvqhdg","pricing_plan_id":"cebpf4jnsgd1na2vs0mg"},{"bike_id":"e45bb684-a919-41d2-90e7-efe795d13094","system_id":"levelo_inurba_marseille","lat":43.25581,"lon":5.38232,"is_reserved":false,"is_disabled":false,"rental_uris":{"android":"levelo://app?vid=e45bb684-a919-41d2-90e7-efe795d13094","ios":"levelo://app?vid=e45bb684-a919-41d2-90e7-efe795d13094"},"vehicle_type_id":"4","last_reported":1727111294,"current_range_meters":2800,"station_id":"ce4bhih2rcd13ifvqfs0","pricing_plan_id":"cebpf4jnsgd1na2vs0mg"},{"bike_id":"1520b651-f573-4a7b-943e-b3836bcb0180","system_id":"levelo_inurba_marseille","lat":43.295309,"lon":5.375081,"is_reserved":false,"is_disabled":false,"rental_uris":{"android":"levelo://app?vid=1520b651-f573-4a7b-943e-b3836bcb0180","ios":"levelo://app?vid=1520b651-f573-4a7b-943e-b3836bcb0180"},"vehicle_type_id":"4","last_reported":1727111294,"current_range_meters":22400,"station_id":"ce4bgkp2rcd13ifvqbmg","pricing_plan_id":"cebpf4jnsgd1na2vs0mg"},{"bike_id":"c38e2968-f31b-4626-8f1f-89cc527a4b89","system_id":"levelo_inurba_marseille","lat":43.32261,"lon":5.38281,"is_reserved":false,"is_disabled":false,"rental_uris":{"android":"levelo://app?vid=c38e2968-f31b-4626-8f1f-89cc527a4b89","ios":"levelo://app?vid=c38e2968-f31b-4626-8f1f-89cc527a4b89"},"vehicle_type_id":"4","last_reported":1727111294,"current_range_meters":25600,"station_id":"ce4bhr12rcd13ifvqhqg","pricing_plan_id":"cebpf4jnsgd1na2vs0mg"},{"bike_id":"ded6984c-b079-496b-91f9-27fd328923e7","system_id":"levelo_inurba_marseille","lat":43.29033,"lon":5.38664,"is_reserved":false,"is_disabled":false,"rental_uris":{"android":"levelo://app?vid=ded6984c-b079-496b-91f9-27fd328923e7","ios":"levelo://app?vid=ded6984c-b079-496b-91f9-27fd328923e7"},"vehicle_type_id":"4","last_reported":1727111294,"current_range_meters":38000,"station_id":"ce4bh4p2rcd13ifvqe0g","pricing_plan_id":"cebpf4jnsgd1na2vs0mg"},{"bike_id":"be737433-8462-4f45-81bf-e08a82231746","system_id":"levelo_inurba_marseille","lat":43.28158,"lon":5.42641,"is_reserved":false,"is_disabled":false,"rental_uris":{"android":"levelo://app?vid=be737433-8462-4f45-81bf-e08a82231746","ios":"levelo://app?vid=be737433-8462-4f45-81bf-e08a82231746"},"vehicle_type_id":"4","last_reported":1727111294,"current_range_meters":37600,"station_id":"ce4bhnh2rcd13ifvqgug","pricing_plan_id":"cebpf4jnsgd1na2vs0mg"},{"bike_id":"757d9e0e-4752-4ec5-ab6b-7c675ca16925","system_id":"levelo_inurba_marseille","lat":43.26503,"lon":5.39535,"is_reserved":false,"is_disabled":false,"rental_uris":{"android":"levelo://app?vid=757d9e0e-4752-4ec5-ab6b-7c675ca16925","ios":"levelo://app?vid=757d9e0e-4752-4ec5-ab6b-7c675ca16925"},"vehicle_type_id":"4","last_reported":1727111294,"current_range_meters":24400,"station_id":"ce4bhi12rcd13ifvqfq0","pricing_plan_id":"cebpf4jnsgd1na2vs0mg"},{"bike_id":"6861c548-c9e4-45d2-80c8-e55aaecb4693","system_id":"levelo_inurba_marseille","lat":43.30326,"lon":5.40447,"is_reserved":false,"is_disabled":false,"rental_uris":{"android":"levelo://app?vid=6861c548-c9e4-45d2-80c8-e55aaecb4693","ios":"levelo://app?vid=6861c548-c9e4-45d2-80c8-e55aaecb4693"},"vehicle_type_id":"4","last_reported":1727111294,"current_range_meters":24000,"station_id":"ce4bh012rcd13ifvqd10","pricing_plan_id":"cebpf4jnsgd1na2vs0mg"},{"bike_id":"1e2ad45b-f71a-4e13-9fc3-0b92617cb27c","system_id":"levelo_inurba_marseille","lat":43.31892,"lon":5.40738,"is_reserved":false,"is_disabled":false,"rental_uris":{"android":"levelo://app?vid=1e2ad45b-f71a-4e13-9fc3-0b92617cb27c","ios":"levelo://app?vid=1e2ad45b-f71a-4e13-9fc3-0b92617cb27c"},"vehicle_type_id":"4","last_reported":1727111294,"current_range_meters":11200,"station_id":"ce4bhq12rcd13ifvqhig","pricing_plan_id":"cebpf4jnsgd1na2vs0mg"},{"bike_id":"d79c1099-2463-48d1-955d-3d12c6236355","system_id":"levelo_inurba_marseille","lat":43.2992,"lon":5.37484,"is_reserved":false,"is_disabled":false,"rental_uris":{"android":"levelo://app?vid=d79c1099-2463-48d1-955d-3d12c6236355","ios":"levelo://app?vid=d79c1099-2463-48d1-955d-3d12c6236355"},"vehicle_type_id":"4","last_reported":1727111294,"current_range_meters":17200,"station_id":"ce4bgjh2rcd13ifvqbg0","pricing_plan_id":"cebpf4jnsgd1na2vs0mg"},{"bike_id":"8a588b83-5266-4e84-ba49-6eeae14cdbe5","system_id":"levelo_inurba_marseille","lat":43.29096,"lon":5.38137,"is_reserved":false,"is_disabled":false,"rental_uris":{"android":"levelo://app?vid=8a588b83-5266-4e84-ba49-6eeae14cdbe5","ios":"levelo://app?vid=8a588b83-5266-4e84-ba49-6eeae14cdbe5"},"vehicle_type_id":"4","last_reported":1727111294,"current_range_meters":3200,"station_id":"ce4bh512rcd13ifvqe2g","pricing_plan_id":"cebpf4jnsgd1na2vs0mg"},{"bike_id":"f8e2ae53-7534-4683-ba9e-2bab42a16291","system_id":"levelo_inurba_marseille","lat":43.2847,"lon":5.35899,"is_reserved":false,"is_disabled":false,"rental_uris":{"android":"levelo://app?vid=f8e2ae53-7534-4683-ba9e-2bab42a16291","ios":"levelo://app?vid=f8e2ae53-7534-4683-ba9e-2bab42a16291"},"vehicle_type_id":"4","last_reported":1727111294,"current_range_meters":28800,"station_id":"ce4bhah2rcd13ifvqei0","pricing_plan_id":"cebpf4jnsgd1na2vs0mg"},{"bike_id":"b1763935-55f5-4fba-bf69-49c623542c32","system_id":"levelo_inurba_marseille","lat":43.31709,"lon":5.43707,"is_reserved":false,"is_disabled":false,"rental_uris":{"android":"levelo://app?vid=b1763935-55f5-4fba-bf69-49c623542c32","ios":"levelo://app?vid=b1763935-55f5-4fba-bf69-49c623542c32"},"vehicle_type_id":"4","last_reported":1727111294,"current_range_meters":24800,"station_id":"ce4bhp92rcd13ifvqhcg","pricing_plan_id":"cebpf4jnsgd1na2vs0mg"},{"bike_id":"89618110-2ab6-4bfa-9c1b-a209efb53019","system_id":"levelo_inurba_marseille","lat":43.28847,"lon":5.35833,"is_reserved":false,"is_disabled":false,"rental_uris":{"android":"levelo://app?vid=89618110-2ab6-4bfa-9c1b-a209efb53019","ios":"levelo://app?vid=89618110-2ab6-4bfa-9c1b-a209efb53019"},"vehicle_type_id":"4","last_reported":1727111294,"current_range_meters":16000,"station_id":"ce4bhb12rcd13ifvqem0","pricing_plan_id":"cebpf4jnsgd1na2vs0mg"},{"bike_id":"7da0f058-3bfe-4d22-992e-db226f430c75","system_id":"levelo_inurba_marseille","lat":43.29556,"lon":5.42285,"is_reserved":false,"is_disabled":false,"rental_uris":{"android":"levelo://app?vid=7da0f058-3bfe-4d22-992e-db226f430c75","ios":"levelo://app?vid=7da0f058-3bfe-4d22-992e-db226f430c75"},"vehicle_type_id":"4","last_reported":1727111294,"current_range_meters":37600,"station_id":"ce4bhph2rcd13ifvqhdg","pricing_plan_id":"cebpf4jnsgd1na2vs0mg"},{"bike_id":"c7a6dc45-d746-4eca-a01d-d6afe1350e51","system_id":"levelo_inurba_marseille","lat":43.28559,"lon":5.42488,"is_reserved":false,"is_disabled":false,"rental_uris":{"android":"levelo://app?vid=c7a6dc45-d746-4eca-a01d-d6afe1350e51","ios":"levelo://app?vid=c7a6dc45-d746-4eca-a01d-d6afe1350e51"},"vehicle_type_id":"4","last_reported":1727111294,"current_range_meters":16400,"station_id":"","pricing_plan_id":"cebpf4jnsgd1na2vs0mg"},{"bike_id":"9ca7852c-8edc-4c04-b1fd-8497bf11e037","system_id":"levelo_inurba_marseille","lat":43.26205,"lon":5.3793,"is_reserved":false,"is_disabled":false,"rental_uris":{"android":"levelo://app?vid=9ca7852c-8edc-4c04-b1fd-8497bf11e037","ios":"levelo://app?vid=9ca7852c-8edc-4c04-b1fd-8497bf11e037"},"vehicle_type_id":"4","last_reported":1727111294,"current_range_meters":6400,"station_id":"ce4bhjp2rcd13ifvqg90","pricing_plan_id":"cebpf4jnsgd1na2vs0mg"},{"bike_id":"372e1863-0ee2-41aa-9eed-e699f0dcaa20","system_id":"levelo_inurba_marseille","lat":43.33722,"lon":5.39185,"is_reserved":false,"is_disabled":false,"rental_uris":{"android":"levelo://app?vid=372e1863-0ee2-41aa-9eed-e699f0dcaa20","ios":"levelo://app?vid=372e1863-0ee2-41aa-9eed-e699f0dcaa20"},"vehicle_type_id":"4","last_reported":1727111294,"current_range_meters":34000,"station_id":"ce4bhr92rcd13ifvqhsg","pricing_plan_id":"cebpf4jnsgd1na2vs0mg"},{"bike_id":"01d6fdea-35dc-40ec-8a20-cad37189c8ff","system_id":"levelo_inurba_marseille","lat":43.295563,"lon":5.422887,"is_reserved":false,"is_disabled":false,"rental_uris":{"android":"levelo://app?vid=01d6fdea-35dc-40ec-8a20-cad37189c8ff","ios":"levelo://app?vid=01d6fdea-35dc-40ec-8a20-cad37189c8ff"},"vehicle_type_id":"4","last_reported":1727111294,"current_range_meters":18800,"station_id":"ce4bhph2rcd13ifvqhdg","pricing_plan_id":"cebpf4jnsgd1na2vs0mg"},{"bike_id":"32bd4b2e-b3e2-43b4-a67f-c25730ac89cb","system_id":"levelo_inurba_marseille","lat":43.262299,"lon":5.37534,"is_reserved":false,"is_disabled":false,"rental_uris":{"android":"levelo://app?vid=32bd4b2e-b3e2-43b4-a67f-c25730ac89cb","ios":"levelo://app?vid=32bd4b2e-b3e2-43b4-a67f-c25730ac89cb"},"vehicle_type_id":"4","last_reported":1727111294,"current_range_meters":18800,"station_id":"ce4bhgp2rcd13ifvqfc0","pricing_plan_id":"cebpf4jnsgd1na2vs0mg"},{"bike_id":"4fa05199-2ec8-47e2-95ba-775c7e0a1b99","system_id":"levelo_inurba_marseille","lat":43.22928,"lon":5.35373,"is_reserved":false,"is_disabled":false,"rental_uris":{"android":"levelo://app?vid=4fa05199-2ec8-47e2-95ba-775c7e0a1b99","ios":"levelo://app?vid=4fa05199-2ec8-47e2-95ba-775c7e0a1b99"},"vehicle_type_id":"4","last_reported":1727111294,"current_range_meters":10000,"station_id":"cpo3532slgdg3j2ikp40","pricing_plan_id":"cebpf4jnsgd1na2vs0mg"},{"bike_id":"47c41899-e660-44df-b55a-11a1868f2f9a","system_id":"levelo_inurba_marseille","lat":43.23056,"lon":5.35514,"is_reserved":false,"is_disabled":false,"rental_uris":{"android":"levelo://app?vid=47c41899-e660-44df-b55a-11a1868f2f9a","ios":"levelo://app?vid=47c41899-e660-44df-b55a-11a1868f2f9a"},"vehicle_type_id":"4","last_reported":1727111294,"current_range_meters":3200,"station_id":"cpo3342slgdg3j2ifvpg","pricing_plan_id":"cebpf4jnsgd1na2vs0mg"},{"bike_id":"674aaf04-8e7a-4315-a4a3-1fdf9d385675","system_id":"levelo_inurba_marseille","lat":43.255025,"lon":5.376518,"is_reserved":false,"is_disabled":false,"rental_uris":{"android":"levelo://app?vid=674aaf04-8e7a-4315-a4a3-1fdf9d385675","ios":"levelo://app?vid=674aaf04-8e7a-4315-a4a3-1fdf9d385675"},"vehicle_type_id":"4","last_reported":1727111294,"current_range_meters":12000,"station_id":"ce4bhh12rcd13ifvqff0","pricing_plan_id":"cebpf4jnsgd1na2vs0mg"},{"bike_id":"8eb61d45-4a6b-4a63-843c-2042f03aafcb","system_id":"levelo_inurba_marseille","lat":43.25489,"lon":5.37649,"is_reserved":false,"is_disabled":false,"rental_uris":{"android":"levelo://app?vid=8eb61d45-4a6b-4a63-843c-2042f03aafcb","ios":"levelo://app?vid=8eb61d45-4a6b-4a63-843c-2042f03aafcb"},"vehicle_type_id":"4","last_reported":1727111294,"current_range_meters":38800,"station_id":"ce4bhh12rcd13ifvqff0","pricing_plan_id":"cebpf4jnsgd1na2vs0mg"},{"bike_id":"5a3abb74-0532-4a9b-9650-b28e6f6dcaee","system_id":"levelo_inurba_marseille","lat":43.27731,"lon":5.41152,"is_reserved":false,"is_disabled":false,"rental_uris":{"android":"levelo://app?vid=5a3abb74-0532-4a9b-9650-b28e6f6dcaee","ios":"levelo://app?vid=5a3abb74-0532-4a9b-9650-b28e6f6dcaee"},"vehicle_type_id":"4","last_reported":1727111294,"current_range_meters":24000,"station_id":"","pricing_plan_id":"cebpf4jnsgd1na2vs0mg"},