{"last_updated":1702282217,"ttl":30,"version":"2.2","data":{"bikes":[{"bike_id":"1a78223d-601f-4e4b-8d20-47d9e10e8866","system_id":"levelo_inurba_marseille","lat":43.313391,"lon":5.36706,"is_reserved":false,"is_disabled":false,"rental_uris":{"android":"levelo://app?vid=1a78223d-601f-4e4b-8d20-47d9e10e8866","ios":"levelo://app?vid=1a78223d-601f-4e4b-8d20-47d9e10e8866"},"vehicle_type_id":"4","last_reported":1702282217,"current_range_meters":25600,"station_id":"ce4bgr92rcd13ifvqc6g","pricing_plan_id":"free"},{"bike_id":"22f592ed-7213-4141-b405-b53acc01ff6c","system_id":"levelo_inurba_marseille","lat":43.313391,"lon":5.36706,"is_reserved":false,"is_disabled":false,"rental_uris":{"android":"levelo://app?vid=22f592ed-7213-4141-b405-b53acc01ff6c","ios":"levelo://app?vid=22f592ed-7213-4141-b405-b53acc01ff6c"},"vehicle_type_id":"4","last_reported":1702282217,"current_range_meters":10800,"station_id":"ce4bgr92rcd13ifvqc6g","pricing_plan_id":"free"},{"bike_id":"bc58274e-d2d6-448d-ac09-facbdfbc86e7","system_id":"levelo_inurba_marseille","lat":43.31341,"lon":5.367098,"is_reserved":false,"is_disabled":false,"rental_uris":{"android":"levelo://app?vid=bc58274e-d2d6-448d-ac09-facbdfbc86e7","ios":"levelo://app?vid=bc58274e-d2d6-448d-ac09-facbdfbc86e7"},"vehicle_type_id":"4","last_reported":1702282217,"current_range_meters":18400,"station_id":"ce4bgr92rcd13ifvqc6g","pricing_plan_id":"free"},{"bike_id":"a19087a6-47e6-403e-a488-7ee9a44459a6","system_id":"levelo_inurba_marseille","lat":43.313391,"lon":5.36706,"is_reserved":false,"is_disabled":false,"rental_uris":{"android":"levelo://app?vid=a19087a6-47e6-403e-a488-7ee9a44459a6","ios":"levelo://app?vid=a19087a6-47e6-403e-a488-7ee9a44459a6"},"vehicle_type_id":"4","last_reported":1702282217,"current_range_meters":20000,"station_id":"ce4bgr92rcd13ifvqc6g","pricing_plan_id":"free"},{"bike_id":"8dead90f-577d-4d9f-9331-28e8ecb446e2","system_id":"levelo_inurba_marseille","lat":43.31341,"lon":5.367098,"is_reserved":false,"is_disabled":false,"rental_uris":{"android":"levelo://app?vid=8dead90f-577d-4d9f-9331-28e8ecb446e2","ios":"levelo://app?vid=8dead90f-577d-4d9f-9331-28e8ecb446e2"},"vehicle_type_id":"4","last_reported":1702282217,"current_range_meters":2000,"station_id":"ce4bgr92rcd13ifvqc6g","pricing_plan_id":"free"},{"bike_id":"8ac9870d-3e79-4926-a23c-724057773296","system_id":"levelo_inurba_marseille","lat":43.313391,"lon":5.36706,"is_reserved":false,"is_disabled":false,"rental_uris":{"android":"levelo://app?vid=8ac9870d-3e79-4926-a23c-724057773296","ios":"levelo://app?vid=8ac9870d-3e79-4926-a23c-724057773296"},"vehicle_type_id":"4","last_reported":1702282217,"current_range_meters":22400,"station_id":"ce4bgr92rcd13ifvqc6g","pricing_plan_id":"free"},{"bike_id":"6cd761da-992d-406f-95f3-c40e30a4b263","system_id":"levelo_inurba_marseille","lat":43.312239,"lon":5.368562,"is_reserved":false,"is_disabled":false,"rental_uris":{"android":"levelo://app?vid=6cd761da-992d-406f-95f3-c40e30a4b263","ios":"levelo://app?vid=6cd761da-992d-406f-95f3-c40e30a4b263"},"vehicle_type_id":"4","last_reported":1702282217,"current_range_meters":26800,"station_id":"ce4bgl92rcd13ifvqbq0","pricing_plan_id":"free"},{"bike_id":"73f066ed-19d2-4a73-bfe3-5fecf411b3a9","system_id":"levelo_inurba_marseille","lat":43.312239,"lon":5.368562,"is_reserved":false,"is_disabled":false,"rental_uris":{"android":"levelo://app?vid=73f066ed-19d2-4a73-bfe3-5fecf411b3a9","ios":"levelo://app?vid=73f066ed-19d2-4a73-bfe3-5fecf411b3a9"},"vehicle_type_id":"4","last_reported":1702282217,"current_range_meters":25600,"station_id":"ce4bgl92rcd13ifvqbq0","pricing_plan_id":"free"},{"bike_id":"5c5d885d-3a80-4972-a0a7-75d6086b9f07","system_id":"levelo_inurba_marseille","lat":43.309076,"lon":5.368465,"is_reserved":false,"is_disabled":false,"rental_uris":{"android":"levelo://app?vid=5c5d885d-3a80-4972-a0a7-75d6086b9f07","ios":"levelo://app?vid=5c5d885d-3a80-4972-a0a7-75d6086b9f07"},"vehicle_type_id":"4","last_reported":1702282217,"current_range_meters":29600,"station_id":"ce4bgn92rcd13ifvqbvg","pricing_plan_id":"free"},{"bike_id":"6b9d7cd0-b11e-47a2-b2cb-d94eba6f8c81","system_id":"levelo_inurba_marseille","lat":43.309076,"lon":5.368465,"is_reserved":false,"is_disabled":false,"rental_uris":{"android":"levelo://app?vid=6b9d7cd0-b11e-47a2-b2cb-d94eba6f8c81","ios":"levelo://app?vid=6b9d7cd0-b11e-47a2-b2cb-d94eba6f8c81"},"vehicle_type_id":"4","last_reported":1702282217,"current_range_meters":16000,"station_id":"ce4bgn92rcd13ifvqbvg","pricing_plan_id":"free"},{"bike_id":"fdaf4ab5-a9d9-4192-aa17-96757f60edc3","system_id":"levelo_inurba_marseille","lat":43.313391,"lon":5.36706,"is_reserved":false,"is_disabled":false,"rental_uris":{"android":"levelo://app?vid=fdaf4ab5-a9d9-4192-aa17-96757f60edc3","ios":"levelo://app?vid=fdaf4ab5-a9d9-4192-aa17-96757f60edc3"},"vehicle_type_id":"4","last_reported":1702282217,"current_range_meters":31200,"station_id":"ce4bgr92rcd13ifvqc6g","pricing_plan_id":"free"},{"bike_id":"47e6cf27-a921-4cb9-81be-31ae9f787368","system_id":"levelo_inurba_marseille","lat":43.309039,"lon":5.371797,"is_reserved":false,"is_disabled":false,"rental_uris":{"android":"levelo://app?vid=47e6cf27-a921-4cb9-81be-31ae9f787368","ios":"levelo://app?vid=47e6cf27-a921-4cb9-81be-31ae9f787368"},"vehicle_type_id":"4","last_reported":1702282217,"current_range_meters":27600,"station_id":"ce4bguh2rcd13ifvqckg","pricing_plan_id":"free"},{"bike_id":"9373dedc-f86f-4ad2-ba19-8d4b5ef0366b","system_id":"levelo_inurba_marseille","lat":43.309039,"lon":5.371797,"is_reserved":false,"is_disabled":false,"rental_uris":{"android":"levelo://app?vid=9373dedc-f86f-4ad2-ba19-8d4b5ef0366b","ios":"levelo://app?vid=9373dedc-f86f-4ad2-ba19-8d4b5ef0366b"},"vehicle_type_id":"4","last_reported":1702282217,"current_range_meters":16800,"station_id":"ce4bguh2rcd13ifvqckg","pricing_plan_id":"free"},{"bike_id":"5631c8f0-2d02-473f-b0c0-85e9c529d1d0","system_id":"levelo_inurba_marseille","lat":43.313075,"lon":5.375528,"is_reserved":false,"is_disabled":false,"rental_uris":{"android":"levelo://app?vid=5631c8f0-2d02-473f-b0c0-85e9c529d1d0","ios":"levelo://app?vid=5631c8f0-2d02-473f-b0c0-85e9c529d1d0"},"vehicle_type_id":"4","last_reported":1702282217,"current_range_meters":9600,"station_id":"","pricing_plan_id":"free"},{"bike_id":"44afc869-9581-4d73-8f4d-23032125ae1e","system_id":"levelo_inurba_marseille","lat":43.305368,"lon":5.367343,"is_reserved":false,"is_disabled":false,"rental_uris":{"android":"levelo://app?vid=44afc869-9581-4d73-8f4d-23032125ae1e","ios":"levelo://app?vid=44afc869-9581-4d73-8f4d-23032125ae1e"},"vehicle_type_id":"4","last_reported":1702282217,"current_range_meters":17600,"station_id":"ce4bgrp2rcd13ifvqc9g","pricing_plan_id":"free"},{"bike_id":"4db13260-b8d3-44cc-8200-438470ed9027","system_id":"levelo_inurba_marseille","lat":43.305712,"lon":5.365641,"is_reserved":false,"is_disabled":false,"rental_uris":{"android":"levelo://app?vid=4db13260-b8d3-44cc-8200-438470ed9027","ios":"levelo://app?vid=4db13260-b8d3-44cc-8200-438470ed9027"},"vehicle_type_id":"4","last_reported":1702282217,"current_range_meters":28400,"station_id":"ce4bgs12rcd13ifvqcag","pricing_plan_id":"free"},{"bike_id":"ad0595ea-f3eb-4697-a323-44878ef36139","system_id":"levelo_inurba_marseille","lat":43.305368,"lon":5.367343,"is_reserved":false,"is_disabled":false,"rental_uris":{"android":"levelo://app?vid=ad0595ea-f3eb-4697-a323-44878ef36139","ios":"levelo://app?vid=ad0595ea-f3eb-4697-a323-44878ef36139"},"vehicle_type_id":"4","last_reported":1702282217,"current_range_meters":2400,"station_id":"ce4bgrp2rcd13ifvqc9g","pricing_plan_id":"free"},{"bike_id":"be0e8b83-aba4-4252-acb8-e29c225b270b","system_id":"levelo_inurba_marseille","lat":43.305712,"lon":5.365641,"is_reserved":false,"is_disabled":false,"rental_uris":{"android":"levelo://app?vid=be0e8b83-aba4-4252-acb8-e29c225b270b","ios":"levelo://app?vid=be0e8b83-aba4-4252-acb8-e29c225b270b"},"vehicle_type_id":"4","last_reported":1702282217,"current_range_meters":5600,"station_id":"ce4bgs12rcd13ifvqcag","pricing_plan_id":"free"},{"bike_id":"8949104f-6d30-46a4-88d1-b68f02b8ea40","system_id":"levelo_inurba_marseille","lat":43.305714,"lon":5.365633,"is_reserved":false,"is_disabled":false,"rental_uris":{"android":"levelo://app?vid=8949104f-6d30-46a4-88d1-b68f02b8ea40","ios":"levelo://app?vid=8949104f-6d30-46a4-88d1-b68f02b8ea40"},"vehicle_type_id":"4","last_reported":1702282217,"current_range_meters":19600,"station_id":"ce4bgs12rcd13ifvqcag","pricing_plan_id":"free"},{"bike_id":"9745a796-a930-4e60-980a-72238f197532","system_id":"levelo_inurba_marseille","lat":43.305714,"lon":5.365633,"is_reserved":false,"is_disabled":false,"rental_uris":{"android":"levelo://app?vid=9745a796-a930-4e60-980a-72238f197532","ios":"levelo://app?vid=9745a796-a930-4e60-980a-72238f197532"},"vehicle_type_id":"4","last_reported":1702282217,"current_range_meters":24400,"station_id":"ce4bgs12rcd13ifvqcag","pricing_plan_id":"free"},{"bike_id":"fa86253f-b3b4-44f1-8c3d-cc0d2f54cd90","system_id":"levelo_inurba_marseille","lat":43.305706,"lon":5.365654,"is_reserved":false,"is_disabled":false,"rental_uris":{"android":"levelo://app?vid=fa86253f-b3b4-44f1-8c3d-cc0d2f54cd90","ios":"levelo://app?vid=fa86253f-b3b4-44f1-8c3d-cc0d2f54cd90"},"vehicle_type_id":"4","last_reported":1702282217,"current_range_meters":25600,"station_id":"ce4bgs12rcd13ifvqcag","pricing_plan_id":"free"},{"bike_id":"37d071ce-1665-464f-bd21-fe0e68fa5b6e","system_id":"levelo_inurba_marseille","lat":43.305706,"lon":5.365654,"is_reserved":false,"is_disabled":false,"rental_uris":{"android":"levelo://app?vid=37d071ce-1665-464f-bd21-fe0e68fa5b6e","ios":"levelo://app?vid=37d071ce-1665-464f-bd21-fe0e68fa5b6e"},"vehicle_type_id":"4","last_reported":1702282217,"current_range_meters":21200,"station_id":"ce4bgs12rcd13ifvqcag","pricing_plan_id":"free"},{"bike_id":"5d1e08d7-0a65-4e1f-ab18-dc1887fe88e9","system_id":"levelo_inurba_marseille","lat":43.305706,"lon":5.365654,"is_reserved":false,"is_disabled":false,"rental_uris":{"android":"levelo://app?vid=5d1e08d7-0a65-4e1f-ab18-dc1887fe88e9","ios":"levelo://app?vid=5d1e08d7-0a65-4e1f-ab18-dc1887fe88e9"},"vehicle_type_id":"4","last_reported":1702282217,"current_range_meters":15200,"station_id":"ce4bgs12rcd13ifvqcag","pricing_plan_id":"free"},{"bike_id":"25784a51-0995-4c53-a90b-e096069ed004","system_id":"levelo_inurba_marseille","lat":43.305714,"lon":5.365633,"is_reserved":false,"is_disabled":false,"rental_uris":{"android":"levelo://app?vid=25784a51-0995-4c53-a90b-e096069ed004","ios":"levelo://app?vid=25784a51-0995-4c53-a90b-e096069ed004"},"vehicle_type_id":"4","last_reported":1702282217,"current_range_meters":31200,"station_id":"ce4bgs12rcd13ifvqcag","pricing_plan_id":"free"},{"bike_id":"50313d31-1997-4951-87dc-b36f422a4bd9","system_id":"levelo_inurba_marseille","lat":43.305706,"lon":5.365654,"is_reserved":false,"is_disabled":false,"rental_uris":{"android":"levelo://app?vid=50313d31-1997-4951-87dc-b36f422a4bd9","ios":"levelo://app?vid=50313d31-1997-4951-87dc-b36f422a4bd9"},"vehicle_type_id":"4","last_reported":1702282217,"current_range_meters":2000,"station_id":"ce4bgs12rcd13ifvqcag","pricing_plan_id":"free"},{"bike_id":"4266b9ea-2925-490b-b157-24c2389d9e10","system_id":"levelo_inurba_marseille","lat":43.3153,"lon":5.38038,"is_reserved":false,"is_disabled":false,"rental_uris":{"android":"levelo://app?vid=4266b9ea-2925-490b-b157-24c2389d9e10","ios":"levelo://app?vid=4266b9ea-2925-490b-b157-24c2389d9e10"},"vehicle_type_id":"4","last_reported":1702282217,"current_range_meters":22000,"station_id":"ce4bhsp2rcd13ifvqi50","pricing_plan_id":"free"},{"bike_id":"c0e0378c-8da8-4937-9ead-ccffd8fc99ae","system_id":"levelo_inurba_marseille","lat":43.301939,"lon":5.366286,"is_reserved":false,"is_disabled":false,"rental_uris":{"android":"levelo://app?vid=c0e0378c-8da8-4937-9ead-ccffd8fc99ae","ios":"levelo://app?vid=c0e0378c-8da8-4937-9ead-ccffd8fc99ae"},"vehicle_type_id":"4","last_reported":1702282217,"current_range_meters":14800,"station_id":"ce4bgrh2rcd13ifvqc8g","pricing_plan_id":"free"},{"bike_id":"f34600ec-9b76-4e96-bd8b-96462b23b450","system_id":"levelo_inurba_marseille","lat":43.301939,"lon":5.366286,"is_reserved":false,"is_disabled":false,"rental_uris":{"android":"levelo://app?vid=f34600ec-9b76-4e96-bd8b-96462b23b450","ios":"levelo://app?vid=f34600ec-9b76-4e96-bd8b-96462b23b450"},"vehicle_type_id":"4","last_reported":1702282217,"current_range_meters":18800,"station_id":"ce4bgrh2rcd13ifvqc8g","pricing_plan_id":"free"},{"bike_id":"269a0665-4c97-4ffc-b9ed-cd38305bb3dc","system_id":"levelo_inurba_marseille","lat":43.301939,"lon":5.366286,"is_reserved":false,"is_disabled":false,"rental_uris":{"android":"levelo://app?vid=269a0665-4c97-4ffc-b9ed-cd38305bb3dc","ios":"levelo://app?vid=269a0665-4c97-4ffc-b9ed-cd38305bb3dc"},"vehicle_type_id":"4","last_reported":1702282217,"current_range_meters":26800,"station_id":"ce4bgrh2rcd13ifvqc8g","pricing_plan_id":"free"},{"bike_id":"43e72886-aefe-4a04-b571-f642fb8c3709","system_id":"levelo_inurba_marseille","lat":43.30143,"lon":5.37413,"is_reserved":false,"is_disabled":false,"rental_uris":{"android":"levelo://app?vid=43e72886-aefe-4a04-b571-f642fb8c3709","ios":"levelo://app?vid=43e72886-aefe-4a04-b571-f642fb8c3709"},"vehicle_type_id":"4","last_reported":1702282217,"current_range_meters":2400,"station_id":"ce4bgs92rcd13ifvqcc0","pricing_plan_id":"free"},{"bike_id":"14f7dcfe-8fd0-4653-922c-ff52d395898e","system_id":"levelo_inurba_marseille","lat":43.30143,"lon":5.37413,"is_reserved":false,"is_disabled":false,"rental_uris":{"android":"levelo://app?vid=14f7dcfe-8fd0-4653-922c-ff52d395898e","ios":"levelo://app?vid=14f7dcfe-8fd0-4653-922c-ff52d395898e"},"vehicle_type_id":"4","last_reported":1702282217,"current_range_meters":14000,"station_id":"ce4bgs92rcd13ifvqcc0","pricing_plan_id":"free"},{"bike_id":"9a346a3b-e99c-459f-a604-3128ca7dff4b","system_id":"levelo_inurba_marseille","lat":43.30273,"lon":5.37725,"is_reserved":false,"is_disabled":false,"rental_uris":{"android":"levelo://app?vid=9a346a3b-e99c-459f-a604-3128ca7dff4b","ios":"levelo://app?vid=9a346a3b-e99c-459f-a604-3128ca7dff4b"},"vehicle_type_id":"4","last_reported":1702282217,"current_range_meters":4400,"station_id":"ce4bguh2rcd13ifvqcj0","pricing_plan_id":"free"},{"bike_id":"d507dc20-f3f0-485a-b520-e5ecd0effbe5","system_id":"levelo_inurba_marseille","lat":43.31996,"lon":5.38151,"is_reserved":false,"is_disabled":false,"rental_uris":{"android":"levelo://app?vid=d507dc20-f3f0-485a-b520-e5ecd0effbe5","ios":"levelo://app?vid=d507dc20-f3f0-485a-b520-e5ecd0effbe5"},"vehicle_type_id":"4","last_reported":1702282217,"current_range_meters":20000,"station_id":"ce4bhr12rcd13ifvqhpg","pricing_plan_id":"free"},{"bike_id":"2b7f7a37-391a-4eb2-b1a1-ddc45a522eff","system_id":"levelo_inurba_marseille","lat":43.31996,"lon":5.38168,"is_reserved":false,"is_disabled":false,"rental_uris":{"android":"levelo://app?vid=2b7f7a37-391a-4eb2-b1a1-ddc45a522eff","ios":"levelo://app?vid=2b7f7a37-391a-4eb2-b1a1-ddc45a522eff"},"vehicle_type_id":"4","last_reported":1702282217,"current_range_meters":26400,"station_id":"ce4bhr12rcd13ifvqhpg","pricing_plan_id":"free"},{"bike_id":"d8be298e-f4c0-4479-a66b-e307c680d7cc","system_id":"levelo_inurba_marseille","lat":43.31356,"lon":5.38493,"is_reserved":false,"is_disabled":false,"rental_uris":{"android":"levelo://app?vid=d8be298e-f4c0-4479-a66b-e307c680d7cc","ios":"levelo://app?vid=d8be298e-f4c0-4479-a66b-e307c680d7cc"},"vehicle_type_id":"4","last_reported":1702282217,"current_range_meters":17200,"station_id":"ce4bgt92rcd13ifvqcf0","pricing_plan_id":"free"},{"bike_id":"a477b418-d8f4-4580-b11f-1a26b8774ffa","system_id":"levelo_inurba_marseille","lat":43.313571,"lon":5.384829,"is_reserved":false,"is_disabled":false,"rental_uris":{"android":"levelo://app?vid=a477b418-d8f4-4580-b11f-1a26b8774ffa","ios":"levelo://app?vid=a477b418-d8f4-4580-b11f-1a26b8774ffa"},"vehicle_type_id":"4","last_reported":1702282217,"current_range_meters":15200,"station_id":"ce4bgt92rcd13ifvqcf0","pricing_plan_id":"free"},{"bike_id":"555f8874-68cb-4b40-9fae-2de57e87fc1d","system_id":"levelo_inurba_marseille","lat":43.299724,"lon":5.371829,"is_reserved":false,"is_disabled":false,"rental_uris":{"android":"levelo://app?vid=555f8874-68cb-4b40-9fae-2de57e87fc1d","ios":"levelo://app?vid=555f8874-68cb-4b40-9fae-2de57e87fc1d"},"vehicle_type_id":"4","last_reported":1702282217,"current_range_meters":12400,"station_id":"ce4bgr92rcd13ifvqc7g","pricing_plan_id":"free"},{"bike_id":"bf974570-eae6-41be-8ace-d763a6b826f5","system_id":"levelo_inurba_marseille","lat":43.299724,"lon":5.371829,"is_reserved":false,"is_disabled":false,"rental_uris":{"android":"levelo://app?vid=bf974570-eae6-41be-8ace-d763a6b826f5","ios":"levelo://app?vid=bf974570-eae6-41be-8ace-d763a6b826f5"},"vehicle_type_id":"4","last_reported":1702282217,"current_range_meters":15200,"station_id":"ce4bgr92rcd13ifvqc7g","pricing_plan_id":"free"},{"bike_id":"744c7b29-e0b3-498a-b0e8-d3004aceb3e5","system_id":"levelo_inurba_marseille","lat":43.298433,"lon":5.362774,"is_reserved":false,"is_disabled":false,"rental_uris":{"android":"levelo://app?vid=744c7b29-e0b3-498a-b0e8-d3004aceb3e5","ios":"levelo://app?vid=744c7b29-e0b3-498a-b0e8-d3004aceb3e5"},"vehicle_type_id":"4","last_reported":1702282217,"current_range_meters":29600,"station_id":"ce4bgpp2rcd13ifvqc3g","pricing_plan_id":"free"},{"bike_id":"28d7dc8e-8fde-413c-a619-a490d1fb00c8","system_id":"levelo_inurba_marseille","lat":43.311722,"lon":5.387247,"is_reserved":false,"is_disabled":false,"rental_uris":{"android":"levelo://app?vid=28d7dc8e-8fde-413c-a619-a490d1fb00c8","ios":"levelo://app?vid=28d7dc8e-8fde-413c-a619-a490d1fb00c8"},"vehicle_type_id":"4","last_reported":1702282217,"current_range_meters":28000,"station_id":"ce4bgv12rcd13ifvqcp0","pricing_plan_id":"free"},{"bike_id":"6ac675f1-e0be-498c-ad2f-b742a949d4b0","system_id":"levelo_inurba_marseille","lat":43.298218,"lon":5.374416,"is_reserved":false,"is_disabled":false,"rental_uris":{"android":"levelo://app?vid=6ac675f1-e0be-498c-ad2f-b742a949d4b0","ios":"levelo://app?vid=6ac675f1-e0be-498c-ad2f-b742a949d4b0"},"vehicle_type_id":"4","last_reported":1702282217,"current_range_meters":0,"station_id":"","pricing_plan_id":"free"},{"bike_id":"a5589e38-f15a-46fe-9b37-27cf16ba9de2","system_id":"levelo_inurba_marseille","lat":43.32831,"lon":5.3669,"is_reserved":false,"is_disabled":false,"rental_uris":{"android":"levelo://app?vid=a5589e38-f15a-46fe-9b37-27cf16ba9de2","ios":"levelo://app?vid=a5589e38-f15a-46fe-9b37-27cf16ba9de2"},"vehicle_type_id":"4","last_reported":1702282217,"current_range_meters":20400,"station_id":"ce4bhs92rcd13ifvqi0g","pricing_plan_id":"free"},{"bike_id":"52d8b7ba-7505-413c-b898-efb75f14c13c","system_id":"levelo_inurba_marseille","lat":43.32832,"lon":5.36677,"is_reserved":false,"is_disabled":false,"rental_uris":{"android":"levelo://app?vid=52d8b7ba-7505-413c-b898-efb75f14c13c","ios":"levelo://app?vid=52d8b7ba-7505-413c-b898-efb75f14c13c"},"vehicle_type_id":"4","last_reported":1702282217,"current_range_meters":18400,"station_id":"ce4bhs92rcd13ifvqi0g","pricing_plan_id":"free"},{"bike_id":"8b3de8ff-11f3-4631-8bfc-e0c469688b94","system_id":"levelo_inurba_marseille","lat":43.299028,"lon":5.381509,"is_reserved":false,"is_disabled":false,"rental_uris":{"android":"levelo://app?vid=8b3de8ff-11f3-4631-8bfc-e0c469688b94","ios":"levelo://app?vid=8b3de8ff-11f3-4631-8bfc-e0c469688b94"},"vehicle_type_id":"4","last_reported":1702282217,"current_range_meters":17200,"station_id":"ce4bgj12rcd13ifvqbc0","pricing_plan_id":"free"},{"bike_id":"701434cf-9a8a-41fa-9684-9e871ee2c67d","system_id":"levelo_inurba_marseille","lat":43.296935,"lon":5.376544,"is_reserved":false,"is_disabled":false,"rental_uris":{"android":"levelo://app?vid=701434cf-9a8a-41fa-9684-9e871ee2c67d","ios":"levelo://app?vid=701434cf-9a8a-41fa-9684-9e871ee2c67d"},"vehicle_type_id":"4","last_reported":1702282217,"current_range_meters":0,"station_id":"ce4bgkh2rcd13ifvqbl0","pricing_plan_id":"free"},{"bike_id":"840e10d6-6e68-47d1-941f-4b507a0c1700","system_id":"levelo_inurba_marseille","lat":43.309589,"lon":5.390258,"is_reserved":false,"is_disabled":false,"rental_uris":{"android":"levelo://app?vid=840e10d6-6e68-47d1-941f-4b507a0c1700","ios":"levelo://app?vid=840e10d6-6e68-47d1-941f-4b507a0c1700"},"vehicle_type_id":"4","last_reported":1702282217,"current_range_meters":17200,"station_id":"ce4bgup2rcd13ifvqco0","pricing_plan_id":"free"},{"bike_id":"9f1bc043-4e42-41bc-b8c5-1e2708263032","system_id":"levelo_inurba_marseille","lat":43.309589,"lon":5.390258,"is_reserved":false,"is_disabled":false,"rental_uris":{"android":"levelo://app?vid=9f1bc043-4e42-41bc-b8c5-1e2708263032","ios":"levelo://app?vid=9f1bc043-4e42-41bc-b8c5-1e2708263032"},"vehicle_type_id":"4","last_reported":1702282217,"current_range_meters":24400,"station_id":"ce4bgup2rcd13ifvqco0","pricing_plan_id":"free"},{"bike_id":"d0b2daed-9c74-4947-ac81-6a8a2304276e","system_id":"levelo_inurba_marseille","lat":43.309589,"lon":5.390258,"is_reserved":false,"is_disabled":false,"rental_uris":{"android":"levelo://app?vid=d0b2daed-9c74-4947-ac81-6a8a2304276e","ios":"levelo://app?vid=d0b2daed-9c74-4947-ac81-6a8a2304276e"},"vehicle_type_id":"4","last_reported":1702282217,"current_range_meters":8400,"station_id":"ce4bgup2rcd13ifvqco0","pricing_plan_id":"free"},{"bike_id":"512ac2e0-302b-4aff-a71d-9fd67d778985","system_id":"levelo_inurba_marseille","lat":43.309589,"lon":5.390258,"is_reserved":false,"is_disabled":false,"rental_uris":{"android":"levelo://app?vid=512ac2e0-302b-4aff-a71d-9fd67d778985","ios":"levelo://app?vid=512ac2e0-302b-4aff-a71d-9fd67d778985"},"vehicle_type_id":"4","last_reported":1702282217,"current_range_meters":0,"station_id":"ce4bgup2rcd13ifvqco0","pricing_plan_id":"free"},{"bike_id":"99b741b8-49e6-4edb-b915-3758a0bfaf99","system_id":"levelo_inurba_marseille","lat":43.295748,"lon":5.37522,"is_reserved":false,"is_disabled":false,"rental_uris":{"android":"levelo://app?vid=99b741b8-49e6-4edb-b915-3758a0bfaf99","ios":"levelo://app?vid=99b741b8-49e6-4edb-b915-3758a0bfaf99"},"vehicle_type_id":"4","last_reported":1702282217,"current_range_meters":800,"station_id":"ce4bgh92rcd13ifvqb50","pricing_plan_id":"free"},{"bike_id":"7964de1e-c21f-448c-b7d2-947836b38b66","system_id":"levelo_inurba_marseille","lat":43.298037,"lon":5.381066,"is_reserved":false,"is_disabled":false,"rental_uris":{"android":"levelo://app?vid=7964de1e-c21f-448c-b7d2-947836b38b66","ios":"levelo://app?vid=7964de1e-c21f-448c-b7d2-947836b38b66"},"vehicle_type_id":"4","last_reported":1702282217,"current_range_meters":27200,"station_id":"ce4bgip2rcd13ifvqbb0","pricing_plan_id":"free"},{"bike_id":"47a298f0-ac6f-40c4-828e-d2496b4a90eb","system_id":"levelo_inurba_marseille","lat":43.295279,"lon":5.375048,"is_reserved":false,"is_disabled":false,"rental_uris":{"android":"levelo://app?vid=47a298f0-ac6f-40c4-828e-d2496b4a90eb","ios":"levelo://app?vid=47a298f0-ac6f-40c4-828e-d2496b4a90eb"},"vehicle_type_id":"4","last_reported":1702282217,"current_range_meters":28400,"station_id":"ce4bgkp2rcd13ifvqbmg","pricing_plan_id":"free"},{"bike_id":"77a6c46d-d898-4e4f-8846-efa91689c7f0","system_id":"levelo_inurba_marseille","lat":43.295946,"lon":5.378466,"is_reserved":false,"is_disabled":false,"rental_uris":{"android":"levelo://app?vid=77a6c46d-d898-4e4f-8846-efa91689c7f0","ios":"levelo://app?vid=77a6c46d-d898-4e4f-8846-efa91689c7f0"},"vehicle_type_id":"4","last_reported":1702282217,"current_range_meters":0,"station_id":"","pricing_plan_id":"free"},{"bike_id":"a06f550b-bb0d-4d53-a3f5-e041da6f8a17","system_id":"levelo_inurba_marseille","lat":43.293009,"lon":5.374584,"is_reserved":false,"is_disabled":false,"rental_uris":{"android":"levelo://app?vid=a06f550b-bb0d-4d53-a3f5-e041da6f8a17","ios":"levelo://app?vid=a06f550b-bb0d-4d53-a3f5-e041da6f8a17"},"vehicle_type_id":"4","last_reported":1702282217,"current_range_meters":28000,"station_id":"ce4bgi12rcd13ifvqb70","pricing_plan_id":"free"},{"bike_id":"4c2a04bf-73b1-4bda-ba51-6d230ae27690","system_id":"levelo_inurba_marseille","lat":43.305994,"lon":5.393687,"is_reserved":false,"is_disabled":false,"rental_uris":{"android":"levelo://app?vid=4c2a04bf-73b1-4bda-ba51-6d230ae27690","ios":"levelo://app?vid=4c2a04bf-73b1-4bda-ba51-6d230ae27690"},"vehicle_type_id":"4","last_reported":1702282217,"current_range_meters":12800,"station_id":"ce4bh0p2rcd13ifvqd80","pricing_plan_id":"free"},{"bike_id":"621acf30-9436-448e-a540-62e93f1eafff","system_id":"levelo_inurba_marseille","lat":43.293009,"lon":5.374584,"is_reserved":false,"is_disabled":false,"rental_uris":{"android":"levelo://app?vid=621acf30-9436-448e-a540-62e93f1eafff","ios":"levelo://app?vid=621acf30-9436-448e-a540-62e93f1eafff"},"vehicle_type_id":"4","last_reported":1702282217,"current_range_meters":12800,"station_id":"ce4bgi12rcd13ifvqb70","pricing_plan_id":"free"},{"bike_id":"63222f24-72d5-4513-9a07-9d48a49e4c45","system_id":"levelo_inurba_marseille","lat":43.2936,"lon":5.37835,"is_reserved":false,"is_disabled":false,"rental_uris":{"android":"levelo://app?vid=63222f24-72d5-4513-9a07-9d48a49e4c45","ios":"levelo://app?vid=63222f24-72d5-4513-9a07-9d48a49e4c45"},"vehicle_type_id":"4","last_reported":1702282217,"current_range_meters":0,"station_id":"ce4bgjh2rcd13ifvqbf0","pricing_plan_id":"free"},{"bike_id":"7ba2d288-8986-497a-b5d0-97c5ceba994e","system_id":"levelo_inurba_marseille","lat":43.292663,"lon":5.376394,"is_reserved":false,"is_disabled":false,"rental_uris":{"android":"levelo://app?vid=7ba2d288-8986-497a-b5d0-97c5ceba994e","ios":"levelo://app?vid=7ba2d288-8986-497a-b5d0-97c5ceba994e"},"vehicle_type_id":"4","last_reported":1702282217,"current_range_meters":30000,"station_id":"ce4bgi12rcd13ifvqb80","pricing_plan_id":"free"},{"bike_id":"f71c1c93-d2d2-46b6-9225-62b13f4f4f3f","system_id":"levelo_inurba_marseille","lat":43.29529,"lon":5.385581,"is_reserved":false,"is_disabled":false,"rental_uris":{"android":"levelo://app?vid=f71c1c93-d2d2-46b6-9225-62b13f4f4f3f","ios":"levelo://app?vid=f71c1c93-d2d2-46b6-9225-62b13f4f4f3f"},"vehicle_type_id":"4","last_reported":1702282217,"current_range_meters":20000,"station_id":"ce4bgih2rcd13ifvqba0","pricing_plan_id":"free"},{"bike_id":"615d9f54-cc6f-4763-af6d-84cfcc1e8a42","system_id":"levelo_inurba_marseille","lat":43.309589,"lon":5.390258,"is_reserved":false,"is_disabled":false,"rental_uris":{"android":"levelo://app?vid=615d9f54-cc6f-4763-af6d-84cfcc1e8a42","ios":"levelo://app?vid=615d9f54-cc6f-4763-af6d-84cfcc1e8a42"},"vehicle_type_id":"4","last_reported":1702282217,"current_range_meters":23200,"station_id":"ce4bgup2rcd13ifvqco0","pricing_plan_id":"free"},{"bike_id":"68725bab-3b26-43ed-920a-6ed4c06f88cb","system_id":"levelo_inurba_marseille","lat":43.290327,"lon":5.375711,"is_reserved":false,"is_disabled":false,"rental_uris":{"android":"levelo://app?vid=68725bab-3b26-43ed-920a-6ed4c06f88cb","ios":"levelo://app?vid=68725bab-3b26-43ed-920a-6ed4c06f88cb"},"vehicle_type_id":"4","last_reported":1702282217,"current_range_meters":17600,"station_id":"ce4bh692rcd13ifvqe90","pricing_plan_id":"free"},{"bike_id":"459398a7-0810-4f15-9fd6-639df8b9af4b","system_id":"levelo_inurba_marseille","lat":43.289184,"lon":5.366408,"is_reserved":false,"is_disabled":false,"rental_uris":{"android":"levelo://app?vid=459398a7-0810-4f15-9fd6-639df8b9af4b","ios":"levelo://app?vid=459398a7-0810-4f15-9fd6-639df8b9af4b"},"vehicle_type_id":"4","last_reported":1702282217,"current_range_meters":20800,"station_id":"ce4bhap2rcd13ifvqek0","pricing_plan_id":"free"},{"bike_id":"1301be43-cefa-4f13-ad20-5fa8f15bf9a8","system_id":"levelo_inurba_marseille","lat":43.290161,"lon":5.375651,"is_reserved":false,"is_disabled":false,"rental_uris":{"android":"levelo://app?vid=1301be43-cefa-4f13-ad20-5fa8f15bf9a8","ios":"levelo://app?vid=1301be43-cefa-4f13-ad20-5fa8f15bf9a8"},"vehicle_type_id":"4","last_reported":1702282217,"current_range_meters":6400,"station_id":"","pricing_plan_id":"free"},{"bike_id":"a02a1b20-1fb1-4951-988a-77389649024d","system_id":"levelo_inurba_marseille","lat":43.289259,"lon":5.366364,"is_reserved":false,"is_disabled":false,"rental_uris":{"android":"levelo://app?vid=a02a1b20-1fb1-4951-988a-77389649024d","ios":"levelo://app?vid=a02a1b20-1fb1-4951-988a-77389649024d"},"vehicle_type_id":"4","last_reported":1702282217,"current_range_meters":5200,"station_id":"","pricing_plan_id":"free"},{"bike_id":"0c07fb39-9f2b-4bb6-81c2-e279bcad01e7","system_id":"levelo_inurba_marseille","lat":43.290004,"lon":5.378203,"is_reserved":false,"is_disabled":false,"rental_uris":{"android":"levelo://app?vid=0c07fb39-9f2b-4bb6-81c2-e279bcad01e7","ios":"levelo://app?vid=0c07fb39-9f2b-4bb6-81c2-e279bcad01e7"},"vehicle_type_id":"4","last_reported":1702282217,"current_range_meters":26000,"station_id":"","pricing_plan_id":"free"},{"bike_id":"8010ffb5-7fae-4436-8291-f03cd8ea5646","system_id":"levelo_inurba_marseille","lat":43.301117,"lon":5.398795,"is_reserved":false,"is_disabled":false,"rental_uris":{"android":"levelo://app?vid=8010ffb5-7fae-4436-8291-f03cd8ea5646","ios":"levelo://app?vid=8010ffb5-7fae-4436-8291-f03cd8ea5646"},"vehicle_type_id":"4","last_reported":1702282217,"current_range_meters":25200,"station_id":"ce4bh0h2rcd13ifvqd40","pricing_plan_id":"free"},{"bike_id":"eeac55fa-556e-4114-9e14-87b1904f35e7","system_id":"levelo_inurba_marseille","lat":43.33804,"lon":5.37423,"is_reserved":false,"is_disabled":false,"rental_uris":{"android":"levelo://app?vid=eeac55fa-556e-4114-9e14-87b1904f35e7","ios":"levelo://app?vid=eeac55fa-556e-4114-9e14-87b1904f35e7"},"vehicle_type_id":"4","last_reported":1702282217,"current_range_meters":29600,"station_id":"","pricing_plan_id":"free"},{"bike_id":"589c450a-7cb3-4a1d-8eb9-18189548067c","system_id":"levelo_inurba_marseille","lat":43.2903,"lon":5.38655,"is_reserved":false,"is_disabled":false,"rental_uris":{"android":"levelo://app?vid=589c450a-7cb3-4a1d-8eb9-18189548067c","ios":"levelo://app?vid=589c450a-7cb3-4a1d-8eb9-18189548067c"},"vehicle_type_id":"4","last_reported":1702282217,"current_range_meters":23600,"station_id":"ce4bh4p2rcd13ifvqe0g","pricing_plan_id":"free"},{"bike_id":"7636b92d-5639-45a4-9251-d0e297a7c688","system_id":"levelo_inurba_marseille","lat":43.287185,"lon":5.379373,"is_reserved":false,"is_disabled":false,"rental_uris":{"android":"levelo://app?vid=7636b92d-5639-45a4-9251-d0e297a7c688","ios":"levelo://app?vid=7636b92d-5639-45a4-9251-d0e297a7c688"},"vehicle_type_id":"4","last_reported":1702282217,"current_range_meters":18000,"station_id":"ce4bh9p2rcd13ifvqec0","pricing_plan_id":"free"},{"bike_id":"3cb38ab6-13ec-40a8-a205-9e3ef360d83d","system_id":"levelo_inurba_marseille","lat":43.287184,"lon":5.37937,"is_reserved":false,"is_disabled":false,"rental_uris":{"android":"levelo://app?vid=3cb38ab6-13ec-40a8-a205-9e3ef360d83d","ios":"levelo://app?vid=3cb38ab6-13ec-40a8-a205-9e3ef360d83d"},"vehicle_type_id":"4","last_reported":1702282217,"current_range_meters":14400,"station_id":"ce4bh9p2rcd13ifvqec0","pricing_plan_id":"free"},{"bike_id":"2392b702-abc8-4d4e-8f05-ba6539e1bf1b","system_id":"levelo_inurba_marseille","lat":43.316828,"lon":5.404723,"is_reserved":false,"is_disabled":false,"rental_uris":{"android":"levelo://app?vid=2392b702-abc8-4d4e-8f05-ba6539e1bf1b","ios":"levelo://app?vid=2392b702-abc8-4d4e-8f05-ba6539e1bf1b"},"vehicle_type_id":"4","last_reported":1702282217,"current_range_meters":10000,"station_id":"ce4bh012rcd13ifvqd00","pricing_plan_id":"free"},{"bike_id":"b98ab257-f3f4-4762-a284-da7691346fd1","system_id":"levelo_inurba_marseille","lat":43.286595,"lon":5.386795,"is_reserved":false,"is_disabled":false,"rental_uris":{"android":"levelo://app?vid=b98ab257-f3f4-4762-a284-da7691346fd1","ios":"levelo://app?vid=b98ab257-f3f4-4762-a284-da7691346fd1"},"vehicle_type_id":"4","last_reported":1702282217,"current_range_meters":1200,"station_id":"ce4bh492rcd13ifvqdug","pricing_plan_id":"free"},{"bike_id":"a6f57c04-376f-44ea-ae94-3539b90b26f8","system_id":"levelo_inurba_marseille","lat":43.289363,"lon":5.396322,"is_reserved":false,"is_disabled":false,"rental_uris":{"android":"levelo://app?vid=a6f57c04-376f-44ea-ae94-3539b90b26f8","ios":"levelo://app?vid=a6f57c04-376f-44ea-ae94-3539b90b26f8"},"vehicle_type_id":"4","last_reported":1702282217,"current_range_meters":29200,"station_id":"ce4bh3h2rcd13ifvqdn0","pricing_plan_id":"free"},{"bike_id":"555ba204-de6b-4647-95ed-ecb0eb11cf1b","system_id":"levelo_inurba_marseille","lat":43.292724,"lon":5.401131,"is_reserved":false,"is_disabled":false,"rental_uris":{"android":"levelo://app?vid=555ba204-de6b-4647-95ed-ecb0eb11cf1b","ios":"levelo://app?vid=555ba204-de6b-4647-95ed-ecb0eb11cf1b"},"vehicle_type_id":"4","last_reported":1702282217,"current_range_meters":7600,"station_id":"ce4bh312rcd13ifvqdk0","pricing_plan_id":"free"},{"bike_id":"48a4d9fe-fdc0-4cd0-9ac0-baf0bd45d62b","system_id":"levelo_inurba_marseille","lat":43.280341,"lon":5.369394,"is_reserved":false,"is_disabled":false,"rental_uris":{"android":"levelo://app?vid=48a4d9fe-fdc0-4cd0-9ac0-baf0bd45d62b","ios":"levelo://app?vid=48a4d9fe-fdc0-4cd0-9ac0-baf0bd45d62b"},"vehicle_type_id":"4","last_reported":1702282217,"current_range_meters":30000,"station_id":"ce4bha12rcd13ifvqef0","pricing_plan_id":"free"},{"bike_id":"d4186755-e323-47b7-8be8-26a9433d18c4","system_id":"levelo_inurba_marseille","lat":43.29044,"lon":5.39963,"is_reserved":false,"is_disabled":false,"rental_uris":{"android":"levelo://app?vid=d4186755-e323-47b7-8be8-26a9433d18c4","ios":"levelo://app?vid=d4186755-e323-47b7-8be8-26a9433d18c4"},"vehicle_type_id":"4","last_reported":1702282217,"current_range_meters":26000,"station_id":"ce4bh392rcd13ifvqdm0","pricing_plan_id":"free"},{"bike_id":"6098e084-9b79-4099-a72a-6bad7b349340","system_id":"levelo_inurba_marseille","lat":43.279742,"lon":5.38744,"is_reserved":false,"is_disabled":false,"rental_uris":{"android":"levelo://app?vid=6098e084-9b79-4099-a72a-6bad7b349340","ios":"levelo://app?vid=6098e084-9b79-4099-a72a-6bad7b349340"},"vehicle_type_id":"4","last_reported":1702282217,"current_range_meters":30400,"station_id":"ce4bhg12rcd13ifvqf80","pricing_plan_id":"free"},{"bike_id":"82226426-69cc-465f-b4dd-41436911f246","system_id":"levelo_inurba_marseille","lat":43.279742,"lon":5.38744,"is_reserved":false,"is_disabled":false,"rental_uris":{"android":"levelo://app?vid=82226426-69cc-465f-b4dd-41436911f246","ios":"levelo://app?vid=82226426-69cc-465f-b4dd-41436911f246"},"vehicle_type_id":"4","last_reported":1702282217,"current_range_meters":17200,"station_id":"ce4bhg12rcd13ifvqf80","pricing_plan_id":"free"},{"bike_id":"090ad51e-0df4-4bcd-9a1d-84e5a006fd0b","system_id":"levelo_inurba_marseille","lat":43.325233,"lon":5.414318,"is_reserved":false,"is_disabled":false,"rental_uris":{"android":"levelo://app?vid=090ad51e-0df4-4bcd-9a1d-84e5a006fd0b","ios":"levelo://app?vid=090ad51e-0df4-4bcd-9a1d-84e5a006fd0b"},"vehicle_type_id":"4","last_reported":1702282217,"current_range_meters":20000,"station_id":"ce4bhq12rcd13ifvqhhg","pricing_plan_id":"free"},{"bike_id":"34c8f290-e444-432b-92ad-e54877e5a127","system_id":"levelo_inurba_marseille","lat":43.325243,"lon":5.414326,"is_reserved":false,"is_disabled":false,"rental_uris":{"android":"levelo://app?vid=34c8f290-e444-432b-92ad-e54877e5a127","ios":"levelo://app?vid=34c8f290-e444-432b-92ad-e54877e5a127"},"vehicle_type_id":"4","last_reported":1702282217,"current_range_meters":14000,"station_id":"ce4bhq12rcd13ifvqhhg","pricing_plan_id":"free"},{"bike_id":"ad149581-a32d-42c1-aa38-13cc5bac15cc","system_id":"levelo_inurba_marseille","lat":43.325233,"lon":5.414318,"is_reserved":false,"is_disabled":false,"rental_uris":{"android":"levelo://app?vid=ad149581-a32d-42c1-aa38-13cc5bac15cc","ios":"levelo://app?vid=ad149581-a32d-42c1-aa38-13cc5bac15cc"},"vehicle_type_id":"4","last_reported":1702282217,"current_range_meters":20800,"station_id":"ce4bhq12rcd13ifvqhhg","pricing_plan_id":"free"},{"bike_id":"20f997ed-6738-4b4b-92c8-af1d150e8337","system_id":"levelo_inurba_marseille","lat":43.303837,"lon":5.418724,"is_reserved":false,"is_disabled":false,"rental_uris":{"android":"levelo://app?vid=20f997ed-6738-4b4b-92c8-af1d150e8337","ios":"levelo://app?vid=20f997ed-6738-4b4b-92c8-af1d150e8337"},"vehicle_type_id":"4","last_reported":1702282217,"current_range_meters":29600,"station_id":"ce4bhop2rcd13ifvqh7g","pricing_plan_id":"free"},{"bike_id":"3c02ac1d-513a-4816-9b08-9c1b4099cd9a","system_id":"levelo_inurba_marseille","lat":43.303837,"lon":5.418724,"is_reserved":false,"is_disabled":false,"rental_uris":{"android":"levelo://app?vid=3c02ac1d-513a-4816-9b08-9c1b4099cd9a","ios":"levelo://app?vid=3c02ac1d-513a-4816-9b08-9c1b4099cd9a"},"vehicle_type_id":"4","last_reported":1702282217,"current_range_meters":22800,"station_id":"ce4bhop2rcd13ifvqh7g","pricing_plan_id":"free"},{"bike_id":"ec4211be-eab7-4032-8aeb-d7519243ab5a","system_id":"levelo_inurba_marseille","lat":43.33576,"lon":5.41028,"is_reserved":false,"is_disabled":false,"rental_uris":{"android":"levelo://app?vid=ec4211be-eab7-4032-8aeb-d7519243ab5a","ios":"levelo://app?vid=ec4211be-eab7-4032-8aeb-d7519243ab5a"},"vehicle_type_id":"4","last_reported":1702282217,"current_range_meters":10800,"station_id":"","pricing_plan_id":"free"},{"bike_id":"4abd34b2-9fbd-4157-8d5b-81cc747959bb","system_id":"levelo_inurba_marseille","lat":43.336134,"lon":5.410341,"is_reserved":false,"is_disabled":false,"rental_uris":{"android":"levelo://app?vid=4abd34b2-9fbd-4157-8d5b-81cc747959bb","ios":"levelo://app?vid=4abd34b2-9fbd-4157-8d5b-81cc747959bb"},"vehicle_type_id":"4","last_reported":1702282217,"current_range_meters":6800,"station_id":"ce4bhqh2rcd13ifvqhmg","pricing_plan_id":"free"},{"bike_id":"8745b81b-1642-4296-8559-3906cde992e2","system_id":"levelo_inurba_marseille","lat":43.276769,"lon":5.388787,"is_reserved":false,"is_disabled":false,"rental_uris":{"android":"levelo://app?vid=8745b81b-1642-4296-8559-3906cde992e2","ios":"levelo://app?vid=8745b81b-1642-4296-8559-3906cde992e2"},"vehicle_type_id":"4","last_reported":1702282217,"current_range_meters":14800,"station_id":"ce4bhi12rcd13ifvqfo0","pricing_plan_id":"free"},{"bike_id":"6b63367d-74e0-4814-b1b2-eef725c80590","system_id":"levelo_inurba_marseille","lat":43.276769,"lon":5.388787,"is_reserved":false,"is_disabled":false,"rental_uris":{"android":"levelo://app?vid=6b63367d-74e0-4814-b1b2-eef725c80590","ios":"levelo://app?vid=6b63367d-74e0-4814-b1b2-eef725c80590"},"vehicle_type_id":"4","last_reported":1702282217,"current_range_meters":23600,"station_id":"ce4bhi12rcd13ifvqfo0","pricing_plan_id":"free"},{"bike_id":"b49195d1-5252-4b63-9ddd-c39017071e00","system_id":"levelo_inurba_marseille","lat":43.27639,"lon":5.39485,"is_reserved":false,"is_disabled":false,"rental_uris":{"android":"levelo://app?vid=b49195d1-5252-4b63-9ddd-c39017071e00","ios":"levelo://app?vid=b49195d1-5252-4b63-9ddd-c39017071e00"},"vehicle_type_id":"4","last_reported":1702282217,"current_range_meters":14400,"station_id":"","pricing_plan_id":"free"},{"bike_id":"ad235382-e941-4cb1-91eb-24c4c771637d","system_id":"levelo_inurba_marseille","lat":43.310785,"lon":5.424305,"is_reserved":false,"is_disabled":false,"rental_uris":{"android":"levelo://app?vid=ad235382-e941-4cb1-91eb-24c4c771637d","ios":"levelo://app?vid=ad235382-e941-4cb1-91eb-24c4c771637d"},"vehicle_type_id":"4","last_reported":1702282217,"current_range_meters":25200,"station_id":"ce4bhp92rcd13ifvqhag","pricing_plan_id":"free"},{"bike_id":"91342207-93b5-4854-8160-d128f56d1c12","system_id":"levelo_inurba_marseille","lat":43.310785,"lon":5.424305,"is_reserved":false,"is_disabled":false,"rental_uris":{"android":"levelo://app?vid=91342207-93b5-4854-8160-d128f56d1c12","ios":"levelo://app?vid=91342207-93b5-4854-8160-d128f56d1c12"},"vehicle_type_id":"4","last_reported":1702282217,"current_range_meters":23600,"station_id":"ce4bhp92rcd13ifvqhag","pricing_plan_id":"free"},{"bike_id":"ebe88bc4-4dfe-4631-b98a-840334e7fcdb","system_id":"levelo_inurba_marseille","lat":43.31723,"lon":5.42405,"is_reserved":false,"is_disabled":false,"rental_uris":{"android":"levelo://app?vid=ebe88bc4-4dfe-4631-b98a-840334e7fcdb","ios":"levelo://app?vid=ebe88bc4-4dfe-4631-b98a-840334e7fcdb"},"vehicle_type_id":"4","last_reported":1702282217,"current_range_meters":10400,"station_id":"ce4bhp92rcd13ifvqhbg","pricing_plan_id":"free"},{"bike_id":"97dde553-e385-4656-a118-8310ff4a190a","system_id":"levelo_inurba_marseille","lat":43.340804,"lon":5.410219,"is_reserved":false,"is_disabled":false,"rental_uris":{"android":"levelo://app?vid=97dde553-e385-4656-a118-8310ff4a190a","ios":"levelo://app?vid=97dde553-e385-4656-a118-8310ff4a190a"},"vehicle_type_id":"4","last_reported":1702282217,"current_range_meters":7600,"station_id":"ce4bhqh2rcd13ifvqhlg","pricing_plan_id":"free"},{"bike_id":"b95f1926-9f0f-4e05-89cb-b6d32e9439c4","system_id":"levelo_inurba_marseille","lat":43.340804,"lon":5.410219,"is_reserved":false,"is_disabled":false,"rental_uris":{"android":"levelo://app?vid=b95f1926-9f0f-4e05-89cb-b6d32e9439c4","ios":"levelo://app?vid=b95f1926-9f0f-4e05-89cb-b6d32e9439c4"},"vehicle_type_id":"4","last_reported":1702282217,"current_range_meters":31200,"station_id":"ce4bhqh2rcd13ifvqhlg","pricing_plan_id":"free"},{"bike_id":"63133364-316e-458e-b234-bbd4926c63fc","system_id":"levelo_inurba_marseille","lat":43.27583,"lon":5.39474,"is_reserved":false,"is_disabled":false,"rental_uris":{"android":"levelo://app?vid=63133364-316e-458e-b234-bbd4926c63fc","ios":"levelo://app?vid=63133364-316e-458e-b234-bbd4926c63fc"},"vehicle_type_id":"4","last_reported":1702282217,"current_range_meters":400,"station_id":"","pricing_plan_id":"free"},{"bike_id":"e7af12e4-711d-48d5-9901-ffa2fbceee71","system_id":"levelo_inurba_marseille","lat":43.269467,"lon":5.386439,"is_reserved":false,"is_disabled":false,"rental_uris":{"android":"levelo://app?vid=e7af12e4-711d-48d5-9901-ffa2fbceee71","ios":"levelo://app?vid=e7af12e4-711d-48d5-9901-ffa2fbceee71"},"vehicle_type_id":"4","last_reported":1702282217,"current_range_meters":25200,"station_id":"ce4bhh92rcd13ifvqfh0","pricing_plan_id":"free"},{"bike_id":"08e6e389-b26f-404b-b9f8-96ec27d87919","system_id":"levelo_inurba_marseille","lat":43.27958,"lon":5.41042,"is_reserved":false,"is_disabled":false,"rental_uris":{"android":"levelo://app?vid=08e6e389-b26f-404b-b9f8-96ec27d87919","ios":"levelo://app?vid=08e6e389-b26f-404b-b9f8-96ec27d87919"},"vehicle_type_id":"4","last_reported":1702282217,"current_range_meters":14400,"station_id":"ce4bhnp2rcd13ifvqh0g","pricing_plan_id":"free"},{"bike_id":"fa98d692-31ea-4934-9dc6-dc0ba8bd322f","system_id":"levelo_inurba_marseille","lat":43.265714,"lon":5.372891,"is_reserved":false,"is_disabled":false,"rental_uris":{"android":"levelo://app?vid=fa98d692-31ea-4934-9dc6-dc0ba8bd322f","ios":"levelo://app?vid=fa98d692-31ea-4934-9dc6-dc0ba8bd322f"},"vehicle_type_id":"4","last_reported":1702282217,"current_range_meters":23200,"station_id":"ce4bhg12rcd13ifvqf70","pricing_plan_id":"free"},{"bike_id":"e9ac0882-245a-4f12-b467-22f9246dc626","system_id":"levelo_inurba_marseille","lat":43.32545,"lon":5.43286,"is_reserved":false,"is_disabled":false,"rental_uris":{"android":"levelo://app?vid=e9ac0882-245a-4f12-b467-22f9246dc626","ios":"levelo://app?vid=e9ac0882-245a-4f12-b467-22f9246dc626"},"vehicle_type_id":"4","last_reported":1702282217,"current_range_meters":3200,"station_id":"","pricing_plan_id":"free"},{"bike_id":"6c9a7769-40d4-42dc-9b48-47769de74c91","system_id":"levelo_inurba_marseille","lat":43.2633,"lon":5.37675,"is_reserved":false,"is_disabled":false,"rental_uris":{"android":"levelo://app?vid=6c9a7769-40d4-42dc-9b48-47769de74c91","ios":"levelo://app?vid=6c9a7769-40d4-42dc-9b48-47769de74c91"},"vehicle_type_id":"4","last_reported":1702282217,"current_range_meters":14000,"station_id":"","pricing_plan_id":"free"},{"bike_id":"89ef1c57-fd5b-4fbe-bff7-f779267c7cf2","system_id":"levelo_inurba_marseille","lat":43.3171,"lon":5.43712,"is_reserved":false,"is_disabled":false,"rental_uris":{"android":"levelo://app?vid=89ef1c57-fd5b-4fbe-bff7-f779267c7cf2","ios":"levelo://app?vid=89ef1c57-fd5b-4fbe-bff7-f779267c7cf2"},"vehicle_type_id":"4","last_reported":1702282217,"current_range_meters":15600,"station_id":"ce4bhp92rcd13ifvqhcg","pricing_plan_id":"free"},{"bike_id":"287e9254-f263-4a4d-afd9-500f2b256a68","system_id":"levelo_inurba_marseille","lat":43.2616,"lon":5.37414,"is_reserved":false,"is_disabled":false,"rental_uris":{"android":"levelo://app?vid=287e9254-f263-4a4d-afd9-500f2b256a68","ios":"levelo://app?vid=287e9254-f263-4a4d-afd9-500f2b256a68"},"vehicle_type_id":"4","last_reported":1702282217,"current_range_meters":24400,"station_id":"ce4bhgp2rcd13ifvqfc0","pricing_plan_id":"free"},{"bike_id":"2077de0f-a5ad-4dbd-b44c-d64507b68510","system_id":"levelo_inurba_marseille","lat":43.26202,"lon":5.379299,"is_reserved":false,"is_disabled":false,"rental_uris":{"android":"levelo://app?vid=2077de0f-a5ad-4dbd-b44c-d64507b68510","ios":"levelo://app?vid=2077de0f-a5ad-4dbd-b44c-d64507b68510"},"vehicle_type_id":"4","last_reported":1702282217,"current_range_meters":26800,"station_id":"ce4bhjp2rcd13ifvqg90","pricing_plan_id":"free"},{"bike_id":"b37d935b-f1f0-4279-8c0a-2ee13ef10f3d","system_id":"levelo_inurba_marseille","lat":43.2607,"lon":5.393983,"is_reserved":false,"is_disabled":false,"rental_uris":{"android":"levelo://app?vid=b37d935b-f1f0-4279-8c0a-2ee13ef10f3d","ios":"levelo://app?vid=b37d935b-f1f0-4279-8c0a-2ee13ef10f3d"},"vehicle_type_id":"4","last_reported":1702282217,"current_range_meters":12800,"station_id":"ce4bhh92rcd13ifvqfj0","pricing_plan_id":"free"},{"bike_id":"6197b058-6735-429d-871e-0742eddb4a48","system_id":"levelo_inurba_marseille","lat":43.275028,"lon":5.424534,"is_reserved":false,"is_disabled":false,"rental_uris":{"android":"levelo://app?vid=6197b058-6735-429d-871e-0742eddb4a48","ios":"levelo://app?vid=6197b058-6735-429d-871e-0742eddb4a48"},"vehicle_type_id":"4","last_reported":1702282217,"current_range_meters":24000,"station_id":"ce4bhn92rcd13ifvqgrg","pricing_plan_id":"free"},{"bike_id":"ebde47f5-8adc-4ba0-989a-ac400eed876b","system_id":"levelo_inurba_marseille","lat":43.275028,"lon":5.424534,"is_reserved":false,"is_disabled":false,"rental_uris":{"android":"levelo://app?vid=ebde47f5-8adc-4ba0-989a-ac400eed876b","ios":"levelo://app?vid=ebde47f5-8adc-4ba0-989a-ac400eed876b"},"vehicle_type_id":"4","last_reported":1702282217,"current_range_meters":29600,"station_id":"ce4bhn92rcd13ifvqgrg","pricing_plan_id":"free"},{"bike_id":"3cc623f6-3385-4909-99f7-0630ef4d20ac","system_id":"levelo_inurba_marseille","lat":43.275028,"lon":5.424534,"is_reserved":false,"is_disabled":false,"rental_uris":{"android":"levelo://app?vid=3cc623f6-3385-4909-99f7-0630ef4d20ac","ios":"levelo://app?vid=3cc623f6-3385-4909-99f7-0630ef4d20ac"},"vehicle_type_id":"4","last_reported":1702282217,"current_range_meters":31200,"station_id":"ce4bhn92rcd13ifvqgrg","pricing_plan_id":"free"},{"bike_id":"5e84d8c7-d441-4dbe-a2d3-fe9e4da066ed","system_id":"levelo_inurba_marseille","lat":43.231562,"lon":5.436933,"is_reserved":false,"is_disabled":false,"rental_uris":{"android":"levelo://app?vid=5e84d8c7-d441-4dbe-a2d3-fe9e4da066ed","ios":"levelo://app?vid=5e84d8c7-d441-4dbe-a2d3-fe9e4da066ed"},"vehicle_type_id":"4","last_reported":1702282217,"current_range_meters":11200,"station_id":"ce4bhmp2rcd13ifvqgog","pricing_plan_id":"free"},{"bike_id":"e6e686a3-93cf-4f11-abb8-7c6e8c233ba1","system_id":"levelo_inurba_marseille","lat":43.25583,"lon":5.38229,"is_reserved":false,"is_disabled":false,"rental_uris":{"android":"levelo://app?vid=e6e686a3-93cf-4f11-abb8-7c6e8c233ba1","ios":"levelo://app?vid=e6e686a3-93cf-4f11-abb8-7c6e8c233ba1"},"vehicle_type_id":"4","last_reported":1702282217,"current_range_meters":21200,"station_id":"ce4bhih2rcd13ifvqfs0","pricing_plan_id":"free"},{"bike_id":"be6b3807-e297-40d6-a1d7-c81c1105b896","system_id":"levelo_inurba_marseille","lat":43.25579,"lon":5.38233,"is_reserved":false,"is_disabled":false,"rental_uris":{"android":"levelo://app?vid=be6b3807-e297-40d6-a1d7-c81c1105b896","ios":"levelo://app?vid=be6b3807-e297-40d6-a1d7-c81c1105b896"},"vehicle_type_id":"4","last_reported":1702282217,"current_range_meters":27200,"station_id":"ce4bhih2rcd13ifvqfs0","pricing_plan_id":"free"},{"bike_id":"b37604af-4148-42bd-8ba5-ccc207630d32","system_id":"levelo_inurba_marseille","lat":43.255756,"lon":5.382303,"is_reserved":false,"is_disabled":false,"rental_uris":{"android":"levelo://app?vid=b37604af-4148-42bd-8ba5-ccc207630d32","ios":"levelo://app?vid=b37604af-4148-42bd-8ba5-ccc207630d32"},"vehicle_type_id":"4","last_reported":1702282217,"current_range_meters":12800,"station_id":"ce4bhih2rcd13ifvqfs0","pricing_plan_id":"free"},{"bike_id":"0b2ea298-d39d-4a9f-8b6a-c963996323b5","system_id":"levelo_inurba_marseille","lat":43.258658,"lon":5.398935,"is_reserved":false,"is_disabled":false,"rental_uris":{"android":"levelo://app?vid=0b2ea298-d39d-4a9f-8b6a-c963996323b5","ios":"levelo://app?vid=0b2ea298-d39d-4a9f-8b6a-c963996323b5"},"vehicle_type_id":"4","last_reported":1702282217,"current_range_meters":16800,"station_id":"ce4bhl92rcd13ifvqghg","pricing_plan_id":"free"},{"bike_id":"ace0fc61-2846-4126-bded-78b41e7659db","system_id":"levelo_inurba_marseille","lat":43.258658,"lon":5.398935,"is_reserved":false,"is_disabled":false,"rental_uris":{"android":"levelo://app?vid=ace0fc61-2846-4126-bded-78b41e7659db","ios":"levelo://app?vid=ace0fc61-2846-4126-bded-78b41e7659db"},"vehicle_type_id":"4","last_reported":1702282217,"current_range_meters":19200,"station_id":"ce4bhl92rcd13ifvqghg","pricing_plan_id":"free"},{"bike_id":"8a096fdf-1701-4aab-9f68-9e9966a6a0ea","system_id":"levelo_inurba_marseille","lat":43.258658,"lon":5.398935,"is_reserved":false,"is_disabled":false,"rental_uris":{"android":"levelo://app?vid=8a096fdf-1701-4aab-9f68-9e9966a6a0ea","ios":"levelo://app?vid=8a096fdf-1701-4aab-9f68-9e9966a6a0ea"},"vehicle_type_id":"4","last_reported":1702282217,"current_range_meters":24400,"station_id":"ce4bhl92rcd13ifvqghg","pricing_plan_id":"free"},{"bike_id":"fb852c99-3dc2-4225-9168-d0df35f37256","system_id":"levelo_inurba_marseille","lat":43.26095,"lon":5.40733,"is_reserved":false,"is_disabled":false,"rental_uris":{"android":"levelo://app?vid=fb852c99-3dc2-4225-9168-d0df35f37256","ios":"levelo://app?vid=fb852c99-3dc2-4225-9168-d0df35f37256"},"vehicle_type_id":"4","last_reported":1702282217,"current_range_meters":20400,"station_id":"","pricing_plan_id":"free"},{"bike_id":"775be21f-96c6-4fc1-86d7-5debaf621d46","system_id":"levelo_inurba_marseille","lat":43.259009,"lon":5.40929,"is_reserved":false,"is_disabled":false,"rental_uris":{"android":"levelo://app?vid=775be21f-96c6-4fc1-86d7-5debaf621d46","ios":"levelo://app?vid=775be21f-96c6-4fc1-86d7-5debaf621d46"},"vehicle_type_id":"4","last_reported":1702282217,"current_range_meters":24000,"station_id":"ce4bhm92rcd13ifvqglg","pricing_plan_id":"free"},{"bike_id":"bf85b356-565c-4fd3-8b69-cc668e341b63","system_id":"levelo_inurba_marseille","lat":43.259009,"lon":5.40929,"is_reserved":false,"is_disabled":false,"rental_uris":{"android":"levelo://app?vid=bf85b356-565c-4fd3-8b69-cc668e341b63","ios":"levelo://app?vid=bf85b356-565c-4fd3-8b69-cc668e341b63"},"vehicle_type_id":"4","last_reported":1702282217,"current_range_meters":4800,"station_id":"ce4bhm92rcd13ifvqglg","pricing_plan_id":"free"},{"bike_id":"d30e68c4-80e5-4190-b49e-6652180bc6fd","system_id":"levelo_inurba_marseille","lat":43.259013,"lon":5.409301,"is_reserved":false,"is_disabled":false,"rental_uris":{"android":"levelo://app?vid=d30e68c4-80e5-4190-b49e-6652180bc6fd","ios":"levelo://app?vid=d30e68c4-80e5-4190-b49e-6652180bc6fd"},"vehicle_type_id":"4","last_reported":1702282217,"current_range_meters":25600,"station_id":"ce4bhm92rcd13ifvqglg","pricing_plan_id":"free"},{"bike_id":"1b9ac663-062b-42c1-9068-08738207cdfb","system_id":"levelo_inurba_marseille","lat":43.259013,"lon":5.409301,"is_reserved":false,"is_disabled":false,"rental_uris":{"android":"levelo://app?vid=1b9ac663-062b-42c1-9068-08738207cdfb","ios":"levelo://app?vid=1b9ac663-062b-42c1-9068-08738207cdfb"},"vehicle_type_id":"4","last_reported":1702282217,"current_range_meters":20000,"station_id":"ce4bhm92rcd13ifvqglg","pricing_plan_id":"free"},{"bike_id":"741cbace-340a-4c4b-9a81-47976ee1ab69","system_id":"levelo_inurba_marseille","lat":43.259013,"lon":5.409301,"is_reserved":false,"is_disabled":false,"rental_uris":{"android":"levelo://app?vid=741cbace-340a-4c4b-9a81-47976ee1ab69","ios":"levelo://app?vid=741cbace-340a-4c4b-9a81-47976ee1ab69"},"vehicle_type_id":"4","last_reported":1702282217,"current_range_meters":22800,"station_id":"ce4bhm92rcd13ifvqglg","pricing_plan_id":"free"},{"bike_id":"4d6117c3-7d66-4932-bb1d-0fa3c28628fa","system_id":"levelo_inurba_marseille","lat":43.257079,"lon":5.411051,"is_reserved":false,"is_disabled":false,"rental_uris":{"android":"levelo://app?vid=4d6117c3-7d66-4932-bb1d-0fa3c28628fa","ios":"levelo://app?vid=4d6117c3-7d66-4932-bb1d-0fa3c28628fa"},"vehicle_type_id":"4","last_reported":1702282217,"current_range_meters":26000,"station_id":"ce4bhkp2rcd13ifvqgd0","pricing_plan_id":"free"},{"bike_id":"400cda8c-22b3-4bdd-a2d2-ffc063ed1d21","system_id":"levelo_inurba_marseille","lat":43.240623,"lon":5.377642,"is_reserved":false,"is_disabled":false,"rental_uris":{"android":"levelo://app?vid=400cda8c-22b3-4bdd-a2d2-ffc063ed1d21","ios":"levelo://app?vid=400cda8c-22b3-4bdd-a2d2-ffc063ed1d21"},"vehicle_type_id":"4","last_reported":1702282217,"current_range_meters":21200,"station_id":"ce4bhnp2rcd13ifvqgvg","pricing_plan_id":"free"},{"bike_id":"03a9cbcc-a59e-4397-b96f-ef85512b5d29","system_id":"levelo_inurba_marseille","lat":43.24079,"lon":5.37755,"is_reserved":false,"is_disabled":false,"rental_uris":{"android":"levelo://app?vid=03a9cbcc-a59e-4397-b96f-ef85512b5d29","ios":"levelo://app?vid=03a9cbcc-a59e-4397-b96f-ef85512b5d29"},"vehicle_type_id":"4","last_reported":1702282217,"current_range_meters":8000,"station_id":"ce4bhnp2rcd13ifvqgvg","pricing_plan_id":"free"},{"bike_id":"64a632ab-09f1-4174-841e-048fe2655482","system_id":"levelo_inurba_marseille","lat":43.24074,"lon":5.37747,"is_reserved":false,"is_disabled":false,"rental_uris":{"android":"levelo://app?vid=64a632ab-09f1-4174-841e-048fe2655482","ios":"levelo://app?vid=64a632ab-09f1-4174-841e-048fe2655482"},"vehicle_type_id":"4","last_reported":1702282217,"current_range_meters":22400,"station_id":"ce4bhnp2rcd13ifvqgvg","pricing_plan_id":"free"},{"bike_id":"7748f412-a9ad-47e0-8021-36747c5b85ce","system_id":"levelo_inurba_marseille","lat":43.240623,"lon":5.377642,"is_reserved":false,"is_disabled":false,"rental_uris":{"android":"levelo://app?vid=7748f412-a9ad-47e0-8021-36747c5b85ce","ios":"levelo://app?vid=7748f412-a9ad-47e0-8021-36747c5b85ce"},"vehicle_type_id":"4","last_reported":1702282217,"current_range_meters":14400,"station_id":"ce4bhnp2rcd13ifvqgvg","pricing_plan_id":"free"},{"bike_id":"94cd4a8a-7ad6-45ba-9953-b10109c45bf3","system_id":"levelo_inurba_marseille","lat":43.240623,"lon":5.377642,"is_reserved":false,"is_disabled":false,"rental_uris":{"android":"levelo://app?vid=94cd4a8a-7ad6-45ba-9953-b10109c45bf3","ios":"levelo://app?vid=94cd4a8a-7ad6-45ba-9953-b10109c45bf3"},"vehicle_type_id":"4","last_reported":1702282217,"current_range_meters":23600,"station_id":"ce4bhnp2rcd13ifvqgvg","pricing_plan_id":"free"},{"bike_id":"8d657dd6-8309-4c6a-abae-7a6927bc3336","system_id":"levelo_inurba_marseille","lat":43.240623,"lon":5.377642,"is_reserved":false,"is_disabled":false,"rental_uris":{"android":"levelo://app?vid=8d657dd6-8309-4c6a-abae-7a6927bc3336","ios":"levelo://app?vid=8d657dd6-8309-4c6a-abae-7a6927bc3336"},"vehicle_type_id":"4","last_reported":1702282217,"current_range_meters":31600,"station_id":"ce4bhnp2rcd13ifvqgvg","pricing_plan_id":"free"},{"bike_id":"0331461e-dd73-409a-a2a4-e6d71549c6a3","system_id":"levelo_inurba_marseille","lat":43.24073,"lon":5.37761,"is_reserved":false,"is_disabled":false,"rental_uris":{"android":"levelo://app?vid=0331461e-dd73-409a-a2a4-e6d71549c6a3","ios":"levelo://app?vid=0331461e-dd73-409a-a2a4-e6d71549c6a3"},"vehicle_type_id":"4","last_reported":1702282217,"current_range_meters":15200,"station_id":"ce4bhnp2rcd13ifvqgvg","pricing_plan_id":"free"},{"bike_id":"ea662cea-4baa-4ad9-8cea-697c537971d3","system_id":"levelo_inurba_marseille","lat":43.240623,"lon":5.377642,"is_reserved":false,"is_disabled":false,"rental_uris":{"android":"levelo://app?vid=ea662cea-4baa-4ad9-8cea-697c537971d3","ios":"levelo://app?vid=ea662cea-4baa-4ad9-8cea-697c537971d3"},"vehicle_type_id":"4","last_reported":1702282217,"current_range_meters":21200,"station_id":"ce4bhnp2rcd13ifvqgvg","pricing_plan_id":"free"},{"bike_id":"184a24ea-63a3-470e-aac0-a292f1ec2f0f","system_id":"levelo_inurba_marseille","lat":43.240623,"lon":5.377642,"is_reserved":false,"is_disabled":false,"rental_uris":{"android":"levelo://app?vid=184a24ea-63a3-470e-aac0-a292f1ec2f0f","ios":"levelo://app?vid=184a24ea-63a3-470e-aac0-a292f1ec2f0f"},"vehicle_type_id":"4","last_reported":1702282217,"current_range_meters":21600,"station_id":"ce4bhnp2rcd13ifvqgvg","pricing_plan_id":"free"},{"bike_id":"f1dff5f9-8dbf-42f0-bbdb-a0f5e2b30a6c","system_id":"levelo_inurba_marseille","lat":43.240623,"lon":5.377642,"is_reserved":false,"is_disabled":false,"rental_uris":{"android":"levelo://app?vid=f1dff5f9-8dbf-42f0-bbdb-a0f5e2b30a6c","ios":"levelo://app?vid=f1dff5f9-8dbf-42f0-bbdb-a0f5e2b30a6c"},"vehicle_type_id":"4","last_reported":1702282217,"current_range_meters":16400,"station_id":"ce4bhnp2rcd13ifvqgvg","pricing_plan_id":"free"},{"bike_id":"c8bd7ccd-8660-4ade-b0c3-e77965e3a22e","system_id":"levelo_inurba_marseille","lat":43.240623,"lon":5.377642,"is_reserved":false,"is_disabled":false,"rental_uris":{"android":"levelo://app?vid=c8bd7ccd-8660-4ade-b0c3-e77965e3a22e","ios":"levelo://app?vid=c8bd7ccd-8660-4ade-b0c3-e77965e3a22e"},"vehicle_type_id":"4","last_reported":1702282217,"current_range_meters":27600,"station_id":"ce4bhnp2rcd13ifvqgvg","pricing_plan_id":"free"},{"bike_id":"298e5c1e-60a7-49be-a9d2-86b9bf4a77fb","system_id":"levelo_inurba_marseille","lat":43.240623,"lon":5.377642,"is_reserved":false,"is_disabled":false,"rental_uris":{"android":"levelo://app?vid=298e5c1e-60a7-49be-a9d2-86b9bf4a77fb","ios":"levelo://app?vid=298e5c1e-60a7-49be-a9d2-86b9bf4a77fb"},"vehicle_type_id":"4","last_reported":1702282217,"current_range_meters":24400,"station_id":"ce4bhnp2rcd13ifvqgvg","pricing_plan_id":"free"},{"bike_id":"17d2d649-6227-48bc-98d6-1007473b0927","system_id":"levelo_inurba_marseille","lat":43.240623,"lon":5.377642,"is_reserved":false,"is_disabled":false,"rental_uris":{"android":"levelo://app?vid=17d2d649-6227-48bc-98d6-1007473b0927","ios":"levelo://app?vid=17d2d649-6227-48bc-98d6-1007473b0927"},"vehicle_type_id":"4","last_reported":1702282217,"current_range_meters":2800,"station_id":"ce4bhnp2rcd13ifvqgvg","pricing_plan_id":"free"},{"bike_id":"c26e9806-3b4a-4712-a8b7-1123f0689fb4","system_id":"levelo_inurba_marseille","lat":43.240623,"lon":5.377642,"is_reserved":false,"is_disabled":false,"rental_uris":{"android":"levelo://app?vid=c26e9806-3b4a-4712-a8b7-1123f0689fb4","ios":"levelo://app?vid=c26e9806-3b4a-4712-a8b7-1123f0689fb4"},"vehicle_type_id":"4","last_reported":1702282217,"current_range_meters":1200,"station_id":"ce4bhnp2rcd13ifvqgvg","pricing_plan_id":"free"},{"bike_id":"26632c8e-b701-488b-94fc-8e84cdad5404","system_id":"levelo_inurba_marseille","lat":43.240623,"lon":5.377642,"is_reserved":false,"is_disabled":false,"rental_uris":{"android":"levelo://app?vid=26632c8e-b701-488b-94fc-8e84cdad5404","ios":"levelo://app?vid=26632c8e-b701-488b-94fc-8e84cdad5404"},"vehicle_type_id":"4","last_reported":1702282217,"current_range_meters":18800,"station_id":"ce4bhnp2rcd13ifvqgvg","pricing_plan_id":"free"},{"bike_id":"323023bc-f543-433f-8c97-934178cec79e","system_id":"levelo_inurba_marseille","lat":43.240623,"lon":5.377642,"is_reserved":false,"is_disabled":false,"rental_uris":{"android":"levelo://app?vid=323023bc-f543-433f-8c97-934178cec79e","ios":"levelo://app?vid=323023bc-f543-433f-8c97-934178cec79e"},"vehicle_type_id":"4","last_reported":1702282217,"current_range_meters":22400,"station_id":"ce4bhnp2rcd13ifvqgvg","pricing_plan_id":"free"},{"bike_id":"ba6bc2cd-6e13-4124-aeed-921fb4e8ccc2","system_id":"levelo_inurba_marseille","lat":43.239588,"lon":5.366238,"is_reserved":false,"is_disabled":false,"rental_uris":{"android":"levelo://app?vid=ba6bc2cd-6e13-4124-aeed-921fb4e8ccc2","ios":"levelo://app?vid=ba6bc2cd-6e13-4124-aeed-921fb4e8ccc2"},"vehicle_type_id":"4","last_reported":1702282217,"current_range_meters":26400,"station_id":"ce4bhi12rcd13ifvqfp0","pricing_plan_id":"free"},{"bike_id":"15f9280b-004b-4471-9dc4-253a38fa010a","system_id":"levelo_inurba_marseille","lat":43.24184,"lon":5.39718,"is_reserved":false,"is_disabled":false,"rental_uris":{"android":"levelo://app?vid=15f9280b-004b-4471-9dc4-253a38fa010a","ios":"levelo://app?vid=15f9280b-004b-4471-9dc4-253a38fa010a"},"vehicle_type_id":"4","last_reported":1702282217,"current_range_meters":0,"station_id":"ce4bhn12rcd13ifvqgpg","pricing_plan_id":"free"},{"bike_id":"ff3311be-0e5d-4347-bfab-118723a2b76e","system_id":"levelo_inurba_marseille","lat":43.231919,"lon":5.355532,"is_reserved":false,"is_disabled":false,"rental_uris":{"android":"levelo://app?vid=ff3311be-0e5d-4347-bfab-118723a2b76e","ios":"levelo://app?vid=ff3311be-0e5d-4347-bfab-118723a2b76e"},"vehicle_type_id":"4","last_reported":1702282217,"current_range_meters":28800,"station_id":"ce4bhu92rcd13ifvqi70","pricing_plan_id":"free"},{"bike_id":"952c250c-bda4-4d17-96dc-ecba0e8c6df2","system_id":"levelo_inurba_marseille","lat":43.231562,"lon":5.436933,"is_reserved":false,"is_disabled":false,"rental_uris":{"android":"levelo://app?vid=952c250c-bda4-4d17-96dc-ecba0e8c6df2","ios":"levelo://app?vid=952c250c-bda4-4d17-96dc-ecba0e8c6df2"},"vehicle_type_id":"4","last_reported":1702282217,"current_range_meters":10000,"station_id":"ce4bhmp2rcd13ifvqgog","pricing_plan_id":"free"},{"bike_id":"04309115-d373-402b-ba36-b1c5f3db9ad3","system_id":"levelo_inurba_marseille","lat":43.231562,"lon":5.436933,"is_reserved":false,"is_disabled":false,"rental_uris":{"android":"levelo://app?vid=04309115-d373-402b-ba36-b1c5f3db9ad3","ios":"levelo://app?vid=04309115-d373-402b-ba36-b1c5f3db9ad3"},"vehicle_type_id":"4","last_reported":1702282217,"current_range_meters":11600,"station_id":"ce4bhmp2rcd13ifvqgog","pricing_plan_id":"free"},{"bike_id":"340a95d1-c6b8-4dc8-9947-b292ee8445e8","system_id":"levelo_inurba_marseille","lat":43.231562,"lon":5.436933,"is_reserved":false,"is_disabled":false,"rental_uris":{"android":"levelo://app?vid=340a95d1-c6b8-4dc8-9947-b292ee8445e8","ios":"levelo://app?vid=340a95d1-c6b8-4dc8-9947-b292ee8445e8"},"vehicle_type_id":"4","last_reported":1702282217,"current_range_meters":8400,"station_id":"ce4bhmp2rcd13ifvqgog","pricing_plan_id":"free"},{"bike_id":"d1f54e0d-396f-4b1c-bc0b-a3840a06e020","system_id":"levelo_inurba_marseille","lat":43.231562,"lon":5.436933,"is_reserved":false,"is_disabled":false,"rental_uris":{"android":"levelo://app?vid=d1f54e0d-396f-4b1c-bc0b-a3840a06e020","ios":"levelo://app?vid=d1f54e0d-396f-4b1c-bc0b-a3840a06e020"},"vehicle_type_id":"4","last_reported":1702282217,"current_range_meters":20800,"station_id":"ce4bhmp2rcd13ifvqgog","pricing_plan_id":"free"},{"bike_id":"e867c508-1925-4372-8551-8e22a3a5630e","system_id":"levelo_inurba_marseille","lat":43.231562,"lon":5.436933,"is_reserved":false,"is_disabled":false,"rental_uris":{"android":"levelo://app?vid=e867c508-1925-4372-8551-8e22a3a5630e","ios":"levelo://app?vid=e867c508-1925-4372-8551-8e22a3a5630e"},"vehicle_type_id":"4","last_reported":1702282217,"current_range_meters":7200,"station_id":"ce4bhmp2rcd13ifvqgog","pricing_plan_id":"free"},{"bike_id":"8441462f-9c88-4997-b31a-3a13dda9b0f8","system_id":"levelo_inurba_marseille","lat":43.231562,"lon":5.436933,"is_reserved":false,"is_disabled":false,"rental_uris":{"android":"levelo://app?vid=8441462f-9c88-4997-b31a-3a13dda9b0f8","ios":"levelo://app?vid=8441462f-9c88-4997-b31a-3a13dda9b0f8"},"vehicle_type_id":"4","last_reported":1702282217,"current_range_meters":16000,"station_id":"ce4bhmp2rcd13ifvqgog","pricing_plan_id":"free"},{"bike_id":"4874fa51-4821-4167-a0d9-b9fbe4f6f8f1","system_id":"levelo_inurba_marseille","lat":43.231562,"lon":5.436933,"is_reserved":false,"is_disabled":false,"rental_uris":{"android":"levelo://app?vid=4874fa51-4821-4167-a0d9-b9fbe4f6f8f1","ios":"levelo://app?vid=4874fa51-4821-4167-a0d9-b9fbe4f6f8f1"},"vehicle_type_id":"4","last_reported":1702282217,"current_range_meters":5600,"station_id":"ce4bhmp2rcd13ifvqgog","pricing_plan_id":"free"},{"bike_id":"de82e080-3e0c-4f8c-a923-98085ea5dc5f","system_id":"levelo_inurba_marseille","lat":43.231562,"lon":5.436933,"is_reserved":false,"is_disabled":false,"rental_uris":{"android":"levelo://app?vid=de82e080-3e0c-4f8c-a923-98085ea5dc5f","ios":"levelo://app?vid=de82e080-3e0c-4f8c-a923-98085ea5dc5f"},"vehicle_type_id":"4","last_reported":1702282217,"current_range_meters":7200,"station_id":"ce4bhmp2rcd13ifvqgog","pricing_plan_id":"free"},{"bike_id":"1aae6cdc-e4e2-4912-a240-f90a945937f8","system_id":"levelo_inurba_marseille","lat":43.231562,"lon":5.436933,"is_reserved":false,"is_disabled":false,"rental_uris":{"android":"levelo://app?vid=1aae6cdc-e4e2-4912-a240-f90a945937f8","ios":"levelo://app?vid=1aae6cdc-e4e2-4912-a240-f90a945937f8"},"vehicle_type_id":"4","last_reported":1702282217,"current_range_meters":31600,"station_id":"ce4bhmp2rcd13ifvqgog","pricing_plan_id":"free"}]}}