{"last_updated":1729069837,"ttl":60,"version":"2.2","data":{"bikes":[{"bike_id":"5e3a5470-d8ee-4fa4-8bf2-24451a16fb9a","system_id":"levelo_inurba_marseille","lat":43.28146,"lon":5.42645,"is_reserved":false,"is_disabled":false,"rental_uris":{"android":"levelo://app?vid=5e3a5470-d8ee-4fa4-8bf2-24451a16fb9a","ios":"levelo://app?vid=5e3a5470-d8ee-4fa4-8bf2-24451a16fb9a"},"vehicle_type_id":"4","last_reported":1729069837,"current_range_meters":27600,"station_id":"ce4bhnh2rcd13ifvqgug","pricing_plan_id":"cebpf4jnsgd1na2vs0mg"},{"bike_id":"d1b16ab4-bfe8-4ac8-9d37-8c15db523546","system_id":"levelo_inurba_marseille","lat":43.28705,"lon":5.39986,"is_reserved":false,"is_disabled":false,"rental_uris":{"android":"levelo://app?vid=d1b16ab4-bfe8-4ac8-9d37-8c15db523546","ios":"levelo://app?vid=d1b16ab4-bfe8-4ac8-9d37-8c15db523546"},"vehicle_type_id":"4","last_reported":1729069837,"current_range_meters":8000,"station_id":"ce4bho92rcd13ifvqh3g","pricing_plan_id":"cebpf4jnsgd1na2vs0mg"},{"bike_id":"66379f2c-c1c8-4683-a252-ed84c21d525c","system_id":"levelo_inurba_marseille","lat":43.2707,"lon":5.42275,"is_reserved":false,"is_disabled":false,"rental_uris":{"android":"levelo://app?vid=66379f2c-c1c8-4683-a252-ed84c21d525c","ios":"levelo://app?vid=66379f2c-c1c8-4683-a252-ed84c21d525c"},"vehicle_type_id":"4","last_reported":1729069837,"current_range_meters":30800,"station_id":"ce4bhk92rcd13ifvqgb0","pricing_plan_id":"cebpf4jnsgd1na2vs0mg"},{"bike_id":"f641c72c-20c3-4738-bbe9-f85d78ff6f71","system_id":"levelo_inurba_marseille","lat":43.28702,"lon":5.39982,"is_reserved":false,"is_disabled":false,"rental_uris":{"android":"levelo://app?vid=f641c72c-20c3-4738-bbe9-f85d78ff6f71","ios":"levelo://app?vid=f641c72c-20c3-4738-bbe9-f85d78ff6f71"},"vehicle_type_id":"4","last_reported":1729069837,"current_range_meters":14000,"station_id":"ce4bho92rcd13ifvqh3g","pricing_plan_id":"cebpf4jnsgd1na2vs0mg"},{"bike_id":"5002f4ca-68aa-4a9a-bbfb-321dee34c575","system_id":"levelo_inurba_marseille","lat":43.25938,"lon":5.40903,"is_reserved":false,"is_disabled":false,"rental_uris":{"android":"levelo://app?vid=5002f4ca-68aa-4a9a-bbfb-321dee34c575","ios":"levelo://app?vid=5002f4ca-68aa-4a9a-bbfb-321dee34c575"},"vehicle_type_id":"4","last_reported":1729069837,"current_range_meters":25200,"station_id":"ce4bhm92rcd13ifvqglg","pricing_plan_id":"cebpf4jnsgd1na2vs0mg"},{"bike_id":"e89844f1-3036-40d1-9c38-925fdb216954","system_id":"levelo_inurba_marseille","lat":43.29631,"lon":5.40604,"is_reserved":false,"is_disabled":false,"rental_uris":{"android":"levelo://app?vid=e89844f1-3036-40d1-9c38-925fdb216954","ios":"levelo://app?vid=e89844f1-3036-40d1-9c38-925fdb216954"},"vehicle_type_id":"4","last_reported":1729069837,"current_range_meters":37600,"station_id":"ce4bh0h2rcd13ifvqd60","pricing_plan_id":"cebpf4jnsgd1na2vs0mg"},{"bike_id":"805cf10d-9632-4f1a-9f3a-80b24a4fbac6","system_id":"levelo_inurba_marseille","lat":43.29783,"lon":5.41295,"is_reserved":false,"is_disabled":false,"rental_uris":{"android":"levelo://app?vid=805cf10d-9632-4f1a-9f3a-80b24a4fbac6","ios":"levelo://app?vid=805cf10d-9632-4f1a-9f3a-80b24a4fbac6"},"vehicle_type_id":"4","last_reported":1729069837,"current_range_meters":5600,"station_id":"","pricing_plan_id":"cebpf4jnsgd1na2vs0mg"},{"bike_id":"bcd69121-dfbd-4a91-a532-756efaa2cf8c","system_id":"levelo_inurba_marseille","lat":43.24073,"lon":5.37751,"is_reserved":false,"is_disabled":false,"rental_uris":{"android":"levelo://app?vid=bcd69121-dfbd-4a91-a532-756efaa2cf8c","ios":"levelo://app?vid=bcd69121-dfbd-4a91-a532-756efaa2cf8c"},"vehicle_type_id":"4","last_reported":1729069837,"current_range_meters":38800,"station_id":"ce4bhnp2rcd13ifvqgvg","pricing_plan_id":"cebpf4jnsgd1na2vs0mg"},{"bike_id":"b355e199-5b55-43c0-b360-d6ed305afb06","system_id":"levelo_inurba_marseille","lat":43.27211,"lon":5.39185,"is_reserved":false,"is_disabled":false,"rental_uris":{"android":"levelo://app?vid=b355e199-5b55-43c0-b360-d6ed305afb06","ios":"levelo://app?vid=b355e199-5b55-43c0-b360-d6ed305afb06"},"vehicle_type_id":"4","last_reported":1729069837,"current_range_meters":17600,"station_id":"","pricing_plan_id":"cebpf4jnsgd1na2vs0mg"},{"bike_id":"979638f0-5c67-408f-bbfd-0de28da1b117","system_id":"levelo_inurba_marseille","lat":43.29728,"lon":5.37684,"is_reserved":false,"is_disabled":false,"rental_uris":{"android":"levelo://app?vid=979638f0-5c67-408f-bbfd-0de28da1b117","ios":"levelo://app?vid=979638f0-5c67-408f-bbfd-0de28da1b117"},"vehicle_type_id":"4","last_reported":1729069837,"current_range_meters":38000,"station_id":"ce4bgkh2rcd13ifvqbl0","pricing_plan_id":"cebpf4jnsgd1na2vs0mg"},{"bike_id":"2ffc924b-8865-401c-a222-d89ab6a75d2d","system_id":"levelo_inurba_marseille","lat":43.29911,"lon":5.37473,"is_reserved":false,"is_disabled":false,"rental_uris":{"android":"levelo://app?vid=2ffc924b-8865-401c-a222-d89ab6a75d2d","ios":"levelo://app?vid=2ffc924b-8865-401c-a222-d89ab6a75d2d"},"vehicle_type_id":"4","last_reported":1729069837,"current_range_meters":24000,"station_id":"ce4bgjh2rcd13ifvqbg0","pricing_plan_id":"cebpf4jnsgd1na2vs0mg"},{"bike_id":"54513a11-cfc0-4602-a901-a052e3e7058a","system_id":"levelo_inurba_marseille","lat":43.30898,"lon":5.3684,"is_reserved":false,"is_disabled":false,"rental_uris":{"android":"levelo://app?vid=54513a11-cfc0-4602-a901-a052e3e7058a","ios":"levelo://app?vid=54513a11-cfc0-4602-a901-a052e3e7058a"},"vehicle_type_id":"4","last_reported":1729069837,"current_range_meters":6400,"station_id":"ce4bgn92rcd13ifvqbvg","pricing_plan_id":"cebpf4jnsgd1na2vs0mg"},{"bike_id":"3d1aa8b2-1be9-41d6-b66c-9c65ba0a1999","system_id":"levelo_inurba_marseille","lat":43.25822,"lon":5.39423,"is_reserved":false,"is_disabled":false,"rental_uris":{"android":"levelo://app?vid=3d1aa8b2-1be9-41d6-b66c-9c65ba0a1999","ios":"levelo://app?vid=3d1aa8b2-1be9-41d6-b66c-9c65ba0a1999"},"vehicle_type_id":"4","last_reported":1729069837,"current_range_meters":22000,"station_id":"ce4bhip2rcd13ifvqft0","pricing_plan_id":"cebpf4jnsgd1na2vs0mg"},{"bike_id":"a317d19b-3e4c-466d-b1f0-ad5b7ee20519","system_id":"levelo_inurba_marseille","lat":43.25941,"lon":5.409,"is_reserved":false,"is_disabled":false,"rental_uris":{"android":"levelo://app?vid=a317d19b-3e4c-466d-b1f0-ad5b7ee20519","ios":"levelo://app?vid=a317d19b-3e4c-466d-b1f0-ad5b7ee20519"},"vehicle_type_id":"4","last_reported":1729069837,"current_range_meters":8400,"station_id":"ce4bhm92rcd13ifvqglg","pricing_plan_id":"cebpf4jnsgd1na2vs0mg"},{"bike_id":"90ad8aa3-d4c1-4cc9-a5d0-132f8a0078b3","system_id":"levelo_inurba_marseille","lat":43.24385,"lon":5.37055,"is_reserved":false,"is_disabled":false,"rental_uris":{"android":"levelo://app?vid=90ad8aa3-d4c1-4cc9-a5d0-132f8a0078b3","ios":"levelo://app?vid=90ad8aa3-d4c1-4cc9-a5d0-132f8a0078b3"},"vehicle_type_id":"4","last_reported":1729069837,"current_range_meters":38800,"station_id":"ce4bhhh2rcd13ifvqfk0","pricing_plan_id":"cebpf4jnsgd1na2vs0mg"},{"bike_id":"f753014a-e02a-4cf3-9817-33330c7ddf67","system_id":"levelo_inurba_marseille","lat":43.27818,"lon":5.40717,"is_reserved":false,"is_disabled":false,"rental_uris":{"android":"levelo://app?vid=f753014a-e02a-4cf3-9817-33330c7ddf67","ios":"levelo://app?vid=f753014a-e02a-4cf3-9817-33330c7ddf67"},"vehicle_type_id":"4","last_reported":1729069837,"current_range_meters":37600,"station_id":"ce4bhnh2rcd13ifvqgtg","pricing_plan_id":"cebpf4jnsgd1na2vs0mg"},{"bike_id":"fa345a0e-4f93-4329-aed4-d980757d8179","system_id":"levelo_inurba_marseille","lat":43.25115,"lon":5.40322,"is_reserved":false,"is_disabled":false,"rental_uris":{"android":"levelo://app?vid=fa345a0e-4f93-4329-aed4-d980757d8179","ios":"levelo://app?vid=fa345a0e-4f93-4329-aed4-d980757d8179"},"vehicle_type_id":"4","last_reported":1729069837,"current_range_meters":26800,"station_id":"ce4bhlh2rcd13ifvqgig","pricing_plan_id":"cebpf4jnsgd1na2vs0mg"},{"bike_id":"ac5b74c0-3c5a-4586-b763-b34334216681","system_id":"levelo_inurba_marseille","lat":43.30616,"lon":5.37267,"is_reserved":false,"is_disabled":false,"rental_uris":{"android":"levelo://app?vid=ac5b74c0-3c5a-4586-b763-b34334216681","ios":"levelo://app?vid=ac5b74c0-3c5a-4586-b763-b34334216681"},"vehicle_type_id":"4","last_reported":1729069837,"current_range_meters":14800,"station_id":"ce4bgqh2rcd13ifvqc4g","pricing_plan_id":"cebpf4jnsgd1na2vs0mg"},{"bike_id":"042e5b40-9e97-45f4-843e-ff54af18e3a3","system_id":"levelo_inurba_marseille","lat":43.337444,"lon":5.374475,"is_reserved":false,"is_disabled":false,"rental_uris":{"android":"levelo://app?vid=042e5b40-9e97-45f4-843e-ff54af18e3a3","ios":"levelo://app?vid=042e5b40-9e97-45f4-843e-ff54af18e3a3"},"vehicle_type_id":"4","last_reported":1729069837,"current_range_meters":36800,"station_id":"","pricing_plan_id":"cebpf4jnsgd1na2vs0mg"},{"bike_id":"000369c6-f812-4446-82e4-82e75f023064","system_id":"levelo_inurba_marseille","lat":43.26788,"lon":5.39411,"is_reserved":false,"is_disabled":false,"rental_uris":{"android":"levelo://app?vid=000369c6-f812-4446-82e4-82e75f023064","ios":"levelo://app?vid=000369c6-f812-4446-82e4-82e75f023064"},"vehicle_type_id":"4","last_reported":1729069837,"current_range_meters":22400,"station_id":"ce4bhh12rcd13ifvqfg0","pricing_plan_id":"cebpf4jnsgd1na2vs0mg"},{"bike_id":"489ed225-bac5-4d72-9891-22449ed5d076","system_id":"levelo_inurba_marseille","lat":43.29595,"lon":5.38097,"is_reserved":false,"is_disabled":false,"rental_uris":{"android":"levelo://app?vid=489ed225-bac5-4d72-9891-22449ed5d076","ios":"levelo://app?vid=489ed225-bac5-4d72-9891-22449ed5d076"},"vehicle_type_id":"4","last_reported":1729069837,"current_range_meters":27600,"station_id":"ce4bgl12rcd13ifvqbo0","pricing_plan_id":"cebpf4jnsgd1na2vs0mg"},{"bike_id":"f8dbf5d1-2716-4efe-a33a-adaef7465d9e","system_id":"levelo_inurba_marseille","lat":43.26959,"lon":5.38627,"is_reserved":false,"is_disabled":false,"rental_uris":{"android":"levelo://app?vid=f8dbf5d1-2716-4efe-a33a-adaef7465d9e","ios":"levelo://app?vid=f8dbf5d1-2716-4efe-a33a-adaef7465d9e"},"vehicle_type_id":"4","last_reported":1729069837,"current_range_meters":38800,"station_id":"ce4bhh92rcd13ifvqfh0","pricing_plan_id":"cebpf4jnsgd1na2vs0mg"},{"bike_id":"7a1dbcbb-c0e9-4957-a1d5-5f91b2afae57","system_id":"levelo_inurba_marseille","lat":43.30905,"lon":5.36857,"is_reserved":false,"is_disabled":false,"rental_uris":{"android":"levelo://app?vid=7a1dbcbb-c0e9-4957-a1d5-5f91b2afae57","ios":"levelo://app?vid=7a1dbcbb-c0e9-4957-a1d5-5f91b2afae57"},"vehicle_type_id":"4","last_reported":1729069837,"current_range_meters":33600,"station_id":"ce4bgn92rcd13ifvqbvg","pricing_plan_id":"cebpf4jnsgd1na2vs0mg"},{"bike_id":"11bb7ed5-1970-4a73-a794-e55c1684750f","system_id":"levelo_inurba_marseille","lat":43.23153,"lon":5.43708,"is_reserved":false,"is_disabled":false,"rental_uris":{"android":"levelo://app?vid=11bb7ed5-1970-4a73-a794-e55c1684750f","ios":"levelo://app?vid=11bb7ed5-1970-4a73-a794-e55c1684750f"},"vehicle_type_id":"4","last_reported":1729069837,"current_range_meters":35200,"station_id":"ce4bhmp2rcd13ifvqgog","pricing_plan_id":"cebpf4jnsgd1na2vs0mg"},{"bike_id":"4cb44486-39e9-4eb3-9e8b-4c0d42fb4235","system_id":"levelo_inurba_marseille","lat":43.28157,"lon":5.42645,"is_reserved":false,"is_disabled":false,"rental_uris":{"android":"levelo://app?vid=4cb44486-39e9-4eb3-9e8b-4c0d42fb4235","ios":"levelo://app?vid=4cb44486-39e9-4eb3-9e8b-4c0d42fb4235"},"vehicle_type_id":"4","last_reported":1729069837,"current_range_meters":24400,"station_id":"ce4bhnh2rcd13ifvqgug","pricing_plan_id":"cebpf4jnsgd1na2vs0mg"},{"bike_id":"686faf49-346d-4875-bdc2-13cd5b4220b0","system_id":"levelo_inurba_marseille","lat":43.29039,"lon":5.37569,"is_reserved":false,"is_disabled":false,"rental_uris":{"android":"levelo://app?vid=686faf49-346d-4875-bdc2-13cd5b4220b0","ios":"levelo://app?vid=686faf49-346d-4875-bdc2-13cd5b4220b0"},"vehicle_type_id":"4","last_reported":1729069837,"current_range_meters":30800,"station_id":"ce4bh692rcd13ifvqe90","pricing_plan_id":"cebpf4jnsgd1na2vs0mg"},{"bike_id":"6123b646-e764-4dd8-a572-6d74bfe4bd24","system_id":"levelo_inurba_marseille","lat":43.3054,"lon":5.36549,"is_reserved":false,"is_disabled":false,"rental_uris":{"android":"levelo://app?vid=6123b646-e764-4dd8-a572-6d74bfe4bd24","ios":"levelo://app?vid=6123b646-e764-4dd8-a572-6d74bfe4bd24"},"vehicle_type_id":"4","last_reported":1729069837,"current_range_meters":20000,"station_id":"ce4bgs12rcd13ifvqcag","pricing_plan_id":"cebpf4jnsgd1na2vs0mg"},{"bike_id":"f266d66c-0caa-46a0-b858-a8641e907bea","system_id":"levelo_inurba_marseille","lat":43.32534,"lon":5.41446,"is_reserved":false,"is_disabled":false,"rental_uris":{"android":"levelo://app?vid=f266d66c-0caa-46a0-b858-a8641e907bea","ios":"levelo://app?vid=f266d66c-0caa-46a0-b858-a8641e907bea"},"vehicle_type_id":"4","last_reported":1729069837,"current_range_meters":34000,"station_id":"ce4bhq12rcd13ifvqhhg","pricing_plan_id":"cebpf4jnsgd1na2vs0mg"},{"bike_id":"96fd3dd3-96a0-4e12-bf5d-12292589addf","system_id":"levelo_inurba_marseille","lat":43.30553,"lon":5.36518,"is_reserved":false,"is_disabled":false,"rental_uris":{"android":"levelo://app?vid=96fd3dd3-96a0-4e12-bf5d-12292589addf","ios":"levelo://app?vid=96fd3dd3-96a0-4e12-bf5d-12292589addf"},"vehicle_type_id":"4","last_reported":1729069837,"current_range_meters":28400,"station_id":"ce4bgs12rcd13ifvqcag","pricing_plan_id":"cebpf4jnsgd1na2vs0mg"},{"bike_id":"842bdfb8-cce6-4db6-b51d-7b5c18cbbc1e","system_id":"levelo_inurba_marseille","lat":43.23151,"lon":5.43703,"is_reserved":false,"is_disabled":false,"rental_uris":{"android":"levelo://app?vid=842bdfb8-cce6-4db6-b51d-7b5c18cbbc1e","ios":"levelo://app?vid=842bdfb8-cce6-4db6-b51d-7b5c18cbbc1e"},"vehicle_type_id":"4","last_reported":1729069837,"current_range_meters":12800,"station_id":"ce4bhmp2rcd13ifvqgog","pricing_plan_id":"cebpf4jnsgd1na2vs0mg"},{"bike_id":"512d4180-4a16-422c-95f4-76d1eda68a79","system_id":"levelo_inurba_marseille","lat":43.30426,"lon":5.39755,"is_reserved":false,"is_disabled":false,"rental_uris":{"android":"levelo://app?vid=512d4180-4a16-422c-95f4-76d1eda68a79","ios":"levelo://app?vid=512d4180-4a16-422c-95f4-76d1eda68a79"},"vehicle_type_id":"4","last_reported":1729069837,"current_range_meters":38800,"station_id":"ce4bh092rcd13ifvqd20","pricing_plan_id":"cebpf4jnsgd1na2vs0mg"},{"bike_id":"69e4b9b4-8096-4f29-9a7d-657c496238a8","system_id":"levelo_inurba_marseille","lat":43.29026,"lon":5.38648,"is_reserved":false,"is_disabled":false,"rental_uris":{"android":"levelo://app?vid=69e4b9b4-8096-4f29-9a7d-657c496238a8","ios":"levelo://app?vid=69e4b9b4-8096-4f29-9a7d-657c496238a8"},"vehicle_type_id":"4","last_reported":1729069837,"current_range_meters":25200,"station_id":"ce4bh4p2rcd13ifvqe0g","pricing_plan_id":"cebpf4jnsgd1na2vs0mg"},{"bike_id":"6dc5b725-0b8c-49b8-a19b-3f297b3f6f14","system_id":"levelo_inurba_marseille","lat":43.2593,"lon":5.40903,"is_reserved":false,"is_disabled":false,"rental_uris":{"android":"levelo://app?vid=6dc5b725-0b8c-49b8-a19b-3f297b3f6f14","ios":"levelo://app?vid=6dc5b725-0b8c-49b8-a19b-3f297b3f6f14"},"vehicle_type_id":"4","last_reported":1729069837,"current_range_meters":38800,"station_id":"ce4bhm92rcd13ifvqglg","pricing_plan_id":"cebpf4jnsgd1na2vs0mg"},{"bike_id":"dfd53dd1-18a0-4cd7-967d-2019c2988c8b","system_id":"levelo_inurba_marseille","lat":43.2732,"lon":5.39089,"is_reserved":false,"is_disabled":false,"rental_uris":{"android":"levelo://app?vid=dfd53dd1-18a0-4cd7-967d-2019c2988c8b","ios":"levelo://app?vid=dfd53dd1-18a0-4cd7-967d-2019c2988c8b"},"vehicle_type_id":"4","last_reported":1729069837,"current_range_meters":18000,"station_id":"ce4bhgp2rcd13ifvqfe0","pricing_plan_id":"cebpf4jnsgd1na2vs0mg"},{"bike_id":"17c12b00-bc53-4c9a-ad64-dad76911932f","system_id":"levelo_inurba_marseille","lat":43.26954,"lon":5.3862,"is_reserved":false,"is_disabled":false,"rental_uris":{"android":"levelo://app?vid=17c12b00-bc53-4c9a-ad64-dad76911932f","ios":"levelo://app?vid=17c12b00-bc53-4c9a-ad64-dad76911932f"},"vehicle_type_id":"4","last_reported":1729069837,"current_range_meters":20400,"station_id":"ce4bhh92rcd13ifvqfh0","pricing_plan_id":"cebpf4jnsgd1na2vs0mg"},{"bike_id":"43ef6191-1da4-4fab-ad02-553d29a8e7e7","system_id":"levelo_inurba_marseille","lat":43.24651,"lon":5.38891,"is_reserved":false,"is_disabled":false,"rental_uris":{"android":"levelo://app?vid=43ef6191-1da4-4fab-ad02-553d29a8e7e7","ios":"levelo://app?vid=43ef6191-1da4-4fab-ad02-553d29a8e7e7"},"vehicle_type_id":"4","last_reported":1729069837,"current_range_meters":37600,"station_id":"ce4bhg12rcd13ifvqf60","pricing_plan_id":"cebpf4jnsgd1na2vs0mg"},{"bike_id":"6232b4d9-b37d-4acb-9c65-49657ed81111","system_id":"levelo_inurba_marseille","lat":43.30224,"lon":5.37047,"is_reserved":false,"is_disabled":false,"rental_uris":{"android":"levelo://app?vid=6232b4d9-b37d-4acb-9c65-49657ed81111","ios":"levelo://app?vid=6232b4d9-b37d-4acb-9c65-49657ed81111"},"vehicle_type_id":"4","last_reported":1729069837,"current_range_meters":38400,"station_id":"","pricing_plan_id":"cebpf4jnsgd1na2vs0mg"},{"bike_id":"5dd558c7-e237-44c2-8be1-82ed950a2013","system_id":"levelo_inurba_marseille","lat":43.32477,"lon":5.36573,"is_reserved":false,"is_disabled":false,"rental_uris":{"android":"levelo://app?vid=5dd558c7-e237-44c2-8be1-82ed950a2013","ios":"levelo://app?vid=5dd558c7-e237-44c2-8be1-82ed950a2013"},"vehicle_type_id":"4","last_reported":1729069837,"current_range_meters":32400,"station_id":"ce4bhs12rcd13ifvqhvg","pricing_plan_id":"cebpf4jnsgd1na2vs0mg"},{"bike_id":"24717297-db2a-414e-ab99-3035f49f952a","system_id":"levelo_inurba_marseille","lat":43.30907,"lon":5.36854,"is_reserved":false,"is_disabled":false,"rental_uris":{"android":"levelo://app?vid=24717297-db2a-414e-ab99-3035f49f952a","ios":"levelo://app?vid=24717297-db2a-414e-ab99-3035f49f952a"},"vehicle_type_id":"4","last_reported":1729069837,"current_range_meters":19200,"station_id":"ce4bgn92rcd13ifvqbvg","pricing_plan_id":"cebpf4jnsgd1na2vs0mg"},{"bike_id":"1e4aa504-6137-4dc7-9fd2-e023879dd1aa","system_id":"levelo_inurba_marseille","lat":43.31346,"lon":5.36706,"is_reserved":false,"is_disabled":false,"rental_uris":{"android":"levelo://app?vid=1e4aa504-6137-4dc7-9fd2-e023879dd1aa","ios":"levelo://app?vid=1e4aa504-6137-4dc7-9fd2-e023879dd1aa"},"vehicle_type_id":"4","last_reported":1729069837,"current_range_meters":37600,"station_id":"ce4bgr92rcd13ifvqc6g","pricing_plan_id":"cebpf4jnsgd1na2vs0mg"},{"bike_id":"eb7fbeec-0f7e-459f-9297-4e673e13228d","system_id":"levelo_inurba_marseille","lat":43.29585,"lon":5.36738,"is_reserved":false,"is_disabled":false,"rental_uris":{"android":"levelo://app?vid=eb7fbeec-0f7e-459f-9297-4e673e13228d","ios":"levelo://app?vid=eb7fbeec-0f7e-459f-9297-4e673e13228d"},"vehicle_type_id":"4","last_reported":1729069837,"current_range_meters":36800,"station_id":"ce4bgph2rcd13ifvqc2g","pricing_plan_id":"cebpf4jnsgd1na2vs0mg"},{"bike_id":"ca0163ac-d25a-437e-9b06-c3be4e515504","system_id":"levelo_inurba_marseille","lat":43.30312,"lon":5.36898,"is_reserved":false,"is_disabled":false,"rental_uris":{"android":"levelo://app?vid=ca0163ac-d25a-437e-9b06-c3be4e515504","ios":"levelo://app?vid=ca0163ac-d25a-437e-9b06-c3be4e515504"},"vehicle_type_id":"4","last_reported":1729069837,"current_range_meters":35200,"station_id":"ce4bgqh2rcd13ifvqc5g","pricing_plan_id":"cebpf4jnsgd1na2vs0mg"},{"bike_id":"40f0352f-19fd-472f-8c58-fccbfca93941","system_id":"levelo_inurba_marseille","lat":43.26952,"lon":5.38625,"is_reserved":false,"is_disabled":false,"rental_uris":{"android":"levelo://app?vid=40f0352f-19fd-472f-8c58-fccbfca93941","ios":"levelo://app?vid=40f0352f-19fd-472f-8c58-fccbfca93941"},"vehicle_type_id":"4","last_reported":1729069837,"current_range_meters":28400,"station_id":"ce4bhh92rcd13ifvqfh0","pricing_plan_id":"cebpf4jnsgd1na2vs0mg"},{"bike_id":"3d345541-8cc4-4a78-8d79-d41d0d8fd35c","system_id":"levelo_inurba_marseille","lat":43.2594,"lon":5.40904,"is_reserved":false,"is_disabled":false,"rental_uris":{"android":"levelo://app?vid=3d345541-8cc4-4a78-8d79-d41d0d8fd35c","ios":"levelo://app?vid=3d345541-8cc4-4a78-8d79-d41d0d8fd35c"},"vehicle_type_id":"4","last_reported":1729069837,"current_range_meters":23200,"station_id":"ce4bhm92rcd13ifvqglg","pricing_plan_id":"cebpf4jnsgd1na2vs0mg"},{"bike_id":"57fa9f76-c7d4-4b74-96fe-4bb481ced862","system_id":"levelo_inurba_marseille","lat":43.29548,"lon":5.42285,"is_reserved":false,"is_disabled":false,"rental_uris":{"android":"levelo://app?vid=57fa9f76-c7d4-4b74-96fe-4bb481ced862","ios":"levelo://app?vid=57fa9f76-c7d4-4b74-96fe-4bb481ced862"},"vehicle_type_id":"4","last_reported":1729069837,"current_range_meters":36000,"station_id":"ce4bhph2rcd13ifvqhdg","pricing_plan_id":"cebpf4jnsgd1na2vs0mg"},{"bike_id":"7729185e-87f5-4113-9325-6f8c6e2ca6b8","system_id":"levelo_inurba_marseille","lat":43.2815,"lon":5.42641,"is_reserved":false,"is_disabled":false,"rental_uris":{"android":"levelo://app?vid=7729185e-87f5-4113-9325-6f8c6e2ca6b8","ios":"levelo://app?vid=7729185e-87f5-4113-9325-6f8c6e2ca6b8"},"vehicle_type_id":"4","last_reported":1729069837,"current_range_meters":37600,"station_id":"ce4bhnh2rcd13ifvqgug","pricing_plan_id":"cebpf4jnsgd1na2vs0mg"},{"bike_id":"b3414e9f-e991-44cb-8362-0a7d75f1ca79","system_id":"levelo_inurba_marseille","lat":43.30295,"lon":5.36907,"is_reserved":false,"is_disabled":false,"rental_uris":{"android":"levelo://app?vid=b3414e9f-e991-44cb-8362-0a7d75f1ca79","ios":"levelo://app?vid=b3414e9f-e991-44cb-8362-0a7d75f1ca79"},"vehicle_type_id":"4","last_reported":1729069837,"current_range_meters":38800,"station_id":"ce4bgqh2rcd13ifvqc5g","pricing_plan_id":"cebpf4jnsgd1na2vs0mg"},{"bike_id":"c77ea266-271c-4ea2-a8dc-337f7c85044f","system_id":"levelo_inurba_marseille","lat":43.28155,"lon":5.42646,"is_reserved":false,"is_disabled":false,"rental_uris":{"android":"levelo://app?vid=c77ea266-271c-4ea2-a8dc-337f7c85044f","ios":"levelo://app?vid=c77ea266-271c-4ea2-a8dc-337f7c85044f"},"vehicle_type_id":"4","last_reported":1729069837,"current_range_meters":38000,"station_id":"ce4bhnh2rcd13ifvqgug","pricing_plan_id":"cebpf4jnsgd1na2vs0mg"},{"bike_id":"32a76449-a470-4de4-9b36-50812d07c7e2","system_id":"levelo_inurba_marseille","lat":43.29803,"lon":5.40403,"is_reserved":false,"is_disabled":false,"rental_uris":{"android":"levelo://app?vid=32a76449-a470-4de4-9b36-50812d07c7e2","ios":"levelo://app?vid=32a76449-a470-4de4-9b36-50812d07c7e2"},"vehicle_type_id":"4","last_reported":1729069837,"current_range_meters":30000,"station_id":"ce4bh112rcd13ifvqd90","pricing_plan_id":"cebpf4jnsgd1na2vs0mg"},{"bike_id":"79b3f0f2-b593-4cb5-a001-1c856292dfd1","system_id":"levelo_inurba_marseille","lat":43.33756,"lon":5.37463,"is_reserved":false,"is_disabled":false,"rental_uris":{"android":"levelo://app?vid=79b3f0f2-b593-4cb5-a001-1c856292dfd1","ios":"levelo://app?vid=79b3f0f2-b593-4cb5-a001-1c856292dfd1"},"vehicle_type_id":"4","last_reported":1729069837,"current_range_meters":38000,"station_id":"","pricing_plan_id":"cebpf4jnsgd1na2vs0mg"},{"bike_id":"6e7afd62-d736-4ed9-9248-f4f82a390064","system_id":"levelo_inurba_marseille","lat":43.336,"lon":5.41023,"is_reserved":false,"is_disabled":false,"rental_uris":{"android":"levelo://app?vid=6e7afd62-d736-4ed9-9248-f4f82a390064","ios":"levelo://app?vid=6e7afd62-d736-4ed9-9248-f4f82a390064"},"vehicle_type_id":"4","last_reported":1729069837,"current_range_meters":39200,"station_id":"ce4bhqh2rcd13ifvqhmg","pricing_plan_id":"cebpf4jnsgd1na2vs0mg"},{"bike_id":"b325087f-6118-4ad4-b60f-bacfc8d667c5","system_id":"levelo_inurba_marseille","lat":43.30911,"lon":5.36855,"is_reserved":false,"is_disabled":false,"rental_uris":{"android":"levelo://app?vid=b325087f-6118-4ad4-b60f-bacfc8d667c5","ios":"levelo://app?vid=b325087f-6118-4ad4-b60f-bacfc8d667c5"},"vehicle_type_id":"4","last_reported":1729069837,"current_range_meters":39200,"station_id":"ce4bgn92rcd13ifvqbvg","pricing_plan_id":"cebpf4jnsgd1na2vs0mg"},{"bike_id":"eb4d068d-4e02-4700-b2db-40b6e22f6e8a","system_id":"levelo_inurba_marseille","lat":43.29965,"lon":5.41327,"is_reserved":false,"is_disabled":false,"rental_uris":{"android":"levelo://app?vid=eb4d068d-4e02-4700-b2db-40b6e22f6e8a","ios":"levelo://app?vid=eb4d068d-4e02-4700-b2db-40b6e22f6e8a"},"vehicle_type_id":"4","last_reported":1729069837,"current_range_meters":14400,"station_id":"ce4bhp12rcd13ifvqh9g","pricing_plan_id":"cebpf4jnsgd1na2vs0mg"},{"bike_id":"668c555d-da69-439e-ae5c-a813cfa3ce2a","system_id":"levelo_inurba_marseille","lat":43.3015,"lon":5.38086,"is_reserved":false,"is_disabled":false,"rental_uris":{"android":"levelo://app?vid=668c555d-da69-439e-ae5c-a813cfa3ce2a","ios":"levelo://app?vid=668c555d-da69-439e-ae5c-a813cfa3ce2a"},"vehicle_type_id":"4","last_reported":1729069837,"current_range_meters":23200,"station_id":"ce4bgjp2rcd13ifvqbh0","pricing_plan_id":"cebpf4jnsgd1na2vs0mg"},{"bike_id":"355a0fa1-840d-4072-b181-afd45b1c87e7","system_id":"levelo_inurba_marseille","lat":43.30955,"lon":5.39035,"is_reserved":false,"is_disabled":false,"rental_uris":{"android":"levelo://app?vid=355a0fa1-840d-4072-b181-afd45b1c87e7","ios":"levelo://app?vid=355a0fa1-840d-4072-b181-afd45b1c87e7"},"vehicle_type_id":"4","last_reported":1729069837,"current_range_meters":2800,"station_id":"ce4bgup2rcd13ifvqco0","pricing_plan_id":"cebpf4jnsgd1na2vs0mg"},{"bike_id":"2f6863b2-fe90-402d-811b-014de7caaa0b","system_id":"levelo_inurba_marseille","lat":43.29913,"lon":5.3815,"is_reserved":false,"is_disabled":false,"rental_uris":{"android":"levelo://app?vid=2f6863b2-fe90-402d-811b-014de7caaa0b","ios":"levelo://app?vid=2f6863b2-fe90-402d-811b-014de7caaa0b"},"vehicle_type_id":"4","last_reported":1729069837,"current_range_meters":36800,"station_id":"ce4bgj12rcd13ifvqbc0","pricing_plan_id":"cebpf4jnsgd1na2vs0mg"},{"bike_id":"78a4725b-5ab3-4882-84be-4fa1ee1d6583","system_id":"levelo_inurba_marseille","lat":43.24387,"lon":5.37054,"is_reserved":false,"is_disabled":false,"rental_uris":{"android":"levelo://app?vid=78a4725b-5ab3-4882-84be-4fa1ee1d6583","ios":"levelo://app?vid=78a4725b-5ab3-4882-84be-4fa1ee1d6583"},"vehicle_type_id":"4","last_reported":1729069837,"current_range_meters":38800,"station_id":"ce4bhhh2rcd13ifvqfk0","pricing_plan_id":"cebpf4jnsgd1na2vs0mg"},{"bike_id":"e9a859f8-c7b5-444b-ace7-d7127a93c0e9","system_id":"levelo_inurba_marseille","lat":43.27998,"lon":5.4001,"is_reserved":false,"is_disabled":false,"rental_uris":{"android":"levelo://app?vid=e9a859f8-c7b5-444b-ace7-d7127a93c0e9","ios":"levelo://app?vid=e9a859f8-c7b5-444b-ace7-d7127a93c0e9"},"vehicle_type_id":"4","last_reported":1729069837,"current_range_meters":6800,"station_id":"ce4bho92rcd13ifvqh4g","pricing_plan_id":"cebpf4jnsgd1na2vs0mg"},{"bike_id":"cd22c2eb-20f4-4bb7-aafa-c4c31534ee0d","system_id":"levelo_inurba_marseille","lat":43.24066,"lon":5.37761,"is_reserved":false,"is_disabled":false,"rental_uris":{"android":"levelo://app?vid=cd22c2eb-20f4-4bb7-aafa-c4c31534ee0d","ios":"levelo://app?vid=cd22c2eb-20f4-4bb7-aafa-c4c31534ee0d"},"vehicle_type_id":"4","last_reported":1729069837,"current_range_meters":38800,"station_id":"ce4bhnp2rcd13ifvqgvg","pricing_plan_id":"cebpf4jnsgd1na2vs0mg"},{"bike_id":"8b89f175-d99c-4443-af38-c4cd2535f07b","system_id":"levelo_inurba_marseille","lat":43.30941,"lon":5.38628,"is_reserved":false,"is_disabled":false,"rental_uris":{"android":"levelo://app?vid=8b89f175-d99c-4443-af38-c4cd2535f07b","ios":"levelo://app?vid=8b89f175-d99c-4443-af38-c4cd2535f07b"},"vehicle_type_id":"4","last_reported":1729069837,"current_range_meters":38000,"station_id":"","pricing_plan_id":"cebpf4jnsgd1na2vs0mg"},{"bike_id":"2d6988a5-ab82-4542-b232-e86503721c0a","system_id":"levelo_inurba_marseille","lat":43.29089,"lon":5.38143,"is_reserved":false,"is_disabled":false,"rental_uris":{"android":"levelo://app?vid=2d6988a5-ab82-4542-b232-e86503721c0a","ios":"levelo://app?vid=2d6988a5-ab82-4542-b232-e86503721c0a"},"vehicle_type_id":"4","last_reported":1729069837,"current_range_meters":4400,"station_id":"ce4bh512rcd13ifvqe2g","pricing_plan_id":"cebpf4jnsgd1na2vs0mg"},{"bike_id":"ac2a1f1b-2715-4439-8ded-cb0fd1c865ae","system_id":"levelo_inurba_marseille","lat":43.2958,"lon":5.37504,"is_reserved":false,"is_disabled":false,"rental_uris":{"android":"levelo://app?vid=ac2a1f1b-2715-4439-8ded-cb0fd1c865ae","ios":"levelo://app?vid=ac2a1f1b-2715-4439-8ded-cb0fd1c865ae"},"vehicle_type_id":"4","last_reported":1729069837,"current_range_meters":26800,"station_id":"ce4bgh92rcd13ifvqb50","pricing_plan_id":"cebpf4jnsgd1na2vs0mg"},{"bike_id":"17520b0e-4e2e-4480-8870-d3aa1c7e6c92","system_id":"levelo_inurba_marseille","lat":43.2867,"lon":5.36353,"is_reserved":false,"is_disabled":false,"rental_uris":{"android":"levelo://app?vid=17520b0e-4e2e-4480-8870-d3aa1c7e6c92","ios":"levelo://app?vid=17520b0e-4e2e-4480-8870-d3aa1c7e6c92"},"vehicle_type_id":"4","last_reported":1729069837,"current_range_meters":38800,"station_id":"ce4bhah2rcd13ifvqej0","pricing_plan_id":"cebpf4jnsgd1na2vs0mg"},{"bike_id":"fa7bbdc9-afbe-404d-8676-647037cc76a9","system_id":"levelo_inurba_marseille","lat":43.23192,"lon":5.35547,"is_reserved":false,"is_disabled":false,"rental_uris":{"android":"levelo://app?vid=fa7bbdc9-afbe-404d-8676-647037cc76a9","ios":"levelo://app?vid=fa7bbdc9-afbe-404d-8676-647037cc76a9"},"vehicle_type_id":"4","last_reported":1729069837,"current_range_meters":38400,"station_id":"ce4bhu92rcd13ifvqi70","pricing_plan_id":"cebpf4jnsgd1na2vs0mg"},{"bike_id":"61d830e5-d6c1-4b73-bd62-e0cd2b40f73b","system_id":"levelo_inurba_marseille","lat":43.29574,"lon":5.40019,"is_reserved":false,"is_disabled":false,"rental_uris":{"android":"levelo://app?vid=61d830e5-d6c1-4b73-bd62-e0cd2b40f73b","ios":"levelo://app?vid=61d830e5-d6c1-4b73-bd62-e0cd2b40f73b"},"vehicle_type_id":"4","last_reported":1729069837,"current_range_meters":16000,"station_id":"ce4bh312rcd13ifvqdj0","pricing_plan_id":"cebpf4jnsgd1na2vs0mg"},{"bike_id":"931ad2f4-35ea-42b5-bc1a-1fdec477398a","system_id":"levelo_inurba_marseille","lat":43.337444,"lon":5.374475,"is_reserved":false,"is_disabled":false,"rental_uris":{"android":"levelo://app?vid=931ad2f4-35ea-42b5-bc1a-1fdec477398a","ios":"levelo://app?vid=931ad2f4-35ea-42b5-bc1a-1fdec477398a"},"vehicle_type_id":"4","last_reported":1729069837,"current_range_meters":38800,"station_id":"","pricing_plan_id":"cebpf4jnsgd1na2vs0mg"},{"bike_id":"849d02bd-ad96-453c-b50d-a34f3cff1fdd","system_id":"levelo_inurba_marseille","lat":43.29719,"lon":5.37689,"is_reserved":false,"is_disabled":false,"rental_uris":{"android":"levelo://app?vid=849d02bd-ad96-453c-b50d-a34f3cff1fdd","ios":"levelo://app?vid=849d02bd-ad96-453c-b50d-a34f3cff1fdd"},"vehicle_type_id":"4","last_reported":1729069837,"current_range_meters":20800,"station_id":"ce4bgkh2rcd13ifvqbl0","pricing_plan_id":"cebpf4jnsgd1na2vs0mg"},{"bike_id":"3e498d14-236d-4efe-a951-6d90b6405e7c","system_id":"levelo_inurba_marseille","lat":43.29,"lon":5.35625,"is_reserved":false,"is_disabled":false,"rental_uris":{"android":"levelo://app?vid=3e498d14-236d-4efe-a951-6d90b6405e7c","ios":"levelo://app?vid=3e498d14-236d-4efe-a951-6d90b6405e7c"},"vehicle_type_id":"4","last_reported":1729069837,"current_range_meters":24000,"station_id":"ce4bhb92rcd13ifvqen0","pricing_plan_id":"cebpf4jnsgd1na2vs0mg"},{"bike_id":"8338ffc2-1f00-4de6-bec3-149b5c97a37e","system_id":"levelo_inurba_marseille","lat":43.29618,"lon":5.37155,"is_reserved":false,"is_disabled":false,"rental_uris":{"android":"levelo://app?vid=8338ffc2-1f00-4de6-bec3-149b5c97a37e","ios":"levelo://app?vid=8338ffc2-1f00-4de6-bec3-149b5c97a37e"},"vehicle_type_id":"4","last_reported":1729069837,"current_range_meters":35200,"station_id":"ce4bgnh2rcd13ifvqc0g","pricing_plan_id":"cebpf4jnsgd1na2vs0mg"},{"bike_id":"c8580152-7934-4bf4-afd9-cbb31c107e45","system_id":"levelo_inurba_marseille","lat":43.28492,"lon":5.38566,"is_reserved":false,"is_disabled":false,"rental_uris":{"android":"levelo://app?vid=c8580152-7934-4bf4-afd9-cbb31c107e45","ios":"levelo://app?vid=c8580152-7934-4bf4-afd9-cbb31c107e45"},"vehicle_type_id":"4","last_reported":1729069837,"current_range_meters":24800,"station_id":"ce4bh8p2rcd13ifvqeb0","pricing_plan_id":"cebpf4jnsgd1na2vs0mg"},{"bike_id":"8a4edd7a-7172-4fa2-bb77-860ca7be8e71","system_id":"levelo_inurba_marseille","lat":43.337444,"lon":5.374475,"is_reserved":false,"is_disabled":false,"rental_uris":{"android":"levelo://app?vid=8a4edd7a-7172-4fa2-bb77-860ca7be8e71","ios":"levelo://app?vid=8a4edd7a-7172-4fa2-bb77-860ca7be8e71"},"vehicle_type_id":"4","last_reported":1729069837,"current_range_meters":38800,"station_id":"ce4bhp12rcd13ifvqh9g","pricing_plan_id":"cebpf4jnsgd1na2vs0mg"},{"bike_id":"81e32d4e-df25-4349-90c7-1831752870c9","system_id":"levelo_inurba_marseille","lat":43.27948,"lon":5.41047,"is_reserved":false,"is_disabled":false,"rental_uris":{"android":"levelo://app?vid=81e32d4e-df25-4349-90c7-1831752870c9","ios":"levelo://app?vid=81e32d4e-df25-4349-90c7-1831752870c9"},"vehicle_type_id":"4","last_reported":1729069837,"current_range_meters":36000,"station_id":"ce4bhnp2rcd13ifvqh0g","pricing_plan_id":"cebpf4jnsgd1na2vs0mg"},{"bike_id":"d4db4026-39cb-4ecc-b5b7-b1b792690df0","system_id":"levelo_inurba_marseille","lat":43.304382,"lon":5.388899,"is_reserved":false,"is_disabled":false,"rental_uris":{"android":"levelo://app?vid=d4db4026-39cb-4ecc-b5b7-b1b792690df0","ios":"levelo://app?vid=d4db4026-39cb-4ecc-b5b7-b1b792690df0"},"vehicle_type_id":"4","last_reported":1729069837,"current_range_meters":38000,"station_id":"ce4bh392rcd13ifvqdl0","pricing_plan_id":"cebpf4jnsgd1na2vs0mg"},{"bike_id":"d54590d2-1290-4453-9032-b1e4b071738f","system_id":"levelo_inurba_marseille","lat":43.34139,"lon":5.40905,"is_reserved":false,"is_disabled":false,"rental_uris":{"android":"levelo://app?vid=d54590d2-1290-4453-9032-b1e4b071738f","ios":"levelo://app?vid=d54590d2-1290-4453-9032-b1e4b071738f"},"vehicle_type_id":"4","last_reported":1729069837,"current_range_meters":30000,"station_id":"ce4bhqh2rcd13ifvqhlg","pricing_plan_id":"cebpf4jnsgd1na2vs0mg"},{"bike_id":"1daf3c53-5848-4d69-95c2-1416fe25cfe9","system_id":"levelo_inurba_marseille","lat":43.306069,"lon":5.372296,"is_reserved":false,"is_disabled":false,"rental_uris":{"android":"levelo://app?vid=1daf3c53-5848-4d69-95c2-1416fe25cfe9","ios":"levelo://app?vid=1daf3c53-5848-4d69-95c2-1416fe25cfe9"},"vehicle_type_id":"4","last_reported":1729069837,"current_range_meters":27600,"station_id":"ce4bgqh2rcd13ifvqc4g","pricing_plan_id":"cebpf4jnsgd1na2vs0mg"},{"bike_id":"6a64872d-0b46-4bf5-9f81-17b58b2c555a","system_id":"levelo_inurba_marseille","lat":43.29279,"lon":5.36866,"is_reserved":false,"is_disabled":false,"rental_uris":{"android":"levelo://app?vid=6a64872d-0b46-4bf5-9f81-17b58b2c555a","ios":"levelo://app?vid=6a64872d-0b46-4bf5-9f81-17b58b2c555a"},"vehicle_type_id":"4","last_reported":1729069837,"current_range_meters":38800,"station_id":"ce4bhbp2rcd13ifvqesg","pricing_plan_id":"cebpf4jnsgd1na2vs0mg"},{"bike_id":"0defb0a8-ea0c-44b7-9194-07fec11ad3f0","system_id":"levelo_inurba_marseille","lat":43.28086,"lon":5.40712,"is_reserved":false,"is_disabled":false,"rental_uris":{"android":"levelo://app?vid=0defb0a8-ea0c-44b7-9194-07fec11ad3f0","ios":"levelo://app?vid=0defb0a8-ea0c-44b7-9194-07fec11ad3f0"},"vehicle_type_id":"4","last_reported":1729069837,"current_range_meters":28000,"station_id":"","pricing_plan_id":"cebpf4jnsgd1na2vs0mg"},{"bike_id":"5d4185c5-efd5-458a-89de-9f5bf51cb954","system_id":"levelo_inurba_marseille","lat":43.25935,"lon":5.40897,"is_reserved":false,"is_disabled":false,"rental_uris":{"android":"levelo://app?vid=5d4185c5-efd5-458a-89de-9f5bf51cb954","ios":"levelo://app?vid=5d4185c5-efd5-458a-89de-9f5bf51cb954"},"vehicle_type_id":"4","last_reported":1729069837,"current_range_meters":28400,"station_id":"ce4bhm92rcd13ifvqglg","pricing_plan_id":"cebpf4jnsgd1na2vs0mg"},{"bike_id":"93bd04d4-5a74-4e87-b0f1-e000277515a8","system_id":"levelo_inurba_marseille","lat":43.31359,"lon":5.36697,"is_reserved":false,"is_disabled":false,"rental_uris":{"android":"levelo://app?vid=93bd04d4-5a74-4e87-b0f1-e000277515a8","ios":"levelo://app?vid=93bd04d4-5a74-4e87-b0f1-e000277515a8"},"vehicle_type_id":"4","last_reported":1729069837,"current_range_meters":26800,"station_id":"ce4bgr92rcd13ifvqc6g","pricing_plan_id":"cebpf4jnsgd1na2vs0mg"},{"bike_id":"f3c1853e-8b8e-47e4-8746-d00e45b18cdc","system_id":"levelo_inurba_marseille","lat":43.32485,"lon":5.36558,"is_reserved":false,"is_disabled":false,"rental_uris":{"android":"levelo://app?vid=f3c1853e-8b8e-47e4-8746-d00e45b18cdc","ios":"levelo://app?vid=f3c1853e-8b8e-47e4-8746-d00e45b18cdc"},"vehicle_type_id":"4","last_reported":1729069837,"current_range_meters":30000,"station_id":"ce4bhs12rcd13ifvqhvg","pricing_plan_id":"cebpf4jnsgd1na2vs0mg"},{"bike_id":"5dfc93d3-302e-4df3-a158-43bc622fec93","system_id":"levelo_inurba_marseille","lat":43.29004,"lon":5.35603,"is_reserved":false,"is_disabled":false,"rental_uris":{"android":"levelo://app?vid=5dfc93d3-302e-4df3-a158-43bc622fec93","ios":"levelo://app?vid=5dfc93d3-302e-4df3-a158-43bc622fec93"},"vehicle_type_id":"4","last_reported":1729069837,"current_range_meters":32000,"station_id":"ce4bhb92rcd13ifvqen0","pricing_plan_id":"cebpf4jnsgd1na2vs0mg"},{"bike_id":"03b52a53-4015-42f1-a46b-0d68e4ef1cf1","system_id":"levelo_inurba_marseille","lat":43.30537,"lon":5.36706,"is_reserved":false,"is_disabled":false,"rental_uris":{"android":"levelo://app?vid=03b52a53-4015-42f1-a46b-0d68e4ef1cf1","ios":"levelo://app?vid=03b52a53-4015-42f1-a46b-0d68e4ef1cf1"},"vehicle_type_id":"4","last_reported":1729069837,"current_range_meters":38800,"station_id":"ce4bgrp2rcd13ifvqc9g","pricing_plan_id":"cebpf4jnsgd1na2vs0mg"},{"bike_id":"486fe526-9051-4c2d-aa93-fc36386471b3","system_id":"levelo_inurba_marseille","lat":43.2606,"lon":5.39396,"is_reserved":false,"is_disabled":false,"rental_uris":{"android":"levelo://app?vid=486fe526-9051-4c2d-aa93-fc36386471b3","ios":"levelo://app?vid=486fe526-9051-4c2d-aa93-fc36386471b3"},"vehicle_type_id":"4","last_reported":1729069837,"current_range_meters":24400,"station_id":"ce4bhh92rcd13ifvqfj0","pricing_plan_id":"cebpf4jnsgd1na2vs0mg"},{"bike_id":"447cfe1f-4fee-4142-afee-13235122a8b8","system_id":"levelo_inurba_marseille","lat":43.29004,"lon":5.3561,"is_reserved":false,"is_disabled":false,"rental_uris":{"android":"levelo://app?vid=447cfe1f-4fee-4142-afee-13235122a8b8","ios":"levelo://app?vid=447cfe1f-4fee-4142-afee-13235122a8b8"},"vehicle_type_id":"4","last_reported":1729069837,"current_range_meters":39200,"station_id":"ce4bhb92rcd13ifvqen0","pricing_plan_id":"cebpf4jnsgd1na2vs0mg"},{"bike_id":"8b8cb3c3-b8e9-49cb-8737-1ca6b1d6aab5","system_id":"levelo_inurba_marseille","lat":43.25581,"lon":5.38232,"is_reserved":false,"is_disabled":false,"rental_uris":{"android":"levelo://app?vid=8b8cb3c3-b8e9-49cb-8737-1ca6b1d6aab5","ios":"levelo://app?vid=8b8cb3c3-b8e9-49cb-8737-1ca6b1d6aab5"},"vehicle_type_id":"4","last_reported":1729069837,"current_range_meters":38800,"station_id":"ce4bhih2rcd13ifvqfs0","pricing_plan_id":"cebpf4jnsgd1na2vs0mg"},{"bike_id":"b3b76d0b-16ea-4ec2-bd27-660a8aa3d0cf","system_id":"levelo_inurba_marseille","lat":43.24383,"lon":5.37054,"is_reserved":false,"is_disabled":false,"rental_uris":{"android":"levelo://app?vid=b3b76d0b-16ea-4ec2-bd27-660a8aa3d0cf","ios":"levelo://app?vid=b3b76d0b-16ea-4ec2-bd27-660a8aa3d0cf"},"vehicle_type_id":"4","last_reported":1729069837,"current_range_meters":38000,"station_id":"ce4bhhh2rcd13ifvqfk0","pricing_plan_id":"cebpf4jnsgd1na2vs0mg"},{"bike_id":"f8930a8b-4b87-4cf1-81c8-b08c7923a59c","system_id":"levelo_inurba_marseille","lat":43.30141,"lon":5.37408,"is_reserved":false,"is_disabled":false,"rental_uris":{"android":"levelo://app?vid=f8930a8b-4b87-4cf1-81c8-b08c7923a59c","ios":"levelo://app?vid=f8930a8b-4b87-4cf1-81c8-b08c7923a59c"},"vehicle_type_id":"4","last_reported":1729069837,"current_range_meters":24400,"station_id":"ce4bgs92rcd13ifvqcc0","pricing_plan_id":"cebpf4jnsgd1na2vs0mg"},{"bike_id":"e69a34f7-c5b5-4409-96fa-65a8da5c5c7a","system_id":"levelo_inurba_marseille","lat":43.3361,"lon":5.41029,"is_reserved":false,"is_disabled":false,"rental_uris":{"android":"levelo://app?vid=e69a34f7-c5b5-4409-96fa-65a8da5c5c7a","ios":"levelo://app?vid=e69a34f7-c5b5-4409-96fa-65a8da5c5c7a"},"vehicle_type_id":"4","last_reported":1729069837,"current_range_meters":37600,"station_id":"ce4bhqh2rcd13ifvqhmg","pricing_plan_id":"cebpf4jnsgd1na2vs0mg"},{"bike_id":"93a75ee6-247e-4497-bea1-11275cbf5519","system_id":"levelo_inurba_marseille","lat":43.28975,"lon":5.378404,"is_reserved":false,"is_disabled":false,"rental_uris":{"android":"levelo://app?vid=93a75ee6-247e-4497-bea1-11275cbf5519","ios":"levelo://app?vid=93a75ee6-247e-4497-bea1-11275cbf5519"},"vehicle_type_id":"4","last_reported":1729069837,"current_range_meters":32000,"station_id":"ce4bh9p2rcd13ifvqed0","pricing_plan_id":"cebpf4jnsgd1na2vs0mg"},{"bike_id":"afda62e7-6138-4307-af67-f9d546309a98","system_id":"levelo_inurba_marseille","lat":43.27208,"lon":5.39178,"is_reserved":false,"is_disabled":false,"rental_uris":{"android":"levelo://app?vid=afda62e7-6138-4307-af67-f9d546309a98","ios":"levelo://app?vid=afda62e7-6138-4307-af67-f9d546309a98"},"vehicle_type_id":"4","last_reported":1729069837,"current_range_meters":27600,"station_id":"ce4bhhp2rcd13ifvqfm0","pricing_plan_id":"cebpf4jnsgd1na2vs0mg"},{"bike_id":"f1cb7637-d7c7-483a-a9fe-0d9ef0b3ac9b","system_id":"levelo_inurba_marseille","lat":43.32551,"lon":5.41437,"is_reserved":false,"is_disabled":false,"rental_uris":{"android":"levelo://app?vid=f1cb7637-d7c7-483a-a9fe-0d9ef0b3ac9b","ios":"levelo://app?vid=f1cb7637-d7c7-483a-a9fe-0d9ef0b3ac9b"},"vehicle_type_id":"4","last_reported":1729069837,"current_range_meters":35600,"station_id":"ce4bhq12rcd13ifvqhhg","pricing_plan_id":"cebpf4jnsgd1na2vs0mg"},{"bike_id":"a3d00d5a-741f-48cd-acd5-d6b1bea47400","system_id":"levelo_inurba_marseille","lat":43.31223,"lon":5.3685,"is_reserved":false,"is_disabled":false,"rental_uris":{"android":"levelo://app?vid=a3d00d5a-741f-48cd-acd5-d6b1bea47400","ios":"levelo://app?vid=a3d00d5a-741f-48cd-acd5-d6b1bea47400"},"vehicle_type_id":"4","last_reported":1729069837,"current_range_meters":36800,"station_id":"ce4bgl92rcd13ifvqbq0","pricing_plan_id":"cebpf4jnsgd1na2vs0mg"},{"bike_id":"0994d7f0-fa2e-480f-b967-2b1e1b476b78","system_id":"levelo_inurba_marseille","lat":43.23193,"lon":5.35564,"is_reserved":false,"is_disabled":false,"rental_uris":{"android":"levelo://app?vid=0994d7f0-fa2e-480f-b967-2b1e1b476b78","ios":"levelo://app?vid=0994d7f0-fa2e-480f-b967-2b1e1b476b78"},"vehicle_type_id":"4","last_reported":1729069837,"current_range_meters":22400,"station_id":"ce4bhu92rcd13ifvqi70","pricing_plan_id":"cebpf4jnsgd1na2vs0mg"},{"bike_id":"59605289-5b66-4123-8b91-0aff24ee5cea","system_id":"levelo_inurba_marseille","lat":43.30536,"lon":5.36542,"is_reserved":false,"is_disabled":false,"rental_uris":{"android":"levelo://app?vid=59605289-5b66-4123-8b91-0aff24ee5cea","ios":"levelo://app?vid=59605289-5b66-4123-8b91-0aff24ee5cea"},"vehicle_type_id":"4","last_reported":1729069837,"current_range_meters":24400,"station_id":"ce4bgs12rcd13ifvqcag","pricing_plan_id":"cebpf4jnsgd1na2vs0mg"},{"bike_id":"66ccc46d-618e-4760-b09c-27382152bdab","system_id":"levelo_inurba_marseille","lat":43.23205,"lon":5.35538,"is_reserved":false,"is_disabled":false,"rental_uris":{"android":"levelo://app?vid=66ccc46d-618e-4760-b09c-27382152bdab","ios":"levelo://app?vid=66ccc46d-618e-4760-b09c-27382152bdab"},"vehicle_type_id":"4","last_reported":1729069837,"current_range_meters":38000,"station_id":"ce4bhu92rcd13ifvqi70","pricing_plan_id":"cebpf4jnsgd1na2vs0mg"},{"bike_id":"8a331acc-70d9-496a-b0bc-87f49792f9b4","system_id":"levelo_inurba_marseille","lat":43.24165,"lon":5.364,"is_reserved":false,"is_disabled":false,"rental_uris":{"android":"levelo://app?vid=8a331acc-70d9-496a-b0bc-87f49792f9b4","ios":"levelo://app?vid=8a331acc-70d9-496a-b0bc-87f49792f9b4"},"vehicle_type_id":"4","last_reported":1729069837,"current_range_meters":24800,"station_id":"cpo36qri1sfpv3e86is0","pricing_plan_id":"cebpf4jnsgd1na2vs0mg"},{"bike_id":"a8c6dcbb-71df-4d01-9f13-286e6119c0fd","system_id":"levelo_inurba_marseille","lat":43.23152,"lon":5.43721,"is_reserved":false,"is_disabled":false,"rental_uris":{"android":"levelo://app?vid=a8c6dcbb-71df-4d01-9f13-286e6119c0fd","ios":"levelo://app?vid=a8c6dcbb-71df-4d01-9f13-286e6119c0fd"},"vehicle_type_id":"4","last_reported":1729069837,"current_range_meters":38800,"station_id":"ce4bhmp2rcd13ifvqgog","pricing_plan_id":"cebpf4jnsgd1na2vs0mg"},{"bike_id":"d3fb0f69-8124-45ee-a057-d8d044cc62bb","system_id":"levelo_inurba_marseille","lat":43.27814,"lon":5.40731,"is_reserved":false,"is_disabled":false,"rental_uris":{"android":"levelo://app?vid=d3fb0f69-8124-45ee-a057-d8d044cc62bb","ios":"levelo://app?vid=d3fb0f69-8124-45ee-a057-d8d044cc62bb"},"vehicle_type_id":"4","last_reported":1729069837,"current_range_meters":30000,"station_id":"ce4bhnh2rcd13ifvqgtg","pricing_plan_id":"cebpf4jnsgd1na2vs0mg"},{"bike_id":"08e24e63-f1d6-4132-aba3-61f9dfaab35b","system_id":"levelo_inurba_marseille","lat":43.26679,"lon":5.38267,"is_reserved":false,"is_disabled":false,"rental_uris":{"android":"levelo://app?vid=08e24e63-f1d6-4132-aba3-61f9dfaab35b","ios":"levelo://app?vid=08e24e63-f1d6-4132-aba3-61f9dfaab35b"},"vehicle_type_id":"4","last_reported":1729069837,"current_range_meters":39200,"station_id":"ce4bhg92rcd13ifvqf90","pricing_plan_id":"cebpf4jnsgd1na2vs0mg"},{"bike_id":"93b5f919-be34-493f-9540-17c698e19685","system_id":"levelo_inurba_marseille","lat":43.26681,"lon":5.38268,"is_reserved":false,"is_disabled":false,"rental_uris":{"android":"levelo://app?vid=93b5f919-be34-493f-9540-17c698e19685","ios":"levelo://app?vid=93b5f919-be34-493f-9540-17c698e19685"},"vehicle_type_id":"4","last_reported":1729069837,"current_range_meters":39200,"station_id":"ce4bhg92rcd13ifvqf90","pricing_plan_id":"cebpf4jnsgd1na2vs0mg"},{"bike_id":"f1b6ea50-4248-4443-99da-6864aa91a7c3","system_id":"levelo_inurba_marseille","lat":43.26679,"lon":5.38272,"is_reserved":false,"is_disabled":false,"rental_uris":{"android":"levelo://app?vid=f1b6ea50-4248-4443-99da-6864aa91a7c3","ios":"levelo://app?vid=f1b6ea50-4248-4443-99da-6864aa91a7c3"},"vehicle_type_id":"4","last_reported":1729069837,"current_range_meters":36000,"station_id":"ce4bhg92rcd13ifvqf90","pricing_plan_id":"cebpf4jnsgd1na2vs0mg"},{"bike_id":"fedfba0a-b4f3-4f95-a54e-e2a24bff2a5c","system_id":"levelo_inurba_marseille","lat":43.32536,"lon":5.41448,"is_reserved":false,"is_disabled":false,"rental_uris":{"android":"levelo://app?vid=fedfba0a-b4f3-4f95-a54e-e2a24bff2a5c","ios":"levelo://app?vid=fedfba0a-b4f3-4f95-a54e-e2a24bff2a5c"},"vehicle_type_id":"4","last_reported":1729069837,"current_range_meters":29600,"station_id":"ce4bhq12rcd13ifvqhhg","pricing_plan_id":"cebpf4jnsgd1na2vs0mg"},{"bike_id":"1e69292e-e3fe-4906-9ca6-103259c9e5f0","system_id":"levelo_inurba_marseille","lat":43.305542,"lon":5.367278,"is_reserved":false,"is_disabled":false,"rental_uris":{"android":"levelo://app?vid=1e69292e-e3fe-4906-9ca6-103259c9e5f0","ios":"levelo://app?vid=1e69292e-e3fe-4906-9ca6-103259c9e5f0"},"vehicle_type_id":"4","last_reported":1729069837,"current_range_meters":10000,"station_id":"ce4bgrp2rcd13ifvqc9g","pricing_plan_id":"cebpf4jnsgd1na2vs0mg"},{"bike_id":"6300df2c-b9fe-4275-916d-dd75e59140c9","system_id":"levelo_inurba_marseille","lat":43.23195,"lon":5.35543,"is_reserved":false,"is_disabled":false,"rental_uris":{"android":"levelo://app?vid=6300df2c-b9fe-4275-916d-dd75e59140c9","ios":"levelo://app?vid=6300df2c-b9fe-4275-916d-dd75e59140c9"},"vehicle_type_id":"4","last_reported":1729069837,"current_range_meters":38400,"station_id":"ce4bhu92rcd13ifvqi70","pricing_plan_id":"cebpf4jnsgd1na2vs0mg"},{"bike_id":"bcb1566e-d9e0-4155-bf2b-fe496b670bdc","system_id":"levelo_inurba_marseille","lat":43.2749,"lon":5.42463,"is_reserved":false,"is_disabled":false,"rental_uris":{"android":"levelo://app?vid=bcb1566e-d9e0-4155-bf2b-fe496b670bdc","ios":"levelo://app?vid=bcb1566e-d9e0-4155-bf2b-fe496b670bdc"},"vehicle_type_id":"4","last_reported":1729069837,"current_range_meters":27600,"station_id":"ce4bhn92rcd13ifvqgrg","pricing_plan_id":"cebpf4jnsgd1na2vs0mg"},{"bike_id":"306d10a5-6d20-40b0-86cc-e97e65bfb51c","system_id":"levelo_inurba_marseille","lat":43.29586,"lon":5.36736,"is_reserved":false,"is_disabled":false,"rental_uris":{"android":"levelo://app?vid=306d10a5-6d20-40b0-86cc-e97e65bfb51c","ios":"levelo://app?vid=306d10a5-6d20-40b0-86cc-e97e65bfb51c"},"vehicle_type_id":"4","last_reported":1729069837,"current_range_meters":38400,"station_id":"ce4bgph2rcd13ifvqc2g","pricing_plan_id":"cebpf4jnsgd1na2vs0mg"},{"bike_id":"c3b06c3d-34b1-47dc-9b6b-0037d01e325e","system_id":"levelo_inurba_marseille","lat":43.27321,"lon":5.39071,"is_reserved":false,"is_disabled":false,"rental_uris":{"android":"levelo://app?vid=c3b06c3d-34b1-47dc-9b6b-0037d01e325e","ios":"levelo://app?vid=c3b06c3d-34b1-47dc-9b6b-0037d01e325e"},"vehicle_type_id":"4","last_reported":1729069837,"current_range_meters":16800,"station_id":"ce4bhgp2rcd13ifvqfe0","pricing_plan_id":"cebpf4jnsgd1na2vs0mg"},{"bike_id":"c3a2e888-a8b9-4ee1-b7d3-71b15869978f","system_id":"levelo_inurba_marseille","lat":43.23963,"lon":5.36634,"is_reserved":false,"is_disabled":false,"rental_uris":{"android":"levelo://app?vid=c3a2e888-a8b9-4ee1-b7d3-71b15869978f","ios":"levelo://app?vid=c3a2e888-a8b9-4ee1-b7d3-71b15869978f"},"vehicle_type_id":"4","last_reported":1729069837,"current_range_meters":38800,"station_id":"ce4bhi12rcd13ifvqfp0","pricing_plan_id":"cebpf4jnsgd1na2vs0mg"},{"bike_id":"e3b7dbfb-6f30-458b-b4dc-782770dde0e4","system_id":"levelo_inurba_marseille","lat":43.32485,"lon":5.3657,"is_reserved":false,"is_disabled":false,"rental_uris":{"android":"levelo://app?vid=e3b7dbfb-6f30-458b-b4dc-782770dde0e4","ios":"levelo://app?vid=e3b7dbfb-6f30-458b-b4dc-782770dde0e4"},"vehicle_type_id":"4","last_reported":1729069837,"current_range_meters":19200,"station_id":"ce4bhs12rcd13ifvqhvg","pricing_plan_id":"cebpf4jnsgd1na2vs0mg"},{"bike_id":"a93dc31e-a800-44ef-b256-21cfd90b8102","system_id":"levelo_inurba_marseille","lat":43.25933,"lon":5.40907,"is_reserved":false,"is_disabled":false,"rental_uris":{"android":"levelo://app?vid=a93dc31e-a800-44ef-b256-21cfd90b8102","ios":"levelo://app?vid=a93dc31e-a800-44ef-b256-21cfd90b8102"},"vehicle_type_id":"4","last_reported":1729069837,"current_range_meters":8000,"station_id":"ce4bhm92rcd13ifvqglg","pricing_plan_id":"cebpf4jnsgd1na2vs0mg"},{"bike_id":"b8ad9f26-20fa-4bcd-8a1e-a23514a1f95f","system_id":"levelo_inurba_marseille","lat":43.3088,"lon":5.39655,"is_reserved":false,"is_disabled":false,"rental_uris":{"android":"levelo://app?vid=b8ad9f26-20fa-4bcd-8a1e-a23514a1f95f","ios":"levelo://app?vid=b8ad9f26-20fa-4bcd-8a1e-a23514a1f95f"},"vehicle_type_id":"4","last_reported":1729069837,"current_range_meters":20800,"station_id":"ce4bh012rcd13ifvqcv0","pricing_plan_id":"cebpf4jnsgd1na2vs0mg"},{"bike_id":"16714fb4-502d-4ce7-b9d4-92f88dba865c","system_id":"levelo_inurba_marseille","lat":43.32536,"lon":5.41428,"is_reserved":false,"is_disabled":false,"rental_uris":{"android":"levelo://app?vid=16714fb4-502d-4ce7-b9d4-92f88dba865c","ios":"levelo://app?vid=16714fb4-502d-4ce7-b9d4-92f88dba865c"},"vehicle_type_id":"4","last_reported":1729069837,"current_range_meters":22800,"station_id":"ce4bhq12rcd13ifvqhhg","pricing_plan_id":"cebpf4jnsgd1na2vs0mg"},{"bike_id":"3b84f528-bdad-40eb-9c45-0619e777b33d","system_id":"levelo_inurba_marseille","lat":43.30419,"lon":5.39747,"is_reserved":false,"is_disabled":false,"rental_uris":{"android":"levelo://app?vid=3b84f528-bdad-40eb-9c45-0619e777b33d","ios":"levelo://app?vid=3b84f528-bdad-40eb-9c45-0619e777b33d"},"vehicle_type_id":"4","last_reported":1729069837,"current_range_meters":34800,"station_id":"ce4bh092rcd13ifvqd20","pricing_plan_id":"cebpf4jnsgd1na2vs0mg"},{"bike_id":"b1e33b2b-ef78-4531-a036-7e92403f8948","system_id":"levelo_inurba_marseille","lat":43.30323,"lon":5.40438,"is_reserved":false,"is_disabled":false,"rental_uris":{"android":"levelo://app?vid=b1e33b2b-ef78-4531-a036-7e92403f8948","ios":"levelo://app?vid=b1e33b2b-ef78-4531-a036-7e92403f8948"},"vehicle_type_id":"4","last_reported":1729069837,"current_range_meters":14400,"station_id":"ce4bh012rcd13ifvqd10","pricing_plan_id":"cebpf4jnsgd1na2vs0mg"},{"bike_id":"1f07388f-e733-46c3-a158-d25313af563d","system_id":"levelo_inurba_marseille","lat":43.30429,"lon":5.39757,"is_reserved":false,"is_disabled":false,"rental_uris":{"android":"levelo://app?vid=1f07388f-e733-46c3-a158-d25313af563d","ios":"levelo://app?vid=1f07388f-e733-46c3-a158-d25313af563d"},"vehicle_type_id":"4","last_reported":1729069837,"current_range_meters":22000,"station_id":"ce4bh092rcd13ifvqd20","pricing_plan_id":"cebpf4jnsgd1na2vs0mg"},{"bike_id":"751cceb0-79d4-438e-9734-8d323f0f4abd","system_id":"levelo_inurba_marseille","lat":43.24176,"lon":5.39734,"is_reserved":false,"is_disabled":false,"rental_uris":{"android":"levelo://app?vid=751cceb0-79d4-438e-9734-8d323f0f4abd","ios":"levelo://app?vid=751cceb0-79d4-438e-9734-8d323f0f4abd"},"vehicle_type_id":"4","last_reported":1729069837,"current_range_meters":8400,"station_id":"ce4bhn12rcd13ifvqgpg","pricing_plan_id":"cebpf4jnsgd1na2vs0mg"},{"bike_id":"fa2949d0-b61f-4704-8f01-df6c7c877210","system_id":"levelo_inurba_marseille","lat":43.34139,"lon":5.40902,"is_reserved":false,"is_disabled":false,"rental_uris":{"android":"levelo://app?vid=fa2949d0-b61f-4704-8f01-df6c7c877210","ios":"levelo://app?vid=fa2949d0-b61f-4704-8f01-df6c7c877210"},"vehicle_type_id":"4","last_reported":1729069837,"current_range_meters":38800,"station_id":"ce4bhqh2rcd13ifvqhlg","pricing_plan_id":"cebpf4jnsgd1na2vs0mg"},{"bike_id":"2140b6a3-5118-4150-823e-9225aeb56201","system_id":"levelo_inurba_marseille","lat":43.232,"lon":5.35548,"is_reserved":false,"is_disabled":false,"rental_uris":{"android":"levelo://app?vid=2140b6a3-5118-4150-823e-9225aeb56201","ios":"levelo://app?vid=2140b6a3-5118-4150-823e-9225aeb56201"},"vehicle_type_id":"4","last_reported":1729069837,"current_range_meters":4000,"station_id":"ce4bhu92rcd13ifvqi70","pricing_plan_id":"cebpf4jnsgd1na2vs0mg"},{"bike_id":"4f4c8e62-9261-4250-bd7d-86154e790dfb","system_id":"levelo_inurba_marseille","lat":43.29272,"lon":5.40126,"is_reserved":false,"is_disabled":false,"rental_uris":{"android":"levelo://app?vid=4f4c8e62-9261-4250-bd7d-86154e790dfb","ios":"levelo://app?vid=4f4c8e62-9261-4250-bd7d-86154e790dfb"},"vehicle_type_id":"4","last_reported":1729069837,"current_range_meters":32000,"station_id":"ce4bh312rcd13ifvqdk0","pricing_plan_id":"cebpf4jnsgd1na2vs0mg"},{"bike_id":"4edbfecc-8636-4466-b17b-4a509be3b0f5","system_id":"levelo_inurba_marseille","lat":43.27944,"lon":5.41051,"is_reserved":false,"is_disabled":false,"rental_uris":{"android":"levelo://app?vid=4edbfecc-8636-4466-b17b-4a509be3b0f5","ios":"levelo://app?vid=4edbfecc-8636-4466-b17b-4a509be3b0f5"},"vehicle_type_id":"4","last_reported":1729069837,"current_range_meters":30400,"station_id":"ce4bhnp2rcd13ifvqh0g","pricing_plan_id":"cebpf4jnsgd1na2vs0mg"},{"bike_id":"a310484e-bff7-45c6-a75a-02549d194aef","system_id":"levelo_inurba_marseille","lat":43.30534,"lon":5.3654,"is_reserved":false,"is_disabled":false,"rental_uris":{"android":"levelo://app?vid=a310484e-bff7-45c6-a75a-02549d194aef","ios":"levelo://app?vid=a310484e-bff7-45c6-a75a-02549d194aef"},"vehicle_type_id":"4","last_reported":1729069837,"current_range_meters":20800,"station_id":"ce4bgs12rcd13ifvqcag","pricing_plan_id":"cebpf4jnsgd1na2vs0mg"},{"bike_id":"20398fde-6335-4cd3-8565-959901f8bf85","system_id":"levelo_inurba_marseille","lat":43.28359,"lon":5.38632,"is_reserved":false,"is_disabled":false,"rental_uris":{"android":"levelo://app?vid=20398fde-6335-4cd3-8565-959901f8bf85","ios":"levelo://app?vid=20398fde-6335-4cd3-8565-959901f8bf85"},"vehicle_type_id":"4","last_reported":1729069837,"current_range_meters":30800,"station_id":"ce4bh492rcd13ifvqdvg","pricing_plan_id":"cebpf4jnsgd1na2vs0mg"},{"bike_id":"efe9840c-8fb2-4e9f-845d-e5b20acfb757","system_id":"levelo_inurba_marseille","lat":43.23158,"lon":5.43699,"is_reserved":false,"is_disabled":false,"rental_uris":{"android":"levelo://app?vid=efe9840c-8fb2-4e9f-845d-e5b20acfb757","ios":"levelo://app?vid=efe9840c-8fb2-4e9f-845d-e5b20acfb757"},"vehicle_type_id":"4","last_reported":1729069837,"current_range_meters":9200,"station_id":"ce4bhmp2rcd13ifvqgog","pricing_plan_id":"cebpf4jnsgd1na2vs0mg"},{"bike_id":"52e37773-79c6-4443-94d6-5ed359faaaf0","system_id":"levelo_inurba_marseille","lat":43.30279,"lon":5.37703,"is_reserved":false,"is_disabled":false,"rental_uris":{"android":"levelo://app?vid=52e37773-79c6-4443-94d6-5ed359faaaf0","ios":"levelo://app?vid=52e37773-79c6-4443-94d6-5ed359faaaf0"},"vehicle_type_id":"4","last_reported":1729069837,"current_range_meters":8000,"station_id":"ce4bguh2rcd13ifvqcj0","pricing_plan_id":"cebpf4jnsgd1na2vs0mg"},{"bike_id":"fe0ed97f-0597-4aef-86e2-d5d073ff43d3","system_id":"levelo_inurba_marseille","lat":43.29553,"lon":5.42273,"is_reserved":false,"is_disabled":false,"rental_uris":{"android":"levelo://app?vid=fe0ed97f-0597-4aef-86e2-d5d073ff43d3","ios":"levelo://app?vid=fe0ed97f-0597-4aef-86e2-d5d073ff43d3"},"vehicle_type_id":"4","last_reported":1729069837,"current_range_meters":38000,"station_id":"ce4bhph2rcd13ifvqhdg","pricing_plan_id":"cebpf4jnsgd1na2vs0mg"},{"bike_id":"25cb8ec2-1ba1-4361-a0d8-34d3dff9720b","system_id":"levelo_inurba_marseille","lat":43.23154,"lon":5.43703,"is_reserved":false,"is_disabled":false,"rental_uris":{"android":"levelo://app?vid=25cb8ec2-1ba1-4361-a0d8-34d3dff9720b","ios":"levelo://app?vid=25cb8ec2-1ba1-4361-a0d8-34d3dff9720b"},"vehicle_type_id":"4","last_reported":1729069837,"current_range_meters":15200,"station_id":"ce4bhmp2rcd13ifvqgog","pricing_plan_id":"cebpf4jnsgd1na2vs0mg"},{"bike_id":"97508b92-4548-4bc3-8d90-c63f406852d1","system_id":"levelo_inurba_marseille","lat":43.27991,"lon":5.41653,"is_reserved":false,"is_disabled":false,"rental_uris":{"android":"levelo://app?vid=97508b92-4548-4bc3-8d90-c63f406852d1","ios":"levelo://app?vid=97508b92-4548-4bc3-8d90-c63f406852d1"},"vehicle_type_id":"4","last_reported":1729069837,"current_range_meters":38000,"station_id":"ce4bho12rcd13ifvqh1g","pricing_plan_id":"cebpf4jnsgd1na2vs0mg"},{"bike_id":"a1c7764f-d0cb-4074-95ed-904f97a4d6fe","system_id":"levelo_inurba_marseille","lat":43.24075,"lon":5.37748,"is_reserved":false,"is_disabled":false,"rental_uris":{"android":"levelo://app?vid=a1c7764f-d0cb-4074-95ed-904f97a4d6fe","ios":"levelo://app?vid=a1c7764f-d0cb-4074-95ed-904f97a4d6fe"},"vehicle_type_id":"4","last_reported":1729069837,"current_range_meters":27600,"station_id":"ce4bhnp2rcd13ifvqgvg","pricing_plan_id":"cebpf4jnsgd1na2vs0mg"},{"bike_id":"c46427c8-1df2-45b2-8a56-68703623f483","system_id":"levelo_inurba_marseille","lat":43.26064,"lon":5.39396,"is_reserved":false,"is_disabled":false,"rental_uris":{"android":"levelo://app?vid=c46427c8-1df2-45b2-8a56-68703623f483","ios":"levelo://app?vid=c46427c8-1df2-45b2-8a56-68703623f483"},"vehicle_type_id":"4","last_reported":1729069837,"current_range_meters":38400,"station_id":"ce4bhh92rcd13ifvqfj0","pricing_plan_id":"cebpf4jnsgd1na2vs0mg"},{"bike_id":"7062fee6-b1b5-4105-ba72-7ff8e0c04a3a","system_id":"levelo_inurba_marseille","lat":43.3248,"lon":5.36562,"is_reserved":false,"is_disabled":false,"rental_uris":{"android":"levelo://app?vid=7062fee6-b1b5-4105-ba72-7ff8e0c04a3a","ios":"levelo://app?vid=7062fee6-b1b5-4105-ba72-7ff8e0c04a3a"},"vehicle_type_id":"4","last_reported":1729069837,"current_range_meters":34000,"station_id":"ce4bhs12rcd13ifvqhvg","pricing_plan_id":"cebpf4jnsgd1na2vs0mg"},{"bike_id":"8cb8794b-fc64-4ce9-b434-8942818c8fb2","system_id":"levelo_inurba_marseille","lat":43.24383,"lon":5.37057,"is_reserved":false,"is_disabled":false,"rental_uris":{"android":"levelo://app?vid=8cb8794b-fc64-4ce9-b434-8942818c8fb2","ios":"levelo://app?vid=8cb8794b-fc64-4ce9-b434-8942818c8fb2"},"vehicle_type_id":"4","last_reported":1729069837,"current_range_meters":36400,"station_id":"ce4bhhh2rcd13ifvqfk0","pricing_plan_id":"cebpf4jnsgd1na2vs0mg"},{"bike_id":"3213665e-989c-4d22-9f5a-31c8522597dd","system_id":"levelo_inurba_marseille","lat":43.296,"lon":5.36142,"is_reserved":false,"is_disabled":false,"rental_uris":{"android":"levelo://app?vid=3213665e-989c-4d22-9f5a-31c8522597dd","ios":"levelo://app?vid=3213665e-989c-4d22-9f5a-31c8522597dd"},"vehicle_type_id":"4","last_reported":1729069837,"current_range_meters":33600,"station_id":"","pricing_plan_id":"cebpf4jnsgd1na2vs0mg"},{"bike_id":"6cbf131e-6dd9-46eb-aecd-f22189cabc6f","system_id":"levelo_inurba_marseille","lat":43.26791,"lon":5.39417,"is_reserved":false,"is_disabled":false,"rental_uris":{"android":"levelo://app?vid=6cbf131e-6dd9-46eb-aecd-f22189cabc6f","ios":"levelo://app?vid=6cbf131e-6dd9-46eb-aecd-f22189cabc6f"},"vehicle_type_id":"4","last_reported":1729069837,"current_range_meters":37600,"station_id":"ce4bhh12rcd13ifvqfg0","pricing_plan_id":"cebpf4jnsgd1na2vs0mg"},{"bike_id":"3ecda465-3f44-4acb-b6ec-0dd71866866a","system_id":"levelo_inurba_marseille","lat":43.30887,"lon":5.36868,"is_reserved":false,"is_disabled":false,"rental_uris":{"android":"levelo://app?vid=3ecda465-3f44-4acb-b6ec-0dd71866866a","ios":"levelo://app?vid=3ecda465-3f44-4acb-b6ec-0dd71866866a"},"vehicle_type_id":"4","last_reported":1729069837,"current_range_meters":30400,"station_id":"ce4bgn92rcd13ifvqbvg","pricing_plan_id":"cebpf4jnsgd1na2vs0mg"},{"bike_id":"1641b826-604a-4181-8231-dca386f637a6","system_id":"levelo_inurba_marseille","lat":43.23198,"lon":5.35556,"is_reserved":false,"is_disabled":false,"rental_uris":{"android":"levelo://app?vid=1641b826-604a-4181-8231-dca386f637a6","ios":"levelo://app?vid=1641b826-604a-4181-8231-dca386f637a6"},"vehicle_type_id":"4","last_reported":1729069837,"current_range_meters":38000,"station_id":"ce4bhu92rcd13ifvqi70","pricing_plan_id":"cebpf4jnsgd1na2vs0mg"},{"bike_id":"89211ee2-076f-4df3-92bd-cd8885f2e76d","system_id":"levelo_inurba_marseille","lat":43.23193,"lon":5.35556,"is_reserved":false,"is_disabled":false,"rental_uris":{"android":"levelo://app?vid=89211ee2-076f-4df3-92bd-cd8885f2e76d","ios":"levelo://app?vid=89211ee2-076f-4df3-92bd-cd8885f2e76d"},"vehicle_type_id":"4","last_reported":1729069837,"current_range_meters":38000,"station_id":"ce4bhu92rcd13ifvqi70","pricing_plan_id":"cebpf4jnsgd1na2vs0mg"},{"bike_id":"90f80907-e0d5-4716-a7d8-45b2c2640b01","system_id":"levelo_inurba_marseille","lat":43.2315,"lon":5.43709,"is_reserved":false,"is_disabled":false,"rental_uris":{"android":"levelo://app?vid=90f80907-e0d5-4716-a7d8-45b2c2640b01","ios":"levelo://app?vid=90f80907-e0d5-4716-a7d8-45b2c2640b01"},"vehicle_type_id":"4","last_reported":1729069837,"current_range_meters":38800,"station_id":"ce4bhmp2rcd13ifvqgog","pricing_plan_id":"cebpf4jnsgd1na2vs0mg"},{"bike_id":"5474f8db-e990-4ba9-8169-550431d66130","system_id":"levelo_inurba_marseille","lat":43.29791,"lon":5.3934,"is_reserved":false,"is_disabled":false,"rental_uris":{"android":"levelo://app?vid=5474f8db-e990-4ba9-8169-550431d66130","ios":"levelo://app?vid=5474f8db-e990-4ba9-8169-550431d66130"},"vehicle_type_id":"4","last_reported":1729069837,"current_range_meters":21600,"station_id":"chh1huq6cuj3fo74tm60","pricing_plan_id":"cebpf4jnsgd1na2vs0mg"},{"bike_id":"975adece-daeb-433e-b5fe-8997a00f0604","system_id":"levelo_inurba_marseille","lat":43.33022,"lon":5.3905,"is_reserved":false,"is_disabled":false,"rental_uris":{"android":"levelo://app?vid=975adece-daeb-433e-b5fe-8997a00f0604","ios":"levelo://app?vid=975adece-daeb-433e-b5fe-8997a00f0604"},"vehicle_type_id":"4","last_reported":1729069837,"current_range_meters":32000,"station_id":"ce4bhr92rcd13ifvqhrg","pricing_plan_id":"cebpf4jnsgd1na2vs0mg"},{"bike_id":"7c5f840d-ee91-49f8-abf1-6481edcbe346","system_id":"levelo_inurba_marseille","lat":43.23152,"lon":5.43701,"is_reserved":false,"is_disabled":false,"rental_uris":{"android":"levelo://app?vid=7c5f840d-ee91-49f8-abf1-6481edcbe346","ios":"levelo://app?vid=7c5f840d-ee91-49f8-abf1-6481edcbe346"},"vehicle_type_id":"4","last_reported":1729069837,"current_range_meters":28400,"station_id":"ce4bhmp2rcd13ifvqgog","pricing_plan_id":"cebpf4jnsgd1na2vs0mg"},{"bike_id":"e2983445-7c02-447e-943c-d5a863c08ae0","system_id":"levelo_inurba_marseille","lat":43.29441,"lon":5.39751,"is_reserved":false,"is_disabled":false,"rental_uris":{"android":"levelo://app?vid=e2983445-7c02-447e-943c-d5a863c08ae0","ios":"levelo://app?vid=e2983445-7c02-447e-943c-d5a863c08ae0"},"vehicle_type_id":"4","last_reported":1729069837,"current_range_meters":16000,"station_id":"ce4bh3h2rcd13ifvqdo0","pricing_plan_id":"cebpf4jnsgd1na2vs0mg"},{"bike_id":"02af67c6-7c68-4559-a056-7404a067af01","system_id":"levelo_inurba_marseille","lat":43.33025,"lon":5.3904,"is_reserved":false,"is_disabled":false,"rental_uris":{"android":"levelo://app?vid=02af67c6-7c68-4559-a056-7404a067af01","ios":"levelo://app?vid=02af67c6-7c68-4559-a056-7404a067af01"},"vehicle_type_id":"4","last_reported":1729069837,"current_range_meters":28800,"station_id":"ce4bhr92rcd13ifvqhrg","pricing_plan_id":"cebpf4jnsgd1na2vs0mg"},{"bike_id":"7bd2624d-90da-46b1-a041-400b3ff0ca18","system_id":"levelo_inurba_marseille","lat":43.30141,"lon":5.37405,"is_reserved":false,"is_disabled":false,"rental_uris":{"android":"levelo://app?vid=7bd2624d-90da-46b1-a041-400b3ff0ca18","ios":"levelo://app?vid=7bd2624d-90da-46b1-a041-400b3ff0ca18"},"vehicle_type_id":"4","last_reported":1729069837,"current_range_meters":38800,"station_id":"ce4bgs92rcd13ifvqcc0","pricing_plan_id":"cebpf4jnsgd1na2vs0mg"},{"bike_id":"d75fb9fc-f2d5-478a-97ac-5eadd2a793ac","system_id":"levelo_inurba_marseille","lat":43.31218,"lon":5.36861,"is_reserved":false,"is_disabled":false,"rental_uris":{"android":"levelo://app?vid=d75fb9fc-f2d5-478a-97ac-5eadd2a793ac","ios":"levelo://app?vid=d75fb9fc-f2d5-478a-97ac-5eadd2a793ac"},"vehicle_type_id":"4","last_reported":1729069837,"current_range_meters":19200,"station_id":"ce4bgl92rcd13ifvqbq0","pricing_plan_id":"cebpf4jnsgd1na2vs0mg"},{"bike_id":"c50f4a7e-fd65-47a3-a2a5-a8742f16687c","system_id":"levelo_inurba_marseille","lat":43.28153,"lon":5.4264,"is_reserved":false,"is_disabled":false,"rental_uris":{"android":"levelo://app?vid=c50f4a7e-fd65-47a3-a2a5-a8742f16687c","ios":"levelo://app?vid=c50f4a7e-fd65-47a3-a2a5-a8742f16687c"},"vehicle_type_id":"4","last_reported":1729069837,"current_range_meters":33200,"station_id":"ce4bhnh2rcd13ifvqgug","pricing_plan_id":"cebpf4jnsgd1na2vs0mg"},{"bike_id":"8e3963b6-8131-4c1e-b4d2-add46d4dfbf9","system_id":"levelo_inurba_marseille","lat":43.30306,"lon":5.36897,"is_reserved":false,"is_disabled":false,"rental_uris":{"android":"levelo://app?vid=8e3963b6-8131-4c1e-b4d2-add46d4dfbf9","ios":"levelo://app?vid=8e3963b6-8131-4c1e-b4d2-add46d4dfbf9"},"vehicle_type_id":"4","last_reported":1729069837,"current_range_meters":19600,"station_id":"ce4bgqh2rcd13ifvqc5g","pricing_plan_id":"cebpf4jnsgd1na2vs0mg"},{"bike_id":"e44ce23a-950e-445b-89f1-717d9e4dcde1","system_id":"levelo_inurba_marseille","lat":43.27204,"lon":5.3919,"is_reserved":false,"is_disabled":false,"rental_uris":{"android":"levelo://app?vid=e44ce23a-950e-445b-89f1-717d9e4dcde1","ios":"levelo://app?vid=e44ce23a-950e-445b-89f1-717d9e4dcde1"},"vehicle_type_id":"4","last_reported":1729069837,"current_range_meters":38400,"station_id":"ce4bhhp2rcd13ifvqfm0","pricing_plan_id":"cebpf4jnsgd1na2vs0mg"},{"bike_id":"c033bbb6-14b8-4f3f-87f4-b86ea3c83a69","system_id":"levelo_inurba_marseille","lat":43.27206,"lon":5.39189,"is_reserved":false,"is_disabled":false,"rental_uris":{"android":"levelo://app?vid=c033bbb6-14b8-4f3f-87f4-b86ea3c83a69","ios":"levelo://app?vid=c033bbb6-14b8-4f3f-87f4-b86ea3c83a69"},"vehicle_type_id":"4","last_reported":1729069837,"current_range_meters":32400,"station_id":"ce4bhhp2rcd13ifvqfm0","pricing_plan_id":"cebpf4jnsgd1na2vs0mg"},{"bike_id":"87dde795-a848-4abe-8563-92325ec050f2","system_id":"levelo_inurba_marseille","lat":43.3054,"lon":5.36534,"is_reserved":false,"is_disabled":false,"rental_uris":{"android":"levelo://app?vid=87dde795-a848-4abe-8563-92325ec050f2","ios":"levelo://app?vid=87dde795-a848-4abe-8563-92325ec050f2"},"vehicle_type_id":"4","last_reported":1729069837,"current_range_meters":9200,"station_id":"ce4bgs12rcd13ifvqcag","pricing_plan_id":"cebpf4jnsgd1na2vs0mg"},{"bike_id":"87440bd7-4730-412f-b52f-03b263c3d6ba","system_id":"levelo_inurba_marseille","lat":43.23191,"lon":5.35554,"is_reserved":false,"is_disabled":false,"rental_uris":{"android":"levelo://app?vid=87440bd7-4730-412f-b52f-03b263c3d6ba","ios":"levelo://app?vid=87440bd7-4730-412f-b52f-03b263c3d6ba"},"vehicle_type_id":"4","last_reported":1729069837,"current_range_meters":25200,"station_id":"ce4bhu92rcd13ifvqi70","pricing_plan_id":"cebpf4jnsgd1na2vs0mg"},{"bike_id":"1e6de057-fb8d-42a3-b0db-217a6b02e10f","system_id":"levelo_inurba_marseille","lat":43.24072,"lon":5.37754,"is_reserved":false,"is_disabled":false,"rental_uris":{"android":"levelo://app?vid=1e6de057-fb8d-42a3-b0db-217a6b02e10f","ios":"levelo://app?vid=1e6de057-fb8d-42a3-b0db-217a6b02e10f"},"vehicle_type_id":"4","last_reported":1729069837,"current_range_meters":27200,"station_id":"ce4bhnp2rcd13ifvqgvg","pricing_plan_id":"cebpf4jnsgd1na2vs0mg"},{"bike_id":"7484c344-debf-4edc-af17-e722b5059f6c","system_id":"levelo_inurba_marseille","lat":43.3374,"lon":5.37473,"is_reserved":false,"is_disabled":false,"rental_uris":{"android":"levelo://app?vid=7484c344-debf-4edc-af17-e722b5059f6c","ios":"levelo://app?vid=7484c344-debf-4edc-af17-e722b5059f6c"},"vehicle_type_id":"4","last_reported":1729069837,"current_range_meters":17200,"station_id":"","pricing_plan_id":"cebpf4jnsgd1na2vs0mg"},{"bike_id":"e1c2108d-eca4-47dd-83a4-ea92f7362f1b","system_id":"levelo_inurba_marseille","lat":43.26782,"lon":5.39424,"is_reserved":false,"is_disabled":false,"rental_uris":{"android":"levelo://app?vid=e1c2108d-eca4-47dd-83a4-ea92f7362f1b","ios":"levelo://app?vid=e1c2108d-eca4-47dd-83a4-ea92f7362f1b"},"vehicle_type_id":"4","last_reported":1729069837,"current_range_meters":4400,"station_id":"ce4bhh12rcd13ifvqfg0","pricing_plan_id":"cebpf4jnsgd1na2vs0mg"},{"bike_id":"39c87495-e919-48df-ad42-0b47d2014833","system_id":"levelo_inurba_marseille","lat":43.23149,"lon":5.43717,"is_reserved":false,"is_disabled":false,"rental_uris":{"android":"levelo://app?vid=39c87495-e919-48df-ad42-0b47d2014833","ios":"levelo://app?vid=39c87495-e919-48df-ad42-0b47d2014833"},"vehicle_type_id":"4","last_reported":1729069837,"current_range_meters":38800,"station_id":"ce4bhmp2rcd13ifvqgog","pricing_plan_id":"cebpf4jnsgd1na2vs0mg"},{"bike_id":"5c124c2c-4d88-4776-a83f-617bca38bb98","system_id":"levelo_inurba_marseille","lat":43.28146,"lon":5.4264,"is_reserved":false,"is_disabled":false,"rental_uris":{"android":"levelo://app?vid=5c124c2c-4d88-4776-a83f-617bca38bb98","ios":"levelo://app?vid=5c124c2c-4d88-4776-a83f-617bca38bb98"},"vehicle_type_id":"4","last_reported":1729069837,"current_range_meters":34000,"station_id":"ce4bhnh2rcd13ifvqgug","pricing_plan_id":"cebpf4jnsgd1na2vs0mg"},{"bike_id":"ff96eee3-1ac8-4888-9ae7-e4b6cc8154af","system_id":"levelo_inurba_marseille","lat":43.33739,"lon":5.3746,"is_reserved":false,"is_disabled":false,"rental_uris":{"android":"levelo://app?vid=ff96eee3-1ac8-4888-9ae7-e4b6cc8154af","ios":"levelo://app?vid=ff96eee3-1ac8-4888-9ae7-e4b6cc8154af"},"vehicle_type_id":"4","last_reported":1729069837,"current_range_meters":30000,"station_id":"","pricing_plan_id":"cebpf4jnsgd1na2vs0mg"},{"bike_id":"ee3f0363-a4d3-4228-a061-2238db8da979","system_id":"levelo_inurba_marseille","lat":43.30134,"lon":5.37417,"is_reserved":false,"is_disabled":false,"rental_uris":{"android":"levelo://app?vid=ee3f0363-a4d3-4228-a061-2238db8da979","ios":"levelo://app?vid=ee3f0363-a4d3-4228-a061-2238db8da979"},"vehicle_type_id":"4","last_reported":1729069837,"current_range_meters":38800,"station_id":"ce4bgs92rcd13ifvqcc0","pricing_plan_id":"cebpf4jnsgd1na2vs0mg"},{"bike_id":"2660b77b-ff75-49ec-bc1a-4cd75e6e8b6e","system_id":"levelo_inurba_marseille","lat":43.25581,"lon":5.38227,"is_reserved":false,"is_disabled":false,"rental_uris":{"android":"levelo://app?vid=2660b77b-ff75-49ec-bc1a-4cd75e6e8b6e","ios":"levelo://app?vid=2660b77b-ff75-49ec-bc1a-4cd75e6e8b6e"},"vehicle_type_id":"4","last_reported":1729069837,"current_range_meters":24000,"station_id":"ce4bhih2rcd13ifvqfs0","pricing_plan_id":"cebpf4jnsgd1na2vs0mg"},{"bike_id":"be5cec92-8060-43eb-a4d7-9d78ab613c59","system_id":"levelo_inurba_marseille","lat":43.29964,"lon":5.4132,"is_reserved":false,"is_disabled":false,"rental_uris":{"android":"levelo://app?vid=be5cec92-8060-43eb-a4d7-9d78ab613c59","ios":"levelo://app?vid=be5cec92-8060-43eb-a4d7-9d78ab613c59"},"vehicle_type_id":"4","last_reported":1729069837,"current_range_meters":24400,"station_id":"ce4bhp12rcd13ifvqh9g","pricing_plan_id":"cebpf4jnsgd1na2vs0mg"},{"bike_id":"83042ac9-519c-420c-adf7-f7f1ca7582c7","system_id":"levelo_inurba_marseille","lat":43.33758,"lon":5.37451,"is_reserved":false,"is_disabled":false,"rental_uris":{"android":"levelo://app?vid=83042ac9-519c-420c-adf7-f7f1ca7582c7","ios":"levelo://app?vid=83042ac9-519c-420c-adf7-f7f1ca7582c7"},"vehicle_type_id":"4","last_reported":1729069837,"current_range_meters":25200,"station_id":"","pricing_plan_id":"cebpf4jnsgd1na2vs0mg"},{"bike_id":"a98b132b-cf81-4bd5-b05c-8340b7956463","system_id":"levelo_inurba_marseille","lat":43.29001,"lon":5.35617,"is_reserved":false,"is_disabled":false,"rental_uris":{"android":"levelo://app?vid=a98b132b-cf81-4bd5-b05c-8340b7956463","ios":"levelo://app?vid=a98b132b-cf81-4bd5-b05c-8340b7956463"},"vehicle_type_id":"4","last_reported":1729069837,"current_range_meters":39200,"station_id":"ce4bhb92rcd13ifvqen0","pricing_plan_id":"cebpf4jnsgd1na2vs0mg"},{"bike_id":"339f7e01-ef02-487b-b8da-19126eb51b9f","system_id":"levelo_inurba_marseille","lat":43.30427,"lon":5.39745,"is_reserved":false,"is_disabled":false,"rental_uris":{"android":"levelo://app?vid=339f7e01-ef02-487b-b8da-19126eb51b9f","ios":"levelo://app?vid=339f7e01-ef02-487b-b8da-19126eb51b9f"},"vehicle_type_id":"4","last_reported":1729069837,"current_range_meters":38800,"station_id":"ce4bh092rcd13ifvqd20","pricing_plan_id":"cebpf4jnsgd1na2vs0mg"},{"bike_id":"1f5d6817-da92-4702-9da2-1fc138e604d5","system_id":"levelo_inurba_marseille","lat":43.32106,"lon":5.36767,"is_reserved":false,"is_disabled":false,"rental_uris":{"android":"levelo://app?vid=1f5d6817-da92-4702-9da2-1fc138e604d5","ios":"levelo://app?vid=1f5d6817-da92-4702-9da2-1fc138e604d5"},"vehicle_type_id":"4","last_reported":1729069837,"current_range_meters":5600,"station_id":"ce4bhrh2rcd13ifvqhug","pricing_plan_id":"cebpf4jnsgd1na2vs0mg"},{"bike_id":"6c2e2801-6d9a-4aff-9b40-bc9eb122d36d","system_id":"levelo_inurba_marseille","lat":43.283427,"lon":5.38111,"is_reserved":false,"is_disabled":false,"rental_uris":{"android":"levelo://app?vid=6c2e2801-6d9a-4aff-9b40-bc9eb122d36d","ios":"levelo://app?vid=6c2e2801-6d9a-4aff-9b40-bc9eb122d36d"},"vehicle_type_id":"4","last_reported":1729069837,"current_range_meters":17200,"station_id":"ce4bh412rcd13ifvqdr0","pricing_plan_id":"cebpf4jnsgd1na2vs0mg"},{"bike_id":"3e6761da-2955-48d0-b4a6-5188b735c9d7","system_id":"levelo_inurba_marseille","lat":43.27054,"lon":5.40263,"is_reserved":false,"is_disabled":false,"rental_uris":{"android":"levelo://app?vid=3e6761da-2955-48d0-b4a6-5188b735c9d7","ios":"levelo://app?vid=3e6761da-2955-48d0-b4a6-5188b735c9d7"},"vehicle_type_id":"4","last_reported":1729069837,"current_range_meters":32000,"station_id":"ce4bhk92rcd13ifvqgc0","pricing_plan_id":"cebpf4jnsgd1na2vs0mg"},{"bike_id":"28974541-5d54-4fad-a2e8-8ea043d468b3","system_id":"levelo_inurba_marseille","lat":43.25934,"lon":5.409,"is_reserved":false,"is_disabled":false,"rental_uris":{"android":"levelo://app?vid=28974541-5d54-4fad-a2e8-8ea043d468b3","ios":"levelo://app?vid=28974541-5d54-4fad-a2e8-8ea043d468b3"},"vehicle_type_id":"4","last_reported":1729069837,"current_range_meters":3600,"station_id":"ce4bhm92rcd13ifvqglg","pricing_plan_id":"cebpf4jnsgd1na2vs0mg"},{"bike_id":"79991d3d-436d-404c-880e-51d74dc7bda4","system_id":"levelo_inurba_marseille","lat":43.25579,"lon":5.38236,"is_reserved":false,"is_disabled":false,"rental_uris":{"android":"levelo://app?vid=79991d3d-436d-404c-880e-51d74dc7bda4","ios":"levelo://app?vid=79991d3d-436d-404c-880e-51d74dc7bda4"},"vehicle_type_id":"4","last_reported":1729069837,"current_range_meters":36800,"station_id":"ce4bhih2rcd13ifvqfs0","pricing_plan_id":"cebpf4jnsgd1na2vs0mg"},{"bike_id":"d43ab4e2-3d5a-4b2b-9867-45e169e15ea2","system_id":"levelo_inurba_marseille","lat":43.29907,"lon":5.38142,"is_reserved":false,"is_disabled":false,"rental_uris":{"android":"levelo://app?vid=d43ab4e2-3d5a-4b2b-9867-45e169e15ea2","ios":"levelo://app?vid=d43ab4e2-3d5a-4b2b-9867-45e169e15ea2"},"vehicle_type_id":"4","last_reported":1729069837,"current_range_meters":22000,"station_id":"ce4bgj12rcd13ifvqbc0","pricing_plan_id":"cebpf4jnsgd1na2vs0mg"},{"bike_id":"9e6659d1-8d24-49dc-9e74-d333d724a0aa","system_id":"levelo_inurba_marseille","lat":43.24076,"lon":5.37739,"is_reserved":false,"is_disabled":false,"rental_uris":{"android":"levelo://app?vid=9e6659d1-8d24-49dc-9e74-d333d724a0aa","ios":"levelo://app?vid=9e6659d1-8d24-49dc-9e74-d333d724a0aa"},"vehicle_type_id":"4","last_reported":1729069837,"current_range_meters":36000,"station_id":"ce4bhnp2rcd13ifvqgvg","pricing_plan_id":"cebpf4jnsgd1na2vs0mg"},{"bike_id":"1565a517-3798-43a5-acf8-c309c81f391f","system_id":"levelo_inurba_marseille","lat":43.2968,"lon":5.37298,"is_reserved":false,"is_disabled":false,"rental_uris":{"android":"levelo://app?vid=1565a517-3798-43a5-acf8-c309c81f391f","ios":"levelo://app?vid=1565a517-3798-43a5-acf8-c309c81f391f"},"vehicle_type_id":"4","last_reported":1729069837,"current_range_meters":26800,"station_id":"ce4bgk12rcd13ifvqbj0","pricing_plan_id":"cebpf4jnsgd1na2vs0mg"},{"bike_id":"292b9425-1372-40d4-bf0a-fe57aa779a41","system_id":"levelo_inurba_marseille","lat":43.23061,"lon":5.35499,"is_reserved":false,"is_disabled":false,"rental_uris":{"android":"levelo://app?vid=292b9425-1372-40d4-bf0a-fe57aa779a41","ios":"levelo://app?vid=292b9425-1372-40d4-bf0a-fe57aa779a41"},"vehicle_type_id":"4","last_reported":1729069837,"current_range_meters":28800,"station_id":"cpo3342slgdg3j2ifvpg","pricing_plan_id":"cebpf4jnsgd1na2vs0mg"},{"bike_id":"feb2d0ee-9816-4717-998b-5b4d5d498f33","system_id":"levelo_inurba_marseille","lat":43.28717,"lon":5.37948,"is_reserved":false,"is_disabled":false,"rental_uris":{"android":"levelo://app?vid=feb2d0ee-9816-4717-998b-5b4d5d498f33","ios":"levelo://app?vid=feb2d0ee-9816-4717-998b-5b4d5d498f33"},"vehicle_type_id":"4","last_reported":1729069837,"current_range_meters":34800,"station_id":"ce4bh9p2rcd13ifvqec0","pricing_plan_id":"cebpf4jnsgd1na2vs0mg"},{"bike_id":"2bf1cfae-6dc3-4c38-bbe9-adfce6222ae1","system_id":"levelo_inurba_marseille","lat":43.28721,"lon":5.37951,"is_reserved":false,"is_disabled":false,"rental_uris":{"android":"levelo://app?vid=2bf1cfae-6dc3-4c38-bbe9-adfce6222ae1","ios":"levelo://app?vid=2bf1cfae-6dc3-4c38-bbe9-adfce6222ae1"},"vehicle_type_id":"4","last_reported":1729069837,"current_range_meters":37600,"station_id":"ce4bh9p2rcd13ifvqec0","pricing_plan_id":"cebpf4jnsgd1na2vs0mg"},{"bike_id":"42a31ea9-acca-479a-8189-cc8af28fbc79","system_id":"levelo_inurba_marseille","lat":43.29037,"lon":5.37564,"is_reserved":false,"is_disabled":false,"rental_uris":{"android":"levelo://app?vid=42a31ea9-acca-479a-8189-cc8af28fbc79","ios":"levelo://app?vid=42a31ea9-acca-479a-8189-cc8af28fbc79"},"vehicle_type_id":"4","last_reported":1729069837,"current_range_meters":24800,"station_id":"ce4bh692rcd13ifvqe90","pricing_plan_id":"cebpf4jnsgd1na2vs0mg"},{"bike_id":"be5fd537-061b-455f-b0dd-6e3280df4398","system_id":"levelo_inurba_marseille","lat":43.26036,"lon":5.37546,"is_reserved":false,"is_disabled":false,"rental_uris":{"android":"levelo://app?vid=be5fd537-061b-455f-b0dd-6e3280df4398","ios":"levelo://app?vid=be5fd537-061b-455f-b0dd-6e3280df4398"},"vehicle_type_id":"4","last_reported":1729069837,"current_range_meters":37600,"station_id":"ce4bhgh2rcd13ifvqfa0","pricing_plan_id":"cebpf4jnsgd1na2vs0mg"},{"bike_id":"08484946-fa5c-475a-8709-7fbb82d9fd84","system_id":"levelo_inurba_marseille","lat":43.28565,"lon":5.389,"is_reserved":false,"is_disabled":false,"rental_uris":{"android":"levelo://app?vid=08484946-fa5c-475a-8709-7fbb82d9fd84","ios":"levelo://app?vid=08484946-fa5c-475a-8709-7fbb82d9fd84"},"vehicle_type_id":"4","last_reported":1729069837,"current_range_meters":25200,"station_id":"ce4bh9p2rcd13ifvqec0","pricing_plan_id":"cebpf4jnsgd1na2vs0mg"},{"bike_id":"01ef0133-e3ea-4e84-b5ca-fc0751766d90","system_id":"levelo_inurba_marseille","lat":43.30137,"lon":5.37413,"is_reserved":false,"is_disabled":false,"rental_uris":{"android":"levelo://app?vid=01ef0133-e3ea-4e84-b5ca-fc0751766d90","ios":"levelo://app?vid=01ef0133-e3ea-4e84-b5ca-fc0751766d90"},"vehicle_type_id":"4","last_reported":1729069837,"current_range_meters":22400,"station_id":"ce4bgs92rcd13ifvqcc0","pricing_plan_id":"cebpf4jnsgd1na2vs0mg"},{"bike_id":"8e1d4e0d-5507-46d6-90b0-3fb646d87956","system_id":"levelo_inurba_marseille","lat":43.33603,"lon":5.41026,"is_reserved":false,"is_disabled":false,"rental_uris":{"android":"levelo://app?vid=8e1d4e0d-5507-46d6-90b0-3fb646d87956","ios":"levelo://app?vid=8e1d4e0d-5507-46d6-90b0-3fb646d87956"},"vehicle_type_id":"4","last_reported":1729069837,"current_range_meters":28800,"station_id":"ce4bhqh2rcd13ifvqhmg","pricing_plan_id":"cebpf4jnsgd1na2vs0mg"},{"bike_id":"930f85bd-14a8-4ca1-9b12-c167345b13a9","system_id":"levelo_inurba_marseille","lat":43.29713,"lon":5.36605,"is_reserved":false,"is_disabled":false,"rental_uris":{"android":"levelo://app?vid=930f85bd-14a8-4ca1-9b12-c167345b13a9","ios":"levelo://app?vid=930f85bd-14a8-4ca1-9b12-c167345b13a9"},"vehicle_type_id":"4","last_reported":1729069837,"current_range_meters":22800,"station_id":"ce4bgn12rcd13ifvqbt0","pricing_plan_id":"cebpf4jnsgd1na2vs0mg"},{"bike_id":"6ace01bb-9b94-4600-8785-8619a2548a91","system_id":"levelo_inurba_marseille","lat":43.23149,"lon":5.43698,"is_reserved":false,"is_disabled":false,"rental_uris":{"android":"levelo://app?vid=6ace01bb-9b94-4600-8785-8619a2548a91","ios":"levelo://app?vid=6ace01bb-9b94-4600-8785-8619a2548a91"},"vehicle_type_id":"4","last_reported":1729069837,"current_range_meters":38800,"station_id":"ce4bhmp2rcd13ifvqgog","pricing_plan_id":"cebpf4jnsgd1na2vs0mg"},{"bike_id":"a55d64b4-c20d-4bf6-b254-6297d9c6251a","system_id":"levelo_inurba_marseille","lat":43.28931,"lon":5.38406,"is_reserved":false,"is_disabled":false,"rental_uris":{"android":"levelo://app?vid=a55d64b4-c20d-4bf6-b254-6297d9c6251a","ios":"levelo://app?vid=a55d64b4-c20d-4bf6-b254-6297d9c6251a"},"vehicle_type_id":"4","last_reported":1729069837,"current_range_meters":2800,"station_id":"ce4bh612rcd13ifvqe6g","pricing_plan_id":"cebpf4jnsgd1na2vs0mg"},{"bike_id":"c16b2465-23b0-4e05-a23b-1a81c701df3b","system_id":"levelo_inurba_marseille","lat":43.29557,"lon":5.42284,"is_reserved":false,"is_disabled":false,"rental_uris":{"android":"levelo://app?vid=c16b2465-23b0-4e05-a23b-1a81c701df3b","ios":"levelo://app?vid=c16b2465-23b0-4e05-a23b-1a81c701df3b"},"vehicle_type_id":"4","last_reported":1729069837,"current_range_meters":38800,"station_id":"ce4bhph2rcd13ifvqhdg","pricing_plan_id":"cebpf4jnsgd1na2vs0mg"},{"bike_id":"f38f516d-a139-43ac-9e6e-6a1c36b68c1f","system_id":"levelo_inurba_marseille","lat":43.26682,"lon":5.38271,"is_reserved":false,"is_disabled":false,"rental_uris":{"android":"levelo://app?vid=f38f516d-a139-43ac-9e6e-6a1c36b68c1f","ios":"levelo://app?vid=f38f516d-a139-43ac-9e6e-6a1c36b68c1f"},"vehicle_type_id":"4","last_reported":1729069837,"current_range_meters":39200,"station_id":"ce4bhg92rcd13ifvqf90","pricing_plan_id":"cebpf4jnsgd1na2vs0mg"},{"bike_id":"0f984506-e641-46f1-860f-e2fe74c9fea4","system_id":"levelo_inurba_marseille","lat":43.24175,"lon":5.39723,"is_reserved":false,"is_disabled":false,"rental_uris":{"android":"levelo://app?vid=0f984506-e641-46f1-860f-e2fe74c9fea4","ios":"levelo://app?vid=0f984506-e641-46f1-860f-e2fe74c9fea4"},"vehicle_type_id":"4","last_reported":1729069837,"current_range_meters":26000,"station_id":"ce4bhn12rcd13ifvqgpg","pricing_plan_id":"cebpf4jnsgd1na2vs0mg"},{"bike_id":"d521e6f5-420f-4d2e-8244-ce135253644b","system_id":"levelo_inurba_marseille","lat":43.3028,"lon":5.37698,"is_reserved":false,"is_disabled":false,"rental_uris":{"android":"levelo://app?vid=d521e6f5-420f-4d2e-8244-ce135253644b","ios":"levelo://app?vid=d521e6f5-420f-4d2e-8244-ce135253644b"},"vehicle_type_id":"4","last_reported":1729069837,"current_range_meters":39200,"station_id":"ce4bguh2rcd13ifvqcj0","pricing_plan_id":"cebpf4jnsgd1na2vs0mg"},{"bike_id":"1be0f246-cd10-4d19-824e-5bf5b27c9c44","system_id":"levelo_inurba_marseille","lat":43.30537,"lon":5.36547,"is_reserved":false,"is_disabled":false,"rental_uris":{"android":"levelo://app?vid=1be0f246-cd10-4d19-824e-5bf5b27c9c44","ios":"levelo://app?vid=1be0f246-cd10-4d19-824e-5bf5b27c9c44"},"vehicle_type_id":"4","last_reported":1729069837,"current_range_meters":38800,"station_id":"ce4bgs12rcd13ifvqcag","pricing_plan_id":"cebpf4jnsgd1na2vs0mg"},{"bike_id":"18fae231-f0eb-45db-9d60-2e85a3e71119","system_id":"levelo_inurba_marseille","lat":43.23183,"lon":5.39975,"is_reserved":false,"is_disabled":false,"rental_uris":{"android":"levelo://app?vid=18fae231-f0eb-45db-9d60-2e85a3e71119","ios":"levelo://app?vid=18fae231-f0eb-45db-9d60-2e85a3e71119"},"vehicle_type_id":"4","last_reported":1729069837,"current_range_meters":39200,"station_id":"ce4bhn12rcd13ifvqgqg","pricing_plan_id":"cebpf4jnsgd1na2vs0mg"},{"bike_id":"c8a841eb-81f4-4a52-8b20-21dc0a011670","system_id":"levelo_inurba_marseille","lat":43.2315,"lon":5.43718,"is_reserved":false,"is_disabled":false,"rental_uris":{"android":"levelo://app?vid=c8a841eb-81f4-4a52-8b20-21dc0a011670","ios":"levelo://app?vid=c8a841eb-81f4-4a52-8b20-21dc0a011670"},"vehicle_type_id":"4","last_reported":1729069837,"current_range_meters":12400,"station_id":"ce4bhmp2rcd13ifvqgog","pricing_plan_id":"cebpf4jnsgd1na2vs0mg"},{"bike_id":"a9d80141-cb04-4f88-bcc5-9763572e3517","system_id":"levelo_inurba_marseille","lat":43.23194,"lon":5.35546,"is_reserved":false,"is_disabled":false,"rental_uris":{"android":"levelo://app?vid=a9d80141-cb04-4f88-bcc5-9763572e3517","ios":"levelo://app?vid=a9d80141-cb04-4f88-bcc5-9763572e3517"},"vehicle_type_id":"4","last_reported":1729069837,"current_range_meters":38000,"station_id":"ce4bhu92rcd13ifvqi70","pricing_plan_id":"cebpf4jnsgd1na2vs0mg"},{"bike_id":"f718ee55-ac1c-422f-b7f5-72f01a8949d9","system_id":"levelo_inurba_marseille","lat":43.27816,"lon":5.40708,"is_reserved":false,"is_disabled":false,"rental_uris":{"android":"levelo://app?vid=f718ee55-ac1c-422f-b7f5-72f01a8949d9","ios":"levelo://app?vid=f718ee55-ac1c-422f-b7f5-72f01a8949d9"},"vehicle_type_id":"4","last_reported":1729069837,"current_range_meters":11600,"station_id":"ce4bhnh2rcd13ifvqgtg","pricing_plan_id":"cebpf4jnsgd1na2vs0mg"},{"bike_id":"d06f24f3-1961-4c39-8b26-c72733863fe9","system_id":"levelo_inurba_marseille","lat":43.33781,"lon":5.37443,"is_reserved":false,"is_disabled":false,"rental_uris":{"android":"levelo://app?vid=d06f24f3-1961-4c39-8b26-c72733863fe9","ios":"levelo://app?vid=d06f24f3-1961-4c39-8b26-c72733863fe9"},"vehicle_type_id":"4","last_reported":1729069837,"current_range_meters":20400,"station_id":"","pricing_plan_id":"cebpf4jnsgd1na2vs0mg"},{"bike_id":"2a582e9c-e7dd-4a75-8534-911fde5eba73","system_id":"levelo_inurba_marseille","lat":43.25578,"lon":5.38238,"is_reserved":false,"is_disabled":false,"rental_uris":{"android":"levelo://app?vid=2a582e9c-e7dd-4a75-8534-911fde5eba73","ios":"levelo://app?vid=2a582e9c-e7dd-4a75-8534-911fde5eba73"},"vehicle_type_id":"4","last_reported":1729069837,"current_range_meters":31200,"station_id":"ce4bhih2rcd13ifvqfs0","pricing_plan_id":"cebpf4jnsgd1na2vs0mg"},{"bike_id":"6d3ae6c3-2c76-48df-8f7f-d47cbed9d200","system_id":"levelo_inurba_marseille","lat":43.27995,"lon":5.41663,"is_reserved":false,"is_disabled":false,"rental_uris":{"android":"levelo://app?vid=6d3ae6c3-2c76-48df-8f7f-d47cbed9d200","ios":"levelo://app?vid=6d3ae6c3-2c76-48df-8f7f-d47cbed9d200"},"vehicle_type_id":"4","last_reported":1729069837,"current_range_meters":34800,"station_id":"ce4bho12rcd13ifvqh1g","pricing_plan_id":"cebpf4jnsgd1na2vs0mg"},{"bike_id":"78e6d629-0d6a-4328-976e-5e2764cfd40c","system_id":"levelo_inurba_marseille","lat":43.30467,"lon":5.37901,"is_reserved":false,"is_disabled":false,"rental_uris":{"android":"levelo://app?vid=78e6d629-0d6a-4328-976e-5e2764cfd40c","ios":"levelo://app?vid=78e6d629-0d6a-4328-976e-5e2764cfd40c"},"vehicle_type_id":"4","last_reported":1729069837,"current_range_meters":28800,"station_id":"ce4bgup2rcd13ifvqcn0","pricing_plan_id":"cebpf4jnsgd1na2vs0mg"},{"bike_id":"d3c87ae6-422d-455b-8797-f7d19d0cd4f9","system_id":"levelo_inurba_marseille","lat":43.24646,"lon":5.38892,"is_reserved":false,"is_disabled":false,"rental_uris":{"android":"levelo://app?vid=d3c87ae6-422d-455b-8797-f7d19d0cd4f9","ios":"levelo://app?vid=d3c87ae6-422d-455b-8797-f7d19d0cd4f9"},"vehicle_type_id":"4","last_reported":1729069837,"current_range_meters":38800,"station_id":"ce4bhg12rcd13ifvqf60","pricing_plan_id":"cebpf4jnsgd1na2vs0mg"},{"bike_id":"bc0b85b4-91fa-4818-9d30-52f9c599b288","system_id":"levelo_inurba_marseille","lat":43.27487,"lon":5.42455,"is_reserved":false,"is_disabled":false,"rental_uris":{"android":"levelo://app?vid=bc0b85b4-91fa-4818-9d30-52f9c599b288","ios":"levelo://app?vid=bc0b85b4-91fa-4818-9d30-52f9c599b288"},"vehicle_type_id":"4","last_reported":1729069837,"current_range_meters":6800,"station_id":"ce4bhn92rcd13ifvqgrg","pricing_plan_id":"cebpf4jnsgd1na2vs0mg"},{"bike_id":"91ee629d-f3c4-4e93-b443-ee426385cf83","system_id":"levelo_inurba_marseille","lat":43.29784,"lon":5.37107,"is_reserved":false,"is_disabled":false,"rental_uris":{"android":"levelo://app?vid=91ee629d-f3c4-4e93-b443-ee426385cf83","ios":"levelo://app?vid=91ee629d-f3c4-4e93-b443-ee426385cf83"},"vehicle_type_id":"4","last_reported":1729069837,"current_range_meters":33600,"station_id":"ce4bgop2rcd13ifvqc1g","pricing_plan_id":"cebpf4jnsgd1na2vs0mg"},{"bike_id":"6fc5148b-4d4d-43dd-b11a-30ae34c609be","system_id":"levelo_inurba_marseille","lat":43.29847,"lon":5.3627,"is_reserved":false,"is_disabled":false,"rental_uris":{"android":"levelo://app?vid=6fc5148b-4d4d-43dd-b11a-30ae34c609be","ios":"levelo://app?vid=6fc5148b-4d4d-43dd-b11a-30ae34c609be"},"vehicle_type_id":"4","last_reported":1729069837,"current_range_meters":28800,"station_id":"ce4bgpp2rcd13ifvqc3g","pricing_plan_id":"cebpf4jnsgd1na2vs0mg"},{"bike_id":"d41309ab-1a1f-4395-acaa-455483c3f8e1","system_id":"levelo_inurba_marseille","lat":43.23193,"lon":5.35557,"is_reserved":false,"is_disabled":false,"rental_uris":{"android":"levelo://app?vid=d41309ab-1a1f-4395-acaa-455483c3f8e1","ios":"levelo://app?vid=d41309ab-1a1f-4395-acaa-455483c3f8e1"},"vehicle_type_id":"4","last_reported":1729069837,"current_range_meters":28000,"station_id":"ce4bhu92rcd13ifvqi70","pricing_plan_id":"cebpf4jnsgd1na2vs0mg"},{"bike_id":"3b109c53-fa9a-4586-92ab-f7ae5cd658c5","system_id":"levelo_inurba_marseille","lat":43.30543,"lon":5.36542,"is_reserved":false,"is_disabled":false,"rental_uris":{"android":"levelo://app?vid=3b109c53-fa9a-4586-92ab-f7ae5cd658c5","ios":"levelo://app?vid=3b109c53-fa9a-4586-92ab-f7ae5cd658c5"},"vehicle_type_id":"4","last_reported":1729069837,"current_range_meters":38800,"station_id":"ce4bgs12rcd13ifvqcag","pricing_plan_id":"cebpf4jnsgd1na2vs0mg"},{"bike_id":"570e64c6-5df4-4ddb-87ac-e59cf9cc9367","system_id":"levelo_inurba_marseille","lat":43.33601,"lon":5.41037,"is_reserved":false,"is_disabled":false,"rental_uris":{"android":"levelo://app?vid=570e64c6-5df4-4ddb-87ac-e59cf9cc9367","ios":"levelo://app?vid=570e64c6-5df4-4ddb-87ac-e59cf9cc9367"},"vehicle_type_id":"4","last_reported":1729069837,"current_range_meters":32400,"station_id":"ce4bhqh2rcd13ifvqhmg","pricing_plan_id":"cebpf4jnsgd1na2vs0mg"},{"bike_id":"199a4da1-aac0-4426-942b-3be3b975f2ca","system_id":"levelo_inurba_marseille","lat":43.31356,"lon":5.36711,"is_reserved":false,"is_disabled":false,"rental_uris":{"android":"levelo://app?vid=199a4da1-aac0-4426-942b-3be3b975f2ca","ios":"levelo://app?vid=199a4da1-aac0-4426-942b-3be3b975f2ca"},"vehicle_type_id":"4","last_reported":1729069837,"current_range_meters":26000,"station_id":"ce4bgr92rcd13ifvqc6g","pricing_plan_id":"cebpf4jnsgd1na2vs0mg"},{"bike_id":"94902fb1-a766-4d90-8978-e732725ca583","system_id":"levelo_inurba_marseille","lat":43.23183,"lon":5.39982,"is_reserved":false,"is_disabled":false,"rental_uris":{"android":"levelo://app?vid=94902fb1-a766-4d90-8978-e732725ca583","ios":"levelo://app?vid=94902fb1-a766-4d90-8978-e732725ca583"},"vehicle_type_id":"4","last_reported":1729069837,"current_range_meters":39200,"station_id":"ce4bhn12rcd13ifvqgqg","pricing_plan_id":"cebpf4jnsgd1na2vs0mg"},{"bike_id":"b6ba18ac-f9f7-47ce-97ee-a57309932db4","system_id":"levelo_inurba_marseille","lat":43.27811,"lon":5.40709,"is_reserved":false,"is_disabled":false,"rental_uris":{"android":"levelo://app?vid=b6ba18ac-f9f7-47ce-97ee-a57309932db4","ios":"levelo://app?vid=b6ba18ac-f9f7-47ce-97ee-a57309932db4"},"vehicle_type_id":"4","last_reported":1729069837,"current_range_meters":38800,"station_id":"ce4bhnh2rcd13ifvqgtg","pricing_plan_id":"cebpf4jnsgd1na2vs0mg"},{"bike_id":"150af00c-9b49-4909-bfb2-9a965e993c9e","system_id":"levelo_inurba_marseille","lat":43.31228,"lon":5.36851,"is_reserved":false,"is_disabled":false,"rental_uris":{"android":"levelo://app?vid=150af00c-9b49-4909-bfb2-9a965e993c9e","ios":"levelo://app?vid=150af00c-9b49-4909-bfb2-9a965e993c9e"},"vehicle_type_id":"4","last_reported":1729069837,"current_range_meters":11600,"station_id":"","pricing_plan_id":"cebpf4jnsgd1na2vs0mg"},{"bike_id":"b3581752-b046-4ddf-abd7-7802a26b818e","system_id":"levelo_inurba_marseille","lat":43.30276,"lon":5.37702,"is_reserved":false,"is_disabled":false,"rental_uris":{"android":"levelo://app?vid=b3581752-b046-4ddf-abd7-7802a26b818e","ios":"levelo://app?vid=b3581752-b046-4ddf-abd7-7802a26b818e"},"vehicle_type_id":"4","last_reported":1729069837,"current_range_meters":38800,"station_id":"ce4bguh2rcd13ifvqcj0","pricing_plan_id":"cebpf4jnsgd1na2vs0mg"},{"bike_id":"033a7f68-f273-426e-84a9-8a3b2c56f6f5","system_id":"levelo_inurba_marseille","lat":43.35096,"lon":5.36807,"is_reserved":false,"is_disabled":false,"rental_uris":{"android":"levelo://app?vid=033a7f68-f273-426e-84a9-8a3b2c56f6f5","ios":"levelo://app?vid=033a7f68-f273-426e-84a9-8a3b2c56f6f5"},"vehicle_type_id":"4","last_reported":1729069837,"current_range_meters":12000,"station_id":"","pricing_plan_id":"cebpf4jnsgd1na2vs0mg"},{"bike_id":"6cdd2798-5db4-4f9a-a892-f16babf9ec5c","system_id":"levelo_inurba_marseille","lat":43.31354,"lon":5.3671,"is_reserved":false,"is_disabled":false,"rental_uris":{"android":"levelo://app?vid=6cdd2798-5db4-4f9a-a892-f16babf9ec5c","ios":"levelo://app?vid=6cdd2798-5db4-4f9a-a892-f16babf9ec5c"},"vehicle_type_id":"4","last_reported":1729069837,"current_range_meters":35200,"station_id":"ce4bgr92rcd13ifvqc6g","pricing_plan_id":"cebpf4jnsgd1na2vs0mg"},{"bike_id":"0cac5042-2075-4b66-8658-3a0f53449b77","system_id":"levelo_inurba_marseille","lat":43.30142,"lon":5.37417,"is_reserved":false,"is_disabled":false,"rental_uris":{"android":"levelo://app?vid=0cac5042-2075-4b66-8658-3a0f53449b77","ios":"levelo://app?vid=0cac5042-2075-4b66-8658-3a0f53449b77"},"vehicle_type_id":"4","last_reported":1729069837,"current_range_meters":32400,"station_id":"ce4bgs92rcd13ifvqcc0","pricing_plan_id":"cebpf4jnsgd1na2vs0mg"},{"bike_id":"eaa961e6-8342-4f30-8941-36ae2c9be4b7","system_id":"levelo_inurba_marseille","lat":43.24074,"lon":5.37751,"is_reserved":false,"is_disabled":false,"rental_uris":{"android":"levelo://app?vid=eaa961e6-8342-4f30-8941-36ae2c9be4b7","ios":"levelo://app?vid=eaa961e6-8342-4f30-8941-36ae2c9be4b7"},"vehicle_type_id":"4","last_reported":1729069837,"current_range_meters":18800,"station_id":"ce4bhnp2rcd13ifvqgvg","pricing_plan_id":"cebpf4jnsgd1na2vs0mg"},{"bike_id":"1af2813b-98a0-4b62-aaf8-89652b30f639","system_id":"levelo_inurba_marseille","lat":43.22934,"lon":5.35375,"is_reserved":false,"is_disabled":false,"rental_uris":{"android":"levelo://app?vid=1af2813b-98a0-4b62-aaf8-89652b30f639","ios":"levelo://app?vid=1af2813b-98a0-4b62-aaf8-89652b30f639"},"vehicle_type_id":"4","last_reported":1729069837,"current_range_meters":26000,"station_id":"cpo3532slgdg3j2ikp40","pricing_plan_id":"cebpf4jnsgd1na2vs0mg"},{"bike_id":"7a118b27-d580-46da-9da1-6026387db4b4","system_id":"levelo_inurba_marseille","lat":43.31209,"lon":5.36862,"is_reserved":false,"is_disabled":false,"rental_uris":{"android":"levelo://app?vid=7a118b27-d580-46da-9da1-6026387db4b4","ios":"levelo://app?vid=7a118b27-d580-46da-9da1-6026387db4b4"},"vehicle_type_id":"4","last_reported":1729069837,"current_range_meters":10000,"station_id":"ce4bgl92rcd13ifvqbq0","pricing_plan_id":"cebpf4jnsgd1na2vs0mg"},{"bike_id":"84174d05-f1c2-4715-a7e8-2107d40aa5ac","system_id":"levelo_inurba_marseille","lat":43.27071,"lon":5.4227,"is_reserved":false,"is_disabled":false,"rental_uris":{"android":"levelo://app?vid=84174d05-f1c2-4715-a7e8-2107d40aa5ac","ios":"levelo://app?vid=84174d05-f1c2-4715-a7e8-2107d40aa5ac"},"vehicle_type_id":"4","last_reported":1729069837,"current_range_meters":22800,"station_id":"ce4bhk92rcd13ifvqgb0","pricing_plan_id":"cebpf4jnsgd1na2vs0mg"},{"bike_id":"f93454e1-a669-4c63-a4ca-b572042c7971","system_id":"levelo_inurba_marseille","lat":43.23198,"lon":5.35558,"is_reserved":false,"is_disabled":false,"rental_uris":{"android":"levelo://app?vid=f93454e1-a669-4c63-a4ca-b572042c7971","ios":"levelo://app?vid=f93454e1-a669-4c63-a4ca-b572042c7971"},"vehicle_type_id":"4","last_reported":1729069837,"current_range_meters":20400,"station_id":"ce4bhu92rcd13ifvqi70","pricing_plan_id":"cebpf4jnsgd1na2vs0mg"},{"bike_id":"51172026-48f2-4856-a0eb-8b906bf94f35","system_id":"levelo_inurba_marseille","lat":43.24179,"lon":5.39735,"is_reserved":false,"is_disabled":false,"rental_uris":{"android":"levelo://app?vid=51172026-48f2-4856-a0eb-8b906bf94f35","ios":"levelo://app?vid=51172026-48f2-4856-a0eb-8b906bf94f35"},"vehicle_type_id":"4","last_reported":1729069837,"current_range_meters":19200,"station_id":"ce4bhn12rcd13ifvqgpg","pricing_plan_id":"cebpf4jnsgd1na2vs0mg"},{"bike_id":"0fbdf087-cbae-4765-b72e-49a9369a2a06","system_id":"levelo_inurba_marseille","lat":43.29307,"lon":5.3718,"is_reserved":false,"is_disabled":false,"rental_uris":{"android":"levelo://app?vid=0fbdf087-cbae-4765-b72e-49a9369a2a06","ios":"levelo://app?vid=0fbdf087-cbae-4765-b72e-49a9369a2a06"},"vehicle_type_id":"4","last_reported":1729069837,"current_range_meters":16800,"station_id":"ce4bgh92rcd13ifvqb40","pricing_plan_id":"cebpf4jnsgd1na2vs0mg"},{"bike_id":"87d57219-be51-4968-bbab-c707372c87fa","system_id":"levelo_inurba_marseille","lat":43.31353,"lon":5.36715,"is_reserved":false,"is_disabled":false,"rental_uris":{"android":"levelo://app?vid=87d57219-be51-4968-bbab-c707372c87fa","ios":"levelo://app?vid=87d57219-be51-4968-bbab-c707372c87fa"},"vehicle_type_id":"4","last_reported":1729069837,"current_range_meters":38800,"station_id":"ce4bgr92rcd13ifvqc6g","pricing_plan_id":"cebpf4jnsgd1na2vs0mg"},{"bike_id":"1c502870-085a-42ea-89c8-9419bbbf5094","system_id":"levelo_inurba_marseille","lat":43.24074,"lon":5.37756,"is_reserved":false,"is_disabled":false,"rental_uris":{"android":"levelo://app?vid=1c502870-085a-42ea-89c8-9419bbbf5094","ios":"levelo://app?vid=1c502870-085a-42ea-89c8-9419bbbf5094"},"vehicle_type_id":"4","last_reported":1729069837,"current_range_meters":20800,"station_id":"ce4bhnp2rcd13ifvqgvg","pricing_plan_id":"cebpf4jnsgd1na2vs0mg"},{"bike_id":"461864a9-113d-4e52-923a-872e980076c2","system_id":"levelo_inurba_marseille","lat":43.28484,"lon":5.38547,"is_reserved":false,"is_disabled":false,"rental_uris":{"android":"levelo://app?vid=461864a9-113d-4e52-923a-872e980076c2","ios":"levelo://app?vid=461864a9-113d-4e52-923a-872e980076c2"},"vehicle_type_id":"4","last_reported":1729069837,"current_range_meters":24400,"station_id":"ce4bh8p2rcd13ifvqeb0","pricing_plan_id":"cebpf4jnsgd1na2vs0mg"},