{"last_updated":1718734278,"ttl":30,"version":"2.2","data":{"bikes":[{"bike_id":"3b1bf77f-94f5-4843-9c1f-f5be9db08193","system_id":"levelo_inurba_marseille","lat":43.31506,"lon":5.37124,"is_reserved":false,"is_disabled":false,"rental_uris":{"android":"levelo://app?vid=3b1bf77f-94f5-4843-9c1f-f5be9db08193","ios":"levelo://app?vid=3b1bf77f-94f5-4843-9c1f-f5be9db08193"},"vehicle_type_id":"4","last_reported":1718734278,"current_range_meters":16400,"station_id":"","pricing_plan_id":"cebpf4jnsgd1na2vs0mg"},{"bike_id":"bc2ddaba-ec77-4e08-9053-7d4a16c7dbd3","system_id":"levelo_inurba_marseille","lat":43.31486,"lon":5.37308,"is_reserved":false,"is_disabled":false,"rental_uris":{"android":"levelo://app?vid=bc2ddaba-ec77-4e08-9053-7d4a16c7dbd3","ios":"levelo://app?vid=bc2ddaba-ec77-4e08-9053-7d4a16c7dbd3"},"vehicle_type_id":"4","last_reported":1718734278,"current_range_meters":1200,"station_id":"ce4bgt12rcd13ifvqcd0","pricing_plan_id":"cebpf4jnsgd1na2vs0mg"},{"bike_id":"f73d88ea-fb5d-402c-ac55-3c5e868c3b4b","system_id":"levelo_inurba_marseille","lat":43.309034,"lon":5.371783,"is_reserved":false,"is_disabled":false,"rental_uris":{"android":"levelo://app?vid=f73d88ea-fb5d-402c-ac55-3c5e868c3b4b","ios":"levelo://app?vid=f73d88ea-fb5d-402c-ac55-3c5e868c3b4b"},"vehicle_type_id":"4","last_reported":1718734278,"current_range_meters":16000,"station_id":"ce4bguh2rcd13ifvqckg","pricing_plan_id":"cebpf4jnsgd1na2vs0mg"},{"bike_id":"813b9ac2-59a8-4da2-b230-b4c819f1f6d4","system_id":"levelo_inurba_marseille","lat":43.309034,"lon":5.371783,"is_reserved":false,"is_disabled":false,"rental_uris":{"android":"levelo://app?vid=813b9ac2-59a8-4da2-b230-b4c819f1f6d4","ios":"levelo://app?vid=813b9ac2-59a8-4da2-b230-b4c819f1f6d4"},"vehicle_type_id":"4","last_reported":1718734278,"current_range_meters":22400,"station_id":"ce4bguh2rcd13ifvqckg","pricing_plan_id":"cebpf4jnsgd1na2vs0mg"},{"bike_id":"dc0002b9-c31a-4fb2-85a3-e56b5a206ef5","system_id":"levelo_inurba_marseille","lat":43.31486,"lon":5.37405,"is_reserved":false,"is_disabled":false,"rental_uris":{"android":"levelo://app?vid=dc0002b9-c31a-4fb2-85a3-e56b5a206ef5","ios":"levelo://app?vid=dc0002b9-c31a-4fb2-85a3-e56b5a206ef5"},"vehicle_type_id":"4","last_reported":1718734278,"current_range_meters":18000,"station_id":"","pricing_plan_id":"cebpf4jnsgd1na2vs0mg"},{"bike_id":"90599dcc-4dba-4c01-9d35-0e6f2e550c5b","system_id":"levelo_inurba_marseille","lat":43.31391,"lon":5.37524,"is_reserved":false,"is_disabled":false,"rental_uris":{"android":"levelo://app?vid=90599dcc-4dba-4c01-9d35-0e6f2e550c5b","ios":"levelo://app?vid=90599dcc-4dba-4c01-9d35-0e6f2e550c5b"},"vehicle_type_id":"4","last_reported":1718734278,"current_range_meters":0,"station_id":"","pricing_plan_id":"cebpf4jnsgd1na2vs0mg"},{"bike_id":"5ab18e6a-5632-4795-a6f4-7b8430929524","system_id":"levelo_inurba_marseille","lat":43.305368,"lon":5.367343,"is_reserved":false,"is_disabled":false,"rental_uris":{"android":"levelo://app?vid=5ab18e6a-5632-4795-a6f4-7b8430929524","ios":"levelo://app?vid=5ab18e6a-5632-4795-a6f4-7b8430929524"},"vehicle_type_id":"4","last_reported":1718734278,"current_range_meters":3600,"station_id":"ce4bgrp2rcd13ifvqc9g","pricing_plan_id":"cebpf4jnsgd1na2vs0mg"},{"bike_id":"80d9ae52-61b5-4592-867f-c006dbf774e0","system_id":"levelo_inurba_marseille","lat":43.305989,"lon":5.37225,"is_reserved":false,"is_disabled":false,"rental_uris":{"android":"levelo://app?vid=80d9ae52-61b5-4592-867f-c006dbf774e0","ios":"levelo://app?vid=80d9ae52-61b5-4592-867f-c006dbf774e0"},"vehicle_type_id":"4","last_reported":1718734278,"current_range_meters":26000,"station_id":"ce4bgqh2rcd13ifvqc4g","pricing_plan_id":"cebpf4jnsgd1na2vs0mg"},{"bike_id":"5ce1292b-7e6d-4f56-ad00-629152a2bfd8","system_id":"levelo_inurba_marseille","lat":43.305989,"lon":5.37225,"is_reserved":false,"is_disabled":false,"rental_uris":{"android":"levelo://app?vid=5ce1292b-7e6d-4f56-ad00-629152a2bfd8","ios":"levelo://app?vid=5ce1292b-7e6d-4f56-ad00-629152a2bfd8"},"vehicle_type_id":"4","last_reported":1718734278,"current_range_meters":6400,"station_id":"ce4bgqh2rcd13ifvqc4g","pricing_plan_id":"cebpf4jnsgd1na2vs0mg"},{"bike_id":"0ac18fa9-1d19-479e-a222-c9aaee5d2f0c","system_id":"levelo_inurba_marseille","lat":43.30608,"lon":5.37221,"is_reserved":false,"is_disabled":false,"rental_uris":{"android":"levelo://app?vid=0ac18fa9-1d19-479e-a222-c9aaee5d2f0c","ios":"levelo://app?vid=0ac18fa9-1d19-479e-a222-c9aaee5d2f0c"},"vehicle_type_id":"4","last_reported":1718734278,"current_range_meters":5200,"station_id":"ce4bgqh2rcd13ifvqc4g","pricing_plan_id":"cebpf4jnsgd1na2vs0mg"},{"bike_id":"48a6467a-01c5-4cf5-a31f-cf95a24a6364","system_id":"levelo_inurba_marseille","lat":43.305989,"lon":5.37225,"is_reserved":false,"is_disabled":false,"rental_uris":{"android":"levelo://app?vid=48a6467a-01c5-4cf5-a31f-cf95a24a6364","ios":"levelo://app?vid=48a6467a-01c5-4cf5-a31f-cf95a24a6364"},"vehicle_type_id":"4","last_reported":1718734278,"current_range_meters":21200,"station_id":"ce4bgqh2rcd13ifvqc4g","pricing_plan_id":"cebpf4jnsgd1na2vs0mg"},{"bike_id":"8c87032f-7b4a-4f50-92f9-5548b5fde03d","system_id":"levelo_inurba_marseille","lat":43.30607,"lon":5.37227,"is_reserved":false,"is_disabled":false,"rental_uris":{"android":"levelo://app?vid=8c87032f-7b4a-4f50-92f9-5548b5fde03d","ios":"levelo://app?vid=8c87032f-7b4a-4f50-92f9-5548b5fde03d"},"vehicle_type_id":"4","last_reported":1718734278,"current_range_meters":31200,"station_id":"ce4bgqh2rcd13ifvqc4g","pricing_plan_id":"cebpf4jnsgd1na2vs0mg"},{"bike_id":"f42401fc-a717-4ef1-b2fc-fc5e03e95f79","system_id":"levelo_inurba_marseille","lat":43.31117,"lon":5.37762,"is_reserved":false,"is_disabled":false,"rental_uris":{"android":"levelo://app?vid=f42401fc-a717-4ef1-b2fc-fc5e03e95f79","ios":"levelo://app?vid=f42401fc-a717-4ef1-b2fc-fc5e03e95f79"},"vehicle_type_id":"4","last_reported":1718734278,"current_range_meters":0,"station_id":"ce4bgt92rcd13ifvqcg0","pricing_plan_id":"cebpf4jnsgd1na2vs0mg"},{"bike_id":"f506806c-db51-43c9-9ce1-a8f4316813e3","system_id":"levelo_inurba_marseille","lat":43.311131,"lon":5.377651,"is_reserved":false,"is_disabled":false,"rental_uris":{"android":"levelo://app?vid=f506806c-db51-43c9-9ce1-a8f4316813e3","ios":"levelo://app?vid=f506806c-db51-43c9-9ce1-a8f4316813e3"},"vehicle_type_id":"4","last_reported":1718734278,"current_range_meters":30000,"station_id":"ce4bgt92rcd13ifvqcg0","pricing_plan_id":"cebpf4jnsgd1na2vs0mg"},{"bike_id":"76611d59-226f-4647-9dec-24863a20c8f0","system_id":"levelo_inurba_marseille","lat":43.32005,"lon":5.37163,"is_reserved":false,"is_disabled":false,"rental_uris":{"android":"levelo://app?vid=76611d59-226f-4647-9dec-24863a20c8f0","ios":"levelo://app?vid=76611d59-226f-4647-9dec-24863a20c8f0"},"vehicle_type_id":"4","last_reported":1718734278,"current_range_meters":29200,"station_id":"","pricing_plan_id":"cebpf4jnsgd1na2vs0mg"},{"bike_id":"be1fd26b-b639-4dea-aa74-f1003f411236","system_id":"levelo_inurba_marseille","lat":43.304527,"lon":5.3684,"is_reserved":false,"is_disabled":false,"rental_uris":{"android":"levelo://app?vid=be1fd26b-b639-4dea-aa74-f1003f411236","ios":"levelo://app?vid=be1fd26b-b639-4dea-aa74-f1003f411236"},"vehicle_type_id":"4","last_reported":1718734278,"current_range_meters":2000,"station_id":"","pricing_plan_id":"cebpf4jnsgd1na2vs0mg"},{"bike_id":"f7eaee2c-c471-4a83-b4ba-13e4902621bc","system_id":"levelo_inurba_marseille","lat":43.307945,"lon":5.376487,"is_reserved":false,"is_disabled":false,"rental_uris":{"android":"levelo://app?vid=f7eaee2c-c471-4a83-b4ba-13e4902621bc","ios":"levelo://app?vid=f7eaee2c-c471-4a83-b4ba-13e4902621bc"},"vehicle_type_id":"4","last_reported":1718734278,"current_range_meters":12000,"station_id":"ce4bgv92rcd13ifvqcq0","pricing_plan_id":"cebpf4jnsgd1na2vs0mg"},{"bike_id":"5358e28d-bbd0-49a5-b98e-f1648c1c9d2a","system_id":"levelo_inurba_marseille","lat":43.317075,"lon":5.377367,"is_reserved":false,"is_disabled":false,"rental_uris":{"android":"levelo://app?vid=5358e28d-bbd0-49a5-b98e-f1648c1c9d2a","ios":"levelo://app?vid=5358e28d-bbd0-49a5-b98e-f1648c1c9d2a"},"vehicle_type_id":"4","last_reported":1718734278,"current_range_meters":31600,"station_id":"ce4bgth2rcd13ifvqch0","pricing_plan_id":"cebpf4jnsgd1na2vs0mg"},{"bike_id":"d7662e11-ac78-4566-81f0-aad70b0f6881","system_id":"levelo_inurba_marseille","lat":43.317075,"lon":5.377367,"is_reserved":false,"is_disabled":false,"rental_uris":{"android":"levelo://app?vid=d7662e11-ac78-4566-81f0-aad70b0f6881","ios":"levelo://app?vid=d7662e11-ac78-4566-81f0-aad70b0f6881"},"vehicle_type_id":"4","last_reported":1718734278,"current_range_meters":28000,"station_id":"ce4bgth2rcd13ifvqch0","pricing_plan_id":"cebpf4jnsgd1na2vs0mg"},{"bike_id":"fd682138-ed00-4c91-a851-09d4eb85a943","system_id":"levelo_inurba_marseille","lat":43.315289,"lon":5.380349,"is_reserved":false,"is_disabled":false,"rental_uris":{"android":"levelo://app?vid=fd682138-ed00-4c91-a851-09d4eb85a943","ios":"levelo://app?vid=fd682138-ed00-4c91-a851-09d4eb85a943"},"vehicle_type_id":"4","last_reported":1718734278,"current_range_meters":8000,"station_id":"ce4bhsp2rcd13ifvqi50","pricing_plan_id":"cebpf4jnsgd1na2vs0mg"},{"bike_id":"bf05858c-2bc9-4cf6-a75a-40bc1d9d92fb","system_id":"levelo_inurba_marseille","lat":43.315289,"lon":5.380349,"is_reserved":false,"is_disabled":false,"rental_uris":{"android":"levelo://app?vid=bf05858c-2bc9-4cf6-a75a-40bc1d9d92fb","ios":"levelo://app?vid=bf05858c-2bc9-4cf6-a75a-40bc1d9d92fb"},"vehicle_type_id":"4","last_reported":1718734278,"current_range_meters":24000,"station_id":"ce4bhsp2rcd13ifvqi50","pricing_plan_id":"cebpf4jnsgd1na2vs0mg"},{"bike_id":"b6314fa7-165c-424f-aa9f-56ff70c65ad8","system_id":"levelo_inurba_marseille","lat":43.31533,"lon":5.38032,"is_reserved":false,"is_disabled":false,"rental_uris":{"android":"levelo://app?vid=b6314fa7-165c-424f-aa9f-56ff70c65ad8","ios":"levelo://app?vid=b6314fa7-165c-424f-aa9f-56ff70c65ad8"},"vehicle_type_id":"4","last_reported":1718734278,"current_range_meters":9200,"station_id":"ce4bhsp2rcd13ifvqi50","pricing_plan_id":"cebpf4jnsgd1na2vs0mg"},{"bike_id":"c1ea0f99-ce49-40ae-9c33-0508dc798928","system_id":"levelo_inurba_marseille","lat":43.301939,"lon":5.366286,"is_reserved":false,"is_disabled":false,"rental_uris":{"android":"levelo://app?vid=c1ea0f99-ce49-40ae-9c33-0508dc798928","ios":"levelo://app?vid=c1ea0f99-ce49-40ae-9c33-0508dc798928"},"vehicle_type_id":"4","last_reported":1718734278,"current_range_meters":25600,"station_id":"ce4bgrh2rcd13ifvqc8g","pricing_plan_id":"cebpf4jnsgd1na2vs0mg"},{"bike_id":"705c988e-691c-42a3-b15b-9764d90d6e1c","system_id":"levelo_inurba_marseille","lat":43.30983,"lon":5.3828,"is_reserved":false,"is_disabled":false,"rental_uris":{"android":"levelo://app?vid=705c988e-691c-42a3-b15b-9764d90d6e1c","ios":"levelo://app?vid=705c988e-691c-42a3-b15b-9764d90d6e1c"},"vehicle_type_id":"4","last_reported":1718734278,"current_range_meters":20400,"station_id":"","pricing_plan_id":"cebpf4jnsgd1na2vs0mg"},{"bike_id":"3f76c668-0422-40c4-8341-a5335d63583d","system_id":"levelo_inurba_marseille","lat":43.32472,"lon":5.3657,"is_reserved":false,"is_disabled":false,"rental_uris":{"android":"levelo://app?vid=3f76c668-0422-40c4-8341-a5335d63583d","ios":"levelo://app?vid=3f76c668-0422-40c4-8341-a5335d63583d"},"vehicle_type_id":"4","last_reported":1718734278,"current_range_meters":0,"station_id":"ce4bhs12rcd13ifvqhvg","pricing_plan_id":"cebpf4jnsgd1na2vs0mg"},{"bike_id":"b0793c27-fe5e-4c8d-8a70-4976794ec527","system_id":"levelo_inurba_marseille","lat":43.304606,"lon":5.379026,"is_reserved":false,"is_disabled":false,"rental_uris":{"android":"levelo://app?vid=b0793c27-fe5e-4c8d-8a70-4976794ec527","ios":"levelo://app?vid=b0793c27-fe5e-4c8d-8a70-4976794ec527"},"vehicle_type_id":"4","last_reported":1718734278,"current_range_meters":15600,"station_id":"ce4bgup2rcd13ifvqcn0","pricing_plan_id":"cebpf4jnsgd1na2vs0mg"},{"bike_id":"956bc69a-bbbe-43d5-96a9-d56ae7909b89","system_id":"levelo_inurba_marseille","lat":43.324771,"lon":5.36557,"is_reserved":false,"is_disabled":false,"rental_uris":{"android":"levelo://app?vid=956bc69a-bbbe-43d5-96a9-d56ae7909b89","ios":"levelo://app?vid=956bc69a-bbbe-43d5-96a9-d56ae7909b89"},"vehicle_type_id":"4","last_reported":1718734278,"current_range_meters":17200,"station_id":"ce4bhs12rcd13ifvqhvg","pricing_plan_id":"cebpf4jnsgd1na2vs0mg"},{"bike_id":"536cde55-0231-4ebc-bdf2-be4c6aeceab3","system_id":"levelo_inurba_marseille","lat":43.324771,"lon":5.36557,"is_reserved":false,"is_disabled":false,"rental_uris":{"android":"levelo://app?vid=536cde55-0231-4ebc-bdf2-be4c6aeceab3","ios":"levelo://app?vid=536cde55-0231-4ebc-bdf2-be4c6aeceab3"},"vehicle_type_id":"4","last_reported":1718734278,"current_range_meters":30400,"station_id":"ce4bhs12rcd13ifvqhvg","pricing_plan_id":"cebpf4jnsgd1na2vs0mg"},{"bike_id":"ff6f62fb-ef9e-40f8-bf4b-209c7862b4e9","system_id":"levelo_inurba_marseille","lat":43.31068,"lon":5.38341,"is_reserved":false,"is_disabled":false,"rental_uris":{"android":"levelo://app?vid=ff6f62fb-ef9e-40f8-bf4b-209c7862b4e9","ios":"levelo://app?vid=ff6f62fb-ef9e-40f8-bf4b-209c7862b4e9"},"vehicle_type_id":"4","last_reported":1718734278,"current_range_meters":1600,"station_id":"ce4bgv92rcd13ifvqcr0","pricing_plan_id":"cebpf4jnsgd1na2vs0mg"},{"bike_id":"0a7624fe-4a4a-4b45-a129-0beb411047aa","system_id":"levelo_inurba_marseille","lat":43.31068,"lon":5.3835,"is_reserved":false,"is_disabled":false,"rental_uris":{"android":"levelo://app?vid=0a7624fe-4a4a-4b45-a129-0beb411047aa","ios":"levelo://app?vid=0a7624fe-4a4a-4b45-a129-0beb411047aa"},"vehicle_type_id":"4","last_reported":1718734278,"current_range_meters":17200,"station_id":"ce4bgv92rcd13ifvqcr0","pricing_plan_id":"cebpf4jnsgd1na2vs0mg"},{"bike_id":"db22757b-7372-49a3-b0eb-b368ea2e6931","system_id":"levelo_inurba_marseille","lat":43.302784,"lon":5.377158,"is_reserved":false,"is_disabled":false,"rental_uris":{"android":"levelo://app?vid=db22757b-7372-49a3-b0eb-b368ea2e6931","ios":"levelo://app?vid=db22757b-7372-49a3-b0eb-b368ea2e6931"},"vehicle_type_id":"4","last_reported":1718734278,"current_range_meters":2000,"station_id":"ce4bguh2rcd13ifvqcj0","pricing_plan_id":"cebpf4jnsgd1na2vs0mg"},{"bike_id":"9476db5b-a94b-4c94-9c3c-cc4e41ab4146","system_id":"levelo_inurba_marseille","lat":43.3027,"lon":5.37729,"is_reserved":false,"is_disabled":false,"rental_uris":{"android":"levelo://app?vid=9476db5b-a94b-4c94-9c3c-cc4e41ab4146","ios":"levelo://app?vid=9476db5b-a94b-4c94-9c3c-cc4e41ab4146"},"vehicle_type_id":"4","last_reported":1718734278,"current_range_meters":1600,"station_id":"ce4bguh2rcd13ifvqcj0","pricing_plan_id":"cebpf4jnsgd1na2vs0mg"},{"bike_id":"4451ae41-481b-4575-9d04-567dbd770afe","system_id":"levelo_inurba_marseille","lat":43.319935,"lon":5.381699,"is_reserved":false,"is_disabled":false,"rental_uris":{"android":"levelo://app?vid=4451ae41-481b-4575-9d04-567dbd770afe","ios":"levelo://app?vid=4451ae41-481b-4575-9d04-567dbd770afe"},"vehicle_type_id":"4","last_reported":1718734278,"current_range_meters":1200,"station_id":"ce4bhr12rcd13ifvqhpg","pricing_plan_id":"cebpf4jnsgd1na2vs0mg"},{"bike_id":"775009fe-3bf5-4350-9097-348347408737","system_id":"levelo_inurba_marseille","lat":43.299222,"lon":5.365554,"is_reserved":false,"is_disabled":false,"rental_uris":{"android":"levelo://app?vid=775009fe-3bf5-4350-9097-348347408737","ios":"levelo://app?vid=775009fe-3bf5-4350-9097-348347408737"},"vehicle_type_id":"4","last_reported":1718734278,"current_range_meters":21600,"station_id":"ce4bgm92rcd13ifvqbr0","pricing_plan_id":"cebpf4jnsgd1na2vs0mg"},{"bike_id":"651d3d05-6985-4d37-b9a3-f9e5dc32a428","system_id":"levelo_inurba_marseille","lat":43.299222,"lon":5.365554,"is_reserved":false,"is_disabled":false,"rental_uris":{"android":"levelo://app?vid=651d3d05-6985-4d37-b9a3-f9e5dc32a428","ios":"levelo://app?vid=651d3d05-6985-4d37-b9a3-f9e5dc32a428"},"vehicle_type_id":"4","last_reported":1718734278,"current_range_meters":14000,"station_id":"ce4bgm92rcd13ifvqbr0","pricing_plan_id":"cebpf4jnsgd1na2vs0mg"},{"bike_id":"4eefcab1-75cd-4c41-8632-0996249764c6","system_id":"levelo_inurba_marseille","lat":43.299724,"lon":5.371829,"is_reserved":false,"is_disabled":false,"rental_uris":{"android":"levelo://app?vid=4eefcab1-75cd-4c41-8632-0996249764c6","ios":"levelo://app?vid=4eefcab1-75cd-4c41-8632-0996249764c6"},"vehicle_type_id":"4","last_reported":1718734278,"current_range_meters":31200,"station_id":"ce4bgr92rcd13ifvqc7g","pricing_plan_id":"cebpf4jnsgd1na2vs0mg"},{"bike_id":"a865a124-7be1-4662-8b3c-481562b9e24a","system_id":"levelo_inurba_marseille","lat":43.298433,"lon":5.362774,"is_reserved":false,"is_disabled":false,"rental_uris":{"android":"levelo://app?vid=a865a124-7be1-4662-8b3c-481562b9e24a","ios":"levelo://app?vid=a865a124-7be1-4662-8b3c-481562b9e24a"},"vehicle_type_id":"4","last_reported":1718734278,"current_range_meters":2800,"station_id":"ce4bgpp2rcd13ifvqc3g","pricing_plan_id":"cebpf4jnsgd1na2vs0mg"},{"bike_id":"e1de0769-6a4b-4344-a442-d327500f634e","system_id":"levelo_inurba_marseille","lat":43.298433,"lon":5.362774,"is_reserved":false,"is_disabled":false,"rental_uris":{"android":"levelo://app?vid=e1de0769-6a4b-4344-a442-d327500f634e","ios":"levelo://app?vid=e1de0769-6a4b-4344-a442-d327500f634e"},"vehicle_type_id":"4","last_reported":1718734278,"current_range_meters":24000,"station_id":"ce4bgpp2rcd13ifvqc3g","pricing_plan_id":"cebpf4jnsgd1na2vs0mg"},{"bike_id":"50dee126-6f23-44b1-9ae0-50adb35a5c99","system_id":"levelo_inurba_marseille","lat":43.298433,"lon":5.362774,"is_reserved":false,"is_disabled":false,"rental_uris":{"android":"levelo://app?vid=50dee126-6f23-44b1-9ae0-50adb35a5c99","ios":"levelo://app?vid=50dee126-6f23-44b1-9ae0-50adb35a5c99"},"vehicle_type_id":"4","last_reported":1718734278,"current_range_meters":30400,"station_id":"ce4bgpp2rcd13ifvqc3g","pricing_plan_id":"cebpf4jnsgd1na2vs0mg"},{"bike_id":"7d333777-84c8-49a2-86fe-ce3d5534e543","system_id":"levelo_inurba_marseille","lat":43.299243,"lon":5.37481,"is_reserved":false,"is_disabled":false,"rental_uris":{"android":"levelo://app?vid=7d333777-84c8-49a2-86fe-ce3d5534e543","ios":"levelo://app?vid=7d333777-84c8-49a2-86fe-ce3d5534e543"},"vehicle_type_id":"4","last_reported":1718734278,"current_range_meters":21200,"station_id":"ce4bgjh2rcd13ifvqbg0","pricing_plan_id":"cebpf4jnsgd1na2vs0mg"},{"bike_id":"593d22f0-efc9-4c20-97da-43e8932e36fd","system_id":"levelo_inurba_marseille","lat":43.305364,"lon":5.384119,"is_reserved":false,"is_disabled":false,"rental_uris":{"android":"levelo://app?vid=593d22f0-efc9-4c20-97da-43e8932e36fd","ios":"levelo://app?vid=593d22f0-efc9-4c20-97da-43e8932e36fd"},"vehicle_type_id":"4","last_reported":1718734278,"current_range_meters":30800,"station_id":"ce4bgg92rcd13ifvqb30","pricing_plan_id":"cebpf4jnsgd1na2vs0mg"},{"bike_id":"2e56fac3-2868-4ef6-93f6-1cde309ae244","system_id":"levelo_inurba_marseille","lat":43.31173,"lon":5.38717,"is_reserved":false,"is_disabled":false,"rental_uris":{"android":"levelo://app?vid=2e56fac3-2868-4ef6-93f6-1cde309ae244","ios":"levelo://app?vid=2e56fac3-2868-4ef6-93f6-1cde309ae244"},"vehicle_type_id":"4","last_reported":1718734278,"current_range_meters":0,"station_id":"ce4bgv12rcd13ifvqcp0","pricing_plan_id":"cebpf4jnsgd1na2vs0mg"},{"bike_id":"51a5a0b5-14da-44f1-9b3b-45e7bb5216b8","system_id":"levelo_inurba_marseille","lat":43.297794,"lon":5.370888,"is_reserved":false,"is_disabled":false,"rental_uris":{"android":"levelo://app?vid=51a5a0b5-14da-44f1-9b3b-45e7bb5216b8","ios":"levelo://app?vid=51a5a0b5-14da-44f1-9b3b-45e7bb5216b8"},"vehicle_type_id":"4","last_reported":1718734278,"current_range_meters":0,"station_id":"ce4bgop2rcd13ifvqc1g","pricing_plan_id":"cebpf4jnsgd1na2vs0mg"},{"bike_id":"52f60278-14ed-44f2-bc0a-ac71ea7eb2dd","system_id":"levelo_inurba_marseille","lat":43.322872,"lon":5.382756,"is_reserved":false,"is_disabled":false,"rental_uris":{"android":"levelo://app?vid=52f60278-14ed-44f2-bc0a-ac71ea7eb2dd","ios":"levelo://app?vid=52f60278-14ed-44f2-bc0a-ac71ea7eb2dd"},"vehicle_type_id":"4","last_reported":1718734278,"current_range_meters":3200,"station_id":"ce4bhr12rcd13ifvqhqg","pricing_plan_id":"cebpf4jnsgd1na2vs0mg"},{"bike_id":"cb2ef938-577b-42c8-90e4-b4de175da037","system_id":"levelo_inurba_marseille","lat":43.32292,"lon":5.38267,"is_reserved":false,"is_disabled":false,"rental_uris":{"android":"levelo://app?vid=cb2ef938-577b-42c8-90e4-b4de175da037","ios":"levelo://app?vid=cb2ef938-577b-42c8-90e4-b4de175da037"},"vehicle_type_id":"4","last_reported":1718734278,"current_range_meters":3200,"station_id":"ce4bhr12rcd13ifvqhqg","pricing_plan_id":"cebpf4jnsgd1na2vs0mg"},{"bike_id":"b0b5fd38-90cc-4975-b142-2aec1a922237","system_id":"levelo_inurba_marseille","lat":43.322872,"lon":5.382756,"is_reserved":false,"is_disabled":false,"rental_uris":{"android":"levelo://app?vid=b0b5fd38-90cc-4975-b142-2aec1a922237","ios":"levelo://app?vid=b0b5fd38-90cc-4975-b142-2aec1a922237"},"vehicle_type_id":"4","last_reported":1718734278,"current_range_meters":31200,"station_id":"ce4bhr12rcd13ifvqhqg","pricing_plan_id":"cebpf4jnsgd1na2vs0mg"},{"bike_id":"d733c58c-e6af-4ad7-b6f9-03f6cbd73259","system_id":"levelo_inurba_marseille","lat":43.322872,"lon":5.382756,"is_reserved":false,"is_disabled":false,"rental_uris":{"android":"levelo://app?vid=d733c58c-e6af-4ad7-b6f9-03f6cbd73259","ios":"levelo://app?vid=d733c58c-e6af-4ad7-b6f9-03f6cbd73259"},"vehicle_type_id":"4","last_reported":1718734278,"current_range_meters":31600,"station_id":"ce4bhr12rcd13ifvqhqg","pricing_plan_id":"cebpf4jnsgd1na2vs0mg"},{"bike_id":"e724cd13-f76d-4437-a607-bfb74d530bf7","system_id":"levelo_inurba_marseille","lat":43.297163,"lon":5.365866,"is_reserved":false,"is_disabled":false,"rental_uris":{"android":"levelo://app?vid=e724cd13-f76d-4437-a607-bfb74d530bf7","ios":"levelo://app?vid=e724cd13-f76d-4437-a607-bfb74d530bf7"},"vehicle_type_id":"4","last_reported":1718734278,"current_range_meters":19200,"station_id":"ce4bgn12rcd13ifvqbt0","pricing_plan_id":"cebpf4jnsgd1na2vs0mg"},{"bike_id":"61ba68b6-fa2f-4ba9-b07d-d2b62fa3b0eb","system_id":"levelo_inurba_marseille","lat":43.297163,"lon":5.365866,"is_reserved":false,"is_disabled":false,"rental_uris":{"android":"levelo://app?vid=61ba68b6-fa2f-4ba9-b07d-d2b62fa3b0eb","ios":"levelo://app?vid=61ba68b6-fa2f-4ba9-b07d-d2b62fa3b0eb"},"vehicle_type_id":"4","last_reported":1718734278,"current_range_meters":23600,"station_id":"ce4bgn12rcd13ifvqbt0","pricing_plan_id":"cebpf4jnsgd1na2vs0mg"},{"bike_id":"07a4ed14-2613-44f2-a3f6-01a3c3f3a358","system_id":"levelo_inurba_marseille","lat":43.297163,"lon":5.365866,"is_reserved":false,"is_disabled":false,"rental_uris":{"android":"levelo://app?vid=07a4ed14-2613-44f2-a3f6-01a3c3f3a358","ios":"levelo://app?vid=07a4ed14-2613-44f2-a3f6-01a3c3f3a358"},"vehicle_type_id":"4","last_reported":1718734278,"current_range_meters":9200,"station_id":"ce4bgn12rcd13ifvqbt0","pricing_plan_id":"cebpf4jnsgd1na2vs0mg"},{"bike_id":"2a42502e-4a26-4730-a36d-a07ad7c25a95","system_id":"levelo_inurba_marseille","lat":43.318396,"lon":5.387095,"is_reserved":false,"is_disabled":false,"rental_uris":{"android":"levelo://app?vid=2a42502e-4a26-4730-a36d-a07ad7c25a95","ios":"levelo://app?vid=2a42502e-4a26-4730-a36d-a07ad7c25a95"},"vehicle_type_id":"4","last_reported":1718734278,"current_range_meters":10000,"station_id":"","pricing_plan_id":"cebpf4jnsgd1na2vs0mg"},{"bike_id":"3cff0072-63f5-4bad-af3a-84e5ed9ce37b","system_id":"levelo_inurba_marseille","lat":43.296131,"lon":5.370773,"is_reserved":false,"is_disabled":false,"rental_uris":{"android":"levelo://app?vid=3cff0072-63f5-4bad-af3a-84e5ed9ce37b","ios":"levelo://app?vid=3cff0072-63f5-4bad-af3a-84e5ed9ce37b"},"vehicle_type_id":"4","last_reported":1718734278,"current_range_meters":22800,"station_id":"ce4bgnh2rcd13ifvqc0g","pricing_plan_id":"cebpf4jnsgd1na2vs0mg"},{"bike_id":"8aa8ca11-5960-4a18-9847-2a9054c260a1","system_id":"levelo_inurba_marseille","lat":43.296131,"lon":5.370773,"is_reserved":false,"is_disabled":false,"rental_uris":{"android":"levelo://app?vid=8aa8ca11-5960-4a18-9847-2a9054c260a1","ios":"levelo://app?vid=8aa8ca11-5960-4a18-9847-2a9054c260a1"},"vehicle_type_id":"4","last_reported":1718734278,"current_range_meters":26000,"station_id":"ce4bgnh2rcd13ifvqc0g","pricing_plan_id":"cebpf4jnsgd1na2vs0mg"},{"bike_id":"dd24b706-ecb6-4d45-b271-682ca75f6e9a","system_id":"levelo_inurba_marseille","lat":43.29803,"lon":5.37909,"is_reserved":false,"is_disabled":false,"rental_uris":{"android":"levelo://app?vid=dd24b706-ecb6-4d45-b271-682ca75f6e9a","ios":"levelo://app?vid=dd24b706-ecb6-4d45-b271-682ca75f6e9a"},"vehicle_type_id":"4","last_reported":1718734278,"current_range_meters":6800,"station_id":"","pricing_plan_id":"cebpf4jnsgd1na2vs0mg"},{"bike_id":"4b0f605d-6616-4bac-a1fa-b5763eeed799","system_id":"levelo_inurba_marseille","lat":43.29711,"lon":5.37694,"is_reserved":false,"is_disabled":false,"rental_uris":{"android":"levelo://app?vid=4b0f605d-6616-4bac-a1fa-b5763eeed799","ios":"levelo://app?vid=4b0f605d-6616-4bac-a1fa-b5763eeed799"},"vehicle_type_id":"4","last_reported":1718734278,"current_range_meters":5200,"station_id":"","pricing_plan_id":"cebpf4jnsgd1na2vs0mg"},{"bike_id":"93baecbe-f75c-4052-a2be-a7c08b173a6d","system_id":"levelo_inurba_marseille","lat":43.309589,"lon":5.390258,"is_reserved":false,"is_disabled":false,"rental_uris":{"android":"levelo://app?vid=93baecbe-f75c-4052-a2be-a7c08b173a6d","ios":"levelo://app?vid=93baecbe-f75c-4052-a2be-a7c08b173a6d"},"vehicle_type_id":"4","last_reported":1718734278,"current_range_meters":7200,"station_id":"ce4bgup2rcd13ifvqco0","pricing_plan_id":"cebpf4jnsgd1na2vs0mg"},{"bike_id":"f9c993c0-ab95-4979-8691-24ec933fd6a7","system_id":"levelo_inurba_marseille","lat":43.309589,"lon":5.390258,"is_reserved":false,"is_disabled":false,"rental_uris":{"android":"levelo://app?vid=f9c993c0-ab95-4979-8691-24ec933fd6a7","ios":"levelo://app?vid=f9c993c0-ab95-4979-8691-24ec933fd6a7"},"vehicle_type_id":"4","last_reported":1718734278,"current_range_meters":15600,"station_id":"ce4bgup2rcd13ifvqco0","pricing_plan_id":"cebpf4jnsgd1na2vs0mg"},{"bike_id":"d6259c4c-6c4e-4448-944d-534bf1a30191","system_id":"levelo_inurba_marseille","lat":43.309589,"lon":5.390258,"is_reserved":false,"is_disabled":false,"rental_uris":{"android":"levelo://app?vid=d6259c4c-6c4e-4448-944d-534bf1a30191","ios":"levelo://app?vid=d6259c4c-6c4e-4448-944d-534bf1a30191"},"vehicle_type_id":"4","last_reported":1718734278,"current_range_meters":14000,"station_id":"ce4bgup2rcd13ifvqco0","pricing_plan_id":"cebpf4jnsgd1na2vs0mg"},{"bike_id":"f388ee6a-a513-493d-be42-a03e148172d8","system_id":"levelo_inurba_marseille","lat":43.317557,"lon":5.390173,"is_reserved":false,"is_disabled":false,"rental_uris":{"android":"levelo://app?vid=f388ee6a-a513-493d-be42-a03e148172d8","ios":"levelo://app?vid=f388ee6a-a513-493d-be42-a03e148172d8"},"vehicle_type_id":"4","last_reported":1718734278,"current_range_meters":21200,"station_id":"ce4bhqp2rcd13ifvqhng","pricing_plan_id":"cebpf4jnsgd1na2vs0mg"},{"bike_id":"d52ae330-72ef-4c7d-9cfc-434d184a0b3c","system_id":"levelo_inurba_marseille","lat":43.304274,"lon":5.388873,"is_reserved":false,"is_disabled":false,"rental_uris":{"android":"levelo://app?vid=d52ae330-72ef-4c7d-9cfc-434d184a0b3c","ios":"levelo://app?vid=d52ae330-72ef-4c7d-9cfc-434d184a0b3c"},"vehicle_type_id":"4","last_reported":1718734278,"current_range_meters":24000,"station_id":"ce4bgk12rcd13ifvqbi0","pricing_plan_id":"cebpf4jnsgd1na2vs0mg"},{"bike_id":"098ebb45-03ec-4a98-9f0f-4ef3fc76e6d2","system_id":"levelo_inurba_marseille","lat":43.304274,"lon":5.388873,"is_reserved":false,"is_disabled":false,"rental_uris":{"android":"levelo://app?vid=098ebb45-03ec-4a98-9f0f-4ef3fc76e6d2","ios":"levelo://app?vid=098ebb45-03ec-4a98-9f0f-4ef3fc76e6d2"},"vehicle_type_id":"4","last_reported":1718734278,"current_range_meters":13600,"station_id":"ce4bgk12rcd13ifvqbi0","pricing_plan_id":"cebpf4jnsgd1na2vs0mg"},{"bike_id":"867ed18f-0743-462a-be8c-c5f8ba4a9922","system_id":"levelo_inurba_marseille","lat":43.30433,"lon":5.38889,"is_reserved":false,"is_disabled":false,"rental_uris":{"android":"levelo://app?vid=867ed18f-0743-462a-be8c-c5f8ba4a9922","ios":"levelo://app?vid=867ed18f-0743-462a-be8c-c5f8ba4a9922"},"vehicle_type_id":"4","last_reported":1718734278,"current_range_meters":25600,"station_id":"ce4bgk12rcd13ifvqbi0","pricing_plan_id":"cebpf4jnsgd1na2vs0mg"},{"bike_id":"032395af-4ff2-404c-8d55-dee097ff0e60","system_id":"levelo_inurba_marseille","lat":43.3043,"lon":5.38889,"is_reserved":false,"is_disabled":false,"rental_uris":{"android":"levelo://app?vid=032395af-4ff2-404c-8d55-dee097ff0e60","ios":"levelo://app?vid=032395af-4ff2-404c-8d55-dee097ff0e60"},"vehicle_type_id":"4","last_reported":1718734278,"current_range_meters":7600,"station_id":"ce4bgk12rcd13ifvqbi0","pricing_plan_id":"cebpf4jnsgd1na2vs0mg"},{"bike_id":"d38c5d5d-5f9e-4c35-a9b4-469da9631b28","system_id":"levelo_inurba_marseille","lat":43.296263,"lon":5.377094,"is_reserved":false,"is_disabled":false,"rental_uris":{"android":"levelo://app?vid=d38c5d5d-5f9e-4c35-a9b4-469da9631b28","ios":"levelo://app?vid=d38c5d5d-5f9e-4c35-a9b4-469da9631b28"},"vehicle_type_id":"4","last_reported":1718734278,"current_range_meters":1200,"station_id":"ce4bgi92rcd13ifvqb90","pricing_plan_id":"cebpf4jnsgd1na2vs0mg"},{"bike_id":"fec88561-190d-4bfc-a2cc-d419a347ed4e","system_id":"levelo_inurba_marseille","lat":43.296263,"lon":5.377094,"is_reserved":false,"is_disabled":false,"rental_uris":{"android":"levelo://app?vid=fec88561-190d-4bfc-a2cc-d419a347ed4e","ios":"levelo://app?vid=fec88561-190d-4bfc-a2cc-d419a347ed4e"},"vehicle_type_id":"4","last_reported":1718734278,"current_range_meters":4400,"station_id":"ce4bgi92rcd13ifvqb90","pricing_plan_id":"cebpf4jnsgd1na2vs0mg"},{"bike_id":"489279ca-ceae-4151-951f-978da82a14b9","system_id":"levelo_inurba_marseille","lat":43.299717,"lon":5.384845,"is_reserved":false,"is_disabled":false,"rental_uris":{"android":"levelo://app?vid=489279ca-ceae-4151-951f-978da82a14b9","ios":"levelo://app?vid=489279ca-ceae-4151-951f-978da82a14b9"},"vehicle_type_id":"4","last_reported":1718734278,"current_range_meters":31600,"station_id":"ce4bgj92rcd13ifvqbd0","pricing_plan_id":"cebpf4jnsgd1na2vs0mg"},{"bike_id":"73f3fd5e-a719-4bbd-b55f-924dbb1f53e3","system_id":"levelo_inurba_marseille","lat":43.299707,"lon":5.384859,"is_reserved":false,"is_disabled":false,"rental_uris":{"android":"levelo://app?vid=73f3fd5e-a719-4bbd-b55f-924dbb1f53e3","ios":"levelo://app?vid=73f3fd5e-a719-4bbd-b55f-924dbb1f53e3"},"vehicle_type_id":"4","last_reported":1718734278,"current_range_meters":12000,"station_id":"ce4bgj92rcd13ifvqbd0","pricing_plan_id":"cebpf4jnsgd1na2vs0mg"},{"bike_id":"b27c783e-7823-4290-9a4f-1a315a7d9a3e","system_id":"levelo_inurba_marseille","lat":43.299707,"lon":5.384859,"is_reserved":false,"is_disabled":false,"rental_uris":{"android":"levelo://app?vid=b27c783e-7823-4290-9a4f-1a315a7d9a3e","ios":"levelo://app?vid=b27c783e-7823-4290-9a4f-1a315a7d9a3e"},"vehicle_type_id":"4","last_reported":1718734278,"current_range_meters":0,"station_id":"ce4bgj92rcd13ifvqbd0","pricing_plan_id":"cebpf4jnsgd1na2vs0mg"},{"bike_id":"b9211b55-93ad-4971-81ab-89617322f674","system_id":"levelo_inurba_marseille","lat":43.299707,"lon":5.384859,"is_reserved":false,"is_disabled":false,"rental_uris":{"android":"levelo://app?vid=b9211b55-93ad-4971-81ab-89617322f674","ios":"levelo://app?vid=b9211b55-93ad-4971-81ab-89617322f674"},"vehicle_type_id":"4","last_reported":1718734278,"current_range_meters":5600,"station_id":"ce4bgj92rcd13ifvqbd0","pricing_plan_id":"cebpf4jnsgd1na2vs0mg"},{"bike_id":"e61462a8-4260-42d8-88da-a5bb1729e626","system_id":"levelo_inurba_marseille","lat":43.299707,"lon":5.384859,"is_reserved":false,"is_disabled":false,"rental_uris":{"android":"levelo://app?vid=e61462a8-4260-42d8-88da-a5bb1729e626","ios":"levelo://app?vid=e61462a8-4260-42d8-88da-a5bb1729e626"},"vehicle_type_id":"4","last_reported":1718734278,"current_range_meters":6800,"station_id":"ce4bgj92rcd13ifvqbd0","pricing_plan_id":"cebpf4jnsgd1na2vs0mg"},{"bike_id":"64d68713-8c77-474a-99ba-86ce8271e8ef","system_id":"levelo_inurba_marseille","lat":43.299717,"lon":5.384845,"is_reserved":false,"is_disabled":false,"rental_uris":{"android":"levelo://app?vid=64d68713-8c77-474a-99ba-86ce8271e8ef","ios":"levelo://app?vid=64d68713-8c77-474a-99ba-86ce8271e8ef"},"vehicle_type_id":"4","last_reported":1718734278,"current_range_meters":29600,"station_id":"ce4bgj92rcd13ifvqbd0","pricing_plan_id":"cebpf4jnsgd1na2vs0mg"},{"bike_id":"6b210285-93da-445a-9391-065cc6af85e6","system_id":"levelo_inurba_marseille","lat":43.299717,"lon":5.384845,"is_reserved":false,"is_disabled":false,"rental_uris":{"android":"levelo://app?vid=6b210285-93da-445a-9391-065cc6af85e6","ios":"levelo://app?vid=6b210285-93da-445a-9391-065cc6af85e6"},"vehicle_type_id":"4","last_reported":1718734278,"current_range_meters":26800,"station_id":"ce4bgj92rcd13ifvqbd0","pricing_plan_id":"cebpf4jnsgd1na2vs0mg"},{"bike_id":"fc5bdaef-6a6f-42e5-85a4-17b3b1b9bd95","system_id":"levelo_inurba_marseille","lat":43.29968,"lon":5.38495,"is_reserved":false,"is_disabled":false,"rental_uris":{"android":"levelo://app?vid=fc5bdaef-6a6f-42e5-85a4-17b3b1b9bd95","ios":"levelo://app?vid=fc5bdaef-6a6f-42e5-85a4-17b3b1b9bd95"},"vehicle_type_id":"4","last_reported":1718734278,"current_range_meters":0,"station_id":"ce4bgj92rcd13ifvqbd0","pricing_plan_id":"cebpf4jnsgd1na2vs0mg"},{"bike_id":"332598c8-c6b2-4b8d-b2ef-65bbcc156efa","system_id":"levelo_inurba_marseille","lat":43.296277,"lon":5.377108,"is_reserved":false,"is_disabled":false,"rental_uris":{"android":"levelo://app?vid=332598c8-c6b2-4b8d-b2ef-65bbcc156efa","ios":"levelo://app?vid=332598c8-c6b2-4b8d-b2ef-65bbcc156efa"},"vehicle_type_id":"4","last_reported":1718734278,"current_range_meters":11200,"station_id":"ce4bgi92rcd13ifvqb90","pricing_plan_id":"cebpf4jnsgd1na2vs0mg"},{"bike_id":"1fe2154b-d070-4027-bd5d-fe685b10d315","system_id":"levelo_inurba_marseille","lat":43.293259,"lon":5.371586,"is_reserved":false,"is_disabled":false,"rental_uris":{"android":"levelo://app?vid=1fe2154b-d070-4027-bd5d-fe685b10d315","ios":"levelo://app?vid=1fe2154b-d070-4027-bd5d-fe685b10d315"},"vehicle_type_id":"4","last_reported":1718734278,"current_range_meters":5600,"station_id":"ce4bgh92rcd13ifvqb40","pricing_plan_id":"cebpf4jnsgd1na2vs0mg"},{"bike_id":"f7ab5431-8926-4810-9c22-fe0930149e33","system_id":"levelo_inurba_marseille","lat":43.293259,"lon":5.371586,"is_reserved":false,"is_disabled":false,"rental_uris":{"android":"levelo://app?vid=f7ab5431-8926-4810-9c22-fe0930149e33","ios":"levelo://app?vid=f7ab5431-8926-4810-9c22-fe0930149e33"},"vehicle_type_id":"4","last_reported":1718734278,"current_range_meters":3600,"station_id":"ce4bgh92rcd13ifvqb40","pricing_plan_id":"cebpf4jnsgd1na2vs0mg"},{"bike_id":"5221cd5e-fb65-474a-b568-278eec793838","system_id":"levelo_inurba_marseille","lat":43.293259,"lon":5.371586,"is_reserved":false,"is_disabled":false,"rental_uris":{"android":"levelo://app?vid=5221cd5e-fb65-474a-b568-278eec793838","ios":"levelo://app?vid=5221cd5e-fb65-474a-b568-278eec793838"},"vehicle_type_id":"4","last_reported":1718734278,"current_range_meters":4800,"station_id":"ce4bgh92rcd13ifvqb40","pricing_plan_id":"cebpf4jnsgd1na2vs0mg"},{"bike_id":"ee6c63d9-c512-4eeb-a77b-92136345460d","system_id":"levelo_inurba_marseille","lat":43.293259,"lon":5.371586,"is_reserved":false,"is_disabled":false,"rental_uris":{"android":"levelo://app?vid=ee6c63d9-c512-4eeb-a77b-92136345460d","ios":"levelo://app?vid=ee6c63d9-c512-4eeb-a77b-92136345460d"},"vehicle_type_id":"4","last_reported":1718734278,"current_range_meters":5200,"station_id":"ce4bgh92rcd13ifvqb40","pricing_plan_id":"cebpf4jnsgd1na2vs0mg"},{"bike_id":"240b4292-9c2d-4b5c-8d9c-11583dd87edc","system_id":"levelo_inurba_marseille","lat":43.29308,"lon":5.37174,"is_reserved":false,"is_disabled":false,"rental_uris":{"android":"levelo://app?vid=240b4292-9c2d-4b5c-8d9c-11583dd87edc","ios":"levelo://app?vid=240b4292-9c2d-4b5c-8d9c-11583dd87edc"},"vehicle_type_id":"4","last_reported":1718734278,"current_range_meters":20800,"station_id":"ce4bgh92rcd13ifvqb40","pricing_plan_id":"cebpf4jnsgd1na2vs0mg"},{"bike_id":"e999782a-9976-49b8-8c59-847824ac142c","system_id":"levelo_inurba_marseille","lat":43.29307,"lon":5.37183,"is_reserved":false,"is_disabled":false,"rental_uris":{"android":"levelo://app?vid=e999782a-9976-49b8-8c59-847824ac142c","ios":"levelo://app?vid=e999782a-9976-49b8-8c59-847824ac142c"},"vehicle_type_id":"4","last_reported":1718734278,"current_range_meters":0,"station_id":"ce4bgh92rcd13ifvqb40","pricing_plan_id":"cebpf4jnsgd1na2vs0mg"},{"bike_id":"efd0811c-2915-4d09-846d-1b57a03caca2","system_id":"levelo_inurba_marseille","lat":43.29306,"lon":5.37179,"is_reserved":false,"is_disabled":false,"rental_uris":{"android":"levelo://app?vid=efd0811c-2915-4d09-846d-1b57a03caca2","ios":"levelo://app?vid=efd0811c-2915-4d09-846d-1b57a03caca2"},"vehicle_type_id":"4","last_reported":1718734278,"current_range_meters":0,"station_id":"ce4bgh92rcd13ifvqb40","pricing_plan_id":"cebpf4jnsgd1na2vs0mg"},{"bike_id":"499d001c-ed0a-4eaf-a71d-08376a0151da","system_id":"levelo_inurba_marseille","lat":43.29274,"lon":5.36834,"is_reserved":false,"is_disabled":false,"rental_uris":{"android":"levelo://app?vid=499d001c-ed0a-4eaf-a71d-08376a0151da","ios":"levelo://app?vid=499d001c-ed0a-4eaf-a71d-08376a0151da"},"vehicle_type_id":"4","last_reported":1718734278,"current_range_meters":0,"station_id":"ce4bhbp2rcd13ifvqesg","pricing_plan_id":"cebpf4jnsgd1na2vs0mg"},{"bike_id":"2e40e059-3dcf-412f-a913-307fef35e402","system_id":"levelo_inurba_marseille","lat":43.29274,"lon":5.36848,"is_reserved":false,"is_disabled":false,"rental_uris":{"android":"levelo://app?vid=2e40e059-3dcf-412f-a913-307fef35e402","ios":"levelo://app?vid=2e40e059-3dcf-412f-a913-307fef35e402"},"vehicle_type_id":"4","last_reported":1718734278,"current_range_meters":0,"station_id":"ce4bhbp2rcd13ifvqesg","pricing_plan_id":"cebpf4jnsgd1na2vs0mg"},{"bike_id":"54712bfe-6c8e-4068-9564-6b9f3ff0f1b1","system_id":"levelo_inurba_marseille","lat":43.293259,"lon":5.371586,"is_reserved":false,"is_disabled":false,"rental_uris":{"android":"levelo://app?vid=54712bfe-6c8e-4068-9564-6b9f3ff0f1b1","ios":"levelo://app?vid=54712bfe-6c8e-4068-9564-6b9f3ff0f1b1"},"vehicle_type_id":"4","last_reported":1718734278,"current_range_meters":3200,"station_id":"ce4bgh92rcd13ifvqb40","pricing_plan_id":"cebpf4jnsgd1na2vs0mg"},{"bike_id":"0cde4671-c2d1-4e3d-90a0-c64a031b9b69","system_id":"levelo_inurba_marseille","lat":43.292749,"lon":5.368402,"is_reserved":false,"is_disabled":false,"rental_uris":{"android":"levelo://app?vid=0cde4671-c2d1-4e3d-90a0-c64a031b9b69","ios":"levelo://app?vid=0cde4671-c2d1-4e3d-90a0-c64a031b9b69"},"vehicle_type_id":"4","last_reported":1718734278,"current_range_meters":16800,"station_id":"ce4bhbp2rcd13ifvqesg","pricing_plan_id":"cebpf4jnsgd1na2vs0mg"},{"bike_id":"8e30e767-d8a6-42fa-90f3-a11e8f5a540f","system_id":"levelo_inurba_marseille","lat":43.292749,"lon":5.368402,"is_reserved":false,"is_disabled":false,"rental_uris":{"android":"levelo://app?vid=8e30e767-d8a6-42fa-90f3-a11e8f5a540f","ios":"levelo://app?vid=8e30e767-d8a6-42fa-90f3-a11e8f5a540f"},"vehicle_type_id":"4","last_reported":1718734278,"current_range_meters":17200,"station_id":"ce4bhbp2rcd13ifvqesg","pricing_plan_id":"cebpf4jnsgd1na2vs0mg"},{"bike_id":"c60d1966-6644-4016-a734-7a46d778959e","system_id":"levelo_inurba_marseille","lat":43.293009,"lon":5.374584,"is_reserved":false,"is_disabled":false,"rental_uris":{"android":"levelo://app?vid=c60d1966-6644-4016-a734-7a46d778959e","ios":"levelo://app?vid=c60d1966-6644-4016-a734-7a46d778959e"},"vehicle_type_id":"4","last_reported":1718734278,"current_range_meters":7200,"station_id":"ce4bgi12rcd13ifvqb70","pricing_plan_id":"cebpf4jnsgd1na2vs0mg"},{"bike_id":"f25181f7-94f3-4806-b51b-b5769c9d7c85","system_id":"levelo_inurba_marseille","lat":43.293,"lon":5.37441,"is_reserved":false,"is_disabled":false,"rental_uris":{"android":"levelo://app?vid=f25181f7-94f3-4806-b51b-b5769c9d7c85","ios":"levelo://app?vid=f25181f7-94f3-4806-b51b-b5769c9d7c85"},"vehicle_type_id":"4","last_reported":1718734278,"current_range_meters":0,"station_id":"ce4bgi12rcd13ifvqb70","pricing_plan_id":"cebpf4jnsgd1na2vs0mg"},{"bike_id":"68f26756-d914-4f8d-a2cd-1eaa97dec981","system_id":"levelo_inurba_marseille","lat":43.293009,"lon":5.374584,"is_reserved":false,"is_disabled":false,"rental_uris":{"android":"levelo://app?vid=68f26756-d914-4f8d-a2cd-1eaa97dec981","ios":"levelo://app?vid=68f26756-d914-4f8d-a2cd-1eaa97dec981"},"vehicle_type_id":"4","last_reported":1718734278,"current_range_meters":9200,"station_id":"ce4bgi12rcd13ifvqb70","pricing_plan_id":"cebpf4jnsgd1na2vs0mg"},{"bike_id":"d93d5106-b476-42a0-9ab7-1cc92df8eed7","system_id":"levelo_inurba_marseille","lat":43.293009,"lon":5.374584,"is_reserved":false,"is_disabled":false,"rental_uris":{"android":"levelo://app?vid=d93d5106-b476-42a0-9ab7-1cc92df8eed7","ios":"levelo://app?vid=d93d5106-b476-42a0-9ab7-1cc92df8eed7"},"vehicle_type_id":"4","last_reported":1718734278,"current_range_meters":31600,"station_id":"ce4bgi12rcd13ifvqb70","pricing_plan_id":"cebpf4jnsgd1na2vs0mg"},{"bike_id":"35527b1e-11cc-4f73-ada3-73f2e3132c0a","system_id":"levelo_inurba_marseille","lat":43.293009,"lon":5.374584,"is_reserved":false,"is_disabled":false,"rental_uris":{"android":"levelo://app?vid=35527b1e-11cc-4f73-ada3-73f2e3132c0a","ios":"levelo://app?vid=35527b1e-11cc-4f73-ada3-73f2e3132c0a"},"vehicle_type_id":"4","last_reported":1718734278,"current_range_meters":2000,"station_id":"ce4bgi12rcd13ifvqb70","pricing_plan_id":"cebpf4jnsgd1na2vs0mg"},{"bike_id":"0fbd1166-5cc6-4338-9c1c-02d9e93c7ef2","system_id":"levelo_inurba_marseille","lat":43.293009,"lon":5.374584,"is_reserved":false,"is_disabled":false,"rental_uris":{"android":"levelo://app?vid=0fbd1166-5cc6-4338-9c1c-02d9e93c7ef2","ios":"levelo://app?vid=0fbd1166-5cc6-4338-9c1c-02d9e93c7ef2"},"vehicle_type_id":"4","last_reported":1718734278,"current_range_meters":17600,"station_id":"ce4bgi12rcd13ifvqb70","pricing_plan_id":"cebpf4jnsgd1na2vs0mg"},{"bike_id":"905d0f94-37fb-4872-b665-424efda534a7","system_id":"levelo_inurba_marseille","lat":43.293009,"lon":5.374584,"is_reserved":false,"is_disabled":false,"rental_uris":{"android":"levelo://app?vid=905d0f94-37fb-4872-b665-424efda534a7","ios":"levelo://app?vid=905d0f94-37fb-4872-b665-424efda534a7"},"vehicle_type_id":"4","last_reported":1718734278,"current_range_meters":0,"station_id":"ce4bgi12rcd13ifvqb70","pricing_plan_id":"cebpf4jnsgd1na2vs0mg"},{"bike_id":"d2aceb42-b32e-4b66-936d-410683295350","system_id":"levelo_inurba_marseille","lat":43.30301,"lon":5.39209,"is_reserved":false,"is_disabled":false,"rental_uris":{"android":"levelo://app?vid=d2aceb42-b32e-4b66-936d-410683295350","ios":"levelo://app?vid=d2aceb42-b32e-4b66-936d-410683295350"},"vehicle_type_id":"4","last_reported":1718734278,"current_range_meters":17600,"station_id":"ce4bgkh2rcd13ifvqbk0","pricing_plan_id":"cebpf4jnsgd1na2vs0mg"},{"bike_id":"45a67bbc-11f7-4ff8-ace1-8b2bffd38b3f","system_id":"levelo_inurba_marseille","lat":43.303002,"lon":5.392142,"is_reserved":false,"is_disabled":false,"rental_uris":{"android":"levelo://app?vid=45a67bbc-11f7-4ff8-ace1-8b2bffd38b3f","ios":"levelo://app?vid=45a67bbc-11f7-4ff8-ace1-8b2bffd38b3f"},"vehicle_type_id":"4","last_reported":1718734278,"current_range_meters":800,"station_id":"ce4bgkh2rcd13ifvqbk0","pricing_plan_id":"cebpf4jnsgd1na2vs0mg"},{"bike_id":"7ded55a0-a509-4a2f-bf79-615705087f14","system_id":"levelo_inurba_marseille","lat":43.29231,"lon":5.36068,"is_reserved":false,"is_disabled":false,"rental_uris":{"android":"levelo://app?vid=7ded55a0-a509-4a2f-bf79-615705087f14","ios":"levelo://app?vid=7ded55a0-a509-4a2f-bf79-615705087f14"},"vehicle_type_id":"4","last_reported":1718734278,"current_range_meters":3600,"station_id":"ce4bhbh2rcd13ifvqeqg","pricing_plan_id":"cebpf4jnsgd1na2vs0mg"},{"bike_id":"3811ce64-3b92-424b-b020-75cb077a35c8","system_id":"levelo_inurba_marseille","lat":43.2923,"lon":5.3607,"is_reserved":false,"is_disabled":false,"rental_uris":{"android":"levelo://app?vid=3811ce64-3b92-424b-b020-75cb077a35c8","ios":"levelo://app?vid=3811ce64-3b92-424b-b020-75cb077a35c8"},"vehicle_type_id":"4","last_reported":1718734278,"current_range_meters":14000,"station_id":"ce4bhbh2rcd13ifvqeqg","pricing_plan_id":"cebpf4jnsgd1na2vs0mg"},{"bike_id":"dc62f98c-c4e2-4997-89a1-480b709a33ca","system_id":"levelo_inurba_marseille","lat":43.300852,"lon":5.390859,"is_reserved":false,"is_disabled":false,"rental_uris":{"android":"levelo://app?vid=dc62f98c-c4e2-4997-89a1-480b709a33ca","ios":"levelo://app?vid=dc62f98c-c4e2-4997-89a1-480b709a33ca"},"vehicle_type_id":"4","last_reported":1718734278,"current_range_meters":7200,"station_id":"ce4bh192rcd13ifvqdb0","pricing_plan_id":"cebpf4jnsgd1na2vs0mg"},{"bike_id":"d274a883-8e41-4628-863e-4b190df960fa","system_id":"levelo_inurba_marseille","lat":43.300937,"lon":5.39076,"is_reserved":false,"is_disabled":false,"rental_uris":{"android":"levelo://app?vid=d274a883-8e41-4628-863e-4b190df960fa","ios":"levelo://app?vid=d274a883-8e41-4628-863e-4b190df960fa"},"vehicle_type_id":"4","last_reported":1718734278,"current_range_meters":22400,"station_id":"","pricing_plan_id":"cebpf4jnsgd1na2vs0mg"},{"bike_id":"b9cb67d3-2bca-4c82-a865-5321feb81eaa","system_id":"levelo_inurba_marseille","lat":43.30085,"lon":5.390856,"is_reserved":false,"is_disabled":false,"rental_uris":{"android":"levelo://app?vid=b9cb67d3-2bca-4c82-a865-5321feb81eaa","ios":"levelo://app?vid=b9cb67d3-2bca-4c82-a865-5321feb81eaa"},"vehicle_type_id":"4","last_reported":1718734278,"current_range_meters":4800,"station_id":"ce4bh192rcd13ifvqdb0","pricing_plan_id":"cebpf4jnsgd1na2vs0mg"},{"bike_id":"5be43506-5d89-4938-91e4-e7d6dbb677d1","system_id":"levelo_inurba_marseille","lat":43.292311,"lon":5.360731,"is_reserved":false,"is_disabled":false,"rental_uris":{"android":"levelo://app?vid=5be43506-5d89-4938-91e4-e7d6dbb677d1","ios":"levelo://app?vid=5be43506-5d89-4938-91e4-e7d6dbb677d1"},"vehicle_type_id":"4","last_reported":1718734278,"current_range_meters":18800,"station_id":"ce4bhbh2rcd13ifvqeqg","pricing_plan_id":"cebpf4jnsgd1na2vs0mg"},{"bike_id":"947fdedd-e621-4468-83df-603a0d12bcbc","system_id":"levelo_inurba_marseille","lat":43.298764,"lon":5.388973,"is_reserved":false,"is_disabled":false,"rental_uris":{"android":"levelo://app?vid=947fdedd-e621-4468-83df-603a0d12bcbc","ios":"levelo://app?vid=947fdedd-e621-4468-83df-603a0d12bcbc"},"vehicle_type_id":"4","last_reported":1718734278,"current_range_meters":800,"station_id":"ce4bh392rcd13ifvqdl0","pricing_plan_id":"cebpf4jnsgd1na2vs0mg"},{"bike_id":"2e003615-6195-4125-9054-f5498c4a6c26","system_id":"levelo_inurba_marseille","lat":43.291623,"lon":5.371555,"is_reserved":false,"is_disabled":false,"rental_uris":{"android":"levelo://app?vid=2e003615-6195-4125-9054-f5498c4a6c26","ios":"levelo://app?vid=2e003615-6195-4125-9054-f5498c4a6c26"},"vehicle_type_id":"4","last_reported":1718734278,"current_range_meters":13200,"station_id":"","pricing_plan_id":"cebpf4jnsgd1na2vs0mg"},{"bike_id":"4fbea10b-f59f-4ce8-8eac-484c3e2be1b9","system_id":"levelo_inurba_marseille","lat":43.291994,"lon":5.357886,"is_reserved":false,"is_disabled":false,"rental_uris":{"android":"levelo://app?vid=4fbea10b-f59f-4ce8-8eac-484c3e2be1b9","ios":"levelo://app?vid=4fbea10b-f59f-4ce8-8eac-484c3e2be1b9"},"vehicle_type_id":"4","last_reported":1718734278,"current_range_meters":12400,"station_id":"ce4bhb12rcd13ifvqel0","pricing_plan_id":"cebpf4jnsgd1na2vs0mg"},{"bike_id":"c5a3453a-295f-4555-89f1-041aacafc297","system_id":"levelo_inurba_marseille","lat":43.30895,"lon":5.39628,"is_reserved":false,"is_disabled":false,"rental_uris":{"android":"levelo://app?vid=c5a3453a-295f-4555-89f1-041aacafc297","ios":"levelo://app?vid=c5a3453a-295f-4555-89f1-041aacafc297"},"vehicle_type_id":"4","last_reported":1718734278,"current_range_meters":0,"station_id":"ce4bh012rcd13ifvqcv0","pricing_plan_id":"cebpf4jnsgd1na2vs0mg"},{"bike_id":"c4dbb9a2-bd59-4833-a569-93b7a86b9d7c","system_id":"levelo_inurba_marseille","lat":43.313291,"lon":5.396838,"is_reserved":false,"is_disabled":false,"rental_uris":{"android":"levelo://app?vid=c4dbb9a2-bd59-4833-a569-93b7a86b9d7c","ios":"levelo://app?vid=c4dbb9a2-bd59-4833-a569-93b7a86b9d7c"},"vehicle_type_id":"4","last_reported":1718734278,"current_range_meters":32000,"station_id":"ce4bgvp2rcd13ifvqcu0","pricing_plan_id":"cebpf4jnsgd1na2vs0mg"},{"bike_id":"7e91e122-6927-454d-8be9-07b398a0c9a8","system_id":"levelo_inurba_marseille","lat":43.292005,"lon":5.357875,"is_reserved":false,"is_disabled":false,"rental_uris":{"android":"levelo://app?vid=7e91e122-6927-454d-8be9-07b398a0c9a8","ios":"levelo://app?vid=7e91e122-6927-454d-8be9-07b398a0c9a8"},"vehicle_type_id":"4","last_reported":1718734278,"current_range_meters":4000,"station_id":"ce4bhb12rcd13ifvqel0","pricing_plan_id":"cebpf4jnsgd1na2vs0mg"},{"bike_id":"5c401bc8-bd63-479c-ac69-0197c96f0220","system_id":"levelo_inurba_marseille","lat":43.313291,"lon":5.396838,"is_reserved":false,"is_disabled":false,"rental_uris":{"android":"levelo://app?vid=5c401bc8-bd63-479c-ac69-0197c96f0220","ios":"levelo://app?vid=5c401bc8-bd63-479c-ac69-0197c96f0220"},"vehicle_type_id":"4","last_reported":1718734278,"current_range_meters":800,"station_id":"ce4bgvp2rcd13ifvqcu0","pricing_plan_id":"cebpf4jnsgd1na2vs0mg"},{"bike_id":"5e1cd5b5-5a43-4c08-9539-9570b6b95315","system_id":"levelo_inurba_marseille","lat":43.292005,"lon":5.357875,"is_reserved":false,"is_disabled":false,"rental_uris":{"android":"levelo://app?vid=5e1cd5b5-5a43-4c08-9539-9570b6b95315","ios":"levelo://app?vid=5e1cd5b5-5a43-4c08-9539-9570b6b95315"},"vehicle_type_id":"4","last_reported":1718734278,"current_range_meters":17200,"station_id":"ce4bhb12rcd13ifvqel0","pricing_plan_id":"cebpf4jnsgd1na2vs0mg"},{"bike_id":"4724505f-b4a9-47c8-8ee0-1b2c78f2cc85","system_id":"levelo_inurba_marseille","lat":43.29193,"lon":5.35796,"is_reserved":false,"is_disabled":false,"rental_uris":{"android":"levelo://app?vid=4724505f-b4a9-47c8-8ee0-1b2c78f2cc85","ios":"levelo://app?vid=4724505f-b4a9-47c8-8ee0-1b2c78f2cc85"},"vehicle_type_id":"4","last_reported":1718734278,"current_range_meters":800,"station_id":"ce4bhb12rcd13ifvqel0","pricing_plan_id":"cebpf4jnsgd1na2vs0mg"},{"bike_id":"8a8de19c-b527-4566-b273-456157c6dd11","system_id":"levelo_inurba_marseille","lat":43.313291,"lon":5.396838,"is_reserved":false,"is_disabled":false,"rental_uris":{"android":"levelo://app?vid=8a8de19c-b527-4566-b273-456157c6dd11","ios":"levelo://app?vid=8a8de19c-b527-4566-b273-456157c6dd11"},"vehicle_type_id":"4","last_reported":1718734278,"current_range_meters":21200,"station_id":"ce4bgvp2rcd13ifvqcu0","pricing_plan_id":"cebpf4jnsgd1na2vs0mg"},{"bike_id":"15a87ee9-907a-4153-b510-3dd618a5f585","system_id":"levelo_inurba_marseille","lat":43.313291,"lon":5.396838,"is_reserved":false,"is_disabled":false,"rental_uris":{"android":"levelo://app?vid=15a87ee9-907a-4153-b510-3dd618a5f585","ios":"levelo://app?vid=15a87ee9-907a-4153-b510-3dd618a5f585"},"vehicle_type_id":"4","last_reported":1718734278,"current_range_meters":12400,"station_id":"ce4bgvp2rcd13ifvqcu0","pricing_plan_id":"cebpf4jnsgd1na2vs0mg"},{"bike_id":"eb1c65af-b897-45c6-994f-3669d5b98edb","system_id":"levelo_inurba_marseille","lat":43.31329,"lon":5.39692,"is_reserved":false,"is_disabled":false,"rental_uris":{"android":"levelo://app?vid=eb1c65af-b897-45c6-994f-3669d5b98edb","ios":"levelo://app?vid=eb1c65af-b897-45c6-994f-3669d5b98edb"},"vehicle_type_id":"4","last_reported":1718734278,"current_range_meters":23600,"station_id":"ce4bgvp2rcd13ifvqcu0","pricing_plan_id":"cebpf4jnsgd1na2vs0mg"},{"bike_id":"f1a88ec0-3add-4fc4-855e-756e45af3b59","system_id":"levelo_inurba_marseille","lat":43.313291,"lon":5.396838,"is_reserved":false,"is_disabled":false,"rental_uris":{"android":"levelo://app?vid=f1a88ec0-3add-4fc4-855e-756e45af3b59","ios":"levelo://app?vid=f1a88ec0-3add-4fc4-855e-756e45af3b59"},"vehicle_type_id":"4","last_reported":1718734278,"current_range_meters":0,"station_id":"ce4bgvp2rcd13ifvqcu0","pricing_plan_id":"cebpf4jnsgd1na2vs0mg"},{"bike_id":"b9b20cde-1071-47b7-b643-8c95ee849477","system_id":"levelo_inurba_marseille","lat":43.313291,"lon":5.396838,"is_reserved":false,"is_disabled":false,"rental_uris":{"android":"levelo://app?vid=b9b20cde-1071-47b7-b643-8c95ee849477","ios":"levelo://app?vid=b9b20cde-1071-47b7-b643-8c95ee849477"},"vehicle_type_id":"4","last_reported":1718734278,"current_range_meters":5200,"station_id":"ce4bgvp2rcd13ifvqcu0","pricing_plan_id":"cebpf4jnsgd1na2vs0mg"},{"bike_id":"721f8fee-041d-4608-8378-9f2a31fbcbf4","system_id":"levelo_inurba_marseille","lat":43.309047,"lon":5.396551,"is_reserved":false,"is_disabled":false,"rental_uris":{"android":"levelo://app?vid=721f8fee-041d-4608-8378-9f2a31fbcbf4","ios":"levelo://app?vid=721f8fee-041d-4608-8378-9f2a31fbcbf4"},"vehicle_type_id":"4","last_reported":1718734278,"current_range_meters":17200,"station_id":"ce4bh012rcd13ifvqcv0","pricing_plan_id":"cebpf4jnsgd1na2vs0mg"},{"bike_id":"5f808797-e1d5-4cad-831f-47eba3c6998e","system_id":"levelo_inurba_marseille","lat":43.309038,"lon":5.396546,"is_reserved":false,"is_disabled":false,"rental_uris":{"android":"levelo://app?vid=5f808797-e1d5-4cad-831f-47eba3c6998e","ios":"levelo://app?vid=5f808797-e1d5-4cad-831f-47eba3c6998e"},"vehicle_type_id":"4","last_reported":1718734278,"current_range_meters":30400,"station_id":"ce4bh012rcd13ifvqcv0","pricing_plan_id":"cebpf4jnsgd1na2vs0mg"},{"bike_id":"feb7905a-338d-4d0f-92dc-27024731d5ac","system_id":"levelo_inurba_marseille","lat":43.309038,"lon":5.396546,"is_reserved":false,"is_disabled":false,"rental_uris":{"android":"levelo://app?vid=feb7905a-338d-4d0f-92dc-27024731d5ac","ios":"levelo://app?vid=feb7905a-338d-4d0f-92dc-27024731d5ac"},"vehicle_type_id":"4","last_reported":1718734278,"current_range_meters":4800,"station_id":"ce4bh012rcd13ifvqcv0","pricing_plan_id":"cebpf4jnsgd1na2vs0mg"},{"bike_id":"cc5b900f-5ec5-4611-8ca3-a404f35cc453","system_id":"levelo_inurba_marseille","lat":43.302008,"lon":5.394694,"is_reserved":false,"is_disabled":false,"rental_uris":{"android":"levelo://app?vid=cc5b900f-5ec5-4611-8ca3-a404f35cc453","ios":"levelo://app?vid=cc5b900f-5ec5-4611-8ca3-a404f35cc453"},"vehicle_type_id":"4","last_reported":1718734278,"current_range_meters":13600,"station_id":"ce4bh0p2rcd13ifvqd70","pricing_plan_id":"cebpf4jnsgd1na2vs0mg"},{"bike_id":"8251d660-4a4f-410f-a9c0-630f3440909a","system_id":"levelo_inurba_marseille","lat":43.29529,"lon":5.385581,"is_reserved":false,"is_disabled":false,"rental_uris":{"android":"levelo://app?vid=8251d660-4a4f-410f-a9c0-630f3440909a","ios":"levelo://app?vid=8251d660-4a4f-410f-a9c0-630f3440909a"},"vehicle_type_id":"4","last_reported":1718734278,"current_range_meters":16000,"station_id":"ce4bgih2rcd13ifvqba0","pricing_plan_id":"cebpf4jnsgd1na2vs0mg"},{"bike_id":"4ea56b58-1cfe-46ee-b8cd-98eb3de37b0c","system_id":"levelo_inurba_marseille","lat":43.29529,"lon":5.385581,"is_reserved":false,"is_disabled":false,"rental_uris":{"android":"levelo://app?vid=4ea56b58-1cfe-46ee-b8cd-98eb3de37b0c","ios":"levelo://app?vid=4ea56b58-1cfe-46ee-b8cd-98eb3de37b0c"},"vehicle_type_id":"4","last_reported":1718734278,"current_range_meters":13600,"station_id":"ce4bgih2rcd13ifvqba0","pricing_plan_id":"cebpf4jnsgd1na2vs0mg"},{"bike_id":"0cab975a-66bb-4520-a5fe-1f367a2c6de4","system_id":"levelo_inurba_marseille","lat":43.290779,"lon":5.371482,"is_reserved":false,"is_disabled":false,"rental_uris":{"android":"levelo://app?vid=0cab975a-66bb-4520-a5fe-1f367a2c6de4","ios":"levelo://app?vid=0cab975a-66bb-4520-a5fe-1f367a2c6de4"},"vehicle_type_id":"4","last_reported":1718734278,"current_range_meters":0,"station_id":"ce4bh5p2rcd13ifvqe4g","pricing_plan_id":"cebpf4jnsgd1na2vs0mg"},{"bike_id":"d04f6550-d7b3-4aea-84d0-cea4519609c1","system_id":"levelo_inurba_marseille","lat":43.290779,"lon":5.371482,"is_reserved":false,"is_disabled":false,"rental_uris":{"android":"levelo://app?vid=d04f6550-d7b3-4aea-84d0-cea4519609c1","ios":"levelo://app?vid=d04f6550-d7b3-4aea-84d0-cea4519609c1"},"vehicle_type_id":"4","last_reported":1718734278,"current_range_meters":1600,"station_id":"ce4bh5p2rcd13ifvqe4g","pricing_plan_id":"cebpf4jnsgd1na2vs0mg"},{"bike_id":"6fab8e58-c250-487d-875a-8db214d43e7f","system_id":"levelo_inurba_marseille","lat":43.294162,"lon":5.386292,"is_reserved":false,"is_disabled":false,"rental_uris":{"android":"levelo://app?vid=6fab8e58-c250-487d-875a-8db214d43e7f","ios":"levelo://app?vid=6fab8e58-c250-487d-875a-8db214d43e7f"},"vehicle_type_id":"4","last_reported":1718734278,"current_range_meters":0,"station_id":"ce4bh2h2rcd13ifvqdh0","pricing_plan_id":"cebpf4jnsgd1na2vs0mg"},{"bike_id":"e649854d-63e4-4af4-a3fd-47c2f9ce1d9d","system_id":"levelo_inurba_marseille","lat":43.290624,"lon":5.359245,"is_reserved":false,"is_disabled":false,"rental_uris":{"android":"levelo://app?vid=e649854d-63e4-4af4-a3fd-47c2f9ce1d9d","ios":"levelo://app?vid=e649854d-63e4-4af4-a3fd-47c2f9ce1d9d"},"vehicle_type_id":"4","last_reported":1718734278,"current_range_meters":27200,"station_id":"ce4bha92rcd13ifvqeg0","pricing_plan_id":"cebpf4jnsgd1na2vs0mg"},{"bike_id":"05c1c740-0332-4cf8-8fa4-b08ab16cba4c","system_id":"levelo_inurba_marseille","lat":43.292637,"lon":5.382552,"is_reserved":false,"is_disabled":false,"rental_uris":{"android":"levelo://app?vid=05c1c740-0332-4cf8-8fa4-b08ab16cba4c","ios":"levelo://app?vid=05c1c740-0332-4cf8-8fa4-b08ab16cba4c"},"vehicle_type_id":"4","last_reported":1718734278,"current_range_meters":21600,"station_id":"","pricing_plan_id":"cebpf4jnsgd1na2vs0mg"},{"bike_id":"b1e98388-33d2-41d6-b555-6d786b5ba324","system_id":"levelo_inurba_marseille","lat":43.293186,"lon":5.383836,"is_reserved":false,"is_disabled":false,"rental_uris":{"android":"levelo://app?vid=b1e98388-33d2-41d6-b555-6d786b5ba324","ios":"levelo://app?vid=b1e98388-33d2-41d6-b555-6d786b5ba324"},"vehicle_type_id":"4","last_reported":1718734278,"current_range_meters":6800,"station_id":"","pricing_plan_id":"cebpf4jnsgd1na2vs0mg"},{"bike_id":"72637fcd-3f4b-431f-9868-6060e919b6cd","system_id":"levelo_inurba_marseille","lat":43.294162,"lon":5.386292,"is_reserved":false,"is_disabled":false,"rental_uris":{"android":"levelo://app?vid=72637fcd-3f4b-431f-9868-6060e919b6cd","ios":"levelo://app?vid=72637fcd-3f4b-431f-9868-6060e919b6cd"},"vehicle_type_id":"4","last_reported":1718734278,"current_range_meters":31200,"station_id":"ce4bh2h2rcd13ifvqdh0","pricing_plan_id":"cebpf4jnsgd1na2vs0mg"},{"bike_id":"ae0fd37e-998c-4ac3-af0c-1678a56ffc32","system_id":"levelo_inurba_marseille","lat":43.29423,"lon":5.38629,"is_reserved":false,"is_disabled":false,"rental_uris":{"android":"levelo://app?vid=ae0fd37e-998c-4ac3-af0c-1678a56ffc32","ios":"levelo://app?vid=ae0fd37e-998c-4ac3-af0c-1678a56ffc32"},"vehicle_type_id":"4","last_reported":1718734278,"current_range_meters":0,"station_id":"ce4bh2h2rcd13ifvqdh0","pricing_plan_id":"cebpf4jnsgd1na2vs0mg"},{"bike_id":"d55cedf6-d211-4ecc-b2ae-1001ee8ae0b1","system_id":"levelo_inurba_marseille","lat":43.294162,"lon":5.386292,"is_reserved":false,"is_disabled":false,"rental_uris":{"android":"levelo://app?vid=d55cedf6-d211-4ecc-b2ae-1001ee8ae0b1","ios":"levelo://app?vid=d55cedf6-d211-4ecc-b2ae-1001ee8ae0b1"},"vehicle_type_id":"4","last_reported":1718734278,"current_range_meters":26400,"station_id":"ce4bh2h2rcd13ifvqdh0","pricing_plan_id":"cebpf4jnsgd1na2vs0mg"},{"bike_id":"b092bfd8-2d38-4fef-8a50-392d2d95a1e2","system_id":"levelo_inurba_marseille","lat":43.29416,"lon":5.38618,"is_reserved":false,"is_disabled":false,"rental_uris":{"android":"levelo://app?vid=b092bfd8-2d38-4fef-8a50-392d2d95a1e2","ios":"levelo://app?vid=b092bfd8-2d38-4fef-8a50-392d2d95a1e2"},"vehicle_type_id":"4","last_reported":1718734278,"current_range_meters":0,"station_id":"ce4bh2h2rcd13ifvqdh0","pricing_plan_id":"cebpf4jnsgd1na2vs0mg"},{"bike_id":"db6ed214-3b92-4d9e-8f8d-4941b627046a","system_id":"levelo_inurba_marseille","lat":43.289184,"lon":5.366408,"is_reserved":false,"is_disabled":false,"rental_uris":{"android":"levelo://app?vid=db6ed214-3b92-4d9e-8f8d-4941b627046a","ios":"levelo://app?vid=db6ed214-3b92-4d9e-8f8d-4941b627046a"},"vehicle_type_id":"4","last_reported":1718734278,"current_range_meters":0,"station_id":"ce4bhap2rcd13ifvqek0","pricing_plan_id":"cebpf4jnsgd1na2vs0mg"},{"bike_id":"d7640577-e51f-48c4-b248-55012a402cf5","system_id":"levelo_inurba_marseille","lat":43.294162,"lon":5.386292,"is_reserved":false,"is_disabled":false,"rental_uris":{"android":"levelo://app?vid=d7640577-e51f-48c4-b248-55012a402cf5","ios":"levelo://app?vid=d7640577-e51f-48c4-b248-55012a402cf5"},"vehicle_type_id":"4","last_reported":1718734278,"current_range_meters":2000,"station_id":"ce4bh2h2rcd13ifvqdh0","pricing_plan_id":"cebpf4jnsgd1na2vs0mg"},{"bike_id":"ba31ef58-cf61-4f1d-85ba-891b3e75900a","system_id":"levelo_inurba_marseille","lat":43.29421,"lon":5.3863,"is_reserved":false,"is_disabled":false,"rental_uris":{"android":"levelo://app?vid=ba31ef58-cf61-4f1d-85ba-891b3e75900a","ios":"levelo://app?vid=ba31ef58-cf61-4f1d-85ba-891b3e75900a"},"vehicle_type_id":"4","last_reported":1718734278,"current_range_meters":0,"station_id":"ce4bh2h2rcd13ifvqdh0","pricing_plan_id":"cebpf4jnsgd1na2vs0mg"},{"bike_id":"e80a6351-a60b-4bb5-823f-75ebbd93ef98","system_id":"levelo_inurba_marseille","lat":43.29417,"lon":5.38623,"is_reserved":false,"is_disabled":false,"rental_uris":{"android":"levelo://app?vid=e80a6351-a60b-4bb5-823f-75ebbd93ef98","ios":"levelo://app?vid=e80a6351-a60b-4bb5-823f-75ebbd93ef98"},"vehicle_type_id":"4","last_reported":1718734278,"current_range_meters":1600,"station_id":"ce4bh2h2rcd13ifvqdh0","pricing_plan_id":"cebpf4jnsgd1na2vs0mg"},{"bike_id":"25b9cc58-4ec1-4515-a96a-40f70b856077","system_id":"levelo_inurba_marseille","lat":43.294153,"lon":5.386305,"is_reserved":false,"is_disabled":false,"rental_uris":{"android":"levelo://app?vid=25b9cc58-4ec1-4515-a96a-40f70b856077","ios":"levelo://app?vid=25b9cc58-4ec1-4515-a96a-40f70b856077"},"vehicle_type_id":"4","last_reported":1718734278,"current_range_meters":3600,"station_id":"ce4bh2h2rcd13ifvqdh0","pricing_plan_id":"cebpf4jnsgd1na2vs0mg"},{"bike_id":"acd9f16a-825f-49e1-808f-6aa4c0edfdbb","system_id":"levelo_inurba_marseille","lat":43.29419,"lon":5.38631,"is_reserved":false,"is_disabled":false,"rental_uris":{"android":"levelo://app?vid=acd9f16a-825f-49e1-808f-6aa4c0edfdbb","ios":"levelo://app?vid=acd9f16a-825f-49e1-808f-6aa4c0edfdbb"},"vehicle_type_id":"4","last_reported":1718734278,"current_range_meters":0,"station_id":"ce4bh2h2rcd13ifvqdh0","pricing_plan_id":"cebpf4jnsgd1na2vs0mg"},{"bike_id":"4f097406-bef0-425e-b937-41d490600f04","system_id":"levelo_inurba_marseille","lat":43.294162,"lon":5.386292,"is_reserved":false,"is_disabled":false,"rental_uris":{"android":"levelo://app?vid=4f097406-bef0-425e-b937-41d490600f04","ios":"levelo://app?vid=4f097406-bef0-425e-b937-41d490600f04"},"vehicle_type_id":"4","last_reported":1718734278,"current_range_meters":0,"station_id":"ce4bh2h2rcd13ifvqdh0","pricing_plan_id":"cebpf4jnsgd1na2vs0mg"},{"bike_id":"008c481a-9700-45e7-9997-72c304df78cc","system_id":"levelo_inurba_marseille","lat":43.2895,"lon":5.36406,"is_reserved":false,"is_disabled":false,"rental_uris":{"android":"levelo://app?vid=008c481a-9700-45e7-9997-72c304df78cc","ios":"levelo://app?vid=008c481a-9700-45e7-9997-72c304df78cc"},"vehicle_type_id":"4","last_reported":1718734278,"current_range_meters":14000,"station_id":"ce4bhc92rcd13ifvqetg","pricing_plan_id":"cebpf4jnsgd1na2vs0mg"},{"bike_id":"997290a6-b23c-4019-885c-1c17350145c4","system_id":"levelo_inurba_marseille","lat":43.289468,"lon":5.363719,"is_reserved":false,"is_disabled":false,"rental_uris":{"android":"levelo://app?vid=997290a6-b23c-4019-885c-1c17350145c4","ios":"levelo://app?vid=997290a6-b23c-4019-885c-1c17350145c4"},"vehicle_type_id":"4","last_reported":1718734278,"current_range_meters":0,"station_id":"ce4bhc92rcd13ifvqetg","pricing_plan_id":"cebpf4jnsgd1na2vs0mg"},{"bike_id":"593115f9-8bfe-486d-8dc3-7098a5b6e272","system_id":"levelo_inurba_marseille","lat":43.284534,"lon":5.358662,"is_reserved":false,"is_disabled":false,"rental_uris":{"android":"levelo://app?vid=593115f9-8bfe-486d-8dc3-7098a5b6e272","ios":"levelo://app?vid=593115f9-8bfe-486d-8dc3-7098a5b6e272"},"vehicle_type_id":"4","last_reported":1718734278,"current_range_meters":1200,"station_id":"ce4bhah2rcd13ifvqei0","pricing_plan_id":"cebpf4jnsgd1na2vs0mg"},{"bike_id":"7cc4da13-373f-462a-a6d4-aafa22976440","system_id":"levelo_inurba_marseille","lat":43.296935,"lon":5.376544,"is_reserved":false,"is_disabled":false,"rental_uris":{"android":"levelo://app?vid=7cc4da13-373f-462a-a6d4-aafa22976440","ios":"levelo://app?vid=7cc4da13-373f-462a-a6d4-aafa22976440"},"vehicle_type_id":"4","last_reported":1718734278,"current_range_meters":7600,"station_id":"ce4bgkh2rcd13ifvqbl0","pricing_plan_id":"cebpf4jnsgd1na2vs0mg"},{"bike_id":"ad5eed30-a813-4895-a61a-2d87cbb33508","system_id":"levelo_inurba_marseille","lat":43.29278,"lon":5.38429,"is_reserved":false,"is_disabled":false,"rental_uris":{"android":"levelo://app?vid=ad5eed30-a813-4895-a61a-2d87cbb33508","ios":"levelo://app?vid=ad5eed30-a813-4895-a61a-2d87cbb33508"},"vehicle_type_id":"4","last_reported":1718734278,"current_range_meters":23600,"station_id":"ce4bh692rcd13ifvqea0","pricing_plan_id":"cebpf4jnsgd1na2vs0mg"},{"bike_id":"824483c1-b771-4a5e-86a2-eaac8229635c","system_id":"levelo_inurba_marseille","lat":43.29271,"lon":5.38436,"is_reserved":false,"is_disabled":false,"rental_uris":{"android":"levelo://app?vid=824483c1-b771-4a5e-86a2-eaac8229635c","ios":"levelo://app?vid=824483c1-b771-4a5e-86a2-eaac8229635c"},"vehicle_type_id":"4","last_reported":1718734278,"current_range_meters":2800,"station_id":"ce4bh692rcd13ifvqea0","pricing_plan_id":"cebpf4jnsgd1na2vs0mg"},{"bike_id":"ed8a2769-e95a-4ee6-a472-2cef407a7cba","system_id":"levelo_inurba_marseille","lat":43.292689,"lon":5.384392,"is_reserved":false,"is_disabled":false,"rental_uris":{"android":"levelo://app?vid=ed8a2769-e95a-4ee6-a472-2cef407a7cba","ios":"levelo://app?vid=ed8a2769-e95a-4ee6-a472-2cef407a7cba"},"vehicle_type_id":"4","last_reported":1718734278,"current_range_meters":0,"station_id":"ce4bh692rcd13ifvqea0","pricing_plan_id":"cebpf4jnsgd1na2vs0mg"},{"bike_id":"71961fe4-eab2-4ae6-a15c-3a96e41921d0","system_id":"levelo_inurba_marseille","lat":43.292644,"lon":5.384257,"is_reserved":false,"is_disabled":false,"rental_uris":{"android":"levelo://app?vid=71961fe4-eab2-4ae6-a15c-3a96e41921d0","ios":"levelo://app?vid=71961fe4-eab2-4ae6-a15c-3a96e41921d0"},"vehicle_type_id":"4","last_reported":1718734278,"current_range_meters":3600,"station_id":"ce4bh692rcd13ifvqea0","pricing_plan_id":"cebpf4jnsgd1na2vs0mg"},{"bike_id":"a49b190f-99f1-4f90-9bc5-a3fbae1d26c2","system_id":"levelo_inurba_marseille","lat":43.292644,"lon":5.384257,"is_reserved":false,"is_disabled":false,"rental_uris":{"android":"levelo://app?vid=a49b190f-99f1-4f90-9bc5-a3fbae1d26c2","ios":"levelo://app?vid=a49b190f-99f1-4f90-9bc5-a3fbae1d26c2"},"vehicle_type_id":"4","last_reported":1718734278,"current_range_meters":6400,"station_id":"ce4bh692rcd13ifvqea0","pricing_plan_id":"cebpf4jnsgd1na2vs0mg"},{"bike_id":"8953f493-30d8-4917-bc7c-91607c3adafb","system_id":"levelo_inurba_marseille","lat":43.29263,"lon":5.38439,"is_reserved":false,"is_disabled":false,"rental_uris":{"android":"levelo://app?vid=8953f493-30d8-4917-bc7c-91607c3adafb","ios":"levelo://app?vid=8953f493-30d8-4917-bc7c-91607c3adafb"},"vehicle_type_id":"4","last_reported":1718734278,"current_range_meters":24400,"station_id":"ce4bh692rcd13ifvqea0","pricing_plan_id":"cebpf4jnsgd1na2vs0mg"},{"bike_id":"d2473832-58cc-4cea-a3ba-c57ec665243d","system_id":"levelo_inurba_marseille","lat":43.29263,"lon":5.38443,"is_reserved":false,"is_disabled":false,"rental_uris":{"android":"levelo://app?vid=d2473832-58cc-4cea-a3ba-c57ec665243d","ios":"levelo://app?vid=d2473832-58cc-4cea-a3ba-c57ec665243d"},"vehicle_type_id":"4","last_reported":1718734278,"current_range_meters":0,"station_id":"ce4bh692rcd13ifvqea0","pricing_plan_id":"cebpf4jnsgd1na2vs0mg"},{"bike_id":"65f3a870-4a31-48bb-a30f-61e34d2688d9","system_id":"levelo_inurba_marseille","lat":43.2926,"lon":5.38439,"is_reserved":false,"is_disabled":false,"rental_uris":{"android":"levelo://app?vid=65f3a870-4a31-48bb-a30f-61e34d2688d9","ios":"levelo://app?vid=65f3a870-4a31-48bb-a30f-61e34d2688d9"},"vehicle_type_id":"4","last_reported":1718734278,"current_range_meters":0,"station_id":"ce4bh692rcd13ifvqea0","pricing_plan_id":"cebpf4jnsgd1na2vs0mg"},{"bike_id":"d7b7ecda-da6d-4bdb-a855-77233142cdfe","system_id":"levelo_inurba_marseille","lat":43.292644,"lon":5.384257,"is_reserved":false,"is_disabled":false,"rental_uris":{"android":"levelo://app?vid=d7b7ecda-da6d-4bdb-a855-77233142cdfe","ios":"levelo://app?vid=d7b7ecda-da6d-4bdb-a855-77233142cdfe"},"vehicle_type_id":"4","last_reported":1718734278,"current_range_meters":5600,"station_id":"ce4bh692rcd13ifvqea0","pricing_plan_id":"cebpf4jnsgd1na2vs0mg"},{"bike_id":"0fb48327-ecdc-452c-95f4-548ee1f4e3d2","system_id":"levelo_inurba_marseille","lat":43.29258,"lon":5.38447,"is_reserved":false,"is_disabled":false,"rental_uris":{"android":"levelo://app?vid=0fb48327-ecdc-452c-95f4-548ee1f4e3d2","ios":"levelo://app?vid=0fb48327-ecdc-452c-95f4-548ee1f4e3d2"},"vehicle_type_id":"4","last_reported":1718734278,"current_range_meters":11600,"station_id":"ce4bh692rcd13ifvqea0","pricing_plan_id":"cebpf4jnsgd1na2vs0mg"},{"bike_id":"8eb14213-f31c-4c78-92fd-96e7476da16c","system_id":"levelo_inurba_marseille","lat":43.29254,"lon":5.384523,"is_reserved":false,"is_disabled":false,"rental_uris":{"android":"levelo://app?vid=8eb14213-f31c-4c78-92fd-96e7476da16c","ios":"levelo://app?vid=8eb14213-f31c-4c78-92fd-96e7476da16c"},"vehicle_type_id":"4","last_reported":1718734278,"current_range_meters":0,"station_id":"ce4bh692rcd13ifvqea0","pricing_plan_id":"cebpf4jnsgd1na2vs0mg"},{"bike_id":"7a719241-0cca-41ff-b0eb-048b9df88ce8","system_id":"levelo_inurba_marseille","lat":43.29008,"lon":5.3561,"is_reserved":false,"is_disabled":false,"rental_uris":{"android":"levelo://app?vid=7a719241-0cca-41ff-b0eb-048b9df88ce8","ios":"levelo://app?vid=7a719241-0cca-41ff-b0eb-048b9df88ce8"},"vehicle_type_id":"4","last_reported":1718734278,"current_range_meters":0,"station_id":"ce4bhb92rcd13ifvqen0","pricing_plan_id":"cebpf4jnsgd1na2vs0mg"},{"bike_id":"e46c3884-1aa7-4cba-8c7c-5a6ce806aa90","system_id":"levelo_inurba_marseille","lat":43.290995,"lon":5.381361,"is_reserved":false,"is_disabled":false,"rental_uris":{"android":"levelo://app?vid=e46c3884-1aa7-4cba-8c7c-5a6ce806aa90","ios":"levelo://app?vid=e46c3884-1aa7-4cba-8c7c-5a6ce806aa90"},"vehicle_type_id":"4","last_reported":1718734278,"current_range_meters":28000,"station_id":"ce4bh512rcd13ifvqe2g","pricing_plan_id":"cebpf4jnsgd1na2vs0mg"},{"bike_id":"f696c373-a7ff-4876-b888-d3f7258e48f8","system_id":"levelo_inurba_marseille","lat":43.289743,"lon":5.378304,"is_reserved":false,"is_disabled":false,"rental_uris":{"android":"levelo://app?vid=f696c373-a7ff-4876-b888-d3f7258e48f8","ios":"levelo://app?vid=f696c373-a7ff-4876-b888-d3f7258e48f8"},"vehicle_type_id":"4","last_reported":1718734278,"current_range_meters":3600,"station_id":"ce4bh9p2rcd13ifvqed0","pricing_plan_id":"cebpf4jnsgd1na2vs0mg"},{"bike_id":"10e21d52-c31c-4d24-9f85-99c266870ba4","system_id":"levelo_inurba_marseille","lat":43.297815,"lon":5.393548,"is_reserved":false,"is_disabled":false,"rental_uris":{"android":"levelo://app?vid=10e21d52-c31c-4d24-9f85-99c266870ba4","ios":"levelo://app?vid=10e21d52-c31c-4d24-9f85-99c266870ba4"},"vehicle_type_id":"4","last_reported":1718734278,"current_range_meters":9200,"station_id":"chh1huq6cuj3fo74tm60","pricing_plan_id":"cebpf4jnsgd1na2vs0mg"},{"bike_id":"a06a4a42-00d2-4a48-bffd-5c78109c5e6c","system_id":"levelo_inurba_marseille","lat":43.295169,"lon":5.390426,"is_reserved":false,"is_disabled":false,"rental_uris":{"android":"levelo://app?vid=a06a4a42-00d2-4a48-bffd-5c78109c5e6c","ios":"levelo://app?vid=a06a4a42-00d2-4a48-bffd-5c78109c5e6c"},"vehicle_type_id":"4","last_reported":1718734278,"current_range_meters":28000,"station_id":"ce4bh3p2rcd13ifvqdp0","pricing_plan_id":"cebpf4jnsgd1na2vs0mg"},{"bike_id":"a9b251dc-23d9-4c0f-b812-25f535b0364c","system_id":"levelo_inurba_marseille","lat":43.330442,"lon":5.389148,"is_reserved":false,"is_disabled":false,"rental_uris":{"android":"levelo://app?vid=a9b251dc-23d9-4c0f-b812-25f535b0364c","ios":"levelo://app?vid=a9b251dc-23d9-4c0f-b812-25f535b0364c"},"vehicle_type_id":"4","last_reported":1718734278,"current_range_meters":22400,"station_id":"ce4bhr92rcd13ifvqhrg","pricing_plan_id":"cebpf4jnsgd1na2vs0mg"},{"bike_id":"0730759c-6be7-4aff-967c-50252f00b57d","system_id":"levelo_inurba_marseille","lat":43.295169,"lon":5.390426,"is_reserved":false,"is_disabled":false,"rental_uris":{"android":"levelo://app?vid=0730759c-6be7-4aff-967c-50252f00b57d","ios":"levelo://app?vid=0730759c-6be7-4aff-967c-50252f00b57d"},"vehicle_type_id":"4","last_reported":1718734278,"current_range_meters":26000,"station_id":"ce4bh3p2rcd13ifvqdp0","pricing_plan_id":"cebpf4jnsgd1na2vs0mg"},{"bike_id":"fa7e4a3f-a65c-42f8-bf82-5741bf2d8cbc","system_id":"levelo_inurba_marseille","lat":43.330442,"lon":5.389148,"is_reserved":false,"is_disabled":false,"rental_uris":{"android":"levelo://app?vid=fa7e4a3f-a65c-42f8-bf82-5741bf2d8cbc","ios":"levelo://app?vid=fa7e4a3f-a65c-42f8-bf82-5741bf2d8cbc"},"vehicle_type_id":"4","last_reported":1718734278,"current_range_meters":2000,"station_id":"ce4bhr92rcd13ifvqhrg","pricing_plan_id":"cebpf4jnsgd1na2vs0mg"},{"bike_id":"1380cf47-8376-48ab-9398-c806f9dee56d","system_id":"levelo_inurba_marseille","lat":43.30217,"lon":5.39751,"is_reserved":false,"is_disabled":false,"rental_uris":{"android":"levelo://app?vid=1380cf47-8376-48ab-9398-c806f9dee56d","ios":"levelo://app?vid=1380cf47-8376-48ab-9398-c806f9dee56d"},"vehicle_type_id":"4","last_reported":1718734278,"current_range_meters":28400,"station_id":"ce4bh0h2rcd13ifvqd60","pricing_plan_id":"cebpf4jnsgd1na2vs0mg"},{"bike_id":"0b68d264-8960-4f9b-9851-a86b623cd292","system_id":"levelo_inurba_marseille","lat":43.290094,"lon":5.381264,"is_reserved":false,"is_disabled":false,"rental_uris":{"android":"levelo://app?vid=0b68d264-8960-4f9b-9851-a86b623cd292","ios":"levelo://app?vid=0b68d264-8960-4f9b-9851-a86b623cd292"},"vehicle_type_id":"4","last_reported":1718734278,"current_range_meters":0,"station_id":"ce4bh4p2rcd13ifvqe1g","pricing_plan_id":"cebpf4jnsgd1na2vs0mg"},{"bike_id":"2f1bddc2-b6cb-4983-9d57-d59e3d584d8f","system_id":"levelo_inurba_marseille","lat":43.2901,"lon":5.381269,"is_reserved":false,"is_disabled":false,"rental_uris":{"android":"levelo://app?vid=2f1bddc2-b6cb-4983-9d57-d59e3d584d8f","ios":"levelo://app?vid=2f1bddc2-b6cb-4983-9d57-d59e3d584d8f"},"vehicle_type_id":"4","last_reported":1718734278,"current_range_meters":0,"station_id":"ce4bh4p2rcd13ifvqe1g","pricing_plan_id":"cebpf4jnsgd1na2vs0mg"},{"bike_id":"91d942f0-8f0e-47af-b467-5fda5a3ba290","system_id":"levelo_inurba_marseille","lat":43.31076,"lon":5.400934,"is_reserved":false,"is_disabled":false,"rental_uris":{"android":"levelo://app?vid=91d942f0-8f0e-47af-b467-5fda5a3ba290","ios":"levelo://app?vid=91d942f0-8f0e-47af-b467-5fda5a3ba290"},"vehicle_type_id":"4","last_reported":1718734278,"current_range_meters":24800,"station_id":"","pricing_plan_id":"cebpf4jnsgd1na2vs0mg"},{"bike_id":"b9eb3713-12a1-4dbc-81bf-bf7cfd0a1a7f","system_id":"levelo_inurba_marseille","lat":43.2901,"lon":5.381269,"is_reserved":false,"is_disabled":false,"rental_uris":{"android":"levelo://app?vid=b9eb3713-12a1-4dbc-81bf-bf7cfd0a1a7f","ios":"levelo://app?vid=b9eb3713-12a1-4dbc-81bf-bf7cfd0a1a7f"},"vehicle_type_id":"4","last_reported":1718734278,"current_range_meters":0,"station_id":"ce4bh4p2rcd13ifvqe1g","pricing_plan_id":"cebpf4jnsgd1na2vs0mg"},{"bike_id":"3a3dc6bc-8349-400b-8a73-808d24d78dc9","system_id":"levelo_inurba_marseille","lat":43.28856,"lon":5.358371,"is_reserved":false,"is_disabled":false,"rental_uris":{"android":"levelo://app?vid=3a3dc6bc-8349-400b-8a73-808d24d78dc9","ios":"levelo://app?vid=3a3dc6bc-8349-400b-8a73-808d24d78dc9"},"vehicle_type_id":"4","last_reported":1718734278,"current_range_meters":31200,"station_id":"ce4bhb12rcd13ifvqem0","pricing_plan_id":"cebpf4jnsgd1na2vs0mg"},{"bike_id":"0bc3cd9e-3c01-4ed9-9294-e7af37c2d884","system_id":"levelo_inurba_marseille","lat":43.28859,"lon":5.35859,"is_reserved":false,"is_disabled":false,"rental_uris":{"android":"levelo://app?vid=0bc3cd9e-3c01-4ed9-9294-e7af37c2d884","ios":"levelo://app?vid=0bc3cd9e-3c01-4ed9-9294-e7af37c2d884"},"vehicle_type_id":"4","last_reported":1718734278,"current_range_meters":3600,"station_id":"ce4bhb12rcd13ifvqem0","pricing_plan_id":"cebpf4jnsgd1na2vs0mg"},{"bike_id":"f609382f-2891-4679-9bcb-2e20c8dcc94e","system_id":"levelo_inurba_marseille","lat":43.28856,"lon":5.358371,"is_reserved":false,"is_disabled":false,"rental_uris":{"android":"levelo://app?vid=f609382f-2891-4679-9bcb-2e20c8dcc94e","ios":"levelo://app?vid=f609382f-2891-4679-9bcb-2e20c8dcc94e"},"vehicle_type_id":"4","last_reported":1718734278,"current_range_meters":25600,"station_id":"ce4bhb12rcd13ifvqem0","pricing_plan_id":"cebpf4jnsgd1na2vs0mg"},{"bike_id":"879633ef-7751-4dc4-abee-9d9eb2cb178b","system_id":"levelo_inurba_marseille","lat":43.288574,"lon":5.358446,"is_reserved":false,"is_disabled":false,"rental_uris":{"android":"levelo://app?vid=879633ef-7751-4dc4-abee-9d9eb2cb178b","ios":"levelo://app?vid=879633ef-7751-4dc4-abee-9d9eb2cb178b"},"vehicle_type_id":"4","last_reported":1718734278,"current_range_meters":26800,"station_id":"ce4bhb12rcd13ifvqem0","pricing_plan_id":"cebpf4jnsgd1na2vs0mg"},{"bike_id":"a644a467-f363-425b-8cb9-5765fa8a36a0","system_id":"levelo_inurba_marseille","lat":43.28855,"lon":5.35855,"is_reserved":false,"is_disabled":false,"rental_uris":{"android":"levelo://app?vid=a644a467-f363-425b-8cb9-5765fa8a36a0","ios":"levelo://app?vid=a644a467-f363-425b-8cb9-5765fa8a36a0"},"vehicle_type_id":"4","last_reported":1718734278,"current_range_meters":0,"station_id":"ce4bhb12rcd13ifvqem0","pricing_plan_id":"cebpf4jnsgd1na2vs0mg"},{"bike_id":"eb255a74-bffb-43b5-afb6-9f1354cb6aa1","system_id":"levelo_inurba_marseille","lat":43.288549,"lon":5.358393,"is_reserved":false,"is_disabled":false,"rental_uris":{"android":"levelo://app?vid=eb255a74-bffb-43b5-afb6-9f1354cb6aa1","ios":"levelo://app?vid=eb255a74-bffb-43b5-afb6-9f1354cb6aa1"},"vehicle_type_id":"4","last_reported":1718734278,"current_range_meters":16000,"station_id":"ce4bhb12rcd13ifvqem0","pricing_plan_id":"cebpf4jnsgd1na2vs0mg"},{"bike_id":"810149d0-745c-435d-9060-839cffacde0f","system_id":"levelo_inurba_marseille","lat":43.28852,"lon":5.35846,"is_reserved":false,"is_disabled":false,"rental_uris":{"android":"levelo://app?vid=810149d0-745c-435d-9060-839cffacde0f","ios":"levelo://app?vid=810149d0-745c-435d-9060-839cffacde0f"},"vehicle_type_id":"4","last_reported":1718734278,"current_range_meters":24800,"station_id":"ce4bhb12rcd13ifvqem0","pricing_plan_id":"cebpf4jnsgd1na2vs0mg"},{"bike_id":"86e0e7aa-d9c0-417f-b26e-57f52958c093","system_id":"levelo_inurba_marseille","lat":43.291994,"lon":5.392907,"is_reserved":false,"is_disabled":false,"rental_uris":{"android":"levelo://app?vid=86e0e7aa-d9c0-417f-b26e-57f52958c093","ios":"levelo://app?vid=86e0e7aa-d9c0-417f-b26e-57f52958c093"},"vehicle_type_id":"4","last_reported":1718734278,"current_range_meters":0,"station_id":"ce4bh192rcd13ifvqdd0","pricing_plan_id":"cebpf4jnsgd1na2vs0mg"},{"bike_id":"5a5a483b-2875-4dfc-b809-39a64b1bd7a1","system_id":"levelo_inurba_marseille","lat":43.288493,"lon":5.358328,"is_reserved":false,"is_disabled":false,"rental_uris":{"android":"levelo://app?vid=5a5a483b-2875-4dfc-b809-39a64b1bd7a1","ios":"levelo://app?vid=5a5a483b-2875-4dfc-b809-39a64b1bd7a1"},"vehicle_type_id":"4","last_reported":1718734278,"current_range_meters":30000,"station_id":"ce4bhb12rcd13ifvqem0","pricing_plan_id":"cebpf4jnsgd1na2vs0mg"},{"bike_id":"f365957d-76f8-42ca-a8c6-7a01d26ee0ec","system_id":"levelo_inurba_marseille","lat":43.291659,"lon":5.386199,"is_reserved":false,"is_disabled":false,"rental_uris":{"android":"levelo://app?vid=f365957d-76f8-42ca-a8c6-7a01d26ee0ec","ios":"levelo://app?vid=f365957d-76f8-42ca-a8c6-7a01d26ee0ec"},"vehicle_type_id":"4","last_reported":1718734278,"current_range_meters":6800,"station_id":"","pricing_plan_id":"cebpf4jnsgd1na2vs0mg"},{"bike_id":"699f7a2c-1d9f-434d-a0f9-b3a8ef9cc1a7","system_id":"levelo_inurba_marseille","lat":43.309371,"lon":5.401449,"is_reserved":false,"is_disabled":false,"rental_uris":{"android":"levelo://app?vid=699f7a2c-1d9f-434d-a0f9-b3a8ef9cc1a7","ios":"levelo://app?vid=699f7a2c-1d9f-434d-a0f9-b3a8ef9cc1a7"},"vehicle_type_id":"4","last_reported":1718734278,"current_range_meters":0,"station_id":"ce4bgvp2rcd13ifvqct0","pricing_plan_id":"cebpf4jnsgd1na2vs0mg"},{"bike_id":"57fb06ef-26d1-4aea-9fc7-c89e26c6d52f","system_id":"levelo_inurba_marseille","lat":43.309371,"lon":5.401449,"is_reserved":false,"is_disabled":false,"rental_uris":{"android":"levelo://app?vid=57fb06ef-26d1-4aea-9fc7-c89e26c6d52f","ios":"levelo://app?vid=57fb06ef-26d1-4aea-9fc7-c89e26c6d52f"},"vehicle_type_id":"4","last_reported":1718734278,"current_range_meters":25200,"station_id":"ce4bgvp2rcd13ifvqct0","pricing_plan_id":"cebpf4jnsgd1na2vs0mg"},{"bike_id":"4194dd78-daec-4bdb-9378-c74cb0272b04","system_id":"levelo_inurba_marseille","lat":43.309371,"lon":5.401449,"is_reserved":false,"is_disabled":false,"rental_uris":{"android":"levelo://app?vid=4194dd78-daec-4bdb-9378-c74cb0272b04","ios":"levelo://app?vid=4194dd78-daec-4bdb-9378-c74cb0272b04"},"vehicle_type_id":"4","last_reported":1718734278,"current_range_meters":0,"station_id":"ce4bgvp2rcd13ifvqct0","pricing_plan_id":"cebpf4jnsgd1na2vs0mg"},{"bike_id":"309b0c92-5a7b-4b09-b7e4-e29f7f4a760d","system_id":"levelo_inurba_marseille","lat":43.306412,"lon":5.401035,"is_reserved":false,"is_disabled":false,"rental_uris":{"android":"levelo://app?vid=309b0c92-5a7b-4b09-b7e4-e29f7f4a760d","ios":"levelo://app?vid=309b0c92-5a7b-4b09-b7e4-e29f7f4a760d"},"vehicle_type_id":"4","last_reported":1718734278,"current_range_meters":27600,"station_id":"ce4bh112rcd13ifvqda0","pricing_plan_id":"cebpf4jnsgd1na2vs0mg"},{"bike_id":"72cf74b5-9793-456d-ba5e-2d556a7a1254","system_id":"levelo_inurba_marseille","lat":43.301117,"lon":5.398795,"is_reserved":false,"is_disabled":false,"rental_uris":{"android":"levelo://app?vid=72cf74b5-9793-456d-ba5e-2d556a7a1254","ios":"levelo://app?vid=72cf74b5-9793-456d-ba5e-2d556a7a1254"},"vehicle_type_id":"4","last_reported":1718734278,"current_range_meters":0,"station_id":"ce4bh0h2rcd13ifvqd40","pricing_plan_id":"cebpf4jnsgd1na2vs0mg"},{"bike_id":"3e289cf2-d3d7-4cd8-bd79-eba1e68e753d","system_id":"levelo_inurba_marseille","lat":43.301117,"lon":5.398795,"is_reserved":false,"is_disabled":false,"rental_uris":{"android":"levelo://app?vid=3e289cf2-d3d7-4cd8-bd79-eba1e68e753d","ios":"levelo://app?vid=3e289cf2-d3d7-4cd8-bd79-eba1e68e753d"},"vehicle_type_id":"4","last_reported":1718734278,"current_range_meters":0,"station_id":"ce4bh0h2rcd13ifvqd40","pricing_plan_id":"cebpf4jnsgd1na2vs0mg"},{"bike_id":"f79f1281-61c5-463b-a5d2-f32a782e7691","system_id":"levelo_inurba_marseille","lat":43.286961,"lon":5.373785,"is_reserved":false,"is_disabled":false,"rental_uris":{"android":"levelo://app?vid=f79f1281-61c5-463b-a5d2-f32a782e7691","ios":"levelo://app?vid=f79f1281-61c5-463b-a5d2-f32a782e7691"},"vehicle_type_id":"4","last_reported":1718734278,"current_range_meters":0,"station_id":"ce4bh3p2rcd13ifvqdq0","pricing_plan_id":"cebpf4jnsgd1na2vs0mg"},{"bike_id":"d9139920-1391-4e41-bd88-081f8ddeccde","system_id":"levelo_inurba_marseille","lat":43.286961,"lon":5.373785,"is_reserved":false,"is_disabled":false,"rental_uris":{"android":"levelo://app?vid=d9139920-1391-4e41-bd88-081f8ddeccde","ios":"levelo://app?vid=d9139920-1391-4e41-bd88-081f8ddeccde"},"vehicle_type_id":"4","last_reported":1718734278,"current_range_meters":0,"station_id":"ce4bh3p2rcd13ifvqdq0","pricing_plan_id":"cebpf4jnsgd1na2vs0mg"},{"bike_id":"dcc1b67c-e992-4b30-86f4-37fb295034bd","system_id":"levelo_inurba_marseille","lat":43.286961,"lon":5.373785,"is_reserved":false,"is_disabled":false,"rental_uris":{"android":"levelo://app?vid=dcc1b67c-e992-4b30-86f4-37fb295034bd","ios":"levelo://app?vid=dcc1b67c-e992-4b30-86f4-37fb295034bd"},"vehicle_type_id":"4","last_reported":1718734278,"current_range_meters":0,"station_id":"ce4bh3p2rcd13ifvqdq0","pricing_plan_id":"cebpf4jnsgd1na2vs0mg"},{"bike_id":"26030288-ac19-4598-bdf8-691908d4acc8","system_id":"levelo_inurba_marseille","lat":43.286961,"lon":5.373785,"is_reserved":false,"is_disabled":false,"rental_uris":{"android":"levelo://app?vid=26030288-ac19-4598-bdf8-691908d4acc8","ios":"levelo://app?vid=26030288-ac19-4598-bdf8-691908d4acc8"},"vehicle_type_id":"4","last_reported":1718734278,"current_range_meters":4400,"station_id":"ce4bh3p2rcd13ifvqdq0","pricing_plan_id":"cebpf4jnsgd1na2vs0mg"},{"bike_id":"4f0df1e4-14ee-4f78-9f7e-9225b9915d57","system_id":"levelo_inurba_marseille","lat":43.286961,"lon":5.373785,"is_reserved":false,"is_disabled":false,"rental_uris":{"android":"levelo://app?vid=4f0df1e4-14ee-4f78-9f7e-9225b9915d57","ios":"levelo://app?vid=4f0df1e4-14ee-4f78-9f7e-9225b9915d57"},"vehicle_type_id":"4","last_reported":1718734278,"current_range_meters":0,"station_id":"ce4bh3p2rcd13ifvqdq0","pricing_plan_id":"cebpf4jnsgd1na2vs0mg"},{"bike_id":"d56a9493-68b2-4991-8fc7-5d63ee470f88","system_id":"levelo_inurba_marseille","lat":43.298681,"lon":5.397225,"is_reserved":false,"is_disabled":false,"rental_uris":{"android":"levelo://app?vid=d56a9493-68b2-4991-8fc7-5d63ee470f88","ios":"levelo://app?vid=d56a9493-68b2-4991-8fc7-5d63ee470f88"},"vehicle_type_id":"4","last_reported":1718734278,"current_range_meters":0,"station_id":"ce4bh0h2rcd13ifvqd50","pricing_plan_id":"cebpf4jnsgd1na2vs0mg"},{"bike_id":"b16b5c79-fa15-4ce2-984d-cc377ea94fe9","system_id":"levelo_inurba_marseille","lat":43.286591,"lon":5.363346,"is_reserved":false,"is_disabled":false,"rental_uris":{"android":"levelo://app?vid=b16b5c79-fa15-4ce2-984d-cc377ea94fe9","ios":"levelo://app?vid=b16b5c79-fa15-4ce2-984d-cc377ea94fe9"},"vehicle_type_id":"4","last_reported":1718734278,"current_range_meters":14800,"station_id":"ce4bhah2rcd13ifvqej0","pricing_plan_id":"cebpf4jnsgd1na2vs0mg"},{"bike_id":"573c1f8e-0ac6-4e1b-8463-b6ed228b2f2c","system_id":"levelo_inurba_marseille","lat":43.295196,"lon":5.39397,"is_reserved":false,"is_disabled":false,"rental_uris":{"android":"levelo://app?vid=573c1f8e-0ac6-4e1b-8463-b6ed228b2f2c","ios":"levelo://app?vid=573c1f8e-0ac6-4e1b-8463-b6ed228b2f2c"},"vehicle_type_id":"4","last_reported":1718734278,"current_range_meters":0,"station_id":"ce4bh292rcd13ifvqdf0","pricing_plan_id":"cebpf4jnsgd1na2vs0mg"},{"bike_id":"3ef3e6c8-c591-443d-9f15-29cb11c81931","system_id":"levelo_inurba_marseille","lat":43.286961,"lon":5.373785,"is_reserved":false,"is_disabled":false,"rental_uris":{"android":"levelo://app?vid=3ef3e6c8-c591-443d-9f15-29cb11c81931","ios":"levelo://app?vid=3ef3e6c8-c591-443d-9f15-29cb11c81931"},"vehicle_type_id":"4","last_reported":1718734278,"current_range_meters":2800,"station_id":"ce4bh3p2rcd13ifvqdq0","pricing_plan_id":"cebpf4jnsgd1na2vs0mg"},{"bike_id":"97b1cf63-dbf7-478d-90aa-a33c6f2d9f5a","system_id":"levelo_inurba_marseille","lat":43.287185,"lon":5.379373,"is_reserved":false,"is_disabled":false,"rental_uris":{"android":"levelo://app?vid=97b1cf63-dbf7-478d-90aa-a33c6f2d9f5a","ios":"levelo://app?vid=97b1cf63-dbf7-478d-90aa-a33c6f2d9f5a"},"vehicle_type_id":"4","last_reported":1718734278,"current_range_meters":0,"station_id":"ce4bh9p2rcd13ifvqec0","pricing_plan_id":"cebpf4jnsgd1na2vs0mg"},{"bike_id":"48a37802-3a8e-4e46-b647-087ae5bdb745","system_id":"levelo_inurba_marseille","lat":43.302759,"lon":5.400793,"is_reserved":false,"is_disabled":false,"rental_uris":{"android":"levelo://app?vid=48a37802-3a8e-4e46-b647-087ae5bdb745","ios":"levelo://app?vid=48a37802-3a8e-4e46-b647-087ae5bdb745"},"vehicle_type_id":"4","last_reported":1718734278,"current_range_meters":27600,"station_id":"ce4bgvh2rcd13ifvqcs0","pricing_plan_id":"cebpf4jnsgd1na2vs0mg"},{"bike_id":"bf02ffa1-1bfd-497e-88eb-80fea1d47108","system_id":"levelo_inurba_marseille","lat":43.295196,"lon":5.39397,"is_reserved":false,"is_disabled":false,"rental_uris":{"android":"levelo://app?vid=bf02ffa1-1bfd-497e-88eb-80fea1d47108","ios":"levelo://app?vid=bf02ffa1-1bfd-497e-88eb-80fea1d47108"},"vehicle_type_id":"4","last_reported":1718734278,"current_range_meters":1600,"station_id":"ce4bh292rcd13ifvqdf0","pricing_plan_id":"cebpf4jnsgd1na2vs0mg"},{"bike_id":"c26edb61-6a4b-472c-b2ed-ef26cd5e71b4","system_id":"levelo_inurba_marseille","lat":43.29511,"lon":5.39398,"is_reserved":false,"is_disabled":false,"rental_uris":{"android":"levelo://app?vid=c26edb61-6a4b-472c-b2ed-ef26cd5e71b4","ios":"levelo://app?vid=c26edb61-6a4b-472c-b2ed-ef26cd5e71b4"},"vehicle_type_id":"4","last_reported":1718734278,"current_range_meters":9600,"station_id":"","pricing_plan_id":"cebpf4jnsgd1na2vs0mg"},{"bike_id":"7d08d9eb-85ce-492a-92fc-45f0af295176","system_id":"levelo_inurba_marseille","lat":43.295194,"lon":5.39397,"is_reserved":false,"is_disabled":false,"rental_uris":{"android":"levelo://app?vid=7d08d9eb-85ce-492a-92fc-45f0af295176","ios":"levelo://app?vid=7d08d9eb-85ce-492a-92fc-45f0af295176"},"vehicle_type_id":"4","last_reported":1718734278,"current_range_meters":17200,"station_id":"ce4bh292rcd13ifvqdf0","pricing_plan_id":"cebpf4jnsgd1na2vs0mg"},{"bike_id":"6ebdee1c-c6f7-404b-a257-ba1acd898066","system_id":"levelo_inurba_marseille","lat":43.289307,"lon":5.38406,"is_reserved":false,"is_disabled":false,"rental_uris":{"android":"levelo://app?vid=6ebdee1c-c6f7-404b-a257-ba1acd898066","ios":"levelo://app?vid=6ebdee1c-c6f7-404b-a257-ba1acd898066"},"vehicle_type_id":"4","last_reported":1718734278,"current_range_meters":0,"station_id":"ce4bh612rcd13ifvqe6g","pricing_plan_id":"cebpf4jnsgd1na2vs0mg"},{"bike_id":"595af41d-2cf8-48bf-856d-888bcf2e234e","system_id":"levelo_inurba_marseille","lat":43.289307,"lon":5.38406,"is_reserved":false,"is_disabled":false,"rental_uris":{"android":"levelo://app?vid=595af41d-2cf8-48bf-856d-888bcf2e234e","ios":"levelo://app?vid=595af41d-2cf8-48bf-856d-888bcf2e234e"},"vehicle_type_id":"4","last_reported":1718734278,"current_range_meters":20800,"station_id":"ce4bh612rcd13ifvqe6g","pricing_plan_id":"cebpf4jnsgd1na2vs0mg"},{"bike_id":"e45812e1-29cc-4dfa-867a-0841b59f0bac","system_id":"levelo_inurba_marseille","lat":43.290336,"lon":5.386425,"is_reserved":false,"is_disabled":false,"rental_uris":{"android":"levelo://app?vid=e45812e1-29cc-4dfa-867a-0841b59f0bac","ios":"levelo://app?vid=e45812e1-29cc-4dfa-867a-0841b59f0bac"},"vehicle_type_id":"4","last_reported":1718734278,"current_range_meters":0,"station_id":"ce4bh4p2rcd13ifvqe0g","pricing_plan_id":"cebpf4jnsgd1na2vs0mg"},{"bike_id":"757f8638-5231-454a-ad65-b379735a5a3c","system_id":"levelo_inurba_marseille","lat":43.290336,"lon":5.386425,"is_reserved":false,"is_disabled":false,"rental_uris":{"android":"levelo://app?vid=757f8638-5231-454a-ad65-b379735a5a3c","ios":"levelo://app?vid=757f8638-5231-454a-ad65-b379735a5a3c"},"vehicle_type_id":"4","last_reported":1718734278,"current_range_meters":10800,"station_id":"ce4bh4p2rcd13ifvqe0g","pricing_plan_id":"cebpf4jnsgd1na2vs0mg"},{"bike_id":"41208319-7deb-4068-af07-2b0348d5831b","system_id":"levelo_inurba_marseille","lat":43.289307,"lon":5.38406,"is_reserved":false,"is_disabled":false,"rental_uris":{"android":"levelo://app?vid=41208319-7deb-4068-af07-2b0348d5831b","ios":"levelo://app?vid=41208319-7deb-4068-af07-2b0348d5831b"},"vehicle_type_id":"4","last_reported":1718734278,"current_range_meters":0,"station_id":"ce4bh612rcd13ifvqe6g","pricing_plan_id":"cebpf4jnsgd1na2vs0mg"},{"bike_id":"93f128aa-6e38-4aef-91a7-30f5c233208a","system_id":"levelo_inurba_marseille","lat":43.286039,"lon":5.370679,"is_reserved":false,"is_disabled":false,"rental_uris":{"android":"levelo://app?vid=93f128aa-6e38-4aef-91a7-30f5c233208a","ios":"levelo://app?vid=93f128aa-6e38-4aef-91a7-30f5c233208a"},"vehicle_type_id":"4","last_reported":1718734278,"current_range_meters":24000,"station_id":"ce4bht12rcd13ifvqi60","pricing_plan_id":"cebpf4jnsgd1na2vs0mg"},{"bike_id":"7da52684-4ce0-443e-81e6-791b192affa9","system_id":"levelo_inurba_marseille","lat":43.286039,"lon":5.370681,"is_reserved":false,"is_disabled":false,"rental_uris":{"android":"levelo://app?vid=7da52684-4ce0-443e-81e6-791b192affa9","ios":"levelo://app?vid=7da52684-4ce0-443e-81e6-791b192affa9"},"vehicle_type_id":"4","last_reported":1718734278,"current_range_meters":400,"station_id":"ce4bht12rcd13ifvqi60","pricing_plan_id":"cebpf4jnsgd1na2vs0mg"},{"bike_id":"0adfde0d-47bd-41b3-bd19-07dd6894a2c6","system_id":"levelo_inurba_marseille","lat":43.286039,"lon":5.370681,"is_reserved":false,"is_disabled":false,"rental_uris":{"android":"levelo://app?vid=0adfde0d-47bd-41b3-bd19-07dd6894a2c6","ios":"levelo://app?vid=0adfde0d-47bd-41b3-bd19-07dd6894a2c6"},"vehicle_type_id":"4","last_reported":1718734278,"current_range_meters":1200,"station_id":"ce4bht12rcd13ifvqi60","pricing_plan_id":"cebpf4jnsgd1na2vs0mg"},{"bike_id":"9d628282-4581-4615-b2f9-707211f06c44","system_id":"levelo_inurba_marseille","lat":43.286039,"lon":5.370679,"is_reserved":false,"is_disabled":false,"rental_uris":{"android":"levelo://app?vid=9d628282-4581-4615-b2f9-707211f06c44","ios":"levelo://app?vid=9d628282-4581-4615-b2f9-707211f06c44"},"vehicle_type_id":"4","last_reported":1718734278,"current_range_meters":10800,"station_id":"ce4bht12rcd13ifvqi60","pricing_plan_id":"cebpf4jnsgd1na2vs0mg"},{"bike_id":"334fe819-1d88-436b-be71-baf99c22cf77","system_id":"levelo_inurba_marseille","lat":43.316821,"lon":5.404737,"is_reserved":false,"is_disabled":false,"rental_uris":{"android":"levelo://app?vid=334fe819-1d88-436b-be71-baf99c22cf77","ios":"levelo://app?vid=334fe819-1d88-436b-be71-baf99c22cf77"},"vehicle_type_id":"4","last_reported":1718734278,"current_range_meters":2400,"station_id":"ce4bh012rcd13ifvqd00","pricing_plan_id":"cebpf4jnsgd1na2vs0mg"},{"bike_id":"fa9def6d-f207-4343-9602-58fc64b5f98e","system_id":"levelo_inurba_marseille","lat":43.302961,"lon":5.403167,"is_reserved":false,"is_disabled":false,"rental_uris":{"android":"levelo://app?vid=fa9def6d-f207-4343-9602-58fc64b5f98e","ios":"levelo://app?vid=fa9def6d-f207-4343-9602-58fc64b5f98e"},"vehicle_type_id":"4","last_reported":1718734278,"current_range_meters":13200,"station_id":"","pricing_plan_id":"cebpf4jnsgd1na2vs0mg"},{"bike_id":"7bc6e489-11ca-431b-a38e-4ab4e7c04c16","system_id":"levelo_inurba_marseille","lat":43.291994,"lon":5.392907,"is_reserved":false,"is_disabled":false,"rental_uris":{"android":"levelo://app?vid=7bc6e489-11ca-431b-a38e-4ab4e7c04c16","ios":"levelo://app?vid=7bc6e489-11ca-431b-a38e-4ab4e7c04c16"},"vehicle_type_id":"4","last_reported":1718734278,"current_range_meters":4400,"station_id":"ce4bh192rcd13ifvqdd0","pricing_plan_id":"cebpf4jnsgd1na2vs0mg"},{"bike_id":"d13f73fd-64e9-4bc1-9ac2-7106442ab806","system_id":"levelo_inurba_marseille","lat":43.286039,"lon":5.370681,"is_reserved":false,"is_disabled":false,"rental_uris":{"android":"levelo://app?vid=d13f73fd-64e9-4bc1-9ac2-7106442ab806","ios":"levelo://app?vid=d13f73fd-64e9-4bc1-9ac2-7106442ab806"},"vehicle_type_id":"4","last_reported":1718734278,"current_range_meters":8400,"station_id":"ce4bht12rcd13ifvqi60","pricing_plan_id":"cebpf4jnsgd1na2vs0mg"},{"bike_id":"df60a010-cec7-406e-b956-63e20f64401b","system_id":"levelo_inurba_marseille","lat":43.28465,"lon":5.359,"is_reserved":false,"is_disabled":false,"rental_uris":{"android":"levelo://app?vid=df60a010-cec7-406e-b956-63e20f64401b","ios":"levelo://app?vid=df60a010-cec7-406e-b956-63e20f64401b"},"vehicle_type_id":"4","last_reported":1718734278,"current_range_meters":0,"station_id":"ce4bhah2rcd13ifvqei0","pricing_plan_id":"cebpf4jnsgd1na2vs0mg"},{"bike_id":"954742de-953c-4f52-a632-642715777071","system_id":"levelo_inurba_marseille","lat":43.260219,"lon":5.37546,"is_reserved":false,"is_disabled":false,"rental_uris":{"android":"levelo://app?vid=954742de-953c-4f52-a632-642715777071","ios":"levelo://app?vid=954742de-953c-4f52-a632-642715777071"},"vehicle_type_id":"4","last_reported":1718734278,"current_range_meters":15600,"station_id":"ce4bhgh2rcd13ifvqfa0","pricing_plan_id":"cebpf4jnsgd1na2vs0mg"},{"bike_id":"d3b20923-4ecc-43c6-ab1a-27b4f40d87fe","system_id":"levelo_inurba_marseille","lat":43.284538,"lon":5.358657,"is_reserved":false,"is_disabled":false,"rental_uris":{"android":"levelo://app?vid=d3b20923-4ecc-43c6-ab1a-27b4f40d87fe","ios":"levelo://app?vid=d3b20923-4ecc-43c6-ab1a-27b4f40d87fe"},"vehicle_type_id":"4","last_reported":1718734278,"current_range_meters":7200,"station_id":"ce4bhah2rcd13ifvqei0","pricing_plan_id":"cebpf4jnsgd1na2vs0mg"},{"bike_id":"35d7d381-60fb-4c9a-ba81-be59065353d7","system_id":"levelo_inurba_marseille","lat":43.294314,"lon":5.397498,"is_reserved":false,"is_disabled":false,"rental_uris":{"android":"levelo://app?vid=35d7d381-60fb-4c9a-ba81-be59065353d7","ios":"levelo://app?vid=35d7d381-60fb-4c9a-ba81-be59065353d7"},"vehicle_type_id":"4","last_reported":1718734278,"current_range_meters":11200,"station_id":"ce4bh3h2rcd13ifvqdo0","pricing_plan_id":"cebpf4jnsgd1na2vs0mg"},{"bike_id":"73b61b74-929d-4343-b969-9c99412bf56e","system_id":"levelo_inurba_marseille","lat":43.285856,"lon":5.350771,"is_reserved":false,"is_disabled":false,"rental_uris":{"android":"levelo://app?vid=73b61b74-929d-4343-b969-9c99412bf56e","ios":"levelo://app?vid=73b61b74-929d-4343-b969-9c99412bf56e"},"vehicle_type_id":"4","last_reported":1718734278,"current_range_meters":16400,"station_id":"ce4bhch2rcd13ifvqeug","pricing_plan_id":"cebpf4jnsgd1na2vs0mg"},{"bike_id":"69790cb7-aeeb-4932-b422-e5f94b8de520","system_id":"levelo_inurba_marseille","lat":43.285848,"lon":5.350787,"is_reserved":false,"is_disabled":false,"rental_uris":{"android":"levelo://app?vid=69790cb7-aeeb-4932-b422-e5f94b8de520","ios":"levelo://app?vid=69790cb7-aeeb-4932-b422-e5f94b8de520"},"vehicle_type_id":"4","last_reported":1718734278,"current_range_meters":0,"station_id":"ce4bhch2rcd13ifvqeug","pricing_plan_id":"cebpf4jnsgd1na2vs0mg"},{"bike_id":"4445dcdc-2c47-4dde-8ef6-858a07304b22","system_id":"levelo_inurba_marseille","lat":43.28619,"lon":5.351,"is_reserved":false,"is_disabled":false,"rental_uris":{"android":"levelo://app?vid=4445dcdc-2c47-4dde-8ef6-858a07304b22","ios":"levelo://app?vid=4445dcdc-2c47-4dde-8ef6-858a07304b22"},"vehicle_type_id":"4","last_reported":1718734278,"current_range_meters":31200,"station_id":"ce4bhch2rcd13ifvqeug","pricing_plan_id":"cebpf4jnsgd1na2vs0mg"},{"bike_id":"6a6ceb6b-b38d-4dc4-9018-9db7187a38f5","system_id":"levelo_inurba_marseille","lat":43.286187,"lon":5.351007,"is_reserved":false,"is_disabled":false,"rental_uris":{"android":"levelo://app?vid=6a6ceb6b-b38d-4dc4-9018-9db7187a38f5","ios":"levelo://app?vid=6a6ceb6b-b38d-4dc4-9018-9db7187a38f5"},"vehicle_type_id":"4","last_reported":1718734278,"current_range_meters":29600,"station_id":"ce4bhch2rcd13ifvqeug","pricing_plan_id":"cebpf4jnsgd1na2vs0mg"},{"bike_id":"b2d8724c-9051-4019-abcb-729f03602693","system_id":"levelo_inurba_marseille","lat":43.285856,"lon":5.350771,"is_reserved":false,"is_disabled":false,"rental_uris":{"android":"levelo://app?vid=b2d8724c-9051-4019-abcb-729f03602693","ios":"levelo://app?vid=b2d8724c-9051-4019-abcb-729f03602693"},"vehicle_type_id":"4","last_reported":1718734278,"current_range_meters":29600,"station_id":"ce4bhch2rcd13ifvqeug","pricing_plan_id":"cebpf4jnsgd1na2vs0mg"},{"bike_id":"d9810580-302a-4d66-a624-078a3cbc2088","system_id":"levelo_inurba_marseille","lat":43.286167,"lon":5.351057,"is_reserved":false,"is_disabled":false,"rental_uris":{"android":"levelo://app?vid=d9810580-302a-4d66-a624-078a3cbc2088","ios":"levelo://app?vid=d9810580-302a-4d66-a624-078a3cbc2088"},"vehicle_type_id":"4","last_reported":1718734278,"current_range_meters":31200,"station_id":"ce4bhch2rcd13ifvqeug","pricing_plan_id":"cebpf4jnsgd1na2vs0mg"},