{"last_updated":1700949936,"ttl":30,"version":"2.2","data":{"bikes":[{"bike_id":"1be7a314-267b-4c36-b676-668997f729fc","system_id":"levelo_inurba_marseille","lat":43.31341,"lon":5.367098,"is_reserved":false,"is_disabled":false,"rental_uris":{"android":"levelo://app?vid=1be7a314-267b-4c36-b676-668997f729fc","ios":"levelo://app?vid=1be7a314-267b-4c36-b676-668997f729fc"},"vehicle_type_id":"4","last_reported":1700949936,"current_range_meters":28800,"station_id":"ce4bgr92rcd13ifvqc6g","pricing_plan_id":"free"},{"bike_id":"6c50f6c4-763c-4b75-b665-d8842519aa0c","system_id":"levelo_inurba_marseille","lat":43.312239,"lon":5.368562,"is_reserved":false,"is_disabled":false,"rental_uris":{"android":"levelo://app?vid=6c50f6c4-763c-4b75-b665-d8842519aa0c","ios":"levelo://app?vid=6c50f6c4-763c-4b75-b665-d8842519aa0c"},"vehicle_type_id":"4","last_reported":1700949936,"current_range_meters":6800,"station_id":"ce4bgl92rcd13ifvqbq0","pricing_plan_id":"free"},{"bike_id":"f55dc357-d173-4a70-af50-fc552bc2e78a","system_id":"levelo_inurba_marseille","lat":43.314811,"lon":5.373103,"is_reserved":false,"is_disabled":false,"rental_uris":{"android":"levelo://app?vid=f55dc357-d173-4a70-af50-fc552bc2e78a","ios":"levelo://app?vid=f55dc357-d173-4a70-af50-fc552bc2e78a"},"vehicle_type_id":"4","last_reported":1700949936,"current_range_meters":26400,"station_id":"ce4bgt12rcd13ifvqcd0","pricing_plan_id":"free"},{"bike_id":"81670fb0-1021-4317-9b92-c0101139260b","system_id":"levelo_inurba_marseille","lat":43.314811,"lon":5.373104,"is_reserved":false,"is_disabled":false,"rental_uris":{"android":"levelo://app?vid=81670fb0-1021-4317-9b92-c0101139260b","ios":"levelo://app?vid=81670fb0-1021-4317-9b92-c0101139260b"},"vehicle_type_id":"4","last_reported":1700949936,"current_range_meters":16800,"station_id":"ce4bgt12rcd13ifvqcd0","pricing_plan_id":"free"},{"bike_id":"56dcc7f6-2ea3-40fb-af50-611123df64d7","system_id":"levelo_inurba_marseille","lat":43.309039,"lon":5.371797,"is_reserved":false,"is_disabled":false,"rental_uris":{"android":"levelo://app?vid=56dcc7f6-2ea3-40fb-af50-611123df64d7","ios":"levelo://app?vid=56dcc7f6-2ea3-40fb-af50-611123df64d7"},"vehicle_type_id":"4","last_reported":1700949936,"current_range_meters":31200,"station_id":"ce4bguh2rcd13ifvqckg","pricing_plan_id":"free"},{"bike_id":"12fe559d-2c77-4748-b7cf-fc83d1aede07","system_id":"levelo_inurba_marseille","lat":43.309039,"lon":5.371797,"is_reserved":false,"is_disabled":false,"rental_uris":{"android":"levelo://app?vid=12fe559d-2c77-4748-b7cf-fc83d1aede07","ios":"levelo://app?vid=12fe559d-2c77-4748-b7cf-fc83d1aede07"},"vehicle_type_id":"4","last_reported":1700949936,"current_range_meters":30000,"station_id":"ce4bguh2rcd13ifvqckg","pricing_plan_id":"free"},{"bike_id":"2c4e2ab4-2bc9-4e71-8e28-b7f9c78b7444","system_id":"levelo_inurba_marseille","lat":43.305714,"lon":5.365633,"is_reserved":false,"is_disabled":false,"rental_uris":{"android":"levelo://app?vid=2c4e2ab4-2bc9-4e71-8e28-b7f9c78b7444","ios":"levelo://app?vid=2c4e2ab4-2bc9-4e71-8e28-b7f9c78b7444"},"vehicle_type_id":"4","last_reported":1700949936,"current_range_meters":2400,"station_id":"ce4bgs12rcd13ifvqcag","pricing_plan_id":"free"},{"bike_id":"c95bbc7b-d605-44ca-b23d-eba6401bba0d","system_id":"levelo_inurba_marseille","lat":43.305368,"lon":5.367343,"is_reserved":false,"is_disabled":false,"rental_uris":{"android":"levelo://app?vid=c95bbc7b-d605-44ca-b23d-eba6401bba0d","ios":"levelo://app?vid=c95bbc7b-d605-44ca-b23d-eba6401bba0d"},"vehicle_type_id":"4","last_reported":1700949936,"current_range_meters":12800,"station_id":"ce4bgrp2rcd13ifvqc9g","pricing_plan_id":"free"},{"bike_id":"b5283960-1d1a-4287-b7de-9d29f8c00563","system_id":"levelo_inurba_marseille","lat":43.305706,"lon":5.365654,"is_reserved":false,"is_disabled":false,"rental_uris":{"android":"levelo://app?vid=b5283960-1d1a-4287-b7de-9d29f8c00563","ios":"levelo://app?vid=b5283960-1d1a-4287-b7de-9d29f8c00563"},"vehicle_type_id":"4","last_reported":1700949936,"current_range_meters":20000,"station_id":"ce4bgs12rcd13ifvqcag","pricing_plan_id":"free"},{"bike_id":"93a8979f-ba0a-4c36-9fa1-7608e727a38c","system_id":"levelo_inurba_marseille","lat":43.305989,"lon":5.37225,"is_reserved":false,"is_disabled":false,"rental_uris":{"android":"levelo://app?vid=93a8979f-ba0a-4c36-9fa1-7608e727a38c","ios":"levelo://app?vid=93a8979f-ba0a-4c36-9fa1-7608e727a38c"},"vehicle_type_id":"4","last_reported":1700949936,"current_range_meters":25600,"station_id":"ce4bgqh2rcd13ifvqc4g","pricing_plan_id":"free"},{"bike_id":"74b86f72-5bac-40d3-8697-6e3b66044c95","system_id":"levelo_inurba_marseille","lat":43.306051,"lon":5.372238,"is_reserved":false,"is_disabled":false,"rental_uris":{"android":"levelo://app?vid=74b86f72-5bac-40d3-8697-6e3b66044c95","ios":"levelo://app?vid=74b86f72-5bac-40d3-8697-6e3b66044c95"},"vehicle_type_id":"4","last_reported":1700949936,"current_range_meters":0,"station_id":"ce4bgqh2rcd13ifvqc4g","pricing_plan_id":"free"},{"bike_id":"573a870a-b6c4-429d-8587-8103772b84bc","system_id":"levelo_inurba_marseille","lat":43.308177,"lon":5.376654,"is_reserved":false,"is_disabled":false,"rental_uris":{"android":"levelo://app?vid=573a870a-b6c4-429d-8587-8103772b84bc","ios":"levelo://app?vid=573a870a-b6c4-429d-8587-8103772b84bc"},"vehicle_type_id":"4","last_reported":1700949936,"current_range_meters":4000,"station_id":"ce4bgv92rcd13ifvqcq0","pricing_plan_id":"free"},{"bike_id":"f427a2c3-6e4a-446b-ae2f-9be8aa7f4122","system_id":"levelo_inurba_marseille","lat":43.31719,"lon":5.376813,"is_reserved":false,"is_disabled":false,"rental_uris":{"android":"levelo://app?vid=f427a2c3-6e4a-446b-ae2f-9be8aa7f4122","ios":"levelo://app?vid=f427a2c3-6e4a-446b-ae2f-9be8aa7f4122"},"vehicle_type_id":"4","last_reported":1700949936,"current_range_meters":23600,"station_id":"ce4bgth2rcd13ifvqch0","pricing_plan_id":"free"},{"bike_id":"b898b018-f57d-4901-bab2-fdd15d391de9","system_id":"levelo_inurba_marseille","lat":43.317168,"lon":5.376883,"is_reserved":false,"is_disabled":false,"rental_uris":{"android":"levelo://app?vid=b898b018-f57d-4901-bab2-fdd15d391de9","ios":"levelo://app?vid=b898b018-f57d-4901-bab2-fdd15d391de9"},"vehicle_type_id":"4","last_reported":1700949936,"current_range_meters":25600,"station_id":"ce4bgth2rcd13ifvqch0","pricing_plan_id":"free"},{"bike_id":"10af5478-fd72-4940-9616-6198e70aa5ba","system_id":"levelo_inurba_marseille","lat":43.303046,"lon":5.368981,"is_reserved":false,"is_disabled":false,"rental_uris":{"android":"levelo://app?vid=10af5478-fd72-4940-9616-6198e70aa5ba","ios":"levelo://app?vid=10af5478-fd72-4940-9616-6198e70aa5ba"},"vehicle_type_id":"4","last_reported":1700949936,"current_range_meters":23600,"station_id":"ce4bgqh2rcd13ifvqc5g","pricing_plan_id":"free"},{"bike_id":"08db3c7f-c42c-4b60-b1cc-3dc67d08d464","system_id":"levelo_inurba_marseille","lat":43.31529,"lon":5.38027,"is_reserved":false,"is_disabled":false,"rental_uris":{"android":"levelo://app?vid=08db3c7f-c42c-4b60-b1cc-3dc67d08d464","ios":"levelo://app?vid=08db3c7f-c42c-4b60-b1cc-3dc67d08d464"},"vehicle_type_id":"4","last_reported":1700949936,"current_range_meters":25600,"station_id":"ce4bhsp2rcd13ifvqi50","pricing_plan_id":"free"},{"bike_id":"3dd1bd93-5287-4ffc-94aa-addf69396612","system_id":"levelo_inurba_marseille","lat":43.31531,"lon":5.38036,"is_reserved":false,"is_disabled":false,"rental_uris":{"android":"levelo://app?vid=3dd1bd93-5287-4ffc-94aa-addf69396612","ios":"levelo://app?vid=3dd1bd93-5287-4ffc-94aa-addf69396612"},"vehicle_type_id":"4","last_reported":1700949936,"current_range_meters":11200,"station_id":"ce4bhsp2rcd13ifvqi50","pricing_plan_id":"free"},{"bike_id":"b16c9a63-80f8-4403-944c-c6856aad0c57","system_id":"levelo_inurba_marseille","lat":43.308012,"lon":5.381511,"is_reserved":false,"is_disabled":false,"rental_uris":{"android":"levelo://app?vid=b16c9a63-80f8-4403-944c-c6856aad0c57","ios":"levelo://app?vid=b16c9a63-80f8-4403-944c-c6856aad0c57"},"vehicle_type_id":"4","last_reported":1700949936,"current_range_meters":18800,"station_id":"ce4bgt12rcd13ifvqce0","pricing_plan_id":"free"},{"bike_id":"8c8a52fc-0f0b-4dd5-82d7-2c484876092f","system_id":"levelo_inurba_marseille","lat":43.302784,"lon":5.377158,"is_reserved":false,"is_disabled":false,"rental_uris":{"android":"levelo://app?vid=8c8a52fc-0f0b-4dd5-82d7-2c484876092f","ios":"levelo://app?vid=8c8a52fc-0f0b-4dd5-82d7-2c484876092f"},"vehicle_type_id":"4","last_reported":1700949936,"current_range_meters":10400,"station_id":"ce4bguh2rcd13ifvqcj0","pricing_plan_id":"free"},{"bike_id":"c1ca13e3-af6d-4013-b3e4-85c6df14edbb","system_id":"levelo_inurba_marseille","lat":43.30138,"lon":5.37419,"is_reserved":false,"is_disabled":false,"rental_uris":{"android":"levelo://app?vid=c1ca13e3-af6d-4013-b3e4-85c6df14edbb","ios":"levelo://app?vid=c1ca13e3-af6d-4013-b3e4-85c6df14edbb"},"vehicle_type_id":"4","last_reported":1700949936,"current_range_meters":4000,"station_id":"ce4bgs92rcd13ifvqcc0","pricing_plan_id":"free"},{"bike_id":"6a26d0ec-e476-4178-b7a4-38d9d3eba74c","system_id":"levelo_inurba_marseille","lat":43.319935,"lon":5.381699,"is_reserved":false,"is_disabled":false,"rental_uris":{"android":"levelo://app?vid=6a26d0ec-e476-4178-b7a4-38d9d3eba74c","ios":"levelo://app?vid=6a26d0ec-e476-4178-b7a4-38d9d3eba74c"},"vehicle_type_id":"4","last_reported":1700949936,"current_range_meters":17600,"station_id":"ce4bhr12rcd13ifvqhpg","pricing_plan_id":"free"},{"bike_id":"85a1b2e7-1092-41dc-8fea-b07cb6175595","system_id":"levelo_inurba_marseille","lat":43.319935,"lon":5.381699,"is_reserved":false,"is_disabled":false,"rental_uris":{"android":"levelo://app?vid=85a1b2e7-1092-41dc-8fea-b07cb6175595","ios":"levelo://app?vid=85a1b2e7-1092-41dc-8fea-b07cb6175595"},"vehicle_type_id":"4","last_reported":1700949936,"current_range_meters":20000,"station_id":"ce4bhr12rcd13ifvqhpg","pricing_plan_id":"free"},{"bike_id":"9adda1c0-69b0-4cd2-8a9b-3388a2b807a8","system_id":"levelo_inurba_marseille","lat":43.319977,"lon":5.38146,"is_reserved":false,"is_disabled":false,"rental_uris":{"android":"levelo://app?vid=9adda1c0-69b0-4cd2-8a9b-3388a2b807a8","ios":"levelo://app?vid=9adda1c0-69b0-4cd2-8a9b-3388a2b807a8"},"vehicle_type_id":"4","last_reported":1700949936,"current_range_meters":20000,"station_id":"ce4bhr12rcd13ifvqhpg","pricing_plan_id":"free"},{"bike_id":"2c0cfbc9-8aed-4ab2-9052-67d693991efd","system_id":"levelo_inurba_marseille","lat":43.319935,"lon":5.381699,"is_reserved":false,"is_disabled":false,"rental_uris":{"android":"levelo://app?vid=2c0cfbc9-8aed-4ab2-9052-67d693991efd","ios":"levelo://app?vid=2c0cfbc9-8aed-4ab2-9052-67d693991efd"},"vehicle_type_id":"4","last_reported":1700949936,"current_range_meters":4400,"station_id":"ce4bhr12rcd13ifvqhpg","pricing_plan_id":"free"},{"bike_id":"2d1e0193-2ac0-43a5-9ec8-2ca77d1a89c0","system_id":"levelo_inurba_marseille","lat":43.313571,"lon":5.384829,"is_reserved":false,"is_disabled":false,"rental_uris":{"android":"levelo://app?vid=2d1e0193-2ac0-43a5-9ec8-2ca77d1a89c0","ios":"levelo://app?vid=2d1e0193-2ac0-43a5-9ec8-2ca77d1a89c0"},"vehicle_type_id":"4","last_reported":1700949936,"current_range_meters":5200,"station_id":"ce4bgt92rcd13ifvqcf0","pricing_plan_id":"free"},{"bike_id":"54cb0418-5cf0-4569-aff2-4805a97225b2","system_id":"levelo_inurba_marseille","lat":43.313571,"lon":5.384829,"is_reserved":false,"is_disabled":false,"rental_uris":{"android":"levelo://app?vid=54cb0418-5cf0-4569-aff2-4805a97225b2","ios":"levelo://app?vid=54cb0418-5cf0-4569-aff2-4805a97225b2"},"vehicle_type_id":"4","last_reported":1700949936,"current_range_meters":22000,"station_id":"ce4bgt92rcd13ifvqcf0","pricing_plan_id":"free"},{"bike_id":"2ecadc3a-8b11-45a0-bd64-dae7b0418cf9","system_id":"levelo_inurba_marseille","lat":43.298433,"lon":5.362774,"is_reserved":false,"is_disabled":false,"rental_uris":{"android":"levelo://app?vid=2ecadc3a-8b11-45a0-bd64-dae7b0418cf9","ios":"levelo://app?vid=2ecadc3a-8b11-45a0-bd64-dae7b0418cf9"},"vehicle_type_id":"4","last_reported":1700949936,"current_range_meters":8800,"station_id":"ce4bgpp2rcd13ifvqc3g","pricing_plan_id":"free"},{"bike_id":"4d1e0304-873a-4866-aa22-dcdbce788d6f","system_id":"levelo_inurba_marseille","lat":43.298433,"lon":5.362774,"is_reserved":false,"is_disabled":false,"rental_uris":{"android":"levelo://app?vid=4d1e0304-873a-4866-aa22-dcdbce788d6f","ios":"levelo://app?vid=4d1e0304-873a-4866-aa22-dcdbce788d6f"},"vehicle_type_id":"4","last_reported":1700949936,"current_range_meters":24800,"station_id":"ce4bgpp2rcd13ifvqc3g","pricing_plan_id":"free"},{"bike_id":"3cc92d4a-f598-4975-90ba-c46c07417dc7","system_id":"levelo_inurba_marseille","lat":43.298433,"lon":5.362774,"is_reserved":false,"is_disabled":false,"rental_uris":{"android":"levelo://app?vid=3cc92d4a-f598-4975-90ba-c46c07417dc7","ios":"levelo://app?vid=3cc92d4a-f598-4975-90ba-c46c07417dc7"},"vehicle_type_id":"4","last_reported":1700949936,"current_range_meters":8000,"station_id":"ce4bgpp2rcd13ifvqc3g","pricing_plan_id":"free"},{"bike_id":"a049d5d6-5688-4698-a67e-b03645784859","system_id":"levelo_inurba_marseille","lat":43.298433,"lon":5.362774,"is_reserved":false,"is_disabled":false,"rental_uris":{"android":"levelo://app?vid=a049d5d6-5688-4698-a67e-b03645784859","ios":"levelo://app?vid=a049d5d6-5688-4698-a67e-b03645784859"},"vehicle_type_id":"4","last_reported":1700949936,"current_range_meters":31200,"station_id":"ce4bgpp2rcd13ifvqc3g","pricing_plan_id":"free"},{"bike_id":"2512e5d9-2293-4ef3-ad8d-62a3ad2e3891","system_id":"levelo_inurba_marseille","lat":43.311722,"lon":5.387247,"is_reserved":false,"is_disabled":false,"rental_uris":{"android":"levelo://app?vid=2512e5d9-2293-4ef3-ad8d-62a3ad2e3891","ios":"levelo://app?vid=2512e5d9-2293-4ef3-ad8d-62a3ad2e3891"},"vehicle_type_id":"4","last_reported":1700949936,"current_range_meters":23600,"station_id":"ce4bgv12rcd13ifvqcp0","pricing_plan_id":"free"},{"bike_id":"37b36e52-2fc9-46a8-bc41-331b5af6095e","system_id":"levelo_inurba_marseille","lat":43.299243,"lon":5.37481,"is_reserved":false,"is_disabled":false,"rental_uris":{"android":"levelo://app?vid=37b36e52-2fc9-46a8-bc41-331b5af6095e","ios":"levelo://app?vid=37b36e52-2fc9-46a8-bc41-331b5af6095e"},"vehicle_type_id":"4","last_reported":1700949936,"current_range_meters":10400,"station_id":"ce4bgjh2rcd13ifvqbg0","pricing_plan_id":"free"},{"bike_id":"5a1baf68-f9af-496c-ab26-e428d44bc382","system_id":"levelo_inurba_marseille","lat":43.322872,"lon":5.382756,"is_reserved":false,"is_disabled":false,"rental_uris":{"android":"levelo://app?vid=5a1baf68-f9af-496c-ab26-e428d44bc382","ios":"levelo://app?vid=5a1baf68-f9af-496c-ab26-e428d44bc382"},"vehicle_type_id":"4","last_reported":1700949936,"current_range_meters":30400,"station_id":"ce4bhr12rcd13ifvqhqg","pricing_plan_id":"free"},{"bike_id":"0b85aafd-2d06-4b3d-bf23-17256839d1de","system_id":"levelo_inurba_marseille","lat":43.322872,"lon":5.382756,"is_reserved":false,"is_disabled":false,"rental_uris":{"android":"levelo://app?vid=0b85aafd-2d06-4b3d-bf23-17256839d1de","ios":"levelo://app?vid=0b85aafd-2d06-4b3d-bf23-17256839d1de"},"vehicle_type_id":"4","last_reported":1700949936,"current_range_meters":9200,"station_id":"ce4bhr12rcd13ifvqhqg","pricing_plan_id":"free"},{"bike_id":"d4ce39f9-7fa1-46e3-a433-f250b4fdb796","system_id":"levelo_inurba_marseille","lat":43.322872,"lon":5.382756,"is_reserved":false,"is_disabled":false,"rental_uris":{"android":"levelo://app?vid=d4ce39f9-7fa1-46e3-a433-f250b4fdb796","ios":"levelo://app?vid=d4ce39f9-7fa1-46e3-a433-f250b4fdb796"},"vehicle_type_id":"4","last_reported":1700949936,"current_range_meters":28000,"station_id":"ce4bhr12rcd13ifvqhqg","pricing_plan_id":"free"},{"bike_id":"f9fce30d-0cf4-4e60-9d5e-3e6280524e9e","system_id":"levelo_inurba_marseille","lat":43.322872,"lon":5.382756,"is_reserved":false,"is_disabled":false,"rental_uris":{"android":"levelo://app?vid=f9fce30d-0cf4-4e60-9d5e-3e6280524e9e","ios":"levelo://app?vid=f9fce30d-0cf4-4e60-9d5e-3e6280524e9e"},"vehicle_type_id":"4","last_reported":1700949936,"current_range_meters":30000,"station_id":"ce4bhr12rcd13ifvqhqg","pricing_plan_id":"free"},{"bike_id":"95825c38-6c59-4753-b43e-2f944bdb26b9","system_id":"levelo_inurba_marseille","lat":43.32827,"lon":5.36683,"is_reserved":false,"is_disabled":false,"rental_uris":{"android":"levelo://app?vid=95825c38-6c59-4753-b43e-2f944bdb26b9","ios":"levelo://app?vid=95825c38-6c59-4753-b43e-2f944bdb26b9"},"vehicle_type_id":"4","last_reported":1700949936,"current_range_meters":14400,"station_id":"ce4bhs92rcd13ifvqi0g","pricing_plan_id":"free"},{"bike_id":"62431907-0dfd-4393-b4a1-8f979fb859d0","system_id":"levelo_inurba_marseille","lat":43.297163,"lon":5.365866,"is_reserved":false,"is_disabled":false,"rental_uris":{"android":"levelo://app?vid=62431907-0dfd-4393-b4a1-8f979fb859d0","ios":"levelo://app?vid=62431907-0dfd-4393-b4a1-8f979fb859d0"},"vehicle_type_id":"4","last_reported":1700949936,"current_range_meters":25200,"station_id":"ce4bgn12rcd13ifvqbt0","pricing_plan_id":"free"},{"bike_id":"71a104a3-4fa9-4688-bd64-7afc80b1b35c","system_id":"levelo_inurba_marseille","lat":43.297163,"lon":5.365866,"is_reserved":false,"is_disabled":false,"rental_uris":{"android":"levelo://app?vid=71a104a3-4fa9-4688-bd64-7afc80b1b35c","ios":"levelo://app?vid=71a104a3-4fa9-4688-bd64-7afc80b1b35c"},"vehicle_type_id":"4","last_reported":1700949936,"current_range_meters":12800,"station_id":"ce4bgn12rcd13ifvqbt0","pricing_plan_id":"free"},{"bike_id":"dc141292-51ba-4e6f-8c58-83a5b660deb1","system_id":"levelo_inurba_marseille","lat":43.296129,"lon":5.370777,"is_reserved":false,"is_disabled":false,"rental_uris":{"android":"levelo://app?vid=dc141292-51ba-4e6f-8c58-83a5b660deb1","ios":"levelo://app?vid=dc141292-51ba-4e6f-8c58-83a5b660deb1"},"vehicle_type_id":"4","last_reported":1700949936,"current_range_meters":22400,"station_id":"ce4bgnh2rcd13ifvqc0g","pricing_plan_id":"free"},{"bike_id":"20db5641-0ba0-4980-bd95-b520353b387a","system_id":"levelo_inurba_marseille","lat":43.296129,"lon":5.370777,"is_reserved":false,"is_disabled":false,"rental_uris":{"android":"levelo://app?vid=20db5641-0ba0-4980-bd95-b520353b387a","ios":"levelo://app?vid=20db5641-0ba0-4980-bd95-b520353b387a"},"vehicle_type_id":"4","last_reported":1700949936,"current_range_meters":24800,"station_id":"ce4bgnh2rcd13ifvqc0g","pricing_plan_id":"free"},{"bike_id":"58f5c507-989b-4a59-a747-5e669a3cb96b","system_id":"levelo_inurba_marseille","lat":43.296131,"lon":5.370791,"is_reserved":false,"is_disabled":false,"rental_uris":{"android":"levelo://app?vid=58f5c507-989b-4a59-a747-5e669a3cb96b","ios":"levelo://app?vid=58f5c507-989b-4a59-a747-5e669a3cb96b"},"vehicle_type_id":"4","last_reported":1700949936,"current_range_meters":14000,"station_id":"ce4bgnh2rcd13ifvqc0g","pricing_plan_id":"free"},{"bike_id":"78ad4428-52d1-4845-b6d6-8559636455b3","system_id":"levelo_inurba_marseille","lat":43.296129,"lon":5.370777,"is_reserved":false,"is_disabled":false,"rental_uris":{"android":"levelo://app?vid=78ad4428-52d1-4845-b6d6-8559636455b3","ios":"levelo://app?vid=78ad4428-52d1-4845-b6d6-8559636455b3"},"vehicle_type_id":"4","last_reported":1700949936,"current_range_meters":4800,"station_id":"ce4bgnh2rcd13ifvqc0g","pricing_plan_id":"free"},{"bike_id":"1237adee-c0c3-4c3b-86e0-d8c0221fc130","system_id":"levelo_inurba_marseille","lat":43.29573,"lon":5.367355,"is_reserved":false,"is_disabled":false,"rental_uris":{"android":"levelo://app?vid=1237adee-c0c3-4c3b-86e0-d8c0221fc130","ios":"levelo://app?vid=1237adee-c0c3-4c3b-86e0-d8c0221fc130"},"vehicle_type_id":"4","last_reported":1700949936,"current_range_meters":14000,"station_id":"ce4bgph2rcd13ifvqc2g","pricing_plan_id":"free"},{"bike_id":"b929df2d-eaf2-4323-b2db-6ee4e10c019d","system_id":"levelo_inurba_marseille","lat":43.29573,"lon":5.367355,"is_reserved":false,"is_disabled":false,"rental_uris":{"android":"levelo://app?vid=b929df2d-eaf2-4323-b2db-6ee4e10c019d","ios":"levelo://app?vid=b929df2d-eaf2-4323-b2db-6ee4e10c019d"},"vehicle_type_id":"4","last_reported":1700949936,"current_range_meters":0,"station_id":"ce4bgph2rcd13ifvqc2g","pricing_plan_id":"free"},{"bike_id":"5fd186b1-db0d-45af-be07-73d9dc5d5a41","system_id":"levelo_inurba_marseille","lat":43.29582,"lon":5.36746,"is_reserved":false,"is_disabled":false,"rental_uris":{"android":"levelo://app?vid=5fd186b1-db0d-45af-be07-73d9dc5d5a41","ios":"levelo://app?vid=5fd186b1-db0d-45af-be07-73d9dc5d5a41"},"vehicle_type_id":"4","last_reported":1700949936,"current_range_meters":13600,"station_id":"ce4bgph2rcd13ifvqc2g","pricing_plan_id":"free"},{"bike_id":"3b339994-3557-4ddd-b662-012dc9114e7e","system_id":"levelo_inurba_marseille","lat":43.317557,"lon":5.390173,"is_reserved":false,"is_disabled":false,"rental_uris":{"android":"levelo://app?vid=3b339994-3557-4ddd-b662-012dc9114e7e","ios":"levelo://app?vid=3b339994-3557-4ddd-b662-012dc9114e7e"},"vehicle_type_id":"4","last_reported":1700949936,"current_range_meters":17600,"station_id":"ce4bhqp2rcd13ifvqhng","pricing_plan_id":"free"},{"bike_id":"269c6317-87ce-4fc8-9c85-66e88533dc75","system_id":"levelo_inurba_marseille","lat":43.317557,"lon":5.390173,"is_reserved":false,"is_disabled":false,"rental_uris":{"android":"levelo://app?vid=269c6317-87ce-4fc8-9c85-66e88533dc75","ios":"levelo://app?vid=269c6317-87ce-4fc8-9c85-66e88533dc75"},"vehicle_type_id":"4","last_reported":1700949936,"current_range_meters":19600,"station_id":"ce4bhqp2rcd13ifvqhng","pricing_plan_id":"free"},{"bike_id":"8e0b024a-cf26-4b65-ac01-3f5bea6a73f0","system_id":"levelo_inurba_marseille","lat":43.317557,"lon":5.390173,"is_reserved":false,"is_disabled":false,"rental_uris":{"android":"levelo://app?vid=8e0b024a-cf26-4b65-ac01-3f5bea6a73f0","ios":"levelo://app?vid=8e0b024a-cf26-4b65-ac01-3f5bea6a73f0"},"vehicle_type_id":"4","last_reported":1700949936,"current_range_meters":0,"station_id":"ce4bhqp2rcd13ifvqhng","pricing_plan_id":"free"},{"bike_id":"0bbccc7d-b657-4571-a73f-1710b74b91ed","system_id":"levelo_inurba_marseille","lat":43.304278,"lon":5.388868,"is_reserved":false,"is_disabled":false,"rental_uris":{"android":"levelo://app?vid=0bbccc7d-b657-4571-a73f-1710b74b91ed","ios":"levelo://app?vid=0bbccc7d-b657-4571-a73f-1710b74b91ed"},"vehicle_type_id":"4","last_reported":1700949936,"current_range_meters":2400,"station_id":"ce4bgk12rcd13ifvqbi0","pricing_plan_id":"free"},{"bike_id":"7aa7c5e7-0444-4a4f-99f2-14a4068ca551","system_id":"levelo_inurba_marseille","lat":43.299707,"lon":5.384859,"is_reserved":false,"is_disabled":false,"rental_uris":{"android":"levelo://app?vid=7aa7c5e7-0444-4a4f-99f2-14a4068ca551","ios":"levelo://app?vid=7aa7c5e7-0444-4a4f-99f2-14a4068ca551"},"vehicle_type_id":"4","last_reported":1700949936,"current_range_meters":3600,"station_id":"ce4bgj92rcd13ifvqbd0","pricing_plan_id":"free"},{"bike_id":"3bb3ddd4-df4f-4217-b06e-8e987cb13f1b","system_id":"levelo_inurba_marseille","lat":43.299707,"lon":5.384859,"is_reserved":false,"is_disabled":false,"rental_uris":{"android":"levelo://app?vid=3bb3ddd4-df4f-4217-b06e-8e987cb13f1b","ios":"levelo://app?vid=3bb3ddd4-df4f-4217-b06e-8e987cb13f1b"},"vehicle_type_id":"4","last_reported":1700949936,"current_range_meters":12400,"station_id":"ce4bgj92rcd13ifvqbd0","pricing_plan_id":"free"},{"bike_id":"dabe7830-c7be-4f72-9005-94ddd1c710df","system_id":"levelo_inurba_marseille","lat":43.299707,"lon":5.384859,"is_reserved":false,"is_disabled":false,"rental_uris":{"android":"levelo://app?vid=dabe7830-c7be-4f72-9005-94ddd1c710df","ios":"levelo://app?vid=dabe7830-c7be-4f72-9005-94ddd1c710df"},"vehicle_type_id":"4","last_reported":1700949936,"current_range_meters":23200,"station_id":"ce4bgj92rcd13ifvqbd0","pricing_plan_id":"free"},{"bike_id":"6b621983-5e9e-42f7-990d-ad5a093820d2","system_id":"levelo_inurba_marseille","lat":43.293801,"lon":5.363066,"is_reserved":false,"is_disabled":false,"rental_uris":{"android":"levelo://app?vid=6b621983-5e9e-42f7-990d-ad5a093820d2","ios":"levelo://app?vid=6b621983-5e9e-42f7-990d-ad5a093820d2"},"vehicle_type_id":"4","last_reported":1700949936,"current_range_meters":0,"station_id":"","pricing_plan_id":"free"},{"bike_id":"596a68ec-846e-4c3e-bce4-ec87b49249bd","system_id":"levelo_inurba_marseille","lat":43.32365,"lon":5.3888,"is_reserved":false,"is_disabled":false,"rental_uris":{"android":"levelo://app?vid=596a68ec-846e-4c3e-bce4-ec87b49249bd","ios":"levelo://app?vid=596a68ec-846e-4c3e-bce4-ec87b49249bd"},"vehicle_type_id":"4","last_reported":1700949936,"current_range_meters":3200,"station_id":"ce4bhqp2rcd13ifvqhog","pricing_plan_id":"free"},{"bike_id":"c08692de-893b-4842-ac6a-624a77fd78ec","system_id":"levelo_inurba_marseille","lat":43.3238,"lon":5.38962,"is_reserved":false,"is_disabled":false,"rental_uris":{"android":"levelo://app?vid=c08692de-893b-4842-ac6a-624a77fd78ec","ios":"levelo://app?vid=c08692de-893b-4842-ac6a-624a77fd78ec"},"vehicle_type_id":"4","last_reported":1700949936,"current_range_meters":2000,"station_id":"","pricing_plan_id":"free"},{"bike_id":"a99a98c5-7e88-436c-8d20-73c6fda0c8bc","system_id":"levelo_inurba_marseille","lat":43.29272,"lon":5.36837,"is_reserved":false,"is_disabled":false,"rental_uris":{"android":"levelo://app?vid=a99a98c5-7e88-436c-8d20-73c6fda0c8bc","ios":"levelo://app?vid=a99a98c5-7e88-436c-8d20-73c6fda0c8bc"},"vehicle_type_id":"4","last_reported":1700949936,"current_range_meters":0,"station_id":"ce4bhbp2rcd13ifvqesg","pricing_plan_id":"free"},{"bike_id":"8070a36c-525e-4918-a8b6-2b5a85d7c9be","system_id":"levelo_inurba_marseille","lat":43.302992,"lon":5.392136,"is_reserved":false,"is_disabled":false,"rental_uris":{"android":"levelo://app?vid=8070a36c-525e-4918-a8b6-2b5a85d7c9be","ios":"levelo://app?vid=8070a36c-525e-4918-a8b6-2b5a85d7c9be"},"vehicle_type_id":"4","last_reported":1700949936,"current_range_meters":15600,"station_id":"ce4bgkh2rcd13ifvqbk0","pricing_plan_id":"free"},{"bike_id":"d6a709d2-fb54-4aed-92a6-67864c98313a","system_id":"levelo_inurba_marseille","lat":43.302992,"lon":5.392136,"is_reserved":false,"is_disabled":false,"rental_uris":{"android":"levelo://app?vid=d6a709d2-fb54-4aed-92a6-67864c98313a","ios":"levelo://app?vid=d6a709d2-fb54-4aed-92a6-67864c98313a"},"vehicle_type_id":"4","last_reported":1700949936,"current_range_meters":11600,"station_id":"ce4bgkh2rcd13ifvqbk0","pricing_plan_id":"free"},{"bike_id":"e2f53dff-e0cf-40b7-a6a0-a958955c713c","system_id":"levelo_inurba_marseille","lat":43.303002,"lon":5.392142,"is_reserved":false,"is_disabled":false,"rental_uris":{"android":"levelo://app?vid=e2f53dff-e0cf-40b7-a6a0-a958955c713c","ios":"levelo://app?vid=e2f53dff-e0cf-40b7-a6a0-a958955c713c"},"vehicle_type_id":"4","last_reported":1700949936,"current_range_meters":13600,"station_id":"ce4bgkh2rcd13ifvqbk0","pricing_plan_id":"free"},{"bike_id":"2affda6a-8a09-4865-8570-719e2657702e","system_id":"levelo_inurba_marseille","lat":43.300852,"lon":5.390859,"is_reserved":false,"is_disabled":false,"rental_uris":{"android":"levelo://app?vid=2affda6a-8a09-4865-8570-719e2657702e","ios":"levelo://app?vid=2affda6a-8a09-4865-8570-719e2657702e"},"vehicle_type_id":"4","last_reported":1700949936,"current_range_meters":25600,"station_id":"ce4bh192rcd13ifvqdb0","pricing_plan_id":"free"},{"bike_id":"2dc97697-2ad5-4c81-a5dd-814afffab0b4","system_id":"levelo_inurba_marseille","lat":43.298764,"lon":5.388973,"is_reserved":false,"is_disabled":false,"rental_uris":{"android":"levelo://app?vid=2dc97697-2ad5-4c81-a5dd-814afffab0b4","ios":"levelo://app?vid=2dc97697-2ad5-4c81-a5dd-814afffab0b4"},"vehicle_type_id":"4","last_reported":1700949936,"current_range_meters":14000,"station_id":"ce4bh392rcd13ifvqdl0","pricing_plan_id":"free"},{"bike_id":"7fb0e822-f802-4eee-9fe8-dc6679eaff76","system_id":"levelo_inurba_marseille","lat":43.309047,"lon":5.396551,"is_reserved":false,"is_disabled":false,"rental_uris":{"android":"levelo://app?vid=7fb0e822-f802-4eee-9fe8-dc6679eaff76","ios":"levelo://app?vid=7fb0e822-f802-4eee-9fe8-dc6679eaff76"},"vehicle_type_id":"4","last_reported":1700949936,"current_range_meters":4400,"station_id":"ce4bh012rcd13ifvqcv0","pricing_plan_id":"free"},{"bike_id":"fb9779ef-74b8-4f04-b5c8-61b5820cbe87","system_id":"levelo_inurba_marseille","lat":43.309038,"lon":5.396546,"is_reserved":false,"is_disabled":false,"rental_uris":{"android":"levelo://app?vid=fb9779ef-74b8-4f04-b5c8-61b5820cbe87","ios":"levelo://app?vid=fb9779ef-74b8-4f04-b5c8-61b5820cbe87"},"vehicle_type_id":"4","last_reported":1700949936,"current_range_meters":20800,"station_id":"ce4bh012rcd13ifvqcv0","pricing_plan_id":"free"},{"bike_id":"80285e36-a78e-42ae-93a1-19149b18f450","system_id":"levelo_inurba_marseille","lat":43.309038,"lon":5.396546,"is_reserved":false,"is_disabled":false,"rental_uris":{"android":"levelo://app?vid=80285e36-a78e-42ae-93a1-19149b18f450","ios":"levelo://app?vid=80285e36-a78e-42ae-93a1-19149b18f450"},"vehicle_type_id":"4","last_reported":1700949936,"current_range_meters":12000,"station_id":"ce4bh012rcd13ifvqcv0","pricing_plan_id":"free"},{"bike_id":"9d1a29ce-260f-45d6-a5d3-151c792c0404","system_id":"levelo_inurba_marseille","lat":43.29196,"lon":5.35794,"is_reserved":false,"is_disabled":false,"rental_uris":{"android":"levelo://app?vid=9d1a29ce-260f-45d6-a5d3-151c792c0404","ios":"levelo://app?vid=9d1a29ce-260f-45d6-a5d3-151c792c0404"},"vehicle_type_id":"4","last_reported":1700949936,"current_range_meters":8000,"station_id":"ce4bhb12rcd13ifvqel0","pricing_plan_id":"free"},{"bike_id":"d50accdd-0958-4344-a7b1-99d6174e896a","system_id":"levelo_inurba_marseille","lat":43.309047,"lon":5.396551,"is_reserved":false,"is_disabled":false,"rental_uris":{"android":"levelo://app?vid=d50accdd-0958-4344-a7b1-99d6174e896a","ios":"levelo://app?vid=d50accdd-0958-4344-a7b1-99d6174e896a"},"vehicle_type_id":"4","last_reported":1700949936,"current_range_meters":5600,"station_id":"ce4bh012rcd13ifvqcv0","pricing_plan_id":"free"},{"bike_id":"b644b194-cf7e-4b9f-ad22-91bb4f0a4f2b","system_id":"levelo_inurba_marseille","lat":43.309047,"lon":5.396551,"is_reserved":false,"is_disabled":false,"rental_uris":{"android":"levelo://app?vid=b644b194-cf7e-4b9f-ad22-91bb4f0a4f2b","ios":"levelo://app?vid=b644b194-cf7e-4b9f-ad22-91bb4f0a4f2b"},"vehicle_type_id":"4","last_reported":1700949936,"current_range_meters":800,"station_id":"ce4bh012rcd13ifvqcv0","pricing_plan_id":"free"},{"bike_id":"50177e66-81a1-4371-85b2-f70cfabee36a","system_id":"levelo_inurba_marseille","lat":43.313291,"lon":5.396838,"is_reserved":false,"is_disabled":false,"rental_uris":{"android":"levelo://app?vid=50177e66-81a1-4371-85b2-f70cfabee36a","ios":"levelo://app?vid=50177e66-81a1-4371-85b2-f70cfabee36a"},"vehicle_type_id":"4","last_reported":1700949936,"current_range_meters":0,"station_id":"ce4bgvp2rcd13ifvqcu0","pricing_plan_id":"free"},{"bike_id":"11e240cd-f25a-4530-8bce-57dea2611430","system_id":"levelo_inurba_marseille","lat":43.309038,"lon":5.396546,"is_reserved":false,"is_disabled":false,"rental_uris":{"android":"levelo://app?vid=11e240cd-f25a-4530-8bce-57dea2611430","ios":"levelo://app?vid=11e240cd-f25a-4530-8bce-57dea2611430"},"vehicle_type_id":"4","last_reported":1700949936,"current_range_meters":2800,"station_id":"ce4bh012rcd13ifvqcv0","pricing_plan_id":"free"},{"bike_id":"118eb32a-3cd8-43d5-aa47-764836971e68","system_id":"levelo_inurba_marseille","lat":43.309047,"lon":5.396551,"is_reserved":false,"is_disabled":false,"rental_uris":{"android":"levelo://app?vid=118eb32a-3cd8-43d5-aa47-764836971e68","ios":"levelo://app?vid=118eb32a-3cd8-43d5-aa47-764836971e68"},"vehicle_type_id":"4","last_reported":1700949936,"current_range_meters":4800,"station_id":"ce4bh012rcd13ifvqcv0","pricing_plan_id":"free"},{"bike_id":"0aab3024-532f-45bb-aeee-af2a7e241a3f","system_id":"levelo_inurba_marseille","lat":43.290779,"lon":5.371482,"is_reserved":false,"is_disabled":false,"rental_uris":{"android":"levelo://app?vid=0aab3024-532f-45bb-aeee-af2a7e241a3f","ios":"levelo://app?vid=0aab3024-532f-45bb-aeee-af2a7e241a3f"},"vehicle_type_id":"4","last_reported":1700949936,"current_range_meters":18800,"station_id":"ce4bh5p2rcd13ifvqe4g","pricing_plan_id":"free"},{"bike_id":"d313d9a4-1251-4641-b4ad-43f072888bb1","system_id":"levelo_inurba_marseille","lat":43.290624,"lon":5.359245,"is_reserved":false,"is_disabled":false,"rental_uris":{"android":"levelo://app?vid=d313d9a4-1251-4641-b4ad-43f072888bb1","ios":"levelo://app?vid=d313d9a4-1251-4641-b4ad-43f072888bb1"},"vehicle_type_id":"4","last_reported":1700949936,"current_range_meters":29200,"station_id":"ce4bha92rcd13ifvqeg0","pricing_plan_id":"free"},{"bike_id":"47a9770d-67f2-4fbe-aa24-00699d59d62a","system_id":"levelo_inurba_marseille","lat":43.28942,"lon":5.36411,"is_reserved":false,"is_disabled":false,"rental_uris":{"android":"levelo://app?vid=47a9770d-67f2-4fbe-aa24-00699d59d62a","ios":"levelo://app?vid=47a9770d-67f2-4fbe-aa24-00699d59d62a"},"vehicle_type_id":"4","last_reported":1700949936,"current_range_meters":24800,"station_id":"ce4bhc92rcd13ifvqetg","pricing_plan_id":"free"},{"bike_id":"140e0298-a523-4aa7-9a0e-6d5a6558289a","system_id":"levelo_inurba_marseille","lat":43.304296,"lon":5.397513,"is_reserved":false,"is_disabled":false,"rental_uris":{"android":"levelo://app?vid=140e0298-a523-4aa7-9a0e-6d5a6558289a","ios":"levelo://app?vid=140e0298-a523-4aa7-9a0e-6d5a6558289a"},"vehicle_type_id":"4","last_reported":1700949936,"current_range_meters":16000,"station_id":"ce4bh092rcd13ifvqd20","pricing_plan_id":"free"},{"bike_id":"60ccf394-a766-4cc7-a34b-43a96ec82246","system_id":"levelo_inurba_marseille","lat":43.292644,"lon":5.384257,"is_reserved":false,"is_disabled":false,"rental_uris":{"android":"levelo://app?vid=60ccf394-a766-4cc7-a34b-43a96ec82246","ios":"levelo://app?vid=60ccf394-a766-4cc7-a34b-43a96ec82246"},"vehicle_type_id":"4","last_reported":1700949936,"current_range_meters":28000,"station_id":"ce4bh692rcd13ifvqea0","pricing_plan_id":"free"},{"bike_id":"fef2c610-e3d2-4fbc-831d-924d8af4fef5","system_id":"levelo_inurba_marseille","lat":43.304296,"lon":5.397513,"is_reserved":false,"is_disabled":false,"rental_uris":{"android":"levelo://app?vid=fef2c610-e3d2-4fbc-831d-924d8af4fef5","ios":"levelo://app?vid=fef2c610-e3d2-4fbc-831d-924d8af4fef5"},"vehicle_type_id":"4","last_reported":1700949936,"current_range_meters":8400,"station_id":"ce4bh092rcd13ifvqd20","pricing_plan_id":"free"},{"bike_id":"9c7b3a1d-48e3-47c6-bfb9-3ade1a6280bf","system_id":"levelo_inurba_marseille","lat":43.304274,"lon":5.397513,"is_reserved":false,"is_disabled":false,"rental_uris":{"android":"levelo://app?vid=9c7b3a1d-48e3-47c6-bfb9-3ade1a6280bf","ios":"levelo://app?vid=9c7b3a1d-48e3-47c6-bfb9-3ade1a6280bf"},"vehicle_type_id":"4","last_reported":1700949936,"current_range_meters":800,"station_id":"ce4bh092rcd13ifvqd20","pricing_plan_id":"free"},{"bike_id":"13b7f618-22c5-4640-8f49-7e29db9619e9","system_id":"levelo_inurba_marseille","lat":43.304274,"lon":5.397513,"is_reserved":false,"is_disabled":false,"rental_uris":{"android":"levelo://app?vid=13b7f618-22c5-4640-8f49-7e29db9619e9","ios":"levelo://app?vid=13b7f618-22c5-4640-8f49-7e29db9619e9"},"vehicle_type_id":"4","last_reported":1700949936,"current_range_meters":20800,"station_id":"ce4bh092rcd13ifvqd20","pricing_plan_id":"free"},{"bike_id":"5034e0c3-2473-4c50-9e58-7afdd1f8fd85","system_id":"levelo_inurba_marseille","lat":43.304296,"lon":5.397513,"is_reserved":false,"is_disabled":false,"rental_uris":{"android":"levelo://app?vid=5034e0c3-2473-4c50-9e58-7afdd1f8fd85","ios":"levelo://app?vid=5034e0c3-2473-4c50-9e58-7afdd1f8fd85"},"vehicle_type_id":"4","last_reported":1700949936,"current_range_meters":22800,"station_id":"ce4bh092rcd13ifvqd20","pricing_plan_id":"free"},{"bike_id":"4e5ab47b-334c-40b3-8f76-5600ba8e220b","system_id":"levelo_inurba_marseille","lat":43.290104,"lon":5.356111,"is_reserved":false,"is_disabled":false,"rental_uris":{"android":"levelo://app?vid=4e5ab47b-334c-40b3-8f76-5600ba8e220b","ios":"levelo://app?vid=4e5ab47b-334c-40b3-8f76-5600ba8e220b"},"vehicle_type_id":"4","last_reported":1700949936,"current_range_meters":10800,"station_id":"ce4bhb92rcd13ifvqen0","pricing_plan_id":"free"},{"bike_id":"c8a36fd6-28df-411d-9869-931b6764991e","system_id":"levelo_inurba_marseille","lat":43.290104,"lon":5.356111,"is_reserved":false,"is_disabled":false,"rental_uris":{"android":"levelo://app?vid=c8a36fd6-28df-411d-9869-931b6764991e","ios":"levelo://app?vid=c8a36fd6-28df-411d-9869-931b6764991e"},"vehicle_type_id":"4","last_reported":1700949936,"current_range_meters":23200,"station_id":"ce4bhb92rcd13ifvqen0","pricing_plan_id":"free"},{"bike_id":"881e9205-aa4a-47a3-9413-92b44abe9dc7","system_id":"levelo_inurba_marseille","lat":43.297841,"lon":5.393307,"is_reserved":false,"is_disabled":false,"rental_uris":{"android":"levelo://app?vid=881e9205-aa4a-47a3-9413-92b44abe9dc7","ios":"levelo://app?vid=881e9205-aa4a-47a3-9413-92b44abe9dc7"},"vehicle_type_id":"4","last_reported":1700949936,"current_range_meters":22400,"station_id":"ce4bhb12rcd13ifvqem0","pricing_plan_id":"free"},{"bike_id":"9c9bd7db-a71c-419c-ba42-83618cc977b4","system_id":"levelo_inurba_marseille","lat":43.309601,"lon":5.400734,"is_reserved":false,"is_disabled":false,"rental_uris":{"android":"levelo://app?vid=9c9bd7db-a71c-419c-ba42-83618cc977b4","ios":"levelo://app?vid=9c9bd7db-a71c-419c-ba42-83618cc977b4"},"vehicle_type_id":"4","last_reported":1700949936,"current_range_meters":0,"station_id":"","pricing_plan_id":"free"},{"bike_id":"663c6312-c2b9-4c99-8859-02d0bbe3be47","system_id":"levelo_inurba_marseille","lat":43.290094,"lon":5.381264,"is_reserved":false,"is_disabled":false,"rental_uris":{"android":"levelo://app?vid=663c6312-c2b9-4c99-8859-02d0bbe3be47","ios":"levelo://app?vid=663c6312-c2b9-4c99-8859-02d0bbe3be47"},"vehicle_type_id":"4","last_reported":1700949936,"current_range_meters":26400,"station_id":"ce4bh4p2rcd13ifvqe1g","pricing_plan_id":"free"},{"bike_id":"2b23f38a-1831-49fe-a943-86c9ec15f136","system_id":"levelo_inurba_marseille","lat":43.337483,"lon":5.374534,"is_reserved":false,"is_disabled":false,"rental_uris":{"android":"levelo://app?vid=2b23f38a-1831-49fe-a943-86c9ec15f136","ios":"levelo://app?vid=2b23f38a-1831-49fe-a943-86c9ec15f136"},"vehicle_type_id":"4","last_reported":1700949936,"current_range_meters":0,"station_id":"","pricing_plan_id":"free"},{"bike_id":"ac285e26-46ab-4b23-8672-d078d8fed511","system_id":"levelo_inurba_marseille","lat":43.337546,"lon":5.374414,"is_reserved":false,"is_disabled":false,"rental_uris":{"android":"levelo://app?vid=ac285e26-46ab-4b23-8672-d078d8fed511","ios":"levelo://app?vid=ac285e26-46ab-4b23-8672-d078d8fed511"},"vehicle_type_id":"4","last_reported":1700949936,"current_range_meters":24400,"station_id":"","pricing_plan_id":"free"},{"bike_id":"a4f3c1f1-6c0f-446a-a3e4-4feff4cb062c","system_id":"levelo_inurba_marseille","lat":43.306412,"lon":5.401035,"is_reserved":false,"is_disabled":false,"rental_uris":{"android":"levelo://app?vid=a4f3c1f1-6c0f-446a-a3e4-4feff4cb062c","ios":"levelo://app?vid=a4f3c1f1-6c0f-446a-a3e4-4feff4cb062c"},"vehicle_type_id":"4","last_reported":1700949936,"current_range_meters":22000,"station_id":"ce4bh112rcd13ifvqda0","pricing_plan_id":"free"},{"bike_id":"91d13a10-b07c-40ee-a39e-bb3db35d1fb0","system_id":"levelo_inurba_marseille","lat":43.306412,"lon":5.401035,"is_reserved":false,"is_disabled":false,"rental_uris":{"android":"levelo://app?vid=91d13a10-b07c-40ee-a39e-bb3db35d1fb0","ios":"levelo://app?vid=91d13a10-b07c-40ee-a39e-bb3db35d1fb0"},"vehicle_type_id":"4","last_reported":1700949936,"current_range_meters":13200,"station_id":"ce4bh112rcd13ifvqda0","pricing_plan_id":"free"},{"bike_id":"632db708-64e6-41a6-8129-bd2320be28c6","system_id":"levelo_inurba_marseille","lat":43.28727,"lon":5.36078,"is_reserved":false,"is_disabled":false,"rental_uris":{"android":"levelo://app?vid=632db708-64e6-41a6-8129-bd2320be28c6","ios":"levelo://app?vid=632db708-64e6-41a6-8129-bd2320be28c6"},"vehicle_type_id":"4","last_reported":1700949936,"current_range_meters":28000,"station_id":"cki0cbj6b192h4jlfktg","pricing_plan_id":"free"},{"bike_id":"6be69112-b37a-4224-b5cc-694360a3c9b9","system_id":"levelo_inurba_marseille","lat":43.28663,"lon":5.36336,"is_reserved":false,"is_disabled":false,"rental_uris":{"android":"levelo://app?vid=6be69112-b37a-4224-b5cc-694360a3c9b9","ios":"levelo://app?vid=6be69112-b37a-4224-b5cc-694360a3c9b9"},"vehicle_type_id":"4","last_reported":1700949936,"current_range_meters":22400,"station_id":"ce4bhah2rcd13ifvqej0","pricing_plan_id":"free"},{"bike_id":"784ddb13-4bda-43aa-8f37-c3450d3f29b6","system_id":"levelo_inurba_marseille","lat":43.3024,"lon":5.40065,"is_reserved":false,"is_disabled":false,"rental_uris":{"android":"levelo://app?vid=784ddb13-4bda-43aa-8f37-c3450d3f29b6","ios":"levelo://app?vid=784ddb13-4bda-43aa-8f37-c3450d3f29b6"},"vehicle_type_id":"4","last_reported":1700949936,"current_range_meters":7200,"station_id":"ce4bgvh2rcd13ifvqcs0","pricing_plan_id":"free"},{"bike_id":"70661fb3-c0a0-4e75-9cc1-95789cf8c65b","system_id":"levelo_inurba_marseille","lat":43.302759,"lon":5.400793,"is_reserved":false,"is_disabled":false,"rental_uris":{"android":"levelo://app?vid=70661fb3-c0a0-4e75-9cc1-95789cf8c65b","ios":"levelo://app?vid=70661fb3-c0a0-4e75-9cc1-95789cf8c65b"},"vehicle_type_id":"4","last_reported":1700949936,"current_range_meters":8800,"station_id":"ce4bgvh2rcd13ifvqcs0","pricing_plan_id":"free"},{"bike_id":"f8a7c781-d275-4271-96a9-43cbaa7d4d01","system_id":"levelo_inurba_marseille","lat":43.302759,"lon":5.400793,"is_reserved":false,"is_disabled":false,"rental_uris":{"android":"levelo://app?vid=f8a7c781-d275-4271-96a9-43cbaa7d4d01","ios":"levelo://app?vid=f8a7c781-d275-4271-96a9-43cbaa7d4d01"},"vehicle_type_id":"4","last_reported":1700949936,"current_range_meters":28800,"station_id":"ce4bgvh2rcd13ifvqcs0","pricing_plan_id":"free"},{"bike_id":"0f56fa0f-1117-4140-8fde-612592dc4d4f","system_id":"levelo_inurba_marseille","lat":43.286039,"lon":5.370679,"is_reserved":false,"is_disabled":false,"rental_uris":{"android":"levelo://app?vid=0f56fa0f-1117-4140-8fde-612592dc4d4f","ios":"levelo://app?vid=0f56fa0f-1117-4140-8fde-612592dc4d4f"},"vehicle_type_id":"4","last_reported":1700949936,"current_range_meters":20000,"station_id":"ce4bht12rcd13ifvqi60","pricing_plan_id":"free"},{"bike_id":"e1cfd804-c192-4c35-ad5c-c8d01222a441","system_id":"levelo_inurba_marseille","lat":43.286039,"lon":5.370679,"is_reserved":false,"is_disabled":false,"rental_uris":{"android":"levelo://app?vid=e1cfd804-c192-4c35-ad5c-c8d01222a441","ios":"levelo://app?vid=e1cfd804-c192-4c35-ad5c-c8d01222a441"},"vehicle_type_id":"4","last_reported":1700949936,"current_range_meters":25600,"station_id":"ce4bht12rcd13ifvqi60","pricing_plan_id":"free"},{"bike_id":"cd508907-2488-4e2e-a00a-5f36436474a4","system_id":"levelo_inurba_marseille","lat":43.302759,"lon":5.400793,"is_reserved":false,"is_disabled":false,"rental_uris":{"android":"levelo://app?vid=cd508907-2488-4e2e-a00a-5f36436474a4","ios":"levelo://app?vid=cd508907-2488-4e2e-a00a-5f36436474a4"},"vehicle_type_id":"4","last_reported":1700949936,"current_range_meters":4000,"station_id":"ce4bgvh2rcd13ifvqcs0","pricing_plan_id":"free"},{"bike_id":"628c6f6a-976b-4afe-9807-558ccb45e6d2","system_id":"levelo_inurba_marseille","lat":43.291994,"lon":5.392907,"is_reserved":false,"is_disabled":false,"rental_uris":{"android":"levelo://app?vid=628c6f6a-976b-4afe-9807-558ccb45e6d2","ios":"levelo://app?vid=628c6f6a-976b-4afe-9807-558ccb45e6d2"},"vehicle_type_id":"4","last_reported":1700949936,"current_range_meters":19600,"station_id":"ce4bh192rcd13ifvqdd0","pricing_plan_id":"free"},{"bike_id":"85b14acb-3343-4dbb-9fc7-ff6955a63246","system_id":"levelo_inurba_marseille","lat":43.284538,"lon":5.358657,"is_reserved":false,"is_disabled":false,"rental_uris":{"android":"levelo://app?vid=85b14acb-3343-4dbb-9fc7-ff6955a63246","ios":"levelo://app?vid=85b14acb-3343-4dbb-9fc7-ff6955a63246"},"vehicle_type_id":"4","last_reported":1700949936,"current_range_meters":17200,"station_id":"ce4bhah2rcd13ifvqei0","pricing_plan_id":"free"},{"bike_id":"e559a661-2255-4a55-96ab-8b1a65b7bb9f","system_id":"levelo_inurba_marseille","lat":43.284534,"lon":5.358662,"is_reserved":false,"is_disabled":false,"rental_uris":{"android":"levelo://app?vid=e559a661-2255-4a55-96ab-8b1a65b7bb9f","ios":"levelo://app?vid=e559a661-2255-4a55-96ab-8b1a65b7bb9f"},"vehicle_type_id":"4","last_reported":1700949936,"current_range_meters":0,"station_id":"ce4bhah2rcd13ifvqei0","pricing_plan_id":"free"},{"bike_id":"ca57b001-f9b8-47b2-ac55-5a48f04cda39","system_id":"levelo_inurba_marseille","lat":43.284534,"lon":5.358662,"is_reserved":false,"is_disabled":false,"rental_uris":{"android":"levelo://app?vid=ca57b001-f9b8-47b2-ac55-5a48f04cda39","ios":"levelo://app?vid=ca57b001-f9b8-47b2-ac55-5a48f04cda39"},"vehicle_type_id":"4","last_reported":1700949936,"current_range_meters":18400,"station_id":"ce4bhah2rcd13ifvqei0","pricing_plan_id":"free"},{"bike_id":"aa25b936-c597-4f2f-9c80-1bac2e7a9194","system_id":"levelo_inurba_marseille","lat":43.294314,"lon":5.397498,"is_reserved":false,"is_disabled":false,"rental_uris":{"android":"levelo://app?vid=aa25b936-c597-4f2f-9c80-1bac2e7a9194","ios":"levelo://app?vid=aa25b936-c597-4f2f-9c80-1bac2e7a9194"},"vehicle_type_id":"4","last_reported":1700949936,"current_range_meters":28800,"station_id":"ce4bh3h2rcd13ifvqdo0","pricing_plan_id":"free"},{"bike_id":"d08b2079-b0cd-4cb9-b0d6-38b0349bb91f","system_id":"levelo_inurba_marseille","lat":43.284538,"lon":5.358657,"is_reserved":false,"is_disabled":false,"rental_uris":{"android":"levelo://app?vid=d08b2079-b0cd-4cb9-b0d6-38b0349bb91f","ios":"levelo://app?vid=d08b2079-b0cd-4cb9-b0d6-38b0349bb91f"},"vehicle_type_id":"4","last_reported":1700949936,"current_range_meters":8800,"station_id":"ce4bhah2rcd13ifvqei0","pricing_plan_id":"free"},{"bike_id":"cdead48e-fa06-4435-b6f4-505cbd3628cf","system_id":"levelo_inurba_marseille","lat":43.294314,"lon":5.397498,"is_reserved":false,"is_disabled":false,"rental_uris":{"android":"levelo://app?vid=cdead48e-fa06-4435-b6f4-505cbd3628cf","ios":"levelo://app?vid=cdead48e-fa06-4435-b6f4-505cbd3628cf"},"vehicle_type_id":"4","last_reported":1700949936,"current_range_meters":15600,"station_id":"ce4bh3h2rcd13ifvqdo0","pricing_plan_id":"free"},{"bike_id":"95618206-f8dd-42b0-8638-2c7d6b8c67d2","system_id":"levelo_inurba_marseille","lat":43.28455,"lon":5.35897,"is_reserved":false,"is_disabled":false,"rental_uris":{"android":"levelo://app?vid=95618206-f8dd-42b0-8638-2c7d6b8c67d2","ios":"levelo://app?vid=95618206-f8dd-42b0-8638-2c7d6b8c67d2"},"vehicle_type_id":"4","last_reported":1700949936,"current_range_meters":0,"station_id":"ce4bhah2rcd13ifvqei0","pricing_plan_id":"free"},{"bike_id":"6c75e270-e87d-4fc7-a1c6-e4b3d5c451ba","system_id":"levelo_inurba_marseille","lat":43.283998,"lon":5.375062,"is_reserved":false,"is_disabled":false,"rental_uris":{"android":"levelo://app?vid=6c75e270-e87d-4fc7-a1c6-e4b3d5c451ba","ios":"levelo://app?vid=6c75e270-e87d-4fc7-a1c6-e4b3d5c451ba"},"vehicle_type_id":"4","last_reported":1700949936,"current_range_meters":24800,"station_id":"ce4bh412rcd13ifvqds0","pricing_plan_id":"free"},{"bike_id":"e5d7a276-6bd8-49a0-a556-2c03f79d2290","system_id":"levelo_inurba_marseille","lat":43.283998,"lon":5.375062,"is_reserved":false,"is_disabled":false,"rental_uris":{"android":"levelo://app?vid=e5d7a276-6bd8-49a0-a556-2c03f79d2290","ios":"levelo://app?vid=e5d7a276-6bd8-49a0-a556-2c03f79d2290"},"vehicle_type_id":"4","last_reported":1700949936,"current_range_meters":26800,"station_id":"ce4bh412rcd13ifvqds0","pricing_plan_id":"free"},{"bike_id":"a3c897cd-3fcc-4045-93e6-4c5a72149642","system_id":"levelo_inurba_marseille","lat":43.33717,"lon":5.391857,"is_reserved":false,"is_disabled":false,"rental_uris":{"android":"levelo://app?vid=a3c897cd-3fcc-4045-93e6-4c5a72149642","ios":"levelo://app?vid=a3c897cd-3fcc-4045-93e6-4c5a72149642"},"vehicle_type_id":"4","last_reported":1700949936,"current_range_meters":27200,"station_id":"ce4bhr92rcd13ifvqhsg","pricing_plan_id":"free"},{"bike_id":"bf8242ed-eae2-4435-9f5f-25a66fd5e97f","system_id":"levelo_inurba_marseille","lat":43.337168,"lon":5.391825,"is_reserved":false,"is_disabled":false,"rental_uris":{"android":"levelo://app?vid=bf8242ed-eae2-4435-9f5f-25a66fd5e97f","ios":"levelo://app?vid=bf8242ed-eae2-4435-9f5f-25a66fd5e97f"},"vehicle_type_id":"4","last_reported":1700949936,"current_range_meters":4000,"station_id":"ce4bhr92rcd13ifvqhsg","pricing_plan_id":"free"},{"bike_id":"ec787e1e-db2a-4cf0-b872-f832c429e8ac","system_id":"levelo_inurba_marseille","lat":43.297946,"lon":5.404063,"is_reserved":false,"is_disabled":false,"rental_uris":{"android":"levelo://app?vid=ec787e1e-db2a-4cf0-b872-f832c429e8ac","ios":"levelo://app?vid=ec787e1e-db2a-4cf0-b872-f832c429e8ac"},"vehicle_type_id":"4","last_reported":1700949936,"current_range_meters":28800,"station_id":"ce4bh112rcd13ifvqd90","pricing_plan_id":"free"},{"bike_id":"e2284003-4e46-4e0a-93e7-73d05c3666d9","system_id":"levelo_inurba_marseille","lat":43.33508,"lon":5.397755,"is_reserved":false,"is_disabled":false,"rental_uris":{"android":"levelo://app?vid=e2284003-4e46-4e0a-93e7-73d05c3666d9","ios":"levelo://app?vid=e2284003-4e46-4e0a-93e7-73d05c3666d9"},"vehicle_type_id":"4","last_reported":1700949936,"current_range_meters":21200,"station_id":"","pricing_plan_id":"free"},{"bike_id":"db0ed9a9-6a60-4581-a8d4-06a35ad67137","system_id":"levelo_inurba_marseille","lat":43.282754,"lon":5.350519,"is_reserved":false,"is_disabled":false,"rental_uris":{"android":"levelo://app?vid=db0ed9a9-6a60-4581-a8d4-06a35ad67137","ios":"levelo://app?vid=db0ed9a9-6a60-4581-a8d4-06a35ad67137"},"vehicle_type_id":"4","last_reported":1700949936,"current_range_meters":8400,"station_id":"ce4bhbp2rcd13ifvqerg","pricing_plan_id":"free"},{"bike_id":"ec3b3fd1-5bfc-4d6f-bc0e-3062bce32f53","system_id":"levelo_inurba_marseille","lat":43.28039,"lon":5.369297,"is_reserved":false,"is_disabled":false,"rental_uris":{"android":"levelo://app?vid=ec3b3fd1-5bfc-4d6f-bc0e-3062bce32f53","ios":"levelo://app?vid=ec3b3fd1-5bfc-4d6f-bc0e-3062bce32f53"},"vehicle_type_id":"4","last_reported":1700949936,"current_range_meters":30000,"station_id":"ce4bha12rcd13ifvqef0","pricing_plan_id":"free"},{"bike_id":"db9334a0-0093-411c-aac9-d2c04233863c","system_id":"levelo_inurba_marseille","lat":43.28039,"lon":5.369297,"is_reserved":false,"is_disabled":false,"rental_uris":{"android":"levelo://app?vid=db9334a0-0093-411c-aac9-d2c04233863c","ios":"levelo://app?vid=db9334a0-0093-411c-aac9-d2c04233863c"},"vehicle_type_id":"4","last_reported":1700949936,"current_range_meters":19600,"station_id":"ce4bha12rcd13ifvqef0","pricing_plan_id":"free"},{"bike_id":"9d3f5624-b3d7-43b2-9f84-615004750da7","system_id":"levelo_inurba_marseille","lat":43.28106,"lon":5.37842,"is_reserved":false,"is_disabled":false,"rental_uris":{"android":"levelo://app?vid=9d3f5624-b3d7-43b2-9f84-615004750da7","ios":"levelo://app?vid=9d3f5624-b3d7-43b2-9f84-615004750da7"},"vehicle_type_id":"4","last_reported":1700949936,"current_range_meters":0,"station_id":"ce4bha12rcd13ifvqee0","pricing_plan_id":"free"},{"bike_id":"d04588e9-bbab-4445-9e8d-2ba961ba7b92","system_id":"levelo_inurba_marseille","lat":43.28105,"lon":5.37837,"is_reserved":false,"is_disabled":false,"rental_uris":{"android":"levelo://app?vid=d04588e9-bbab-4445-9e8d-2ba961ba7b92","ios":"levelo://app?vid=d04588e9-bbab-4445-9e8d-2ba961ba7b92"},"vehicle_type_id":"4","last_reported":1700949936,"current_range_meters":3600,"station_id":"ce4bha12rcd13ifvqee0","pricing_plan_id":"free"},{"bike_id":"3cc366d8-171e-426a-90e8-71e5e8780f24","system_id":"levelo_inurba_marseille","lat":43.28103,"lon":5.37833,"is_reserved":false,"is_disabled":false,"rental_uris":{"android":"levelo://app?vid=3cc366d8-171e-426a-90e8-71e5e8780f24","ios":"levelo://app?vid=3cc366d8-171e-426a-90e8-71e5e8780f24"},"vehicle_type_id":"4","last_reported":1700949936,"current_range_meters":21600,"station_id":"ce4bha12rcd13ifvqee0","pricing_plan_id":"free"},{"bike_id":"8b5fa9aa-33b2-4d3d-8022-678cb5275d9a","system_id":"levelo_inurba_marseille","lat":43.28101,"lon":5.37842,"is_reserved":false,"is_disabled":false,"rental_uris":{"android":"levelo://app?vid=8b5fa9aa-33b2-4d3d-8022-678cb5275d9a","ios":"levelo://app?vid=8b5fa9aa-33b2-4d3d-8022-678cb5275d9a"},"vehicle_type_id":"4","last_reported":1700949936,"current_range_meters":15200,"station_id":"ce4bha12rcd13ifvqee0","pricing_plan_id":"free"},{"bike_id":"b9511e3f-ddb4-47d2-846f-c9cb650f532e","system_id":"levelo_inurba_marseille","lat":43.284462,"lon":5.392121,"is_reserved":false,"is_disabled":false,"rental_uris":{"android":"levelo://app?vid=b9511e3f-ddb4-47d2-846f-c9cb650f532e","ios":"levelo://app?vid=b9511e3f-ddb4-47d2-846f-c9cb650f532e"},"vehicle_type_id":"4","last_reported":1700949936,"current_range_meters":9600,"station_id":"ce4bhoh2rcd13ifvqh5g","pricing_plan_id":"free"},{"bike_id":"2b9314f9-55ce-4532-a18f-311806ed6ffd","system_id":"levelo_inurba_marseille","lat":43.285742,"lon":5.395004,"is_reserved":false,"is_disabled":false,"rental_uris":{"android":"levelo://app?vid=2b9314f9-55ce-4532-a18f-311806ed6ffd","ios":"levelo://app?vid=2b9314f9-55ce-4532-a18f-311806ed6ffd"},"vehicle_type_id":"4","last_reported":1700949936,"current_range_meters":26800,"station_id":"ce4bh292rcd13ifvqdg0","pricing_plan_id":"free"},{"bike_id":"9922c4a8-66a9-487c-9e2c-bdfef8b1fec0","system_id":"levelo_inurba_marseille","lat":43.326605,"lon":5.409903,"is_reserved":false,"is_disabled":false,"rental_uris":{"android":"levelo://app?vid=9922c4a8-66a9-487c-9e2c-bdfef8b1fec0","ios":"levelo://app?vid=9922c4a8-66a9-487c-9e2c-bdfef8b1fec0"},"vehicle_type_id":"4","last_reported":1700949936,"current_range_meters":4800,"station_id":"ce4bhpp2rcd13ifvqhgg","pricing_plan_id":"free"},{"bike_id":"7129b2a3-49ad-4263-b43e-28064b79bd22","system_id":"levelo_inurba_marseille","lat":43.326605,"lon":5.409903,"is_reserved":false,"is_disabled":false,"rental_uris":{"android":"levelo://app?vid=7129b2a3-49ad-4263-b43e-28064b79bd22","ios":"levelo://app?vid=7129b2a3-49ad-4263-b43e-28064b79bd22"},"vehicle_type_id":"4","last_reported":1700949936,"current_range_meters":29200,"station_id":"ce4bhpp2rcd13ifvqhgg","pricing_plan_id":"free"},{"bike_id":"8d90e7d1-d40e-4142-89a4-47bbc1e9b6fb","system_id":"levelo_inurba_marseille","lat":43.326605,"lon":5.409903,"is_reserved":false,"is_disabled":false,"rental_uris":{"android":"levelo://app?vid=8d90e7d1-d40e-4142-89a4-47bbc1e9b6fb","ios":"levelo://app?vid=8d90e7d1-d40e-4142-89a4-47bbc1e9b6fb"},"vehicle_type_id":"4","last_reported":1700949936,"current_range_meters":14000,"station_id":"ce4bhpp2rcd13ifvqhgg","pricing_plan_id":"free"},{"bike_id":"e252eef0-96ec-4dfb-a377-df5357c53570","system_id":"levelo_inurba_marseille","lat":43.28708,"lon":5.399877,"is_reserved":false,"is_disabled":false,"rental_uris":{"android":"levelo://app?vid=e252eef0-96ec-4dfb-a377-df5357c53570","ios":"levelo://app?vid=e252eef0-96ec-4dfb-a377-df5357c53570"},"vehicle_type_id":"4","last_reported":1700949936,"current_range_meters":4000,"station_id":"ce4bho92rcd13ifvqh3g","pricing_plan_id":"free"},{"bike_id":"f3060812-53a9-4199-88b7-00a47aeb6328","system_id":"levelo_inurba_marseille","lat":43.287154,"lon":5.399979,"is_reserved":false,"is_disabled":false,"rental_uris":{"android":"levelo://app?vid=f3060812-53a9-4199-88b7-00a47aeb6328","ios":"levelo://app?vid=f3060812-53a9-4199-88b7-00a47aeb6328"},"vehicle_type_id":"4","last_reported":1700949936,"current_range_meters":25200,"station_id":"ce4bho92rcd13ifvqh3g","pricing_plan_id":"free"},{"bike_id":"5cce28fb-2557-48ba-b681-2728480037d9","system_id":"levelo_inurba_marseille","lat":43.29272,"lon":5.40905,"is_reserved":false,"is_disabled":false,"rental_uris":{"android":"levelo://app?vid=5cce28fb-2557-48ba-b681-2728480037d9","ios":"levelo://app?vid=5cce28fb-2557-48ba-b681-2728480037d9"},"vehicle_type_id":"4","last_reported":1700949936,"current_range_meters":7600,"station_id":"ce4bh192rcd13ifvqdc0","pricing_plan_id":"free"},{"bike_id":"ff40a7ef-d3cd-4a85-a701-ce8539e77d7e","system_id":"levelo_inurba_marseille","lat":43.27626,"lon":5.36105,"is_reserved":false,"is_disabled":false,"rental_uris":{"android":"levelo://app?vid=ff40a7ef-d3cd-4a85-a701-ce8539e77d7e","ios":"levelo://app?vid=ff40a7ef-d3cd-4a85-a701-ce8539e77d7e"},"vehicle_type_id":"4","last_reported":1700949936,"current_range_meters":28400,"station_id":"ce4bgj92rcd13ifvqbe0","pricing_plan_id":"free"},{"bike_id":"e9333e17-ea63-4942-a642-cb0a1ba22a55","system_id":"levelo_inurba_marseille","lat":43.325243,"lon":5.414326,"is_reserved":false,"is_disabled":false,"rental_uris":{"android":"levelo://app?vid=e9333e17-ea63-4942-a642-cb0a1ba22a55","ios":"levelo://app?vid=e9333e17-ea63-4942-a642-cb0a1ba22a55"},"vehicle_type_id":"4","last_reported":1700949936,"current_range_meters":28000,"station_id":"ce4bhq12rcd13ifvqhhg","pricing_plan_id":"free"},{"bike_id":"a3c6def1-5296-4c7a-9eea-c8d4b330c208","system_id":"levelo_inurba_marseille","lat":43.27613,"lon":5.36119,"is_reserved":false,"is_disabled":false,"rental_uris":{"android":"levelo://app?vid=a3c6def1-5296-4c7a-9eea-c8d4b330c208","ios":"levelo://app?vid=a3c6def1-5296-4c7a-9eea-c8d4b330c208"},"vehicle_type_id":"4","last_reported":1700949936,"current_range_meters":30800,"station_id":"ce4bgj92rcd13ifvqbe0","pricing_plan_id":"free"},{"bike_id":"7aa0ecc3-6927-4af0-a460-aa40a2c3b193","system_id":"levelo_inurba_marseille","lat":43.336148,"lon":5.410349,"is_reserved":false,"is_disabled":false,"rental_uris":{"android":"levelo://app?vid=7aa0ecc3-6927-4af0-a460-aa40a2c3b193","ios":"levelo://app?vid=7aa0ecc3-6927-4af0-a460-aa40a2c3b193"},"vehicle_type_id":"4","last_reported":1700949936,"current_range_meters":17200,"station_id":"ce4bhqh2rcd13ifvqhmg","pricing_plan_id":"free"},{"bike_id":"c25ea147-e804-4786-9d25-91f61a8ed59a","system_id":"levelo_inurba_marseille","lat":43.293651,"lon":5.41268,"is_reserved":false,"is_disabled":false,"rental_uris":{"android":"levelo://app?vid=c25ea147-e804-4786-9d25-91f61a8ed59a","ios":"levelo://app?vid=c25ea147-e804-4786-9d25-91f61a8ed59a"},"vehicle_type_id":"4","last_reported":1700949936,"current_range_meters":0,"station_id":"","pricing_plan_id":"free"},{"bike_id":"1f403c37-8c5b-42ff-8557-8aeb4d78b7e5","system_id":"levelo_inurba_marseille","lat":43.278401,"lon":5.392152,"is_reserved":false,"is_disabled":false,"rental_uris":{"android":"levelo://app?vid=1f403c37-8c5b-42ff-8557-8aeb4d78b7e5","ios":"levelo://app?vid=1f403c37-8c5b-42ff-8557-8aeb4d78b7e5"},"vehicle_type_id":"4","last_reported":1700949936,"current_range_meters":17200,"station_id":"ce4bhjp2rcd13ifvqga0","pricing_plan_id":"free"},{"bike_id":"632a54ad-17e3-4d28-b19c-328f83a4327c","system_id":"levelo_inurba_marseille","lat":43.273613,"lon":5.362705,"is_reserved":false,"is_disabled":false,"rental_uris":{"android":"levelo://app?vid=632a54ad-17e3-4d28-b19c-328f83a4327c","ios":"levelo://app?vid=632a54ad-17e3-4d28-b19c-328f83a4327c"},"vehicle_type_id":"4","last_reported":1700949936,"current_range_meters":28800,"station_id":"ce4bhbh2rcd13ifvqeo0","pricing_plan_id":"free"},{"bike_id":"b04c8eff-5b73-47e6-a742-567787af1e7b","system_id":"levelo_inurba_marseille","lat":43.275625,"lon":5.384392,"is_reserved":false,"is_disabled":false,"rental_uris":{"android":"levelo://app?vid=b04c8eff-5b73-47e6-a742-567787af1e7b","ios":"levelo://app?vid=b04c8eff-5b73-47e6-a742-567787af1e7b"},"vehicle_type_id":"4","last_reported":1700949936,"current_range_meters":20400,"station_id":"ce4bhh92rcd13ifvqfi0","pricing_plan_id":"free"},{"bike_id":"0f98d30b-b1be-44e0-9af9-b4772defde32","system_id":"levelo_inurba_marseille","lat":43.336134,"lon":5.410341,"is_reserved":false,"is_disabled":false,"rental_uris":{"android":"levelo://app?vid=0f98d30b-b1be-44e0-9af9-b4772defde32","ios":"levelo://app?vid=0f98d30b-b1be-44e0-9af9-b4772defde32"},"vehicle_type_id":"4","last_reported":1700949936,"current_range_meters":27200,"station_id":"ce4bhqh2rcd13ifvqhmg","pricing_plan_id":"free"},{"bike_id":"94284315-d2e9-4352-95e0-000aace26a61","system_id":"levelo_inurba_marseille","lat":43.28,"lon":5.40006,"is_reserved":false,"is_disabled":false,"rental_uris":{"android":"levelo://app?vid=94284315-d2e9-4352-95e0-000aace26a61","ios":"levelo://app?vid=94284315-d2e9-4352-95e0-000aace26a61"},"vehicle_type_id":"4","last_reported":1700949936,"current_range_meters":0,"station_id":"ce4bho92rcd13ifvqh4g","pricing_plan_id":"free"},{"bike_id":"8eb5bdb0-5c9b-4999-93c3-a1a499ccf536","system_id":"levelo_inurba_marseille","lat":43.310785,"lon":5.424305,"is_reserved":false,"is_disabled":false,"rental_uris":{"android":"levelo://app?vid=8eb5bdb0-5c9b-4999-93c3-a1a499ccf536","ios":"levelo://app?vid=8eb5bdb0-5c9b-4999-93c3-a1a499ccf536"},"vehicle_type_id":"4","last_reported":1700949936,"current_range_meters":8000,"station_id":"ce4bhp92rcd13ifvqhag","pricing_plan_id":"free"},{"bike_id":"2de05027-7797-4106-81c1-0fbaf060e0d4","system_id":"levelo_inurba_marseille","lat":43.31723,"lon":5.42402,"is_reserved":false,"is_disabled":false,"rental_uris":{"android":"levelo://app?vid=2de05027-7797-4106-81c1-0fbaf060e0d4","ios":"levelo://app?vid=2de05027-7797-4106-81c1-0fbaf060e0d4"},"vehicle_type_id":"4","last_reported":1700949936,"current_range_meters":15600,"station_id":"ce4bhp92rcd13ifvqhbg","pricing_plan_id":"free"},{"bike_id":"60395232-e532-4f5a-ae3e-52a22da3b50f","system_id":"levelo_inurba_marseille","lat":43.3108,"lon":5.42432,"is_reserved":false,"is_disabled":false,"rental_uris":{"android":"levelo://app?vid=60395232-e532-4f5a-ae3e-52a22da3b50f","ios":"levelo://app?vid=60395232-e532-4f5a-ae3e-52a22da3b50f"},"vehicle_type_id":"4","last_reported":1700949936,"current_range_meters":6000,"station_id":"ce4bhp92rcd13ifvqhag","pricing_plan_id":"free"},{"bike_id":"97e3b868-516a-4717-91d1-15212899daab","system_id":"levelo_inurba_marseille","lat":43.340804,"lon":5.410219,"is_reserved":false,"is_disabled":false,"rental_uris":{"android":"levelo://app?vid=97e3b868-516a-4717-91d1-15212899daab","ios":"levelo://app?vid=97e3b868-516a-4717-91d1-15212899daab"},"vehicle_type_id":"4","last_reported":1700949936,"current_range_meters":10800,"station_id":"ce4bhqh2rcd13ifvqhlg","pricing_plan_id":"free"},{"bike_id":"84df32b8-5209-4713-9a7c-35f1c5e64527","system_id":"levelo_inurba_marseille","lat":43.274099,"lon":5.394019,"is_reserved":false,"is_disabled":false,"rental_uris":{"android":"levelo://app?vid=84df32b8-5209-4713-9a7c-35f1c5e64527","ios":"levelo://app?vid=84df32b8-5209-4713-9a7c-35f1c5e64527"},"vehicle_type_id":"4","last_reported":1700949936,"current_range_meters":27200,"station_id":"ce4bhdp2rcd13ifvqf20","pricing_plan_id":"free"},{"bike_id":"58a74f2c-3205-4aed-bf2c-a4151057b68d","system_id":"levelo_inurba_marseille","lat":43.295523,"lon":5.422926,"is_reserved":false,"is_disabled":false,"rental_uris":{"android":"levelo://app?vid=58a74f2c-3205-4aed-bf2c-a4151057b68d","ios":"levelo://app?vid=58a74f2c-3205-4aed-bf2c-a4151057b68d"},"vehicle_type_id":"4","last_reported":1700949936,"current_range_meters":27200,"station_id":"ce4bhph2rcd13ifvqhdg","pricing_plan_id":"free"},{"bike_id":"0c5fe61a-15d7-4bdf-8560-e838ed8fc746","system_id":"levelo_inurba_marseille","lat":43.295511,"lon":5.422926,"is_reserved":false,"is_disabled":false,"rental_uris":{"android":"levelo://app?vid=0c5fe61a-15d7-4bdf-8560-e838ed8fc746","ios":"levelo://app?vid=0c5fe61a-15d7-4bdf-8560-e838ed8fc746"},"vehicle_type_id":"4","last_reported":1700949936,"current_range_meters":9600,"station_id":"ce4bhph2rcd13ifvqhdg","pricing_plan_id":"free"},{"bike_id":"a47ef0e3-338f-4543-8e63-8e0132c5e349","system_id":"levelo_inurba_marseille","lat":43.278128,"lon":5.407195,"is_reserved":false,"is_disabled":false,"rental_uris":{"android":"levelo://app?vid=a47ef0e3-338f-4543-8e63-8e0132c5e349","ios":"levelo://app?vid=a47ef0e3-338f-4543-8e63-8e0132c5e349"},"vehicle_type_id":"4","last_reported":1700949936,"current_range_meters":30000,"station_id":"ce4bhnh2rcd13ifvqgtg","pricing_plan_id":"free"},{"bike_id":"b263c360-06c8-4f3d-8e06-07bbbf3b8544","system_id":"levelo_inurba_marseille","lat":43.278128,"lon":5.407195,"is_reserved":false,"is_disabled":false,"rental_uris":{"android":"levelo://app?vid=b263c360-06c8-4f3d-8e06-07bbbf3b8544","ios":"levelo://app?vid=b263c360-06c8-4f3d-8e06-07bbbf3b8544"},"vehicle_type_id":"4","last_reported":1700949936,"current_range_meters":16000,"station_id":"ce4bhnh2rcd13ifvqgtg","pricing_plan_id":"free"},{"bike_id":"18238bc1-a7d6-4bf1-97ad-06f73ddaa374","system_id":"levelo_inurba_marseille","lat":43.278128,"lon":5.407195,"is_reserved":false,"is_disabled":false,"rental_uris":{"android":"levelo://app?vid=18238bc1-a7d6-4bf1-97ad-06f73ddaa374","ios":"levelo://app?vid=18238bc1-a7d6-4bf1-97ad-06f73ddaa374"},"vehicle_type_id":"4","last_reported":1700949936,"current_range_meters":27200,"station_id":"ce4bhnh2rcd13ifvqgtg","pricing_plan_id":"free"},{"bike_id":"569058e1-4d58-42ea-aee4-06cd9050b08f","system_id":"levelo_inurba_marseille","lat":43.269467,"lon":5.386439,"is_reserved":false,"is_disabled":false,"rental_uris":{"android":"levelo://app?vid=569058e1-4d58-42ea-aee4-06cd9050b08f","ios":"levelo://app?vid=569058e1-4d58-42ea-aee4-06cd9050b08f"},"vehicle_type_id":"4","last_reported":1700949936,"current_range_meters":19600,"station_id":"ce4bhh92rcd13ifvqfh0","pricing_plan_id":"free"},{"bike_id":"c5dd23ee-fe1d-4e6f-89e4-747a171a17c6","system_id":"levelo_inurba_marseille","lat":43.2655,"lon":5.37284,"is_reserved":false,"is_disabled":false,"rental_uris":{"android":"levelo://app?vid=c5dd23ee-fe1d-4e6f-89e4-747a171a17c6","ios":"levelo://app?vid=c5dd23ee-fe1d-4e6f-89e4-747a171a17c6"},"vehicle_type_id":"4","last_reported":1700949936,"current_range_meters":27200,"station_id":"ce4bhg12rcd13ifvqf70","pricing_plan_id":"free"},{"bike_id":"f23d8119-b478-4639-98c5-6883279f9f84","system_id":"levelo_inurba_marseille","lat":43.32592,"lon":5.43067,"is_reserved":false,"is_disabled":false,"rental_uris":{"android":"levelo://app?vid=f23d8119-b478-4639-98c5-6883279f9f84","ios":"levelo://app?vid=f23d8119-b478-4639-98c5-6883279f9f84"},"vehicle_type_id":"4","last_reported":1700949936,"current_range_meters":25200,"station_id":"","pricing_plan_id":"free"},{"bike_id":"e7b368e8-9edf-4ac8-acef-7e9558d427aa","system_id":"levelo_inurba_marseille","lat":43.32591,"lon":5.430713,"is_reserved":false,"is_disabled":false,"rental_uris":{"android":"levelo://app?vid=e7b368e8-9edf-4ac8-acef-7e9558d427aa","ios":"levelo://app?vid=e7b368e8-9edf-4ac8-acef-7e9558d427aa"},"vehicle_type_id":"4","last_reported":1700949936,"current_range_meters":0,"station_id":"","pricing_plan_id":"free"},{"bike_id":"ed30d6a1-b23a-49e5-9c83-5546be72a734","system_id":"levelo_inurba_marseille","lat":43.3259,"lon":5.43075,"is_reserved":false,"is_disabled":false,"rental_uris":{"android":"levelo://app?vid=ed30d6a1-b23a-49e5-9c83-5546be72a734","ios":"levelo://app?vid=ed30d6a1-b23a-49e5-9c83-5546be72a734"},"vehicle_type_id":"4","last_reported":1700949936,"current_range_meters":20000,"station_id":"","pricing_plan_id":"free"},{"bike_id":"d67469ee-5362-4610-a163-fe05ae3cf4f7","system_id":"levelo_inurba_marseille","lat":43.32604,"lon":5.430817,"is_reserved":false,"is_disabled":false,"rental_uris":{"android":"levelo://app?vid=d67469ee-5362-4610-a163-fe05ae3cf4f7","ios":"levelo://app?vid=d67469ee-5362-4610-a163-fe05ae3cf4f7"},"vehicle_type_id":"4","last_reported":1700949936,"current_range_meters":8400,"station_id":"","pricing_plan_id":"free"},{"bike_id":"c2acbafe-cde0-418c-9f42-38c8baf67b8b","system_id":"levelo_inurba_marseille","lat":43.27999,"lon":5.41657,"is_reserved":false,"is_disabled":false,"rental_uris":{"android":"levelo://app?vid=c2acbafe-cde0-418c-9f42-38c8baf67b8b","ios":"levelo://app?vid=c2acbafe-cde0-418c-9f42-38c8baf67b8b"},"vehicle_type_id":"4","last_reported":1700949936,"current_range_meters":2000,"station_id":"ce4bho12rcd13ifvqh1g","pricing_plan_id":"free"},{"bike_id":"97e80021-871f-43cf-ad8e-99b17a254f61","system_id":"levelo_inurba_marseille","lat":43.27996,"lon":5.416624,"is_reserved":false,"is_disabled":false,"rental_uris":{"android":"levelo://app?vid=97e80021-871f-43cf-ad8e-99b17a254f61","ios":"levelo://app?vid=97e80021-871f-43cf-ad8e-99b17a254f61"},"vehicle_type_id":"4","last_reported":1700949936,"current_range_meters":0,"station_id":"ce4bho12rcd13ifvqh1g","pricing_plan_id":"free"},{"bike_id":"2b5f0b27-ae58-4e9e-bd76-c585f78e8a73","system_id":"levelo_inurba_marseille","lat":43.26386,"lon":5.37454,"is_reserved":false,"is_disabled":false,"rental_uris":{"android":"levelo://app?vid=2b5f0b27-ae58-4e9e-bd76-c585f78e8a73","ios":"levelo://app?vid=2b5f0b27-ae58-4e9e-bd76-c585f78e8a73"},"vehicle_type_id":"4","last_reported":1700949936,"current_range_meters":9200,"station_id":"","pricing_plan_id":"free"},{"bike_id":"b2ce843a-b289-43ba-bbdf-aaa877f11fe2","system_id":"levelo_inurba_marseille","lat":43.308051,"lon":5.43527,"is_reserved":false,"is_disabled":false,"rental_uris":{"android":"levelo://app?vid=b2ce843a-b289-43ba-bbdf-aaa877f11fe2","ios":"levelo://app?vid=b2ce843a-b289-43ba-bbdf-aaa877f11fe2"},"vehicle_type_id":"4","last_reported":1700949936,"current_range_meters":8000,"station_id":"ce4bhph2rcd13ifvqheg","pricing_plan_id":"free"},{"bike_id":"ec593df7-85d2-4a7c-a892-75fec147bf75","system_id":"levelo_inurba_marseille","lat":43.31712,"lon":5.43705,"is_reserved":false,"is_disabled":false,"rental_uris":{"android":"levelo://app?vid=ec593df7-85d2-4a7c-a892-75fec147bf75","ios":"levelo://app?vid=ec593df7-85d2-4a7c-a892-75fec147bf75"},"vehicle_type_id":"4","last_reported":1700949936,"current_range_meters":400,"station_id":"ce4bhp92rcd13ifvqhcg","pricing_plan_id":"free"},{"bike_id":"7f6bc14c-609a-459f-ad90-3c8e55a66b7b","system_id":"levelo_inurba_marseille","lat":43.31713,"lon":5.43705,"is_reserved":false,"is_disabled":false,"rental_uris":{"android":"levelo://app?vid=7f6bc14c-609a-459f-ad90-3c8e55a66b7b","ios":"levelo://app?vid=7f6bc14c-609a-459f-ad90-3c8e55a66b7b"},"vehicle_type_id":"4","last_reported":1700949936,"current_range_meters":11200,"station_id":"ce4bhp92rcd13ifvqhcg","pricing_plan_id":"free"},{"bike_id":"a557bc3e-6255-419b-8a70-ddf4b9c79f66","system_id":"levelo_inurba_marseille","lat":43.31717,"lon":5.43706,"is_reserved":false,"is_disabled":false,"rental_uris":{"android":"levelo://app?vid=a557bc3e-6255-419b-8a70-ddf4b9c79f66","ios":"levelo://app?vid=a557bc3e-6255-419b-8a70-ddf4b9c79f66"},"vehicle_type_id":"4","last_reported":1700949936,"current_range_meters":2000,"station_id":"ce4bhp92rcd13ifvqhcg","pricing_plan_id":"free"},{"bike_id":"345d3c3d-5215-44d7-a610-0848b0e8b817","system_id":"levelo_inurba_marseille","lat":43.31709,"lon":5.43709,"is_reserved":false,"is_disabled":false,"rental_uris":{"android":"levelo://app?vid=345d3c3d-5215-44d7-a610-0848b0e8b817","ios":"levelo://app?vid=345d3c3d-5215-44d7-a610-0848b0e8b817"},"vehicle_type_id":"4","last_reported":1700949936,"current_range_meters":3600,"station_id":"ce4bhp92rcd13ifvqhcg","pricing_plan_id":"free"},{"bike_id":"d33ff373-472b-4acc-9928-25c5b0a30ee3","system_id":"levelo_inurba_marseille","lat":43.271368,"lon":5.40928,"is_reserved":false,"is_disabled":false,"rental_uris":{"android":"levelo://app?vid=d33ff373-472b-4acc-9928-25c5b0a30ee3","ios":"levelo://app?vid=d33ff373-472b-4acc-9928-25c5b0a30ee3"},"vehicle_type_id":"4","last_reported":1700949936,"current_range_meters":30000,"station_id":"ce4bhl12rcd13ifvqgf0","pricing_plan_id":"free"},{"bike_id":"cf3156b9-88bc-44df-89bb-4b017d6fae36","system_id":"levelo_inurba_marseille","lat":43.271368,"lon":5.40928,"is_reserved":false,"is_disabled":false,"rental_uris":{"android":"levelo://app?vid=cf3156b9-88bc-44df-89bb-4b017d6fae36","ios":"levelo://app?vid=cf3156b9-88bc-44df-89bb-4b017d6fae36"},"vehicle_type_id":"4","last_reported":1700949936,"current_range_meters":25600,"station_id":"ce4bhl12rcd13ifvqgf0","pricing_plan_id":"free"},{"bike_id":"dbf62bfb-d43b-46dc-b301-0e9e00d707fe","system_id":"levelo_inurba_marseille","lat":43.261757,"lon":5.379004,"is_reserved":false,"is_disabled":false,"rental_uris":{"android":"levelo://app?vid=dbf62bfb-d43b-46dc-b301-0e9e00d707fe","ios":"levelo://app?vid=dbf62bfb-d43b-46dc-b301-0e9e00d707fe"},"vehicle_type_id":"4","last_reported":1700949936,"current_range_meters":26800,"station_id":"ce4bhjp2rcd13ifvqg90","pricing_plan_id":"free"},{"bike_id":"18326065-b43f-4927-a844-400ea8de394e","system_id":"levelo_inurba_marseille","lat":43.267959,"lon":5.402685,"is_reserved":false,"is_disabled":false,"rental_uris":{"android":"levelo://app?vid=18326065-b43f-4927-a844-400ea8de394e","ios":"levelo://app?vid=18326065-b43f-4927-a844-400ea8de394e"},"vehicle_type_id":"4","last_reported":1700949936,"current_range_meters":24400,"station_id":"ce501612rcd8frsf0b60","pricing_plan_id":"free"},{"bike_id":"7c5a83ac-336c-4b91-a5ea-82b3c6d6127d","system_id":"levelo_inurba_marseille","lat":43.298768,"lon":5.43643,"is_reserved":false,"is_disabled":false,"rental_uris":{"android":"levelo://app?vid=7c5a83ac-336c-4b91-a5ea-82b3c6d6127d","ios":"levelo://app?vid=7c5a83ac-336c-4b91-a5ea-82b3c6d6127d"},"vehicle_type_id":"4","last_reported":1700949936,"current_range_meters":31200,"station_id":"ce4bhpp2rcd13ifvqhfg","pricing_plan_id":"free"},{"bike_id":"d24921c1-8c61-4b91-941a-2e11a6ed2b73","system_id":"levelo_inurba_marseille","lat":43.29891,"lon":5.4366,"is_reserved":false,"is_disabled":false,"rental_uris":{"android":"levelo://app?vid=d24921c1-8c61-4b91-941a-2e11a6ed2b73","ios":"levelo://app?vid=d24921c1-8c61-4b91-941a-2e11a6ed2b73"},"vehicle_type_id":"4","last_reported":1700949936,"current_range_meters":9200,"station_id":"ce4bhpp2rcd13ifvqhfg","pricing_plan_id":"free"},{"bike_id":"f4f2e1d5-dafa-412d-9b3a-3611814786ce","system_id":"levelo_inurba_marseille","lat":43.298768,"lon":5.43643,"is_reserved":false,"is_disabled":false,"rental_uris":{"android":"levelo://app?vid=f4f2e1d5-dafa-412d-9b3a-3611814786ce","ios":"levelo://app?vid=f4f2e1d5-dafa-412d-9b3a-3611814786ce"},"vehicle_type_id":"4","last_reported":1700949936,"current_range_meters":30400,"station_id":"ce4bhpp2rcd13ifvqhfg","pricing_plan_id":"free"},{"bike_id":"8af0d2ed-93d1-485d-9803-40c71e52d0d9","system_id":"levelo_inurba_marseille","lat":43.29901,"lon":5.43677,"is_reserved":false,"is_disabled":false,"rental_uris":{"android":"levelo://app?vid=8af0d2ed-93d1-485d-9803-40c71e52d0d9","ios":"levelo://app?vid=8af0d2ed-93d1-485d-9803-40c71e52d0d9"},"vehicle_type_id":"4","last_reported":1700949936,"current_range_meters":12000,"station_id":"ce4bhpp2rcd13ifvqhfg","pricing_plan_id":"free"},{"bike_id":"1c8d74f7-5570-450a-a3f0-692cd9a40004","system_id":"levelo_inurba_marseille","lat":43.281548,"lon":5.42643,"is_reserved":false,"is_disabled":false,"rental_uris":{"android":"levelo://app?vid=1c8d74f7-5570-450a-a3f0-692cd9a40004","ios":"levelo://app?vid=1c8d74f7-5570-450a-a3f0-692cd9a40004"},"vehicle_type_id":"4","last_reported":1700949936,"current_range_meters":27200,"station_id":"ce4bhnh2rcd13ifvqgug","pricing_plan_id":"free"},{"bike_id":"1b47e07e-877d-4d88-be49-10c7bbcc472f","system_id":"levelo_inurba_marseille","lat":43.281548,"lon":5.42643,"is_reserved":false,"is_disabled":false,"rental_uris":{"android":"levelo://app?vid=1b47e07e-877d-4d88-be49-10c7bbcc472f","ios":"levelo://app?vid=1b47e07e-877d-4d88-be49-10c7bbcc472f"},"vehicle_type_id":"4","last_reported":1700949936,"current_range_meters":27600,"station_id":"ce4bhnh2rcd13ifvqgug","pricing_plan_id":"free"},{"bike_id":"e2482bab-1eb4-4a6f-b7fd-75767a4a3271","system_id":"levelo_inurba_marseille","lat":43.275028,"lon":5.424534,"is_reserved":false,"is_disabled":false,"rental_uris":{"android":"levelo://app?vid=e2482bab-1eb4-4a6f-b7fd-75767a4a3271","ios":"levelo://app?vid=e2482bab-1eb4-4a6f-b7fd-75767a4a3271"},"vehicle_type_id":"4","last_reported":1700949936,"current_range_meters":26800,"station_id":"ce4bhn92rcd13ifvqgrg","pricing_plan_id":"free"},{"bike_id":"c8ad149b-0758-4b26-8594-7047a12fc6b0","system_id":"levelo_inurba_marseille","lat":43.260909,"lon":5.397591,"is_reserved":false,"is_disabled":false,"rental_uris":{"android":"levelo://app?vid=c8ad149b-0758-4b26-8594-7047a12fc6b0","ios":"levelo://app?vid=c8ad149b-0758-4b26-8594-7047a12fc6b0"},"vehicle_type_id":"4","last_reported":1700949936,"current_range_meters":0,"station_id":"ce4bhi12rcd13ifvqfq0","pricing_plan_id":"free"},{"bike_id":"783e5a08-5c76-48d6-b5a2-4da09393953f","system_id":"levelo_inurba_marseille","lat":43.260909,"lon":5.397591,"is_reserved":false,"is_disabled":false,"rental_uris":{"android":"levelo://app?vid=783e5a08-5c76-48d6-b5a2-4da09393953f","ios":"levelo://app?vid=783e5a08-5c76-48d6-b5a2-4da09393953f"},"vehicle_type_id":"4","last_reported":1700949936,"current_range_meters":11600,"station_id":"ce4bhi12rcd13ifvqfq0","pricing_plan_id":"free"},{"bike_id":"c85f7616-3a9e-47a4-ae16-28a03e51ab4f","system_id":"levelo_inurba_marseille","lat":43.289285,"lon":5.438776,"is_reserved":false,"is_disabled":false,"rental_uris":{"android":"levelo://app?vid=c85f7616-3a9e-47a4-ae16-28a03e51ab4f","ios":"levelo://app?vid=c85f7616-3a9e-47a4-ae16-28a03e51ab4f"},"vehicle_type_id":"4","last_reported":1700949936,"current_range_meters":6000,"station_id":"","pricing_plan_id":"free"},{"bike_id":"53ae05c5-1664-4ddb-ae58-547f63e25710","system_id":"levelo_inurba_marseille","lat":43.25829,"lon":5.39427,"is_reserved":false,"is_disabled":false,"rental_uris":{"android":"levelo://app?vid=53ae05c5-1664-4ddb-ae58-547f63e25710","ios":"levelo://app?vid=53ae05c5-1664-4ddb-ae58-547f63e25710"},"vehicle_type_id":"4","last_reported":1700949936,"current_range_meters":29200,"station_id":"ce4bhip2rcd13ifvqft0","pricing_plan_id":"free"},{"bike_id":"117768a1-b0ac-46a9-b40f-e30b20e5f56f","system_id":"levelo_inurba_marseille","lat":43.258224,"lon":5.394369,"is_reserved":false,"is_disabled":false,"rental_uris":{"android":"levelo://app?vid=117768a1-b0ac-46a9-b40f-e30b20e5f56f","ios":"levelo://app?vid=117768a1-b0ac-46a9-b40f-e30b20e5f56f"},"vehicle_type_id":"4","last_reported":1700949936,"current_range_meters":16400,"station_id":"ce4bhip2rcd13ifvqft0","pricing_plan_id":"free"},{"bike_id":"2ffdcd9f-3493-4985-b831-2d43c5ba0dd3","system_id":"levelo_inurba_marseille","lat":43.25575,"lon":5.38238,"is_reserved":false,"is_disabled":false,"rental_uris":{"android":"levelo://app?vid=2ffdcd9f-3493-4985-b831-2d43c5ba0dd3","ios":"levelo://app?vid=2ffdcd9f-3493-4985-b831-2d43c5ba0dd3"},"vehicle_type_id":"4","last_reported":1700949936,"current_range_meters":0,"station_id":"ce4bhih2rcd13ifvqfs0","pricing_plan_id":"free"},{"bike_id":"4b1a6838-7bca-4929-8376-58411a6bee6c","system_id":"levelo_inurba_marseille","lat":43.258224,"lon":5.394369,"is_reserved":false,"is_disabled":false,"rental_uris":{"android":"levelo://app?vid=4b1a6838-7bca-4929-8376-58411a6bee6c","ios":"levelo://app?vid=4b1a6838-7bca-4929-8376-58411a6bee6c"},"vehicle_type_id":"4","last_reported":1700949936,"current_range_meters":24000,"station_id":"ce4bhip2rcd13ifvqft0","pricing_plan_id":"free"},{"bike_id":"3533a6b9-c640-434b-b433-4e41e36be1b7","system_id":"levelo_inurba_marseille","lat":43.270721,"lon":5.422764,"is_reserved":false,"is_disabled":false,"rental_uris":{"android":"levelo://app?vid=3533a6b9-c640-434b-b433-4e41e36be1b7","ios":"levelo://app?vid=3533a6b9-c640-434b-b433-4e41e36be1b7"},"vehicle_type_id":"4","last_reported":1700949936,"current_range_meters":23200,"station_id":"ce4bhk92rcd13ifvqgb0","pricing_plan_id":"free"},{"bike_id":"e06a8c78-4d48-491c-8072-84514714cbe8","system_id":"levelo_inurba_marseille","lat":43.270721,"lon":5.422764,"is_reserved":false,"is_disabled":false,"rental_uris":{"android":"levelo://app?vid=e06a8c78-4d48-491c-8072-84514714cbe8","ios":"levelo://app?vid=e06a8c78-4d48-491c-8072-84514714cbe8"},"vehicle_type_id":"4","last_reported":1700949936,"current_range_meters":31600,"station_id":"ce4bhk92rcd13ifvqgb0","pricing_plan_id":"free"},{"bike_id":"ab3633d3-2eaa-4217-8822-a32a95f0076d","system_id":"levelo_inurba_marseille","lat":43.270721,"lon":5.422764,"is_reserved":false,"is_disabled":false,"rental_uris":{"android":"levelo://app?vid=ab3633d3-2eaa-4217-8822-a32a95f0076d","ios":"levelo://app?vid=ab3633d3-2eaa-4217-8822-a32a95f0076d"},"vehicle_type_id":"4","last_reported":1700949936,"current_range_meters":13600,"station_id":"ce4bhk92rcd13ifvqgb0","pricing_plan_id":"free"},{"bike_id":"e9481a26-80f2-4757-9b39-be69232601a4","system_id":"levelo_inurba_marseille","lat":43.270721,"lon":5.422764,"is_reserved":false,"is_disabled":false,"rental_uris":{"android":"levelo://app?vid=e9481a26-80f2-4757-9b39-be69232601a4","ios":"levelo://app?vid=e9481a26-80f2-4757-9b39-be69232601a4"},"vehicle_type_id":"4","last_reported":1700949936,"current_range_meters":10800,"station_id":"ce4bhk92rcd13ifvqgb0","pricing_plan_id":"free"},{"bike_id":"d26b91b0-7080-4c02-baa9-575cb32ac54a","system_id":"levelo_inurba_marseille","lat":43.258658,"lon":5.398935,"is_reserved":false,"is_disabled":false,"rental_uris":{"android":"levelo://app?vid=d26b91b0-7080-4c02-baa9-575cb32ac54a","ios":"levelo://app?vid=d26b91b0-7080-4c02-baa9-575cb32ac54a"},"vehicle_type_id":"4","last_reported":1700949936,"current_range_meters":26000,"station_id":"ce4bhl92rcd13ifvqghg","pricing_plan_id":"free"},{"bike_id":"e4dd06e1-5fa3-4934-863e-c1cfc237ab84","system_id":"levelo_inurba_marseille","lat":43.258658,"lon":5.398935,"is_reserved":false,"is_disabled":false,"rental_uris":{"android":"levelo://app?vid=e4dd06e1-5fa3-4934-863e-c1cfc237ab84","ios":"levelo://app?vid=e4dd06e1-5fa3-4934-863e-c1cfc237ab84"},"vehicle_type_id":"4","last_reported":1700949936,"current_range_meters":28800,"station_id":"ce4bhl92rcd13ifvqghg","pricing_plan_id":"free"},{"bike_id":"8b6e2a1b-c4f1-43f8-ad2c-fdfaa77fc447","system_id":"levelo_inurba_marseille","lat":43.25721,"lon":5.41117,"is_reserved":false,"is_disabled":false,"rental_uris":{"android":"levelo://app?vid=8b6e2a1b-c4f1-43f8-ad2c-fdfaa77fc447","ios":"levelo://app?vid=8b6e2a1b-c4f1-43f8-ad2c-fdfaa77fc447"},"vehicle_type_id":"4","last_reported":1700949936,"current_range_meters":29200,"station_id":"ce4bhkp2rcd13ifvqgd0","pricing_plan_id":"free"},{"bike_id":"76f36148-5dd9-400b-baa8-9aa3b229b966","system_id":"levelo_inurba_marseille","lat":43.250009,"lon":5.389195,"is_reserved":false,"is_disabled":false,"rental_uris":{"android":"levelo://app?vid=76f36148-5dd9-400b-baa8-9aa3b229b966","ios":"levelo://app?vid=76f36148-5dd9-400b-baa8-9aa3b229b966"},"vehicle_type_id":"4","last_reported":1700949936,"current_range_meters":30400,"station_id":"ce4bhgp2rcd13ifvqfd0","pricing_plan_id":"free"},{"bike_id":"fa1c1619-ef7c-452c-83f1-b3437f341807","system_id":"levelo_inurba_marseille","lat":43.250009,"lon":5.389195,"is_reserved":false,"is_disabled":false,"rental_uris":{"android":"levelo://app?vid=fa1c1619-ef7c-452c-83f1-b3437f341807","ios":"levelo://app?vid=fa1c1619-ef7c-452c-83f1-b3437f341807"},"vehicle_type_id":"4","last_reported":1700949936,"current_range_meters":29600,"station_id":"ce4bhgp2rcd13ifvqfd0","pricing_plan_id":"free"},{"bike_id":"59a7ae99-c4d3-4ebc-8af4-dec938d80e4e","system_id":"levelo_inurba_marseille","lat":43.250009,"lon":5.389195,"is_reserved":false,"is_disabled":false,"rental_uris":{"android":"levelo://app?vid=59a7ae99-c4d3-4ebc-8af4-dec938d80e4e","ios":"levelo://app?vid=59a7ae99-c4d3-4ebc-8af4-dec938d80e4e"},"vehicle_type_id":"4","last_reported":1700949936,"current_range_meters":25200,"station_id":"ce4bhgp2rcd13ifvqfd0","pricing_plan_id":"free"},{"bike_id":"02d75adc-1043-49bf-8a92-cc2e66fe63fc","system_id":"levelo_inurba_marseille","lat":43.2479,"lon":5.374457,"is_reserved":false,"is_disabled":false,"rental_uris":{"android":"levelo://app?vid=02d75adc-1043-49bf-8a92-cc2e66fe63fc","ios":"levelo://app?vid=02d75adc-1043-49bf-8a92-cc2e66fe63fc"},"vehicle_type_id":"4","last_reported":1700949936,"current_range_meters":26000,"station_id":"ce4bhgh2rcd13ifvqfb0","pricing_plan_id":"free"},{"bike_id":"4718b3d7-4847-4237-a22f-3d52e449c36d","system_id":"levelo_inurba_marseille","lat":43.250897,"lon":5.395161,"is_reserved":false,"is_disabled":false,"rental_uris":{"android":"levelo://app?vid=4718b3d7-4847-4237-a22f-3d52e449c36d","ios":"levelo://app?vid=4718b3d7-4847-4237-a22f-3d52e449c36d"},"vehicle_type_id":"4","last_reported":1700949936,"current_range_meters":26800,"station_id":"ce4bhm12rcd13ifvqgkg","pricing_plan_id":"free"},{"bike_id":"4e22f755-9fb8-454a-aed8-0ce31691dc80","system_id":"levelo_inurba_marseille","lat":43.2473,"lon":5.37395,"is_reserved":false,"is_disabled":false,"rental_uris":{"android":"levelo://app?vid=4e22f755-9fb8-454a-aed8-0ce31691dc80","ios":"levelo://app?vid=4e22f755-9fb8-454a-aed8-0ce31691dc80"},"vehicle_type_id":"4","last_reported":1700949936,"current_range_meters":17600,"station_id":"","pricing_plan_id":"free"},{"bike_id":"2645cd39-512e-4061-b025-45f27893a23b","system_id":"levelo_inurba_marseille","lat":43.246624,"lon":5.381549,"is_reserved":false,"is_disabled":false,"rental_uris":{"android":"levelo://app?vid=2645cd39-512e-4061-b025-45f27893a23b","ios":"levelo://app?vid=2645cd39-512e-4061-b025-45f27893a23b"},"vehicle_type_id":"4","last_reported":1700949936,"current_range_meters":30000,"station_id":"ce4bhih2rcd13ifvqfr0","pricing_plan_id":"free"},{"bike_id":"890f1931-e5ec-4066-b5a7-0222afec386c","system_id":"levelo_inurba_marseille","lat":43.25102,"lon":5.403214,"is_reserved":false,"is_disabled":false,"rental_uris":{"android":"levelo://app?vid=890f1931-e5ec-4066-b5a7-0222afec386c","ios":"levelo://app?vid=890f1931-e5ec-4066-b5a7-0222afec386c"},"vehicle_type_id":"4","last_reported":1700949936,"current_range_meters":31200,"station_id":"ce4bhlh2rcd13ifvqgig","pricing_plan_id":"free"},{"bike_id":"297670fc-15cf-49ca-b4ad-d4387e65c566","system_id":"levelo_inurba_marseille","lat":43.25102,"lon":5.403214,"is_reserved":false,"is_disabled":false,"rental_uris":{"android":"levelo://app?vid=297670fc-15cf-49ca-b4ad-d4387e65c566","ios":"levelo://app?vid=297670fc-15cf-49ca-b4ad-d4387e65c566"},"vehicle_type_id":"4","last_reported":1700949936,"current_range_meters":30400,"station_id":"ce4bhlh2rcd13ifvqgig","pricing_plan_id":"free"},{"bike_id":"4754d520-6d94-4ceb-b936-c49fc9af26ed","system_id":"levelo_inurba_marseille","lat":43.2511,"lon":5.40326,"is_reserved":false,"is_disabled":false,"rental_uris":{"android":"levelo://app?vid=4754d520-6d94-4ceb-b936-c49fc9af26ed","ios":"levelo://app?vid=4754d520-6d94-4ceb-b936-c49fc9af26ed"},"vehicle_type_id":"4","last_reported":1700949936,"current_range_meters":0,"station_id":"ce4bhlh2rcd13ifvqgig","pricing_plan_id":"free"},{"bike_id":"42e732b6-5e26-4b9f-aa12-d16daa93f6b7","system_id":"levelo_inurba_marseille","lat":43.25102,"lon":5.403214,"is_reserved":false,"is_disabled":false,"rental_uris":{"android":"levelo://app?vid=42e732b6-5e26-4b9f-aa12-d16daa93f6b7","ios":"levelo://app?vid=42e732b6-5e26-4b9f-aa12-d16daa93f6b7"},"vehicle_type_id":"4","last_reported":1700949936,"current_range_meters":10000,"station_id":"ce4bhlh2rcd13ifvqgig","pricing_plan_id":"free"},{"bike_id":"c5abd94b-53ad-4088-a14a-139d39627fc9","system_id":"levelo_inurba_marseille","lat":43.25102,"lon":5.403214,"is_reserved":false,"is_disabled":false,"rental_uris":{"android":"levelo://app?vid=c5abd94b-53ad-4088-a14a-139d39627fc9","ios":"levelo://app?vid=c5abd94b-53ad-4088-a14a-139d39627fc9"},"vehicle_type_id":"4","last_reported":1700949936,"current_range_meters":18800,"station_id":"ce4bhlh2rcd13ifvqgig","pricing_plan_id":"free"},{"bike_id":"c1ced6aa-0310-4bab-8214-1f856ce02a86","system_id":"levelo_inurba_marseille","lat":43.246461,"lon":5.389014,"is_reserved":false,"is_disabled":false,"rental_uris":{"android":"levelo://app?vid=c1ced6aa-0310-4bab-8214-1f856ce02a86","ios":"levelo://app?vid=c1ced6aa-0310-4bab-8214-1f856ce02a86"},"vehicle_type_id":"4","last_reported":1700949936,"current_range_meters":22000,"station_id":"ce4bhg12rcd13ifvqf60","pricing_plan_id":"free"},{"bike_id":"1f088b2a-bd00-4ce5-b39c-c0f45ad5c1e2","system_id":"levelo_inurba_marseille","lat":43.246467,"lon":5.388984,"is_reserved":false,"is_disabled":false,"rental_uris":{"android":"levelo://app?vid=1f088b2a-bd00-4ce5-b39c-c0f45ad5c1e2","ios":"levelo://app?vid=1f088b2a-bd00-4ce5-b39c-c0f45ad5c1e2"},"vehicle_type_id":"4","last_reported":1700949936,"current_range_meters":30400,"station_id":"ce4bhg12rcd13ifvqf60","pricing_plan_id":"free"},{"bike_id":"16cbc471-e842-49b7-be91-1309994883e2","system_id":"levelo_inurba_marseille","lat":43.246439,"lon":5.388962,"is_reserved":false,"is_disabled":false,"rental_uris":{"android":"levelo://app?vid=16cbc471-e842-49b7-be91-1309994883e2","ios":"levelo://app?vid=16cbc471-e842-49b7-be91-1309994883e2"},"vehicle_type_id":"4","last_reported":1700949936,"current_range_meters":24000,"station_id":"ce4bhg12rcd13ifvqf60","pricing_plan_id":"free"},{"bike_id":"e33e68a4-6943-4536-9417-dabe38fe3c20","system_id":"levelo_inurba_marseille","lat":43.243884,"lon":5.370737,"is_reserved":false,"is_disabled":false,"rental_uris":{"android":"levelo://app?vid=e33e68a4-6943-4536-9417-dabe38fe3c20","ios":"levelo://app?vid=e33e68a4-6943-4536-9417-dabe38fe3c20"},"vehicle_type_id":"4","last_reported":1700949936,"current_range_meters":8800,"station_id":"ce4bhhh2rcd13ifvqfk0","pricing_plan_id":"free"},{"bike_id":"7639a052-d686-4e15-99fe-f110b2f19460","system_id":"levelo_inurba_marseille","lat":43.243884,"lon":5.370736,"is_reserved":false,"is_disabled":false,"rental_uris":{"android":"levelo://app?vid=7639a052-d686-4e15-99fe-f110b2f19460","ios":"levelo://app?vid=7639a052-d686-4e15-99fe-f110b2f19460"},"vehicle_type_id":"4","last_reported":1700949936,"current_range_meters":21200,"station_id":"ce4bhhh2rcd13ifvqfk0","pricing_plan_id":"free"},{"bike_id":"85dbef60-0cf4-48b9-af3c-b3d1da2efaf5","system_id":"levelo_inurba_marseille","lat":43.243884,"lon":5.370736,"is_reserved":false,"is_disabled":false,"rental_uris":{"android":"levelo://app?vid=85dbef60-0cf4-48b9-af3c-b3d1da2efaf5","ios":"levelo://app?vid=85dbef60-0cf4-48b9-af3c-b3d1da2efaf5"},"vehicle_type_id":"4","last_reported":1700949936,"current_range_meters":16000,"station_id":"ce4bhhh2rcd13ifvqfk0","pricing_plan_id":"free"},{"bike_id":"0265b60e-d829-4d27-8cee-8f8a0b69f409","system_id":"levelo_inurba_marseille","lat":43.24074,"lon":5.37745,"is_reserved":false,"is_disabled":false,"rental_uris":{"android":"levelo://app?vid=0265b60e-d829-4d27-8cee-8f8a0b69f409","ios":"levelo://app?vid=0265b60e-d829-4d27-8cee-8f8a0b69f409"},"vehicle_type_id":"4","last_reported":1700949936,"current_range_meters":0,"station_id":"ce4bhnp2rcd13ifvqgvg","pricing_plan_id":"free"},{"bike_id":"1e128d17-e64b-4270-9579-8a427e522e51","system_id":"levelo_inurba_marseille","lat":43.240623,"lon":5.377642,"is_reserved":false,"is_disabled":false,"rental_uris":{"android":"levelo://app?vid=1e128d17-e64b-4270-9579-8a427e522e51","ios":"levelo://app?vid=1e128d17-e64b-4270-9579-8a427e522e51"},"vehicle_type_id":"4","last_reported":1700949936,"current_range_meters":16800,"station_id":"ce4bhnp2rcd13ifvqgvg","pricing_plan_id":"free"},{"bike_id":"b1065339-1ece-4fd7-a651-bb5f8f2e4643","system_id":"levelo_inurba_marseille","lat":43.240623,"lon":5.377642,"is_reserved":false,"is_disabled":false,"rental_uris":{"android":"levelo://app?vid=b1065339-1ece-4fd7-a651-bb5f8f2e4643","ios":"levelo://app?vid=b1065339-1ece-4fd7-a651-bb5f8f2e4643"},"vehicle_type_id":"4","last_reported":1700949936,"current_range_meters":23600,"station_id":"ce4bhnp2rcd13ifvqgvg","pricing_plan_id":"free"},{"bike_id":"cac7ff2d-584d-4e7e-8f4f-dc6a1371d2d6","system_id":"levelo_inurba_marseille","lat":43.240623,"lon":5.377642,"is_reserved":false,"is_disabled":false,"rental_uris":{"android":"levelo://app?vid=cac7ff2d-584d-4e7e-8f4f-dc6a1371d2d6","ios":"levelo://app?vid=cac7ff2d-584d-4e7e-8f4f-dc6a1371d2d6"},"vehicle_type_id":"4","last_reported":1700949936,"current_range_meters":24800,"station_id":"ce4bhnp2rcd13ifvqgvg","pricing_plan_id":"free"},{"bike_id":"21c17b12-290e-4fbd-8bbb-0601bd7da58c","system_id":"levelo_inurba_marseille","lat":43.240623,"lon":5.377642,"is_reserved":false,"is_disabled":false,"rental_uris":{"android":"levelo://app?vid=21c17b12-290e-4fbd-8bbb-0601bd7da58c","ios":"levelo://app?vid=21c17b12-290e-4fbd-8bbb-0601bd7da58c"},"vehicle_type_id":"4","last_reported":1700949936,"current_range_meters":25600,"station_id":"ce4bhnp2rcd13ifvqgvg","pricing_plan_id":"free"},{"bike_id":"5b85e17b-a2dd-45ea-b255-ec063e06e703","system_id":"levelo_inurba_marseille","lat":43.240623,"lon":5.377642,"is_reserved":false,"is_disabled":false,"rental_uris":{"android":"levelo://app?vid=5b85e17b-a2dd-45ea-b255-ec063e06e703","ios":"levelo://app?vid=5b85e17b-a2dd-45ea-b255-ec063e06e703"},"vehicle_type_id":"4","last_reported":1700949936,"current_range_meters":30400,"station_id":"ce4bhnp2rcd13ifvqgvg","pricing_plan_id":"free"},{"bike_id":"ff01dbe1-223f-43a9-b0c6-51a5a8d2ed05","system_id":"levelo_inurba_marseille","lat":43.239588,"lon":5.366238,"is_reserved":false,"is_disabled":false,"rental_uris":{"android":"levelo://app?vid=ff01dbe1-223f-43a9-b0c6-51a5a8d2ed05","ios":"levelo://app?vid=ff01dbe1-223f-43a9-b0c6-51a5a8d2ed05"},"vehicle_type_id":"4","last_reported":1700949936,"current_range_meters":31600,"station_id":"ce4bhi12rcd13ifvqfp0","pricing_plan_id":"free"},{"bike_id":"608034b1-7344-47da-8318-151765187169","system_id":"levelo_inurba_marseille","lat":43.239588,"lon":5.366238,"is_reserved":false,"is_disabled":false,"rental_uris":{"android":"levelo://app?vid=608034b1-7344-47da-8318-151765187169","ios":"levelo://app?vid=608034b1-7344-47da-8318-151765187169"},"vehicle_type_id":"4","last_reported":1700949936,"current_range_meters":8000,"station_id":"ce4bhi12rcd13ifvqfp0","pricing_plan_id":"free"},{"bike_id":"8ddc8e40-82e4-4cc6-90af-c119357648f0","system_id":"levelo_inurba_marseille","lat":43.239588,"lon":5.366238,"is_reserved":false,"is_disabled":false,"rental_uris":{"android":"levelo://app?vid=8ddc8e40-82e4-4cc6-90af-c119357648f0","ios":"levelo://app?vid=8ddc8e40-82e4-4cc6-90af-c119357648f0"},"vehicle_type_id":"4","last_reported":1700949936,"current_range_meters":24400,"station_id":"ce4bhi12rcd13ifvqfp0","pricing_plan_id":"free"},{"bike_id":"3c551cb7-0b99-44ed-8b4c-bab8e2e15823","system_id":"levelo_inurba_marseille","lat":43.239588,"lon":5.366238,"is_reserved":false,"is_disabled":false,"rental_uris":{"android":"levelo://app?vid=3c551cb7-0b99-44ed-8b4c-bab8e2e15823","ios":"levelo://app?vid=3c551cb7-0b99-44ed-8b4c-bab8e2e15823"},"vehicle_type_id":"4","last_reported":1700949936,"current_range_meters":24800,"station_id":"ce4bhi12rcd13ifvqfp0","pricing_plan_id":"free"},{"bike_id":"a0e1f1d6-3f92-4eff-927c-9ca415b7ca93","system_id":"levelo_inurba_marseille","lat":43.239636,"lon":5.366339,"is_reserved":false,"is_disabled":false,"rental_uris":{"android":"levelo://app?vid=a0e1f1d6-3f92-4eff-927c-9ca415b7ca93","ios":"levelo://app?vid=a0e1f1d6-3f92-4eff-927c-9ca415b7ca93"},"vehicle_type_id":"4","last_reported":1700949936,"current_range_meters":4400,"station_id":"ce4bhi12rcd13ifvqfp0","pricing_plan_id":"free"},{"bike_id":"05291694-2672-4b1e-9b26-7f92e1594559","system_id":"levelo_inurba_marseille","lat":43.239588,"lon":5.366238,"is_reserved":false,"is_disabled":false,"rental_uris":{"android":"levelo://app?vid=05291694-2672-4b1e-9b26-7f92e1594559","ios":"levelo://app?vid=05291694-2672-4b1e-9b26-7f92e1594559"},"vehicle_type_id":"4","last_reported":1700949936,"current_range_meters":16000,"station_id":"ce4bhi12rcd13ifvqfp0","pricing_plan_id":"free"},{"bike_id":"a59a9f52-9d06-4b12-9392-cdd5f569c2ca","system_id":"levelo_inurba_marseille","lat":43.23962,"lon":5.36629,"is_reserved":false,"is_disabled":false,"rental_uris":{"android":"levelo://app?vid=a59a9f52-9d06-4b12-9392-cdd5f569c2ca","ios":"levelo://app?vid=a59a9f52-9d06-4b12-9392-cdd5f569c2ca"},"vehicle_type_id":"4","last_reported":1700949936,"current_range_meters":29600,"station_id":"ce4bhi12rcd13ifvqfp0","pricing_plan_id":"free"},{"bike_id":"47e43998-06a7-44f6-a336-05874a757f9d","system_id":"levelo_inurba_marseille","lat":43.239588,"lon":5.366238,"is_reserved":false,"is_disabled":false,"rental_uris":{"android":"levelo://app?vid=47e43998-06a7-44f6-a336-05874a757f9d","ios":"levelo://app?vid=47e43998-06a7-44f6-a336-05874a757f9d"},"vehicle_type_id":"4","last_reported":1700949936,"current_range_meters":14800,"station_id":"ce4bhi12rcd13ifvqfp0","pricing_plan_id":"free"},{"bike_id":"340ba89e-beb6-4edd-9f37-a6ad2b2c6a9c","system_id":"levelo_inurba_marseille","lat":43.239588,"lon":5.366238,"is_reserved":false,"is_disabled":false,"rental_uris":{"android":"levelo://app?vid=340ba89e-beb6-4edd-9f37-a6ad2b2c6a9c","ios":"levelo://app?vid=340ba89e-beb6-4edd-9f37-a6ad2b2c6a9c"},"vehicle_type_id":"4","last_reported":1700949936,"current_range_meters":13200,"station_id":"ce4bhi12rcd13ifvqfp0","pricing_plan_id":"free"},{"bike_id":"2928aec4-a092-4b20-8697-2fcf599c9821","system_id":"levelo_inurba_marseille","lat":43.239588,"lon":5.366238,"is_reserved":false,"is_disabled":false,"rental_uris":{"android":"levelo://app?vid=2928aec4-a092-4b20-8697-2fcf599c9821","ios":"levelo://app?vid=2928aec4-a092-4b20-8697-2fcf599c9821"},"vehicle_type_id":"4","last_reported":1700949936,"current_range_meters":24400,"station_id":"ce4bhi12rcd13ifvqfp0","pricing_plan_id":"free"},{"bike_id":"c8b0fc92-e06b-450c-b7d7-d6ab9ca59443","system_id":"levelo_inurba_marseille","lat":43.239602,"lon":5.366299,"is_reserved":false,"is_disabled":false,"rental_uris":{"android":"levelo://app?vid=c8b0fc92-e06b-450c-b7d7-d6ab9ca59443","ios":"levelo://app?vid=c8b0fc92-e06b-450c-b7d7-d6ab9ca59443"},"vehicle_type_id":"4","last_reported":1700949936,"current_range_meters":31200,"station_id":"ce4bhi12rcd13ifvqfp0","pricing_plan_id":"free"},{"bike_id":"fc6ccc5a-bc4d-4544-a669-27960c9fde66","system_id":"levelo_inurba_marseille","lat":43.239588,"lon":5.366238,"is_reserved":false,"is_disabled":false,"rental_uris":{"android":"levelo://app?vid=fc6ccc5a-bc4d-4544-a669-27960c9fde66","ios":"levelo://app?vid=fc6ccc5a-bc4d-4544-a669-27960c9fde66"},"vehicle_type_id":"4","last_reported":1700949936,"current_range_meters":18000,"station_id":"ce4bhi12rcd13ifvqfp0","pricing_plan_id":"free"},{"bike_id":"b3ffab4a-cf52-4b4f-9f0f-fcb873d0f038","system_id":"levelo_inurba_marseille","lat":43.239588,"lon":5.366301,"is_reserved":false,"is_disabled":false,"rental_uris":{"android":"levelo://app?vid=b3ffab4a-cf52-4b4f-9f0f-fcb873d0f038","ios":"levelo://app?vid=b3ffab4a-cf52-4b4f-9f0f-fcb873d0f038"},"vehicle_type_id":"4","last_reported":1700949936,"current_range_meters":29600,"station_id":"ce4bhi12rcd13ifvqfp0","pricing_plan_id":"free"},{"bike_id":"fb7be5a0-e980-436b-ac60-879a3e279215","system_id":"levelo_inurba_marseille","lat":43.239567,"lon":5.366323,"is_reserved":false,"is_disabled":false,"rental_uris":{"android":"levelo://app?vid=fb7be5a0-e980-436b-ac60-879a3e279215","ios":"levelo://app?vid=fb7be5a0-e980-436b-ac60-879a3e279215"},"vehicle_type_id":"4","last_reported":1700949936,"current_range_meters":22800,"station_id":"ce4bhi12rcd13ifvqfp0","pricing_plan_id":"free"},{"bike_id":"47bf6cc0-d560-42b0-9ba8-16e81a4e15b8","system_id":"levelo_inurba_marseille","lat":43.24178,"lon":5.39727,"is_reserved":false,"is_disabled":false,"rental_uris":{"android":"levelo://app?vid=47bf6cc0-d560-42b0-9ba8-16e81a4e15b8","ios":"levelo://app?vid=47bf6cc0-d560-42b0-9ba8-16e81a4e15b8"},"vehicle_type_id":"4","last_reported":1700949936,"current_range_meters":10000,"station_id":"ce4bhn12rcd13ifvqgpg","pricing_plan_id":"free"},{"bike_id":"dcc8f0d2-659c-44cb-9a1d-9d57ae623781","system_id":"levelo_inurba_marseille","lat":43.23194,"lon":5.35561,"is_reserved":false,"is_disabled":false,"rental_uris":{"android":"levelo://app?vid=dcc8f0d2-659c-44cb-9a1d-9d57ae623781","ios":"levelo://app?vid=dcc8f0d2-659c-44cb-9a1d-9d57ae623781"},"vehicle_type_id":"4","last_reported":1700949936,"current_range_meters":19200,"station_id":"ce4bhu92rcd13ifvqi70","pricing_plan_id":"free"},{"bike_id":"48217564-eee6-47a9-ae01-f8f1659e40db","system_id":"levelo_inurba_marseille","lat":43.231923,"lon":5.355545,"is_reserved":false,"is_disabled":false,"rental_uris":{"android":"levelo://app?vid=48217564-eee6-47a9-ae01-f8f1659e40db","ios":"levelo://app?vid=48217564-eee6-47a9-ae01-f8f1659e40db"},"vehicle_type_id":"4","last_reported":1700949936,"current_range_meters":31200,"station_id":"ce4bhu92rcd13ifvqi70","pricing_plan_id":"free"},{"bike_id":"76da77ba-a8a2-45d9-bea0-75d9631bba15","system_id":"levelo_inurba_marseille","lat":43.231923,"lon":5.355545,"is_reserved":false,"is_disabled":false,"rental_uris":{"android":"levelo://app?vid=76da77ba-a8a2-45d9-bea0-75d9631bba15","ios":"levelo://app?vid=76da77ba-a8a2-45d9-bea0-75d9631bba15"},