{"last_updated":1723918220,"ttl":30,"version":"2.2","data":{"bikes":[{"bike_id":"e2eec87a-43c7-4499-810f-9e905a8452f3","system_id":"levelo_inurba_marseille","lat":43.31341,"lon":5.367098,"is_reserved":false,"is_disabled":false,"rental_uris":{"android":"levelo://app?vid=e2eec87a-43c7-4499-810f-9e905a8452f3","ios":"levelo://app?vid=e2eec87a-43c7-4499-810f-9e905a8452f3"},"vehicle_type_id":"4","last_reported":1723918220,"current_range_meters":26400,"station_id":"ce4bgr92rcd13ifvqc6g","pricing_plan_id":"cebpf4jnsgd1na2vs0mg"},{"bike_id":"3508f298-169a-4e2e-979e-88cac94ecca6","system_id":"levelo_inurba_marseille","lat":43.31477,"lon":5.37304,"is_reserved":false,"is_disabled":false,"rental_uris":{"android":"levelo://app?vid=3508f298-169a-4e2e-979e-88cac94ecca6","ios":"levelo://app?vid=3508f298-169a-4e2e-979e-88cac94ecca6"},"vehicle_type_id":"4","last_reported":1723918220,"current_range_meters":1200,"station_id":"ce4bgt12rcd13ifvqcd0","pricing_plan_id":"cebpf4jnsgd1na2vs0mg"},{"bike_id":"219c2f4b-c115-4c7b-9592-afd4f5f975f5","system_id":"levelo_inurba_marseille","lat":43.31485,"lon":5.37303,"is_reserved":false,"is_disabled":false,"rental_uris":{"android":"levelo://app?vid=219c2f4b-c115-4c7b-9592-afd4f5f975f5","ios":"levelo://app?vid=219c2f4b-c115-4c7b-9592-afd4f5f975f5"},"vehicle_type_id":"4","last_reported":1723918220,"current_range_meters":31200,"station_id":"","pricing_plan_id":"cebpf4jnsgd1na2vs0mg"},{"bike_id":"f6cec1cd-ee9b-4543-8107-b0bfa4cb616d","system_id":"levelo_inurba_marseille","lat":43.3148,"lon":5.37307,"is_reserved":false,"is_disabled":false,"rental_uris":{"android":"levelo://app?vid=f6cec1cd-ee9b-4543-8107-b0bfa4cb616d","ios":"levelo://app?vid=f6cec1cd-ee9b-4543-8107-b0bfa4cb616d"},"vehicle_type_id":"4","last_reported":1723918220,"current_range_meters":3200,"station_id":"ce4bgt12rcd13ifvqcd0","pricing_plan_id":"cebpf4jnsgd1na2vs0mg"},{"bike_id":"98d29c07-33f9-45ca-9f81-1f45f56e3ea9","system_id":"levelo_inurba_marseille","lat":43.31485,"lon":5.37307,"is_reserved":false,"is_disabled":false,"rental_uris":{"android":"levelo://app?vid=98d29c07-33f9-45ca-9f81-1f45f56e3ea9","ios":"levelo://app?vid=98d29c07-33f9-45ca-9f81-1f45f56e3ea9"},"vehicle_type_id":"4","last_reported":1723918220,"current_range_meters":24800,"station_id":"ce4bgt12rcd13ifvqcd0","pricing_plan_id":"cebpf4jnsgd1na2vs0mg"},{"bike_id":"5de50078-bec3-4cb2-8c76-ca703dc434b7","system_id":"levelo_inurba_marseille","lat":43.31492,"lon":5.37307,"is_reserved":false,"is_disabled":false,"rental_uris":{"android":"levelo://app?vid=5de50078-bec3-4cb2-8c76-ca703dc434b7","ios":"levelo://app?vid=5de50078-bec3-4cb2-8c76-ca703dc434b7"},"vehicle_type_id":"4","last_reported":1723918220,"current_range_meters":30000,"station_id":"ce4bgt12rcd13ifvqcd0","pricing_plan_id":"cebpf4jnsgd1na2vs0mg"},{"bike_id":"9a8fea4e-db7a-4c51-b2db-60b4eb4162df","system_id":"levelo_inurba_marseille","lat":43.309039,"lon":5.371797,"is_reserved":false,"is_disabled":false,"rental_uris":{"android":"levelo://app?vid=9a8fea4e-db7a-4c51-b2db-60b4eb4162df","ios":"levelo://app?vid=9a8fea4e-db7a-4c51-b2db-60b4eb4162df"},"vehicle_type_id":"4","last_reported":1723918220,"current_range_meters":27200,"station_id":"ce4bguh2rcd13ifvqckg","pricing_plan_id":"cebpf4jnsgd1na2vs0mg"},{"bike_id":"d8cca32a-dbbf-4ece-86c7-15774833e029","system_id":"levelo_inurba_marseille","lat":43.31497,"lon":5.37309,"is_reserved":false,"is_disabled":false,"rental_uris":{"android":"levelo://app?vid=d8cca32a-dbbf-4ece-86c7-15774833e029","ios":"levelo://app?vid=d8cca32a-dbbf-4ece-86c7-15774833e029"},"vehicle_type_id":"4","last_reported":1723918220,"current_range_meters":0,"station_id":"ce4bgt12rcd13ifvqcd0","pricing_plan_id":"cebpf4jnsgd1na2vs0mg"},{"bike_id":"a0861fac-1749-47d2-9895-5cce304beb91","system_id":"levelo_inurba_marseille","lat":43.315,"lon":5.37308,"is_reserved":false,"is_disabled":false,"rental_uris":{"android":"levelo://app?vid=a0861fac-1749-47d2-9895-5cce304beb91","ios":"levelo://app?vid=a0861fac-1749-47d2-9895-5cce304beb91"},"vehicle_type_id":"4","last_reported":1723918220,"current_range_meters":30000,"station_id":"ce4bgt12rcd13ifvqcd0","pricing_plan_id":"cebpf4jnsgd1na2vs0mg"},{"bike_id":"f4bb82aa-3d7e-4385-85c7-5b03e7cceb50","system_id":"levelo_inurba_marseille","lat":43.31454,"lon":5.37376,"is_reserved":false,"is_disabled":false,"rental_uris":{"android":"levelo://app?vid=f4bb82aa-3d7e-4385-85c7-5b03e7cceb50","ios":"levelo://app?vid=f4bb82aa-3d7e-4385-85c7-5b03e7cceb50"},"vehicle_type_id":"4","last_reported":1723918220,"current_range_meters":5200,"station_id":"","pricing_plan_id":"cebpf4jnsgd1na2vs0mg"},{"bike_id":"9f8a5ffc-c3c9-4fcc-8b36-b451d74cb27b","system_id":"levelo_inurba_marseille","lat":43.310725,"lon":5.376572,"is_reserved":false,"is_disabled":false,"rental_uris":{"android":"levelo://app?vid=9f8a5ffc-c3c9-4fcc-8b36-b451d74cb27b","ios":"levelo://app?vid=9f8a5ffc-c3c9-4fcc-8b36-b451d74cb27b"},"vehicle_type_id":"4","last_reported":1723918220,"current_range_meters":12000,"station_id":"","pricing_plan_id":"cebpf4jnsgd1na2vs0mg"},{"bike_id":"c28826a1-9429-40d8-ac6f-9d35ca9826a0","system_id":"levelo_inurba_marseille","lat":43.305714,"lon":5.365633,"is_reserved":false,"is_disabled":false,"rental_uris":{"android":"levelo://app?vid=c28826a1-9429-40d8-ac6f-9d35ca9826a0","ios":"levelo://app?vid=c28826a1-9429-40d8-ac6f-9d35ca9826a0"},"vehicle_type_id":"4","last_reported":1723918220,"current_range_meters":0,"station_id":"ce4bgs12rcd13ifvqcag","pricing_plan_id":"cebpf4jnsgd1na2vs0mg"},{"bike_id":"80790e04-c6d5-44ed-9b22-66b15d3944bc","system_id":"levelo_inurba_marseille","lat":43.305989,"lon":5.37225,"is_reserved":false,"is_disabled":false,"rental_uris":{"android":"levelo://app?vid=80790e04-c6d5-44ed-9b22-66b15d3944bc","ios":"levelo://app?vid=80790e04-c6d5-44ed-9b22-66b15d3944bc"},"vehicle_type_id":"4","last_reported":1723918220,"current_range_meters":14400,"station_id":"ce4bgqh2rcd13ifvqc4g","pricing_plan_id":"cebpf4jnsgd1na2vs0mg"},{"bike_id":"a01999b1-3135-45c7-a302-992527b669c4","system_id":"levelo_inurba_marseille","lat":43.312767,"lon":5.377793,"is_reserved":false,"is_disabled":false,"rental_uris":{"android":"levelo://app?vid=a01999b1-3135-45c7-a302-992527b669c4","ios":"levelo://app?vid=a01999b1-3135-45c7-a302-992527b669c4"},"vehicle_type_id":"4","last_reported":1723918220,"current_range_meters":5600,"station_id":"","pricing_plan_id":"cebpf4jnsgd1na2vs0mg"},{"bike_id":"7796207a-cca5-48cd-a53d-03f8e3f927cb","system_id":"levelo_inurba_marseille","lat":43.311131,"lon":5.377651,"is_reserved":false,"is_disabled":false,"rental_uris":{"android":"levelo://app?vid=7796207a-cca5-48cd-a53d-03f8e3f927cb","ios":"levelo://app?vid=7796207a-cca5-48cd-a53d-03f8e3f927cb"},"vehicle_type_id":"4","last_reported":1723918220,"current_range_meters":4800,"station_id":"ce4bgt92rcd13ifvqcg0","pricing_plan_id":"cebpf4jnsgd1na2vs0mg"},{"bike_id":"3dbfcb07-5e6d-45b4-b5dd-f8e1f70ffac5","system_id":"levelo_inurba_marseille","lat":43.311131,"lon":5.377651,"is_reserved":false,"is_disabled":false,"rental_uris":{"android":"levelo://app?vid=3dbfcb07-5e6d-45b4-b5dd-f8e1f70ffac5","ios":"levelo://app?vid=3dbfcb07-5e6d-45b4-b5dd-f8e1f70ffac5"},"vehicle_type_id":"4","last_reported":1723918220,"current_range_meters":23600,"station_id":"ce4bgt92rcd13ifvqcg0","pricing_plan_id":"cebpf4jnsgd1na2vs0mg"},{"bike_id":"395a7e44-095e-419c-8cd1-26e635e1c5de","system_id":"levelo_inurba_marseille","lat":43.311125,"lon":5.377624,"is_reserved":false,"is_disabled":false,"rental_uris":{"android":"levelo://app?vid=395a7e44-095e-419c-8cd1-26e635e1c5de","ios":"levelo://app?vid=395a7e44-095e-419c-8cd1-26e635e1c5de"},"vehicle_type_id":"4","last_reported":1723918220,"current_range_meters":18400,"station_id":"ce4bgt92rcd13ifvqcg0","pricing_plan_id":"cebpf4jnsgd1na2vs0mg"},{"bike_id":"ed6625e9-892d-4e79-838b-7b246c962c62","system_id":"levelo_inurba_marseille","lat":43.311125,"lon":5.377624,"is_reserved":false,"is_disabled":false,"rental_uris":{"android":"levelo://app?vid=ed6625e9-892d-4e79-838b-7b246c962c62","ios":"levelo://app?vid=ed6625e9-892d-4e79-838b-7b246c962c62"},"vehicle_type_id":"4","last_reported":1723918220,"current_range_meters":9200,"station_id":"ce4bgt92rcd13ifvqcg0","pricing_plan_id":"cebpf4jnsgd1na2vs0mg"},{"bike_id":"e3808474-4fb1-4064-adb0-f4b9a2796923","system_id":"levelo_inurba_marseille","lat":43.307945,"lon":5.376487,"is_reserved":false,"is_disabled":false,"rental_uris":{"android":"levelo://app?vid=e3808474-4fb1-4064-adb0-f4b9a2796923","ios":"levelo://app?vid=e3808474-4fb1-4064-adb0-f4b9a2796923"},"vehicle_type_id":"4","last_reported":1723918220,"current_range_meters":27600,"station_id":"ce4bgv92rcd13ifvqcq0","pricing_plan_id":"cebpf4jnsgd1na2vs0mg"},{"bike_id":"00fa8151-9c7c-4fdb-8970-fea4a8684cae","system_id":"levelo_inurba_marseille","lat":43.317075,"lon":5.377367,"is_reserved":false,"is_disabled":false,"rental_uris":{"android":"levelo://app?vid=00fa8151-9c7c-4fdb-8970-fea4a8684cae","ios":"levelo://app?vid=00fa8151-9c7c-4fdb-8970-fea4a8684cae"},"vehicle_type_id":"4","last_reported":1723918220,"current_range_meters":4400,"station_id":"ce4bgth2rcd13ifvqch0","pricing_plan_id":"cebpf4jnsgd1na2vs0mg"},{"bike_id":"51bfa639-88c8-40eb-b68d-4db5a7c57275","system_id":"levelo_inurba_marseille","lat":43.317075,"lon":5.377367,"is_reserved":false,"is_disabled":false,"rental_uris":{"android":"levelo://app?vid=51bfa639-88c8-40eb-b68d-4db5a7c57275","ios":"levelo://app?vid=51bfa639-88c8-40eb-b68d-4db5a7c57275"},"vehicle_type_id":"4","last_reported":1723918220,"current_range_meters":13200,"station_id":"ce4bgth2rcd13ifvqch0","pricing_plan_id":"cebpf4jnsgd1na2vs0mg"},{"bike_id":"6f3b0fff-03c6-4bf2-bf94-008f2d7ba3a4","system_id":"levelo_inurba_marseille","lat":43.3137,"lon":5.3792,"is_reserved":false,"is_disabled":false,"rental_uris":{"android":"levelo://app?vid=6f3b0fff-03c6-4bf2-bf94-008f2d7ba3a4","ios":"levelo://app?vid=6f3b0fff-03c6-4bf2-bf94-008f2d7ba3a4"},"vehicle_type_id":"4","last_reported":1723918220,"current_range_meters":2000,"station_id":"","pricing_plan_id":"cebpf4jnsgd1na2vs0mg"},{"bike_id":"23a6cdce-3c7d-43a8-ac1e-098be032e3a1","system_id":"levelo_inurba_marseille","lat":43.303046,"lon":5.368981,"is_reserved":false,"is_disabled":false,"rental_uris":{"android":"levelo://app?vid=23a6cdce-3c7d-43a8-ac1e-098be032e3a1","ios":"levelo://app?vid=23a6cdce-3c7d-43a8-ac1e-098be032e3a1"},"vehicle_type_id":"4","last_reported":1723918220,"current_range_meters":8000,"station_id":"ce4bgqh2rcd13ifvqc5g","pricing_plan_id":"cebpf4jnsgd1na2vs0mg"},{"bike_id":"2f07d4c8-d6d5-4b5e-a32e-a74bf194352c","system_id":"levelo_inurba_marseille","lat":43.315289,"lon":5.380349,"is_reserved":false,"is_disabled":false,"rental_uris":{"android":"levelo://app?vid=2f07d4c8-d6d5-4b5e-a32e-a74bf194352c","ios":"levelo://app?vid=2f07d4c8-d6d5-4b5e-a32e-a74bf194352c"},"vehicle_type_id":"4","last_reported":1723918220,"current_range_meters":16800,"station_id":"ce4bhsp2rcd13ifvqi50","pricing_plan_id":"cebpf4jnsgd1na2vs0mg"},{"bike_id":"46b94668-613d-44a5-a4e1-85c25b1b928c","system_id":"levelo_inurba_marseille","lat":43.315289,"lon":5.380349,"is_reserved":false,"is_disabled":false,"rental_uris":{"android":"levelo://app?vid=46b94668-613d-44a5-a4e1-85c25b1b928c","ios":"levelo://app?vid=46b94668-613d-44a5-a4e1-85c25b1b928c"},"vehicle_type_id":"4","last_reported":1723918220,"current_range_meters":25200,"station_id":"ce4bhsp2rcd13ifvqi50","pricing_plan_id":"cebpf4jnsgd1na2vs0mg"},{"bike_id":"3ecaacc4-a174-454a-87ee-66ae2927f762","system_id":"levelo_inurba_marseille","lat":43.31405,"lon":5.38075,"is_reserved":false,"is_disabled":false,"rental_uris":{"android":"levelo://app?vid=3ecaacc4-a174-454a-87ee-66ae2927f762","ios":"levelo://app?vid=3ecaacc4-a174-454a-87ee-66ae2927f762"},"vehicle_type_id":"4","last_reported":1723918220,"current_range_meters":800,"station_id":"","pricing_plan_id":"cebpf4jnsgd1na2vs0mg"},{"bike_id":"6525aa52-816a-4c8e-ad78-f32505ccdfba","system_id":"levelo_inurba_marseille","lat":43.3103,"lon":5.38061,"is_reserved":false,"is_disabled":false,"rental_uris":{"android":"levelo://app?vid=6525aa52-816a-4c8e-ad78-f32505ccdfba","ios":"levelo://app?vid=6525aa52-816a-4c8e-ad78-f32505ccdfba"},"vehicle_type_id":"4","last_reported":1723918220,"current_range_meters":4400,"station_id":"","pricing_plan_id":"cebpf4jnsgd1na2vs0mg"},{"bike_id":"c867e4fa-ca77-4754-ac6b-ee5239945874","system_id":"levelo_inurba_marseille","lat":43.30861,"lon":5.38082,"is_reserved":false,"is_disabled":false,"rental_uris":{"android":"levelo://app?vid=c867e4fa-ca77-4754-ac6b-ee5239945874","ios":"levelo://app?vid=c867e4fa-ca77-4754-ac6b-ee5239945874"},"vehicle_type_id":"4","last_reported":1723918220,"current_range_meters":13200,"station_id":"","pricing_plan_id":"cebpf4jnsgd1na2vs0mg"},{"bike_id":"a7b0c093-0994-44c7-a44f-28c872cba881","system_id":"levelo_inurba_marseille","lat":43.308012,"lon":5.381511,"is_reserved":false,"is_disabled":false,"rental_uris":{"android":"levelo://app?vid=a7b0c093-0994-44c7-a44f-28c872cba881","ios":"levelo://app?vid=a7b0c093-0994-44c7-a44f-28c872cba881"},"vehicle_type_id":"4","last_reported":1723918220,"current_range_meters":17600,"station_id":"ce4bgt12rcd13ifvqce0","pricing_plan_id":"cebpf4jnsgd1na2vs0mg"},{"bike_id":"fdcb2314-c3ea-4c21-bb54-56e4a390394c","system_id":"levelo_inurba_marseille","lat":43.30472,"lon":5.37904,"is_reserved":false,"is_disabled":false,"rental_uris":{"android":"levelo://app?vid=fdcb2314-c3ea-4c21-bb54-56e4a390394c","ios":"levelo://app?vid=fdcb2314-c3ea-4c21-bb54-56e4a390394c"},"vehicle_type_id":"4","last_reported":1723918220,"current_range_meters":0,"station_id":"ce4bgup2rcd13ifvqcn0","pricing_plan_id":"cebpf4jnsgd1na2vs0mg"},{"bike_id":"0973b176-c67a-40f3-91e9-442b92f85c14","system_id":"levelo_inurba_marseille","lat":43.304606,"lon":5.379026,"is_reserved":false,"is_disabled":false,"rental_uris":{"android":"levelo://app?vid=0973b176-c67a-40f3-91e9-442b92f85c14","ios":"levelo://app?vid=0973b176-c67a-40f3-91e9-442b92f85c14"},"vehicle_type_id":"4","last_reported":1723918220,"current_range_meters":23200,"station_id":"ce4bgup2rcd13ifvqcn0","pricing_plan_id":"cebpf4jnsgd1na2vs0mg"},{"bike_id":"99f37e66-1539-4fe9-91a3-abe1143db354","system_id":"levelo_inurba_marseille","lat":43.304606,"lon":5.379026,"is_reserved":false,"is_disabled":false,"rental_uris":{"android":"levelo://app?vid=99f37e66-1539-4fe9-91a3-abe1143db354","ios":"levelo://app?vid=99f37e66-1539-4fe9-91a3-abe1143db354"},"vehicle_type_id":"4","last_reported":1723918220,"current_range_meters":2400,"station_id":"ce4bgup2rcd13ifvqcn0","pricing_plan_id":"cebpf4jnsgd1na2vs0mg"},{"bike_id":"44bff4ec-cbf5-47e6-9391-9c0369906d67","system_id":"levelo_inurba_marseille","lat":43.324771,"lon":5.36557,"is_reserved":false,"is_disabled":false,"rental_uris":{"android":"levelo://app?vid=44bff4ec-cbf5-47e6-9391-9c0369906d67","ios":"levelo://app?vid=44bff4ec-cbf5-47e6-9391-9c0369906d67"},"vehicle_type_id":"4","last_reported":1723918220,"current_range_meters":10000,"station_id":"ce4bhs12rcd13ifvqhvg","pricing_plan_id":"cebpf4jnsgd1na2vs0mg"},{"bike_id":"92dda2c0-6cdc-4866-97d9-e56c66a9b54c","system_id":"levelo_inurba_marseille","lat":43.324771,"lon":5.36557,"is_reserved":false,"is_disabled":false,"rental_uris":{"android":"levelo://app?vid=92dda2c0-6cdc-4866-97d9-e56c66a9b54c","ios":"levelo://app?vid=92dda2c0-6cdc-4866-97d9-e56c66a9b54c"},"vehicle_type_id":"4","last_reported":1723918220,"current_range_meters":30000,"station_id":"ce4bhs12rcd13ifvqhvg","pricing_plan_id":"cebpf4jnsgd1na2vs0mg"},{"bike_id":"f13913d4-2bb9-46fd-83b1-fab02a814654","system_id":"levelo_inurba_marseille","lat":43.324771,"lon":5.36557,"is_reserved":false,"is_disabled":false,"rental_uris":{"android":"levelo://app?vid=f13913d4-2bb9-46fd-83b1-fab02a814654","ios":"levelo://app?vid=f13913d4-2bb9-46fd-83b1-fab02a814654"},"vehicle_type_id":"4","last_reported":1723918220,"current_range_meters":0,"station_id":"ce4bhs12rcd13ifvqhvg","pricing_plan_id":"cebpf4jnsgd1na2vs0mg"},{"bike_id":"2cc6356a-ab01-451c-aadd-5de1b980f636","system_id":"levelo_inurba_marseille","lat":43.324771,"lon":5.36557,"is_reserved":false,"is_disabled":false,"rental_uris":{"android":"levelo://app?vid=2cc6356a-ab01-451c-aadd-5de1b980f636","ios":"levelo://app?vid=2cc6356a-ab01-451c-aadd-5de1b980f636"},"vehicle_type_id":"4","last_reported":1723918220,"current_range_meters":17200,"station_id":"ce4bhs12rcd13ifvqhvg","pricing_plan_id":"cebpf4jnsgd1na2vs0mg"},{"bike_id":"756aeab3-2325-4807-b1aa-6fbe6e32b280","system_id":"levelo_inurba_marseille","lat":43.324771,"lon":5.36557,"is_reserved":false,"is_disabled":false,"rental_uris":{"android":"levelo://app?vid=756aeab3-2325-4807-b1aa-6fbe6e32b280","ios":"levelo://app?vid=756aeab3-2325-4807-b1aa-6fbe6e32b280"},"vehicle_type_id":"4","last_reported":1723918220,"current_range_meters":30000,"station_id":"ce4bhs12rcd13ifvqhvg","pricing_plan_id":"cebpf4jnsgd1na2vs0mg"},{"bike_id":"2f421c3c-934f-4b51-877f-223f6503c21a","system_id":"levelo_inurba_marseille","lat":43.310804,"lon":5.38359,"is_reserved":false,"is_disabled":false,"rental_uris":{"android":"levelo://app?vid=2f421c3c-934f-4b51-877f-223f6503c21a","ios":"levelo://app?vid=2f421c3c-934f-4b51-877f-223f6503c21a"},"vehicle_type_id":"4","last_reported":1723918220,"current_range_meters":5200,"station_id":"ce4bgv92rcd13ifvqcr0","pricing_plan_id":"cebpf4jnsgd1na2vs0mg"},{"bike_id":"3002f280-7517-4418-82ef-061406a0cac0","system_id":"levelo_inurba_marseille","lat":43.324903,"lon":5.368718,"is_reserved":false,"is_disabled":false,"rental_uris":{"android":"levelo://app?vid=3002f280-7517-4418-82ef-061406a0cac0","ios":"levelo://app?vid=3002f280-7517-4418-82ef-061406a0cac0"},"vehicle_type_id":"4","last_reported":1723918220,"current_range_meters":3200,"station_id":"","pricing_plan_id":"cebpf4jnsgd1na2vs0mg"},{"bike_id":"8b1521d7-a6f3-4763-82e7-428290437c14","system_id":"levelo_inurba_marseille","lat":43.310804,"lon":5.38359,"is_reserved":false,"is_disabled":false,"rental_uris":{"android":"levelo://app?vid=8b1521d7-a6f3-4763-82e7-428290437c14","ios":"levelo://app?vid=8b1521d7-a6f3-4763-82e7-428290437c14"},"vehicle_type_id":"4","last_reported":1723918220,"current_range_meters":4800,"station_id":"ce4bgv92rcd13ifvqcr0","pricing_plan_id":"cebpf4jnsgd1na2vs0mg"},{"bike_id":"b7f4ce94-a934-4ca0-bf1e-503a7f9e7213","system_id":"levelo_inurba_marseille","lat":43.302784,"lon":5.377158,"is_reserved":false,"is_disabled":false,"rental_uris":{"android":"levelo://app?vid=b7f4ce94-a934-4ca0-bf1e-503a7f9e7213","ios":"levelo://app?vid=b7f4ce94-a934-4ca0-bf1e-503a7f9e7213"},"vehicle_type_id":"4","last_reported":1723918220,"current_range_meters":5600,"station_id":"ce4bguh2rcd13ifvqcj0","pricing_plan_id":"cebpf4jnsgd1na2vs0mg"},{"bike_id":"25e30fe9-d6ca-432c-93cc-56ce51ebaca3","system_id":"levelo_inurba_marseille","lat":43.30143,"lon":5.37413,"is_reserved":false,"is_disabled":false,"rental_uris":{"android":"levelo://app?vid=25e30fe9-d6ca-432c-93cc-56ce51ebaca3","ios":"levelo://app?vid=25e30fe9-d6ca-432c-93cc-56ce51ebaca3"},"vehicle_type_id":"4","last_reported":1723918220,"current_range_meters":10000,"station_id":"ce4bgs92rcd13ifvqcc0","pricing_plan_id":"cebpf4jnsgd1na2vs0mg"},{"bike_id":"f9cbd651-49cb-48f7-88ef-44ce865af34c","system_id":"levelo_inurba_marseille","lat":43.30143,"lon":5.37413,"is_reserved":false,"is_disabled":false,"rental_uris":{"android":"levelo://app?vid=f9cbd651-49cb-48f7-88ef-44ce865af34c","ios":"levelo://app?vid=f9cbd651-49cb-48f7-88ef-44ce865af34c"},"vehicle_type_id":"4","last_reported":1723918220,"current_range_meters":23200,"station_id":"ce4bgs92rcd13ifvqcc0","pricing_plan_id":"cebpf4jnsgd1na2vs0mg"},{"bike_id":"9675a955-6e4c-4295-a73d-72a05801e536","system_id":"levelo_inurba_marseille","lat":43.319935,"lon":5.381699,"is_reserved":false,"is_disabled":false,"rental_uris":{"android":"levelo://app?vid=9675a955-6e4c-4295-a73d-72a05801e536","ios":"levelo://app?vid=9675a955-6e4c-4295-a73d-72a05801e536"},"vehicle_type_id":"4","last_reported":1723918220,"current_range_meters":28400,"station_id":"ce4bhr12rcd13ifvqhpg","pricing_plan_id":"cebpf4jnsgd1na2vs0mg"},{"bike_id":"5bc3daf8-8ef2-4cee-a994-533da03a1c26","system_id":"levelo_inurba_marseille","lat":43.313571,"lon":5.384829,"is_reserved":false,"is_disabled":false,"rental_uris":{"android":"levelo://app?vid=5bc3daf8-8ef2-4cee-a994-533da03a1c26","ios":"levelo://app?vid=5bc3daf8-8ef2-4cee-a994-533da03a1c26"},"vehicle_type_id":"4","last_reported":1723918220,"current_range_meters":10400,"station_id":"ce4bgt92rcd13ifvqcf0","pricing_plan_id":"cebpf4jnsgd1na2vs0mg"},{"bike_id":"12f24074-b3ed-4294-9712-3012f3f35e88","system_id":"levelo_inurba_marseille","lat":43.30579,"lon":5.38215,"is_reserved":false,"is_disabled":false,"rental_uris":{"android":"levelo://app?vid=12f24074-b3ed-4294-9712-3012f3f35e88","ios":"levelo://app?vid=12f24074-b3ed-4294-9712-3012f3f35e88"},"vehicle_type_id":"4","last_reported":1723918220,"current_range_meters":18000,"station_id":"","pricing_plan_id":"cebpf4jnsgd1na2vs0mg"},{"bike_id":"6a92b625-950e-4937-b54e-dafd82974b9d","system_id":"levelo_inurba_marseille","lat":43.313571,"lon":5.384829,"is_reserved":false,"is_disabled":false,"rental_uris":{"android":"levelo://app?vid=6a92b625-950e-4937-b54e-dafd82974b9d","ios":"levelo://app?vid=6a92b625-950e-4937-b54e-dafd82974b9d"},"vehicle_type_id":"4","last_reported":1723918220,"current_range_meters":1200,"station_id":"ce4bgt92rcd13ifvqcf0","pricing_plan_id":"cebpf4jnsgd1na2vs0mg"},{"bike_id":"7f4a2e27-440c-4296-aaa7-8e1bc26820f0","system_id":"levelo_inurba_marseille","lat":43.313571,"lon":5.384829,"is_reserved":false,"is_disabled":false,"rental_uris":{"android":"levelo://app?vid=7f4a2e27-440c-4296-aaa7-8e1bc26820f0","ios":"levelo://app?vid=7f4a2e27-440c-4296-aaa7-8e1bc26820f0"},"vehicle_type_id":"4","last_reported":1723918220,"current_range_meters":12400,"station_id":"ce4bgt92rcd13ifvqcf0","pricing_plan_id":"cebpf4jnsgd1na2vs0mg"},{"bike_id":"632fbe27-7603-48d8-b0a4-ee2724b95bc9","system_id":"levelo_inurba_marseille","lat":43.313571,"lon":5.384829,"is_reserved":false,"is_disabled":false,"rental_uris":{"android":"levelo://app?vid=632fbe27-7603-48d8-b0a4-ee2724b95bc9","ios":"levelo://app?vid=632fbe27-7603-48d8-b0a4-ee2724b95bc9"},"vehicle_type_id":"4","last_reported":1723918220,"current_range_meters":5600,"station_id":"ce4bgt92rcd13ifvqcf0","pricing_plan_id":"cebpf4jnsgd1na2vs0mg"},{"bike_id":"94f4ec32-6fef-45b6-9c4b-77aa52b196f2","system_id":"levelo_inurba_marseille","lat":43.299222,"lon":5.365554,"is_reserved":false,"is_disabled":false,"rental_uris":{"android":"levelo://app?vid=94f4ec32-6fef-45b6-9c4b-77aa52b196f2","ios":"levelo://app?vid=94f4ec32-6fef-45b6-9c4b-77aa52b196f2"},"vehicle_type_id":"4","last_reported":1723918220,"current_range_meters":14400,"station_id":"ce4bgm92rcd13ifvqbr0","pricing_plan_id":"cebpf4jnsgd1na2vs0mg"},{"bike_id":"ea2cc35b-34f8-4384-b3cf-91d4b82086ce","system_id":"levelo_inurba_marseille","lat":43.298433,"lon":5.362774,"is_reserved":false,"is_disabled":false,"rental_uris":{"android":"levelo://app?vid=ea2cc35b-34f8-4384-b3cf-91d4b82086ce","ios":"levelo://app?vid=ea2cc35b-34f8-4384-b3cf-91d4b82086ce"},"vehicle_type_id":"4","last_reported":1723918220,"current_range_meters":26000,"station_id":"ce4bgpp2rcd13ifvqc3g","pricing_plan_id":"cebpf4jnsgd1na2vs0mg"},{"bike_id":"9dd149e6-a1b8-4330-916b-33cb094f131e","system_id":"levelo_inurba_marseille","lat":43.298433,"lon":5.362774,"is_reserved":false,"is_disabled":false,"rental_uris":{"android":"levelo://app?vid=9dd149e6-a1b8-4330-916b-33cb094f131e","ios":"levelo://app?vid=9dd149e6-a1b8-4330-916b-33cb094f131e"},"vehicle_type_id":"4","last_reported":1723918220,"current_range_meters":21600,"station_id":"ce4bgpp2rcd13ifvqc3g","pricing_plan_id":"cebpf4jnsgd1na2vs0mg"},{"bike_id":"08027899-92aa-414d-99d1-25ff837d8925","system_id":"levelo_inurba_marseille","lat":43.298433,"lon":5.362774,"is_reserved":false,"is_disabled":false,"rental_uris":{"android":"levelo://app?vid=08027899-92aa-414d-99d1-25ff837d8925","ios":"levelo://app?vid=08027899-92aa-414d-99d1-25ff837d8925"},"vehicle_type_id":"4","last_reported":1723918220,"current_range_meters":27200,"station_id":"ce4bgpp2rcd13ifvqc3g","pricing_plan_id":"cebpf4jnsgd1na2vs0mg"},{"bike_id":"e27f9c7f-060a-4446-847d-80377d9c6fb1","system_id":"levelo_inurba_marseille","lat":43.305364,"lon":5.384119,"is_reserved":false,"is_disabled":false,"rental_uris":{"android":"levelo://app?vid=e27f9c7f-060a-4446-847d-80377d9c6fb1","ios":"levelo://app?vid=e27f9c7f-060a-4446-847d-80377d9c6fb1"},"vehicle_type_id":"4","last_reported":1723918220,"current_range_meters":8800,"station_id":"ce4bgg92rcd13ifvqb30","pricing_plan_id":"cebpf4jnsgd1na2vs0mg"},{"bike_id":"136ddb7c-9a07-4824-a45c-71b1201bcf38","system_id":"levelo_inurba_marseille","lat":43.298322,"lon":5.362658,"is_reserved":false,"is_disabled":false,"rental_uris":{"android":"levelo://app?vid=136ddb7c-9a07-4824-a45c-71b1201bcf38","ios":"levelo://app?vid=136ddb7c-9a07-4824-a45c-71b1201bcf38"},"vehicle_type_id":"4","last_reported":1723918220,"current_range_meters":0,"station_id":"ce4bgi92rcd13ifvqb90","pricing_plan_id":"cebpf4jnsgd1na2vs0mg"},{"bike_id":"a37abd65-533e-4e1c-a020-bf2bd1f90cf4","system_id":"levelo_inurba_marseille","lat":43.311722,"lon":5.387247,"is_reserved":false,"is_disabled":false,"rental_uris":{"android":"levelo://app?vid=a37abd65-533e-4e1c-a020-bf2bd1f90cf4","ios":"levelo://app?vid=a37abd65-533e-4e1c-a020-bf2bd1f90cf4"},"vehicle_type_id":"4","last_reported":1723918220,"current_range_meters":8000,"station_id":"ce4bgv12rcd13ifvqcp0","pricing_plan_id":"cebpf4jnsgd1na2vs0mg"},{"bike_id":"42e646d6-4c66-4a40-8237-2eb6092e290a","system_id":"levelo_inurba_marseille","lat":43.311722,"lon":5.387247,"is_reserved":false,"is_disabled":false,"rental_uris":{"android":"levelo://app?vid=42e646d6-4c66-4a40-8237-2eb6092e290a","ios":"levelo://app?vid=42e646d6-4c66-4a40-8237-2eb6092e290a"},"vehicle_type_id":"4","last_reported":1723918220,"current_range_meters":6800,"station_id":"ce4bgv12rcd13ifvqcp0","pricing_plan_id":"cebpf4jnsgd1na2vs0mg"},{"bike_id":"593634f1-f03f-4912-89a3-caeb4d9435d6","system_id":"levelo_inurba_marseille","lat":43.299243,"lon":5.37481,"is_reserved":false,"is_disabled":false,"rental_uris":{"android":"levelo://app?vid=593634f1-f03f-4912-89a3-caeb4d9435d6","ios":"levelo://app?vid=593634f1-f03f-4912-89a3-caeb4d9435d6"},"vehicle_type_id":"4","last_reported":1723918220,"current_range_meters":22800,"station_id":"ce4bgjh2rcd13ifvqbg0","pricing_plan_id":"cebpf4jnsgd1na2vs0mg"},{"bike_id":"020c4908-c6f7-45dc-804e-2ab9cd6f2082","system_id":"levelo_inurba_marseille","lat":43.299243,"lon":5.374807,"is_reserved":false,"is_disabled":false,"rental_uris":{"android":"levelo://app?vid=020c4908-c6f7-45dc-804e-2ab9cd6f2082","ios":"levelo://app?vid=020c4908-c6f7-45dc-804e-2ab9cd6f2082"},"vehicle_type_id":"4","last_reported":1723918220,"current_range_meters":12400,"station_id":"ce4bgjh2rcd13ifvqbg0","pricing_plan_id":"cebpf4jnsgd1na2vs0mg"},{"bike_id":"5ee1a7e0-df19-4cc1-ae22-abc01f465827","system_id":"levelo_inurba_marseille","lat":43.301417,"lon":5.3809,"is_reserved":false,"is_disabled":false,"rental_uris":{"android":"levelo://app?vid=5ee1a7e0-df19-4cc1-ae22-abc01f465827","ios":"levelo://app?vid=5ee1a7e0-df19-4cc1-ae22-abc01f465827"},"vehicle_type_id":"4","last_reported":1723918220,"current_range_meters":0,"station_id":"ce4bgjp2rcd13ifvqbh0","pricing_plan_id":"cebpf4jnsgd1na2vs0mg"},{"bike_id":"22c11111-d277-4824-b088-bea56e25e453","system_id":"levelo_inurba_marseille","lat":43.30151,"lon":5.38077,"is_reserved":false,"is_disabled":false,"rental_uris":{"android":"levelo://app?vid=22c11111-d277-4824-b088-bea56e25e453","ios":"levelo://app?vid=22c11111-d277-4824-b088-bea56e25e453"},"vehicle_type_id":"4","last_reported":1723918220,"current_range_meters":0,"station_id":"ce4bgjp2rcd13ifvqbh0","pricing_plan_id":"cebpf4jnsgd1na2vs0mg"},{"bike_id":"4b7054a4-91be-4bc0-ae99-6f8b65a0f22b","system_id":"levelo_inurba_marseille","lat":43.301417,"lon":5.3809,"is_reserved":false,"is_disabled":false,"rental_uris":{"android":"levelo://app?vid=4b7054a4-91be-4bc0-ae99-6f8b65a0f22b","ios":"levelo://app?vid=4b7054a4-91be-4bc0-ae99-6f8b65a0f22b"},"vehicle_type_id":"4","last_reported":1723918220,"current_range_meters":0,"station_id":"ce4bgjp2rcd13ifvqbh0","pricing_plan_id":"cebpf4jnsgd1na2vs0mg"},{"bike_id":"af6edc6a-03c1-4096-b8b0-80be441139a2","system_id":"levelo_inurba_marseille","lat":43.322656,"lon":5.382761,"is_reserved":false,"is_disabled":false,"rental_uris":{"android":"levelo://app?vid=af6edc6a-03c1-4096-b8b0-80be441139a2","ios":"levelo://app?vid=af6edc6a-03c1-4096-b8b0-80be441139a2"},"vehicle_type_id":"4","last_reported":1723918220,"current_range_meters":5600,"station_id":"ce4bhr12rcd13ifvqhqg","pricing_plan_id":"cebpf4jnsgd1na2vs0mg"},{"bike_id":"e0351634-cfd3-4ede-b9c6-58441e4dbee4","system_id":"levelo_inurba_marseille","lat":43.298593,"lon":5.374693,"is_reserved":false,"is_disabled":false,"rental_uris":{"android":"levelo://app?vid=e0351634-cfd3-4ede-b9c6-58441e4dbee4","ios":"levelo://app?vid=e0351634-cfd3-4ede-b9c6-58441e4dbee4"},"vehicle_type_id":"4","last_reported":1723918220,"current_range_meters":17200,"station_id":"","pricing_plan_id":"cebpf4jnsgd1na2vs0mg"},{"bike_id":"69295cb7-40d1-43e0-af67-2dc6c3828b30","system_id":"levelo_inurba_marseille","lat":43.322872,"lon":5.382756,"is_reserved":false,"is_disabled":false,"rental_uris":{"android":"levelo://app?vid=69295cb7-40d1-43e0-af67-2dc6c3828b30","ios":"levelo://app?vid=69295cb7-40d1-43e0-af67-2dc6c3828b30"},"vehicle_type_id":"4","last_reported":1723918220,"current_range_meters":13200,"station_id":"ce4bhr12rcd13ifvqhqg","pricing_plan_id":"cebpf4jnsgd1na2vs0mg"},{"bike_id":"82aa0add-aabc-4f54-9b07-5f51e8c0b5e0","system_id":"levelo_inurba_marseille","lat":43.32289,"lon":5.38267,"is_reserved":false,"is_disabled":false,"rental_uris":{"android":"levelo://app?vid=82aa0add-aabc-4f54-9b07-5f51e8c0b5e0","ios":"levelo://app?vid=82aa0add-aabc-4f54-9b07-5f51e8c0b5e0"},"vehicle_type_id":"4","last_reported":1723918220,"current_range_meters":6800,"station_id":"ce4bhr12rcd13ifvqhqg","pricing_plan_id":"cebpf4jnsgd1na2vs0mg"},{"bike_id":"912c3802-ff8c-462a-9082-27bf9d58f56c","system_id":"levelo_inurba_marseille","lat":43.322872,"lon":5.382756,"is_reserved":false,"is_disabled":false,"rental_uris":{"android":"levelo://app?vid=912c3802-ff8c-462a-9082-27bf9d58f56c","ios":"levelo://app?vid=912c3802-ff8c-462a-9082-27bf9d58f56c"},"vehicle_type_id":"4","last_reported":1723918220,"current_range_meters":27600,"station_id":"ce4bhr12rcd13ifvqhqg","pricing_plan_id":"cebpf4jnsgd1na2vs0mg"},{"bike_id":"52a23d7e-e6ca-4a93-a699-5a36a93c73bd","system_id":"levelo_inurba_marseille","lat":43.322872,"lon":5.382756,"is_reserved":false,"is_disabled":false,"rental_uris":{"android":"levelo://app?vid=52a23d7e-e6ca-4a93-a699-5a36a93c73bd","ios":"levelo://app?vid=52a23d7e-e6ca-4a93-a699-5a36a93c73bd"},"vehicle_type_id":"4","last_reported":1723918220,"current_range_meters":26800,"station_id":"ce4bhr12rcd13ifvqhqg","pricing_plan_id":"cebpf4jnsgd1na2vs0mg"},{"bike_id":"1b90cf06-f2ae-423e-b7fc-3ffc5738d256","system_id":"levelo_inurba_marseille","lat":43.3229,"lon":5.38276,"is_reserved":false,"is_disabled":false,"rental_uris":{"android":"levelo://app?vid=1b90cf06-f2ae-423e-b7fc-3ffc5738d256","ios":"levelo://app?vid=1b90cf06-f2ae-423e-b7fc-3ffc5738d256"},"vehicle_type_id":"4","last_reported":1723918220,"current_range_meters":15200,"station_id":"ce4bhr12rcd13ifvqhqg","pricing_plan_id":"cebpf4jnsgd1na2vs0mg"},{"bike_id":"8a487383-6220-46a5-95b4-21128efd8a1e","system_id":"levelo_inurba_marseille","lat":43.32291,"lon":5.38279,"is_reserved":false,"is_disabled":false,"rental_uris":{"android":"levelo://app?vid=8a487383-6220-46a5-95b4-21128efd8a1e","ios":"levelo://app?vid=8a487383-6220-46a5-95b4-21128efd8a1e"},"vehicle_type_id":"4","last_reported":1723918220,"current_range_meters":22800,"station_id":"ce4bhr12rcd13ifvqhqg","pricing_plan_id":"cebpf4jnsgd1na2vs0mg"},{"bike_id":"e83bc34a-7b8e-4fe1-b589-176aa19c08ee","system_id":"levelo_inurba_marseille","lat":43.3231,"lon":5.38291,"is_reserved":false,"is_disabled":false,"rental_uris":{"android":"levelo://app?vid=e83bc34a-7b8e-4fe1-b589-176aa19c08ee","ios":"levelo://app?vid=e83bc34a-7b8e-4fe1-b589-176aa19c08ee"},"vehicle_type_id":"4","last_reported":1723918220,"current_range_meters":25600,"station_id":"ce4bhr12rcd13ifvqhqg","pricing_plan_id":"cebpf4jnsgd1na2vs0mg"},{"bike_id":"ae2be080-daf8-4cc2-b053-807178135750","system_id":"levelo_inurba_marseille","lat":43.297163,"lon":5.365866,"is_reserved":false,"is_disabled":false,"rental_uris":{"android":"levelo://app?vid=ae2be080-daf8-4cc2-b053-807178135750","ios":"levelo://app?vid=ae2be080-daf8-4cc2-b053-807178135750"},"vehicle_type_id":"4","last_reported":1723918220,"current_range_meters":16800,"station_id":"ce4bgn12rcd13ifvqbt0","pricing_plan_id":"cebpf4jnsgd1na2vs0mg"},{"bike_id":"909537c2-55ff-44a4-8bb8-2c83a948d519","system_id":"levelo_inurba_marseille","lat":43.297163,"lon":5.365866,"is_reserved":false,"is_disabled":false,"rental_uris":{"android":"levelo://app?vid=909537c2-55ff-44a4-8bb8-2c83a948d519","ios":"levelo://app?vid=909537c2-55ff-44a4-8bb8-2c83a948d519"},"vehicle_type_id":"4","last_reported":1723918220,"current_range_meters":2000,"station_id":"ce4bgn12rcd13ifvqbt0","pricing_plan_id":"cebpf4jnsgd1na2vs0mg"},{"bike_id":"28422a1f-166c-4669-87fb-431f67773575","system_id":"levelo_inurba_marseille","lat":43.297163,"lon":5.365866,"is_reserved":false,"is_disabled":false,"rental_uris":{"android":"levelo://app?vid=28422a1f-166c-4669-87fb-431f67773575","ios":"levelo://app?vid=28422a1f-166c-4669-87fb-431f67773575"},"vehicle_type_id":"4","last_reported":1723918220,"current_range_meters":1200,"station_id":"ce4bgn12rcd13ifvqbt0","pricing_plan_id":"cebpf4jnsgd1na2vs0mg"},{"bike_id":"4e9318ae-ce6f-4688-b4d0-51326238d399","system_id":"levelo_inurba_marseille","lat":43.297163,"lon":5.365866,"is_reserved":false,"is_disabled":false,"rental_uris":{"android":"levelo://app?vid=4e9318ae-ce6f-4688-b4d0-51326238d399","ios":"levelo://app?vid=4e9318ae-ce6f-4688-b4d0-51326238d399"},"vehicle_type_id":"4","last_reported":1723918220,"current_range_meters":0,"station_id":"ce4bgn12rcd13ifvqbt0","pricing_plan_id":"cebpf4jnsgd1na2vs0mg"},{"bike_id":"88eb8382-0c91-400e-8a56-c59b36f1d4d8","system_id":"levelo_inurba_marseille","lat":43.297163,"lon":5.365866,"is_reserved":false,"is_disabled":false,"rental_uris":{"android":"levelo://app?vid=88eb8382-0c91-400e-8a56-c59b36f1d4d8","ios":"levelo://app?vid=88eb8382-0c91-400e-8a56-c59b36f1d4d8"},"vehicle_type_id":"4","last_reported":1723918220,"current_range_meters":17600,"station_id":"ce4bgn12rcd13ifvqbt0","pricing_plan_id":"cebpf4jnsgd1na2vs0mg"},{"bike_id":"6e0497b3-8784-4c48-87a2-cf46e58aae60","system_id":"levelo_inurba_marseille","lat":43.29573,"lon":5.367355,"is_reserved":false,"is_disabled":false,"rental_uris":{"android":"levelo://app?vid=6e0497b3-8784-4c48-87a2-cf46e58aae60","ios":"levelo://app?vid=6e0497b3-8784-4c48-87a2-cf46e58aae60"},"vehicle_type_id":"4","last_reported":1723918220,"current_range_meters":2400,"station_id":"ce4bgph2rcd13ifvqc2g","pricing_plan_id":"cebpf4jnsgd1na2vs0mg"},{"bike_id":"d24bb3f7-4946-429b-9b47-c855c300d579","system_id":"levelo_inurba_marseille","lat":43.29573,"lon":5.367355,"is_reserved":false,"is_disabled":false,"rental_uris":{"android":"levelo://app?vid=d24bb3f7-4946-429b-9b47-c855c300d579","ios":"levelo://app?vid=d24bb3f7-4946-429b-9b47-c855c300d579"},"vehicle_type_id":"4","last_reported":1723918220,"current_range_meters":6000,"station_id":"ce4bgph2rcd13ifvqc2g","pricing_plan_id":"cebpf4jnsgd1na2vs0mg"},{"bike_id":"68f7607b-9c83-4a62-b8be-f4d8bbfd7d4b","system_id":"levelo_inurba_marseille","lat":43.29583,"lon":5.36735,"is_reserved":false,"is_disabled":false,"rental_uris":{"android":"levelo://app?vid=68f7607b-9c83-4a62-b8be-f4d8bbfd7d4b","ios":"levelo://app?vid=68f7607b-9c83-4a62-b8be-f4d8bbfd7d4b"},"vehicle_type_id":"4","last_reported":1723918220,"current_range_meters":0,"station_id":"ce4bgph2rcd13ifvqc2g","pricing_plan_id":"cebpf4jnsgd1na2vs0mg"},{"bike_id":"6a86b554-8f75-45b3-9472-abe84b954088","system_id":"levelo_inurba_marseille","lat":43.29573,"lon":5.367355,"is_reserved":false,"is_disabled":false,"rental_uris":{"android":"levelo://app?vid=6a86b554-8f75-45b3-9472-abe84b954088","ios":"levelo://app?vid=6a86b554-8f75-45b3-9472-abe84b954088"},"vehicle_type_id":"4","last_reported":1723918220,"current_range_meters":27600,"station_id":"ce4bgph2rcd13ifvqc2g","pricing_plan_id":"cebpf4jnsgd1na2vs0mg"},{"bike_id":"9745b1bc-f4f8-439f-a6ba-4299ff31cdc6","system_id":"levelo_inurba_marseille","lat":43.2958,"lon":5.36746,"is_reserved":false,"is_disabled":false,"rental_uris":{"android":"levelo://app?vid=9745b1bc-f4f8-439f-a6ba-4299ff31cdc6","ios":"levelo://app?vid=9745b1bc-f4f8-439f-a6ba-4299ff31cdc6"},"vehicle_type_id":"4","last_reported":1723918220,"current_range_meters":24400,"station_id":"ce4bgph2rcd13ifvqc2g","pricing_plan_id":"cebpf4jnsgd1na2vs0mg"},{"bike_id":"3fc087d9-aaf6-4ac3-8b24-6475c3627315","system_id":"levelo_inurba_marseille","lat":43.29573,"lon":5.367355,"is_reserved":false,"is_disabled":false,"rental_uris":{"android":"levelo://app?vid=3fc087d9-aaf6-4ac3-8b24-6475c3627315","ios":"levelo://app?vid=3fc087d9-aaf6-4ac3-8b24-6475c3627315"},"vehicle_type_id":"4","last_reported":1723918220,"current_range_meters":10800,"station_id":"ce4bgph2rcd13ifvqc2g","pricing_plan_id":"cebpf4jnsgd1na2vs0mg"},{"bike_id":"7fda6779-6e0a-4346-94e0-5b25347756ef","system_id":"levelo_inurba_marseille","lat":43.29573,"lon":5.367355,"is_reserved":false,"is_disabled":false,"rental_uris":{"android":"levelo://app?vid=7fda6779-6e0a-4346-94e0-5b25347756ef","ios":"levelo://app?vid=7fda6779-6e0a-4346-94e0-5b25347756ef"},"vehicle_type_id":"4","last_reported":1723918220,"current_range_meters":17600,"station_id":"ce4bgph2rcd13ifvqc2g","pricing_plan_id":"cebpf4jnsgd1na2vs0mg"},{"bike_id":"3ba68560-b3a5-4dae-8d5e-25313b200def","system_id":"levelo_inurba_marseille","lat":43.29573,"lon":5.367355,"is_reserved":false,"is_disabled":false,"rental_uris":{"android":"levelo://app?vid=3ba68560-b3a5-4dae-8d5e-25313b200def","ios":"levelo://app?vid=3ba68560-b3a5-4dae-8d5e-25313b200def"},"vehicle_type_id":"4","last_reported":1723918220,"current_range_meters":7200,"station_id":"ce4bgph2rcd13ifvqc2g","pricing_plan_id":"cebpf4jnsgd1na2vs0mg"},{"bike_id":"7b08fa3d-fcca-44db-a21a-891d654af807","system_id":"levelo_inurba_marseille","lat":43.29573,"lon":5.367355,"is_reserved":false,"is_disabled":false,"rental_uris":{"android":"levelo://app?vid=7b08fa3d-fcca-44db-a21a-891d654af807","ios":"levelo://app?vid=7b08fa3d-fcca-44db-a21a-891d654af807"},"vehicle_type_id":"4","last_reported":1723918220,"current_range_meters":3200,"station_id":"ce4bgph2rcd13ifvqc2g","pricing_plan_id":"cebpf4jnsgd1na2vs0mg"},{"bike_id":"4d09a4d1-c9ee-47e4-a516-875ef86004fb","system_id":"levelo_inurba_marseille","lat":43.29573,"lon":5.367355,"is_reserved":false,"is_disabled":false,"rental_uris":{"android":"levelo://app?vid=4d09a4d1-c9ee-47e4-a516-875ef86004fb","ios":"levelo://app?vid=4d09a4d1-c9ee-47e4-a516-875ef86004fb"},"vehicle_type_id":"4","last_reported":1723918220,"current_range_meters":0,"station_id":"ce4bgph2rcd13ifvqc2g","pricing_plan_id":"cebpf4jnsgd1na2vs0mg"},{"bike_id":"b644a05a-696d-4c6f-82ea-363e6351fe8d","system_id":"levelo_inurba_marseille","lat":43.29573,"lon":5.367355,"is_reserved":false,"is_disabled":false,"rental_uris":{"android":"levelo://app?vid=b644a05a-696d-4c6f-82ea-363e6351fe8d","ios":"levelo://app?vid=b644a05a-696d-4c6f-82ea-363e6351fe8d"},"vehicle_type_id":"4","last_reported":1723918220,"current_range_meters":8000,"station_id":"ce4bgph2rcd13ifvqc2g","pricing_plan_id":"cebpf4jnsgd1na2vs0mg"},{"bike_id":"7972dc04-0f6e-4c65-879f-4545ee2046c2","system_id":"levelo_inurba_marseille","lat":43.319993,"lon":5.388401,"is_reserved":false,"is_disabled":false,"rental_uris":{"android":"levelo://app?vid=7972dc04-0f6e-4c65-879f-4545ee2046c2","ios":"levelo://app?vid=7972dc04-0f6e-4c65-879f-4545ee2046c2"},"vehicle_type_id":"4","last_reported":1723918220,"current_range_meters":23200,"station_id":"","pricing_plan_id":"cebpf4jnsgd1na2vs0mg"},{"bike_id":"402937ae-bdf7-4995-ae93-90106d55ebc0","system_id":"levelo_inurba_marseille","lat":43.309589,"lon":5.390258,"is_reserved":false,"is_disabled":false,"rental_uris":{"android":"levelo://app?vid=402937ae-bdf7-4995-ae93-90106d55ebc0","ios":"levelo://app?vid=402937ae-bdf7-4995-ae93-90106d55ebc0"},"vehicle_type_id":"4","last_reported":1723918220,"current_range_meters":11600,"station_id":"ce4bgup2rcd13ifvqco0","pricing_plan_id":"cebpf4jnsgd1na2vs0mg"},{"bike_id":"84c216a3-1150-4c0e-add7-46a922d6f1fa","system_id":"levelo_inurba_marseille","lat":43.309589,"lon":5.390258,"is_reserved":false,"is_disabled":false,"rental_uris":{"android":"levelo://app?vid=84c216a3-1150-4c0e-add7-46a922d6f1fa","ios":"levelo://app?vid=84c216a3-1150-4c0e-add7-46a922d6f1fa"},"vehicle_type_id":"4","last_reported":1723918220,"current_range_meters":13200,"station_id":"ce4bgup2rcd13ifvqco0","pricing_plan_id":"cebpf4jnsgd1na2vs0mg"},{"bike_id":"e0cfbaa5-ce52-4dcc-a7d8-15a63d367faf","system_id":"levelo_inurba_marseille","lat":43.309589,"lon":5.390258,"is_reserved":false,"is_disabled":false,"rental_uris":{"android":"levelo://app?vid=e0cfbaa5-ce52-4dcc-a7d8-15a63d367faf","ios":"levelo://app?vid=e0cfbaa5-ce52-4dcc-a7d8-15a63d367faf"},"vehicle_type_id":"4","last_reported":1723918220,"current_range_meters":22800,"station_id":"ce4bgup2rcd13ifvqco0","pricing_plan_id":"cebpf4jnsgd1na2vs0mg"},{"bike_id":"c3e0460f-e06f-4fdc-aa31-e057ae0984c1","system_id":"levelo_inurba_marseille","lat":43.309589,"lon":5.390258,"is_reserved":false,"is_disabled":false,"rental_uris":{"android":"levelo://app?vid=c3e0460f-e06f-4fdc-aa31-e057ae0984c1","ios":"levelo://app?vid=c3e0460f-e06f-4fdc-aa31-e057ae0984c1"},"vehicle_type_id":"4","last_reported":1723918220,"current_range_meters":7200,"station_id":"ce4bgup2rcd13ifvqco0","pricing_plan_id":"cebpf4jnsgd1na2vs0mg"},{"bike_id":"7d4b0035-7116-49cc-b6df-7429b2db4c44","system_id":"levelo_inurba_marseille","lat":43.309589,"lon":5.390258,"is_reserved":false,"is_disabled":false,"rental_uris":{"android":"levelo://app?vid=7d4b0035-7116-49cc-b6df-7429b2db4c44","ios":"levelo://app?vid=7d4b0035-7116-49cc-b6df-7429b2db4c44"},"vehicle_type_id":"4","last_reported":1723918220,"current_range_meters":13200,"station_id":"ce4bgup2rcd13ifvqco0","pricing_plan_id":"cebpf4jnsgd1na2vs0mg"},{"bike_id":"46541940-9e31-4c1e-a889-049d58c9c3cb","system_id":"levelo_inurba_marseille","lat":43.309589,"lon":5.390258,"is_reserved":false,"is_disabled":false,"rental_uris":{"android":"levelo://app?vid=46541940-9e31-4c1e-a889-049d58c9c3cb","ios":"levelo://app?vid=46541940-9e31-4c1e-a889-049d58c9c3cb"},"vehicle_type_id":"4","last_reported":1723918220,"current_range_meters":0,"station_id":"ce4bgup2rcd13ifvqco0","pricing_plan_id":"cebpf4jnsgd1na2vs0mg"},{"bike_id":"d6447df5-884b-42a6-a4c5-5977c80a4b85","system_id":"levelo_inurba_marseille","lat":43.309589,"lon":5.390258,"is_reserved":false,"is_disabled":false,"rental_uris":{"android":"levelo://app?vid=d6447df5-884b-42a6-a4c5-5977c80a4b85","ios":"levelo://app?vid=d6447df5-884b-42a6-a4c5-5977c80a4b85"},"vehicle_type_id":"4","last_reported":1723918220,"current_range_meters":11200,"station_id":"ce4bgup2rcd13ifvqco0","pricing_plan_id":"cebpf4jnsgd1na2vs0mg"},{"bike_id":"760c817b-4886-425e-8d10-c47dae7e7d98","system_id":"levelo_inurba_marseille","lat":43.309589,"lon":5.390258,"is_reserved":false,"is_disabled":false,"rental_uris":{"android":"levelo://app?vid=760c817b-4886-425e-8d10-c47dae7e7d98","ios":"levelo://app?vid=760c817b-4886-425e-8d10-c47dae7e7d98"},"vehicle_type_id":"4","last_reported":1723918220,"current_range_meters":19600,"station_id":"ce4bgup2rcd13ifvqco0","pricing_plan_id":"cebpf4jnsgd1na2vs0mg"},{"bike_id":"ef8dc142-a6d3-4948-9a9a-6d77c109307c","system_id":"levelo_inurba_marseille","lat":43.309589,"lon":5.390258,"is_reserved":false,"is_disabled":false,"rental_uris":{"android":"levelo://app?vid=ef8dc142-a6d3-4948-9a9a-6d77c109307c","ios":"levelo://app?vid=ef8dc142-a6d3-4948-9a9a-6d77c109307c"},"vehicle_type_id":"4","last_reported":1723918220,"current_range_meters":7600,"station_id":"ce4bgup2rcd13ifvqco0","pricing_plan_id":"cebpf4jnsgd1na2vs0mg"},{"bike_id":"54608a5e-8cbf-4077-a96a-7164ddc74a63","system_id":"levelo_inurba_marseille","lat":43.309589,"lon":5.390258,"is_reserved":false,"is_disabled":false,"rental_uris":{"android":"levelo://app?vid=54608a5e-8cbf-4077-a96a-7164ddc74a63","ios":"levelo://app?vid=54608a5e-8cbf-4077-a96a-7164ddc74a63"},"vehicle_type_id":"4","last_reported":1723918220,"current_range_meters":20800,"station_id":"ce4bgup2rcd13ifvqco0","pricing_plan_id":"cebpf4jnsgd1na2vs0mg"},{"bike_id":"a557eec9-729a-41be-9d84-50601ca3bdcb","system_id":"levelo_inurba_marseille","lat":43.309589,"lon":5.390258,"is_reserved":false,"is_disabled":false,"rental_uris":{"android":"levelo://app?vid=a557eec9-729a-41be-9d84-50601ca3bdcb","ios":"levelo://app?vid=a557eec9-729a-41be-9d84-50601ca3bdcb"},"vehicle_type_id":"4","last_reported":1723918220,"current_range_meters":11600,"station_id":"ce4bgup2rcd13ifvqco0","pricing_plan_id":"cebpf4jnsgd1na2vs0mg"},{"bike_id":"9b18b73a-030f-46dc-85cf-bd9950d52120","system_id":"levelo_inurba_marseille","lat":43.309589,"lon":5.390258,"is_reserved":false,"is_disabled":false,"rental_uris":{"android":"levelo://app?vid=9b18b73a-030f-46dc-85cf-bd9950d52120","ios":"levelo://app?vid=9b18b73a-030f-46dc-85cf-bd9950d52120"},"vehicle_type_id":"4","last_reported":1723918220,"current_range_meters":8400,"station_id":"ce4bgup2rcd13ifvqco0","pricing_plan_id":"cebpf4jnsgd1na2vs0mg"},{"bike_id":"85acaab9-6bed-4555-b335-d958173421dd","system_id":"levelo_inurba_marseille","lat":43.309589,"lon":5.390258,"is_reserved":false,"is_disabled":false,"rental_uris":{"android":"levelo://app?vid=85acaab9-6bed-4555-b335-d958173421dd","ios":"levelo://app?vid=85acaab9-6bed-4555-b335-d958173421dd"},"vehicle_type_id":"4","last_reported":1723918220,"current_range_meters":22800,"station_id":"ce4bgup2rcd13ifvqco0","pricing_plan_id":"cebpf4jnsgd1na2vs0mg"},{"bike_id":"565fe077-91f4-4769-ae09-03c2df1fa04a","system_id":"levelo_inurba_marseille","lat":43.309589,"lon":5.390258,"is_reserved":false,"is_disabled":false,"rental_uris":{"android":"levelo://app?vid=565fe077-91f4-4769-ae09-03c2df1fa04a","ios":"levelo://app?vid=565fe077-91f4-4769-ae09-03c2df1fa04a"},"vehicle_type_id":"4","last_reported":1723918220,"current_range_meters":25200,"station_id":"ce4bgup2rcd13ifvqco0","pricing_plan_id":"cebpf4jnsgd1na2vs0mg"},{"bike_id":"30d5505f-401f-469d-893a-9f270d6c96ed","system_id":"levelo_inurba_marseille","lat":43.309589,"lon":5.390258,"is_reserved":false,"is_disabled":false,"rental_uris":{"android":"levelo://app?vid=30d5505f-401f-469d-893a-9f270d6c96ed","ios":"levelo://app?vid=30d5505f-401f-469d-893a-9f270d6c96ed"},"vehicle_type_id":"4","last_reported":1723918220,"current_range_meters":26000,"station_id":"ce4bgup2rcd13ifvqco0","pricing_plan_id":"cebpf4jnsgd1na2vs0mg"},{"bike_id":"fa3629eb-7d96-422d-9f32-52fd544af791","system_id":"levelo_inurba_marseille","lat":43.309589,"lon":5.390258,"is_reserved":false,"is_disabled":false,"rental_uris":{"android":"levelo://app?vid=fa3629eb-7d96-422d-9f32-52fd544af791","ios":"levelo://app?vid=fa3629eb-7d96-422d-9f32-52fd544af791"},"vehicle_type_id":"4","last_reported":1723918220,"current_range_meters":6000,"station_id":"ce4bgup2rcd13ifvqco0","pricing_plan_id":"cebpf4jnsgd1na2vs0mg"},{"bike_id":"09e03639-1a3b-40f2-9693-7d8a5f67d9ea","system_id":"levelo_inurba_marseille","lat":43.309589,"lon":5.390258,"is_reserved":false,"is_disabled":false,"rental_uris":{"android":"levelo://app?vid=09e03639-1a3b-40f2-9693-7d8a5f67d9ea","ios":"levelo://app?vid=09e03639-1a3b-40f2-9693-7d8a5f67d9ea"},"vehicle_type_id":"4","last_reported":1723918220,"current_range_meters":12000,"station_id":"ce4bgup2rcd13ifvqco0","pricing_plan_id":"cebpf4jnsgd1na2vs0mg"},{"bike_id":"49d932de-ab3f-49c3-b49b-b1a15647a1c6","system_id":"levelo_inurba_marseille","lat":43.309589,"lon":5.390258,"is_reserved":false,"is_disabled":false,"rental_uris":{"android":"levelo://app?vid=49d932de-ab3f-49c3-b49b-b1a15647a1c6","ios":"levelo://app?vid=49d932de-ab3f-49c3-b49b-b1a15647a1c6"},"vehicle_type_id":"4","last_reported":1723918220,"current_range_meters":19600,"station_id":"ce4bgup2rcd13ifvqco0","pricing_plan_id":"cebpf4jnsgd1na2vs0mg"},{"bike_id":"27c22870-34ff-41d3-aa93-03e20d92a340","system_id":"levelo_inurba_marseille","lat":43.309589,"lon":5.390258,"is_reserved":false,"is_disabled":false,"rental_uris":{"android":"levelo://app?vid=27c22870-34ff-41d3-aa93-03e20d92a340","ios":"levelo://app?vid=27c22870-34ff-41d3-aa93-03e20d92a340"},"vehicle_type_id":"4","last_reported":1723918220,"current_range_meters":16800,"station_id":"ce4bgup2rcd13ifvqco0","pricing_plan_id":"cebpf4jnsgd1na2vs0mg"},{"bike_id":"70a2245c-7ddd-4945-bcbd-d58649bb3b93","system_id":"levelo_inurba_marseille","lat":43.309589,"lon":5.390258,"is_reserved":false,"is_disabled":false,"rental_uris":{"android":"levelo://app?vid=70a2245c-7ddd-4945-bcbd-d58649bb3b93","ios":"levelo://app?vid=70a2245c-7ddd-4945-bcbd-d58649bb3b93"},"vehicle_type_id":"4","last_reported":1723918220,"current_range_meters":2000,"station_id":"ce4bgup2rcd13ifvqco0","pricing_plan_id":"cebpf4jnsgd1na2vs0mg"},{"bike_id":"95616a2b-eefd-4a35-a83f-33410f79af38","system_id":"levelo_inurba_marseille","lat":43.30952,"lon":5.39032,"is_reserved":false,"is_disabled":false,"rental_uris":{"android":"levelo://app?vid=95616a2b-eefd-4a35-a83f-33410f79af38","ios":"levelo://app?vid=95616a2b-eefd-4a35-a83f-33410f79af38"},"vehicle_type_id":"4","last_reported":1723918220,"current_range_meters":0,"station_id":"ce4bgup2rcd13ifvqco0","pricing_plan_id":"cebpf4jnsgd1na2vs0mg"},{"bike_id":"24de1a70-5c9d-418d-a2fc-5bfd25265a8a","system_id":"levelo_inurba_marseille","lat":43.309589,"lon":5.390258,"is_reserved":false,"is_disabled":false,"rental_uris":{"android":"levelo://app?vid=24de1a70-5c9d-418d-a2fc-5bfd25265a8a","ios":"levelo://app?vid=24de1a70-5c9d-418d-a2fc-5bfd25265a8a"},"vehicle_type_id":"4","last_reported":1723918220,"current_range_meters":8800,"station_id":"ce4bgup2rcd13ifvqco0","pricing_plan_id":"cebpf4jnsgd1na2vs0mg"},{"bike_id":"c5719ac2-a5af-44ee-9957-b54fcd7de58a","system_id":"levelo_inurba_marseille","lat":43.309589,"lon":5.390258,"is_reserved":false,"is_disabled":false,"rental_uris":{"android":"levelo://app?vid=c5719ac2-a5af-44ee-9957-b54fcd7de58a","ios":"levelo://app?vid=c5719ac2-a5af-44ee-9957-b54fcd7de58a"},"vehicle_type_id":"4","last_reported":1723918220,"current_range_meters":4000,"station_id":"ce4bgup2rcd13ifvqco0","pricing_plan_id":"cebpf4jnsgd1na2vs0mg"},{"bike_id":"bc183e01-d6e9-401d-9d6e-505057f915a3","system_id":"levelo_inurba_marseille","lat":43.309589,"lon":5.390258,"is_reserved":false,"is_disabled":false,"rental_uris":{"android":"levelo://app?vid=bc183e01-d6e9-401d-9d6e-505057f915a3","ios":"levelo://app?vid=bc183e01-d6e9-401d-9d6e-505057f915a3"},"vehicle_type_id":"4","last_reported":1723918220,"current_range_meters":10000,"station_id":"ce4bgup2rcd13ifvqco0","pricing_plan_id":"cebpf4jnsgd1na2vs0mg"},{"bike_id":"44680023-44ee-4af3-8a4f-654483326fbc","system_id":"levelo_inurba_marseille","lat":43.309589,"lon":5.390258,"is_reserved":false,"is_disabled":false,"rental_uris":{"android":"levelo://app?vid=44680023-44ee-4af3-8a4f-654483326fbc","ios":"levelo://app?vid=44680023-44ee-4af3-8a4f-654483326fbc"},"vehicle_type_id":"4","last_reported":1723918220,"current_range_meters":10800,"station_id":"ce4bgup2rcd13ifvqco0","pricing_plan_id":"cebpf4jnsgd1na2vs0mg"},{"bike_id":"1ac23116-041f-466c-95ae-f480f6f0e1c1","system_id":"levelo_inurba_marseille","lat":43.309589,"lon":5.390258,"is_reserved":false,"is_disabled":false,"rental_uris":{"android":"levelo://app?vid=1ac23116-041f-466c-95ae-f480f6f0e1c1","ios":"levelo://app?vid=1ac23116-041f-466c-95ae-f480f6f0e1c1"},"vehicle_type_id":"4","last_reported":1723918220,"current_range_meters":2000,"station_id":"ce4bgup2rcd13ifvqco0","pricing_plan_id":"cebpf4jnsgd1na2vs0mg"},{"bike_id":"1e5064a1-608d-4dd0-82d1-efa9ec154f72","system_id":"levelo_inurba_marseille","lat":43.296921,"lon":5.376579,"is_reserved":false,"is_disabled":false,"rental_uris":{"android":"levelo://app?vid=1e5064a1-608d-4dd0-82d1-efa9ec154f72","ios":"levelo://app?vid=1e5064a1-608d-4dd0-82d1-efa9ec154f72"},"vehicle_type_id":"4","last_reported":1723918220,"current_range_meters":22800,"station_id":"ce4bgkh2rcd13ifvqbl0","pricing_plan_id":"cebpf4jnsgd1na2vs0mg"},{"bike_id":"fa0bc94f-33a1-4f7a-878f-a6ff30373b48","system_id":"levelo_inurba_marseille","lat":43.309589,"lon":5.390258,"is_reserved":false,"is_disabled":false,"rental_uris":{"android":"levelo://app?vid=fa0bc94f-33a1-4f7a-878f-a6ff30373b48","ios":"levelo://app?vid=fa0bc94f-33a1-4f7a-878f-a6ff30373b48"},"vehicle_type_id":"4","last_reported":1723918220,"current_range_meters":30800,"station_id":"ce4bgup2rcd13ifvqco0","pricing_plan_id":"cebpf4jnsgd1na2vs0mg"},{"bike_id":"7f9da29c-a42b-46ee-97df-1d53c110f1ec","system_id":"levelo_inurba_marseille","lat":43.309589,"lon":5.390258,"is_reserved":false,"is_disabled":false,"rental_uris":{"android":"levelo://app?vid=7f9da29c-a42b-46ee-97df-1d53c110f1ec","ios":"levelo://app?vid=7f9da29c-a42b-46ee-97df-1d53c110f1ec"},"vehicle_type_id":"4","last_reported":1723918220,"current_range_meters":31600,"station_id":"ce4bgup2rcd13ifvqco0","pricing_plan_id":"cebpf4jnsgd1na2vs0mg"},{"bike_id":"3cd206a8-1743-4f73-b884-66572c199dca","system_id":"levelo_inurba_marseille","lat":43.317557,"lon":5.390173,"is_reserved":false,"is_disabled":false,"rental_uris":{"android":"levelo://app?vid=3cd206a8-1743-4f73-b884-66572c199dca","ios":"levelo://app?vid=3cd206a8-1743-4f73-b884-66572c199dca"},"vehicle_type_id":"4","last_reported":1723918220,"current_range_meters":27600,"station_id":"ce4bhqp2rcd13ifvqhng","pricing_plan_id":"cebpf4jnsgd1na2vs0mg"},{"bike_id":"1d7b9840-c3eb-4379-977d-43486f9cb9d0","system_id":"levelo_inurba_marseille","lat":43.317557,"lon":5.390173,"is_reserved":false,"is_disabled":false,"rental_uris":{"android":"levelo://app?vid=1d7b9840-c3eb-4379-977d-43486f9cb9d0","ios":"levelo://app?vid=1d7b9840-c3eb-4379-977d-43486f9cb9d0"},"vehicle_type_id":"4","last_reported":1723918220,"current_range_meters":2400,"station_id":"ce4bhqp2rcd13ifvqhng","pricing_plan_id":"cebpf4jnsgd1na2vs0mg"},{"bike_id":"b3423484-e243-4073-8355-e8e71f567326","system_id":"levelo_inurba_marseille","lat":43.317557,"lon":5.390173,"is_reserved":false,"is_disabled":false,"rental_uris":{"android":"levelo://app?vid=b3423484-e243-4073-8355-e8e71f567326","ios":"levelo://app?vid=b3423484-e243-4073-8355-e8e71f567326"},"vehicle_type_id":"4","last_reported":1723918220,"current_range_meters":28800,"station_id":"ce4bhqp2rcd13ifvqhng","pricing_plan_id":"cebpf4jnsgd1na2vs0mg"},{"bike_id":"a2ac7210-ed59-4379-bd70-facf2c6cf4d5","system_id":"levelo_inurba_marseille","lat":43.29582,"lon":5.37508,"is_reserved":false,"is_disabled":false,"rental_uris":{"android":"levelo://app?vid=a2ac7210-ed59-4379-bd70-facf2c6cf4d5","ios":"levelo://app?vid=a2ac7210-ed59-4379-bd70-facf2c6cf4d5"},"vehicle_type_id":"4","last_reported":1723918220,"current_range_meters":13200,"station_id":"ce4bgh92rcd13ifvqb50","pricing_plan_id":"cebpf4jnsgd1na2vs0mg"},{"bike_id":"551a0d2b-38ea-4942-b225-c36b2da416a4","system_id":"levelo_inurba_marseille","lat":43.309114,"lon":5.391118,"is_reserved":false,"is_disabled":false,"rental_uris":{"android":"levelo://app?vid=551a0d2b-38ea-4942-b225-c36b2da416a4","ios":"levelo://app?vid=551a0d2b-38ea-4942-b225-c36b2da416a4"},"vehicle_type_id":"4","last_reported":1723918220,"current_range_meters":1600,"station_id":"","pricing_plan_id":"cebpf4jnsgd1na2vs0mg"},{"bike_id":"a6662318-38a2-44a3-b65e-4a1fa8cdf367","system_id":"levelo_inurba_marseille","lat":43.298037,"lon":5.381066,"is_reserved":false,"is_disabled":false,"rental_uris":{"android":"levelo://app?vid=a6662318-38a2-44a3-b65e-4a1fa8cdf367","ios":"levelo://app?vid=a6662318-38a2-44a3-b65e-4a1fa8cdf367"},"vehicle_type_id":"4","last_reported":1723918220,"current_range_meters":2400,"station_id":"ce4bgip2rcd13ifvqbb0","pricing_plan_id":"cebpf4jnsgd1na2vs0mg"},{"bike_id":"7abf09f6-2973-4760-bdb0-14a4994c4e86","system_id":"levelo_inurba_marseille","lat":43.295748,"lon":5.37522,"is_reserved":false,"is_disabled":false,"rental_uris":{"android":"levelo://app?vid=7abf09f6-2973-4760-bdb0-14a4994c4e86","ios":"levelo://app?vid=7abf09f6-2973-4760-bdb0-14a4994c4e86"},"vehicle_type_id":"4","last_reported":1723918220,"current_range_meters":22400,"station_id":"ce4bgh92rcd13ifvqb50","pricing_plan_id":"cebpf4jnsgd1na2vs0mg"},{"bike_id":"45323872-1bbe-4423-975f-5b1b4fb0e6c5","system_id":"levelo_inurba_marseille","lat":43.304274,"lon":5.388873,"is_reserved":false,"is_disabled":false,"rental_uris":{"android":"levelo://app?vid=45323872-1bbe-4423-975f-5b1b4fb0e6c5","ios":"levelo://app?vid=45323872-1bbe-4423-975f-5b1b4fb0e6c5"},"vehicle_type_id":"4","last_reported":1723918220,"current_range_meters":0,"station_id":"ce4bgk12rcd13ifvqbi0","pricing_plan_id":"cebpf4jnsgd1na2vs0mg"},{"bike_id":"ef843c32-3612-4bc1-bbcf-976d9b89330f","system_id":"levelo_inurba_marseille","lat":43.29616,"lon":5.37704,"is_reserved":false,"is_disabled":false,"rental_uris":{"android":"levelo://app?vid=ef843c32-3612-4bc1-bbcf-976d9b89330f","ios":"levelo://app?vid=ef843c32-3612-4bc1-bbcf-976d9b89330f"},"vehicle_type_id":"4","last_reported":1723918220,"current_range_meters":30400,"station_id":"ce4bgi92rcd13ifvqb90","pricing_plan_id":"cebpf4jnsgd1na2vs0mg"},{"bike_id":"9b52fe26-413b-46c8-b4f0-f50a671dd0f4","system_id":"levelo_inurba_marseille","lat":43.296277,"lon":5.377108,"is_reserved":false,"is_disabled":false,"rental_uris":{"android":"levelo://app?vid=9b52fe26-413b-46c8-b4f0-f50a671dd0f4","ios":"levelo://app?vid=9b52fe26-413b-46c8-b4f0-f50a671dd0f4"},"vehicle_type_id":"4","last_reported":1723918220,"current_range_meters":0,"station_id":"ce4bgi92rcd13ifvqb90","pricing_plan_id":"cebpf4jnsgd1na2vs0mg"},{"bike_id":"69f7eba1-c45b-4b5c-8a6c-05489e21c3c0","system_id":"levelo_inurba_marseille","lat":43.299707,"lon":5.384859,"is_reserved":false,"is_disabled":false,"rental_uris":{"android":"levelo://app?vid=69f7eba1-c45b-4b5c-8a6c-05489e21c3c0","ios":"levelo://app?vid=69f7eba1-c45b-4b5c-8a6c-05489e21c3c0"},"vehicle_type_id":"4","last_reported":1723918220,"current_range_meters":2400,"station_id":"ce4bgj92rcd13ifvqbd0","pricing_plan_id":"cebpf4jnsgd1na2vs0mg"},{"bike_id":"eb86ea37-5f40-423f-b5e9-a0c1d00b3a72","system_id":"levelo_inurba_marseille","lat":43.29534,"lon":5.37498,"is_reserved":false,"is_disabled":false,"rental_uris":{"android":"levelo://app?vid=eb86ea37-5f40-423f-b5e9-a0c1d00b3a72","ios":"levelo://app?vid=eb86ea37-5f40-423f-b5e9-a0c1d00b3a72"},"vehicle_type_id":"4","last_reported":1723918220,"current_range_meters":27200,"station_id":"ce4bgkp2rcd13ifvqbmg","pricing_plan_id":"cebpf4jnsgd1na2vs0mg"},{"bike_id":"77d36705-5d2e-43b1-9d45-14f6c6e3ed07","system_id":"levelo_inurba_marseille","lat":43.299717,"lon":5.384845,"is_reserved":false,"is_disabled":false,"rental_uris":{"android":"levelo://app?vid=77d36705-5d2e-43b1-9d45-14f6c6e3ed07","ios":"levelo://app?vid=77d36705-5d2e-43b1-9d45-14f6c6e3ed07"},"vehicle_type_id":"4","last_reported":1723918220,"current_range_meters":10400,"station_id":"ce4bgj92rcd13ifvqbd0","pricing_plan_id":"cebpf4jnsgd1na2vs0mg"},{"bike_id":"5fcc7a67-aff8-4f33-b7c4-3562710a715d","system_id":"levelo_inurba_marseille","lat":43.299724,"lon":5.384848,"is_reserved":false,"is_disabled":false,"rental_uris":{"android":"levelo://app?vid=5fcc7a67-aff8-4f33-b7c4-3562710a715d","ios":"levelo://app?vid=5fcc7a67-aff8-4f33-b7c4-3562710a715d"},"vehicle_type_id":"4","last_reported":1723918220,"current_range_meters":0,"station_id":"ce4bgj92rcd13ifvqbd0","pricing_plan_id":"cebpf4jnsgd1na2vs0mg"},{"bike_id":"0651b77d-db26-4104-9326-94571074f2c2","system_id":"levelo_inurba_marseille","lat":43.30146,"lon":5.38778,"is_reserved":false,"is_disabled":false,"rental_uris":{"android":"levelo://app?vid=0651b77d-db26-4104-9326-94571074f2c2","ios":"levelo://app?vid=0651b77d-db26-4104-9326-94571074f2c2"},"vehicle_type_id":"4","last_reported":1723918220,"current_range_meters":0,"station_id":"ce4bghh2rcd13ifvqb60","pricing_plan_id":"cebpf4jnsgd1na2vs0mg"},{"bike_id":"4a8f8fb3-7006-4aa4-a8ab-b2e366e8f6d1","system_id":"levelo_inurba_marseille","lat":43.301396,"lon":5.387812,"is_reserved":false,"is_disabled":false,"rental_uris":{"android":"levelo://app?vid=4a8f8fb3-7006-4aa4-a8ab-b2e366e8f6d1","ios":"levelo://app?vid=4a8f8fb3-7006-4aa4-a8ab-b2e366e8f6d1"},"vehicle_type_id":"4","last_reported":1723918220,"current_range_meters":31200,"station_id":"ce4bghh2rcd13ifvqb60","pricing_plan_id":"cebpf4jnsgd1na2vs0mg"},{"bike_id":"b8175e06-e14f-4d6a-84b7-ff117ecc61ec","system_id":"levelo_inurba_marseille","lat":43.30135,"lon":5.38779,"is_reserved":false,"is_disabled":false,"rental_uris":{"android":"levelo://app?vid=b8175e06-e14f-4d6a-84b7-ff117ecc61ec","ios":"levelo://app?vid=b8175e06-e14f-4d6a-84b7-ff117ecc61ec"},"vehicle_type_id":"4","last_reported":1723918220,"current_range_meters":31200,"station_id":"ce4bghh2rcd13ifvqb60","pricing_plan_id":"cebpf4jnsgd1na2vs0mg"},{"bike_id":"9f5c3ea6-b824-4835-ab8e-fa38f9c34765","system_id":"levelo_inurba_marseille","lat":43.302008,"lon":5.389425,"is_reserved":false,"is_disabled":false,"rental_uris":{"android":"levelo://app?vid=9f5c3ea6-b824-4835-ab8e-fa38f9c34765","ios":"levelo://app?vid=9f5c3ea6-b824-4835-ab8e-fa38f9c34765"},"vehicle_type_id":"4","last_reported":1723918220,"current_range_meters":12000,"station_id":"","pricing_plan_id":"cebpf4jnsgd1na2vs0mg"},{"bike_id":"38b2a7a5-8524-436d-906b-98055421b579","system_id":"levelo_inurba_marseille","lat":43.29602,"lon":5.381084,"is_reserved":false,"is_disabled":false,"rental_uris":{"android":"levelo://app?vid=38b2a7a5-8524-436d-906b-98055421b579","ios":"levelo://app?vid=38b2a7a5-8524-436d-906b-98055421b579"},"vehicle_type_id":"4","last_reported":1723918220,"current_range_meters":0,"station_id":"ce4bgl12rcd13ifvqbo0","pricing_plan_id":"cebpf4jnsgd1na2vs0mg"},{"bike_id":"40e3b2f2-a27e-4cdc-982a-200cdfdb4f60","system_id":"levelo_inurba_marseille","lat":43.29287,"lon":5.36848,"is_reserved":false,"is_disabled":false,"rental_uris":{"android":"levelo://app?vid=40e3b2f2-a27e-4cdc-982a-200cdfdb4f60","ios":"levelo://app?vid=40e3b2f2-a27e-4cdc-982a-200cdfdb4f60"},"vehicle_type_id":"4","last_reported":1723918220,"current_range_meters":2800,"station_id":"ce4bhbp2rcd13ifvqesg","pricing_plan_id":"cebpf4jnsgd1na2vs0mg"},{"bike_id":"711cb0d1-9d56-4671-815b-4089a52012eb","system_id":"levelo_inurba_marseille","lat":43.292749,"lon":5.368402,"is_reserved":false,"is_disabled":false,"rental_uris":{"android":"levelo://app?vid=711cb0d1-9d56-4671-815b-4089a52012eb","ios":"levelo://app?vid=711cb0d1-9d56-4671-815b-4089a52012eb"},"vehicle_type_id":"4","last_reported":1723918220,"current_range_meters":12000,"station_id":"ce4bhbp2rcd13ifvqesg","pricing_plan_id":"cebpf4jnsgd1na2vs0mg"},{"bike_id":"a88fadf3-34fe-4fcd-9cc3-7ae7959ec543","system_id":"levelo_inurba_marseille","lat":43.292749,"lon":5.368402,"is_reserved":false,"is_disabled":false,"rental_uris":{"android":"levelo://app?vid=a88fadf3-34fe-4fcd-9cc3-7ae7959ec543","ios":"levelo://app?vid=a88fadf3-34fe-4fcd-9cc3-7ae7959ec543"},"vehicle_type_id":"4","last_reported":1723918220,"current_range_meters":28000,"station_id":"ce4bhbp2rcd13ifvqesg","pricing_plan_id":"cebpf4jnsgd1na2vs0mg"},{"bike_id":"03eecf0c-a850-497b-849d-b38532573397","system_id":"levelo_inurba_marseille","lat":43.292749,"lon":5.368402,"is_reserved":false,"is_disabled":false,"rental_uris":{"android":"levelo://app?vid=03eecf0c-a850-497b-849d-b38532573397","ios":"levelo://app?vid=03eecf0c-a850-497b-849d-b38532573397"},"vehicle_type_id":"4","last_reported":1723918220,"current_range_meters":26800,"station_id":"ce4bhbp2rcd13ifvqesg","pricing_plan_id":"cebpf4jnsgd1na2vs0mg"},{"bike_id":"68285696-2480-426c-8d73-11b2ede38789","system_id":"levelo_inurba_marseille","lat":43.292749,"lon":5.368402,"is_reserved":false,"is_disabled":false,"rental_uris":{"android":"levelo://app?vid=68285696-2480-426c-8d73-11b2ede38789","ios":"levelo://app?vid=68285696-2480-426c-8d73-11b2ede38789"},"vehicle_type_id":"4","last_reported":1723918220,"current_range_meters":31200,"station_id":"ce4bhbp2rcd13ifvqesg","pricing_plan_id":"cebpf4jnsgd1na2vs0mg"},{"bike_id":"223cf07c-1348-4f7b-b4cd-6f089c05e34c","system_id":"levelo_inurba_marseille","lat":43.292749,"lon":5.368402,"is_reserved":false,"is_disabled":false,"rental_uris":{"android":"levelo://app?vid=223cf07c-1348-4f7b-b4cd-6f089c05e34c","ios":"levelo://app?vid=223cf07c-1348-4f7b-b4cd-6f089c05e34c"},"vehicle_type_id":"4","last_reported":1723918220,"current_range_meters":25200,"station_id":"ce4bhbp2rcd13ifvqesg","pricing_plan_id":"cebpf4jnsgd1na2vs0mg"},{"bike_id":"a553014c-a948-4ddd-8508-5b3c7b4fa9f4","system_id":"levelo_inurba_marseille","lat":43.292749,"lon":5.368402,"is_reserved":false,"is_disabled":false,"rental_uris":{"android":"levelo://app?vid=a553014c-a948-4ddd-8508-5b3c7b4fa9f4","ios":"levelo://app?vid=a553014c-a948-4ddd-8508-5b3c7b4fa9f4"},"vehicle_type_id":"4","last_reported":1723918220,"current_range_meters":9200,"station_id":"ce4bhbp2rcd13ifvqesg","pricing_plan_id":"cebpf4jnsgd1na2vs0mg"},{"bike_id":"2854e712-39f7-4f05-b7c4-9d2598797a13","system_id":"levelo_inurba_marseille","lat":43.292749,"lon":5.368402,"is_reserved":false,"is_disabled":false,"rental_uris":{"android":"levelo://app?vid=2854e712-39f7-4f05-b7c4-9d2598797a13","ios":"levelo://app?vid=2854e712-39f7-4f05-b7c4-9d2598797a13"},"vehicle_type_id":"4","last_reported":1723918220,"current_range_meters":14000,"station_id":"ce4bhbp2rcd13ifvqesg","pricing_plan_id":"cebpf4jnsgd1na2vs0mg"},{"bike_id":"2ea6d33b-62a9-4651-8821-4f85a983a45d","system_id":"levelo_inurba_marseille","lat":43.292749,"lon":5.368402,"is_reserved":false,"is_disabled":false,"rental_uris":{"android":"levelo://app?vid=2ea6d33b-62a9-4651-8821-4f85a983a45d","ios":"levelo://app?vid=2ea6d33b-62a9-4651-8821-4f85a983a45d"},"vehicle_type_id":"4","last_reported":1723918220,"current_range_meters":7600,"station_id":"ce4bhbp2rcd13ifvqesg","pricing_plan_id":"cebpf4jnsgd1na2vs0mg"},{"bike_id":"d5340e02-0410-4b17-9758-931662d53374","system_id":"levelo_inurba_marseille","lat":43.29301,"lon":5.37158,"is_reserved":false,"is_disabled":false,"rental_uris":{"android":"levelo://app?vid=d5340e02-0410-4b17-9758-931662d53374","ios":"levelo://app?vid=d5340e02-0410-4b17-9758-931662d53374"},"vehicle_type_id":"4","last_reported":1723918220,"current_range_meters":31200,"station_id":"ce4bgh92rcd13ifvqb40","pricing_plan_id":"cebpf4jnsgd1na2vs0mg"},{"bike_id":"9a4be0c4-ce46-456c-8398-e2a7e2bd6bea","system_id":"levelo_inurba_marseille","lat":43.292749,"lon":5.368402,"is_reserved":false,"is_disabled":false,"rental_uris":{"android":"levelo://app?vid=9a4be0c4-ce46-456c-8398-e2a7e2bd6bea","ios":"levelo://app?vid=9a4be0c4-ce46-456c-8398-e2a7e2bd6bea"},"vehicle_type_id":"4","last_reported":1723918220,"current_range_meters":4400,"station_id":"ce4bhbp2rcd13ifvqesg","pricing_plan_id":"cebpf4jnsgd1na2vs0mg"},{"bike_id":"f04cc025-59ab-403f-8dcb-8eb7fb492e8a","system_id":"levelo_inurba_marseille","lat":43.292749,"lon":5.368402,"is_reserved":false,"is_disabled":false,"rental_uris":{"android":"levelo://app?vid=f04cc025-59ab-403f-8dcb-8eb7fb492e8a","ios":"levelo://app?vid=f04cc025-59ab-403f-8dcb-8eb7fb492e8a"},"vehicle_type_id":"4","last_reported":1723918220,"current_range_meters":21600,"station_id":"ce4bhbp2rcd13ifvqesg","pricing_plan_id":"cebpf4jnsgd1na2vs0mg"},{"bike_id":"6ce1107a-855f-4c3b-9857-2a5890972c6e","system_id":"levelo_inurba_marseille","lat":43.29308,"lon":5.37456,"is_reserved":false,"is_disabled":false,"rental_uris":{"android":"levelo://app?vid=6ce1107a-855f-4c3b-9857-2a5890972c6e","ios":"levelo://app?vid=6ce1107a-855f-4c3b-9857-2a5890972c6e"},"vehicle_type_id":"4","last_reported":1723918220,"current_range_meters":21600,"station_id":"ce4bgi12rcd13ifvqb70","pricing_plan_id":"cebpf4jnsgd1na2vs0mg"},{"bike_id":"bdbeb294-b221-4cdc-8623-4f8e8e9fa739","system_id":"levelo_inurba_marseille","lat":43.293009,"lon":5.374584,"is_reserved":false,"is_disabled":false,"rental_uris":{"android":"levelo://app?vid=bdbeb294-b221-4cdc-8623-4f8e8e9fa739","ios":"levelo://app?vid=bdbeb294-b221-4cdc-8623-4f8e8e9fa739"},"vehicle_type_id":"4","last_reported":1723918220,"current_range_meters":4800,"station_id":"ce4bgi12rcd13ifvqb70","pricing_plan_id":"cebpf4jnsgd1na2vs0mg"},{"bike_id":"329a5592-1d2e-44db-af66-fbe0a1274eac","system_id":"levelo_inurba_marseille","lat":43.293009,"lon":5.374584,"is_reserved":false,"is_disabled":false,"rental_uris":{"android":"levelo://app?vid=329a5592-1d2e-44db-af66-fbe0a1274eac","ios":"levelo://app?vid=329a5592-1d2e-44db-af66-fbe0a1274eac"},"vehicle_type_id":"4","last_reported":1723918220,"current_range_meters":3200,"station_id":"ce4bgi12rcd13ifvqb70","pricing_plan_id":"cebpf4jnsgd1na2vs0mg"},{"bike_id":"b2176f35-0aa0-413c-b1cf-b1b4f8582f15","system_id":"levelo_inurba_marseille","lat":43.293009,"lon":5.374584,"is_reserved":false,"is_disabled":false,"rental_uris":{"android":"levelo://app?vid=b2176f35-0aa0-413c-b1cf-b1b4f8582f15","ios":"levelo://app?vid=b2176f35-0aa0-413c-b1cf-b1b4f8582f15"},"vehicle_type_id":"4","last_reported":1723918220,"current_range_meters":23600,"station_id":"ce4bgi12rcd13ifvqb70","pricing_plan_id":"cebpf4jnsgd1na2vs0mg"},{"bike_id":"372deb50-98a2-4331-a004-a51bb40e83b4","system_id":"levelo_inurba_marseille","lat":43.302992,"lon":5.392136,"is_reserved":false,"is_disabled":false,"rental_uris":{"android":"levelo://app?vid=372deb50-98a2-4331-a004-a51bb40e83b4","ios":"levelo://app?vid=372deb50-98a2-4331-a004-a51bb40e83b4"},"vehicle_type_id":"4","last_reported":1723918220,"current_range_meters":29600,"station_id":"ce4bgkh2rcd13ifvqbk0","pricing_plan_id":"cebpf4jnsgd1na2vs0mg"},{"bike_id":"fdb7430b-dec1-41db-bc1c-5b5863d86ae6","system_id":"levelo_inurba_marseille","lat":43.302992,"lon":5.392136,"is_reserved":false,"is_disabled":false,"rental_uris":{"android":"levelo://app?vid=fdb7430b-dec1-41db-bc1c-5b5863d86ae6","ios":"levelo://app?vid=fdb7430b-dec1-41db-bc1c-5b5863d86ae6"},"vehicle_type_id":"4","last_reported":1723918220,"current_range_meters":20400,"station_id":"ce4bgkh2rcd13ifvqbk0","pricing_plan_id":"cebpf4jnsgd1na2vs0mg"},{"bike_id":"4d4d74db-55c2-4ac6-b827-a128454eed75","system_id":"levelo_inurba_marseille","lat":43.29376,"lon":5.37852,"is_reserved":false,"is_disabled":false,"rental_uris":{"android":"levelo://app?vid=4d4d74db-55c2-4ac6-b827-a128454eed75","ios":"levelo://app?vid=4d4d74db-55c2-4ac6-b827-a128454eed75"},"vehicle_type_id":"4","last_reported":1723918220,"current_range_meters":15200,"station_id":"ce4bgjh2rcd13ifvqbf0","pricing_plan_id":"cebpf4jnsgd1na2vs0mg"},{"bike_id":"beafc678-5d8f-44eb-816f-d1a51182302d","system_id":"levelo_inurba_marseille","lat":43.294162,"lon":5.386292,"is_reserved":false,"is_disabled":false,"rental_uris":{"android":"levelo://app?vid=beafc678-5d8f-44eb-816f-d1a51182302d","ios":"levelo://app?vid=beafc678-5d8f-44eb-816f-d1a51182302d"},"vehicle_type_id":"4","last_reported":1723918220,"current_range_meters":5600,"station_id":"ce4bh2h2rcd13ifvqdh0","pricing_plan_id":"cebpf4jnsgd1na2vs0mg"},{"bike_id":"e836d744-b977-4c7b-acab-07742d9787b8","system_id":"levelo_inurba_marseille","lat":43.292311,"lon":5.360731,"is_reserved":false,"is_disabled":false,"rental_uris":{"android":"levelo://app?vid=e836d744-b977-4c7b-acab-07742d9787b8","ios":"levelo://app?vid=e836d744-b977-4c7b-acab-07742d9787b8"},"vehicle_type_id":"4","last_reported":1723918220,"current_range_meters":4800,"station_id":"ce4bhbh2rcd13ifvqeqg","pricing_plan_id":"cebpf4jnsgd1na2vs0mg"},{"bike_id":"d049aae3-d210-4d21-9fd8-4257a1fd960c","system_id":"levelo_inurba_marseille","lat":43.292311,"lon":5.360731,"is_reserved":false,"is_disabled":false,"rental_uris":{"android":"levelo://app?vid=d049aae3-d210-4d21-9fd8-4257a1fd960c","ios":"levelo://app?vid=d049aae3-d210-4d21-9fd8-4257a1fd960c"},"vehicle_type_id":"4","last_reported":1723918220,"current_range_meters":17600,"station_id":"ce4bhbh2rcd13ifvqeqg","pricing_plan_id":"cebpf4jnsgd1na2vs0mg"},{"bike_id":"19549a0c-3f31-47d1-845a-6b6d1b8a65e3","system_id":"levelo_inurba_marseille","lat":43.30085,"lon":5.390856,"is_reserved":false,"is_disabled":false,"rental_uris":{"android":"levelo://app?vid=19549a0c-3f31-47d1-845a-6b6d1b8a65e3","ios":"levelo://app?vid=19549a0c-3f31-47d1-845a-6b6d1b8a65e3"},"vehicle_type_id":"4","last_reported":1723918220,"current_range_meters":4000,"station_id":"ce4bh192rcd13ifvqdb0","pricing_plan_id":"cebpf4jnsgd1na2vs0mg"},{"bike_id":"c4992c3b-caf6-4eb6-900d-df59f57dc632","system_id":"levelo_inurba_marseille","lat":43.300852,"lon":5.390859,"is_reserved":false,"is_disabled":false,"rental_uris":{"android":"levelo://app?vid=c4992c3b-caf6-4eb6-900d-df59f57dc632","ios":"levelo://app?vid=c4992c3b-caf6-4eb6-900d-df59f57dc632"},"vehicle_type_id":"4","last_reported":1723918220,"current_range_meters":31200,"station_id":"ce4bh192rcd13ifvqdb0","pricing_plan_id":"cebpf4jnsgd1na2vs0mg"},{"bike_id":"3be22d8c-8185-437e-bc8f-eca4c1fa7342","system_id":"levelo_inurba_marseille","lat":43.30085,"lon":5.390856,"is_reserved":false,"is_disabled":false,"rental_uris":{"android":"levelo://app?vid=3be22d8c-8185-437e-bc8f-eca4c1fa7342","ios":"levelo://app?vid=3be22d8c-8185-437e-bc8f-eca4c1fa7342"},"vehicle_type_id":"4","last_reported":1723918220,"current_range_meters":24800,"station_id":"ce4bh192rcd13ifvqdb0","pricing_plan_id":"cebpf4jnsgd1na2vs0mg"},{"bike_id":"29bfc458-b2d7-4361-ab7a-eb9b351e60f3","system_id":"levelo_inurba_marseille","lat":43.292311,"lon":5.360731,"is_reserved":false,"is_disabled":false,"rental_uris":{"android":"levelo://app?vid=29bfc458-b2d7-4361-ab7a-eb9b351e60f3","ios":"levelo://app?vid=29bfc458-b2d7-4361-ab7a-eb9b351e60f3"},"vehicle_type_id":"4","last_reported":1723918220,"current_range_meters":20000,"station_id":"ce4bhbh2rcd13ifvqeqg","pricing_plan_id":"cebpf4jnsgd1na2vs0mg"},{"bike_id":"8e8e87ac-b685-4100-a92c-ac165fcc8d79","system_id":"levelo_inurba_marseille","lat":43.29226,"lon":5.36062,"is_reserved":false,"is_disabled":false,"rental_uris":{"android":"levelo://app?vid=8e8e87ac-b685-4100-a92c-ac165fcc8d79","ios":"levelo://app?vid=8e8e87ac-b685-4100-a92c-ac165fcc8d79"},"vehicle_type_id":"4","last_reported":1723918220,"current_range_meters":0,"station_id":"ce4bhbh2rcd13ifvqeqg","pricing_plan_id":"cebpf4jnsgd1na2vs0mg"},{"bike_id":"971ddf31-20c3-40c4-b27e-807c5d1f7786","system_id":"levelo_inurba_marseille","lat":43.29222,"lon":5.36058,"is_reserved":false,"is_disabled":false,"rental_uris":{"android":"levelo://app?vid=971ddf31-20c3-40c4-b27e-807c5d1f7786","ios":"levelo://app?vid=971ddf31-20c3-40c4-b27e-807c5d1f7786"},"vehicle_type_id":"4","last_reported":1723918220,"current_range_meters":4000,"station_id":"ce4bhbh2rcd13ifvqeqg","pricing_plan_id":"cebpf4jnsgd1na2vs0mg"},{"bike_id":"d906dfb4-7245-4377-b89a-f8d04157beca","system_id":"levelo_inurba_marseille","lat":43.291671,"lon":5.371575,"is_reserved":false,"is_disabled":false,"rental_uris":{"android":"levelo://app?vid=d906dfb4-7245-4377-b89a-f8d04157beca","ios":"levelo://app?vid=d906dfb4-7245-4377-b89a-f8d04157beca"},"vehicle_type_id":"4","last_reported":1723918220,"current_range_meters":26000,"station_id":"ce4bha92rcd13ifvqeh0","pricing_plan_id":"cebpf4jnsgd1na2vs0mg"},{"bike_id":"d5b3c047-5c26-4b79-b328-ecefa741b928","system_id":"levelo_inurba_marseille","lat":43.29172,"lon":5.37161,"is_reserved":false,"is_disabled":false,"rental_uris":{"android":"levelo://app?vid=d5b3c047-5c26-4b79-b328-ecefa741b928","ios":"levelo://app?vid=d5b3c047-5c26-4b79-b328-ecefa741b928"},"vehicle_type_id":"4","last_reported":1723918220,"current_range_meters":30400,"station_id":"ce4bha92rcd13ifvqeh0","pricing_plan_id":"cebpf4jnsgd1na2vs0mg"},{"bike_id":"b60cfdd7-3074-46e2-a3df-8d95baae1cfe","system_id":"levelo_inurba_marseille","lat":43.29165,"lon":5.37144,"is_reserved":false,"is_disabled":false,"rental_uris":{"android":"levelo://app?vid=b60cfdd7-3074-46e2-a3df-8d95baae1cfe","ios":"levelo://app?vid=b60cfdd7-3074-46e2-a3df-8d95baae1cfe"},"vehicle_type_id":"4","last_reported":1723918220,"current_range_meters":0,"station_id":"ce4bha92rcd13ifvqeh0","pricing_plan_id":"cebpf4jnsgd1na2vs0mg"},{"bike_id":"77a8a44b-79db-4d47-ae63-bf0aec17b87d","system_id":"levelo_inurba_marseille","lat":43.32945,"lon":5.38563,"is_reserved":false,"is_disabled":false,"rental_uris":{"android":"levelo://app?vid=77a8a44b-79db-4d47-ae63-bf0aec17b87d","ios":"levelo://app?vid=77a8a44b-79db-4d47-ae63-bf0aec17b87d"},"vehicle_type_id":"4","last_reported":1723918220,"current_range_meters":5200,"station_id":"","pricing_plan_id":"cebpf4jnsgd1na2vs0mg"},{"bike_id":"9969b96f-dc4a-45dd-9ecd-221a2830692c","system_id":"levelo_inurba_marseille","lat":43.313291,"lon":5.396838,"is_reserved":false,"is_disabled":false,"rental_uris":{"android":"levelo://app?vid=9969b96f-dc4a-45dd-9ecd-221a2830692c","ios":"levelo://app?vid=9969b96f-dc4a-45dd-9ecd-221a2830692c"},"vehicle_type_id":"4","last_reported":1723918220,"current_range_meters":1600,"station_id":"ce4bgvp2rcd13ifvqcu0","pricing_plan_id":"cebpf4jnsgd1na2vs0mg"},{"bike_id":"78315e59-8040-4bfa-8662-91717e501dc5","system_id":"levelo_inurba_marseille","lat":43.313291,"lon":5.396838,"is_reserved":false,"is_disabled":false,"rental_uris":{"android":"levelo://app?vid=78315e59-8040-4bfa-8662-91717e501dc5","ios":"levelo://app?vid=78315e59-8040-4bfa-8662-91717e501dc5"},"vehicle_type_id":"4","last_reported":1723918220,"current_range_meters":18800,"station_id":"ce4bgvp2rcd13ifvqcu0","pricing_plan_id":"cebpf4jnsgd1na2vs0mg"},{"bike_id":"56276a50-9d00-4442-bab1-e0e30ce6c14f","system_id":"levelo_inurba_marseille","lat":43.29189,"lon":5.35809,"is_reserved":false,"is_disabled":false,"rental_uris":{"android":"levelo://app?vid=56276a50-9d00-4442-bab1-e0e30ce6c14f","ios":"levelo://app?vid=56276a50-9d00-4442-bab1-e0e30ce6c14f"},"vehicle_type_id":"4","last_reported":1723918220,"current_range_meters":0,"station_id":"ce4bhb12rcd13ifvqel0","pricing_plan_id":"cebpf4jnsgd1na2vs0mg"},{"bike_id":"cbe3d588-a1e0-454f-a11b-921694e3c7ef","system_id":"levelo_inurba_marseille","lat":43.2919,"lon":5.35791,"is_reserved":false,"is_disabled":false,"rental_uris":{"android":"levelo://app?vid=cbe3d588-a1e0-454f-a11b-921694e3c7ef","ios":"levelo://app?vid=cbe3d588-a1e0-454f-a11b-921694e3c7ef"},"vehicle_type_id":"4","last_reported":1723918220,"current_range_meters":400,"station_id":"ce4bhb12rcd13ifvqel0","pricing_plan_id":"cebpf4jnsgd1na2vs0mg"},{"bike_id":"8cd68a41-b891-436e-8974-260483d0526e","system_id":"levelo_inurba_marseille","lat":43.309047,"lon":5.396551,"is_reserved":false,"is_disabled":false,"rental_uris":{"android":"levelo://app?vid=8cd68a41-b891-436e-8974-260483d0526e","ios":"levelo://app?vid=8cd68a41-b891-436e-8974-260483d0526e"},"vehicle_type_id":"4","last_reported":1723918220,"current_range_meters":4000,"station_id":"ce4bh012rcd13ifvqcv0","pricing_plan_id":"cebpf4jnsgd1na2vs0mg"},{"bike_id":"4fdd9c26-0795-4c23-8e0a-3a9732b0aece","system_id":"levelo_inurba_marseille","lat":43.29534,"lon":5.38536,"is_reserved":false,"is_disabled":false,"rental_uris":{"android":"levelo://app?vid=4fdd9c26-0795-4c23-8e0a-3a9732b0aece","ios":"levelo://app?vid=4fdd9c26-0795-4c23-8e0a-3a9732b0aece"},"vehicle_type_id":"4","last_reported":1723918220,"current_range_meters":0,"station_id":"ce4bgih2rcd13ifvqba0","pricing_plan_id":"cebpf4jnsgd1na2vs0mg"},{"bike_id":"71bf6f2f-16a2-4167-b9e8-158b4e618dd7","system_id":"levelo_inurba_marseille","lat":43.29529,"lon":5.385581,"is_reserved":false,"is_disabled":false,"rental_uris":{"android":"levelo://app?vid=71bf6f2f-16a2-4167-b9e8-158b4e618dd7","ios":"levelo://app?vid=71bf6f2f-16a2-4167-b9e8-158b4e618dd7"},"vehicle_type_id":"4","last_reported":1723918220,"current_range_meters":21200,"station_id":"ce4bgih2rcd13ifvqba0","pricing_plan_id":"cebpf4jnsgd1na2vs0mg"},{"bike_id":"05dc7635-3957-4be2-877f-fa9573c8455c","system_id":"levelo_inurba_marseille","lat":43.29529,"lon":5.385581,"is_reserved":false,"is_disabled":false,"rental_uris":{"android":"levelo://app?vid=05dc7635-3957-4be2-877f-fa9573c8455c","ios":"levelo://app?vid=05dc7635-3957-4be2-877f-fa9573c8455c"},"vehicle_type_id":"4","last_reported":1723918220,"current_range_meters":24400,"station_id":"ce4bgih2rcd13ifvqba0","pricing_plan_id":"cebpf4jnsgd1na2vs0mg"},{"bike_id":"47e06a25-8dbf-43ea-9cd4-f238a3494d9d","system_id":"levelo_inurba_marseille","lat":43.315363,"lon":5.397042,"is_reserved":false,"is_disabled":false,"rental_uris":{"android":"levelo://app?vid=47e06a25-8dbf-43ea-9cd4-f238a3494d9d","ios":"levelo://app?vid=47e06a25-8dbf-43ea-9cd4-f238a3494d9d"},"vehicle_type_id":"4","last_reported":1723918220,"current_range_meters":0,"station_id":"","pricing_plan_id":"cebpf4jnsgd1na2vs0mg"},{"bike_id":"91c572ae-2d15-4e49-9e28-7cc9cd5be524","system_id":"levelo_inurba_marseille","lat":43.290779,"lon":5.371482,"is_reserved":false,"is_disabled":false,"rental_uris":{"android":"levelo://app?vid=91c572ae-2d15-4e49-9e28-7cc9cd5be524","ios":"levelo://app?vid=91c572ae-2d15-4e49-9e28-7cc9cd5be524"},"vehicle_type_id":"4","last_reported":1723918220,"current_range_meters":800,"station_id":"ce4bh5p2rcd13ifvqe4g","pricing_plan_id":"cebpf4jnsgd1na2vs0mg"},{"bike_id":"44a1cb8b-9f80-4a5e-ac8f-cda571c9ba94","system_id":"levelo_inurba_marseille","lat":43.290779,"lon":5.371482,"is_reserved":false,"is_disabled":false,"rental_uris":{"android":"levelo://app?vid=44a1cb8b-9f80-4a5e-ac8f-cda571c9ba94","ios":"levelo://app?vid=44a1cb8b-9f80-4a5e-ac8f-cda571c9ba94"},"vehicle_type_id":"4","last_reported":1723918220,"current_range_meters":1600,"station_id":"ce4bh5p2rcd13ifvqe4g","pricing_plan_id":"cebpf4jnsgd1na2vs0mg"},{"bike_id":"f09174ef-fe94-4979-82d6-d0806dea3d29","system_id":"levelo_inurba_marseille","lat":43.290779,"lon":5.371482,"is_reserved":false,"is_disabled":false,"rental_uris":{"android":"levelo://app?vid=f09174ef-fe94-4979-82d6-d0806dea3d29","ios":"levelo://app?vid=f09174ef-fe94-4979-82d6-d0806dea3d29"},"vehicle_type_id":"4","last_reported":1723918220,"current_range_meters":14800,"station_id":"ce4bh5p2rcd13ifvqe4g","pricing_plan_id":"cebpf4jnsgd1na2vs0mg"},{"bike_id":"3afcc348-019d-4fc9-a5de-42707c7da331","system_id":"levelo_inurba_marseille","lat":43.290779,"lon":5.371482,"is_reserved":false,"is_disabled":false,"rental_uris":{"android":"levelo://app?vid=3afcc348-019d-4fc9-a5de-42707c7da331","ios":"levelo://app?vid=3afcc348-019d-4fc9-a5de-42707c7da331"},"vehicle_type_id":"4","last_reported":1723918220,"current_range_meters":19600,"station_id":"ce4bh5p2rcd13ifvqe4g","pricing_plan_id":"cebpf4jnsgd1na2vs0mg"},{"bike_id":"f6e9944d-bc2f-48c3-a4d0-f63c81e225aa","system_id":"levelo_inurba_marseille","lat":43.290779,"lon":5.371482,"is_reserved":false,"is_disabled":false,"rental_uris":{"android":"levelo://app?vid=f6e9944d-bc2f-48c3-a4d0-f63c81e225aa","ios":"levelo://app?vid=f6e9944d-bc2f-48c3-a4d0-f63c81e225aa"},"vehicle_type_id":"4","last_reported":1723918220,"current_range_meters":16800,"station_id":"ce4bh5p2rcd13ifvqe4g","pricing_plan_id":"cebpf4jnsgd1na2vs0mg"},{"bike_id":"be25ca01-d7d5-4b6d-a651-eeab20e70da6","system_id":"levelo_inurba_marseille","lat":43.290779,"lon":5.371482,"is_reserved":false,"is_disabled":false,"rental_uris":{"android":"levelo://app?vid=be25ca01-d7d5-4b6d-a651-eeab20e70da6","ios":"levelo://app?vid=be25ca01-d7d5-4b6d-a651-eeab20e70da6"},"vehicle_type_id":"4","last_reported":1723918220,"current_range_meters":2400,"station_id":"ce4bh5p2rcd13ifvqe4g","pricing_plan_id":"cebpf4jnsgd1na2vs0mg"},{"bike_id":"5a5a09bf-f5da-46c2-b205-46cdc5f79cf2","system_id":"levelo_inurba_marseille","lat":43.290434,"lon":5.359096,"is_reserved":false,"is_disabled":false,"rental_uris":{"android":"levelo://app?vid=5a5a09bf-f5da-46c2-b205-46cdc5f79cf2","ios":"levelo://app?vid=5a5a09bf-f5da-46c2-b205-46cdc5f79cf2"},"vehicle_type_id":"4","last_reported":1723918220,"current_range_meters":0,"station_id":"ce4bha92rcd13ifvqeg0","pricing_plan_id":"cebpf4jnsgd1na2vs0mg"},{"bike_id":"c956f6ac-9246-4de6-8995-84b569ab0af4","system_id":"levelo_inurba_marseille","lat":43.309371,"lon":5.401449,"is_reserved":false,"is_disabled":false,"rental_uris":{"android":"levelo://app?vid=c956f6ac-9246-4de6-8995-84b569ab0af4","ios":"levelo://app?vid=c956f6ac-9246-4de6-8995-84b569ab0af4"},"vehicle_type_id":"4","last_reported":1723918220,"current_range_meters":0,"station_id":"ce4bgvp2rcd13ifvqct0","pricing_plan_id":"cebpf4jnsgd1na2vs0mg"},{"bike_id":"bd8f77f7-80b8-4b6d-b309-48f93ae85582","system_id":"levelo_inurba_marseille","lat":43.290327,"lon":5.375711,"is_reserved":false,"is_disabled":false,"rental_uris":{"android":"levelo://app?vid=bd8f77f7-80b8-4b6d-b309-48f93ae85582","ios":"levelo://app?vid=bd8f77f7-80b8-4b6d-b309-48f93ae85582"},"vehicle_type_id":"4","last_reported":1723918220,"current_range_meters":2400,"station_id":"ce4bh692rcd13ifvqe90","pricing_plan_id":"cebpf4jnsgd1na2vs0mg"},{"bike_id":"f82d6d00-e8fc-4ffd-98cf-baa5e0a7b905","system_id":"levelo_inurba_marseille","lat":43.29418,"lon":5.38617,"is_reserved":false,"is_disabled":false,"rental_uris":{"android":"levelo://app?vid=f82d6d00-e8fc-4ffd-98cf-baa5e0a7b905","ios":"levelo://app?vid=f82d6d00-e8fc-4ffd-98cf-baa5e0a7b905"},"vehicle_type_id":"4","last_reported":1723918220,"current_range_meters":0,"station_id":"ce4bh2h2rcd13ifvqdh0","pricing_plan_id":"cebpf4jnsgd1na2vs0mg"},{"bike_id":"7f949cf4-b828-47c8-ab34-6c3873b399da","system_id":"levelo_inurba_marseille","lat":43.294153,"lon":5.386305,"is_reserved":false,"is_disabled":false,"rental_uris":{"android":"levelo://app?vid=7f949cf4-b828-47c8-ab34-6c3873b399da","ios":"levelo://app?vid=7f949cf4-b828-47c8-ab34-6c3873b399da"},"vehicle_type_id":"4","last_reported":1723918220,"current_range_meters":0,"station_id":"ce4bh2h2rcd13ifvqdh0","pricing_plan_id":"cebpf4jnsgd1na2vs0mg"},{"bike_id":"9b2c71be-40d6-49cc-b694-254ab929bafb","system_id":"levelo_inurba_marseille","lat":43.29415,"lon":5.38622,"is_reserved":false,"is_disabled":false,"rental_uris":{"android":"levelo://app?vid=9b2c71be-40d6-49cc-b694-254ab929bafb","ios":"levelo://app?vid=9b2c71be-40d6-49cc-b694-254ab929bafb"},"vehicle_type_id":"4","last_reported":1723918220,"current_range_meters":0,"station_id":"ce4bh2h2rcd13ifvqdh0","pricing_plan_id":"cebpf4jnsgd1na2vs0mg"},{"bike_id":"498a494f-779c-4c21-9cce-0f68181960be","system_id":"levelo_inurba_marseille","lat":43.290319,"lon":5.375732,"is_reserved":false,"is_disabled":false,"rental_uris":{"android":"levelo://app?vid=498a494f-779c-4c21-9cce-0f68181960be","ios":"levelo://app?vid=498a494f-779c-4c21-9cce-0f68181960be"},"vehicle_type_id":"4","last_reported":1723918220,"current_range_meters":800,"station_id":"ce4bh692rcd13ifvqe90","pricing_plan_id":"cebpf4jnsgd1na2vs0mg"},{"bike_id":"0a65c672-64e2-4c61-b22d-58652fb66c2a","system_id":"levelo_inurba_marseille","lat":43.28944,"lon":5.36636,"is_reserved":false,"is_disabled":false,"rental_uris":{"android":"levelo://app?vid=0a65c672-64e2-4c61-b22d-58652fb66c2a","ios":"levelo://app?vid=0a65c672-64e2-4c61-b22d-58652fb66c2a"},"vehicle_type_id":"4","last_reported":1723918220,"current_range_meters":0,"station_id":"ce4bhap2rcd13ifvqek0","pricing_plan_id":"cebpf4jnsgd1na2vs0mg"},{"bike_id":"1970eadf-5e06-4868-80c0-93c9e8bd407e","system_id":"levelo_inurba_marseille","lat":43.309371,"lon":5.401449,"is_reserved":false,"is_disabled":false,"rental_uris":{"android":"levelo://app?vid=1970eadf-5e06-4868-80c0-93c9e8bd407e","ios":"levelo://app?vid=1970eadf-5e06-4868-80c0-93c9e8bd407e"},"vehicle_type_id":"4","last_reported":1723918220,"current_range_meters":1200,"station_id":"ce4bgvp2rcd13ifvqct0","pricing_plan_id":"cebpf4jnsgd1na2vs0mg"},{"bike_id":"fac44619-7e7f-4a33-a5b6-126a0286d92c","system_id":"levelo_inurba_marseille","lat":43.28942,"lon":5.36632,"is_reserved":false,"is_disabled":false,"rental_uris":{"android":"levelo://app?vid=fac44619-7e7f-4a33-a5b6-126a0286d92c","ios":"levelo://app?vid=fac44619-7e7f-4a33-a5b6-126a0286d92c"},"vehicle_type_id":"4","last_reported":1723918220,"current_range_meters":0,"station_id":"ce4bhap2rcd13ifvqek0","pricing_plan_id":"cebpf4jnsgd1na2vs0mg"},{"bike_id":"6ce27d1c-e33b-42d1-8c1e-fc54bfe79aee","system_id":"levelo_inurba_marseille","lat":43.290319,"lon":5.375732,"is_reserved":false,"is_disabled":false,"rental_uris":{"android":"levelo://app?vid=6ce27d1c-e33b-42d1-8c1e-fc54bfe79aee","ios":"levelo://app?vid=6ce27d1c-e33b-42d1-8c1e-fc54bfe79aee"},"vehicle_type_id":"4","last_reported":1723918220,"current_range_meters":29600,"station_id":"ce4bh692rcd13ifvqe90","pricing_plan_id":"cebpf4jnsgd1na2vs0mg"},{"bike_id":"9a735869-7908-4673-8278-1fd7147b13e7","system_id":"levelo_inurba_marseille","lat":43.28936,"lon":5.36635,"is_reserved":false,"is_disabled":false,"rental_uris":{"android":"levelo://app?vid=9a735869-7908-4673-8278-1fd7147b13e7","ios":"levelo://app?vid=9a735869-7908-4673-8278-1fd7147b13e7"},"vehicle_type_id":"4","last_reported":1723918220,"current_range_meters":9600,"station_id":"ce4bhap2rcd13ifvqek0","pricing_plan_id":"cebpf4jnsgd1na2vs0mg"},{"bike_id":"63fd50ee-5182-4b4b-b8d6-3d9f588f28d2","system_id":"levelo_inurba_marseille","lat":43.289184,"lon":5.366408,"is_reserved":false,"is_disabled":false,"rental_uris":{"android":"levelo://app?vid=63fd50ee-5182-4b4b-b8d6-3d9f588f28d2","ios":"levelo://app?vid=63fd50ee-5182-4b4b-b8d6-3d9f588f28d2"},"vehicle_type_id":"4","last_reported":1723918220,"current_range_meters":0,"station_id":"ce4bhap2rcd13ifvqek0","pricing_plan_id":"cebpf4jnsgd1na2vs0mg"},{"bike_id":"463fa5eb-0a07-469f-9754-2a3d05f27c8a","system_id":"levelo_inurba_marseille","lat":43.289468,"lon":5.363719,"is_reserved":false,"is_disabled":false,"rental_uris":{"android":"levelo://app?vid=463fa5eb-0a07-469f-9754-2a3d05f27c8a","ios":"levelo://app?vid=463fa5eb-0a07-469f-9754-2a3d05f27c8a"},"vehicle_type_id":"4","last_reported":1723918220,"current_range_meters":23600,"station_id":"ce4bhc92rcd13ifvqetg","pricing_plan_id":"cebpf4jnsgd1na2vs0mg"},{"bike_id":"b6c69564-0896-4242-99c5-ff9761fea354","system_id":"levelo_inurba_marseille","lat":43.289468,"lon":5.363719,"is_reserved":false,"is_disabled":false,"rental_uris":{"android":"levelo://app?vid=b6c69564-0896-4242-99c5-ff9761fea354","ios":"levelo://app?vid=b6c69564-0896-4242-99c5-ff9761fea354"},"vehicle_type_id":"4","last_reported":1723918220,"current_range_meters":0,"station_id":"ce4bhc92rcd13ifvqetg","pricing_plan_id":"cebpf4jnsgd1na2vs0mg"},{"bike_id":"66624720-f707-47b2-aa15-3f9569820439","system_id":"levelo_inurba_marseille","lat":43.292642,"lon":5.384254,"is_reserved":false,"is_disabled":false,"rental_uris":{"android":"levelo://app?vid=66624720-f707-47b2-aa15-3f9569820439","ios":"levelo://app?vid=66624720-f707-47b2-aa15-3f9569820439"},"vehicle_type_id":"4","last_reported":1723918220,"current_range_meters":11600,"station_id":"ce4bh692rcd13ifvqea0","pricing_plan_id":"cebpf4jnsgd1na2vs0mg"},{"bike_id":"dae5e83c-2679-485c-a705-28d2d349417a","system_id":"levelo_inurba_marseille","lat":43.292644,"lon":5.384257,"is_reserved":false,"is_disabled":false,"rental_uris":{"android":"levelo://app?vid=dae5e83c-2679-485c-a705-28d2d349417a","ios":"levelo://app?vid=dae5e83c-2679-485c-a705-28d2d349417a"},"vehicle_type_id":"4","last_reported":1723918220,"current_range_meters":28000,"station_id":"ce4bh692rcd13ifvqea0","pricing_plan_id":"cebpf4jnsgd1na2vs0mg"},{"bike_id":"378e5980-b90f-455b-9f57-7106e4913e02","system_id":"levelo_inurba_marseille","lat":43.28904,"lon":5.36643,"is_reserved":false,"is_disabled":false,"rental_uris":{"android":"levelo://app?vid=378e5980-b90f-455b-9f57-7106e4913e02","ios":"levelo://app?vid=378e5980-b90f-455b-9f57-7106e4913e02"},"vehicle_type_id":"4","last_reported":1723918220,"current_range_meters":15600,"station_id":"ce4bhap2rcd13ifvqek0","pricing_plan_id":"cebpf4jnsgd1na2vs0mg"},{"bike_id":"5209af44-c299-4c9c-a289-2741267dbe7e","system_id":"levelo_inurba_marseille","lat":43.292644,"lon":5.384257,"is_reserved":false,"is_disabled":false,"rental_uris":{"android":"levelo://app?vid=5209af44-c299-4c9c-a289-2741267dbe7e","ios":"levelo://app?vid=5209af44-c299-4c9c-a289-2741267dbe7e"},"vehicle_type_id":"4","last_reported":1723918220,"current_range_meters":11600,"station_id":"ce4bh692rcd13ifvqea0","pricing_plan_id":"cebpf4jnsgd1na2vs0mg"},{"bike_id":"1dd23c7e-7fc1-4041-9026-702c41fbe5f5","system_id":"levelo_inurba_marseille","lat":43.292644,"lon":5.384257,"is_reserved":false,"is_disabled":false,"rental_uris":{"android":"levelo://app?vid=1dd23c7e-7fc1-4041-9026-702c41fbe5f5","ios":"levelo://app?vid=1dd23c7e-7fc1-4041-9026-702c41fbe5f5"},"vehicle_type_id":"4","last_reported":1723918220,"current_range_meters":18800,"station_id":"ce4bh692rcd13ifvqea0","pricing_plan_id":"cebpf4jnsgd1na2vs0mg"},{"bike_id":"ba050517-fb18-4715-bff4-4465c0c17812","system_id":"levelo_inurba_marseille","lat":43.292642,"lon":5.384254,"is_reserved":false,"is_disabled":false,"rental_uris":{"android":"levelo://app?vid=ba050517-fb18-4715-bff4-4465c0c17812","ios":"levelo://app?vid=ba050517-fb18-4715-bff4-4465c0c17812"},"vehicle_type_id":"4","last_reported":1723918220,"current_range_meters":27600,"station_id":"ce4bh692rcd13ifvqea0","pricing_plan_id":"cebpf4jnsgd1na2vs0mg"},{"bike_id":"35226314-6869-489e-82e1-5ef1eae7aafe","system_id":"levelo_inurba_marseille","lat":43.292642,"lon":5.384254,"is_reserved":false,"is_disabled":false,"rental_uris":{"android":"levelo://app?vid=35226314-6869-489e-82e1-5ef1eae7aafe","ios":"levelo://app?vid=35226314-6869-489e-82e1-5ef1eae7aafe"},"vehicle_type_id":"4","last_reported":1723918220,"current_range_meters":3600,"station_id":"ce4bh692rcd13ifvqea0","pricing_plan_id":"cebpf4jnsgd1na2vs0mg"},{"bike_id":"df1d3d14-65e2-4d0f-8e15-8d778cc9f969","system_id":"levelo_inurba_marseille","lat":43.292644,"lon":5.384257,"is_reserved":false,"is_disabled":false,"rental_uris":{"android":"levelo://app?vid=df1d3d14-65e2-4d0f-8e15-8d778cc9f969","ios":"levelo://app?vid=df1d3d14-65e2-4d0f-8e15-8d778cc9f969"},"vehicle_type_id":"4","last_reported":1723918220,"current_range_meters":10000,"station_id":"ce4bh692rcd13ifvqea0","pricing_plan_id":"cebpf4jnsgd1na2vs0mg"},{"bike_id":"4237106f-9e4a-4aae-bcd2-0fe16e7a588b","system_id":"levelo_inurba_marseille","lat":43.29264,"lon":5.38442,"is_reserved":false,"is_disabled":false,"rental_uris":{"android":"levelo://app?vid=4237106f-9e4a-4aae-bcd2-0fe16e7a588b","ios":"levelo://app?vid=4237106f-9e4a-4aae-bcd2-0fe16e7a588b"},"vehicle_type_id":"4","last_reported":1723918220,"current_range_meters":0,"station_id":"ce4bh692rcd13ifvqea0","pricing_plan_id":"cebpf4jnsgd1na2vs0mg"},{"bike_id":"fdaaf1a8-e762-4904-b81e-8695f5410be5","system_id":"levelo_inurba_marseille","lat":43.29265,"lon":5.38446,"is_reserved":false,"is_disabled":false,"rental_uris":{"android":"levelo://app?vid=fdaaf1a8-e762-4904-b81e-8695f5410be5","ios":"levelo://app?vid=fdaaf1a8-e762-4904-b81e-8695f5410be5"},"vehicle_type_id":"4","last_reported":1723918220,"current_range_meters":23200,"station_id":"ce4bh692rcd13ifvqea0","pricing_plan_id":"cebpf4jnsgd1na2vs0mg"},{"bike_id":"cfa386a0-b0fc-4a4d-b062-f7e982e822de","system_id":"levelo_inurba_marseille","lat":43.29258,"lon":5.3844,"is_reserved":false,"is_disabled":false,"rental_uris":{"android":"levelo://app?vid=cfa386a0-b0fc-4a4d-b062-f7e982e822de","ios":"levelo://app?vid=cfa386a0-b0fc-4a4d-b062-f7e982e822de"},"vehicle_type_id":"4","last_reported":1723918220,"current_range_meters":0,"station_id":"ce4bh692rcd13ifvqea0","pricing_plan_id":"cebpf4jnsgd1na2vs0mg"},{"bike_id":"fa8a7780-6fd6-4a74-9a1d-f41a6442dbde","system_id":"levelo_inurba_marseille","lat":43.292577,"lon":5.384447,"is_reserved":false,"is_disabled":false,"rental_uris":{"android":"levelo://app?vid=fa8a7780-6fd6-4a74-9a1d-f41a6442dbde","ios":"levelo://app?vid=fa8a7780-6fd6-4a74-9a1d-f41a6442dbde"},"vehicle_type_id":"4","last_reported":1723918220,"current_range_meters":0,"station_id":"ce4bh692rcd13ifvqea0","pricing_plan_id":"cebpf4jnsgd1na2vs0mg"},{"bike_id":"9f293ce3-61c5-4eba-b662-8727e5a772e7","system_id":"levelo_inurba_marseille","lat":43.2926,"lon":5.38452,"is_reserved":false,"is_disabled":false,"rental_uris":{"android":"levelo://app?vid=9f293ce3-61c5-4eba-b662-8727e5a772e7","ios":"levelo://app?vid=9f293ce3-61c5-4eba-b662-8727e5a772e7"},"vehicle_type_id":"4","last_reported":1723918220,"current_range_meters":0,"station_id":"ce4bh692rcd13ifvqea0","pricing_plan_id":"cebpf4jnsgd1na2vs0mg"},{"bike_id":"387552cd-241d-4e03-8207-86e5e983b862","system_id":"levelo_inurba_marseille","lat":43.30279,"lon":5.39687,"is_reserved":false,"is_disabled":false,"rental_uris":{"android":"levelo://app?vid=387552cd-241d-4e03-8207-86e5e983b862","ios":"levelo://app?vid=387552cd-241d-4e03-8207-86e5e983b862"},"vehicle_type_id":"4","last_reported":1723918220,"current_range_meters":0,"station_id":"","pricing_plan_id":"cebpf4jnsgd1na2vs0mg"},{"bike_id":"07130f9e-368f-431e-aa0f-b925cb03c620","system_id":"levelo_inurba_marseille","lat":43.290104,"lon":5.356111,"is_reserved":false,"is_disabled":false,"rental_uris":{"android":"levelo://app?vid=07130f9e-368f-431e-aa0f-b925cb03c620","ios":"levelo://app?vid=07130f9e-368f-431e-aa0f-b925cb03c620"},"vehicle_type_id":"4","last_reported":1723918220,"current_range_meters":24400,"station_id":"ce4bhb92rcd13ifvqen0","pricing_plan_id":"cebpf4jnsgd1na2vs0mg"},{"bike_id":"2b1b1f88-eea6-47f8-a66a-ac2306b60460","system_id":"levelo_inurba_marseille","lat":43.290103,"lon":5.356114,"is_reserved":false,"is_disabled":false,"rental_uris":{"android":"levelo://app?vid=2b1b1f88-eea6-47f8-a66a-ac2306b60460","ios":"levelo://app?vid=2b1b1f88-eea6-47f8-a66a-ac2306b60460"},"vehicle_type_id":"4","last_reported":1723918220,"current_range_meters":31200,"station_id":"ce4bhb92rcd13ifvqen0","pricing_plan_id":"cebpf4jnsgd1na2vs0mg"},{"bike_id":"f08bdd8e-eb04-4e4e-88fa-ade61ad306f4","system_id":"levelo_inurba_marseille","lat":43.29003,"lon":5.35614,"is_reserved":false,"is_disabled":false,"rental_uris":{"android":"levelo://app?vid=f08bdd8e-eb04-4e4e-88fa-ade61ad306f4","ios":"levelo://app?vid=f08bdd8e-eb04-4e4e-88fa-ade61ad306f4"},"vehicle_type_id":"4","last_reported":1723918220,"current_range_meters":30000,"station_id":"ce4bhb92rcd13ifvqen0","pricing_plan_id":"cebpf4jnsgd1na2vs0mg"},{"bike_id":"ff77c600-dfe1-44b6-924c-4987f199d614","system_id":"levelo_inurba_marseille","lat":43.295169,"lon":5.390426,"is_reserved":false,"is_disabled":false,"rental_uris":{"android":"levelo://app?vid=ff77c600-dfe1-44b6-924c-4987f199d614","ios":"levelo://app?vid=ff77c600-dfe1-44b6-924c-4987f199d614"},"vehicle_type_id":"4","last_reported":1723918220,"current_range_meters":4800,"station_id":"ce4bh3p2rcd13ifvqdp0","pricing_plan_id":"cebpf4jnsgd1na2vs0mg"},{"bike_id":"0357041d-809e-42b1-99f3-958a7817afde","system_id":"levelo_inurba_marseille","lat":43.295169,"lon":5.390426,"is_reserved":false,"is_disabled":false,"rental_uris":{"android":"levelo://app?vid=0357041d-809e-42b1-99f3-958a7817afde","ios":"levelo://app?vid=0357041d-809e-42b1-99f3-958a7817afde"},"vehicle_type_id":"4","last_reported":1723918220,"current_range_meters":20000,"station_id":"ce4bh3p2rcd13ifvqdp0","pricing_plan_id":"cebpf4jnsgd1na2vs0mg"},{"bike_id":"af0164fa-b2da-43ef-b9a0-6dd20e28806c","system_id":"levelo_inurba_marseille","lat":43.295169,"lon":5.390426,"is_reserved":false,"is_disabled":false,"rental_uris":{"android":"levelo://app?vid=af0164fa-b2da-43ef-b9a0-6dd20e28806c","ios":"levelo://app?vid=af0164fa-b2da-43ef-b9a0-6dd20e28806c"},"vehicle_type_id":"4","last_reported":1723918220,"current_range_meters":22400,"station_id":"ce4bh3p2rcd13ifvqdp0","pricing_plan_id":"cebpf4jnsgd1na2vs0mg"},{"bike_id":"7ac86830-7290-41da-b65f-29cdebbe10d5","system_id":"levelo_inurba_marseille","lat":43.297815,"lon":5.393548,"is_reserved":false,"is_disabled":false,"rental_uris":{"android":"levelo://app?vid=7ac86830-7290-41da-b65f-29cdebbe10d5","ios":"levelo://app?vid=7ac86830-7290-41da-b65f-29cdebbe10d5"},"vehicle_type_id":"4","last_reported":1723918220,"current_range_meters":17600,"station_id":"chh1huq6cuj3fo74tm60","pricing_plan_id":"cebpf4jnsgd1na2vs0mg"},