{"last_updated":1727982448,"ttl":60,"version":"2.2","data":{"bikes":[{"bike_id":"c6996b64-965b-461b-b9f9-b28df4c50706","system_id":"levelo_inurba_marseille","lat":43.25112,"lon":5.40322,"is_reserved":false,"is_disabled":false,"rental_uris":{"android":"levelo://app?vid=c6996b64-965b-461b-b9f9-b28df4c50706","ios":"levelo://app?vid=c6996b64-965b-461b-b9f9-b28df4c50706"},"vehicle_type_id":"4","last_reported":1727982448,"current_range_meters":5600,"station_id":"ce4bhlh2rcd13ifvqgig","pricing_plan_id":"cebpf4jnsgd1na2vs0mg"},{"bike_id":"18588757-cdc7-4164-b275-329b63991fa8","system_id":"levelo_inurba_marseille","lat":43.28614,"lon":5.35106,"is_reserved":false,"is_disabled":false,"rental_uris":{"android":"levelo://app?vid=18588757-cdc7-4164-b275-329b63991fa8","ios":"levelo://app?vid=18588757-cdc7-4164-b275-329b63991fa8"},"vehicle_type_id":"4","last_reported":1727982448,"current_range_meters":28400,"station_id":"ce4bhch2rcd13ifvqeug","pricing_plan_id":"cebpf4jnsgd1na2vs0mg"},{"bike_id":"b58e08fd-b14d-4d5a-ba63-43827f1088a5","system_id":"levelo_inurba_marseille","lat":43.29186,"lon":5.35811,"is_reserved":false,"is_disabled":false,"rental_uris":{"android":"levelo://app?vid=b58e08fd-b14d-4d5a-ba63-43827f1088a5","ios":"levelo://app?vid=b58e08fd-b14d-4d5a-ba63-43827f1088a5"},"vehicle_type_id":"4","last_reported":1727982448,"current_range_meters":16800,"station_id":"ce4bhb12rcd13ifvqel0","pricing_plan_id":"cebpf4jnsgd1na2vs0mg"},{"bike_id":"2c1d28fc-a845-4b20-a246-11f8885282c0","system_id":"levelo_inurba_marseille","lat":43.28027,"lon":5.3696,"is_reserved":false,"is_disabled":false,"rental_uris":{"android":"levelo://app?vid=2c1d28fc-a845-4b20-a246-11f8885282c0","ios":"levelo://app?vid=2c1d28fc-a845-4b20-a246-11f8885282c0"},"vehicle_type_id":"4","last_reported":1727982448,"current_range_meters":28800,"station_id":"ce4bha12rcd13ifvqef0","pricing_plan_id":"cebpf4jnsgd1na2vs0mg"},{"bike_id":"6734f24d-564f-4672-b8e3-5fa66202385f","system_id":"levelo_inurba_marseille","lat":43.30552,"lon":5.36549,"is_reserved":false,"is_disabled":false,"rental_uris":{"android":"levelo://app?vid=6734f24d-564f-4672-b8e3-5fa66202385f","ios":"levelo://app?vid=6734f24d-564f-4672-b8e3-5fa66202385f"},"vehicle_type_id":"4","last_reported":1727982448,"current_range_meters":22400,"station_id":"ce4bgs12rcd13ifvqcag","pricing_plan_id":"cebpf4jnsgd1na2vs0mg"},{"bike_id":"9e5c482a-4703-4c4a-9de4-4874c7290a6d","system_id":"levelo_inurba_marseille","lat":43.27453,"lon":5.39405,"is_reserved":false,"is_disabled":false,"rental_uris":{"android":"levelo://app?vid=9e5c482a-4703-4c4a-9de4-4874c7290a6d","ios":"levelo://app?vid=9e5c482a-4703-4c4a-9de4-4874c7290a6d"},"vehicle_type_id":"4","last_reported":1727982448,"current_range_meters":36800,"station_id":"ce4bhdp2rcd13ifvqf20","pricing_plan_id":"cebpf4jnsgd1na2vs0mg"},{"bike_id":"7e991262-ecd3-478d-92a9-3494d37857e8","system_id":"levelo_inurba_marseille","lat":43.3169,"lon":5.40476,"is_reserved":false,"is_disabled":false,"rental_uris":{"android":"levelo://app?vid=7e991262-ecd3-478d-92a9-3494d37857e8","ios":"levelo://app?vid=7e991262-ecd3-478d-92a9-3494d37857e8"},"vehicle_type_id":"4","last_reported":1727982448,"current_range_meters":20800,"station_id":"ce4bh012rcd13ifvqd00","pricing_plan_id":"cebpf4jnsgd1na2vs0mg"},{"bike_id":"dfa316ed-31fe-4eb7-ae98-3312a562d760","system_id":"levelo_inurba_marseille","lat":43.27195,"lon":5.40991,"is_reserved":false,"is_disabled":false,"rental_uris":{"android":"levelo://app?vid=dfa316ed-31fe-4eb7-ae98-3312a562d760","ios":"levelo://app?vid=dfa316ed-31fe-4eb7-ae98-3312a562d760"},"vehicle_type_id":"4","last_reported":1727982448,"current_range_meters":34800,"station_id":"ce4bhl12rcd13ifvqgf0","pricing_plan_id":"cebpf4jnsgd1na2vs0mg"},{"bike_id":"5d7d835a-280b-4851-9b58-86c1569c0c4c","system_id":"levelo_inurba_marseille","lat":43.33017,"lon":5.39044,"is_reserved":false,"is_disabled":false,"rental_uris":{"android":"levelo://app?vid=5d7d835a-280b-4851-9b58-86c1569c0c4c","ios":"levelo://app?vid=5d7d835a-280b-4851-9b58-86c1569c0c4c"},"vehicle_type_id":"4","last_reported":1727982448,"current_range_meters":34000,"station_id":"ce4bhr92rcd13ifvqhrg","pricing_plan_id":"cebpf4jnsgd1na2vs0mg"},{"bike_id":"756088e4-bd38-4606-aa6f-cbbf1461af00","system_id":"levelo_inurba_marseille","lat":43.229333,"lon":5.353853,"is_reserved":false,"is_disabled":false,"rental_uris":{"android":"levelo://app?vid=756088e4-bd38-4606-aa6f-cbbf1461af00","ios":"levelo://app?vid=756088e4-bd38-4606-aa6f-cbbf1461af00"},"vehicle_type_id":"4","last_reported":1727982448,"current_range_meters":17200,"station_id":"cpo3532slgdg3j2ikp40","pricing_plan_id":"cebpf4jnsgd1na2vs0mg"},{"bike_id":"2f626659-60bb-4115-9ff0-133d8629f7ac","system_id":"levelo_inurba_marseille","lat":43.31338,"lon":5.39686,"is_reserved":false,"is_disabled":false,"rental_uris":{"android":"levelo://app?vid=2f626659-60bb-4115-9ff0-133d8629f7ac","ios":"levelo://app?vid=2f626659-60bb-4115-9ff0-133d8629f7ac"},"vehicle_type_id":"4","last_reported":1727982448,"current_range_meters":37600,"station_id":"ce4bgvp2rcd13ifvqcu0","pricing_plan_id":"cebpf4jnsgd1na2vs0mg"},{"bike_id":"a024e5fb-742d-4eda-b747-29e2047d1267","system_id":"levelo_inurba_marseille","lat":43.29531,"lon":5.38545,"is_reserved":false,"is_disabled":false,"rental_uris":{"android":"levelo://app?vid=a024e5fb-742d-4eda-b747-29e2047d1267","ios":"levelo://app?vid=a024e5fb-742d-4eda-b747-29e2047d1267"},"vehicle_type_id":"4","last_reported":1727982448,"current_range_meters":26800,"station_id":"ce4bgih2rcd13ifvqba0","pricing_plan_id":"cebpf4jnsgd1na2vs0mg"},{"bike_id":"8827a071-839d-42c2-9e88-9fef02346b75","system_id":"levelo_inurba_marseille","lat":43.31366,"lon":5.38495,"is_reserved":false,"is_disabled":false,"rental_uris":{"android":"levelo://app?vid=8827a071-839d-42c2-9e88-9fef02346b75","ios":"levelo://app?vid=8827a071-839d-42c2-9e88-9fef02346b75"},"vehicle_type_id":"4","last_reported":1727982448,"current_range_meters":10000,"station_id":"ce4bgt92rcd13ifvqcf0","pricing_plan_id":"cebpf4jnsgd1na2vs0mg"},{"bike_id":"bc41810d-3fc6-4e9c-bcc1-3b1d7bce3ce2","system_id":"levelo_inurba_marseille","lat":43.23164,"lon":5.39993,"is_reserved":false,"is_disabled":false,"rental_uris":{"android":"levelo://app?vid=bc41810d-3fc6-4e9c-bcc1-3b1d7bce3ce2","ios":"levelo://app?vid=bc41810d-3fc6-4e9c-bcc1-3b1d7bce3ce2"},"vehicle_type_id":"4","last_reported":1727982448,"current_range_meters":23200,"station_id":"ce4bhn12rcd13ifvqgqg","pricing_plan_id":"cebpf4jnsgd1na2vs0mg"},{"bike_id":"48831eeb-180c-494c-819b-ab6fbaf4655d","system_id":"levelo_inurba_marseille","lat":43.25498,"lon":5.37652,"is_reserved":false,"is_disabled":false,"rental_uris":{"android":"levelo://app?vid=48831eeb-180c-494c-819b-ab6fbaf4655d","ios":"levelo://app?vid=48831eeb-180c-494c-819b-ab6fbaf4655d"},"vehicle_type_id":"4","last_reported":1727982448,"current_range_meters":38800,"station_id":"ce4bhh12rcd13ifvqff0","pricing_plan_id":"cebpf4jnsgd1na2vs0mg"},{"bike_id":"b3a50a9e-20e5-48ca-909a-8c12c73a64da","system_id":"levelo_inurba_marseille","lat":43.3094,"lon":5.40144,"is_reserved":false,"is_disabled":false,"rental_uris":{"android":"levelo://app?vid=b3a50a9e-20e5-48ca-909a-8c12c73a64da","ios":"levelo://app?vid=b3a50a9e-20e5-48ca-909a-8c12c73a64da"},"vehicle_type_id":"4","last_reported":1727982448,"current_range_meters":22800,"station_id":"ce4bgvp2rcd13ifvqct0","pricing_plan_id":"cebpf4jnsgd1na2vs0mg"},{"bike_id":"7abb0b5f-6de5-47f9-9645-b32e1c275d22","system_id":"levelo_inurba_marseille","lat":43.31763,"lon":5.39017,"is_reserved":false,"is_disabled":false,"rental_uris":{"android":"levelo://app?vid=7abb0b5f-6de5-47f9-9645-b32e1c275d22","ios":"levelo://app?vid=7abb0b5f-6de5-47f9-9645-b32e1c275d22"},"vehicle_type_id":"4","last_reported":1727982448,"current_range_meters":37600,"station_id":"ce4bhqp2rcd13ifvqhng","pricing_plan_id":"cebpf4jnsgd1na2vs0mg"},{"bike_id":"4ff2a284-8822-4e01-822b-d3e2ed7a42f8","system_id":"levelo_inurba_marseille","lat":43.29179,"lon":5.35801,"is_reserved":false,"is_disabled":false,"rental_uris":{"android":"levelo://app?vid=4ff2a284-8822-4e01-822b-d3e2ed7a42f8","ios":"levelo://app?vid=4ff2a284-8822-4e01-822b-d3e2ed7a42f8"},"vehicle_type_id":"4","last_reported":1727982448,"current_range_meters":22400,"station_id":"ce4bhb12rcd13ifvqel0","pricing_plan_id":"cebpf4jnsgd1na2vs0mg"},{"bike_id":"55a6abf8-fc19-4ceb-845e-cabd97c4f3f1","system_id":"levelo_inurba_marseille","lat":43.28151,"lon":5.42649,"is_reserved":false,"is_disabled":false,"rental_uris":{"android":"levelo://app?vid=55a6abf8-fc19-4ceb-845e-cabd97c4f3f1","ios":"levelo://app?vid=55a6abf8-fc19-4ceb-845e-cabd97c4f3f1"},"vehicle_type_id":"4","last_reported":1727982448,"current_range_meters":8800,"station_id":"ce4bhnh2rcd13ifvqgug","pricing_plan_id":"cebpf4jnsgd1na2vs0mg"},{"bike_id":"f5c6d1f2-d541-4c42-96cb-c20cc20561b9","system_id":"levelo_inurba_marseille","lat":43.3032,"lon":5.40437,"is_reserved":false,"is_disabled":false,"rental_uris":{"android":"levelo://app?vid=f5c6d1f2-d541-4c42-96cb-c20cc20561b9","ios":"levelo://app?vid=f5c6d1f2-d541-4c42-96cb-c20cc20561b9"},"vehicle_type_id":"4","last_reported":1727982448,"current_range_meters":6800,"station_id":"ce4bh012rcd13ifvqd10","pricing_plan_id":"cebpf4jnsgd1na2vs0mg"},{"bike_id":"8ce16fa6-a881-44e1-8b19-0c677e6ff7ba","system_id":"levelo_inurba_marseille","lat":43.29371,"lon":5.37851,"is_reserved":false,"is_disabled":false,"rental_uris":{"android":"levelo://app?vid=8ce16fa6-a881-44e1-8b19-0c677e6ff7ba","ios":"levelo://app?vid=8ce16fa6-a881-44e1-8b19-0c677e6ff7ba"},"vehicle_type_id":"4","last_reported":1727982448,"current_range_meters":27600,"station_id":"ce4bgjh2rcd13ifvqbf0","pricing_plan_id":"cebpf4jnsgd1na2vs0mg"},{"bike_id":"2d7c61dc-49f7-4f04-bd0b-99a6d3f0baff","system_id":"levelo_inurba_marseille","lat":43.29529,"lon":5.37513,"is_reserved":false,"is_disabled":false,"rental_uris":{"android":"levelo://app?vid=2d7c61dc-49f7-4f04-bd0b-99a6d3f0baff","ios":"levelo://app?vid=2d7c61dc-49f7-4f04-bd0b-99a6d3f0baff"},"vehicle_type_id":"4","last_reported":1727982448,"current_range_meters":38800,"station_id":"ce4bgkp2rcd13ifvqbmg","pricing_plan_id":"cebpf4jnsgd1na2vs0mg"},{"bike_id":"1287138e-fa6c-436c-9adf-a4c35ff244bc","system_id":"levelo_inurba_marseille","lat":43.31756,"lon":5.39025,"is_reserved":false,"is_disabled":false,"rental_uris":{"android":"levelo://app?vid=1287138e-fa6c-436c-9adf-a4c35ff244bc","ios":"levelo://app?vid=1287138e-fa6c-436c-9adf-a4c35ff244bc"},"vehicle_type_id":"4","last_reported":1727982448,"current_range_meters":18000,"station_id":"ce4bhqp2rcd13ifvqhng","pricing_plan_id":"cebpf4jnsgd1na2vs0mg"},{"bike_id":"a99e0887-fb66-4880-8761-33fdb36b8615","system_id":"levelo_inurba_marseille","lat":43.23189,"lon":5.39994,"is_reserved":false,"is_disabled":false,"rental_uris":{"android":"levelo://app?vid=a99e0887-fb66-4880-8761-33fdb36b8615","ios":"levelo://app?vid=a99e0887-fb66-4880-8761-33fdb36b8615"},"vehicle_type_id":"4","last_reported":1727982448,"current_range_meters":15200,"station_id":"ce4bhn12rcd13ifvqgqg","pricing_plan_id":"cebpf4jnsgd1na2vs0mg"},{"bike_id":"44706b91-c994-46fb-8a10-57a38cd925c7","system_id":"levelo_inurba_marseille","lat":43.2732,"lon":5.39079,"is_reserved":false,"is_disabled":false,"rental_uris":{"android":"levelo://app?vid=44706b91-c994-46fb-8a10-57a38cd925c7","ios":"levelo://app?vid=44706b91-c994-46fb-8a10-57a38cd925c7"},"vehicle_type_id":"4","last_reported":1727982448,"current_range_meters":6400,"station_id":"ce4bhgp2rcd13ifvqfe0","pricing_plan_id":"cebpf4jnsgd1na2vs0mg"},{"bike_id":"fa661653-cac8-4768-94d5-0f86eb27c03e","system_id":"levelo_inurba_marseille","lat":43.31717,"lon":5.43708,"is_reserved":false,"is_disabled":false,"rental_uris":{"android":"levelo://app?vid=fa661653-cac8-4768-94d5-0f86eb27c03e","ios":"levelo://app?vid=fa661653-cac8-4768-94d5-0f86eb27c03e"},"vehicle_type_id":"4","last_reported":1727982448,"current_range_meters":27600,"station_id":"ce4bhp92rcd13ifvqhcg","pricing_plan_id":"cebpf4jnsgd1na2vs0mg"},{"bike_id":"f53f87bb-33a8-4242-bca3-4b0f24f94935","system_id":"levelo_inurba_marseille","lat":43.29782,"lon":5.39355,"is_reserved":false,"is_disabled":false,"rental_uris":{"android":"levelo://app?vid=f53f87bb-33a8-4242-bca3-4b0f24f94935","ios":"levelo://app?vid=f53f87bb-33a8-4242-bca3-4b0f24f94935"},"vehicle_type_id":"4","last_reported":1727982448,"current_range_meters":38800,"station_id":"chh1huq6cuj3fo74tm60","pricing_plan_id":"cebpf4jnsgd1na2vs0mg"},{"bike_id":"4137efb2-d348-4759-9688-06bf62825f11","system_id":"levelo_inurba_marseille","lat":43.30331,"lon":5.40452,"is_reserved":false,"is_disabled":false,"rental_uris":{"android":"levelo://app?vid=4137efb2-d348-4759-9688-06bf62825f11","ios":"levelo://app?vid=4137efb2-d348-4759-9688-06bf62825f11"},"vehicle_type_id":"4","last_reported":1727982448,"current_range_meters":38800,"station_id":"ce4bh012rcd13ifvqd10","pricing_plan_id":"cebpf4jnsgd1na2vs0mg"},{"bike_id":"47f2e32c-9efd-4038-b32b-18567d6b1f6d","system_id":"levelo_inurba_marseille","lat":43.29262,"lon":5.38445,"is_reserved":false,"is_disabled":false,"rental_uris":{"android":"levelo://app?vid=47f2e32c-9efd-4038-b32b-18567d6b1f6d","ios":"levelo://app?vid=47f2e32c-9efd-4038-b32b-18567d6b1f6d"},"vehicle_type_id":"4","last_reported":1727982448,"current_range_meters":10800,"station_id":"ce4bh692rcd13ifvqea0","pricing_plan_id":"cebpf4jnsgd1na2vs0mg"},{"bike_id":"f3ca8eae-8524-453e-a3ef-ef65e37e2e78","system_id":"levelo_inurba_marseille","lat":43.24671,"lon":5.38172,"is_reserved":false,"is_disabled":false,"rental_uris":{"android":"levelo://app?vid=f3ca8eae-8524-453e-a3ef-ef65e37e2e78","ios":"levelo://app?vid=f3ca8eae-8524-453e-a3ef-ef65e37e2e78"},"vehicle_type_id":"4","last_reported":1727982448,"current_range_meters":23200,"station_id":"ce4bhih2rcd13ifvqfr0","pricing_plan_id":"cebpf4jnsgd1na2vs0mg"},{"bike_id":"c36f12fa-ae32-4b0d-b404-78b57e4f78fe","system_id":"levelo_inurba_marseille","lat":43.29894,"lon":5.43673,"is_reserved":false,"is_disabled":false,"rental_uris":{"android":"levelo://app?vid=c36f12fa-ae32-4b0d-b404-78b57e4f78fe","ios":"levelo://app?vid=c36f12fa-ae32-4b0d-b404-78b57e4f78fe"},"vehicle_type_id":"4","last_reported":1727982448,"current_range_meters":35200,"station_id":"ce4bhpp2rcd13ifvqhfg","pricing_plan_id":"cebpf4jnsgd1na2vs0mg"},{"bike_id":"a9475525-8408-4d92-98e2-064cd37b5254","system_id":"levelo_inurba_marseille","lat":43.29008,"lon":5.35608,"is_reserved":false,"is_disabled":false,"rental_uris":{"android":"levelo://app?vid=a9475525-8408-4d92-98e2-064cd37b5254","ios":"levelo://app?vid=a9475525-8408-4d92-98e2-064cd37b5254"},"vehicle_type_id":"4","last_reported":1727982448,"current_range_meters":19600,"station_id":"ce4bhb92rcd13ifvqen0","pricing_plan_id":"cebpf4jnsgd1na2vs0mg"},{"bike_id":"bf02e316-b964-4234-b7c1-343cd92831c8","system_id":"levelo_inurba_marseille","lat":43.28152,"lon":5.42635,"is_reserved":false,"is_disabled":false,"rental_uris":{"android":"levelo://app?vid=bf02e316-b964-4234-b7c1-343cd92831c8","ios":"levelo://app?vid=bf02e316-b964-4234-b7c1-343cd92831c8"},"vehicle_type_id":"4","last_reported":1727982448,"current_range_meters":8400,"station_id":"ce4bhnh2rcd13ifvqgug","pricing_plan_id":"cebpf4jnsgd1na2vs0mg"},{"bike_id":"75ae865b-18dc-4981-b8a0-9c762a1bfa9c","system_id":"levelo_inurba_marseille","lat":43.33022,"lon":5.39045,"is_reserved":false,"is_disabled":false,"rental_uris":{"android":"levelo://app?vid=75ae865b-18dc-4981-b8a0-9c762a1bfa9c","ios":"levelo://app?vid=75ae865b-18dc-4981-b8a0-9c762a1bfa9c"},"vehicle_type_id":"4","last_reported":1727982448,"current_range_meters":4400,"station_id":"ce4bhr92rcd13ifvqhrg","pricing_plan_id":"cebpf4jnsgd1na2vs0mg"},{"bike_id":"3fe37da4-ea3d-4957-9fb9-6b9c0a227d7d","system_id":"levelo_inurba_marseille","lat":43.27939,"lon":5.41054,"is_reserved":false,"is_disabled":false,"rental_uris":{"android":"levelo://app?vid=3fe37da4-ea3d-4957-9fb9-6b9c0a227d7d","ios":"levelo://app?vid=3fe37da4-ea3d-4957-9fb9-6b9c0a227d7d"},"vehicle_type_id":"4","last_reported":1727982448,"current_range_meters":22800,"station_id":"ce4bhnp2rcd13ifvqh0g","pricing_plan_id":"cebpf4jnsgd1na2vs0mg"},{"bike_id":"067137d1-b01e-4db3-8afa-dbe448ff1ea0","system_id":"levelo_inurba_marseille","lat":43.28614,"lon":5.35108,"is_reserved":false,"is_disabled":false,"rental_uris":{"android":"levelo://app?vid=067137d1-b01e-4db3-8afa-dbe448ff1ea0","ios":"levelo://app?vid=067137d1-b01e-4db3-8afa-dbe448ff1ea0"},"vehicle_type_id":"4","last_reported":1727982448,"current_range_meters":30000,"station_id":"ce4bhch2rcd13ifvqeug","pricing_plan_id":"cebpf4jnsgd1na2vs0mg"},{"bike_id":"e6b2df58-b4a0-4aec-933d-a62e42f34d34","system_id":"levelo_inurba_marseille","lat":43.33723,"lon":5.39203,"is_reserved":false,"is_disabled":false,"rental_uris":{"android":"levelo://app?vid=e6b2df58-b4a0-4aec-933d-a62e42f34d34","ios":"levelo://app?vid=e6b2df58-b4a0-4aec-933d-a62e42f34d34"},"vehicle_type_id":"4","last_reported":1727982448,"current_range_meters":24800,"station_id":"ce4bhr92rcd13ifvqhsg","pricing_plan_id":"cebpf4jnsgd1na2vs0mg"},{"bike_id":"aefabde4-9352-452e-b64e-e46ba1f04720","system_id":"levelo_inurba_marseille","lat":43.29787,"lon":5.37107,"is_reserved":false,"is_disabled":false,"rental_uris":{"android":"levelo://app?vid=aefabde4-9352-452e-b64e-e46ba1f04720","ios":"levelo://app?vid=aefabde4-9352-452e-b64e-e46ba1f04720"},"vehicle_type_id":"4","last_reported":1727982448,"current_range_meters":7200,"station_id":"ce4bgop2rcd13ifvqc1g","pricing_plan_id":"cebpf4jnsgd1na2vs0mg"},{"bike_id":"b1caede3-9948-4c10-a88e-31db67871077","system_id":"levelo_inurba_marseille","lat":43.31357,"lon":5.38501,"is_reserved":false,"is_disabled":false,"rental_uris":{"android":"levelo://app?vid=b1caede3-9948-4c10-a88e-31db67871077","ios":"levelo://app?vid=b1caede3-9948-4c10-a88e-31db67871077"},"vehicle_type_id":"4","last_reported":1727982448,"current_range_meters":26800,"station_id":"ce4bgt92rcd13ifvqcf0","pricing_plan_id":"cebpf4jnsgd1na2vs0mg"},{"bike_id":"eb43ae52-3f5b-4a7e-9fa5-6a9c95a4cebb","system_id":"levelo_inurba_marseille","lat":43.24514,"lon":5.37352,"is_reserved":false,"is_disabled":false,"rental_uris":{"android":"levelo://app?vid=eb43ae52-3f5b-4a7e-9fa5-6a9c95a4cebb","ios":"levelo://app?vid=eb43ae52-3f5b-4a7e-9fa5-6a9c95a4cebb"},"vehicle_type_id":"4","last_reported":1727982448,"current_range_meters":20000,"station_id":"","pricing_plan_id":"cebpf4jnsgd1na2vs0mg"},{"bike_id":"56287f66-1668-4a5d-b3e1-733e18339fb8","system_id":"levelo_inurba_marseille","lat":43.32365,"lon":5.38886,"is_reserved":false,"is_disabled":false,"rental_uris":{"android":"levelo://app?vid=56287f66-1668-4a5d-b3e1-733e18339fb8","ios":"levelo://app?vid=56287f66-1668-4a5d-b3e1-733e18339fb8"},"vehicle_type_id":"4","last_reported":1727982448,"current_range_meters":28400,"station_id":"ce4bhqp2rcd13ifvqhog","pricing_plan_id":"cebpf4jnsgd1na2vs0mg"},{"bike_id":"c83e75ef-abe5-432c-94a5-9a1ea9a02cdf","system_id":"levelo_inurba_marseille","lat":43.284424,"lon":5.367828,"is_reserved":false,"is_disabled":false,"rental_uris":{"android":"levelo://app?vid=c83e75ef-abe5-432c-94a5-9a1ea9a02cdf","ios":"levelo://app?vid=c83e75ef-abe5-432c-94a5-9a1ea9a02cdf"},"vehicle_type_id":"4","last_reported":1727982448,"current_range_meters":2800,"station_id":"","pricing_plan_id":"cebpf4jnsgd1na2vs0mg"},{"bike_id":"b73551f1-4737-42f3-8efd-5f2fca843848","system_id":"levelo_inurba_marseille","lat":43.29894,"lon":5.43681,"is_reserved":false,"is_disabled":false,"rental_uris":{"android":"levelo://app?vid=b73551f1-4737-42f3-8efd-5f2fca843848","ios":"levelo://app?vid=b73551f1-4737-42f3-8efd-5f2fca843848"},"vehicle_type_id":"4","last_reported":1727982448,"current_range_meters":22400,"station_id":"ce4bhpp2rcd13ifvqhfg","pricing_plan_id":"cebpf4jnsgd1na2vs0mg"},{"bike_id":"98bbf52a-bb52-4167-ad98-a96d3383fb84","system_id":"levelo_inurba_marseille","lat":43.26061,"lon":5.39399,"is_reserved":false,"is_disabled":false,"rental_uris":{"android":"levelo://app?vid=98bbf52a-bb52-4167-ad98-a96d3383fb84","ios":"levelo://app?vid=98bbf52a-bb52-4167-ad98-a96d3383fb84"},"vehicle_type_id":"4","last_reported":1727982448,"current_range_meters":2000,"station_id":"ce4bhh92rcd13ifvqfj0","pricing_plan_id":"cebpf4jnsgd1na2vs0mg"},{"bike_id":"03ad1baf-eae9-4286-9758-a0f11ca86ec8","system_id":"levelo_inurba_marseille","lat":43.28409,"lon":5.37511,"is_reserved":false,"is_disabled":false,"rental_uris":{"android":"levelo://app?vid=03ad1baf-eae9-4286-9758-a0f11ca86ec8","ios":"levelo://app?vid=03ad1baf-eae9-4286-9758-a0f11ca86ec8"},"vehicle_type_id":"4","last_reported":1727982448,"current_range_meters":38800,"station_id":"ce4bh412rcd13ifvqds0","pricing_plan_id":"cebpf4jnsgd1na2vs0mg"},{"bike_id":"63bae4f0-02bd-4bdc-902b-51044b09603f","system_id":"levelo_inurba_marseille","lat":43.27612,"lon":5.36113,"is_reserved":false,"is_disabled":false,"rental_uris":{"android":"levelo://app?vid=63bae4f0-02bd-4bdc-902b-51044b09603f","ios":"levelo://app?vid=63bae4f0-02bd-4bdc-902b-51044b09603f"},"vehicle_type_id":"4","last_reported":1727982448,"current_range_meters":38400,"station_id":"ce4bgj92rcd13ifvqbe0","pricing_plan_id":"cebpf4jnsgd1na2vs0mg"},{"bike_id":"319101bb-52c1-491d-bcc0-5a3f62ef9dac","system_id":"levelo_inurba_marseille","lat":43.30782,"lon":5.37651,"is_reserved":false,"is_disabled":false,"rental_uris":{"android":"levelo://app?vid=319101bb-52c1-491d-bcc0-5a3f62ef9dac","ios":"levelo://app?vid=319101bb-52c1-491d-bcc0-5a3f62ef9dac"},"vehicle_type_id":"4","last_reported":1727982448,"current_range_meters":14400,"station_id":"ce4bgv92rcd13ifvqcq0","pricing_plan_id":"cebpf4jnsgd1na2vs0mg"},{"bike_id":"a0feab16-2f1f-4214-9058-21d8b9b7774f","system_id":"levelo_inurba_marseille","lat":43.27994,"lon":5.40969,"is_reserved":false,"is_disabled":false,"rental_uris":{"android":"levelo://app?vid=a0feab16-2f1f-4214-9058-21d8b9b7774f","ios":"levelo://app?vid=a0feab16-2f1f-4214-9058-21d8b9b7774f"},"vehicle_type_id":"4","last_reported":1727982448,"current_range_meters":13600,"station_id":"","pricing_plan_id":"cebpf4jnsgd1na2vs0mg"},{"bike_id":"6323c3ea-75d7-47ca-8873-1f720d264584","system_id":"levelo_inurba_marseille","lat":43.25498,"lon":5.37653,"is_reserved":false,"is_disabled":false,"rental_uris":{"android":"levelo://app?vid=6323c3ea-75d7-47ca-8873-1f720d264584","ios":"levelo://app?vid=6323c3ea-75d7-47ca-8873-1f720d264584"},"vehicle_type_id":"4","last_reported":1727982448,"current_range_meters":38800,"station_id":"ce4bhh12rcd13ifvqff0","pricing_plan_id":"cebpf4jnsgd1na2vs0mg"},{"bike_id":"0d38caac-4e1b-4bc6-8634-fba8549655ca","system_id":"levelo_inurba_marseille","lat":43.3211,"lon":5.36773,"is_reserved":false,"is_disabled":false,"rental_uris":{"android":"levelo://app?vid=0d38caac-4e1b-4bc6-8634-fba8549655ca","ios":"levelo://app?vid=0d38caac-4e1b-4bc6-8634-fba8549655ca"},"vehicle_type_id":"4","last_reported":1727982448,"current_range_meters":35200,"station_id":"ce4bhrh2rcd13ifvqhug","pricing_plan_id":"cebpf4jnsgd1na2vs0mg"},{"bike_id":"7b15040c-0c7a-4b6f-b5a0-b0afdab253af","system_id":"levelo_inurba_marseille","lat":43.30299,"lon":5.39208,"is_reserved":false,"is_disabled":false,"rental_uris":{"android":"levelo://app?vid=7b15040c-0c7a-4b6f-b5a0-b0afdab253af","ios":"levelo://app?vid=7b15040c-0c7a-4b6f-b5a0-b0afdab253af"},"vehicle_type_id":"4","last_reported":1727982448,"current_range_meters":3200,"station_id":"ce4bgkh2rcd13ifvqbk0","pricing_plan_id":"cebpf4jnsgd1na2vs0mg"},{"bike_id":"6877c40d-c989-47f8-9154-4a8a3ed33de0","system_id":"levelo_inurba_marseille","lat":43.27927,"lon":5.39594,"is_reserved":false,"is_disabled":false,"rental_uris":{"android":"levelo://app?vid=6877c40d-c989-47f8-9154-4a8a3ed33de0","ios":"levelo://app?vid=6877c40d-c989-47f8-9154-4a8a3ed33de0"},"vehicle_type_id":"4","last_reported":1727982448,"current_range_meters":31200,"station_id":"ce4bhf92rcd13ifvqf40","pricing_plan_id":"cebpf4jnsgd1na2vs0mg"},{"bike_id":"f6139423-9a75-4754-aa4b-50bb61259845","system_id":"levelo_inurba_marseille","lat":43.31695,"lon":5.40488,"is_reserved":false,"is_disabled":false,"rental_uris":{"android":"levelo://app?vid=f6139423-9a75-4754-aa4b-50bb61259845","ios":"levelo://app?vid=f6139423-9a75-4754-aa4b-50bb61259845"},"vehicle_type_id":"4","last_reported":1727982448,"current_range_meters":28400,"station_id":"ce4bh012rcd13ifvqd00","pricing_plan_id":"cebpf4jnsgd1na2vs0mg"},{"bike_id":"499cb64c-6fb8-4407-89d8-a118e3c5c28d","system_id":"levelo_inurba_marseille","lat":43.28002,"lon":5.40004,"is_reserved":false,"is_disabled":false,"rental_uris":{"android":"levelo://app?vid=499cb64c-6fb8-4407-89d8-a118e3c5c28d","ios":"levelo://app?vid=499cb64c-6fb8-4407-89d8-a118e3c5c28d"},"vehicle_type_id":"4","last_reported":1727982448,"current_range_meters":18800,"station_id":"ce4bho92rcd13ifvqh4g","pricing_plan_id":"cebpf4jnsgd1na2vs0mg"},{"bike_id":"ad9d6e94-a639-469e-9892-0c7fed511f97","system_id":"levelo_inurba_marseille","lat":43.26554,"lon":5.37287,"is_reserved":false,"is_disabled":false,"rental_uris":{"android":"levelo://app?vid=ad9d6e94-a639-469e-9892-0c7fed511f97","ios":"levelo://app?vid=ad9d6e94-a639-469e-9892-0c7fed511f97"},"vehicle_type_id":"4","last_reported":1727982448,"current_range_meters":19200,"station_id":"ce4bhg12rcd13ifvqf70","pricing_plan_id":"cebpf4jnsgd1na2vs0mg"},{"bike_id":"0917bbb5-c505-43bb-9fbe-f43e97893ce2","system_id":"levelo_inurba_marseille","lat":43.32185,"lon":5.38933,"is_reserved":false,"is_disabled":false,"rental_uris":{"android":"levelo://app?vid=0917bbb5-c505-43bb-9fbe-f43e97893ce2","ios":"levelo://app?vid=0917bbb5-c505-43bb-9fbe-f43e97893ce2"},"vehicle_type_id":"4","last_reported":1727982448,"current_range_meters":28800,"station_id":"ce4bgt92rcd13ifvqcf0","pricing_plan_id":"cebpf4jnsgd1na2vs0mg"},{"bike_id":"ba7a26e7-2ef9-45d4-a227-c30073b5b405","system_id":"levelo_inurba_marseille","lat":43.286621,"lon":5.363632,"is_reserved":false,"is_disabled":false,"rental_uris":{"android":"levelo://app?vid=ba7a26e7-2ef9-45d4-a227-c30073b5b405","ios":"levelo://app?vid=ba7a26e7-2ef9-45d4-a227-c30073b5b405"},"vehicle_type_id":"4","last_reported":1727982448,"current_range_meters":7200,"station_id":"ce4bhah2rcd13ifvqej0","pricing_plan_id":"cebpf4jnsgd1na2vs0mg"},{"bike_id":"dfe29c00-a6e3-4988-b2aa-9cd64ee79b88","system_id":"levelo_inurba_marseille","lat":43.29423,"lon":5.38623,"is_reserved":false,"is_disabled":false,"rental_uris":{"android":"levelo://app?vid=dfe29c00-a6e3-4988-b2aa-9cd64ee79b88","ios":"levelo://app?vid=dfe29c00-a6e3-4988-b2aa-9cd64ee79b88"},"vehicle_type_id":"4","last_reported":1727982448,"current_range_meters":1600,"station_id":"ce4bh2h2rcd13ifvqdh0","pricing_plan_id":"cebpf4jnsgd1na2vs0mg"},{"bike_id":"214d531a-6169-4a10-874e-cf10b27fb4f1","system_id":"levelo_inurba_marseille","lat":43.23961,"lon":5.36641,"is_reserved":false,"is_disabled":false,"rental_uris":{"android":"levelo://app?vid=214d531a-6169-4a10-874e-cf10b27fb4f1","ios":"levelo://app?vid=214d531a-6169-4a10-874e-cf10b27fb4f1"},"vehicle_type_id":"4","last_reported":1727982448,"current_range_meters":38800,"station_id":"ce4bhi12rcd13ifvqfp0","pricing_plan_id":"cebpf4jnsgd1na2vs0mg"},{"bike_id":"5425d947-8cb6-4554-bb90-5f7137824376","system_id":"levelo_inurba_marseille","lat":43.28281,"lon":5.350637,"is_reserved":false,"is_disabled":false,"rental_uris":{"android":"levelo://app?vid=5425d947-8cb6-4554-bb90-5f7137824376","ios":"levelo://app?vid=5425d947-8cb6-4554-bb90-5f7137824376"},"vehicle_type_id":"4","last_reported":1727982448,"current_range_meters":26000,"station_id":"ce4bhbp2rcd13ifvqerg","pricing_plan_id":"cebpf4jnsgd1na2vs0mg"},{"bike_id":"26172671-0243-4e1a-8ee5-c4260859d334","system_id":"levelo_inurba_marseille","lat":43.29256,"lon":5.3843,"is_reserved":false,"is_disabled":false,"rental_uris":{"android":"levelo://app?vid=26172671-0243-4e1a-8ee5-c4260859d334","ios":"levelo://app?vid=26172671-0243-4e1a-8ee5-c4260859d334"},"vehicle_type_id":"4","last_reported":1727982448,"current_range_meters":28400,"station_id":"ce4bh692rcd13ifvqea0","pricing_plan_id":"cebpf4jnsgd1na2vs0mg"},{"bike_id":"7bfb5721-baf3-4893-bbf9-7c8112a113a1","system_id":"levelo_inurba_marseille","lat":43.27994,"lon":5.40013,"is_reserved":false,"is_disabled":false,"rental_uris":{"android":"levelo://app?vid=7bfb5721-baf3-4893-bbf9-7c8112a113a1","ios":"levelo://app?vid=7bfb5721-baf3-4893-bbf9-7c8112a113a1"},"vehicle_type_id":"4","last_reported":1727982448,"current_range_meters":32400,"station_id":"ce4bho92rcd13ifvqh4g","pricing_plan_id":"cebpf4jnsgd1na2vs0mg"},{"bike_id":"8e7ae72a-2bb9-49f2-9500-cfb31a4b07a4","system_id":"levelo_inurba_marseille","lat":43.28037,"lon":5.36951,"is_reserved":false,"is_disabled":false,"rental_uris":{"android":"levelo://app?vid=8e7ae72a-2bb9-49f2-9500-cfb31a4b07a4","ios":"levelo://app?vid=8e7ae72a-2bb9-49f2-9500-cfb31a4b07a4"},"vehicle_type_id":"4","last_reported":1727982448,"current_range_meters":8000,"station_id":"ce4bha12rcd13ifvqef0","pricing_plan_id":"cebpf4jnsgd1na2vs0mg"},{"bike_id":"0fc7ae8d-9102-4d20-8337-a47ebec4b5f1","system_id":"levelo_inurba_marseille","lat":43.32553,"lon":5.41456,"is_reserved":false,"is_disabled":false,"rental_uris":{"android":"levelo://app?vid=0fc7ae8d-9102-4d20-8337-a47ebec4b5f1","ios":"levelo://app?vid=0fc7ae8d-9102-4d20-8337-a47ebec4b5f1"},"vehicle_type_id":"4","last_reported":1727982448,"current_range_meters":38800,"station_id":"ce4bhq12rcd13ifvqhhg","pricing_plan_id":"cebpf4jnsgd1na2vs0mg"},{"bike_id":"6489f483-0abd-4c6e-8787-abffdc7f60a8","system_id":"levelo_inurba_marseille","lat":43.30792,"lon":5.37659,"is_reserved":false,"is_disabled":false,"rental_uris":{"android":"levelo://app?vid=6489f483-0abd-4c6e-8787-abffdc7f60a8","ios":"levelo://app?vid=6489f483-0abd-4c6e-8787-abffdc7f60a8"},"vehicle_type_id":"4","last_reported":1727982448,"current_range_meters":37600,"station_id":"ce4bgv92rcd13ifvqcq0","pricing_plan_id":"cebpf4jnsgd1na2vs0mg"},{"bike_id":"c58716f2-7bc9-40ae-988b-8e84481e0378","system_id":"levelo_inurba_marseille","lat":43.247528,"lon":5.375913,"is_reserved":false,"is_disabled":false,"rental_uris":{"android":"levelo://app?vid=c58716f2-7bc9-40ae-988b-8e84481e0378","ios":"levelo://app?vid=c58716f2-7bc9-40ae-988b-8e84481e0378"},"vehicle_type_id":"4","last_reported":1727982448,"current_range_meters":30800,"station_id":"ce4bhlh2rcd13ifvqgig","pricing_plan_id":"cebpf4jnsgd1na2vs0mg"},{"bike_id":"1358805f-48d3-4505-841c-ddca601a11fe","system_id":"levelo_inurba_marseille","lat":43.29497,"lon":5.38288,"is_reserved":false,"is_disabled":false,"rental_uris":{"android":"levelo://app?vid=1358805f-48d3-4505-841c-ddca601a11fe","ios":"levelo://app?vid=1358805f-48d3-4505-841c-ddca601a11fe"},"vehicle_type_id":"4","last_reported":1727982448,"current_range_meters":6400,"station_id":"","pricing_plan_id":"cebpf4jnsgd1na2vs0mg"},{"bike_id":"5b7b7f31-2ad6-409b-8235-1bb722bdf0ca","system_id":"levelo_inurba_marseille","lat":43.23959,"lon":5.36636,"is_reserved":false,"is_disabled":false,"rental_uris":{"android":"levelo://app?vid=5b7b7f31-2ad6-409b-8235-1bb722bdf0ca","ios":"levelo://app?vid=5b7b7f31-2ad6-409b-8235-1bb722bdf0ca"},"vehicle_type_id":"4","last_reported":1727982448,"current_range_meters":21600,"station_id":"ce4bhi12rcd13ifvqfp0","pricing_plan_id":"cebpf4jnsgd1na2vs0mg"},{"bike_id":"4d9ac670-87ae-466e-b42b-3158c9494661","system_id":"levelo_inurba_marseille","lat":43.30792,"lon":5.37659,"is_reserved":false,"is_disabled":false,"rental_uris":{"android":"levelo://app?vid=4d9ac670-87ae-466e-b42b-3158c9494661","ios":"levelo://app?vid=4d9ac670-87ae-466e-b42b-3158c9494661"},"vehicle_type_id":"4","last_reported":1727982448,"current_range_meters":38800,"station_id":"ce4bgv92rcd13ifvqcq0","pricing_plan_id":"cebpf4jnsgd1na2vs0mg"},{"bike_id":"3cb2e6d0-cf88-483f-85e9-a8c72768b54b","system_id":"levelo_inurba_marseille","lat":43.29567,"lon":5.3997,"is_reserved":false,"is_disabled":false,"rental_uris":{"android":"levelo://app?vid=3cb2e6d0-cf88-483f-85e9-a8c72768b54b","ios":"levelo://app?vid=3cb2e6d0-cf88-483f-85e9-a8c72768b54b"},"vehicle_type_id":"4","last_reported":1727982448,"current_range_meters":28000,"station_id":"ce4bh312rcd13ifvqdj0","pricing_plan_id":"cebpf4jnsgd1na2vs0mg"},{"bike_id":"85a60867-0292-479f-99a9-23810b153b98","system_id":"levelo_inurba_marseille","lat":43.2707,"lon":5.42282,"is_reserved":false,"is_disabled":false,"rental_uris":{"android":"levelo://app?vid=85a60867-0292-479f-99a9-23810b153b98","ios":"levelo://app?vid=85a60867-0292-479f-99a9-23810b153b98"},"vehicle_type_id":"4","last_reported":1727982448,"current_range_meters":12800,"station_id":"ce4bhk92rcd13ifvqgb0","pricing_plan_id":"cebpf4jnsgd1na2vs0mg"},{"bike_id":"4d7b92bd-fb4a-4851-9d74-ec38fbbbdb1b","system_id":"levelo_inurba_marseille","lat":43.337444,"lon":5.374475,"is_reserved":false,"is_disabled":false,"rental_uris":{"android":"levelo://app?vid=4d7b92bd-fb4a-4851-9d74-ec38fbbbdb1b","ios":"levelo://app?vid=4d7b92bd-fb4a-4851-9d74-ec38fbbbdb1b"},"vehicle_type_id":"4","last_reported":1727982448,"current_range_meters":35200,"station_id":"","pricing_plan_id":"cebpf4jnsgd1na2vs0mg"},{"bike_id":"73a8aa32-122e-42e5-a71f-815d06db8ffe","system_id":"levelo_inurba_marseille","lat":43.28098,"lon":5.37847,"is_reserved":false,"is_disabled":false,"rental_uris":{"android":"levelo://app?vid=73a8aa32-122e-42e5-a71f-815d06db8ffe","ios":"levelo://app?vid=73a8aa32-122e-42e5-a71f-815d06db8ffe"},"vehicle_type_id":"4","last_reported":1727982448,"current_range_meters":20000,"station_id":"ce4bha12rcd13ifvqee0","pricing_plan_id":"cebpf4jnsgd1na2vs0mg"},{"bike_id":"0c3863dd-5bcb-40ad-bc6c-60f5392a528a","system_id":"levelo_inurba_marseille","lat":43.28656,"lon":5.36365,"is_reserved":false,"is_disabled":false,"rental_uris":{"android":"levelo://app?vid=0c3863dd-5bcb-40ad-bc6c-60f5392a528a","ios":"levelo://app?vid=0c3863dd-5bcb-40ad-bc6c-60f5392a528a"},"vehicle_type_id":"4","last_reported":1727982448,"current_range_meters":38800,"station_id":"ce4bhah2rcd13ifvqej0","pricing_plan_id":"cebpf4jnsgd1na2vs0mg"},{"bike_id":"2a2a8188-8215-498b-8107-2e53f51adb93","system_id":"levelo_inurba_marseille","lat":43.27831,"lon":5.39211,"is_reserved":false,"is_disabled":false,"rental_uris":{"android":"levelo://app?vid=2a2a8188-8215-498b-8107-2e53f51adb93","ios":"levelo://app?vid=2a2a8188-8215-498b-8107-2e53f51adb93"},"vehicle_type_id":"4","last_reported":1727982448,"current_range_meters":32800,"station_id":"ce4bhjp2rcd13ifvqga0","pricing_plan_id":"cebpf4jnsgd1na2vs0mg"},{"bike_id":"ab00cc90-066b-4895-ba0b-ee22d7109a68","system_id":"levelo_inurba_marseille","lat":43.30913,"lon":5.36853,"is_reserved":false,"is_disabled":false,"rental_uris":{"android":"levelo://app?vid=ab00cc90-066b-4895-ba0b-ee22d7109a68","ios":"levelo://app?vid=ab00cc90-066b-4895-ba0b-ee22d7109a68"},"vehicle_type_id":"4","last_reported":1727982448,"current_range_meters":17200,"station_id":"ce4bgn92rcd13ifvqbvg","pricing_plan_id":"cebpf4jnsgd1na2vs0mg"},{"bike_id":"f503151d-c7a8-4480-b36e-00e74618d566","system_id":"levelo_inurba_marseille","lat":43.29622,"lon":5.37157,"is_reserved":false,"is_disabled":false,"rental_uris":{"android":"levelo://app?vid=f503151d-c7a8-4480-b36e-00e74618d566","ios":"levelo://app?vid=f503151d-c7a8-4480-b36e-00e74618d566"},"vehicle_type_id":"4","last_reported":1727982448,"current_range_meters":8000,"station_id":"ce4bgnh2rcd13ifvqc0g","pricing_plan_id":"cebpf4jnsgd1na2vs0mg"},{"bike_id":"73a079cd-9db3-40f3-afc3-7bfcd5e7741a","system_id":"levelo_inurba_marseille","lat":43.28153,"lon":5.42645,"is_reserved":false,"is_disabled":false,"rental_uris":{"android":"levelo://app?vid=73a079cd-9db3-40f3-afc3-7bfcd5e7741a","ios":"levelo://app?vid=73a079cd-9db3-40f3-afc3-7bfcd5e7741a"},"vehicle_type_id":"4","last_reported":1727982448,"current_range_meters":9600,"station_id":"ce4bhnh2rcd13ifvqgug","pricing_plan_id":"cebpf4jnsgd1na2vs0mg"},{"bike_id":"fa860266-338a-4d58-9039-ab1cd4d77bab","system_id":"levelo_inurba_marseille","lat":43.29896,"lon":5.38138,"is_reserved":false,"is_disabled":false,"rental_uris":{"android":"levelo://app?vid=fa860266-338a-4d58-9039-ab1cd4d77bab","ios":"levelo://app?vid=fa860266-338a-4d58-9039-ab1cd4d77bab"},"vehicle_type_id":"4","last_reported":1727982448,"current_range_meters":38800,"station_id":"ce4bgj12rcd13ifvqbc0","pricing_plan_id":"cebpf4jnsgd1na2vs0mg"},{"bike_id":"07619796-f7b9-4b4d-b45b-97bcf3924673","system_id":"levelo_inurba_marseille","lat":43.26212,"lon":5.3793,"is_reserved":false,"is_disabled":false,"rental_uris":{"android":"levelo://app?vid=07619796-f7b9-4b4d-b45b-97bcf3924673","ios":"levelo://app?vid=07619796-f7b9-4b4d-b45b-97bcf3924673"},"vehicle_type_id":"4","last_reported":1727982448,"current_range_meters":2000,"station_id":"ce4bhjp2rcd13ifvqg90","pricing_plan_id":"cebpf4jnsgd1na2vs0mg"},{"bike_id":"fd872ba7-9877-4e67-9269-d8995abba644","system_id":"levelo_inurba_marseille","lat":43.22933,"lon":5.35378,"is_reserved":false,"is_disabled":false,"rental_uris":{"android":"levelo://app?vid=fd872ba7-9877-4e67-9269-d8995abba644","ios":"levelo://app?vid=fd872ba7-9877-4e67-9269-d8995abba644"},"vehicle_type_id":"4","last_reported":1727982448,"current_range_meters":24400,"station_id":"cpo3532slgdg3j2ikp40","pricing_plan_id":"cebpf4jnsgd1na2vs0mg"},{"bike_id":"9fb86a20-7907-4afc-930c-d46f6a76a1d1","system_id":"levelo_inurba_marseille","lat":43.30922,"lon":5.39642,"is_reserved":false,"is_disabled":false,"rental_uris":{"android":"levelo://app?vid=9fb86a20-7907-4afc-930c-d46f6a76a1d1","ios":"levelo://app?vid=9fb86a20-7907-4afc-930c-d46f6a76a1d1"},"vehicle_type_id":"4","last_reported":1727982448,"current_range_meters":38800,"station_id":"ce4bh012rcd13ifvqcv0","pricing_plan_id":"cebpf4jnsgd1na2vs0mg"},{"bike_id":"4ce22d40-fb86-4b4e-b321-3e4fe9937193","system_id":"levelo_inurba_marseille","lat":43.3234,"lon":5.40622,"is_reserved":false,"is_disabled":false,"rental_uris":{"android":"levelo://app?vid=4ce22d40-fb86-4b4e-b321-3e4fe9937193","ios":"levelo://app?vid=4ce22d40-fb86-4b4e-b321-3e4fe9937193"},"vehicle_type_id":"4","last_reported":1727982448,"current_range_meters":2800,"station_id":"ce4bhq92rcd13ifvqhjg","pricing_plan_id":"cebpf4jnsgd1na2vs0mg"},{"bike_id":"1dff6269-77de-4259-8d5b-2ea73afb5126","system_id":"levelo_inurba_marseille","lat":43.24666,"lon":5.38163,"is_reserved":false,"is_disabled":false,"rental_uris":{"android":"levelo://app?vid=1dff6269-77de-4259-8d5b-2ea73afb5126","ios":"levelo://app?vid=1dff6269-77de-4259-8d5b-2ea73afb5126"},"vehicle_type_id":"4","last_reported":1727982448,"current_range_meters":38400,"station_id":"ce4bhih2rcd13ifvqfr0","pricing_plan_id":"cebpf4jnsgd1na2vs0mg"},{"bike_id":"ad166557-d418-44d5-af64-70698f5643a6","system_id":"levelo_inurba_marseille","lat":43.28443,"lon":5.39198,"is_reserved":false,"is_disabled":false,"rental_uris":{"android":"levelo://app?vid=ad166557-d418-44d5-af64-70698f5643a6","ios":"levelo://app?vid=ad166557-d418-44d5-af64-70698f5643a6"},"vehicle_type_id":"4","last_reported":1727982448,"current_range_meters":36000,"station_id":"ce4bhoh2rcd13ifvqh5g","pricing_plan_id":"cebpf4jnsgd1na2vs0mg"},{"bike_id":"08f8d884-ea33-4876-95c5-27ca37eb95d1","system_id":"levelo_inurba_marseille","lat":43.29781,"lon":5.3935,"is_reserved":false,"is_disabled":false,"rental_uris":{"android":"levelo://app?vid=08f8d884-ea33-4876-95c5-27ca37eb95d1","ios":"levelo://app?vid=08f8d884-ea33-4876-95c5-27ca37eb95d1"},"vehicle_type_id":"4","last_reported":1727982448,"current_range_meters":38400,"station_id":"chh1huq6cuj3fo74tm60","pricing_plan_id":"cebpf4jnsgd1na2vs0mg"},{"bike_id":"9c245083-b5d5-467e-999e-3b86c3163f23","system_id":"levelo_inurba_marseille","lat":43.28456,"lon":5.35903,"is_reserved":false,"is_disabled":false,"rental_uris":{"android":"levelo://app?vid=9c245083-b5d5-467e-999e-3b86c3163f23","ios":"levelo://app?vid=9c245083-b5d5-467e-999e-3b86c3163f23"},"vehicle_type_id":"4","last_reported":1727982448,"current_range_meters":31200,"station_id":"ce4bhah2rcd13ifvqei0","pricing_plan_id":"cebpf4jnsgd1na2vs0mg"},{"bike_id":"a7476dc9-8465-4303-a373-c08479797e0b","system_id":"levelo_inurba_marseille","lat":43.29414,"lon":5.38637,"is_reserved":false,"is_disabled":false,"rental_uris":{"android":"levelo://app?vid=a7476dc9-8465-4303-a373-c08479797e0b","ios":"levelo://app?vid=a7476dc9-8465-4303-a373-c08479797e0b"},"vehicle_type_id":"4","last_reported":1727982448,"current_range_meters":38800,"station_id":"ce4bh2h2rcd13ifvqdh0","pricing_plan_id":"cebpf4jnsgd1na2vs0mg"},{"bike_id":"0f53c290-ccde-436e-93da-5e6799c490b6","system_id":"levelo_inurba_marseille","lat":43.31747,"lon":5.39027,"is_reserved":false,"is_disabled":false,"rental_uris":{"android":"levelo://app?vid=0f53c290-ccde-436e-93da-5e6799c490b6","ios":"levelo://app?vid=0f53c290-ccde-436e-93da-5e6799c490b6"},"vehicle_type_id":"4","last_reported":1727982448,"current_range_meters":15200,"station_id":"ce4bhqp2rcd13ifvqhng","pricing_plan_id":"cebpf4jnsgd1na2vs0mg"},{"bike_id":"b8248326-5d04-423d-9724-3a953d4e8c2c","system_id":"levelo_inurba_marseille","lat":43.28458,"lon":5.35895,"is_reserved":false,"is_disabled":false,"rental_uris":{"android":"levelo://app?vid=b8248326-5d04-423d-9724-3a953d4e8c2c","ios":"levelo://app?vid=b8248326-5d04-423d-9724-3a953d4e8c2c"},"vehicle_type_id":"4","last_reported":1727982448,"current_range_meters":14400,"station_id":"ce4bhah2rcd13ifvqei0","pricing_plan_id":"cebpf4jnsgd1na2vs0mg"},{"bike_id":"11659f11-d054-48f9-b5ea-af3466216c8a","system_id":"levelo_inurba_marseille","lat":43.25861,"lon":5.39913,"is_reserved":false,"is_disabled":false,"rental_uris":{"android":"levelo://app?vid=11659f11-d054-48f9-b5ea-af3466216c8a","ios":"levelo://app?vid=11659f11-d054-48f9-b5ea-af3466216c8a"},"vehicle_type_id":"4","last_reported":1727982448,"current_range_meters":12800,"station_id":"ce4bhl92rcd13ifvqghg","pricing_plan_id":"cebpf4jnsgd1na2vs0mg"},{"bike_id":"7b9fdcc5-82cc-4795-8ec9-e827c0c9c8f3","system_id":"levelo_inurba_marseille","lat":43.31224,"lon":5.3686,"is_reserved":false,"is_disabled":false,"rental_uris":{"android":"levelo://app?vid=7b9fdcc5-82cc-4795-8ec9-e827c0c9c8f3","ios":"levelo://app?vid=7b9fdcc5-82cc-4795-8ec9-e827c0c9c8f3"},"vehicle_type_id":"4","last_reported":1727982448,"current_range_meters":38800,"station_id":"ce4bgl92rcd13ifvqbq0","pricing_plan_id":"cebpf4jnsgd1na2vs0mg"},{"bike_id":"7f0f62a7-fa08-4a91-b1a0-dc74825e2ae9","system_id":"levelo_inurba_marseille","lat":43.2731,"lon":5.39088,"is_reserved":false,"is_disabled":false,"rental_uris":{"android":"levelo://app?vid=7f0f62a7-fa08-4a91-b1a0-dc74825e2ae9","ios":"levelo://app?vid=7f0f62a7-fa08-4a91-b1a0-dc74825e2ae9"},"vehicle_type_id":"4","last_reported":1727982448,"current_range_meters":32800,"station_id":"ce4bhgp2rcd13ifvqfe0","pricing_plan_id":"cebpf4jnsgd1na2vs0mg"},{"bike_id":"92b5c022-a316-4370-85f1-cd9056a17cee","system_id":"levelo_inurba_marseille","lat":43.29874,"lon":5.39744,"is_reserved":false,"is_disabled":false,"rental_uris":{"android":"levelo://app?vid=92b5c022-a316-4370-85f1-cd9056a17cee","ios":"levelo://app?vid=92b5c022-a316-4370-85f1-cd9056a17cee"},"vehicle_type_id":"4","last_reported":1727982448,"current_range_meters":14400,"station_id":"ce4bh0h2rcd13ifvqd50","pricing_plan_id":"cebpf4jnsgd1na2vs0mg"},{"bike_id":"ca6671e1-6c31-4b90-b7ce-40a5dbefda54","system_id":"levelo_inurba_marseille","lat":43.27918,"lon":5.39581,"is_reserved":false,"is_disabled":false,"rental_uris":{"android":"levelo://app?vid=ca6671e1-6c31-4b90-b7ce-40a5dbefda54","ios":"levelo://app?vid=ca6671e1-6c31-4b90-b7ce-40a5dbefda54"},"vehicle_type_id":"4","last_reported":1727982448,"current_range_meters":17200,"station_id":"ce4bhf92rcd13ifvqf40","pricing_plan_id":"cebpf4jnsgd1na2vs0mg"},{"bike_id":"5a02f645-9cc6-4f35-9970-15f726b82b63","system_id":"levelo_inurba_marseille","lat":43.25084,"lon":5.39516,"is_reserved":false,"is_disabled":false,"rental_uris":{"android":"levelo://app?vid=5a02f645-9cc6-4f35-9970-15f726b82b63","ios":"levelo://app?vid=5a02f645-9cc6-4f35-9970-15f726b82b63"},"vehicle_type_id":"4","last_reported":1727982448,"current_range_meters":16800,"station_id":"ce4bhm12rcd13ifvqgkg","pricing_plan_id":"cebpf4jnsgd1na2vs0mg"},{"bike_id":"b4cdb100-36ce-49cf-8d00-eecf4fdba9d1","system_id":"levelo_inurba_marseille","lat":43.26954,"lon":5.38629,"is_reserved":false,"is_disabled":false,"rental_uris":{"android":"levelo://app?vid=b4cdb100-36ce-49cf-8d00-eecf4fdba9d1","ios":"levelo://app?vid=b4cdb100-36ce-49cf-8d00-eecf4fdba9d1"},"vehicle_type_id":"4","last_reported":1727982448,"current_range_meters":38400,"station_id":"ce4bhh92rcd13ifvqfh0","pricing_plan_id":"cebpf4jnsgd1na2vs0mg"},{"bike_id":"525e851f-b6fd-4226-b024-d76bd655edd1","system_id":"levelo_inurba_marseille","lat":43.23185,"lon":5.39996,"is_reserved":false,"is_disabled":false,"rental_uris":{"android":"levelo://app?vid=525e851f-b6fd-4226-b024-d76bd655edd1","ios":"levelo://app?vid=525e851f-b6fd-4226-b024-d76bd655edd1"},"vehicle_type_id":"4","last_reported":1727982448,"current_range_meters":30800,"station_id":"ce4bhn12rcd13ifvqgqg","pricing_plan_id":"cebpf4jnsgd1na2vs0mg"},{"bike_id":"97cca60a-be6b-447f-a75e-09e346abb21c","system_id":"levelo_inurba_marseille","lat":43.25822,"lon":5.39438,"is_reserved":false,"is_disabled":false,"rental_uris":{"android":"levelo://app?vid=97cca60a-be6b-447f-a75e-09e346abb21c","ios":"levelo://app?vid=97cca60a-be6b-447f-a75e-09e346abb21c"},"vehicle_type_id":"4","last_reported":1727982448,"current_range_meters":0,"station_id":"ce4bhip2rcd13ifvqft0","pricing_plan_id":"cebpf4jnsgd1na2vs0mg"},{"bike_id":"81293a8e-e273-4d5d-a50a-a1b9253b0a28","system_id":"levelo_inurba_marseille","lat":43.32652,"lon":5.40999,"is_reserved":false,"is_disabled":false,"rental_uris":{"android":"levelo://app?vid=81293a8e-e273-4d5d-a50a-a1b9253b0a28","ios":"levelo://app?vid=81293a8e-e273-4d5d-a50a-a1b9253b0a28"},"vehicle_type_id":"4","last_reported":1727982448,"current_range_meters":28800,"station_id":"ce4bhpp2rcd13ifvqhgg","pricing_plan_id":"cebpf4jnsgd1na2vs0mg"},{"bike_id":"786dbfbe-df62-4b24-bbcb-37988950f75f","system_id":"levelo_inurba_marseille","lat":43.29632,"lon":5.40609,"is_reserved":false,"is_disabled":false,"rental_uris":{"android":"levelo://app?vid=786dbfbe-df62-4b24-bbcb-37988950f75f","ios":"levelo://app?vid=786dbfbe-df62-4b24-bbcb-37988950f75f"},"vehicle_type_id":"4","last_reported":1727982448,"current_range_meters":38800,"station_id":"ce4bh0h2rcd13ifvqd60","pricing_plan_id":"cebpf4jnsgd1na2vs0mg"},{"bike_id":"53c6fe7a-c5f0-4c29-bdb6-08c6c7db5c71","system_id":"levelo_inurba_marseille","lat":43.32107,"lon":5.36776,"is_reserved":false,"is_disabled":false,"rental_uris":{"android":"levelo://app?vid=53c6fe7a-c5f0-4c29-bdb6-08c6c7db5c71","ios":"levelo://app?vid=53c6fe7a-c5f0-4c29-bdb6-08c6c7db5c71"},"vehicle_type_id":"4","last_reported":1727982448,"current_range_meters":8800,"station_id":"ce4bhrh2rcd13ifvqhug","pricing_plan_id":"cebpf4jnsgd1na2vs0mg"},{"bike_id":"3cc954e3-013b-47f6-b1e5-c5a81185f52b","system_id":"levelo_inurba_marseille","lat":43.30945,"lon":5.39656,"is_reserved":false,"is_disabled":false,"rental_uris":{"android":"levelo://app?vid=3cc954e3-013b-47f6-b1e5-c5a81185f52b","ios":"levelo://app?vid=3cc954e3-013b-47f6-b1e5-c5a81185f52b"},"vehicle_type_id":"4","last_reported":1727982448,"current_range_meters":22800,"station_id":"ce4bh012rcd13ifvqcv0","pricing_plan_id":"cebpf4jnsgd1na2vs0mg"},{"bike_id":"64a1d869-aa09-4f3e-a753-a473b6977003","system_id":"levelo_inurba_marseille","lat":43.26939,"lon":5.40251,"is_reserved":false,"is_disabled":false,"rental_uris":{"android":"levelo://app?vid=64a1d869-aa09-4f3e-a753-a473b6977003","ios":"levelo://app?vid=64a1d869-aa09-4f3e-a753-a473b6977003"},"vehicle_type_id":"4","last_reported":1727982448,"current_range_meters":27600,"station_id":"cjm6bp8fraef2m0cb0m0","pricing_plan_id":"cebpf4jnsgd1na2vs0mg"},{"bike_id":"6ce60676-3f86-4aaa-a5df-572436c32ad4","system_id":"levelo_inurba_marseille","lat":43.23198,"lon":5.3555,"is_reserved":false,"is_disabled":false,"rental_uris":{"android":"levelo://app?vid=6ce60676-3f86-4aaa-a5df-572436c32ad4","ios":"levelo://app?vid=6ce60676-3f86-4aaa-a5df-572436c32ad4"},"vehicle_type_id":"4","last_reported":1727982448,"current_range_meters":18800,"station_id":"ce4bhu92rcd13ifvqi70","pricing_plan_id":"cebpf4jnsgd1na2vs0mg"},{"bike_id":"ef5c632f-2b59-4b63-8995-bedb1fc7d5cb","system_id":"levelo_inurba_marseille","lat":43.25496,"lon":5.37648,"is_reserved":false,"is_disabled":false,"rental_uris":{"android":"levelo://app?vid=ef5c632f-2b59-4b63-8995-bedb1fc7d5cb","ios":"levelo://app?vid=ef5c632f-2b59-4b63-8995-bedb1fc7d5cb"},"vehicle_type_id":"4","last_reported":1727982448,"current_range_meters":38400,"station_id":"ce4bhh12rcd13ifvqff0","pricing_plan_id":"cebpf4jnsgd1na2vs0mg"},{"bike_id":"ca0f6ea3-63f4-4885-baac-01b8376d739e","system_id":"levelo_inurba_marseille","lat":43.28343,"lon":5.38106,"is_reserved":false,"is_disabled":false,"rental_uris":{"android":"levelo://app?vid=ca0f6ea3-63f4-4885-baac-01b8376d739e","ios":"levelo://app?vid=ca0f6ea3-63f4-4885-baac-01b8376d739e"},"vehicle_type_id":"4","last_reported":1727982448,"current_range_meters":4000,"station_id":"ce4bh412rcd13ifvqdr0","pricing_plan_id":"cebpf4jnsgd1na2vs0mg"},{"bike_id":"60cfb626-6ebb-40bd-87f0-5c9a7a1669a5","system_id":"levelo_inurba_marseille","lat":43.26791,"lon":5.39411,"is_reserved":false,"is_disabled":false,"rental_uris":{"android":"levelo://app?vid=60cfb626-6ebb-40bd-87f0-5c9a7a1669a5","ios":"levelo://app?vid=60cfb626-6ebb-40bd-87f0-5c9a7a1669a5"},"vehicle_type_id":"4","last_reported":1727982448,"current_range_meters":24400,"station_id":"ce4bhh12rcd13ifvqfg0","pricing_plan_id":"cebpf4jnsgd1na2vs0mg"},{"bike_id":"14457725-1dad-4705-8dc9-35dee84023ac","system_id":"levelo_inurba_marseille","lat":43.31721,"lon":5.42401,"is_reserved":false,"is_disabled":false,"rental_uris":{"android":"levelo://app?vid=14457725-1dad-4705-8dc9-35dee84023ac","ios":"levelo://app?vid=14457725-1dad-4705-8dc9-35dee84023ac"},"vehicle_type_id":"4","last_reported":1727982448,"current_range_meters":31200,"station_id":"ce4bhp92rcd13ifvqhbg","pricing_plan_id":"cebpf4jnsgd1na2vs0mg"},{"bike_id":"ac491eed-1fef-4832-b4ca-d42b5b54f337","system_id":"levelo_inurba_marseille","lat":43.28419,"lon":5.3499,"is_reserved":false,"is_disabled":false,"rental_uris":{"android":"levelo://app?vid=ac491eed-1fef-4832-b4ca-d42b5b54f337","ios":"levelo://app?vid=ac491eed-1fef-4832-b4ca-d42b5b54f337"},"vehicle_type_id":"4","last_reported":1727982448,"current_range_meters":38800,"station_id":"ce4bhbh2rcd13ifvqepg","pricing_plan_id":"cebpf4jnsgd1na2vs0mg"},{"bike_id":"1c43f958-4590-430c-a11e-68d1ba018349","system_id":"levelo_inurba_marseille","lat":43.28407,"lon":5.37512,"is_reserved":false,"is_disabled":false,"rental_uris":{"android":"levelo://app?vid=1c43f958-4590-430c-a11e-68d1ba018349","ios":"levelo://app?vid=1c43f958-4590-430c-a11e-68d1ba018349"},"vehicle_type_id":"4","last_reported":1727982448,"current_range_meters":38800,"station_id":"ce4bh412rcd13ifvqds0","pricing_plan_id":"cebpf4jnsgd1na2vs0mg"},{"bike_id":"abffd650-273d-42e7-be8c-f37c9c43a60a","system_id":"levelo_inurba_marseille","lat":43.28002,"lon":5.40012,"is_reserved":false,"is_disabled":false,"rental_uris":{"android":"levelo://app?vid=abffd650-273d-42e7-be8c-f37c9c43a60a","ios":"levelo://app?vid=abffd650-273d-42e7-be8c-f37c9c43a60a"},"vehicle_type_id":"4","last_reported":1727982448,"current_range_meters":36400,"station_id":"ce4bho92rcd13ifvqh4g","pricing_plan_id":"cebpf4jnsgd1na2vs0mg"},{"bike_id":"b98cd7bf-b46e-4513-9d5a-962faff92bc0","system_id":"levelo_inurba_marseille","lat":43.29532,"lon":5.38539,"is_reserved":false,"is_disabled":false,"rental_uris":{"android":"levelo://app?vid=b98cd7bf-b46e-4513-9d5a-962faff92bc0","ios":"levelo://app?vid=b98cd7bf-b46e-4513-9d5a-962faff92bc0"},"vehicle_type_id":"4","last_reported":1727982448,"current_range_meters":27600,"station_id":"ce4bgih2rcd13ifvqba0","pricing_plan_id":"cebpf4jnsgd1na2vs0mg"},{"bike_id":"7fed4edd-fced-4cac-8f5a-8f088e4cd963","system_id":"levelo_inurba_marseille","lat":43.26556,"lon":5.37288,"is_reserved":false,"is_disabled":false,"rental_uris":{"android":"levelo://app?vid=7fed4edd-fced-4cac-8f5a-8f088e4cd963","ios":"levelo://app?vid=7fed4edd-fced-4cac-8f5a-8f088e4cd963"},"vehicle_type_id":"4","last_reported":1727982448,"current_range_meters":6400,"station_id":"ce4bhg12rcd13ifvqf70","pricing_plan_id":"cebpf4jnsgd1na2vs0mg"},{"bike_id":"a6692f1f-5525-4523-bd49-a7c219bc26c1","system_id":"levelo_inurba_marseille","lat":43.26561,"lon":5.37288,"is_reserved":false,"is_disabled":false,"rental_uris":{"android":"levelo://app?vid=a6692f1f-5525-4523-bd49-a7c219bc26c1","ios":"levelo://app?vid=a6692f1f-5525-4523-bd49-a7c219bc26c1"},"vehicle_type_id":"4","last_reported":1727982448,"current_range_meters":36800,"station_id":"ce4bhg12rcd13ifvqf70","pricing_plan_id":"cebpf4jnsgd1na2vs0mg"},{"bike_id":"ddf75281-988c-4c19-880b-719d01004a8f","system_id":"levelo_inurba_marseille","lat":43.30802,"lon":5.4352,"is_reserved":false,"is_disabled":false,"rental_uris":{"android":"levelo://app?vid=ddf75281-988c-4c19-880b-719d01004a8f","ios":"levelo://app?vid=ddf75281-988c-4c19-880b-719d01004a8f"},"vehicle_type_id":"4","last_reported":1727982448,"current_range_meters":8400,"station_id":"ce4bhph2rcd13ifvqheg","pricing_plan_id":"cebpf4jnsgd1na2vs0mg"},{"bike_id":"a0d8da91-e5bc-492a-bac4-61d849a36ef9","system_id":"levelo_inurba_marseille","lat":43.30801,"lon":5.43531,"is_reserved":false,"is_disabled":false,"rental_uris":{"android":"levelo://app?vid=a0d8da91-e5bc-492a-bac4-61d849a36ef9","ios":"levelo://app?vid=a0d8da91-e5bc-492a-bac4-61d849a36ef9"},"vehicle_type_id":"4","last_reported":1727982448,"current_range_meters":11600,"station_id":"ce4bhph2rcd13ifvqheg","pricing_plan_id":"cebpf4jnsgd1na2vs0mg"},{"bike_id":"70a6e5d9-f7dc-45fe-93de-dcba5cdbc45d","system_id":"levelo_inurba_marseille","lat":43.28622,"lon":5.35107,"is_reserved":false,"is_disabled":false,"rental_uris":{"android":"levelo://app?vid=70a6e5d9-f7dc-45fe-93de-dcba5cdbc45d","ios":"levelo://app?vid=70a6e5d9-f7dc-45fe-93de-dcba5cdbc45d"},"vehicle_type_id":"4","last_reported":1727982448,"current_range_meters":4400,"station_id":"ce4bhch2rcd13ifvqeug","pricing_plan_id":"cebpf4jnsgd1na2vs0mg"},{"bike_id":"d68ea5a6-0b88-493a-98e1-c9d17af6fe5a","system_id":"levelo_inurba_marseille","lat":43.23965,"lon":5.36639,"is_reserved":false,"is_disabled":false,"rental_uris":{"android":"levelo://app?vid=d68ea5a6-0b88-493a-98e1-c9d17af6fe5a","ios":"levelo://app?vid=d68ea5a6-0b88-493a-98e1-c9d17af6fe5a"},"vehicle_type_id":"4","last_reported":1727982448,"current_range_meters":33200,"station_id":"ce4bhi12rcd13ifvqfp0","pricing_plan_id":"cebpf4jnsgd1na2vs0mg"},{"bike_id":"bdd607e9-859d-402e-8914-3a4c42675274","system_id":"levelo_inurba_marseille","lat":43.25491,"lon":5.3765,"is_reserved":false,"is_disabled":false,"rental_uris":{"android":"levelo://app?vid=bdd607e9-859d-402e-8914-3a4c42675274","ios":"levelo://app?vid=bdd607e9-859d-402e-8914-3a4c42675274"},"vehicle_type_id":"4","last_reported":1727982448,"current_range_meters":25200,"station_id":"ce4bhh12rcd13ifvqff0","pricing_plan_id":"cebpf4jnsgd1na2vs0mg"},{"bike_id":"d77b2c63-49e9-4183-9c3a-3a11e874fec4","system_id":"levelo_inurba_marseille","lat":43.28922,"lon":5.38399,"is_reserved":false,"is_disabled":false,"rental_uris":{"android":"levelo://app?vid=d77b2c63-49e9-4183-9c3a-3a11e874fec4","ios":"levelo://app?vid=d77b2c63-49e9-4183-9c3a-3a11e874fec4"},"vehicle_type_id":"4","last_reported":1727982448,"current_range_meters":11600,"station_id":"ce4bh612rcd13ifvqe6g","pricing_plan_id":"cebpf4jnsgd1na2vs0mg"},{"bike_id":"dbf4aadd-78b0-48d7-84dd-1a7fec82af07","system_id":"levelo_inurba_marseille","lat":43.24666,"lon":5.38158,"is_reserved":false,"is_disabled":false,"rental_uris":{"android":"levelo://app?vid=dbf4aadd-78b0-48d7-84dd-1a7fec82af07","ios":"levelo://app?vid=dbf4aadd-78b0-48d7-84dd-1a7fec82af07"},"vehicle_type_id":"4","last_reported":1727982448,"current_range_meters":38000,"station_id":"ce4bhih2rcd13ifvqfr0","pricing_plan_id":"cebpf4jnsgd1na2vs0mg"},{"bike_id":"47911c3a-70d6-4541-ae40-328b24ae278f","system_id":"levelo_inurba_marseille","lat":43.28078,"lon":5.3966,"is_reserved":false,"is_disabled":false,"rental_uris":{"android":"levelo://app?vid=47911c3a-70d6-4541-ae40-328b24ae278f","ios":"levelo://app?vid=47911c3a-70d6-4541-ae40-328b24ae278f"},"vehicle_type_id":"4","last_reported":1727982448,"current_range_meters":21600,"station_id":"ce4bho12rcd13ifvqh2g","pricing_plan_id":"cebpf4jnsgd1na2vs0mg"},{"bike_id":"958e7c33-252b-4123-876d-02665709c655","system_id":"levelo_inurba_marseille","lat":43.28664,"lon":5.36351,"is_reserved":false,"is_disabled":false,"rental_uris":{"android":"levelo://app?vid=958e7c33-252b-4123-876d-02665709c655","ios":"levelo://app?vid=958e7c33-252b-4123-876d-02665709c655"},"vehicle_type_id":"4","last_reported":1727982448,"current_range_meters":37600,"station_id":"ce4bhah2rcd13ifvqej0","pricing_plan_id":"cebpf4jnsgd1na2vs0mg"},{"bike_id":"c8e4ff73-620c-4248-92f7-758d5098242c","system_id":"levelo_inurba_marseille","lat":43.22928,"lon":5.35376,"is_reserved":false,"is_disabled":false,"rental_uris":{"android":"levelo://app?vid=c8e4ff73-620c-4248-92f7-758d5098242c","ios":"levelo://app?vid=c8e4ff73-620c-4248-92f7-758d5098242c"},"vehicle_type_id":"4","last_reported":1727982448,"current_range_meters":26000,"station_id":"cpo3532slgdg3j2ikp40","pricing_plan_id":"cebpf4jnsgd1na2vs0mg"},{"bike_id":"aaee1235-2819-490c-a5bb-6f17941f3dcb","system_id":"levelo_inurba_marseille","lat":43.30916,"lon":5.36872,"is_reserved":false,"is_disabled":false,"rental_uris":{"android":"levelo://app?vid=aaee1235-2819-490c-a5bb-6f17941f3dcb","ios":"levelo://app?vid=aaee1235-2819-490c-a5bb-6f17941f3dcb"},"vehicle_type_id":"4","last_reported":1727982448,"current_range_meters":17600,"station_id":"ce4bgn92rcd13ifvqbvg","pricing_plan_id":"cebpf4jnsgd1na2vs0mg"},{"bike_id":"3bf045f0-0941-441d-8366-6abd7859d44f","system_id":"levelo_inurba_marseille","lat":43.26213,"lon":5.37445,"is_reserved":false,"is_disabled":false,"rental_uris":{"android":"levelo://app?vid=3bf045f0-0941-441d-8366-6abd7859d44f","ios":"levelo://app?vid=3bf045f0-0941-441d-8366-6abd7859d44f"},"vehicle_type_id":"4","last_reported":1727982448,"current_range_meters":36400,"station_id":"ce4bhgp2rcd13ifvqfc0","pricing_plan_id":"cebpf4jnsgd1na2vs0mg"},{"bike_id":"583eb2a3-c703-4842-8648-2706b2b88008","system_id":"levelo_inurba_marseille","lat":43.28154,"lon":5.4264,"is_reserved":false,"is_disabled":false,"rental_uris":{"android":"levelo://app?vid=583eb2a3-c703-4842-8648-2706b2b88008","ios":"levelo://app?vid=583eb2a3-c703-4842-8648-2706b2b88008"},"vehicle_type_id":"4","last_reported":1727982448,"current_range_meters":8800,"station_id":"ce4bhnh2rcd13ifvqgug","pricing_plan_id":"cebpf4jnsgd1na2vs0mg"},{"bike_id":"c79f1d9a-64ca-4b07-89be-0cf3553548d6","system_id":"levelo_inurba_marseille","lat":43.33022,"lon":5.3904,"is_reserved":false,"is_disabled":false,"rental_uris":{"android":"levelo://app?vid=c79f1d9a-64ca-4b07-89be-0cf3553548d6","ios":"levelo://app?vid=c79f1d9a-64ca-4b07-89be-0cf3553548d6"},"vehicle_type_id":"4","last_reported":1727982448,"current_range_meters":24400,"station_id":"ce4bhr92rcd13ifvqhrg","pricing_plan_id":"cebpf4jnsgd1na2vs0mg"},{"bike_id":"8545d28e-22b7-4d9c-b975-c77e2318a725","system_id":"levelo_inurba_marseille","lat":43.2894,"lon":5.36407,"is_reserved":false,"is_disabled":false,"rental_uris":{"android":"levelo://app?vid=8545d28e-22b7-4d9c-b975-c77e2318a725","ios":"levelo://app?vid=8545d28e-22b7-4d9c-b975-c77e2318a725"},"vehicle_type_id":"4","last_reported":1727982448,"current_range_meters":16000,"station_id":"ce4bhc92rcd13ifvqetg","pricing_plan_id":"cebpf4jnsgd1na2vs0mg"},{"bike_id":"df19166c-ecb8-4c24-b5fd-04013749e810","system_id":"levelo_inurba_marseille","lat":43.23959,"lon":5.36639,"is_reserved":false,"is_disabled":false,"rental_uris":{"android":"levelo://app?vid=df19166c-ecb8-4c24-b5fd-04013749e810","ios":"levelo://app?vid=df19166c-ecb8-4c24-b5fd-04013749e810"},"vehicle_type_id":"4","last_reported":1727982448,"current_range_meters":34000,"station_id":"ce4bhi12rcd13ifvqfp0","pricing_plan_id":"cebpf4jnsgd1na2vs0mg"},{"bike_id":"aa6145fa-b931-4c32-a8c7-9ee5fe3c050f","system_id":"levelo_inurba_marseille","lat":43.29522,"lon":5.39036,"is_reserved":false,"is_disabled":false,"rental_uris":{"android":"levelo://app?vid=aa6145fa-b931-4c32-a8c7-9ee5fe3c050f","ios":"levelo://app?vid=aa6145fa-b931-4c32-a8c7-9ee5fe3c050f"},"vehicle_type_id":"4","last_reported":1727982448,"current_range_meters":38800,"station_id":"ce4bh3p2rcd13ifvqdp0","pricing_plan_id":"cebpf4jnsgd1na2vs0mg"},{"bike_id":"51234694-4a24-470a-bb96-0d40cf984866","system_id":"levelo_inurba_marseille","lat":43.3087,"lon":5.39632,"is_reserved":false,"is_disabled":false,"rental_uris":{"android":"levelo://app?vid=51234694-4a24-470a-bb96-0d40cf984866","ios":"levelo://app?vid=51234694-4a24-470a-bb96-0d40cf984866"},"vehicle_type_id":"4","last_reported":1727982448,"current_range_meters":38800,"station_id":"ce4bh012rcd13ifvqcv0","pricing_plan_id":"cebpf4jnsgd1na2vs0mg"},{"bike_id":"9111912f-5f92-4e01-9623-79e0ea71aff6","system_id":"levelo_inurba_marseille","lat":43.32277,"lon":5.38259,"is_reserved":false,"is_disabled":false,"rental_uris":{"android":"levelo://app?vid=9111912f-5f92-4e01-9623-79e0ea71aff6","ios":"levelo://app?vid=9111912f-5f92-4e01-9623-79e0ea71aff6"},"vehicle_type_id":"4","last_reported":1727982448,"current_range_meters":36400,"station_id":"ce4bhr12rcd13ifvqhqg","pricing_plan_id":"cebpf4jnsgd1na2vs0mg"},{"bike_id":"09648bcd-aff3-4e5d-a358-b65c5d88ce54","system_id":"levelo_inurba_marseille","lat":43.24999,"lon":5.38933,"is_reserved":false,"is_disabled":false,"rental_uris":{"android":"levelo://app?vid=09648bcd-aff3-4e5d-a358-b65c5d88ce54","ios":"levelo://app?vid=09648bcd-aff3-4e5d-a358-b65c5d88ce54"},"vehicle_type_id":"4","last_reported":1727982448,"current_range_meters":38000,"station_id":"ce4bhgp2rcd13ifvqfd0","pricing_plan_id":"cebpf4jnsgd1na2vs0mg"},{"bike_id":"91ce5286-9976-41ad-9183-3cbc030fde18","system_id":"levelo_inurba_marseille","lat":43.30329,"lon":5.4044,"is_reserved":false,"is_disabled":false,"rental_uris":{"android":"levelo://app?vid=91ce5286-9976-41ad-9183-3cbc030fde18","ios":"levelo://app?vid=91ce5286-9976-41ad-9183-3cbc030fde18"},"vehicle_type_id":"4","last_reported":1727982448,"current_range_meters":38800,"station_id":"ce4bh012rcd13ifvqd10","pricing_plan_id":"cebpf4jnsgd1na2vs0mg"},{"bike_id":"b1d6023f-b81e-46d9-9a07-64a47457b5d2","system_id":"levelo_inurba_marseille","lat":43.31688,"lon":5.40476,"is_reserved":false,"is_disabled":false,"rental_uris":{"android":"levelo://app?vid=b1d6023f-b81e-46d9-9a07-64a47457b5d2","ios":"levelo://app?vid=b1d6023f-b81e-46d9-9a07-64a47457b5d2"},"vehicle_type_id":"4","last_reported":1727982448,"current_range_meters":30400,"station_id":"ce4bh012rcd13ifvqd00","pricing_plan_id":"cebpf4jnsgd1na2vs0mg"},{"bike_id":"ef744a15-fda8-4ce0-acbc-a055f1975723","system_id":"levelo_inurba_marseille","lat":43.30889,"lon":5.37196,"is_reserved":false,"is_disabled":false,"rental_uris":{"android":"levelo://app?vid=ef744a15-fda8-4ce0-acbc-a055f1975723","ios":"levelo://app?vid=ef744a15-fda8-4ce0-acbc-a055f1975723"},"vehicle_type_id":"4","last_reported":1727982448,"current_range_meters":38800,"station_id":"ce4bguh2rcd13ifvqckg","pricing_plan_id":"cebpf4jnsgd1na2vs0mg"},{"bike_id":"47096975-bede-4100-b73f-a5cbb9ab9117","system_id":"levelo_inurba_marseille","lat":43.294195,"lon":5.38628,"is_reserved":false,"is_disabled":false,"rental_uris":{"android":"levelo://app?vid=47096975-bede-4100-b73f-a5cbb9ab9117","ios":"levelo://app?vid=47096975-bede-4100-b73f-a5cbb9ab9117"},"vehicle_type_id":"4","last_reported":1727982448,"current_range_meters":38800,"station_id":"ce4bgv12rcd13ifvqcp0","pricing_plan_id":"cebpf4jnsgd1na2vs0mg"},{"bike_id":"bd8535c5-ba76-4f16-8ad2-6b9441b72570","system_id":"levelo_inurba_marseille","lat":43.28612,"lon":5.35104,"is_reserved":false,"is_disabled":false,"rental_uris":{"android":"levelo://app?vid=bd8535c5-ba76-4f16-8ad2-6b9441b72570","ios":"levelo://app?vid=bd8535c5-ba76-4f16-8ad2-6b9441b72570"},"vehicle_type_id":"4","last_reported":1727982448,"current_range_meters":38800,"station_id":"ce4bhch2rcd13ifvqeug","pricing_plan_id":"cebpf4jnsgd1na2vs0mg"},{"bike_id":"638ea2d4-cb56-475a-9712-21b4df19cbce","system_id":"levelo_inurba_marseille","lat":43.31758,"lon":5.39,"is_reserved":false,"is_disabled":false,"rental_uris":{"android":"levelo://app?vid=638ea2d4-cb56-475a-9712-21b4df19cbce","ios":"levelo://app?vid=638ea2d4-cb56-475a-9712-21b4df19cbce"},"vehicle_type_id":"4","last_reported":1727982448,"current_range_meters":32000,"station_id":"ce4bhqp2rcd13ifvqhng","pricing_plan_id":"cebpf4jnsgd1na2vs0mg"},{"bike_id":"f0b899b3-ea09-4c19-ba3f-b6bff2e53be7","system_id":"levelo_inurba_marseille","lat":43.24543,"lon":5.3953,"is_reserved":false,"is_disabled":false,"rental_uris":{"android":"levelo://app?vid=f0b899b3-ea09-4c19-ba3f-b6bff2e53be7","ios":"levelo://app?vid=f0b899b3-ea09-4c19-ba3f-b6bff2e53be7"},"vehicle_type_id":"4","last_reported":1727982448,"current_range_meters":10800,"station_id":"ce4bhlp2rcd13ifvqgjg","pricing_plan_id":"cebpf4jnsgd1na2vs0mg"},{"bike_id":"cd7123b1-7f1d-4da5-bc8a-82bdf96d5732","system_id":"levelo_inurba_marseille","lat":43.29271,"lon":5.38447,"is_reserved":false,"is_disabled":false,"rental_uris":{"android":"levelo://app?vid=cd7123b1-7f1d-4da5-bc8a-82bdf96d5732","ios":"levelo://app?vid=cd7123b1-7f1d-4da5-bc8a-82bdf96d5732"},"vehicle_type_id":"4","last_reported":1727982448,"current_range_meters":35600,"station_id":"ce4bh692rcd13ifvqea0","pricing_plan_id":"cebpf4jnsgd1na2vs0mg"},{"bike_id":"4fea5834-b904-4dff-a99d-fbab0187ab8f","system_id":"levelo_inurba_marseille","lat":43.27842,"lon":5.39212,"is_reserved":false,"is_disabled":false,"rental_uris":{"android":"levelo://app?vid=4fea5834-b904-4dff-a99d-fbab0187ab8f","ios":"levelo://app?vid=4fea5834-b904-4dff-a99d-fbab0187ab8f"},"vehicle_type_id":"4","last_reported":1727982448,"current_range_meters":5600,"station_id":"ce4bhjp2rcd13ifvqga0","pricing_plan_id":"cebpf4jnsgd1na2vs0mg"},{"bike_id":"dc086a08-bc01-4a19-b785-58f21f6829ae","system_id":"levelo_inurba_marseille","lat":43.25499,"lon":5.37649,"is_reserved":false,"is_disabled":false,"rental_uris":{"android":"levelo://app?vid=dc086a08-bc01-4a19-b785-58f21f6829ae","ios":"levelo://app?vid=dc086a08-bc01-4a19-b785-58f21f6829ae"},"vehicle_type_id":"4","last_reported":1727982448,"current_range_meters":10800,"station_id":"ce4bhh12rcd13ifvqff0","pricing_plan_id":"cebpf4jnsgd1na2vs0mg"},{"bike_id":"7211bed2-8514-4169-9df5-9ea6b7b446bf","system_id":"levelo_inurba_marseille","lat":43.28611,"lon":5.35103,"is_reserved":false,"is_disabled":false,"rental_uris":{"android":"levelo://app?vid=7211bed2-8514-4169-9df5-9ea6b7b446bf","ios":"levelo://app?vid=7211bed2-8514-4169-9df5-9ea6b7b446bf"},"vehicle_type_id":"4","last_reported":1727982448,"current_range_meters":12000,"station_id":"ce4bhch2rcd13ifvqeug","pricing_plan_id":"cebpf4jnsgd1na2vs0mg"},{"bike_id":"8ff33c35-dc79-4272-944c-ade9cd7d3883","system_id":"levelo_inurba_marseille","lat":43.28937,"lon":5.36641,"is_reserved":false,"is_disabled":false,"rental_uris":{"android":"levelo://app?vid=8ff33c35-dc79-4272-944c-ade9cd7d3883","ios":"levelo://app?vid=8ff33c35-dc79-4272-944c-ade9cd7d3883"},"vehicle_type_id":"4","last_reported":1727982448,"current_range_meters":9200,"station_id":"ce4bhap2rcd13ifvqek0","pricing_plan_id":"cebpf4jnsgd1na2vs0mg"},{"bike_id":"4e4322ae-ccc0-445e-b427-24bb2e02216e","system_id":"levelo_inurba_marseille","lat":43.24546,"lon":5.39522,"is_reserved":false,"is_disabled":false,"rental_uris":{"android":"levelo://app?vid=4e4322ae-ccc0-445e-b427-24bb2e02216e","ios":"levelo://app?vid=4e4322ae-ccc0-445e-b427-24bb2e02216e"},"vehicle_type_id":"4","last_reported":1727982448,"current_range_meters":6800,"station_id":"ce4bhlp2rcd13ifvqgjg","pricing_plan_id":"cebpf4jnsgd1na2vs0mg"},{"bike_id":"572c2a05-0883-4791-9bdd-0d43e279dca0","system_id":"levelo_inurba_marseille","lat":43.2962,"lon":5.37152,"is_reserved":false,"is_disabled":false,"rental_uris":{"android":"levelo://app?vid=572c2a05-0883-4791-9bdd-0d43e279dca0","ios":"levelo://app?vid=572c2a05-0883-4791-9bdd-0d43e279dca0"},"vehicle_type_id":"4","last_reported":1727982448,"current_range_meters":3200,"station_id":"ce4bgnh2rcd13ifvqc0g","pricing_plan_id":"cebpf4jnsgd1na2vs0mg"},{"bike_id":"0fe5dd14-3bf7-41c4-8bf0-6fc6624c2399","system_id":"levelo_inurba_marseille","lat":43.27494,"lon":5.42452,"is_reserved":false,"is_disabled":false,"rental_uris":{"android":"levelo://app?vid=0fe5dd14-3bf7-41c4-8bf0-6fc6624c2399","ios":"levelo://app?vid=0fe5dd14-3bf7-41c4-8bf0-6fc6624c2399"},"vehicle_type_id":"4","last_reported":1727982448,"current_range_meters":36400,"station_id":"ce4bhn92rcd13ifvqgrg","pricing_plan_id":"cebpf4jnsgd1na2vs0mg"},{"bike_id":"507f0c3c-1c7f-4bcc-9e17-42ac9bbd3d55","system_id":"levelo_inurba_marseille","lat":43.311133,"lon":5.377678,"is_reserved":false,"is_disabled":false,"rental_uris":{"android":"levelo://app?vid=507f0c3c-1c7f-4bcc-9e17-42ac9bbd3d55","ios":"levelo://app?vid=507f0c3c-1c7f-4bcc-9e17-42ac9bbd3d55"},"vehicle_type_id":"4","last_reported":1727982448,"current_range_meters":12000,"station_id":"ce4bgup2rcd13ifvqcn0","pricing_plan_id":"cebpf4jnsgd1na2vs0mg"},{"bike_id":"b1de2d2c-06c8-4cd3-a9c2-6a5c17f5b3bb","system_id":"levelo_inurba_marseille","lat":43.322428,"lon":5.3866,"is_reserved":false,"is_disabled":false,"rental_uris":{"android":"levelo://app?vid=b1de2d2c-06c8-4cd3-a9c2-6a5c17f5b3bb","ios":"levelo://app?vid=b1de2d2c-06c8-4cd3-a9c2-6a5c17f5b3bb"},"vehicle_type_id":"4","last_reported":1727982448,"current_range_meters":14000,"station_id":"","pricing_plan_id":"cebpf4jnsgd1na2vs0mg"},{"bike_id":"ed0db05c-7ead-4cb3-b68f-851526467de3","system_id":"levelo_inurba_marseille","lat":43.26558,"lon":5.37285,"is_reserved":false,"is_disabled":false,"rental_uris":{"android":"levelo://app?vid=ed0db05c-7ead-4cb3-b68f-851526467de3","ios":"levelo://app?vid=ed0db05c-7ead-4cb3-b68f-851526467de3"},"vehicle_type_id":"4","last_reported":1727982448,"current_range_meters":17600,"station_id":"ce4bhg12rcd13ifvqf70","pricing_plan_id":"cebpf4jnsgd1na2vs0mg"},{"bike_id":"db32e16b-47d6-490e-8168-654a5eebd6ce","system_id":"levelo_inurba_marseille","lat":43.22933,"lon":5.35378,"is_reserved":false,"is_disabled":false,"rental_uris":{"android":"levelo://app?vid=db32e16b-47d6-490e-8168-654a5eebd6ce","ios":"levelo://app?vid=db32e16b-47d6-490e-8168-654a5eebd6ce"},"vehicle_type_id":"4","last_reported":1727982448,"current_range_meters":38000,"station_id":"cpo3532slgdg3j2ikp40","pricing_plan_id":"cebpf4jnsgd1na2vs0mg"},{"bike_id":"3abd7063-56b4-4bd1-abe8-e097f110e528","system_id":"levelo_inurba_marseille","lat":43.25722,"lon":5.41118,"is_reserved":false,"is_disabled":false,"rental_uris":{"android":"levelo://app?vid=3abd7063-56b4-4bd1-abe8-e097f110e528","ios":"levelo://app?vid=3abd7063-56b4-4bd1-abe8-e097f110e528"},"vehicle_type_id":"4","last_reported":1727982448,"current_range_meters":16800,"station_id":"ce4bhkp2rcd13ifvqgd0","pricing_plan_id":"cebpf4jnsgd1na2vs0mg"},{"bike_id":"ba268cfb-32df-4ac2-8d53-f107185f5557","system_id":"levelo_inurba_marseille","lat":43.27607,"lon":5.3612,"is_reserved":false,"is_disabled":false,"rental_uris":{"android":"levelo://app?vid=ba268cfb-32df-4ac2-8d53-f107185f5557","ios":"levelo://app?vid=ba268cfb-32df-4ac2-8d53-f107185f5557"},"vehicle_type_id":"4","last_reported":1727982448,"current_range_meters":37600,"station_id":"ce4bgj92rcd13ifvqbe0","pricing_plan_id":"cebpf4jnsgd1na2vs0mg"},{"bike_id":"0fdfbc62-8090-4c2c-a1d7-119aa834ad6d","system_id":"levelo_inurba_marseille","lat":43.28103,"lon":5.37834,"is_reserved":false,"is_disabled":false,"rental_uris":{"android":"levelo://app?vid=0fdfbc62-8090-4c2c-a1d7-119aa834ad6d","ios":"levelo://app?vid=0fdfbc62-8090-4c2c-a1d7-119aa834ad6d"},"vehicle_type_id":"4","last_reported":1727982448,"current_range_meters":38800,"station_id":"ce4bha12rcd13ifvqee0","pricing_plan_id":"cebpf4jnsgd1na2vs0mg"},{"bike_id":"38ccb47c-cec4-440c-a317-244788fef8a1","system_id":"levelo_inurba_marseille","lat":43.23962,"lon":5.36641,"is_reserved":false,"is_disabled":false,"rental_uris":{"android":"levelo://app?vid=38ccb47c-cec4-440c-a317-244788fef8a1","ios":"levelo://app?vid=38ccb47c-cec4-440c-a317-244788fef8a1"},"vehicle_type_id":"4","last_reported":1727982448,"current_range_meters":38800,"station_id":"ce4bhi12rcd13ifvqfp0","pricing_plan_id":"cebpf4jnsgd1na2vs0mg"},{"bike_id":"8230debd-8411-4b30-964c-4419326d3d92","system_id":"levelo_inurba_marseille","lat":43.28663,"lon":5.38666,"is_reserved":false,"is_disabled":false,"rental_uris":{"android":"levelo://app?vid=8230debd-8411-4b30-964c-4419326d3d92","ios":"levelo://app?vid=8230debd-8411-4b30-964c-4419326d3d92"},"vehicle_type_id":"4","last_reported":1727982448,"current_range_meters":19200,"station_id":"ce4bh492rcd13ifvqdug","pricing_plan_id":"cebpf4jnsgd1na2vs0mg"},{"bike_id":"d7877609-6b5f-4f1b-b1e9-67841d44573b","system_id":"levelo_inurba_marseille","lat":43.29553,"lon":5.42287,"is_reserved":false,"is_disabled":false,"rental_uris":{"android":"levelo://app?vid=d7877609-6b5f-4f1b-b1e9-67841d44573b","ios":"levelo://app?vid=d7877609-6b5f-4f1b-b1e9-67841d44573b"},"vehicle_type_id":"4","last_reported":1727982448,"current_range_meters":36400,"station_id":"ce4bhph2rcd13ifvqhdg","pricing_plan_id":"cebpf4jnsgd1na2vs0mg"},{"bike_id":"f010b4ba-8702-4285-b0b3-1c02ef0ba70e","system_id":"levelo_inurba_marseille","lat":43.30302,"lon":5.39217,"is_reserved":false,"is_disabled":false,"rental_uris":{"android":"levelo://app?vid=f010b4ba-8702-4285-b0b3-1c02ef0ba70e","ios":"levelo://app?vid=f010b4ba-8702-4285-b0b3-1c02ef0ba70e"},"vehicle_type_id":"4","last_reported":1727982448,"current_range_meters":29600,"station_id":"ce4bgkh2rcd13ifvqbk0","pricing_plan_id":"cebpf4jnsgd1na2vs0mg"},{"bike_id":"d9513a24-3235-43a7-b9a5-1c5cfe37603f","system_id":"levelo_inurba_marseille","lat":43.23059,"lon":5.3549,"is_reserved":false,"is_disabled":false,"rental_uris":{"android":"levelo://app?vid=d9513a24-3235-43a7-b9a5-1c5cfe37603f","ios":"levelo://app?vid=d9513a24-3235-43a7-b9a5-1c5cfe37603f"},"vehicle_type_id":"4","last_reported":1727982448,"current_range_meters":28400,"station_id":"cpo3342slgdg3j2ifvpg","pricing_plan_id":"cebpf4jnsgd1na2vs0mg"},{"bike_id":"0641eb8a-fd97-4774-b353-43b49800bbc2","system_id":"levelo_inurba_marseille","lat":43.30786,"lon":5.37647,"is_reserved":false,"is_disabled":false,"rental_uris":{"android":"levelo://app?vid=0641eb8a-fd97-4774-b353-43b49800bbc2","ios":"levelo://app?vid=0641eb8a-fd97-4774-b353-43b49800bbc2"},"vehicle_type_id":"4","last_reported":1727982448,"current_range_meters":14800,"station_id":"ce4bgv92rcd13ifvqcq0","pricing_plan_id":"cebpf4jnsgd1na2vs0mg"},{"bike_id":"68f4d372-4378-467b-a018-76172a4f3ad3","system_id":"levelo_inurba_marseille","lat":43.28968,"lon":5.37845,"is_reserved":false,"is_disabled":false,"rental_uris":{"android":"levelo://app?vid=68f4d372-4378-467b-a018-76172a4f3ad3","ios":"levelo://app?vid=68f4d372-4378-467b-a018-76172a4f3ad3"},"vehicle_type_id":"4","last_reported":1727982448,"current_range_meters":6400,"station_id":"ce4bh9p2rcd13ifvqed0","pricing_plan_id":"cebpf4jnsgd1na2vs0mg"},{"bike_id":"66538481-5974-4170-80ef-c603c4459cc1","system_id":"levelo_inurba_marseille","lat":43.24183,"lon":5.39728,"is_reserved":false,"is_disabled":false,"rental_uris":{"android":"levelo://app?vid=66538481-5974-4170-80ef-c603c4459cc1","ios":"levelo://app?vid=66538481-5974-4170-80ef-c603c4459cc1"},"vehicle_type_id":"4","last_reported":1727982448,"current_range_meters":20800,"station_id":"ce4bhn12rcd13ifvqgpg","pricing_plan_id":"cebpf4jnsgd1na2vs0mg"},{"bike_id":"8ae5804c-01ef-4717-ac4d-8a8ff1ccee11","system_id":"levelo_inurba_marseille","lat":43.30889,"lon":5.37198,"is_reserved":false,"is_disabled":false,"rental_uris":{"android":"levelo://app?vid=8ae5804c-01ef-4717-ac4d-8a8ff1ccee11","ios":"levelo://app?vid=8ae5804c-01ef-4717-ac4d-8a8ff1ccee11"},"vehicle_type_id":"4","last_reported":1727982448,"current_range_meters":38800,"station_id":"ce4bguh2rcd13ifvqckg","pricing_plan_id":"cebpf4jnsgd1na2vs0mg"},{"bike_id":"cc59d44c-2149-4ccd-bc8c-3fe2ad63125f","system_id":"levelo_inurba_marseille","lat":43.25873,"lon":5.39895,"is_reserved":false,"is_disabled":false,"rental_uris":{"android":"levelo://app?vid=cc59d44c-2149-4ccd-bc8c-3fe2ad63125f","ios":"levelo://app?vid=cc59d44c-2149-4ccd-bc8c-3fe2ad63125f"},"vehicle_type_id":"4","last_reported":1727982448,"current_range_meters":38000,"station_id":"ce4bhl92rcd13ifvqghg","pricing_plan_id":"cebpf4jnsgd1na2vs0mg"},{"bike_id":"21235d11-ce3d-42cc-9941-4002c4be30df","system_id":"levelo_inurba_marseille","lat":43.30311,"lon":5.36896,"is_reserved":false,"is_disabled":false,"rental_uris":{"android":"levelo://app?vid=21235d11-ce3d-42cc-9941-4002c4be30df","ios":"levelo://app?vid=21235d11-ce3d-42cc-9941-4002c4be30df"},"vehicle_type_id":"4","last_reported":1727982448,"current_range_meters":16400,"station_id":"ce4bgqh2rcd13ifvqc5g","pricing_plan_id":"cebpf4jnsgd1na2vs0mg"},{"bike_id":"3ad980dd-70a8-4bda-b341-906daa22cc63","system_id":"levelo_inurba_marseille","lat":43.29537,"lon":5.38534,"is_reserved":false,"is_disabled":false,"rental_uris":{"android":"levelo://app?vid=3ad980dd-70a8-4bda-b341-906daa22cc63","ios":"levelo://app?vid=3ad980dd-70a8-4bda-b341-906daa22cc63"},"vehicle_type_id":"4","last_reported":1727982448,"current_range_meters":26800,"station_id":"ce4bgih2rcd13ifvqba0","pricing_plan_id":"cebpf4jnsgd1na2vs0mg"},{"bike_id":"7b0872ec-2539-49e2-a78c-02c797be8752","system_id":"levelo_inurba_marseille","lat":43.27321,"lon":5.39087,"is_reserved":false,"is_disabled":false,"rental_uris":{"android":"levelo://app?vid=7b0872ec-2539-49e2-a78c-02c797be8752","ios":"levelo://app?vid=7b0872ec-2539-49e2-a78c-02c797be8752"},"vehicle_type_id":"4","last_reported":1727982448,"current_range_meters":38800,"station_id":"ce4bhgp2rcd13ifvqfe0","pricing_plan_id":"cebpf4jnsgd1na2vs0mg"},{"bike_id":"2ea0b90a-ee42-42eb-88b7-c289f9e72cb7","system_id":"levelo_inurba_marseille","lat":43.303802,"lon":5.437709,"is_reserved":false,"is_disabled":false,"rental_uris":{"android":"levelo://app?vid=2ea0b90a-ee42-42eb-88b7-c289f9e72cb7","ios":"levelo://app?vid=2ea0b90a-ee42-42eb-88b7-c289f9e72cb7"},"vehicle_type_id":"4","last_reported":1727982448,"current_range_meters":38000,"station_id":"","pricing_plan_id":"cebpf4jnsgd1na2vs0mg"},{"bike_id":"eee1dc5a-9ffe-417d-a588-57898aac93ea","system_id":"levelo_inurba_marseille","lat":43.28076,"lon":5.39669,"is_reserved":false,"is_disabled":false,"rental_uris":{"android":"levelo://app?vid=eee1dc5a-9ffe-417d-a588-57898aac93ea","ios":"levelo://app?vid=eee1dc5a-9ffe-417d-a588-57898aac93ea"},"vehicle_type_id":"4","last_reported":1727982448,"current_range_meters":24400,"station_id":"ce4bho12rcd13ifvqh2g","pricing_plan_id":"cebpf4jnsgd1na2vs0mg"},{"bike_id":"bbb550aa-3f65-46a3-bce3-8440e5eb5f7e","system_id":"levelo_inurba_marseille","lat":43.28153,"lon":5.42636,"is_reserved":false,"is_disabled":false,"rental_uris":{"android":"levelo://app?vid=bbb550aa-3f65-46a3-bce3-8440e5eb5f7e","ios":"levelo://app?vid=bbb550aa-3f65-46a3-bce3-8440e5eb5f7e"},"vehicle_type_id":"4","last_reported":1727982448,"current_range_meters":12800,"station_id":"ce4bhnh2rcd13ifvqgug","pricing_plan_id":"cebpf4jnsgd1na2vs0mg"},{"bike_id":"9e7c7b32-6eaf-4fc1-93ae-698cfa47c91c","system_id":"levelo_inurba_marseille","lat":43.313627,"lon":5.385006,"is_reserved":false,"is_disabled":false,"rental_uris":{"android":"levelo://app?vid=9e7c7b32-6eaf-4fc1-93ae-698cfa47c91c","ios":"levelo://app?vid=9e7c7b32-6eaf-4fc1-93ae-698cfa47c91c"},"vehicle_type_id":"4","last_reported":1727982448,"current_range_meters":12000,"station_id":"ce4bgt92rcd13ifvqcf0","pricing_plan_id":"cebpf4jnsgd1na2vs0mg"},{"bike_id":"03688201-3b6b-4b90-891b-e90589a005b0","system_id":"levelo_inurba_marseille","lat":43.30217,"lon":5.37509,"is_reserved":false,"is_disabled":false,"rental_uris":{"android":"levelo://app?vid=03688201-3b6b-4b90-891b-e90589a005b0","ios":"levelo://app?vid=03688201-3b6b-4b90-891b-e90589a005b0"},"vehicle_type_id":"4","last_reported":1727982448,"current_range_meters":4000,"station_id":"ce4bguh2rcd13ifvqcj0","pricing_plan_id":"cebpf4jnsgd1na2vs0mg"},{"bike_id":"077f0c22-689d-474a-8f48-4b82a586c517","system_id":"levelo_inurba_marseille","lat":43.2954,"lon":5.385658,"is_reserved":false,"is_disabled":false,"rental_uris":{"android":"levelo://app?vid=077f0c22-689d-474a-8f48-4b82a586c517","ios":"levelo://app?vid=077f0c22-689d-474a-8f48-4b82a586c517"},"vehicle_type_id":"4","last_reported":1727982448,"current_range_meters":30800,"station_id":"ce4bgih2rcd13ifvqba0","pricing_plan_id":"cebpf4jnsgd1na2vs0mg"},{"bike_id":"460c1d2c-d2d9-40fe-86a9-69971e1a4296","system_id":"levelo_inurba_marseille","lat":43.28154,"lon":5.42645,"is_reserved":false,"is_disabled":false,"rental_uris":{"android":"levelo://app?vid=460c1d2c-d2d9-40fe-86a9-69971e1a4296","ios":"levelo://app?vid=460c1d2c-d2d9-40fe-86a9-69971e1a4296"},"vehicle_type_id":"4","last_reported":1727982448,"current_range_meters":6000,"station_id":"ce4bhnh2rcd13ifvqgug","pricing_plan_id":"cebpf4jnsgd1na2vs0mg"},{"bike_id":"99f05783-0195-4481-938a-ff25f075de94","system_id":"levelo_inurba_marseille","lat":43.28151,"lon":5.42643,"is_reserved":false,"is_disabled":false,"rental_uris":{"android":"levelo://app?vid=99f05783-0195-4481-938a-ff25f075de94","ios":"levelo://app?vid=99f05783-0195-4481-938a-ff25f075de94"},"vehicle_type_id":"4","last_reported":1727982448,"current_range_meters":22800,"station_id":"ce4bhnh2rcd13ifvqgug","pricing_plan_id":"cebpf4jnsgd1na2vs0mg"},{"bike_id":"21ed36b3-d5bf-48f5-9b3d-3ac59db7bafd","system_id":"levelo_inurba_marseille","lat":43.23179,"lon":5.39989,"is_reserved":false,"is_disabled":false,"rental_uris":{"android":"levelo://app?vid=21ed36b3-d5bf-48f5-9b3d-3ac59db7bafd","ios":"levelo://app?vid=21ed36b3-d5bf-48f5-9b3d-3ac59db7bafd"},"vehicle_type_id":"4","last_reported":1727982448,"current_range_meters":30400,"station_id":"ce4bhn12rcd13ifvqgqg","pricing_plan_id":"cebpf4jnsgd1na2vs0mg"},{"bike_id":"3fe8d3b7-ccf5-449b-a74c-2f8fabce9f01","system_id":"levelo_inurba_marseille","lat":43.30891,"lon":5.37203,"is_reserved":false,"is_disabled":false,"rental_uris":{"android":"levelo://app?vid=3fe8d3b7-ccf5-449b-a74c-2f8fabce9f01","ios":"levelo://app?vid=3fe8d3b7-ccf5-449b-a74c-2f8fabce9f01"},"vehicle_type_id":"4","last_reported":1727982448,"current_range_meters":36400,"station_id":"ce4bguh2rcd13ifvqckg","pricing_plan_id":"cebpf4jnsgd1na2vs0mg"},{"bike_id":"00115059-0a0e-4a07-a516-32ef5ac80071","system_id":"levelo_inurba_marseille","lat":43.26684,"lon":5.38276,"is_reserved":false,"is_disabled":false,"rental_uris":{"android":"levelo://app?vid=00115059-0a0e-4a07-a516-32ef5ac80071","ios":"levelo://app?vid=00115059-0a0e-4a07-a516-32ef5ac80071"},"vehicle_type_id":"4","last_reported":1727982448,"current_range_meters":34000,"station_id":"ce4bhg92rcd13ifvqf90","pricing_plan_id":"cebpf4jnsgd1na2vs0mg"},{"bike_id":"b5b820da-5e26-4324-b810-bb4661df473c","system_id":"levelo_inurba_marseille","lat":43.29519,"lon":5.39403,"is_reserved":false,"is_disabled":false,"rental_uris":{"android":"levelo://app?vid=b5b820da-5e26-4324-b810-bb4661df473c","ios":"levelo://app?vid=b5b820da-5e26-4324-b810-bb4661df473c"},"vehicle_type_id":"4","last_reported":1727982448,"current_range_meters":38800,"station_id":"ce4bh292rcd13ifvqdf0","pricing_plan_id":"cebpf4jnsgd1na2vs0mg"},{"bike_id":"4d5295aa-04bc-493b-9ef8-c3a0716b12f8","system_id":"levelo_inurba_marseille","lat":43.28152,"lon":5.42645,"is_reserved":false,"is_disabled":false,"rental_uris":{"android":"levelo://app?vid=4d5295aa-04bc-493b-9ef8-c3a0716b12f8","ios":"levelo://app?vid=4d5295aa-04bc-493b-9ef8-c3a0716b12f8"},"vehicle_type_id":"4","last_reported":1727982448,"current_range_meters":20000,"station_id":"ce4bhnh2rcd13ifvqgug","pricing_plan_id":"cebpf4jnsgd1na2vs0mg"},{"bike_id":"38f6eada-d8d7-414a-91e0-14e6c7ab6c18","system_id":"levelo_inurba_marseille","lat":43.30586,"lon":5.39356,"is_reserved":false,"is_disabled":false,"rental_uris":{"android":"levelo://app?vid=38f6eada-d8d7-414a-91e0-14e6c7ab6c18","ios":"levelo://app?vid=38f6eada-d8d7-414a-91e0-14e6c7ab6c18"},"vehicle_type_id":"4","last_reported":1727982448,"current_range_meters":34000,"station_id":"ce4bh0p2rcd13ifvqd80","pricing_plan_id":"cebpf4jnsgd1na2vs0mg"},{"bike_id":"9d1271a4-f60e-47fe-b989-3ffb38bffeef","system_id":"levelo_inurba_marseille","lat":43.23963,"lon":5.36629,"is_reserved":false,"is_disabled":false,"rental_uris":{"android":"levelo://app?vid=9d1271a4-f60e-47fe-b989-3ffb38bffeef","ios":"levelo://app?vid=9d1271a4-f60e-47fe-b989-3ffb38bffeef"},"vehicle_type_id":"4","last_reported":1727982448,"current_range_meters":20000,"station_id":"ce4bhi12rcd13ifvqfp0","pricing_plan_id":"cebpf4jnsgd1na2vs0mg"},{"bike_id":"41130c3a-f1fe-4ee1-b003-74ec0f70dd4d","system_id":"levelo_inurba_marseille","lat":43.29165,"lon":5.37155,"is_reserved":false,"is_disabled":false,"rental_uris":{"android":"levelo://app?vid=41130c3a-f1fe-4ee1-b003-74ec0f70dd4d","ios":"levelo://app?vid=41130c3a-f1fe-4ee1-b003-74ec0f70dd4d"},"vehicle_type_id":"4","last_reported":1727982448,"current_range_meters":36800,"station_id":"ce4bha92rcd13ifvqeh0","pricing_plan_id":"cebpf4jnsgd1na2vs0mg"},{"bike_id":"db22f536-b4bc-44a4-ae1e-74aeddd3d6d3","system_id":"levelo_inurba_marseille","lat":43.29502,"lon":5.39054,"is_reserved":false,"is_disabled":false,"rental_uris":{"android":"levelo://app?vid=db22f536-b4bc-44a4-ae1e-74aeddd3d6d3","ios":"levelo://app?vid=db22f536-b4bc-44a4-ae1e-74aeddd3d6d3"},"vehicle_type_id":"4","last_reported":1727982448,"current_range_meters":38800,"station_id":"ce4bh3p2rcd13ifvqdp0","pricing_plan_id":"cebpf4jnsgd1na2vs0mg"},{"bike_id":"f032ef3c-ef4a-4d6b-aa30-043fdbeef707","system_id":"levelo_inurba_marseille","lat":43.29975,"lon":5.38493,"is_reserved":false,"is_disabled":false,"rental_uris":{"android":"levelo://app?vid=f032ef3c-ef4a-4d6b-aa30-043fdbeef707","ios":"levelo://app?vid=f032ef3c-ef4a-4d6b-aa30-043fdbeef707"},"vehicle_type_id":"4","last_reported":1727982448,"current_range_meters":38400,"station_id":"ce4bgk12rcd13ifvqbi0","pricing_plan_id":"cebpf4jnsgd1na2vs0mg"},{"bike_id":"cc12cf36-a2ca-4aa4-9d99-ba0559b6af63","system_id":"levelo_inurba_marseille","lat":43.25506,"lon":5.37677,"is_reserved":false,"is_disabled":false,"rental_uris":{"android":"levelo://app?vid=cc12cf36-a2ca-4aa4-9d99-ba0559b6af63","ios":"levelo://app?vid=cc12cf36-a2ca-4aa4-9d99-ba0559b6af63"},"vehicle_type_id":"4","last_reported":1727982448,"current_range_meters":38800,"station_id":"ce4bhh12rcd13ifvqff0","pricing_plan_id":"cebpf4jnsgd1na2vs0mg"},{"bike_id":"5886a14c-43d2-4d5a-a498-257ad77196bb","system_id":"levelo_inurba_marseille","lat":43.30143,"lon":5.39878,"is_reserved":false,"is_disabled":false,"rental_uris":{"android":"levelo://app?vid=5886a14c-43d2-4d5a-a498-257ad77196bb","ios":"levelo://app?vid=5886a14c-43d2-4d5a-a498-257ad77196bb"},"vehicle_type_id":"4","last_reported":1727982448,"current_range_meters":38800,"station_id":"ce4bh0h2rcd13ifvqd40","pricing_plan_id":"cebpf4jnsgd1na2vs0mg"},{"bike_id":"06cf161d-dde1-4e22-bb49-296662df0fc3","system_id":"levelo_inurba_marseille","lat":43.25582,"lon":5.38223,"is_reserved":false,"is_disabled":false,"rental_uris":{"android":"levelo://app?vid=06cf161d-dde1-4e22-bb49-296662df0fc3","ios":"levelo://app?vid=06cf161d-dde1-4e22-bb49-296662df0fc3"},"vehicle_type_id":"4","last_reported":1727982448,"current_range_meters":28800,"station_id":"ce4bhih2rcd13ifvqfs0","pricing_plan_id":"cebpf4jnsgd1na2vs0mg"},{"bike_id":"830ac713-2724-4fda-92cc-5a303e26e2fc","system_id":"levelo_inurba_marseille","lat":43.33032,"lon":5.39043,"is_reserved":false,"is_disabled":false,"rental_uris":{"android":"levelo://app?vid=830ac713-2724-4fda-92cc-5a303e26e2fc","ios":"levelo://app?vid=830ac713-2724-4fda-92cc-5a303e26e2fc"},"vehicle_type_id":"4","last_reported":1727982448,"current_range_meters":37600,"station_id":"ce4bhr92rcd13ifvqhrg","pricing_plan_id":"cebpf4jnsgd1na2vs0mg"},{"bike_id":"17774e5e-4ca1-4447-afa9-8f03dd4b5e12","system_id":"levelo_inurba_marseille","lat":43.26189,"lon":5.37458,"is_reserved":false,"is_disabled":false,"rental_uris":{"android":"levelo://app?vid=17774e5e-4ca1-4447-afa9-8f03dd4b5e12","ios":"levelo://app?vid=17774e5e-4ca1-4447-afa9-8f03dd4b5e12"},"vehicle_type_id":"4","last_reported":1727982448,"current_range_meters":7200,"station_id":"ce4bhgp2rcd13ifvqfc0","pricing_plan_id":"cebpf4jnsgd1na2vs0mg"},{"bike_id":"072fb9f0-10f7-4b22-b209-ee697ad91a4e","system_id":"levelo_inurba_marseille","lat":43.30426,"lon":5.38889,"is_reserved":false,"is_disabled":false,"rental_uris":{"android":"levelo://app?vid=072fb9f0-10f7-4b22-b209-ee697ad91a4e","ios":"levelo://app?vid=072fb9f0-10f7-4b22-b209-ee697ad91a4e"},"vehicle_type_id":"4","last_reported":1727982448,"current_range_meters":24800,"station_id":"ce4bgk12rcd13ifvqbi0","pricing_plan_id":"cebpf4jnsgd1na2vs0mg"},{"bike_id":"4b521e87-9df7-434b-a603-28a6a390cff8","system_id":"levelo_inurba_marseille","lat":43.30891,"lon":5.37203,"is_reserved":false,"is_disabled":false,"rental_uris":{"android":"levelo://app?vid=4b521e87-9df7-434b-a603-28a6a390cff8","ios":"levelo://app?vid=4b521e87-9df7-434b-a603-28a6a390cff8"},"vehicle_type_id":"4","last_reported":1727982448,"current_range_meters":22000,"station_id":"ce4bguh2rcd13ifvqckg","pricing_plan_id":"cebpf4jnsgd1na2vs0mg"},{"bike_id":"328c11ab-9f28-4bd7-9a3a-f6e032b6857f","system_id":"levelo_inurba_marseille","lat":43.26061,"lon":5.39398,"is_reserved":false,"is_disabled":false,"rental_uris":{"android":"levelo://app?vid=328c11ab-9f28-4bd7-9a3a-f6e032b6857f","ios":"levelo://app?vid=328c11ab-9f28-4bd7-9a3a-f6e032b6857f"},"vehicle_type_id":"4","last_reported":1727982448,"current_range_meters":16000,"station_id":"ce4bhh92rcd13ifvqfj0","pricing_plan_id":"cebpf4jnsgd1na2vs0mg"},{"bike_id":"0fd8a581-6079-4d41-8312-f6ecfd73b79c","system_id":"levelo_inurba_marseille","lat":43.2396,"lon":5.36639,"is_reserved":false,"is_disabled":false,"rental_uris":{"android":"levelo://app?vid=0fd8a581-6079-4d41-8312-f6ecfd73b79c","ios":"levelo://app?vid=0fd8a581-6079-4d41-8312-f6ecfd73b79c"},"vehicle_type_id":"4","last_reported":1727982448,"current_range_meters":12400,"station_id":"ce4bhi12rcd13ifvqfp0","pricing_plan_id":"cebpf4jnsgd1na2vs0mg"},{"bike_id":"b3216d22-ca7d-469d-9e86-2e59f8ce2842","system_id":"levelo_inurba_marseille","lat":43.25002,"lon":5.38925,"is_reserved":false,"is_disabled":false,"rental_uris":{"android":"levelo://app?vid=b3216d22-ca7d-469d-9e86-2e59f8ce2842","ios":"levelo://app?vid=b3216d22-ca7d-469d-9e86-2e59f8ce2842"},"vehicle_type_id":"4","last_reported":1727982448,"current_range_meters":3200,"station_id":"ce4bhhh2rcd13ifvqfl0","pricing_plan_id":"cebpf4jnsgd1na2vs0mg"},{"bike_id":"2ee8b668-768b-4a62-a1a5-d52d5490f7b7","system_id":"levelo_inurba_marseille","lat":43.31756,"lon":5.39024,"is_reserved":false,"is_disabled":false,"rental_uris":{"android":"levelo://app?vid=2ee8b668-768b-4a62-a1a5-d52d5490f7b7","ios":"levelo://app?vid=2ee8b668-768b-4a62-a1a5-d52d5490f7b7"},"vehicle_type_id":"4","last_reported":1727982448,"current_range_meters":38800,"station_id":"ce4bhqp2rcd13ifvqhng","pricing_plan_id":"cebpf4jnsgd1na2vs0mg"},{"bike_id":"38ee30be-5685-4d61-bef7-579ec3fe8c9d","system_id":"levelo_inurba_marseille","lat":43.27851,"lon":5.40472,"is_reserved":false,"is_disabled":false,"rental_uris":{"android":"levelo://app?vid=38ee30be-5685-4d61-bef7-579ec3fe8c9d","ios":"levelo://app?vid=38ee30be-5685-4d61-bef7-579ec3fe8c9d"},"vehicle_type_id":"4","last_reported":1727982448,"current_range_meters":25600,"station_id":"ce4bhhp2rcd13ifvqfm0","pricing_plan_id":"cebpf4jnsgd1na2vs0mg"},{"bike_id":"c5223d97-c6c1-4b68-af59-4b45fbb41329","system_id":"levelo_inurba_marseille","lat":43.32359,"lon":5.38891,"is_reserved":false,"is_disabled":false,"rental_uris":{"android":"levelo://app?vid=c5223d97-c6c1-4b68-af59-4b45fbb41329","ios":"levelo://app?vid=c5223d97-c6c1-4b68-af59-4b45fbb41329"},"vehicle_type_id":"4","last_reported":1727982448,"current_range_meters":16800,"station_id":"ce4bhqp2rcd13ifvqhog","pricing_plan_id":"cebpf4jnsgd1na2vs0mg"},{"bike_id":"4b9775e6-6237-4142-86b7-e4c594a00a3b","system_id":"levelo_inurba_marseille","lat":43.29207,"lon":5.39321,"is_reserved":false,"is_disabled":false,"rental_uris":{"android":"levelo://app?vid=4b9775e6-6237-4142-86b7-e4c594a00a3b","ios":"levelo://app?vid=4b9775e6-6237-4142-86b7-e4c594a00a3b"},"vehicle_type_id":"4","last_reported":1727982448,"current_range_meters":6000,"station_id":"ce4bh192rcd13ifvqdd0","pricing_plan_id":"cebpf4jnsgd1na2vs0mg"},{"bike_id":"8a2616af-a8b7-4920-b8ac-43bddb50ece3","system_id":"levelo_inurba_marseille","lat":43.31482,"lon":5.37309,"is_reserved":false,"is_disabled":false,"rental_uris":{"android":"levelo://app?vid=8a2616af-a8b7-4920-b8ac-43bddb50ece3","ios":"levelo://app?vid=8a2616af-a8b7-4920-b8ac-43bddb50ece3"},"vehicle_type_id":"4","last_reported":1727982448,"current_range_meters":29600,"station_id":"ce4bgt12rcd13ifvqcd0","pricing_plan_id":"cebpf4jnsgd1na2vs0mg"},{"bike_id":"0cb9acb2-15eb-485b-842c-a3f570e8e7c5","system_id":"levelo_inurba_marseille","lat":43.22941,"lon":5.35375,"is_reserved":false,"is_disabled":false,"rental_uris":{"android":"levelo://app?vid=0cb9acb2-15eb-485b-842c-a3f570e8e7c5","ios":"levelo://app?vid=0cb9acb2-15eb-485b-842c-a3f570e8e7c5"},"vehicle_type_id":"4","last_reported":1727982448,"current_range_meters":25600,"station_id":"cpo3532slgdg3j2ikp40","pricing_plan_id":"cebpf4jnsgd1na2vs0mg"},{"bike_id":"a48bba2c-79a5-4c4c-be0d-af9acc015201","system_id":"levelo_inurba_marseille","lat":43.29776,"lon":5.435407,"is_reserved":false,"is_disabled":false,"rental_uris":{"android":"levelo://app?vid=a48bba2c-79a5-4c4c-be0d-af9acc015201","ios":"levelo://app?vid=a48bba2c-79a5-4c4c-be0d-af9acc015201"},"vehicle_type_id":"4","last_reported":1727982448,"current_range_meters":8400,"station_id":"ce4bgj12rcd13ifvqbc0","pricing_plan_id":"cebpf4jnsgd1na2vs0mg"},{"bike_id":"88aa3600-100a-489e-815f-a9a2d1794c40","system_id":"levelo_inurba_marseille","lat":43.30326,"lon":5.4044,"is_reserved":false,"is_disabled":false,"rental_uris":{"android":"levelo://app?vid=88aa3600-100a-489e-815f-a9a2d1794c40","ios":"levelo://app?vid=88aa3600-100a-489e-815f-a9a2d1794c40"},"vehicle_type_id":"4","last_reported":1727982448,"current_range_meters":18800,"station_id":"ce4bh012rcd13ifvqd10","pricing_plan_id":"cebpf4jnsgd1na2vs0mg"},{"bike_id":"ecf4df4e-b83f-4da1-b96e-3392873e2157","system_id":"levelo_inurba_marseille","lat":43.25494,"lon":5.37658,"is_reserved":false,"is_disabled":false,"rental_uris":{"android":"levelo://app?vid=ecf4df4e-b83f-4da1-b96e-3392873e2157","ios":"levelo://app?vid=ecf4df4e-b83f-4da1-b96e-3392873e2157"},"vehicle_type_id":"4","last_reported":1727982448,"current_range_meters":38000,"station_id":"ce4bhh12rcd13ifvqff0","pricing_plan_id":"cebpf4jnsgd1na2vs0mg"},{"bike_id":"f48ac234-c587-44d8-957e-5b4eb07eec74","system_id":"levelo_inurba_marseille","lat":43.2761,"lon":5.36123,"is_reserved":false,"is_disabled":false,"rental_uris":{"android":"levelo://app?vid=f48ac234-c587-44d8-957e-5b4eb07eec74","ios":"levelo://app?vid=f48ac234-c587-44d8-957e-5b4eb07eec74"},"vehicle_type_id":"4","last_reported":1727982448,"current_range_meters":38000,"station_id":"ce4bgj92rcd13ifvqbe0","pricing_plan_id":"cebpf4jnsgd1na2vs0mg"},{"bike_id":"b2c48204-d429-40ea-a1e3-31aca0da0e7f","system_id":"levelo_inurba_marseille","lat":43.29785,"lon":5.39345,"is_reserved":false,"is_disabled":false,"rental_uris":{"android":"levelo://app?vid=b2c48204-d429-40ea-a1e3-31aca0da0e7f","ios":"levelo://app?vid=b2c48204-d429-40ea-a1e3-31aca0da0e7f"},"vehicle_type_id":"4","last_reported":1727982448,"current_range_meters":38800,"station_id":"chh1huq6cuj3fo74tm60","pricing_plan_id":"cebpf4jnsgd1na2vs0mg"},{"bike_id":"6de67823-4bc4-4fc8-a6ee-288d8fb8a068","system_id":"levelo_inurba_marseille","lat":43.29163,"lon":5.37161,"is_reserved":false,"is_disabled":false,"rental_uris":{"android":"levelo://app?vid=6de67823-4bc4-4fc8-a6ee-288d8fb8a068","ios":"levelo://app?vid=6de67823-4bc4-4fc8-a6ee-288d8fb8a068"},"vehicle_type_id":"4","last_reported":1727982448,"current_range_meters":2000,"station_id":"ce4bha92rcd13ifvqeh0","pricing_plan_id":"cebpf4jnsgd1na2vs0mg"},{"bike_id":"77a4deff-f11e-4c24-8875-e3301106e8fd","system_id":"levelo_inurba_marseille","lat":43.2395,"lon":5.36649,"is_reserved":false,"is_disabled":false,"rental_uris":{"android":"levelo://app?vid=77a4deff-f11e-4c24-8875-e3301106e8fd","ios":"levelo://app?vid=77a4deff-f11e-4c24-8875-e3301106e8fd"},"vehicle_type_id":"4","last_reported":1727982448,"current_range_meters":8400,"station_id":"ce4bhi12rcd13ifvqfp0","pricing_plan_id":"cebpf4jnsgd1na2vs0mg"},{"bike_id":"5a1069f5-61f4-4930-b38b-ddd40c93ffc4","system_id":"levelo_inurba_marseille","lat":43.2986,"lon":5.39744,"is_reserved":false,"is_disabled":false,"rental_uris":{"android":"levelo://app?vid=5a1069f5-61f4-4930-b38b-ddd40c93ffc4","ios":"levelo://app?vid=5a1069f5-61f4-4930-b38b-ddd40c93ffc4"},"vehicle_type_id":"4","last_reported":1727982448,"current_range_meters":22800,"station_id":"ce4bh0h2rcd13ifvqd50","pricing_plan_id":"cebpf4jnsgd1na2vs0mg"},{"bike_id":"ab09d11f-213d-41c8-9b55-fc0688de636e","system_id":"levelo_inurba_marseille","lat":43.23964,"lon":5.36639,"is_reserved":false,"is_disabled":false,"rental_uris":{"android":"levelo://app?vid=ab09d11f-213d-41c8-9b55-fc0688de636e","ios":"levelo://app?vid=ab09d11f-213d-41c8-9b55-fc0688de636e"},"vehicle_type_id":"4","last_reported":1727982448,"current_range_meters":9600,"station_id":"ce4bhi12rcd13ifvqfp0","pricing_plan_id":"cebpf4jnsgd1na2vs0mg"},{"bike_id":"64bd957e-b978-44cb-a85c-928d627d24ec","system_id":"levelo_inurba_marseille","lat":43.355818,"lon":5.359803,"is_reserved":false,"is_disabled":false,"rental_uris":{"android":"levelo://app?vid=64bd957e-b978-44cb-a85c-928d627d24ec","ios":"levelo://app?vid=64bd957e-b978-44cb-a85c-928d627d24ec"},"vehicle_type_id":"4","last_reported":1727982448,"current_range_meters":11200,"station_id":"","pricing_plan_id":"cebpf4jnsgd1na2vs0mg"},{"bike_id":"a7f3e076-15e5-4090-8be3-90173f793369","system_id":"levelo_inurba_marseille","lat":43.29227,"lon":5.36073,"is_reserved":false,"is_disabled":false,"rental_uris":{"android":"levelo://app?vid=a7f3e076-15e5-4090-8be3-90173f793369","ios":"levelo://app?vid=a7f3e076-15e5-4090-8be3-90173f793369"},"vehicle_type_id":"4","last_reported":1727982448,"current_range_meters":17600,"station_id":"ce4bhbh2rcd13ifvqeqg","pricing_plan_id":"cebpf4jnsgd1na2vs0mg"},{"bike_id":"35c4ccce-2b97-4d5d-8a93-5c94581c2cf7","system_id":"levelo_inurba_marseille","lat":43.27992,"lon":5.40013,"is_reserved":false,"is_disabled":false,"rental_uris":{"android":"levelo://app?vid=35c4ccce-2b97-4d5d-8a93-5c94581c2cf7","ios":"levelo://app?vid=35c4ccce-2b97-4d5d-8a93-5c94581c2cf7"},"vehicle_type_id":"4","last_reported":1727982448,"current_range_meters":16000,"station_id":"ce4bho92rcd13ifvqh4g","pricing_plan_id":"cebpf4jnsgd1na2vs0mg"},{"bike_id":"9eecd779-c6c0-4e07-ac55-d8d18d2fd278","system_id":"levelo_inurba_marseille","lat":43.27989,"lon":5.40013,"is_reserved":false,"is_disabled":false,"rental_uris":{"android":"levelo://app?vid=9eecd779-c6c0-4e07-ac55-d8d18d2fd278","ios":"levelo://app?vid=9eecd779-c6c0-4e07-ac55-d8d18d2fd278"},"vehicle_type_id":"4","last_reported":1727982448,"current_range_meters":24000,"station_id":"ce4bho92rcd13ifvqh4g","pricing_plan_id":"cebpf4jnsgd1na2vs0mg"},{"bike_id":"dd38dff9-63a3-4639-810e-89472c29d3e7","system_id":"levelo_inurba_marseille","lat":43.27207,"lon":5.39186,"is_reserved":false,"is_disabled":false,"rental_uris":{"android":"levelo://app?vid=dd38dff9-63a3-4639-810e-89472c29d3e7","ios":"levelo://app?vid=dd38dff9-63a3-4639-810e-89472c29d3e7"},"vehicle_type_id":"4","last_reported":1727982448,"current_range_meters":38800,"station_id":"ce4bhhp2rcd13ifvqfm0","pricing_plan_id":"cebpf4jnsgd1na2vs0mg"},{"bike_id":"898ee9bf-1c77-406e-861e-31191882bb88","system_id":"levelo_inurba_marseille","lat":43.27318,"lon":5.3909,"is_reserved":false,"is_disabled":false,"rental_uris":{"android":"levelo://app?vid=898ee9bf-1c77-406e-861e-31191882bb88","ios":"levelo://app?vid=898ee9bf-1c77-406e-861e-31191882bb88"},"vehicle_type_id":"4","last_reported":1727982448,"current_range_meters":38800,"station_id":"ce4bhgp2rcd13ifvqfe0","pricing_plan_id":"cebpf4jnsgd1na2vs0mg"},