{"last_updated":1728331813,"ttl":60,"version":"2.2","data":{"bikes":[{"bike_id":"57553b10-65c5-4902-93ea-d1debdf4f122","system_id":"levelo_inurba_marseille","lat":43.28271,"lon":5.35072,"is_reserved":false,"is_disabled":false,"rental_uris":{"android":"levelo://app?vid=57553b10-65c5-4902-93ea-d1debdf4f122","ios":"levelo://app?vid=57553b10-65c5-4902-93ea-d1debdf4f122"},"vehicle_type_id":"4","last_reported":1728331813,"current_range_meters":28800,"station_id":"ce4bhbp2rcd13ifvqerg","pricing_plan_id":"cebpf4jnsgd1na2vs0mg"},{"bike_id":"f388f7a0-ce81-424e-81ff-f56071b4276d","system_id":"levelo_inurba_marseille","lat":43.25726,"lon":5.41108,"is_reserved":false,"is_disabled":false,"rental_uris":{"android":"levelo://app?vid=f388f7a0-ce81-424e-81ff-f56071b4276d","ios":"levelo://app?vid=f388f7a0-ce81-424e-81ff-f56071b4276d"},"vehicle_type_id":"4","last_reported":1728331813,"current_range_meters":30000,"station_id":"ce4bhkp2rcd13ifvqgd0","pricing_plan_id":"cebpf4jnsgd1na2vs0mg"},{"bike_id":"6ea71e61-0162-482a-8abc-aba97e9028bf","system_id":"levelo_inurba_marseille","lat":43.2815,"lon":5.42643,"is_reserved":false,"is_disabled":false,"rental_uris":{"android":"levelo://app?vid=6ea71e61-0162-482a-8abc-aba97e9028bf","ios":"levelo://app?vid=6ea71e61-0162-482a-8abc-aba97e9028bf"},"vehicle_type_id":"4","last_reported":1728331813,"current_range_meters":38800,"station_id":"ce4bhnh2rcd13ifvqgug","pricing_plan_id":"cebpf4jnsgd1na2vs0mg"},{"bike_id":"9c4c72c6-a204-4ec6-b60f-4072f9a90ddd","system_id":"levelo_inurba_marseille","lat":43.28711,"lon":5.37394,"is_reserved":false,"is_disabled":false,"rental_uris":{"android":"levelo://app?vid=9c4c72c6-a204-4ec6-b60f-4072f9a90ddd","ios":"levelo://app?vid=9c4c72c6-a204-4ec6-b60f-4072f9a90ddd"},"vehicle_type_id":"4","last_reported":1728331813,"current_range_meters":38800,"station_id":"ce4bh3p2rcd13ifvqdq0","pricing_plan_id":"cebpf4jnsgd1na2vs0mg"},{"bike_id":"622610cf-c33e-4666-809d-03945b9f6931","system_id":"levelo_inurba_marseille","lat":43.25088,"lon":5.3951,"is_reserved":false,"is_disabled":false,"rental_uris":{"android":"levelo://app?vid=622610cf-c33e-4666-809d-03945b9f6931","ios":"levelo://app?vid=622610cf-c33e-4666-809d-03945b9f6931"},"vehicle_type_id":"4","last_reported":1728331813,"current_range_meters":20800,"station_id":"ce4bhm12rcd13ifvqgkg","pricing_plan_id":"cebpf4jnsgd1na2vs0mg"},{"bike_id":"ec786754-32e9-400e-ba79-7fbf0c2821c5","system_id":"levelo_inurba_marseille","lat":43.29271,"lon":5.36845,"is_reserved":false,"is_disabled":false,"rental_uris":{"android":"levelo://app?vid=ec786754-32e9-400e-ba79-7fbf0c2821c5","ios":"levelo://app?vid=ec786754-32e9-400e-ba79-7fbf0c2821c5"},"vehicle_type_id":"4","last_reported":1728331813,"current_range_meters":27200,"station_id":"ce4bhbp2rcd13ifvqesg","pricing_plan_id":"cebpf4jnsgd1na2vs0mg"},{"bike_id":"3edccbad-c604-40df-acb2-6e9d91b67298","system_id":"levelo_inurba_marseille","lat":43.23058,"lon":5.35486,"is_reserved":false,"is_disabled":false,"rental_uris":{"android":"levelo://app?vid=3edccbad-c604-40df-acb2-6e9d91b67298","ios":"levelo://app?vid=3edccbad-c604-40df-acb2-6e9d91b67298"},"vehicle_type_id":"4","last_reported":1728331813,"current_range_meters":19200,"station_id":"cpo3342slgdg3j2ifvpg","pricing_plan_id":"cebpf4jnsgd1na2vs0mg"},{"bike_id":"a989dcd4-4f7f-42a6-b472-767b8e02677c","system_id":"levelo_inurba_marseille","lat":43.28463,"lon":5.35871,"is_reserved":false,"is_disabled":false,"rental_uris":{"android":"levelo://app?vid=a989dcd4-4f7f-42a6-b472-767b8e02677c","ios":"levelo://app?vid=a989dcd4-4f7f-42a6-b472-767b8e02677c"},"vehicle_type_id":"4","last_reported":1728331813,"current_range_meters":27600,"station_id":"ce4bhah2rcd13ifvqei0","pricing_plan_id":"cebpf4jnsgd1na2vs0mg"},{"bike_id":"56d3a2c1-cbab-4447-a367-83dfb2dbdacd","system_id":"levelo_inurba_marseille","lat":43.30872,"lon":5.39665,"is_reserved":false,"is_disabled":false,"rental_uris":{"android":"levelo://app?vid=56d3a2c1-cbab-4447-a367-83dfb2dbdacd","ios":"levelo://app?vid=56d3a2c1-cbab-4447-a367-83dfb2dbdacd"},"vehicle_type_id":"4","last_reported":1728331813,"current_range_meters":11200,"station_id":"ce4bh012rcd13ifvqcv0","pricing_plan_id":"cebpf4jnsgd1na2vs0mg"},{"bike_id":"4ccc01b1-f917-4f80-9876-9bc25dc62eac","system_id":"levelo_inurba_marseille","lat":43.31367,"lon":5.38496,"is_reserved":false,"is_disabled":false,"rental_uris":{"android":"levelo://app?vid=4ccc01b1-f917-4f80-9876-9bc25dc62eac","ios":"levelo://app?vid=4ccc01b1-f917-4f80-9876-9bc25dc62eac"},"vehicle_type_id":"4","last_reported":1728331813,"current_range_meters":22400,"station_id":"ce4bgt92rcd13ifvqcf0","pricing_plan_id":"cebpf4jnsgd1na2vs0mg"},{"bike_id":"7e986d17-6ecd-4533-a051-297eca937865","system_id":"levelo_inurba_marseille","lat":43.285104,"lon":5.384179,"is_reserved":false,"is_disabled":false,"rental_uris":{"android":"levelo://app?vid=7e986d17-6ecd-4533-a051-297eca937865","ios":"levelo://app?vid=7e986d17-6ecd-4533-a051-297eca937865"},"vehicle_type_id":"4","last_reported":1728331813,"current_range_meters":38000,"station_id":"ce4bh512rcd13ifvqe3g","pricing_plan_id":"cebpf4jnsgd1na2vs0mg"},{"bike_id":"194545a4-9a17-410e-84e8-f3516539e740","system_id":"levelo_inurba_marseille","lat":43.28272,"lon":5.35082,"is_reserved":false,"is_disabled":false,"rental_uris":{"android":"levelo://app?vid=194545a4-9a17-410e-84e8-f3516539e740","ios":"levelo://app?vid=194545a4-9a17-410e-84e8-f3516539e740"},"vehicle_type_id":"4","last_reported":1728331813,"current_range_meters":38800,"station_id":"ce4bhbp2rcd13ifvqerg","pricing_plan_id":"cebpf4jnsgd1na2vs0mg"},{"bike_id":"16c52e8b-36b9-4e33-9149-6046d7ca6a07","system_id":"levelo_inurba_marseille","lat":43.29027,"lon":5.38645,"is_reserved":false,"is_disabled":false,"rental_uris":{"android":"levelo://app?vid=16c52e8b-36b9-4e33-9149-6046d7ca6a07","ios":"levelo://app?vid=16c52e8b-36b9-4e33-9149-6046d7ca6a07"},"vehicle_type_id":"4","last_reported":1728331813,"current_range_meters":31200,"station_id":"ce4bh4p2rcd13ifvqe0g","pricing_plan_id":"cebpf4jnsgd1na2vs0mg"},{"bike_id":"5cbc9c45-d090-40f0-bf46-98bb0454ae1f","system_id":"levelo_inurba_marseille","lat":43.29193,"lon":5.39315,"is_reserved":false,"is_disabled":false,"rental_uris":{"android":"levelo://app?vid=5cbc9c45-d090-40f0-bf46-98bb0454ae1f","ios":"levelo://app?vid=5cbc9c45-d090-40f0-bf46-98bb0454ae1f"},"vehicle_type_id":"4","last_reported":1728331813,"current_range_meters":38800,"station_id":"ce4bh192rcd13ifvqdd0","pricing_plan_id":"cebpf4jnsgd1na2vs0mg"},{"bike_id":"750fdf43-1998-4e3d-adf4-8eefb4129a51","system_id":"levelo_inurba_marseille","lat":43.29416,"lon":5.38308,"is_reserved":false,"is_disabled":false,"rental_uris":{"android":"levelo://app?vid=750fdf43-1998-4e3d-adf4-8eefb4129a51","ios":"levelo://app?vid=750fdf43-1998-4e3d-adf4-8eefb4129a51"},"vehicle_type_id":"4","last_reported":1728331813,"current_range_meters":16800,"station_id":"","pricing_plan_id":"cebpf4jnsgd1na2vs0mg"},{"bike_id":"fb7bcb09-b245-48b9-876c-469c7f83fe0b","system_id":"levelo_inurba_marseille","lat":43.28472,"lon":5.38556,"is_reserved":false,"is_disabled":false,"rental_uris":{"android":"levelo://app?vid=fb7bcb09-b245-48b9-876c-469c7f83fe0b","ios":"levelo://app?vid=fb7bcb09-b245-48b9-876c-469c7f83fe0b"},"vehicle_type_id":"4","last_reported":1728331813,"current_range_meters":30400,"station_id":"ce4bh8p2rcd13ifvqeb0","pricing_plan_id":"cebpf4jnsgd1na2vs0mg"},{"bike_id":"11b35691-6b69-4e44-9896-778a89c5f594","system_id":"levelo_inurba_marseille","lat":43.28848,"lon":5.35848,"is_reserved":false,"is_disabled":false,"rental_uris":{"android":"levelo://app?vid=11b35691-6b69-4e44-9896-778a89c5f594","ios":"levelo://app?vid=11b35691-6b69-4e44-9896-778a89c5f594"},"vehicle_type_id":"4","last_reported":1728331813,"current_range_meters":36000,"station_id":"ce4bhb12rcd13ifvqem0","pricing_plan_id":"cebpf4jnsgd1na2vs0mg"},{"bike_id":"81b07a05-4c57-4e76-99d6-5f6e3acbb201","system_id":"levelo_inurba_marseille","lat":43.23066,"lon":5.35494,"is_reserved":false,"is_disabled":false,"rental_uris":{"android":"levelo://app?vid=81b07a05-4c57-4e76-99d6-5f6e3acbb201","ios":"levelo://app?vid=81b07a05-4c57-4e76-99d6-5f6e3acbb201"},"vehicle_type_id":"4","last_reported":1728331813,"current_range_meters":10800,"station_id":"cpo3342slgdg3j2ifvpg","pricing_plan_id":"cebpf4jnsgd1na2vs0mg"},{"bike_id":"41b853ca-7ff0-4f29-8a12-ee31a92a132d","system_id":"levelo_inurba_marseille","lat":43.250567,"lon":5.403327,"is_reserved":false,"is_disabled":false,"rental_uris":{"android":"levelo://app?vid=41b853ca-7ff0-4f29-8a12-ee31a92a132d","ios":"levelo://app?vid=41b853ca-7ff0-4f29-8a12-ee31a92a132d"},"vehicle_type_id":"4","last_reported":1728331813,"current_range_meters":13600,"station_id":"ce4bhlh2rcd13ifvqgig","pricing_plan_id":"cebpf4jnsgd1na2vs0mg"},{"bike_id":"f6f735b2-2c7f-4bda-80c2-a88a32bd651a","system_id":"levelo_inurba_marseille","lat":43.28459,"lon":5.35885,"is_reserved":false,"is_disabled":false,"rental_uris":{"android":"levelo://app?vid=f6f735b2-2c7f-4bda-80c2-a88a32bd651a","ios":"levelo://app?vid=f6f735b2-2c7f-4bda-80c2-a88a32bd651a"},"vehicle_type_id":"4","last_reported":1728331813,"current_range_meters":12800,"station_id":"ce4bhah2rcd13ifvqei0","pricing_plan_id":"cebpf4jnsgd1na2vs0mg"},{"bike_id":"e04bac3b-3017-4264-87e3-39689488fd05","system_id":"levelo_inurba_marseille","lat":43.28461,"lon":5.35897,"is_reserved":false,"is_disabled":false,"rental_uris":{"android":"levelo://app?vid=e04bac3b-3017-4264-87e3-39689488fd05","ios":"levelo://app?vid=e04bac3b-3017-4264-87e3-39689488fd05"},"vehicle_type_id":"4","last_reported":1728331813,"current_range_meters":30000,"station_id":"ce4bhah2rcd13ifvqei0","pricing_plan_id":"cebpf4jnsgd1na2vs0mg"},{"bike_id":"b014f02c-99bd-498f-a572-9a513a2b9a99","system_id":"levelo_inurba_marseille","lat":43.28719,"lon":5.39999,"is_reserved":false,"is_disabled":false,"rental_uris":{"android":"levelo://app?vid=b014f02c-99bd-498f-a572-9a513a2b9a99","ios":"levelo://app?vid=b014f02c-99bd-498f-a572-9a513a2b9a99"},"vehicle_type_id":"4","last_reported":1728331813,"current_range_meters":17200,"station_id":"ce4bho92rcd13ifvqh3g","pricing_plan_id":"cebpf4jnsgd1na2vs0mg"},{"bike_id":"dcb0f448-2134-46dd-912a-ba72f0d7ccf2","system_id":"levelo_inurba_marseille","lat":43.28155,"lon":5.4265,"is_reserved":false,"is_disabled":false,"rental_uris":{"android":"levelo://app?vid=dcb0f448-2134-46dd-912a-ba72f0d7ccf2","ios":"levelo://app?vid=dcb0f448-2134-46dd-912a-ba72f0d7ccf2"},"vehicle_type_id":"4","last_reported":1728331813,"current_range_meters":38800,"station_id":"ce4bhnh2rcd13ifvqgug","pricing_plan_id":"cebpf4jnsgd1na2vs0mg"},{"bike_id":"3ef37b24-db49-4571-8903-257e514e9f58","system_id":"levelo_inurba_marseille","lat":43.28726,"lon":5.36086,"is_reserved":false,"is_disabled":false,"rental_uris":{"android":"levelo://app?vid=3ef37b24-db49-4571-8903-257e514e9f58","ios":"levelo://app?vid=3ef37b24-db49-4571-8903-257e514e9f58"},"vehicle_type_id":"4","last_reported":1728331813,"current_range_meters":38000,"station_id":"cki0cbj6b192h4jlfktg","pricing_plan_id":"cebpf4jnsgd1na2vs0mg"},{"bike_id":"97859cce-2739-4870-920f-9160c684d214","system_id":"levelo_inurba_marseille","lat":43.29556,"lon":5.42289,"is_reserved":false,"is_disabled":false,"rental_uris":{"android":"levelo://app?vid=97859cce-2739-4870-920f-9160c684d214","ios":"levelo://app?vid=97859cce-2739-4870-920f-9160c684d214"},"vehicle_type_id":"4","last_reported":1728331813,"current_range_meters":38800,"station_id":"ce4bhph2rcd13ifvqhdg","pricing_plan_id":"cebpf4jnsgd1na2vs0mg"},{"bike_id":"c2dbe9fe-42fc-49ee-8f65-625ce0153505","system_id":"levelo_inurba_marseille","lat":43.28724,"lon":5.3609,"is_reserved":false,"is_disabled":false,"rental_uris":{"android":"levelo://app?vid=c2dbe9fe-42fc-49ee-8f65-625ce0153505","ios":"levelo://app?vid=c2dbe9fe-42fc-49ee-8f65-625ce0153505"},"vehicle_type_id":"4","last_reported":1728331813,"current_range_meters":14000,"station_id":"cki0cbj6b192h4jlfktg","pricing_plan_id":"cebpf4jnsgd1na2vs0mg"},{"bike_id":"663d807d-5236-4795-8907-d41427101515","system_id":"levelo_inurba_marseille","lat":43.33028,"lon":5.39042,"is_reserved":false,"is_disabled":false,"rental_uris":{"android":"levelo://app?vid=663d807d-5236-4795-8907-d41427101515","ios":"levelo://app?vid=663d807d-5236-4795-8907-d41427101515"},"vehicle_type_id":"4","last_reported":1728331813,"current_range_meters":37600,"station_id":"ce4bhr92rcd13ifvqhrg","pricing_plan_id":"cebpf4jnsgd1na2vs0mg"},{"bike_id":"0190a491-52c0-46a5-be20-b72d156a36de","system_id":"levelo_inurba_marseille","lat":43.31262,"lon":5.40165,"is_reserved":false,"is_disabled":false,"rental_uris":{"android":"levelo://app?vid=0190a491-52c0-46a5-be20-b72d156a36de","ios":"levelo://app?vid=0190a491-52c0-46a5-be20-b72d156a36de"},"vehicle_type_id":"4","last_reported":1728331813,"current_range_meters":36800,"station_id":"ce4bh092rcd13ifvqd30","pricing_plan_id":"cebpf4jnsgd1na2vs0mg"},{"bike_id":"066ccb90-6b9a-4302-bde4-9c97dfce747d","system_id":"levelo_inurba_marseille","lat":43.33738,"lon":5.39192,"is_reserved":false,"is_disabled":false,"rental_uris":{"android":"levelo://app?vid=066ccb90-6b9a-4302-bde4-9c97dfce747d","ios":"levelo://app?vid=066ccb90-6b9a-4302-bde4-9c97dfce747d"},"vehicle_type_id":"4","last_reported":1728331813,"current_range_meters":38800,"station_id":"ce4bhr92rcd13ifvqhsg","pricing_plan_id":"cebpf4jnsgd1na2vs0mg"},{"bike_id":"57200848-7607-401d-a589-e41c66a9c601","system_id":"levelo_inurba_marseille","lat":43.3137,"lon":5.38498,"is_reserved":false,"is_disabled":false,"rental_uris":{"android":"levelo://app?vid=57200848-7607-401d-a589-e41c66a9c601","ios":"levelo://app?vid=57200848-7607-401d-a589-e41c66a9c601"},"vehicle_type_id":"4","last_reported":1728331813,"current_range_meters":30800,"station_id":"ce4bgt92rcd13ifvqcf0","pricing_plan_id":"cebpf4jnsgd1na2vs0mg"},{"bike_id":"f44a0142-05f1-4a99-80bf-c703ade1ad74","system_id":"levelo_inurba_marseille","lat":43.28656,"lon":5.36355,"is_reserved":false,"is_disabled":false,"rental_uris":{"android":"levelo://app?vid=f44a0142-05f1-4a99-80bf-c703ade1ad74","ios":"levelo://app?vid=f44a0142-05f1-4a99-80bf-c703ade1ad74"},"vehicle_type_id":"4","last_reported":1728331813,"current_range_meters":20000,"station_id":"ce4bhah2rcd13ifvqej0","pricing_plan_id":"cebpf4jnsgd1na2vs0mg"},{"bike_id":"a8ce887c-a758-454e-9c1a-6b6577112135","system_id":"levelo_inurba_marseille","lat":43.27175,"lon":5.40994,"is_reserved":false,"is_disabled":false,"rental_uris":{"android":"levelo://app?vid=a8ce887c-a758-454e-9c1a-6b6577112135","ios":"levelo://app?vid=a8ce887c-a758-454e-9c1a-6b6577112135"},"vehicle_type_id":"4","last_reported":1728331813,"current_range_meters":38800,"station_id":"ce4bhl12rcd13ifvqgf0","pricing_plan_id":"cebpf4jnsgd1na2vs0mg"},{"bike_id":"35db5aab-a536-4286-87d7-90ec43783f24","system_id":"levelo_inurba_marseille","lat":43.23193,"lon":5.35557,"is_reserved":false,"is_disabled":false,"rental_uris":{"android":"levelo://app?vid=35db5aab-a536-4286-87d7-90ec43783f24","ios":"levelo://app?vid=35db5aab-a536-4286-87d7-90ec43783f24"},"vehicle_type_id":"4","last_reported":1728331813,"current_range_meters":34800,"station_id":"ce4bhu92rcd13ifvqi70","pricing_plan_id":"cebpf4jnsgd1na2vs0mg"},{"bike_id":"860c37f5-ffde-4aa9-95ed-4f2ed1f0a5e2","system_id":"levelo_inurba_marseille","lat":43.2512,"lon":5.40321,"is_reserved":false,"is_disabled":false,"rental_uris":{"android":"levelo://app?vid=860c37f5-ffde-4aa9-95ed-4f2ed1f0a5e2","ios":"levelo://app?vid=860c37f5-ffde-4aa9-95ed-4f2ed1f0a5e2"},"vehicle_type_id":"4","last_reported":1728331813,"current_range_meters":38800,"station_id":"ce4bhlh2rcd13ifvqgig","pricing_plan_id":"cebpf4jnsgd1na2vs0mg"},{"bike_id":"62dfd99c-f976-4937-b2d0-5b50f5ae699f","system_id":"levelo_inurba_marseille","lat":43.24175,"lon":5.364,"is_reserved":false,"is_disabled":false,"rental_uris":{"android":"levelo://app?vid=62dfd99c-f976-4937-b2d0-5b50f5ae699f","ios":"levelo://app?vid=62dfd99c-f976-4937-b2d0-5b50f5ae699f"},"vehicle_type_id":"4","last_reported":1728331813,"current_range_meters":9200,"station_id":"cpo36qri1sfpv3e86is0","pricing_plan_id":"cebpf4jnsgd1na2vs0mg"},{"bike_id":"fdd77b79-2944-4afe-b850-4f75f810031a","system_id":"levelo_inurba_marseille","lat":43.30536,"lon":5.36723,"is_reserved":false,"is_disabled":false,"rental_uris":{"android":"levelo://app?vid=fdd77b79-2944-4afe-b850-4f75f810031a","ios":"levelo://app?vid=fdd77b79-2944-4afe-b850-4f75f810031a"},"vehicle_type_id":"4","last_reported":1728331813,"current_range_meters":24000,"station_id":"ce4bgrp2rcd13ifvqc9g","pricing_plan_id":"cebpf4jnsgd1na2vs0mg"},{"bike_id":"d5b8bfb4-409c-4850-a69d-4732b5060224","system_id":"levelo_inurba_marseille","lat":43.31347,"lon":5.36737,"is_reserved":false,"is_disabled":false,"rental_uris":{"android":"levelo://app?vid=d5b8bfb4-409c-4850-a69d-4732b5060224","ios":"levelo://app?vid=d5b8bfb4-409c-4850-a69d-4732b5060224"},"vehicle_type_id":"4","last_reported":1728331813,"current_range_meters":38800,"station_id":"ce4bgr92rcd13ifvqc6g","pricing_plan_id":"cebpf4jnsgd1na2vs0mg"},{"bike_id":"74e3cf56-2968-4ce7-bb1a-6073197f7427","system_id":"levelo_inurba_marseille","lat":43.28415,"lon":5.37521,"is_reserved":false,"is_disabled":false,"rental_uris":{"android":"levelo://app?vid=74e3cf56-2968-4ce7-bb1a-6073197f7427","ios":"levelo://app?vid=74e3cf56-2968-4ce7-bb1a-6073197f7427"},"vehicle_type_id":"4","last_reported":1728331813,"current_range_meters":20000,"station_id":"ce4bh412rcd13ifvqds0","pricing_plan_id":"cebpf4jnsgd1na2vs0mg"},{"bike_id":"699fa7dc-a02b-47d3-b561-0cc270081d69","system_id":"levelo_inurba_marseille","lat":43.30885,"lon":5.39633,"is_reserved":false,"is_disabled":false,"rental_uris":{"android":"levelo://app?vid=699fa7dc-a02b-47d3-b561-0cc270081d69","ios":"levelo://app?vid=699fa7dc-a02b-47d3-b561-0cc270081d69"},"vehicle_type_id":"4","last_reported":1728331813,"current_range_meters":6800,"station_id":"ce4bh012rcd13ifvqcv0","pricing_plan_id":"cebpf4jnsgd1na2vs0mg"},{"bike_id":"e2ccd035-e2f6-4b13-8c3b-407f63e2c6d1","system_id":"levelo_inurba_marseille","lat":43.33024,"lon":5.39044,"is_reserved":false,"is_disabled":false,"rental_uris":{"android":"levelo://app?vid=e2ccd035-e2f6-4b13-8c3b-407f63e2c6d1","ios":"levelo://app?vid=e2ccd035-e2f6-4b13-8c3b-407f63e2c6d1"},"vehicle_type_id":"4","last_reported":1728331813,"current_range_meters":6400,"station_id":"ce4bhr92rcd13ifvqhrg","pricing_plan_id":"cebpf4jnsgd1na2vs0mg"},{"bike_id":"51ea515d-944c-489c-8a74-b1f09acd3971","system_id":"levelo_inurba_marseille","lat":43.25585,"lon":5.38239,"is_reserved":false,"is_disabled":false,"rental_uris":{"android":"levelo://app?vid=51ea515d-944c-489c-8a74-b1f09acd3971","ios":"levelo://app?vid=51ea515d-944c-489c-8a74-b1f09acd3971"},"vehicle_type_id":"4","last_reported":1728331813,"current_range_meters":9600,"station_id":"ce4bhih2rcd13ifvqfs0","pricing_plan_id":"cebpf4jnsgd1na2vs0mg"},{"bike_id":"0589884c-39e4-4fca-a9f2-72ccf02df3e0","system_id":"levelo_inurba_marseille","lat":43.28852,"lon":5.35855,"is_reserved":false,"is_disabled":false,"rental_uris":{"android":"levelo://app?vid=0589884c-39e4-4fca-a9f2-72ccf02df3e0","ios":"levelo://app?vid=0589884c-39e4-4fca-a9f2-72ccf02df3e0"},"vehicle_type_id":"4","last_reported":1728331813,"current_range_meters":38400,"station_id":"ce4bhb12rcd13ifvqem0","pricing_plan_id":"cebpf4jnsgd1na2vs0mg"},{"bike_id":"e7ca1121-dfae-49ab-95f7-00c35a3a4f04","system_id":"levelo_inurba_marseille","lat":43.30784,"lon":5.37657,"is_reserved":false,"is_disabled":false,"rental_uris":{"android":"levelo://app?vid=e7ca1121-dfae-49ab-95f7-00c35a3a4f04","ios":"levelo://app?vid=e7ca1121-dfae-49ab-95f7-00c35a3a4f04"},"vehicle_type_id":"4","last_reported":1728331813,"current_range_meters":38800,"station_id":"ce4bgv92rcd13ifvqcq0","pricing_plan_id":"cebpf4jnsgd1na2vs0mg"},{"bike_id":"a854f9eb-d697-4507-b33a-9376691b2f9b","system_id":"levelo_inurba_marseille","lat":43.27995,"lon":5.40019,"is_reserved":false,"is_disabled":false,"rental_uris":{"android":"levelo://app?vid=a854f9eb-d697-4507-b33a-9376691b2f9b","ios":"levelo://app?vid=a854f9eb-d697-4507-b33a-9376691b2f9b"},"vehicle_type_id":"4","last_reported":1728331813,"current_range_meters":39200,"station_id":"ce4bho92rcd13ifvqh4g","pricing_plan_id":"cebpf4jnsgd1na2vs0mg"},{"bike_id":"dc2e07b6-2d88-4c3a-9e54-908d68323f78","system_id":"levelo_inurba_marseille","lat":43.29515,"lon":5.39404,"is_reserved":false,"is_disabled":false,"rental_uris":{"android":"levelo://app?vid=dc2e07b6-2d88-4c3a-9e54-908d68323f78","ios":"levelo://app?vid=dc2e07b6-2d88-4c3a-9e54-908d68323f78"},"vehicle_type_id":"4","last_reported":1728331813,"current_range_meters":38800,"station_id":"ce4bh292rcd13ifvqdf0","pricing_plan_id":"cebpf4jnsgd1na2vs0mg"},{"bike_id":"71557b2f-0cba-4338-83db-d8c00bdfcacb","system_id":"levelo_inurba_marseille","lat":43.31711,"lon":5.37754,"is_reserved":false,"is_disabled":false,"rental_uris":{"android":"levelo://app?vid=71557b2f-0cba-4338-83db-d8c00bdfcacb","ios":"levelo://app?vid=71557b2f-0cba-4338-83db-d8c00bdfcacb"},"vehicle_type_id":"4","last_reported":1728331813,"current_range_meters":24000,"station_id":"ce4bgth2rcd13ifvqch0","pricing_plan_id":"cebpf4jnsgd1na2vs0mg"},{"bike_id":"3e1d0942-6577-476b-971c-b0a91ff7c57b","system_id":"levelo_inurba_marseille","lat":43.27187,"lon":5.40997,"is_reserved":false,"is_disabled":false,"rental_uris":{"android":"levelo://app?vid=3e1d0942-6577-476b-971c-b0a91ff7c57b","ios":"levelo://app?vid=3e1d0942-6577-476b-971c-b0a91ff7c57b"},"vehicle_type_id":"4","last_reported":1728331813,"current_range_meters":38400,"station_id":"ce4bhl12rcd13ifvqgf0","pricing_plan_id":"cebpf4jnsgd1na2vs0mg"},{"bike_id":"a4d4c79a-8744-4a7b-9611-c7ca0240ec22","system_id":"levelo_inurba_marseille","lat":43.30213,"lon":5.39472,"is_reserved":false,"is_disabled":false,"rental_uris":{"android":"levelo://app?vid=a4d4c79a-8744-4a7b-9611-c7ca0240ec22","ios":"levelo://app?vid=a4d4c79a-8744-4a7b-9611-c7ca0240ec22"},"vehicle_type_id":"4","last_reported":1728331813,"current_range_meters":17600,"station_id":"ce4bh0p2rcd13ifvqd70","pricing_plan_id":"cebpf4jnsgd1na2vs0mg"},{"bike_id":"4af55307-045f-4c66-a045-a91d88bb4c16","system_id":"levelo_inurba_marseille","lat":43.22933,"lon":5.3538,"is_reserved":false,"is_disabled":false,"rental_uris":{"android":"levelo://app?vid=4af55307-045f-4c66-a045-a91d88bb4c16","ios":"levelo://app?vid=4af55307-045f-4c66-a045-a91d88bb4c16"},"vehicle_type_id":"4","last_reported":1728331813,"current_range_meters":25600,"station_id":"cpo3532slgdg3j2ikp40","pricing_plan_id":"cebpf4jnsgd1na2vs0mg"},{"bike_id":"aa598db1-3c3a-48c0-acd0-1929a2b13407","system_id":"levelo_inurba_marseille","lat":43.31716,"lon":5.43709,"is_reserved":false,"is_disabled":false,"rental_uris":{"android":"levelo://app?vid=aa598db1-3c3a-48c0-acd0-1929a2b13407","ios":"levelo://app?vid=aa598db1-3c3a-48c0-acd0-1929a2b13407"},"vehicle_type_id":"4","last_reported":1728331813,"current_range_meters":39200,"station_id":"ce4bhp92rcd13ifvqhcg","pricing_plan_id":"cebpf4jnsgd1na2vs0mg"},{"bike_id":"47efe985-66e3-4fb1-a00d-60851f779f19","system_id":"levelo_inurba_marseille","lat":43.32543,"lon":5.41435,"is_reserved":false,"is_disabled":false,"rental_uris":{"android":"levelo://app?vid=47efe985-66e3-4fb1-a00d-60851f779f19","ios":"levelo://app?vid=47efe985-66e3-4fb1-a00d-60851f779f19"},"vehicle_type_id":"4","last_reported":1728331813,"current_range_meters":28400,"station_id":"ce4bhq12rcd13ifvqhhg","pricing_plan_id":"cebpf4jnsgd1na2vs0mg"},{"bike_id":"6482b1fb-67cb-4384-a7c9-6c0a7b56e3b4","system_id":"levelo_inurba_marseille","lat":43.28852,"lon":5.43331,"is_reserved":false,"is_disabled":false,"rental_uris":{"android":"levelo://app?vid=6482b1fb-67cb-4384-a7c9-6c0a7b56e3b4","ios":"levelo://app?vid=6482b1fb-67cb-4384-a7c9-6c0a7b56e3b4"},"vehicle_type_id":"4","last_reported":1728331813,"current_range_meters":4000,"station_id":"","pricing_plan_id":"cebpf4jnsgd1na2vs0mg"},{"bike_id":"0f199410-ea01-4806-a3c1-c2243c49ac7b","system_id":"levelo_inurba_marseille","lat":43.31356,"lon":5.38488,"is_reserved":false,"is_disabled":false,"rental_uris":{"android":"levelo://app?vid=0f199410-ea01-4806-a3c1-c2243c49ac7b","ios":"levelo://app?vid=0f199410-ea01-4806-a3c1-c2243c49ac7b"},"vehicle_type_id":"4","last_reported":1728331813,"current_range_meters":35600,"station_id":"ce4bgt92rcd13ifvqcf0","pricing_plan_id":"cebpf4jnsgd1na2vs0mg"},{"bike_id":"294882e4-04ea-4ba9-8d89-0381ed6bba4d","system_id":"levelo_inurba_marseille","lat":43.31327,"lon":5.39692,"is_reserved":false,"is_disabled":false,"rental_uris":{"android":"levelo://app?vid=294882e4-04ea-4ba9-8d89-0381ed6bba4d","ios":"levelo://app?vid=294882e4-04ea-4ba9-8d89-0381ed6bba4d"},"vehicle_type_id":"4","last_reported":1728331813,"current_range_meters":33200,"station_id":"ce4bgvp2rcd13ifvqcu0","pricing_plan_id":"cebpf4jnsgd1na2vs0mg"},{"bike_id":"480eecf8-5d47-4f93-815e-826c050e484c","system_id":"levelo_inurba_marseille","lat":43.31326,"lon":5.39693,"is_reserved":false,"is_disabled":false,"rental_uris":{"android":"levelo://app?vid=480eecf8-5d47-4f93-815e-826c050e484c","ios":"levelo://app?vid=480eecf8-5d47-4f93-815e-826c050e484c"},"vehicle_type_id":"4","last_reported":1728331813,"current_range_meters":38800,"station_id":"ce4bgvp2rcd13ifvqcu0","pricing_plan_id":"cebpf4jnsgd1na2vs0mg"},{"bike_id":"c12c46a4-bd86-493d-803e-5d507cd7924b","system_id":"levelo_inurba_marseille","lat":43.23199,"lon":5.35546,"is_reserved":false,"is_disabled":false,"rental_uris":{"android":"levelo://app?vid=c12c46a4-bd86-493d-803e-5d507cd7924b","ios":"levelo://app?vid=c12c46a4-bd86-493d-803e-5d507cd7924b"},"vehicle_type_id":"4","last_reported":1728331813,"current_range_meters":23200,"station_id":"ce4bhu92rcd13ifvqi70","pricing_plan_id":"cebpf4jnsgd1na2vs0mg"},{"bike_id":"1e22ea5d-d406-4b63-92d6-06a783dc0af8","system_id":"levelo_inurba_marseille","lat":43.23185,"lon":5.39983,"is_reserved":false,"is_disabled":false,"rental_uris":{"android":"levelo://app?vid=1e22ea5d-d406-4b63-92d6-06a783dc0af8","ios":"levelo://app?vid=1e22ea5d-d406-4b63-92d6-06a783dc0af8"},"vehicle_type_id":"4","last_reported":1728331813,"current_range_meters":22800,"station_id":"ce4bhn12rcd13ifvqgqg","pricing_plan_id":"cebpf4jnsgd1na2vs0mg"},{"bike_id":"e0ef52ca-c7fa-41d7-a3ea-c3e5235a2597","system_id":"levelo_inurba_marseille","lat":43.25084,"lon":5.3952,"is_reserved":false,"is_disabled":false,"rental_uris":{"android":"levelo://app?vid=e0ef52ca-c7fa-41d7-a3ea-c3e5235a2597","ios":"levelo://app?vid=e0ef52ca-c7fa-41d7-a3ea-c3e5235a2597"},"vehicle_type_id":"4","last_reported":1728331813,"current_range_meters":29600,"station_id":"ce4bhm12rcd13ifvqgkg","pricing_plan_id":"cebpf4jnsgd1na2vs0mg"},{"bike_id":"da293d21-5702-4ee7-9dd4-c66f07daee7e","system_id":"levelo_inurba_marseille","lat":43.26193,"lon":5.37448,"is_reserved":false,"is_disabled":false,"rental_uris":{"android":"levelo://app?vid=da293d21-5702-4ee7-9dd4-c66f07daee7e","ios":"levelo://app?vid=da293d21-5702-4ee7-9dd4-c66f07daee7e"},"vehicle_type_id":"4","last_reported":1728331813,"current_range_meters":36800,"station_id":"ce4bhgp2rcd13ifvqfc0","pricing_plan_id":"cebpf4jnsgd1na2vs0mg"},{"bike_id":"85a8b07e-682b-4725-800e-b0749654fba5","system_id":"levelo_inurba_marseille","lat":43.24171,"lon":5.36396,"is_reserved":false,"is_disabled":false,"rental_uris":{"android":"levelo://app?vid=85a8b07e-682b-4725-800e-b0749654fba5","ios":"levelo://app?vid=85a8b07e-682b-4725-800e-b0749654fba5"},"vehicle_type_id":"4","last_reported":1728331813,"current_range_meters":22800,"station_id":"cpo36qri1sfpv3e86is0","pricing_plan_id":"cebpf4jnsgd1na2vs0mg"},{"bike_id":"19c6dacc-bcb8-4e79-b8b4-d18a54cc1928","system_id":"levelo_inurba_marseille","lat":43.27996,"lon":5.41663,"is_reserved":false,"is_disabled":false,"rental_uris":{"android":"levelo://app?vid=19c6dacc-bcb8-4e79-b8b4-d18a54cc1928","ios":"levelo://app?vid=19c6dacc-bcb8-4e79-b8b4-d18a54cc1928"},"vehicle_type_id":"4","last_reported":1728331813,"current_range_meters":38800,"station_id":"ce4bho12rcd13ifvqh1g","pricing_plan_id":"cebpf4jnsgd1na2vs0mg"},{"bike_id":"eb8fc8ee-c5fc-4298-a869-d0284f45a890","system_id":"levelo_inurba_marseille","lat":43.32365,"lon":5.38885,"is_reserved":false,"is_disabled":false,"rental_uris":{"android":"levelo://app?vid=eb8fc8ee-c5fc-4298-a869-d0284f45a890","ios":"levelo://app?vid=eb8fc8ee-c5fc-4298-a869-d0284f45a890"},"vehicle_type_id":"4","last_reported":1728331813,"current_range_meters":36800,"station_id":"ce4bhqp2rcd13ifvqhog","pricing_plan_id":"cebpf4jnsgd1na2vs0mg"},{"bike_id":"b6640f17-7ab3-4932-bbd1-5fe22e83845e","system_id":"levelo_inurba_marseille","lat":43.32292,"lon":5.38272,"is_reserved":false,"is_disabled":false,"rental_uris":{"android":"levelo://app?vid=b6640f17-7ab3-4932-bbd1-5fe22e83845e","ios":"levelo://app?vid=b6640f17-7ab3-4932-bbd1-5fe22e83845e"},"vehicle_type_id":"4","last_reported":1728331813,"current_range_meters":26800,"station_id":"ce4bhr12rcd13ifvqhqg","pricing_plan_id":"cebpf4jnsgd1na2vs0mg"},{"bike_id":"b5d0d5d7-5971-4c5e-bed9-a155ed94b0cf","system_id":"levelo_inurba_marseille","lat":43.30645,"lon":5.40099,"is_reserved":false,"is_disabled":false,"rental_uris":{"android":"levelo://app?vid=b5d0d5d7-5971-4c5e-bed9-a155ed94b0cf","ios":"levelo://app?vid=b5d0d5d7-5971-4c5e-bed9-a155ed94b0cf"},"vehicle_type_id":"4","last_reported":1728331813,"current_range_meters":32400,"station_id":"ce4bh112rcd13ifvqda0","pricing_plan_id":"cebpf4jnsgd1na2vs0mg"},{"bike_id":"6cdf57b5-9c11-403b-af12-52004b9fe835","system_id":"levelo_inurba_marseille","lat":43.297669,"lon":5.362919,"is_reserved":false,"is_disabled":false,"rental_uris":{"android":"levelo://app?vid=6cdf57b5-9c11-403b-af12-52004b9fe835","ios":"levelo://app?vid=6cdf57b5-9c11-403b-af12-52004b9fe835"},"vehicle_type_id":"4","last_reported":1728331813,"current_range_meters":16800,"station_id":"","pricing_plan_id":"cebpf4jnsgd1na2vs0mg"},{"bike_id":"087e2491-34e5-4386-b1d2-a99cdb5433c4","system_id":"levelo_inurba_marseille","lat":43.27977,"lon":5.38738,"is_reserved":false,"is_disabled":false,"rental_uris":{"android":"levelo://app?vid=087e2491-34e5-4386-b1d2-a99cdb5433c4","ios":"levelo://app?vid=087e2491-34e5-4386-b1d2-a99cdb5433c4"},"vehicle_type_id":"4","last_reported":1728331813,"current_range_meters":30000,"station_id":"ce4bhg12rcd13ifvqf80","pricing_plan_id":"cebpf4jnsgd1na2vs0mg"},{"bike_id":"f87c1dd0-d204-4a41-ae92-687c3cddfed1","system_id":"levelo_inurba_marseille","lat":43.24669,"lon":5.38166,"is_reserved":false,"is_disabled":false,"rental_uris":{"android":"levelo://app?vid=f87c1dd0-d204-4a41-ae92-687c3cddfed1","ios":"levelo://app?vid=f87c1dd0-d204-4a41-ae92-687c3cddfed1"},"vehicle_type_id":"4","last_reported":1728331813,"current_range_meters":6000,"station_id":"ce4bhih2rcd13ifvqfr0","pricing_plan_id":"cebpf4jnsgd1na2vs0mg"},{"bike_id":"80771c91-a7e6-46c5-8168-115408374db8","system_id":"levelo_inurba_marseille","lat":43.27992,"lon":5.40024,"is_reserved":false,"is_disabled":false,"rental_uris":{"android":"levelo://app?vid=80771c91-a7e6-46c5-8168-115408374db8","ios":"levelo://app?vid=80771c91-a7e6-46c5-8168-115408374db8"},"vehicle_type_id":"4","last_reported":1728331813,"current_range_meters":16800,"station_id":"ce4bho92rcd13ifvqh4g","pricing_plan_id":"cebpf4jnsgd1na2vs0mg"},{"bike_id":"62c20907-37b0-4a30-9212-04239ba69697","system_id":"levelo_inurba_marseille","lat":43.3133,"lon":5.39699,"is_reserved":false,"is_disabled":false,"rental_uris":{"android":"levelo://app?vid=62c20907-37b0-4a30-9212-04239ba69697","ios":"levelo://app?vid=62c20907-37b0-4a30-9212-04239ba69697"},"vehicle_type_id":"4","last_reported":1728331813,"current_range_meters":39200,"station_id":"ce4bgvp2rcd13ifvqcu0","pricing_plan_id":"cebpf4jnsgd1na2vs0mg"},{"bike_id":"d00a3477-782a-4de0-b711-15ed9dd434f4","system_id":"levelo_inurba_marseille","lat":43.23052,"lon":5.35497,"is_reserved":false,"is_disabled":false,"rental_uris":{"android":"levelo://app?vid=d00a3477-782a-4de0-b711-15ed9dd434f4","ios":"levelo://app?vid=d00a3477-782a-4de0-b711-15ed9dd434f4"},"vehicle_type_id":"4","last_reported":1728331813,"current_range_meters":8400,"station_id":"cpo3342slgdg3j2ifvpg","pricing_plan_id":"cebpf4jnsgd1na2vs0mg"},{"bike_id":"723a9ecd-2170-48ac-aed2-47ee1acfbf4e","system_id":"levelo_inurba_marseille","lat":43.309323,"lon":5.401375,"is_reserved":false,"is_disabled":false,"rental_uris":{"android":"levelo://app?vid=723a9ecd-2170-48ac-aed2-47ee1acfbf4e","ios":"levelo://app?vid=723a9ecd-2170-48ac-aed2-47ee1acfbf4e"},"vehicle_type_id":"4","last_reported":1728331813,"current_range_meters":38800,"station_id":"ce4bgvp2rcd13ifvqct0","pricing_plan_id":"cebpf4jnsgd1na2vs0mg"},{"bike_id":"d702d83d-fc8f-401a-b86a-fea9c5c03cd2","system_id":"levelo_inurba_marseille","lat":43.288544,"lon":5.358388,"is_reserved":false,"is_disabled":false,"rental_uris":{"android":"levelo://app?vid=d702d83d-fc8f-401a-b86a-fea9c5c03cd2","ios":"levelo://app?vid=d702d83d-fc8f-401a-b86a-fea9c5c03cd2"},"vehicle_type_id":"4","last_reported":1728331813,"current_range_meters":38000,"station_id":"ce4bh012rcd13ifvqcv0","pricing_plan_id":"cebpf4jnsgd1na2vs0mg"},{"bike_id":"9c5d863a-5a7e-4174-aa67-2817a0e74f57","system_id":"levelo_inurba_marseille","lat":43.28462,"lon":5.35875,"is_reserved":false,"is_disabled":false,"rental_uris":{"android":"levelo://app?vid=9c5d863a-5a7e-4174-aa67-2817a0e74f57","ios":"levelo://app?vid=9c5d863a-5a7e-4174-aa67-2817a0e74f57"},"vehicle_type_id":"4","last_reported":1728331813,"current_range_meters":28400,"station_id":"ce4bhah2rcd13ifvqei0","pricing_plan_id":"cebpf4jnsgd1na2vs0mg"},{"bike_id":"198b5a92-8538-43e2-bd67-e5eb45ee3541","system_id":"levelo_inurba_marseille","lat":43.293745,"lon":5.378367,"is_reserved":false,"is_disabled":false,"rental_uris":{"android":"levelo://app?vid=198b5a92-8538-43e2-bd67-e5eb45ee3541","ios":"levelo://app?vid=198b5a92-8538-43e2-bd67-e5eb45ee3541"},"vehicle_type_id":"4","last_reported":1728331813,"current_range_meters":17600,"station_id":"ce4bgjh2rcd13ifvqbf0","pricing_plan_id":"cebpf4jnsgd1na2vs0mg"},{"bike_id":"0addcf89-f5f6-4899-92b3-5cd2981eb4de","system_id":"levelo_inurba_marseille","lat":43.31708,"lon":5.37756,"is_reserved":false,"is_disabled":false,"rental_uris":{"android":"levelo://app?vid=0addcf89-f5f6-4899-92b3-5cd2981eb4de","ios":"levelo://app?vid=0addcf89-f5f6-4899-92b3-5cd2981eb4de"},"vehicle_type_id":"4","last_reported":1728331813,"current_range_meters":38800,"station_id":"ce4bgth2rcd13ifvqch0","pricing_plan_id":"cebpf4jnsgd1na2vs0mg"},{"bike_id":"383e6238-5106-499a-8e26-d16b81b00a77","system_id":"levelo_inurba_marseille","lat":43.299626,"lon":5.413329,"is_reserved":false,"is_disabled":false,"rental_uris":{"android":"levelo://app?vid=383e6238-5106-499a-8e26-d16b81b00a77","ios":"levelo://app?vid=383e6238-5106-499a-8e26-d16b81b00a77"},"vehicle_type_id":"4","last_reported":1728331813,"current_range_meters":20000,"station_id":"ce4bhp12rcd13ifvqh9g","pricing_plan_id":"cebpf4jnsgd1na2vs0mg"},{"bike_id":"e8f38f77-6572-42be-9296-0cbe6e7cb972","system_id":"levelo_inurba_marseille","lat":43.23054,"lon":5.35492,"is_reserved":false,"is_disabled":false,"rental_uris":{"android":"levelo://app?vid=e8f38f77-6572-42be-9296-0cbe6e7cb972","ios":"levelo://app?vid=e8f38f77-6572-42be-9296-0cbe6e7cb972"},"vehicle_type_id":"4","last_reported":1728331813,"current_range_meters":36400,"station_id":"cpo3342slgdg3j2ifvpg","pricing_plan_id":"cebpf4jnsgd1na2vs0mg"},{"bike_id":"da2bef50-9604-4ee2-b6fe-7fbad7a1e331","system_id":"levelo_inurba_marseille","lat":43.31711,"lon":5.37755,"is_reserved":false,"is_disabled":false,"rental_uris":{"android":"levelo://app?vid=da2bef50-9604-4ee2-b6fe-7fbad7a1e331","ios":"levelo://app?vid=da2bef50-9604-4ee2-b6fe-7fbad7a1e331"},"vehicle_type_id":"4","last_reported":1728331813,"current_range_meters":38800,"station_id":"ce4bgth2rcd13ifvqch0","pricing_plan_id":"cebpf4jnsgd1na2vs0mg"},{"bike_id":"6383107e-a90b-48e5-ad67-a00f3da06e6b","system_id":"levelo_inurba_marseille","lat":43.28087,"lon":5.3966,"is_reserved":false,"is_disabled":false,"rental_uris":{"android":"levelo://app?vid=6383107e-a90b-48e5-ad67-a00f3da06e6b","ios":"levelo://app?vid=6383107e-a90b-48e5-ad67-a00f3da06e6b"},"vehicle_type_id":"4","last_reported":1728331813,"current_range_meters":17200,"station_id":"ce4bho12rcd13ifvqh2g","pricing_plan_id":"cebpf4jnsgd1na2vs0mg"},{"bike_id":"aba7126a-32fe-4f2d-8597-35f362949104","system_id":"levelo_inurba_marseille","lat":43.28095,"lon":5.37845,"is_reserved":false,"is_disabled":false,"rental_uris":{"android":"levelo://app?vid=aba7126a-32fe-4f2d-8597-35f362949104","ios":"levelo://app?vid=aba7126a-32fe-4f2d-8597-35f362949104"},"vehicle_type_id":"4","last_reported":1728331813,"current_range_meters":38800,"station_id":"ce4bha12rcd13ifvqee0","pricing_plan_id":"cebpf4jnsgd1na2vs0mg"},{"bike_id":"6ee031fe-a559-48df-a1d1-e81d8714f3a6","system_id":"levelo_inurba_marseille","lat":43.3248,"lon":5.36566,"is_reserved":false,"is_disabled":false,"rental_uris":{"android":"levelo://app?vid=6ee031fe-a559-48df-a1d1-e81d8714f3a6","ios":"levelo://app?vid=6ee031fe-a559-48df-a1d1-e81d8714f3a6"},"vehicle_type_id":"4","last_reported":1728331813,"current_range_meters":4000,"station_id":"ce4bhs12rcd13ifvqhvg","pricing_plan_id":"cebpf4jnsgd1na2vs0mg"},{"bike_id":"0b62c281-28fb-46be-925f-c11f40e7eefa","system_id":"levelo_inurba_marseille","lat":43.29792,"lon":5.39345,"is_reserved":false,"is_disabled":false,"rental_uris":{"android":"levelo://app?vid=0b62c281-28fb-46be-925f-c11f40e7eefa","ios":"levelo://app?vid=0b62c281-28fb-46be-925f-c11f40e7eefa"},"vehicle_type_id":"4","last_reported":1728331813,"current_range_meters":22400,"station_id":"chh1huq6cuj3fo74tm60","pricing_plan_id":"cebpf4jnsgd1na2vs0mg"},{"bike_id":"26b10502-c168-4dc5-b070-1f18ddc4f76e","system_id":"levelo_inurba_marseille","lat":43.33024,"lon":5.39041,"is_reserved":false,"is_disabled":false,"rental_uris":{"android":"levelo://app?vid=26b10502-c168-4dc5-b070-1f18ddc4f76e","ios":"levelo://app?vid=26b10502-c168-4dc5-b070-1f18ddc4f76e"},"vehicle_type_id":"4","last_reported":1728331813,"current_range_meters":36400,"station_id":"ce4bhr92rcd13ifvqhrg","pricing_plan_id":"cebpf4jnsgd1na2vs0mg"},{"bike_id":"2fe9a872-9d35-432b-917d-ada3867c3c80","system_id":"levelo_inurba_marseille","lat":43.31531,"lon":5.38031,"is_reserved":false,"is_disabled":false,"rental_uris":{"android":"levelo://app?vid=2fe9a872-9d35-432b-917d-ada3867c3c80","ios":"levelo://app?vid=2fe9a872-9d35-432b-917d-ada3867c3c80"},"vehicle_type_id":"4","last_reported":1728331813,"current_range_meters":28800,"station_id":"ce4bhsp2rcd13ifvqi50","pricing_plan_id":"cebpf4jnsgd1na2vs0mg"},{"bike_id":"60b57eaf-66f9-4ab9-b225-ce86cb95389a","system_id":"levelo_inurba_marseille","lat":43.3008,"lon":5.39091,"is_reserved":false,"is_disabled":false,"rental_uris":{"android":"levelo://app?vid=60b57eaf-66f9-4ab9-b225-ce86cb95389a","ios":"levelo://app?vid=60b57eaf-66f9-4ab9-b225-ce86cb95389a"},"vehicle_type_id":"4","last_reported":1728331813,"current_range_meters":38000,"station_id":"ce4bh192rcd13ifvqdb0","pricing_plan_id":"cebpf4jnsgd1na2vs0mg"},{"bike_id":"a258be76-6450-41b3-9d5b-2b42917a7812","system_id":"levelo_inurba_marseille","lat":43.31481,"lon":5.37305,"is_reserved":false,"is_disabled":false,"rental_uris":{"android":"levelo://app?vid=a258be76-6450-41b3-9d5b-2b42917a7812","ios":"levelo://app?vid=a258be76-6450-41b3-9d5b-2b42917a7812"},"vehicle_type_id":"4","last_reported":1728331813,"current_range_meters":11200,"station_id":"ce4bgt12rcd13ifvqcd0","pricing_plan_id":"cebpf4jnsgd1na2vs0mg"},{"bike_id":"3eb41a85-4d3e-4fb0-997a-b21f7b582433","system_id":"levelo_inurba_marseille","lat":43.28843,"lon":5.39336,"is_reserved":false,"is_disabled":false,"rental_uris":{"android":"levelo://app?vid=3eb41a85-4d3e-4fb0-997a-b21f7b582433","ios":"levelo://app?vid=3eb41a85-4d3e-4fb0-997a-b21f7b582433"},"vehicle_type_id":"4","last_reported":1728331813,"current_range_meters":35600,"station_id":"ce4bh2p2rcd13ifvqdi0","pricing_plan_id":"cebpf4jnsgd1na2vs0mg"},{"bike_id":"d0edae7e-7f2f-48a4-bab7-915ac2cfe93c","system_id":"levelo_inurba_marseille","lat":43.29527,"lon":5.39406,"is_reserved":false,"is_disabled":false,"rental_uris":{"android":"levelo://app?vid=d0edae7e-7f2f-48a4-bab7-915ac2cfe93c","ios":"levelo://app?vid=d0edae7e-7f2f-48a4-bab7-915ac2cfe93c"},"vehicle_type_id":"4","last_reported":1728331813,"current_range_meters":16800,"station_id":"ce4bh292rcd13ifvqdf0","pricing_plan_id":"cebpf4jnsgd1na2vs0mg"},{"bike_id":"6d4525a1-4df9-4bde-8481-acf85ddf64a9","system_id":"levelo_inurba_marseille","lat":43.31724,"lon":5.42406,"is_reserved":false,"is_disabled":false,"rental_uris":{"android":"levelo://app?vid=6d4525a1-4df9-4bde-8481-acf85ddf64a9","ios":"levelo://app?vid=6d4525a1-4df9-4bde-8481-acf85ddf64a9"},"vehicle_type_id":"4","last_reported":1728331813,"current_range_meters":8800,"station_id":"ce4bhp92rcd13ifvqhbg","pricing_plan_id":"cebpf4jnsgd1na2vs0mg"},{"bike_id":"4378a0dd-7ddd-4246-9294-1e2af02e0700","system_id":"levelo_inurba_marseille","lat":43.23198,"lon":5.35554,"is_reserved":false,"is_disabled":false,"rental_uris":{"android":"levelo://app?vid=4378a0dd-7ddd-4246-9294-1e2af02e0700","ios":"levelo://app?vid=4378a0dd-7ddd-4246-9294-1e2af02e0700"},"vehicle_type_id":"4","last_reported":1728331813,"current_range_meters":2800,"station_id":"ce4bhu92rcd13ifvqi70","pricing_plan_id":"cebpf4jnsgd1na2vs0mg"},{"bike_id":"c4bcf820-9ca8-4dd7-b67e-513aac5608f8","system_id":"levelo_inurba_marseille","lat":43.27909,"lon":5.39587,"is_reserved":false,"is_disabled":false,"rental_uris":{"android":"levelo://app?vid=c4bcf820-9ca8-4dd7-b67e-513aac5608f8","ios":"levelo://app?vid=c4bcf820-9ca8-4dd7-b67e-513aac5608f8"},"vehicle_type_id":"4","last_reported":1728331813,"current_range_meters":4400,"station_id":"ce4bhf92rcd13ifvqf40","pricing_plan_id":"cebpf4jnsgd1na2vs0mg"},{"bike_id":"513184d9-4a6b-49fd-81e0-1b13bcd19fd6","system_id":"levelo_inurba_marseille","lat":43.28429,"lon":5.40039,"is_reserved":false,"is_disabled":false,"rental_uris":{"android":"levelo://app?vid=513184d9-4a6b-49fd-81e0-1b13bcd19fd6","ios":"levelo://app?vid=513184d9-4a6b-49fd-81e0-1b13bcd19fd6"},"vehicle_type_id":"4","last_reported":1728331813,"current_range_meters":26000,"station_id":"","pricing_plan_id":"cebpf4jnsgd1na2vs0mg"},{"bike_id":"f15e7e2e-a7e1-47b2-877a-c595706545c7","system_id":"levelo_inurba_marseille","lat":43.28154,"lon":5.42646,"is_reserved":false,"is_disabled":false,"rental_uris":{"android":"levelo://app?vid=f15e7e2e-a7e1-47b2-877a-c595706545c7","ios":"levelo://app?vid=f15e7e2e-a7e1-47b2-877a-c595706545c7"},"vehicle_type_id":"4","last_reported":1728331813,"current_range_meters":39200,"station_id":"ce4bhnh2rcd13ifvqgug","pricing_plan_id":"cebpf4jnsgd1na2vs0mg"},{"bike_id":"93d45870-2e1c-4ed1-9664-7b219a4ed443","system_id":"levelo_inurba_marseille","lat":43.22931,"lon":5.35382,"is_reserved":false,"is_disabled":false,"rental_uris":{"android":"levelo://app?vid=93d45870-2e1c-4ed1-9664-7b219a4ed443","ios":"levelo://app?vid=93d45870-2e1c-4ed1-9664-7b219a4ed443"},"vehicle_type_id":"4","last_reported":1728331813,"current_range_meters":36000,"station_id":"cpo3532slgdg3j2ikp40","pricing_plan_id":"cebpf4jnsgd1na2vs0mg"},{"bike_id":"d4dfa52e-76b8-410b-b129-46d068df677c","system_id":"levelo_inurba_marseille","lat":43.31531,"lon":5.38041,"is_reserved":false,"is_disabled":false,"rental_uris":{"android":"levelo://app?vid=d4dfa52e-76b8-410b-b129-46d068df677c","ios":"levelo://app?vid=d4dfa52e-76b8-410b-b129-46d068df677c"},"vehicle_type_id":"4","last_reported":1728331813,"current_range_meters":28000,"station_id":"ce4bhsp2rcd13ifvqi50","pricing_plan_id":"cebpf4jnsgd1na2vs0mg"},{"bike_id":"4a7a48a7-ee41-4f0c-a47a-1a51fae4c62e","system_id":"levelo_inurba_marseille","lat":43.27427,"lon":5.39425,"is_reserved":false,"is_disabled":false,"rental_uris":{"android":"levelo://app?vid=4a7a48a7-ee41-4f0c-a47a-1a51fae4c62e","ios":"levelo://app?vid=4a7a48a7-ee41-4f0c-a47a-1a51fae4c62e"},"vehicle_type_id":"4","last_reported":1728331813,"current_range_meters":33600,"station_id":"ce4bhdp2rcd13ifvqf20","pricing_plan_id":"cebpf4jnsgd1na2vs0mg"},{"bike_id":"0e3bfff6-2bee-4be5-8568-766c0160a493","system_id":"levelo_inurba_marseille","lat":43.31711,"lon":5.43707,"is_reserved":false,"is_disabled":false,"rental_uris":{"android":"levelo://app?vid=0e3bfff6-2bee-4be5-8568-766c0160a493","ios":"levelo://app?vid=0e3bfff6-2bee-4be5-8568-766c0160a493"},"vehicle_type_id":"4","last_reported":1728331813,"current_range_meters":10800,"station_id":"ce4bhp92rcd13ifvqhcg","pricing_plan_id":"cebpf4jnsgd1na2vs0mg"},{"bike_id":"6e512044-ef12-457b-bcca-26bd86c5618a","system_id":"levelo_inurba_marseille","lat":43.23061,"lon":5.3549,"is_reserved":false,"is_disabled":false,"rental_uris":{"android":"levelo://app?vid=6e512044-ef12-457b-bcca-26bd86c5618a","ios":"levelo://app?vid=6e512044-ef12-457b-bcca-26bd86c5618a"},"vehicle_type_id":"4","last_reported":1728331813,"current_range_meters":36000,"station_id":"cpo3342slgdg3j2ifvpg","pricing_plan_id":"cebpf4jnsgd1na2vs0mg"},{"bike_id":"7cf6d405-7c7a-4fff-b767-33947faeb342","system_id":"levelo_inurba_marseille","lat":43.28365,"lon":5.38631,"is_reserved":false,"is_disabled":false,"rental_uris":{"android":"levelo://app?vid=7cf6d405-7c7a-4fff-b767-33947faeb342","ios":"levelo://app?vid=7cf6d405-7c7a-4fff-b767-33947faeb342"},"vehicle_type_id":"4","last_reported":1728331813,"current_range_meters":24400,"station_id":"ce4bh492rcd13ifvqdvg","pricing_plan_id":"cebpf4jnsgd1na2vs0mg"},{"bike_id":"baba4cb0-5224-4c87-9a3d-c3e70a3aff74","system_id":"levelo_inurba_marseille","lat":43.2841,"lon":5.37516,"is_reserved":false,"is_disabled":false,"rental_uris":{"android":"levelo://app?vid=baba4cb0-5224-4c87-9a3d-c3e70a3aff74","ios":"levelo://app?vid=baba4cb0-5224-4c87-9a3d-c3e70a3aff74"},"vehicle_type_id":"4","last_reported":1728331813,"current_range_meters":7200,"station_id":"ce4bh412rcd13ifvqds0","pricing_plan_id":"cebpf4jnsgd1na2vs0mg"},{"bike_id":"daf8bbcb-e85a-40ec-b010-0c9e6f118bb6","system_id":"levelo_inurba_marseille","lat":43.2937,"lon":5.37854,"is_reserved":false,"is_disabled":false,"rental_uris":{"android":"levelo://app?vid=daf8bbcb-e85a-40ec-b010-0c9e6f118bb6","ios":"levelo://app?vid=daf8bbcb-e85a-40ec-b010-0c9e6f118bb6"},"vehicle_type_id":"4","last_reported":1728331813,"current_range_meters":35600,"station_id":"ce4bgjh2rcd13ifvqbf0","pricing_plan_id":"cebpf4jnsgd1na2vs0mg"},{"bike_id":"93a538e2-33d2-44e2-ac66-feb42e05dfad","system_id":"levelo_inurba_marseille","lat":43.24166,"lon":5.36399,"is_reserved":false,"is_disabled":false,"rental_uris":{"android":"levelo://app?vid=93a538e2-33d2-44e2-ac66-feb42e05dfad","ios":"levelo://app?vid=93a538e2-33d2-44e2-ac66-feb42e05dfad"},"vehicle_type_id":"4","last_reported":1728331813,"current_range_meters":27600,"station_id":"cpo36qri1sfpv3e86is0","pricing_plan_id":"cebpf4jnsgd1na2vs0mg"},{"bike_id":"0459141a-cc24-4e8c-b966-1ce7a4ce76ac","system_id":"levelo_inurba_marseille","lat":43.30881,"lon":5.39662,"is_reserved":false,"is_disabled":false,"rental_uris":{"android":"levelo://app?vid=0459141a-cc24-4e8c-b966-1ce7a4ce76ac","ios":"levelo://app?vid=0459141a-cc24-4e8c-b966-1ce7a4ce76ac"},"vehicle_type_id":"4","last_reported":1728331813,"current_range_meters":7200,"station_id":"ce4bh012rcd13ifvqcv0","pricing_plan_id":"cebpf4jnsgd1na2vs0mg"},{"bike_id":"d427b0dc-8102-4092-a099-14c1fb0dce06","system_id":"levelo_inurba_marseille","lat":43.29554,"lon":5.42288,"is_reserved":false,"is_disabled":false,"rental_uris":{"android":"levelo://app?vid=d427b0dc-8102-4092-a099-14c1fb0dce06","ios":"levelo://app?vid=d427b0dc-8102-4092-a099-14c1fb0dce06"},"vehicle_type_id":"4","last_reported":1728331813,"current_range_meters":38800,"station_id":"ce4bhph2rcd13ifvqhdg","pricing_plan_id":"cebpf4jnsgd1na2vs0mg"},{"bike_id":"8b93e833-0d9a-4ef7-8267-100c5eb3bdc7","system_id":"levelo_inurba_marseille","lat":43.27059,"lon":5.40257,"is_reserved":false,"is_disabled":false,"rental_uris":{"android":"levelo://app?vid=8b93e833-0d9a-4ef7-8267-100c5eb3bdc7","ios":"levelo://app?vid=8b93e833-0d9a-4ef7-8267-100c5eb3bdc7"},"vehicle_type_id":"4","last_reported":1728331813,"current_range_meters":11600,"station_id":"ce4bhk92rcd13ifvqgc0","pricing_plan_id":"cebpf4jnsgd1na2vs0mg"},{"bike_id":"0ff21f5a-2266-425c-b263-b56b4614bfeb","system_id":"levelo_inurba_marseille","lat":43.29571,"lon":5.39964,"is_reserved":false,"is_disabled":false,"rental_uris":{"android":"levelo://app?vid=0ff21f5a-2266-425c-b263-b56b4614bfeb","ios":"levelo://app?vid=0ff21f5a-2266-425c-b263-b56b4614bfeb"},"vehicle_type_id":"4","last_reported":1728331813,"current_range_meters":36800,"station_id":"ce4bh312rcd13ifvqdj0","pricing_plan_id":"cebpf4jnsgd1na2vs0mg"},{"bike_id":"9cd19787-0d65-404d-97ff-1ce16fa26b03","system_id":"levelo_inurba_marseille","lat":43.29527,"lon":5.39407,"is_reserved":false,"is_disabled":false,"rental_uris":{"android":"levelo://app?vid=9cd19787-0d65-404d-97ff-1ce16fa26b03","ios":"levelo://app?vid=9cd19787-0d65-404d-97ff-1ce16fa26b03"},"vehicle_type_id":"4","last_reported":1728331813,"current_range_meters":12000,"station_id":"ce4bh292rcd13ifvqdf0","pricing_plan_id":"cebpf4jnsgd1na2vs0mg"},{"bike_id":"17dbb085-5164-41ed-87e1-785561e83a63","system_id":"levelo_inurba_marseille","lat":43.30644,"lon":5.40102,"is_reserved":false,"is_disabled":false,"rental_uris":{"android":"levelo://app?vid=17dbb085-5164-41ed-87e1-785561e83a63","ios":"levelo://app?vid=17dbb085-5164-41ed-87e1-785561e83a63"},"vehicle_type_id":"4","last_reported":1728331813,"current_range_meters":36400,"station_id":"ce4bh112rcd13ifvqda0","pricing_plan_id":"cebpf4jnsgd1na2vs0mg"},{"bike_id":"863830ce-b61d-4faf-b139-d2efa4e3e05a","system_id":"levelo_inurba_marseille","lat":43.30606,"lon":5.37221,"is_reserved":false,"is_disabled":false,"rental_uris":{"android":"levelo://app?vid=863830ce-b61d-4faf-b139-d2efa4e3e05a","ios":"levelo://app?vid=863830ce-b61d-4faf-b139-d2efa4e3e05a"},"vehicle_type_id":"4","last_reported":1728331813,"current_range_meters":38000,"station_id":"ce4bgqh2rcd13ifvqc4g","pricing_plan_id":"cebpf4jnsgd1na2vs0mg"},{"bike_id":"e13c8969-840d-45af-a6e0-82812d801308","system_id":"levelo_inurba_marseille","lat":43.29266,"lon":5.38451,"is_reserved":false,"is_disabled":false,"rental_uris":{"android":"levelo://app?vid=e13c8969-840d-45af-a6e0-82812d801308","ios":"levelo://app?vid=e13c8969-840d-45af-a6e0-82812d801308"},"vehicle_type_id":"4","last_reported":1728331813,"current_range_meters":32000,"station_id":"ce4bh692rcd13ifvqea0","pricing_plan_id":"cebpf4jnsgd1na2vs0mg"},{"bike_id":"ab0ef8f6-2d64-477f-ab35-7e54daa51f0f","system_id":"levelo_inurba_marseille","lat":43.31712,"lon":5.4371,"is_reserved":false,"is_disabled":false,"rental_uris":{"android":"levelo://app?vid=ab0ef8f6-2d64-477f-ab35-7e54daa51f0f","ios":"levelo://app?vid=ab0ef8f6-2d64-477f-ab35-7e54daa51f0f"},"vehicle_type_id":"4","last_reported":1728331813,"current_range_meters":24400,"station_id":"ce4bhp92rcd13ifvqhcg","pricing_plan_id":"cebpf4jnsgd1na2vs0mg"},{"bike_id":"c45340a7-5257-408a-897a-01994bd38219","system_id":"levelo_inurba_marseille","lat":43.28454,"lon":5.35893,"is_reserved":false,"is_disabled":false,"rental_uris":{"android":"levelo://app?vid=c45340a7-5257-408a-897a-01994bd38219","ios":"levelo://app?vid=c45340a7-5257-408a-897a-01994bd38219"},"vehicle_type_id":"4","last_reported":1728331813,"current_range_meters":4800,"station_id":"ce4bhah2rcd13ifvqei0","pricing_plan_id":"cebpf4jnsgd1na2vs0mg"},{"bike_id":"22e357fa-c099-46f6-b123-0f532103db8c","system_id":"levelo_inurba_marseille","lat":43.313232,"lon":5.396897,"is_reserved":false,"is_disabled":false,"rental_uris":{"android":"levelo://app?vid=22e357fa-c099-46f6-b123-0f532103db8c","ios":"levelo://app?vid=22e357fa-c099-46f6-b123-0f532103db8c"},"vehicle_type_id":"4","last_reported":1728331813,"current_range_meters":27200,"station_id":"ce4bgvp2rcd13ifvqcu0","pricing_plan_id":"cebpf4jnsgd1na2vs0mg"},{"bike_id":"1372c34b-c83e-4ef2-b78f-4a4eb6ec5dd9","system_id":"levelo_inurba_marseille","lat":43.29531,"lon":5.37501,"is_reserved":false,"is_disabled":false,"rental_uris":{"android":"levelo://app?vid=1372c34b-c83e-4ef2-b78f-4a4eb6ec5dd9","ios":"levelo://app?vid=1372c34b-c83e-4ef2-b78f-4a4eb6ec5dd9"},"vehicle_type_id":"4","last_reported":1728331813,"current_range_meters":38800,"station_id":"ce4bgkp2rcd13ifvqbmg","pricing_plan_id":"cebpf4jnsgd1na2vs0mg"},{"bike_id":"b9644df2-b234-4f72-b771-b50713752d5c","system_id":"levelo_inurba_marseille","lat":43.31065,"lon":5.40094,"is_reserved":false,"is_disabled":false,"rental_uris":{"android":"levelo://app?vid=b9644df2-b234-4f72-b771-b50713752d5c","ios":"levelo://app?vid=b9644df2-b234-4f72-b771-b50713752d5c"},"vehicle_type_id":"4","last_reported":1728331813,"current_range_meters":2800,"station_id":"","pricing_plan_id":"cebpf4jnsgd1na2vs0mg"},{"bike_id":"f7612392-4f4b-453b-a64c-499de3c2600f","system_id":"levelo_inurba_marseille","lat":43.24164,"lon":5.36397,"is_reserved":false,"is_disabled":false,"rental_uris":{"android":"levelo://app?vid=f7612392-4f4b-453b-a64c-499de3c2600f","ios":"levelo://app?vid=f7612392-4f4b-453b-a64c-499de3c2600f"},"vehicle_type_id":"4","last_reported":1728331813,"current_range_meters":35200,"station_id":"cpo36qri1sfpv3e86is0","pricing_plan_id":"cebpf4jnsgd1na2vs0mg"},{"bike_id":"b9f7e217-2396-4f17-99e6-316574934f3f","system_id":"levelo_inurba_marseille","lat":43.28462,"lon":5.35885,"is_reserved":false,"is_disabled":false,"rental_uris":{"android":"levelo://app?vid=b9f7e217-2396-4f17-99e6-316574934f3f","ios":"levelo://app?vid=b9f7e217-2396-4f17-99e6-316574934f3f"},"vehicle_type_id":"4","last_reported":1728331813,"current_range_meters":39200,"station_id":"ce4bhah2rcd13ifvqei0","pricing_plan_id":"cebpf4jnsgd1na2vs0mg"},{"bike_id":"9a873b21-4325-4346-9f74-80b6d80ab720","system_id":"levelo_inurba_marseille","lat":43.26949,"lon":5.38634,"is_reserved":false,"is_disabled":false,"rental_uris":{"android":"levelo://app?vid=9a873b21-4325-4346-9f74-80b6d80ab720","ios":"levelo://app?vid=9a873b21-4325-4346-9f74-80b6d80ab720"},"vehicle_type_id":"4","last_reported":1728331813,"current_range_meters":20800,"station_id":"ce4bhh92rcd13ifvqfh0","pricing_plan_id":"cebpf4jnsgd1na2vs0mg"},{"bike_id":"e7244c4d-5cb8-439c-ad7b-ed13b630c5ff","system_id":"levelo_inurba_marseille","lat":43.322876,"lon":5.38271,"is_reserved":false,"is_disabled":false,"rental_uris":{"android":"levelo://app?vid=e7244c4d-5cb8-439c-ad7b-ed13b630c5ff","ios":"levelo://app?vid=e7244c4d-5cb8-439c-ad7b-ed13b630c5ff"},"vehicle_type_id":"4","last_reported":1728331813,"current_range_meters":25600,"station_id":"ce4bhr12rcd13ifvqhqg","pricing_plan_id":"cebpf4jnsgd1na2vs0mg"},{"bike_id":"d4841173-a0b1-4cb7-8007-522665827917","system_id":"levelo_inurba_marseille","lat":43.30148,"lon":5.37419,"is_reserved":false,"is_disabled":false,"rental_uris":{"android":"levelo://app?vid=d4841173-a0b1-4cb7-8007-522665827917","ios":"levelo://app?vid=d4841173-a0b1-4cb7-8007-522665827917"},"vehicle_type_id":"4","last_reported":1728331813,"current_range_meters":31200,"station_id":"ce4bgs92rcd13ifvqcc0","pricing_plan_id":"cebpf4jnsgd1na2vs0mg"},{"bike_id":"62ffd9a6-6954-4d30-82e9-c6d501fe541b","system_id":"levelo_inurba_marseille","lat":43.3133,"lon":5.39688,"is_reserved":false,"is_disabled":false,"rental_uris":{"android":"levelo://app?vid=62ffd9a6-6954-4d30-82e9-c6d501fe541b","ios":"levelo://app?vid=62ffd9a6-6954-4d30-82e9-c6d501fe541b"},"vehicle_type_id":"4","last_reported":1728331813,"current_range_meters":10000,"station_id":"ce4bgvp2rcd13ifvqcu0","pricing_plan_id":"cebpf4jnsgd1na2vs0mg"},{"bike_id":"e592fa8f-aa5a-46f1-b2f4-aa0aa5f30808","system_id":"levelo_inurba_marseille","lat":43.24675,"lon":5.38154,"is_reserved":false,"is_disabled":false,"rental_uris":{"android":"levelo://app?vid=e592fa8f-aa5a-46f1-b2f4-aa0aa5f30808","ios":"levelo://app?vid=e592fa8f-aa5a-46f1-b2f4-aa0aa5f30808"},"vehicle_type_id":"4","last_reported":1728331813,"current_range_meters":18800,"station_id":"ce4bhih2rcd13ifvqfr0","pricing_plan_id":"cebpf4jnsgd1na2vs0mg"},{"bike_id":"16f2623b-8d6e-4528-b0c1-3479f17c28a9","system_id":"levelo_inurba_marseille","lat":43.2781,"lon":5.40719,"is_reserved":false,"is_disabled":false,"rental_uris":{"android":"levelo://app?vid=16f2623b-8d6e-4528-b0c1-3479f17c28a9","ios":"levelo://app?vid=16f2623b-8d6e-4528-b0c1-3479f17c28a9"},"vehicle_type_id":"4","last_reported":1728331813,"current_range_meters":38800,"station_id":"ce4bhnh2rcd13ifvqgtg","pricing_plan_id":"cebpf4jnsgd1na2vs0mg"},{"bike_id":"f86751b6-988f-4e6a-b917-069e5076c5bf","system_id":"levelo_inurba_marseille","lat":43.26558,"lon":5.37282,"is_reserved":false,"is_disabled":false,"rental_uris":{"android":"levelo://app?vid=f86751b6-988f-4e6a-b917-069e5076c5bf","ios":"levelo://app?vid=f86751b6-988f-4e6a-b917-069e5076c5bf"},"vehicle_type_id":"4","last_reported":1728331813,"current_range_meters":38800,"station_id":"ce4bhg12rcd13ifvqf70","pricing_plan_id":"cebpf4jnsgd1na2vs0mg"},{"bike_id":"56db9344-a034-485c-ae82-57c3e91166bb","system_id":"levelo_inurba_marseille","lat":43.27059,"lon":5.40267,"is_reserved":false,"is_disabled":false,"rental_uris":{"android":"levelo://app?vid=56db9344-a034-485c-ae82-57c3e91166bb","ios":"levelo://app?vid=56db9344-a034-485c-ae82-57c3e91166bb"},"vehicle_type_id":"4","last_reported":1728331813,"current_range_meters":38800,"station_id":"ce4bhk92rcd13ifvqgc0","pricing_plan_id":"cebpf4jnsgd1na2vs0mg"},{"bike_id":"e1c9d18b-2a8a-45d7-a26f-341b63761362","system_id":"levelo_inurba_marseille","lat":43.34303,"lon":5.40869,"is_reserved":false,"is_disabled":false,"rental_uris":{"android":"levelo://app?vid=e1c9d18b-2a8a-45d7-a26f-341b63761362","ios":"levelo://app?vid=e1c9d18b-2a8a-45d7-a26f-341b63761362"},"vehicle_type_id":"4","last_reported":1728331813,"current_range_meters":7200,"station_id":"","pricing_plan_id":"cebpf4jnsgd1na2vs0mg"},{"bike_id":"57ed68fc-2981-4c2e-a98b-20e40953d7b4","system_id":"levelo_inurba_marseille","lat":43.29439,"lon":5.39763,"is_reserved":false,"is_disabled":false,"rental_uris":{"android":"levelo://app?vid=57ed68fc-2981-4c2e-a98b-20e40953d7b4","ios":"levelo://app?vid=57ed68fc-2981-4c2e-a98b-20e40953d7b4"},"vehicle_type_id":"4","last_reported":1728331813,"current_range_meters":24800,"station_id":"ce4bh3h2rcd13ifvqdo0","pricing_plan_id":"cebpf4jnsgd1na2vs0mg"},{"bike_id":"43020601-79b9-4d0f-bb00-86da6202f1b4","system_id":"levelo_inurba_marseille","lat":43.2836,"lon":5.38616,"is_reserved":false,"is_disabled":false,"rental_uris":{"android":"levelo://app?vid=43020601-79b9-4d0f-bb00-86da6202f1b4","ios":"levelo://app?vid=43020601-79b9-4d0f-bb00-86da6202f1b4"},"vehicle_type_id":"4","last_reported":1728331813,"current_range_meters":37600,"station_id":"ce4bh492rcd13ifvqdvg","pricing_plan_id":"cebpf4jnsgd1na2vs0mg"},{"bike_id":"c99142a8-9bc4-4fda-b727-c3f121942b33","system_id":"levelo_inurba_marseille","lat":43.29798,"lon":5.40401,"is_reserved":false,"is_disabled":false,"rental_uris":{"android":"levelo://app?vid=c99142a8-9bc4-4fda-b727-c3f121942b33","ios":"levelo://app?vid=c99142a8-9bc4-4fda-b727-c3f121942b33"},"vehicle_type_id":"4","last_reported":1728331813,"current_range_meters":12800,"station_id":"ce4bh112rcd13ifvqd90","pricing_plan_id":"cebpf4jnsgd1na2vs0mg"},{"bike_id":"12cfbe49-322e-4e6e-8e64-3f34de285b4f","system_id":"levelo_inurba_marseille","lat":43.31335,"lon":5.39696,"is_reserved":false,"is_disabled":false,"rental_uris":{"android":"levelo://app?vid=12cfbe49-322e-4e6e-8e64-3f34de285b4f","ios":"levelo://app?vid=12cfbe49-322e-4e6e-8e64-3f34de285b4f"},"vehicle_type_id":"4","last_reported":1728331813,"current_range_meters":28800,"station_id":"ce4bgvp2rcd13ifvqcu0","pricing_plan_id":"cebpf4jnsgd1na2vs0mg"},{"bike_id":"f89ffac7-188e-4d3b-94e4-106f4f8956d0","system_id":"levelo_inurba_marseille","lat":43.30443,"lon":5.38911,"is_reserved":false,"is_disabled":false,"rental_uris":{"android":"levelo://app?vid=f89ffac7-188e-4d3b-94e4-106f4f8956d0","ios":"levelo://app?vid=f89ffac7-188e-4d3b-94e4-106f4f8956d0"},"vehicle_type_id":"4","last_reported":1728331813,"current_range_meters":8800,"station_id":"ce4bgk12rcd13ifvqbi0","pricing_plan_id":"cebpf4jnsgd1na2vs0mg"},{"bike_id":"121306b2-2bb4-4503-b456-87db5347b2df","system_id":"levelo_inurba_marseille","lat":43.29571,"lon":5.39987,"is_reserved":false,"is_disabled":false,"rental_uris":{"android":"levelo://app?vid=121306b2-2bb4-4503-b456-87db5347b2df","ios":"levelo://app?vid=121306b2-2bb4-4503-b456-87db5347b2df"},"vehicle_type_id":"4","last_reported":1728331813,"current_range_meters":23200,"station_id":"ce4bh312rcd13ifvqdj0","pricing_plan_id":"cebpf4jnsgd1na2vs0mg"},{"bike_id":"550b9f1b-76f2-4979-a430-35bd0d1101bd","system_id":"levelo_inurba_marseille","lat":43.32365,"lon":5.38883,"is_reserved":false,"is_disabled":false,"rental_uris":{"android":"levelo://app?vid=550b9f1b-76f2-4979-a430-35bd0d1101bd","ios":"levelo://app?vid=550b9f1b-76f2-4979-a430-35bd0d1101bd"},"vehicle_type_id":"4","last_reported":1728331813,"current_range_meters":38800,"station_id":"ce4bhqp2rcd13ifvqhog","pricing_plan_id":"cebpf4jnsgd1na2vs0mg"},{"bike_id":"542404d0-7ad8-4d88-9837-14b7ea9cdc5a","system_id":"levelo_inurba_marseille","lat":43.31715,"lon":5.43703,"is_reserved":false,"is_disabled":false,"rental_uris":{"android":"levelo://app?vid=542404d0-7ad8-4d88-9837-14b7ea9cdc5a","ios":"levelo://app?vid=542404d0-7ad8-4d88-9837-14b7ea9cdc5a"},"vehicle_type_id":"4","last_reported":1728331813,"current_range_meters":38800,"station_id":"ce4bhp92rcd13ifvqhcg","pricing_plan_id":"cebpf4jnsgd1na2vs0mg"},{"bike_id":"cf81a1a6-0dc4-4d80-bebc-833266516acc","system_id":"levelo_inurba_marseille","lat":43.28461,"lon":5.35889,"is_reserved":false,"is_disabled":false,"rental_uris":{"android":"levelo://app?vid=cf81a1a6-0dc4-4d80-bebc-833266516acc","ios":"levelo://app?vid=cf81a1a6-0dc4-4d80-bebc-833266516acc"},"vehicle_type_id":"4","last_reported":1728331813,"current_range_meters":8400,"station_id":"ce4bhah2rcd13ifvqei0","pricing_plan_id":"cebpf4jnsgd1na2vs0mg"},{"bike_id":"0d5796fb-87ef-472d-940f-653fb21948cf","system_id":"levelo_inurba_marseille","lat":43.29552,"lon":5.4229,"is_reserved":false,"is_disabled":false,"rental_uris":{"android":"levelo://app?vid=0d5796fb-87ef-472d-940f-653fb21948cf","ios":"levelo://app?vid=0d5796fb-87ef-472d-940f-653fb21948cf"},"vehicle_type_id":"4","last_reported":1728331813,"current_range_meters":38800,"station_id":"ce4bhph2rcd13ifvqhdg","pricing_plan_id":"cebpf4jnsgd1na2vs0mg"},{"bike_id":"a774f550-3ce3-43eb-9d80-b5fdc228d567","system_id":"levelo_inurba_marseille","lat":43.31072,"lon":5.3835,"is_reserved":false,"is_disabled":false,"rental_uris":{"android":"levelo://app?vid=a774f550-3ce3-43eb-9d80-b5fdc228d567","ios":"levelo://app?vid=a774f550-3ce3-43eb-9d80-b5fdc228d567"},"vehicle_type_id":"4","last_reported":1728331813,"current_range_meters":38800,"station_id":"ce4bgv92rcd13ifvqcr0","pricing_plan_id":"cebpf4jnsgd1na2vs0mg"},{"bike_id":"6731d1b1-b391-47f7-84a2-e5222ded00d2","system_id":"levelo_inurba_marseille","lat":43.33023,"lon":5.39043,"is_reserved":false,"is_disabled":false,"rental_uris":{"android":"levelo://app?vid=6731d1b1-b391-47f7-84a2-e5222ded00d2","ios":"levelo://app?vid=6731d1b1-b391-47f7-84a2-e5222ded00d2"},"vehicle_type_id":"4","last_reported":1728331813,"current_range_meters":28400,"station_id":"ce4bhr92rcd13ifvqhrg","pricing_plan_id":"cebpf4jnsgd1na2vs0mg"},{"bike_id":"d2ab88d2-c26b-4ca1-9b2d-11e524a27e4d","system_id":"levelo_inurba_marseille","lat":43.28712,"lon":5.3739,"is_reserved":false,"is_disabled":false,"rental_uris":{"android":"levelo://app?vid=d2ab88d2-c26b-4ca1-9b2d-11e524a27e4d","ios":"levelo://app?vid=d2ab88d2-c26b-4ca1-9b2d-11e524a27e4d"},"vehicle_type_id":"4","last_reported":1728331813,"current_range_meters":24800,"station_id":"ce4bh3p2rcd13ifvqdq0","pricing_plan_id":"cebpf4jnsgd1na2vs0mg"},{"bike_id":"fd70b1c0-030b-4f86-b01b-9ee2788d5627","system_id":"levelo_inurba_marseille","lat":43.295337,"lon":5.390336,"is_reserved":false,"is_disabled":false,"rental_uris":{"android":"levelo://app?vid=fd70b1c0-030b-4f86-b01b-9ee2788d5627","ios":"levelo://app?vid=fd70b1c0-030b-4f86-b01b-9ee2788d5627"},"vehicle_type_id":"4","last_reported":1728331813,"current_range_meters":20800,"station_id":"ce4bh3p2rcd13ifvqdp0","pricing_plan_id":"cebpf4jnsgd1na2vs0mg"},{"bike_id":"2d543eca-c8bf-427c-a3fa-e17e301f5c9b","system_id":"levelo_inurba_marseille","lat":43.26083,"lon":5.40331,"is_reserved":false,"is_disabled":false,"rental_uris":{"android":"levelo://app?vid=2d543eca-c8bf-427c-a3fa-e17e301f5c9b","ios":"levelo://app?vid=2d543eca-c8bf-427c-a3fa-e17e301f5c9b"},"vehicle_type_id":"4","last_reported":1728331813,"current_range_meters":6000,"station_id":"","pricing_plan_id":"cebpf4jnsgd1na2vs0mg"},{"bike_id":"89bbdcb0-0d4b-45a3-ae3e-b367660213be","system_id":"levelo_inurba_marseille","lat":43.29554,"lon":5.42295,"is_reserved":false,"is_disabled":false,"rental_uris":{"android":"levelo://app?vid=89bbdcb0-0d4b-45a3-ae3e-b367660213be","ios":"levelo://app?vid=89bbdcb0-0d4b-45a3-ae3e-b367660213be"},"vehicle_type_id":"4","last_reported":1728331813,"current_range_meters":38800,"station_id":"ce4bhph2rcd13ifvqhdg","pricing_plan_id":"cebpf4jnsgd1na2vs0mg"},{"bike_id":"a4f68a74-4ff9-411d-bb91-0cf11ea3b75a","system_id":"levelo_inurba_marseille","lat":43.29568,"lon":5.37512,"is_reserved":false,"is_disabled":false,"rental_uris":{"android":"levelo://app?vid=a4f68a74-4ff9-411d-bb91-0cf11ea3b75a","ios":"levelo://app?vid=a4f68a74-4ff9-411d-bb91-0cf11ea3b75a"},"vehicle_type_id":"4","last_reported":1728331813,"current_range_meters":25600,"station_id":"ce4bgh92rcd13ifvqb50","pricing_plan_id":"cebpf4jnsgd1na2vs0mg"},{"bike_id":"78605389-da51-4cf5-a3b5-5053b4db3c29","system_id":"levelo_inurba_marseille","lat":43.26792,"lon":5.39413,"is_reserved":false,"is_disabled":false,"rental_uris":{"android":"levelo://app?vid=78605389-da51-4cf5-a3b5-5053b4db3c29","ios":"levelo://app?vid=78605389-da51-4cf5-a3b5-5053b4db3c29"},"vehicle_type_id":"4","last_reported":1728331813,"current_range_meters":11200,"station_id":"ce4bhh12rcd13ifvqfg0","pricing_plan_id":"cebpf4jnsgd1na2vs0mg"},{"bike_id":"c1975eeb-029e-4d79-92b5-3c802b1901e0","system_id":"levelo_inurba_marseille","lat":43.28459,"lon":5.35892,"is_reserved":false,"is_disabled":false,"rental_uris":{"android":"levelo://app?vid=c1975eeb-029e-4d79-92b5-3c802b1901e0","ios":"levelo://app?vid=c1975eeb-029e-4d79-92b5-3c802b1901e0"},"vehicle_type_id":"4","last_reported":1728331813,"current_range_meters":33600,"station_id":"ce4bhah2rcd13ifvqei0","pricing_plan_id":"cebpf4jnsgd1na2vs0mg"},{"bike_id":"dc67eb8e-efc8-4251-a6f2-8b76ca5a1908","system_id":"levelo_inurba_marseille","lat":43.32032,"lon":5.41558,"is_reserved":false,"is_disabled":false,"rental_uris":{"android":"levelo://app?vid=dc67eb8e-efc8-4251-a6f2-8b76ca5a1908","ios":"levelo://app?vid=dc67eb8e-efc8-4251-a6f2-8b76ca5a1908"},"vehicle_type_id":"4","last_reported":1728331813,"current_range_meters":22800,"station_id":"ce4bhq92rcd13ifvqhkg","pricing_plan_id":"cebpf4jnsgd1na2vs0mg"},{"bike_id":"09ef71aa-0817-4eb5-83ac-bde0ebd31387","system_id":"levelo_inurba_marseille","lat":43.32371,"lon":5.38888,"is_reserved":false,"is_disabled":false,"rental_uris":{"android":"levelo://app?vid=09ef71aa-0817-4eb5-83ac-bde0ebd31387","ios":"levelo://app?vid=09ef71aa-0817-4eb5-83ac-bde0ebd31387"},"vehicle_type_id":"4","last_reported":1728331813,"current_range_meters":38800,"station_id":"ce4bhqp2rcd13ifvqhog","pricing_plan_id":"cebpf4jnsgd1na2vs0mg"},{"bike_id":"6e14ac97-d5ce-4f91-b9ed-3d3c9175f77d","system_id":"levelo_inurba_marseille","lat":43.30645,"lon":5.40098,"is_reserved":false,"is_disabled":false,"rental_uris":{"android":"levelo://app?vid=6e14ac97-d5ce-4f91-b9ed-3d3c9175f77d","ios":"levelo://app?vid=6e14ac97-d5ce-4f91-b9ed-3d3c9175f77d"},"vehicle_type_id":"4","last_reported":1728331813,"current_range_meters":39200,"station_id":"ce4bh112rcd13ifvqda0","pricing_plan_id":"cebpf4jnsgd1na2vs0mg"},{"bike_id":"6826c930-8aa2-4db5-96a6-4b67fd5214fe","system_id":"levelo_inurba_marseille","lat":43.28277,"lon":5.35075,"is_reserved":false,"is_disabled":false,"rental_uris":{"android":"levelo://app?vid=6826c930-8aa2-4db5-96a6-4b67fd5214fe","ios":"levelo://app?vid=6826c930-8aa2-4db5-96a6-4b67fd5214fe"},"vehicle_type_id":"4","last_reported":1728331813,"current_range_meters":8800,"station_id":"ce4bhbp2rcd13ifvqerg","pricing_plan_id":"cebpf4jnsgd1na2vs0mg"},{"bike_id":"c7c933ea-453c-4444-a304-2fa069327739","system_id":"levelo_inurba_marseille","lat":43.23066,"lon":5.3549,"is_reserved":false,"is_disabled":false,"rental_uris":{"android":"levelo://app?vid=c7c933ea-453c-4444-a304-2fa069327739","ios":"levelo://app?vid=c7c933ea-453c-4444-a304-2fa069327739"},"vehicle_type_id":"4","last_reported":1728331813,"current_range_meters":9600,"station_id":"cpo3342slgdg3j2ifvpg","pricing_plan_id":"cebpf4jnsgd1na2vs0mg"},{"bike_id":"a6d70310-27ce-49a4-a3c6-5ed786684119","system_id":"levelo_inurba_marseille","lat":43.28463,"lon":5.35877,"is_reserved":false,"is_disabled":false,"rental_uris":{"android":"levelo://app?vid=a6d70310-27ce-49a4-a3c6-5ed786684119","ios":"levelo://app?vid=a6d70310-27ce-49a4-a3c6-5ed786684119"},"vehicle_type_id":"4","last_reported":1728331813,"current_range_meters":12000,"station_id":"ce4bhah2rcd13ifvqei0","pricing_plan_id":"cebpf4jnsgd1na2vs0mg"},{"bike_id":"a4abaa65-3931-4a2a-a2e1-41601548254f","system_id":"levelo_inurba_marseille","lat":43.29071,"lon":5.37177,"is_reserved":false,"is_disabled":false,"rental_uris":{"android":"levelo://app?vid=a4abaa65-3931-4a2a-a2e1-41601548254f","ios":"levelo://app?vid=a4abaa65-3931-4a2a-a2e1-41601548254f"},"vehicle_type_id":"4","last_reported":1728331813,"current_range_meters":28000,"station_id":"ce4bh5p2rcd13ifvqe4g","pricing_plan_id":"cebpf4jnsgd1na2vs0mg"},{"bike_id":"589f1824-3363-4ff3-be43-92e81d3f7ccb","system_id":"levelo_inurba_marseille","lat":43.28265,"lon":5.35074,"is_reserved":false,"is_disabled":false,"rental_uris":{"android":"levelo://app?vid=589f1824-3363-4ff3-be43-92e81d3f7ccb","ios":"levelo://app?vid=589f1824-3363-4ff3-be43-92e81d3f7ccb"},"vehicle_type_id":"4","last_reported":1728331813,"current_range_meters":28000,"station_id":"ce4bhbp2rcd13ifvqerg","pricing_plan_id":"cebpf4jnsgd1na2vs0mg"},{"bike_id":"1e89ff62-86ea-4d9b-83e6-20ce97cfea76","system_id":"levelo_inurba_marseille","lat":43.28459,"lon":5.35878,"is_reserved":false,"is_disabled":false,"rental_uris":{"android":"levelo://app?vid=1e89ff62-86ea-4d9b-83e6-20ce97cfea76","ios":"levelo://app?vid=1e89ff62-86ea-4d9b-83e6-20ce97cfea76"},"vehicle_type_id":"4","last_reported":1728331813,"current_range_meters":39200,"station_id":"ce4bhah2rcd13ifvqei0","pricing_plan_id":"cebpf4jnsgd1na2vs0mg"},{"bike_id":"eac0ea91-2230-46a9-bf6c-0a918e577cec","system_id":"levelo_inurba_marseille","lat":43.2467,"lon":5.38167,"is_reserved":false,"is_disabled":false,"rental_uris":{"android":"levelo://app?vid=eac0ea91-2230-46a9-bf6c-0a918e577cec","ios":"levelo://app?vid=eac0ea91-2230-46a9-bf6c-0a918e577cec"},"vehicle_type_id":"4","last_reported":1728331813,"current_range_meters":12400,"station_id":"ce4bhih2rcd13ifvqfr0","pricing_plan_id":"cebpf4jnsgd1na2vs0mg"},{"bike_id":"8c50aff1-8f6a-4ca3-9dd5-ad645b82db24","system_id":"levelo_inurba_marseille","lat":43.32659,"lon":5.40992,"is_reserved":false,"is_disabled":false,"rental_uris":{"android":"levelo://app?vid=8c50aff1-8f6a-4ca3-9dd5-ad645b82db24","ios":"levelo://app?vid=8c50aff1-8f6a-4ca3-9dd5-ad645b82db24"},"vehicle_type_id":"4","last_reported":1728331813,"current_range_meters":12800,"station_id":"ce4bhpp2rcd13ifvqhgg","pricing_plan_id":"cebpf4jnsgd1na2vs0mg"},{"bike_id":"7a284141-427f-4b3a-b279-a9138bc649ca","system_id":"levelo_inurba_marseille","lat":43.33015,"lon":5.39044,"is_reserved":false,"is_disabled":false,"rental_uris":{"android":"levelo://app?vid=7a284141-427f-4b3a-b279-a9138bc649ca","ios":"levelo://app?vid=7a284141-427f-4b3a-b279-a9138bc649ca"},"vehicle_type_id":"4","last_reported":1728331813,"current_range_meters":38800,"station_id":"ce4bhr92rcd13ifvqhrg","pricing_plan_id":"cebpf4jnsgd1na2vs0mg"},{"bike_id":"c190b4a1-ea1d-47e2-b2e8-eefa3099f9cc","system_id":"levelo_inurba_marseille","lat":43.23191,"lon":5.35556,"is_reserved":false,"is_disabled":false,"rental_uris":{"android":"levelo://app?vid=c190b4a1-ea1d-47e2-b2e8-eefa3099f9cc","ios":"levelo://app?vid=c190b4a1-ea1d-47e2-b2e8-eefa3099f9cc"},"vehicle_type_id":"4","last_reported":1728331813,"current_range_meters":38400,"station_id":"ce4bhu92rcd13ifvqi70","pricing_plan_id":"cebpf4jnsgd1na2vs0mg"},{"bike_id":"38a20d7a-dae1-4df2-949c-4c41da90639b","system_id":"levelo_inurba_marseille","lat":43.28276,"lon":5.35063,"is_reserved":false,"is_disabled":false,"rental_uris":{"android":"levelo://app?vid=38a20d7a-dae1-4df2-949c-4c41da90639b","ios":"levelo://app?vid=38a20d7a-dae1-4df2-949c-4c41da90639b"},"vehicle_type_id":"4","last_reported":1728331813,"current_range_meters":16000,"station_id":"ce4bhbp2rcd13ifvqerg","pricing_plan_id":"cebpf4jnsgd1na2vs0mg"},{"bike_id":"f0655ef3-b8ec-45e4-9e27-ad5610781ae0","system_id":"levelo_inurba_marseille","lat":43.30325,"lon":5.40442,"is_reserved":false,"is_disabled":false,"rental_uris":{"android":"levelo://app?vid=f0655ef3-b8ec-45e4-9e27-ad5610781ae0","ios":"levelo://app?vid=f0655ef3-b8ec-45e4-9e27-ad5610781ae0"},"vehicle_type_id":"4","last_reported":1728331813,"current_range_meters":23200,"station_id":"ce4bh012rcd13ifvqd10","pricing_plan_id":"cebpf4jnsgd1na2vs0mg"},{"bike_id":"f4847aed-90fa-4642-88ff-8239464afbbe","system_id":"levelo_inurba_marseille","lat":43.29305,"lon":5.37179,"is_reserved":false,"is_disabled":false,"rental_uris":{"android":"levelo://app?vid=f4847aed-90fa-4642-88ff-8239464afbbe","ios":"levelo://app?vid=f4847aed-90fa-4642-88ff-8239464afbbe"},"vehicle_type_id":"4","last_reported":1728331813,"current_range_meters":38000,"station_id":"ce4bgh92rcd13ifvqb40","pricing_plan_id":"cebpf4jnsgd1na2vs0mg"},{"bike_id":"1350fd2c-b9e9-43cd-9325-cd67b9835ac5","system_id":"levelo_inurba_marseille","lat":43.28452,"lon":5.35884,"is_reserved":false,"is_disabled":false,"rental_uris":{"android":"levelo://app?vid=1350fd2c-b9e9-43cd-9325-cd67b9835ac5","ios":"levelo://app?vid=1350fd2c-b9e9-43cd-9325-cd67b9835ac5"},"vehicle_type_id":"4","last_reported":1728331813,"current_range_meters":39200,"station_id":"ce4bhah2rcd13ifvqei0","pricing_plan_id":"cebpf4jnsgd1na2vs0mg"},{"bike_id":"f1a587de-a4d9-42a8-8fe6-d4518f6dd1b0","system_id":"levelo_inurba_marseille","lat":43.23063,"lon":5.35493,"is_reserved":false,"is_disabled":false,"rental_uris":{"android":"levelo://app?vid=f1a587de-a4d9-42a8-8fe6-d4518f6dd1b0","ios":"levelo://app?vid=f1a587de-a4d9-42a8-8fe6-d4518f6dd1b0"},"vehicle_type_id":"4","last_reported":1728331813,"current_range_meters":10000,"station_id":"cpo3342slgdg3j2ifvpg","pricing_plan_id":"cebpf4jnsgd1na2vs0mg"},{"bike_id":"6b4618ac-bf15-42bd-b8ce-f62f3e28352b","system_id":"levelo_inurba_marseille","lat":43.23202,"lon":5.35558,"is_reserved":false,"is_disabled":false,"rental_uris":{"android":"levelo://app?vid=6b4618ac-bf15-42bd-b8ce-f62f3e28352b","ios":"levelo://app?vid=6b4618ac-bf15-42bd-b8ce-f62f3e28352b"},"vehicle_type_id":"4","last_reported":1728331813,"current_range_meters":31200,"station_id":"ce4bhu92rcd13ifvqi70","pricing_plan_id":"cebpf4jnsgd1na2vs0mg"},{"bike_id":"cc98bb88-7ebe-43d2-8874-28ef16a178b2","system_id":"levelo_inurba_marseille","lat":43.23181,"lon":5.39987,"is_reserved":false,"is_disabled":false,"rental_uris":{"android":"levelo://app?vid=cc98bb88-7ebe-43d2-8874-28ef16a178b2","ios":"levelo://app?vid=cc98bb88-7ebe-43d2-8874-28ef16a178b2"},"vehicle_type_id":"4","last_reported":1728331813,"current_range_meters":22800,"station_id":"ce4bhn12rcd13ifvqgqg","pricing_plan_id":"cebpf4jnsgd1na2vs0mg"},{"bike_id":"147be8ce-a6a5-4f69-bf24-2c586af20a7c","system_id":"levelo_inurba_marseille","lat":43.30947,"lon":5.3904,"is_reserved":false,"is_disabled":false,"rental_uris":{"android":"levelo://app?vid=147be8ce-a6a5-4f69-bf24-2c586af20a7c","ios":"levelo://app?vid=147be8ce-a6a5-4f69-bf24-2c586af20a7c"},"vehicle_type_id":"4","last_reported":1728331813,"current_range_meters":13600,"station_id":"ce4bgup2rcd13ifvqco0","pricing_plan_id":"cebpf4jnsgd1na2vs0mg"},{"bike_id":"5cb07fad-9609-46b3-ad52-39ff30f85547","system_id":"levelo_inurba_marseille","lat":43.2873,"lon":5.36081,"is_reserved":false,"is_disabled":false,"rental_uris":{"android":"levelo://app?vid=5cb07fad-9609-46b3-ad52-39ff30f85547","ios":"levelo://app?vid=5cb07fad-9609-46b3-ad52-39ff30f85547"},"vehicle_type_id":"4","last_reported":1728331813,"current_range_meters":8800,"station_id":"cki0cbj6b192h4jlfktg","pricing_plan_id":"cebpf4jnsgd1na2vs0mg"},{"bike_id":"d3abde82-7173-43a0-b855-3e3cbc8462eb","system_id":"levelo_inurba_marseille","lat":43.28924,"lon":5.38417,"is_reserved":false,"is_disabled":false,"rental_uris":{"android":"levelo://app?vid=d3abde82-7173-43a0-b855-3e3cbc8462eb","ios":"levelo://app?vid=d3abde82-7173-43a0-b855-3e3cbc8462eb"},"vehicle_type_id":"4","last_reported":1728331813,"current_range_meters":36000,"station_id":"ce4bh612rcd13ifvqe6g","pricing_plan_id":"cebpf4jnsgd1na2vs0mg"},{"bike_id":"9504bfaa-9c72-46d2-9e5e-3ab0b96e9367","system_id":"levelo_inurba_marseille","lat":43.302546,"lon":5.400846,"is_reserved":false,"is_disabled":false,"rental_uris":{"android":"levelo://app?vid=9504bfaa-9c72-46d2-9e5e-3ab0b96e9367","ios":"levelo://app?vid=9504bfaa-9c72-46d2-9e5e-3ab0b96e9367"},"vehicle_type_id":"4","last_reported":1728331813,"current_range_meters":28400,"station_id":"ce4bgvh2rcd13ifvqcs0","pricing_plan_id":"cebpf4jnsgd1na2vs0mg"},{"bike_id":"ef9a89ca-04dc-4635-97aa-074bf9e03cbd","system_id":"levelo_inurba_marseille","lat":43.302002,"lon":5.383295,"is_reserved":false,"is_disabled":false,"rental_uris":{"android":"levelo://app?vid=ef9a89ca-04dc-4635-97aa-074bf9e03cbd","ios":"levelo://app?vid=ef9a89ca-04dc-4635-97aa-074bf9e03cbd"},"vehicle_type_id":"4","last_reported":1728331813,"current_range_meters":28400,"station_id":"ce4bh012rcd13ifvqcv0","pricing_plan_id":"cebpf4jnsgd1na2vs0mg"},{"bike_id":"4dbc9b22-4c46-419e-b5a6-9c9438a9829f","system_id":"levelo_inurba_marseille","lat":43.31362,"lon":5.38506,"is_reserved":false,"is_disabled":false,"rental_uris":{"android":"levelo://app?vid=4dbc9b22-4c46-419e-b5a6-9c9438a9829f","ios":"levelo://app?vid=4dbc9b22-4c46-419e-b5a6-9c9438a9829f"},"vehicle_type_id":"4","last_reported":1728331813,"current_range_meters":36800,"station_id":"ce4bgt92rcd13ifvqcf0","pricing_plan_id":"cebpf4jnsgd1na2vs0mg"},{"bike_id":"581f7e55-278f-41c9-8de1-1cde43ee3f99","system_id":"levelo_inurba_marseille","lat":43.27832,"lon":5.39207,"is_reserved":false,"is_disabled":false,"rental_uris":{"android":"levelo://app?vid=581f7e55-278f-41c9-8de1-1cde43ee3f99","ios":"levelo://app?vid=581f7e55-278f-41c9-8de1-1cde43ee3f99"},"vehicle_type_id":"4","last_reported":1728331813,"current_range_meters":6400,"station_id":"ce4bhjp2rcd13ifvqga0","pricing_plan_id":"cebpf4jnsgd1na2vs0mg"},{"bike_id":"4fc30d9d-2adf-46c5-ad7f-e18cacc98ab9","system_id":"levelo_inurba_marseille","lat":43.2883,"lon":5.39273,"is_reserved":false,"is_disabled":false,"rental_uris":{"android":"levelo://app?vid=4fc30d9d-2adf-46c5-ad7f-e18cacc98ab9","ios":"levelo://app?vid=4fc30d9d-2adf-46c5-ad7f-e18cacc98ab9"},"vehicle_type_id":"4","last_reported":1728331813,"current_range_meters":6000,"station_id":"ce4bh9p2rcd13ifvqec0","pricing_plan_id":"cebpf4jnsgd1na2vs0mg"},{"bike_id":"9f7bb594-fb34-4e78-a4aa-b9e9b8fc8e6a","system_id":"levelo_inurba_marseille","lat":43.313332,"lon":5.396894,"is_reserved":false,"is_disabled":false,"rental_uris":{"android":"levelo://app?vid=9f7bb594-fb34-4e78-a4aa-b9e9b8fc8e6a","ios":"levelo://app?vid=9f7bb594-fb34-4e78-a4aa-b9e9b8fc8e6a"},"vehicle_type_id":"4","last_reported":1728331813,"current_range_meters":24400,"station_id":"ce4bgvp2rcd13ifvqcu0","pricing_plan_id":"cebpf4jnsgd1na2vs0mg"},{"bike_id":"9d2bbc17-a092-4e30-959f-b97efe6eb255","system_id":"levelo_inurba_marseille","lat":43.295223,"lon":5.390401,"is_reserved":false,"is_disabled":false,"rental_uris":{"android":"levelo://app?vid=9d2bbc17-a092-4e30-959f-b97efe6eb255","ios":"levelo://app?vid=9d2bbc17-a092-4e30-959f-b97efe6eb255"},"vehicle_type_id":"4","last_reported":1728331813,"current_range_meters":9200,"station_id":"ce4bh3p2rcd13ifvqdp0","pricing_plan_id":"cebpf4jnsgd1na2vs0mg"},{"bike_id":"926380f0-4ec2-45d5-8c58-de39b75f601e","system_id":"levelo_inurba_marseille","lat":43.23067,"lon":5.35489,"is_reserved":false,"is_disabled":false,"rental_uris":{"android":"levelo://app?vid=926380f0-4ec2-45d5-8c58-de39b75f601e","ios":"levelo://app?vid=926380f0-4ec2-45d5-8c58-de39b75f601e"},"vehicle_type_id":"4","last_reported":1728331813,"current_range_meters":14000,"station_id":"cpo3342slgdg3j2ifvpg","pricing_plan_id":"cebpf4jnsgd1na2vs0mg"},{"bike_id":"cb0bc1cd-b7cc-4559-b5e4-4d3553db84e3","system_id":"levelo_inurba_marseille","lat":43.26788,"lon":5.39414,"is_reserved":false,"is_disabled":false,"rental_uris":{"android":"levelo://app?vid=cb0bc1cd-b7cc-4559-b5e4-4d3553db84e3","ios":"levelo://app?vid=cb0bc1cd-b7cc-4559-b5e4-4d3553db84e3"},"vehicle_type_id":"4","last_reported":1728331813,"current_range_meters":20400,"station_id":"ce4bhh12rcd13ifvqfg0","pricing_plan_id":"cebpf4jnsgd1na2vs0mg"},{"bike_id":"f236458b-a68f-4be5-ae65-f5ccd4ea25a1","system_id":"levelo_inurba_marseille","lat":43.31993,"lon":5.38159,"is_reserved":false,"is_disabled":false,"rental_uris":{"android":"levelo://app?vid=f236458b-a68f-4be5-ae65-f5ccd4ea25a1","ios":"levelo://app?vid=f236458b-a68f-4be5-ae65-f5ccd4ea25a1"},"vehicle_type_id":"4","last_reported":1728331813,"current_range_meters":38800,"station_id":"ce4bhr12rcd13ifvqhpg","pricing_plan_id":"cebpf4jnsgd1na2vs0mg"},{"bike_id":"404b4697-2249-46d0-afb0-44351c2d122f","system_id":"levelo_inurba_marseille","lat":43.29546,"lon":5.42289,"is_reserved":false,"is_disabled":false,"rental_uris":{"android":"levelo://app?vid=404b4697-2249-46d0-afb0-44351c2d122f","ios":"levelo://app?vid=404b4697-2249-46d0-afb0-44351c2d122f"},"vehicle_type_id":"4","last_reported":1728331813,"current_range_meters":20400,"station_id":"ce4bhph2rcd13ifvqhdg","pricing_plan_id":"cebpf4jnsgd1na2vs0mg"},{"bike_id":"80cba1cf-0623-41c9-829a-3d860e526261","system_id":"levelo_inurba_marseille","lat":43.28611,"lon":5.37068,"is_reserved":false,"is_disabled":false,"rental_uris":{"android":"levelo://app?vid=80cba1cf-0623-41c9-829a-3d860e526261","ios":"levelo://app?vid=80cba1cf-0623-41c9-829a-3d860e526261"},"vehicle_type_id":"4","last_reported":1728331813,"current_range_meters":3600,"station_id":"ce4bht12rcd13ifvqi60","pricing_plan_id":"cebpf4jnsgd1na2vs0mg"},{"bike_id":"a5f37231-5fc5-4976-8128-e136f208d822","system_id":"levelo_inurba_marseille","lat":43.29626,"lon":5.38526,"is_reserved":false,"is_disabled":false,"rental_uris":{"android":"levelo://app?vid=a5f37231-5fc5-4976-8128-e136f208d822","ios":"levelo://app?vid=a5f37231-5fc5-4976-8128-e136f208d822"},"vehicle_type_id":"4","last_reported":1728331813,"current_range_meters":26000,"station_id":"ce4bh692rcd13ifvqea0","pricing_plan_id":"cebpf4jnsgd1na2vs0mg"},{"bike_id":"b625834a-54ef-4eab-8c9d-e8c85e149a97","system_id":"levelo_inurba_marseille","lat":43.310817,"lon":5.424322,"is_reserved":false,"is_disabled":false,"rental_uris":{"android":"levelo://app?vid=b625834a-54ef-4eab-8c9d-e8c85e149a97","ios":"levelo://app?vid=b625834a-54ef-4eab-8c9d-e8c85e149a97"},"vehicle_type_id":"4","last_reported":1728331813,"current_range_meters":38800,"station_id":"ce4bhp92rcd13ifvqhag","pricing_plan_id":"cebpf4jnsgd1na2vs0mg"},{"bike_id":"63592292-2dc9-4a32-9a4c-38846e6bd417","system_id":"levelo_inurba_marseille","lat":43.310211,"lon":5.377269,"is_reserved":false,"is_disabled":false,"rental_uris":{"android":"levelo://app?vid=63592292-2dc9-4a32-9a4c-38846e6bd417","ios":"levelo://app?vid=63592292-2dc9-4a32-9a4c-38846e6bd417"},"vehicle_type_id":"4","last_reported":1728331813,"current_range_meters":25200,"station_id":"ce4bgt92rcd13ifvqcg0","pricing_plan_id":"cebpf4jnsgd1na2vs0mg"},{"bike_id":"587ff0c2-6200-43cc-8dd8-40e62cbd8f01","system_id":"levelo_inurba_marseille","lat":43.30493,"lon":5.39077,"is_reserved":false,"is_disabled":false,"rental_uris":{"android":"levelo://app?vid=587ff0c2-6200-43cc-8dd8-40e62cbd8f01","ios":"levelo://app?vid=587ff0c2-6200-43cc-8dd8-40e62cbd8f01"},"vehicle_type_id":"4","last_reported":1728331813,"current_range_meters":30000,"station_id":"ce4bgl92rcd13ifvqbq0","pricing_plan_id":"cebpf4jnsgd1na2vs0mg"},{"bike_id":"59d39fdf-306d-4218-a19c-262b47728bed","system_id":"levelo_inurba_marseille","lat":43.27496,"lon":5.4245,"is_reserved":false,"is_disabled":false,"rental_uris":{"android":"levelo://app?vid=59d39fdf-306d-4218-a19c-262b47728bed","ios":"levelo://app?vid=59d39fdf-306d-4218-a19c-262b47728bed"},"vehicle_type_id":"4","last_reported":1728331813,"current_range_meters":38800,"station_id":"ce4bhn92rcd13ifvqgrg","pricing_plan_id":"cebpf4jnsgd1na2vs0mg"},{"bike_id":"0713f44d-506a-4cb6-9e0c-ccedd4086a7e","system_id":"levelo_inurba_marseille","lat":43.3302,"lon":5.39044,"is_reserved":false,"is_disabled":false,"rental_uris":{"android":"levelo://app?vid=0713f44d-506a-4cb6-9e0c-ccedd4086a7e","ios":"levelo://app?vid=0713f44d-506a-4cb6-9e0c-ccedd4086a7e"},"vehicle_type_id":"4","last_reported":1728331813,"current_range_meters":30800,"station_id":"ce4bhr92rcd13ifvqhrg","pricing_plan_id":"cebpf4jnsgd1na2vs0mg"},{"bike_id":"9fb315eb-4ef5-4fbe-90a3-2810bc30298a","system_id":"levelo_inurba_marseille","lat":43.27997,"lon":5.40017,"is_reserved":false,"is_disabled":false,"rental_uris":{"android":"levelo://app?vid=9fb315eb-4ef5-4fbe-90a3-2810bc30298a","ios":"levelo://app?vid=9fb315eb-4ef5-4fbe-90a3-2810bc30298a"},"vehicle_type_id":"4","last_reported":1728331813,"current_range_meters":37600,"station_id":"ce4bho92rcd13ifvqh4g","pricing_plan_id":"cebpf4jnsgd1na2vs0mg"},{"bike_id":"20aea74a-f583-4c9e-acf9-2b9bb41ded08","system_id":"levelo_inurba_marseille","lat":43.3118,"lon":5.38706,"is_reserved":false,"is_disabled":false,"rental_uris":{"android":"levelo://app?vid=20aea74a-f583-4c9e-acf9-2b9bb41ded08","ios":"levelo://app?vid=20aea74a-f583-4c9e-acf9-2b9bb41ded08"},"vehicle_type_id":"4","last_reported":1728331813,"current_range_meters":30800,"station_id":"ce4bgv12rcd13ifvqcp0","pricing_plan_id":"cebpf4jnsgd1na2vs0mg"},{"bike_id":"06a0c286-126c-4a6f-84f5-e4d386c5007e","system_id":"levelo_inurba_marseille","lat":43.27988,"lon":5.41656,"is_reserved":false,"is_disabled":false,"rental_uris":{"android":"levelo://app?vid=06a0c286-126c-4a6f-84f5-e4d386c5007e","ios":"levelo://app?vid=06a0c286-126c-4a6f-84f5-e4d386c5007e"},"vehicle_type_id":"4","last_reported":1728331813,"current_range_meters":38800,"station_id":"ce4bho12rcd13ifvqh1g","pricing_plan_id":"cebpf4jnsgd1na2vs0mg"},{"bike_id":"450c248e-cb06-4d2b-9432-903ced06e598","system_id":"levelo_inurba_marseille","lat":43.29558,"lon":5.42282,"is_reserved":false,"is_disabled":false,"rental_uris":{"android":"levelo://app?vid=450c248e-cb06-4d2b-9432-903ced06e598","ios":"levelo://app?vid=450c248e-cb06-4d2b-9432-903ced06e598"},"vehicle_type_id":"4","last_reported":1728331813,"current_range_meters":30000,"station_id":"ce4bhph2rcd13ifvqhdg","pricing_plan_id":"cebpf4jnsgd1na2vs0mg"},{"bike_id":"0a412132-ca74-4b01-8817-9d25c2722c18","system_id":"levelo_inurba_marseille","lat":43.28078,"lon":5.39665,"is_reserved":false,"is_disabled":false,"rental_uris":{"android":"levelo://app?vid=0a412132-ca74-4b01-8817-9d25c2722c18","ios":"levelo://app?vid=0a412132-ca74-4b01-8817-9d25c2722c18"},"vehicle_type_id":"4","last_reported":1728331813,"current_range_meters":38000,"station_id":"ce4bho12rcd13ifvqh2g","pricing_plan_id":"cebpf4jnsgd1na2vs0mg"},{"bike_id":"fac92edd-ddf7-46fd-beff-2bf77e16f9c1","system_id":"levelo_inurba_marseille","lat":43.30321,"lon":5.40441,"is_reserved":false,"is_disabled":false,"rental_uris":{"android":"levelo://app?vid=fac92edd-ddf7-46fd-beff-2bf77e16f9c1","ios":"levelo://app?vid=fac92edd-ddf7-46fd-beff-2bf77e16f9c1"},"vehicle_type_id":"4","last_reported":1728331813,"current_range_meters":38000,"station_id":"ce4bh012rcd13ifvqd10","pricing_plan_id":"cebpf4jnsgd1na2vs0mg"},{"bike_id":"e9e6232d-3b56-41d3-bf78-618e6f88ba60","system_id":"levelo_inurba_marseille","lat":43.26489,"lon":5.39547,"is_reserved":false,"is_disabled":false,"rental_uris":{"android":"levelo://app?vid=e9e6232d-3b56-41d3-bf78-618e6f88ba60","ios":"levelo://app?vid=e9e6232d-3b56-41d3-bf78-618e6f88ba60"},"vehicle_type_id":"4","last_reported":1728331813,"current_range_meters":21600,"station_id":"ce4bhi12rcd13ifvqfq0","pricing_plan_id":"cebpf4jnsgd1na2vs0mg"},{"bike_id":"af101257-97d8-427d-926c-bfd575a5c827","system_id":"levelo_inurba_marseille","lat":43.23065,"lon":5.35497,"is_reserved":false,"is_disabled":false,"rental_uris":{"android":"levelo://app?vid=af101257-97d8-427d-926c-bfd575a5c827","ios":"levelo://app?vid=af101257-97d8-427d-926c-bfd575a5c827"},"vehicle_type_id":"4","last_reported":1728331813,"current_range_meters":8800,"station_id":"cpo3342slgdg3j2ifvpg","pricing_plan_id":"cebpf4jnsgd1na2vs0mg"},{"bike_id":"79d4ce44-dde0-4856-adfb-9d048612b764","system_id":"levelo_inurba_marseille","lat":43.24175,"lon":5.364,"is_reserved":false,"is_disabled":false,"rental_uris":{"android":"levelo://app?vid=79d4ce44-dde0-4856-adfb-9d048612b764","ios":"levelo://app?vid=79d4ce44-dde0-4856-adfb-9d048612b764"},"vehicle_type_id":"4","last_reported":1728331813,"current_range_meters":28000,"station_id":"cpo36qri1sfpv3e86is0","pricing_plan_id":"cebpf4jnsgd1na2vs0mg"},{"bike_id":"e08aee0c-89bf-47df-945c-4356038faf08","system_id":"levelo_inurba_marseille","lat":43.25086,"lon":5.3952,"is_reserved":false,"is_disabled":false,"rental_uris":{"android":"levelo://app?vid=e08aee0c-89bf-47df-945c-4356038faf08","ios":"levelo://app?vid=e08aee0c-89bf-47df-945c-4356038faf08"},"vehicle_type_id":"4","last_reported":1728331813,"current_range_meters":30800,"station_id":"ce4bhm12rcd13ifvqgkg","pricing_plan_id":"cebpf4jnsgd1na2vs0mg"},{"bike_id":"6362dd7e-711b-4b82-af8e-291ea8f6ea1e","system_id":"levelo_inurba_marseille","lat":43.23068,"lon":5.35493,"is_reserved":false,"is_disabled":false,"rental_uris":{"android":"levelo://app?vid=6362dd7e-711b-4b82-af8e-291ea8f6ea1e","ios":"levelo://app?vid=6362dd7e-711b-4b82-af8e-291ea8f6ea1e"},"vehicle_type_id":"4","last_reported":1728331813,"current_range_meters":25200,"station_id":"cpo3342slgdg3j2ifvpg","pricing_plan_id":"cebpf4jnsgd1na2vs0mg"},{"bike_id":"5113d289-e20c-492f-844f-6188ff718d88","system_id":"levelo_inurba_marseille","lat":43.22937,"lon":5.35385,"is_reserved":false,"is_disabled":false,"rental_uris":{"android":"levelo://app?vid=5113d289-e20c-492f-844f-6188ff718d88","ios":"levelo://app?vid=5113d289-e20c-492f-844f-6188ff718d88"},"vehicle_type_id":"4","last_reported":1728331813,"current_range_meters":31200,"station_id":"cpo3532slgdg3j2ikp40","pricing_plan_id":"cebpf4jnsgd1na2vs0mg"},{"bike_id":"e1f2ddb8-7323-45cf-9119-9431fda042e9","system_id":"levelo_inurba_marseille","lat":43.28836,"lon":5.35833,"is_reserved":false,"is_disabled":false,"rental_uris":{"android":"levelo://app?vid=e1f2ddb8-7323-45cf-9119-9431fda042e9","ios":"levelo://app?vid=e1f2ddb8-7323-45cf-9119-9431fda042e9"},"vehicle_type_id":"4","last_reported":1728331813,"current_range_meters":38800,"station_id":"ce4bhb12rcd13ifvqem0","pricing_plan_id":"cebpf4jnsgd1na2vs0mg"},{"bike_id":"7384d5b8-3cc6-48b7-b9f3-61bae51efb51","system_id":"levelo_inurba_marseille","lat":43.2396,"lon":5.3664,"is_reserved":false,"is_disabled":false,"rental_uris":{"android":"levelo://app?vid=7384d5b8-3cc6-48b7-b9f3-61bae51efb51","ios":"levelo://app?vid=7384d5b8-3cc6-48b7-b9f3-61bae51efb51"},"vehicle_type_id":"4","last_reported":1728331813,"current_range_meters":23200,"station_id":"ce4bhi12rcd13ifvqfp0","pricing_plan_id":"cebpf4jnsgd1na2vs0mg"},{"bike_id":"c35fd4e7-3879-45a8-bc86-a3496f8feaf4","system_id":"levelo_inurba_marseille","lat":43.28455,"lon":5.35897,"is_reserved":false,"is_disabled":false,"rental_uris":{"android":"levelo://app?vid=c35fd4e7-3879-45a8-bc86-a3496f8feaf4","ios":"levelo://app?vid=c35fd4e7-3879-45a8-bc86-a3496f8feaf4"},"vehicle_type_id":"4","last_reported":1728331813,"current_range_meters":3600,"station_id":"ce4bhah2rcd13ifvqei0","pricing_plan_id":"cebpf4jnsgd1na2vs0mg"},{"bike_id":"99361777-27c1-40c0-bc85-e76c03e3dcea","system_id":"levelo_inurba_marseille","lat":43.2997,"lon":5.38527,"is_reserved":false,"is_disabled":false,"rental_uris":{"android":"levelo://app?vid=99361777-27c1-40c0-bc85-e76c03e3dcea","ios":"levelo://app?vid=99361777-27c1-40c0-bc85-e76c03e3dcea"},"vehicle_type_id":"4","last_reported":1728331813,"current_range_meters":5600,"station_id":"ce4bgj92rcd13ifvqbd0","pricing_plan_id":"cebpf4jnsgd1na2vs0mg"},{"bike_id":"e248eeca-f9c6-4ccc-9275-69116b0a91a6","system_id":"levelo_inurba_marseille","lat":43.27953,"lon":5.41048,"is_reserved":false,"is_disabled":false,"rental_uris":{"android":"levelo://app?vid=e248eeca-f9c6-4ccc-9275-69116b0a91a6","ios":"levelo://app?vid=e248eeca-f9c6-4ccc-9275-69116b0a91a6"},"vehicle_type_id":"4","last_reported":1728331813,"current_range_meters":38800,"station_id":"ce4bhnp2rcd13ifvqh0g","pricing_plan_id":"cebpf4jnsgd1na2vs0mg"},{"bike_id":"6aedc7b9-4904-41e3-b4b0-7e277c248197","system_id":"levelo_inurba_marseille","lat":43.298143,"lon":5.403765,"is_reserved":false,"is_disabled":false,"rental_uris":{"android":"levelo://app?vid=6aedc7b9-4904-41e3-b4b0-7e277c248197","ios":"levelo://app?vid=6aedc7b9-4904-41e3-b4b0-7e277c248197"},"vehicle_type_id":"4","last_reported":1728331813,"current_range_meters":27600,"station_id":"ce4bh112rcd13ifvqd90","pricing_plan_id":"cebpf4jnsgd1na2vs0mg"},{"bike_id":"fbab334e-6568-46ac-88f7-b856d9d2d598","system_id":"levelo_inurba_marseille","lat":43.23196,"lon":5.35557,"is_reserved":false,"is_disabled":false,"rental_uris":{"android":"levelo://app?vid=fbab334e-6568-46ac-88f7-b856d9d2d598","ios":"levelo://app?vid=fbab334e-6568-46ac-88f7-b856d9d2d598"},"vehicle_type_id":"4","last_reported":1728331813,"current_range_meters":39200,"station_id":"ce4bhu92rcd13ifvqi70","pricing_plan_id":"cebpf4jnsgd1na2vs0mg"},{"bike_id":"34dea724-85c3-45ec-8c5a-454a8525aeae","system_id":"levelo_inurba_marseille","lat":43.32484,"lon":5.36576,"is_reserved":false,"is_disabled":false,"rental_uris":{"android":"levelo://app?vid=34dea724-85c3-45ec-8c5a-454a8525aeae","ios":"levelo://app?vid=34dea724-85c3-45ec-8c5a-454a8525aeae"},"vehicle_type_id":"4","last_reported":1728331813,"current_range_meters":38800,"station_id":"ce4bhs12rcd13ifvqhvg","pricing_plan_id":"cebpf4jnsgd1na2vs0mg"},{"bike_id":"42ea332a-4837-40a2-a15d-70a164cc9030","system_id":"levelo_inurba_marseille","lat":43.30673,"lon":5.40072,"is_reserved":false,"is_disabled":false,"rental_uris":{"android":"levelo://app?vid=42ea332a-4837-40a2-a15d-70a164cc9030","ios":"levelo://app?vid=42ea332a-4837-40a2-a15d-70a164cc9030"},"vehicle_type_id":"4","last_reported":1728331813,"current_range_meters":38800,"station_id":"ce4bh112rcd13ifvqda0","pricing_plan_id":"cebpf4jnsgd1na2vs0mg"},{"bike_id":"7795dbaf-1b55-4faf-bf7f-4d5f19bcc391","system_id":"levelo_inurba_marseille","lat":43.31273,"lon":5.40173,"is_reserved":false,"is_disabled":false,"rental_uris":{"android":"levelo://app?vid=7795dbaf-1b55-4faf-bf7f-4d5f19bcc391","ios":"levelo://app?vid=7795dbaf-1b55-4faf-bf7f-4d5f19bcc391"},"vehicle_type_id":"4","last_reported":1728331813,"current_range_meters":36000,"station_id":"ce4bh092rcd13ifvqd30","pricing_plan_id":"cebpf4jnsgd1na2vs0mg"},{"bike_id":"096c3c52-ea66-4fc7-aedf-0f68535ced1d","system_id":"levelo_inurba_marseille","lat":43.23884,"lon":5.39532,"is_reserved":false,"is_disabled":false,"rental_uris":{"android":"levelo://app?vid=096c3c52-ea66-4fc7-aedf-0f68535ced1d","ios":"levelo://app?vid=096c3c52-ea66-4fc7-aedf-0f68535ced1d"},"vehicle_type_id":"4","last_reported":1728331813,"current_range_meters":4000,"station_id":"","pricing_plan_id":"cebpf4jnsgd1na2vs0mg"},{"bike_id":"ac63b881-53ef-4e4b-b5e6-9f4914bcf168","system_id":"levelo_inurba_marseille","lat":43.23054,"lon":5.35491,"is_reserved":false,"is_disabled":false,"rental_uris":{"android":"levelo://app?vid=ac63b881-53ef-4e4b-b5e6-9f4914bcf168","ios":"levelo://app?vid=ac63b881-53ef-4e4b-b5e6-9f4914bcf168"},"vehicle_type_id":"4","last_reported":1728331813,"current_range_meters":35600,"station_id":"cpo3342slgdg3j2ifvpg","pricing_plan_id":"cebpf4jnsgd1na2vs0mg"},{"bike_id":"3d3ea26e-a74b-4b1b-83fd-64a682a66db5","system_id":"levelo_inurba_marseille","lat":43.24648,"lon":5.38891,"is_reserved":false,"is_disabled":false,"rental_uris":{"android":"levelo://app?vid=3d3ea26e-a74b-4b1b-83fd-64a682a66db5","ios":"levelo://app?vid=3d3ea26e-a74b-4b1b-83fd-64a682a66db5"},"vehicle_type_id":"4","last_reported":1728331813,"current_range_meters":5600,"station_id":"ce4bhg12rcd13ifvqf60","pricing_plan_id":"cebpf4jnsgd1na2vs0mg"},{"bike_id":"addec912-a640-4d2c-9ae1-aab148cff474","system_id":"levelo_inurba_marseille","lat":43.33023,"lon":5.39045,"is_reserved":false,"is_disabled":false,"rental_uris":{"android":"levelo://app?vid=addec912-a640-4d2c-9ae1-aab148cff474","ios":"levelo://app?vid=addec912-a640-4d2c-9ae1-aab148cff474"},"vehicle_type_id":"4","last_reported":1728331813,"current_range_meters":38800,"station_id":"ce4bhr92rcd13ifvqhrg","pricing_plan_id":"cebpf4jnsgd1na2vs0mg"},{"bike_id":"92792175-54e9-4728-875d-8ef771e03237","system_id":"levelo_inurba_marseille","lat":43.31533,"lon":5.38032,"is_reserved":false,"is_disabled":false,"rental_uris":{"android":"levelo://app?vid=92792175-54e9-4728-875d-8ef771e03237","ios":"levelo://app?vid=92792175-54e9-4728-875d-8ef771e03237"},"vehicle_type_id":"4","last_reported":1728331813,"current_range_meters":10800,"station_id":"ce4bhsp2rcd13ifvqi50","pricing_plan_id":"cebpf4jnsgd1na2vs0mg"},{"bike_id":"8cc6d35d-f6b6-461e-960a-f6b3d71f17af","system_id":"levelo_inurba_marseille","lat":43.291,"lon":5.38123,"is_reserved":false,"is_disabled":false,"rental_uris":{"android":"levelo://app?vid=8cc6d35d-f6b6-461e-960a-f6b3d71f17af","ios":"levelo://app?vid=8cc6d35d-f6b6-461e-960a-f6b3d71f17af"},"vehicle_type_id":"4","last_reported":1728331813,"current_range_meters":8800,"station_id":"ce4bh512rcd13ifvqe2g","pricing_plan_id":"cebpf4jnsgd1na2vs0mg"},{"bike_id":"10a9813d-0307-4243-861c-36088fedfb3e","system_id":"levelo_inurba_marseille","lat":43.27072,"lon":5.4228,"is_reserved":false,"is_disabled":false,"rental_uris":{"android":"levelo://app?vid=10a9813d-0307-4243-861c-36088fedfb3e","ios":"levelo://app?vid=10a9813d-0307-4243-861c-36088fedfb3e"},"vehicle_type_id":"4","last_reported":1728331813,"current_range_meters":14800,"station_id":"ce4bhk92rcd13ifvqgb0","pricing_plan_id":"cebpf4jnsgd1na2vs0mg"},{"bike_id":"ecf09b44-e069-44a2-a562-d24fb8224f2c","system_id":"levelo_inurba_marseille","lat":43.30255,"lon":5.40044,"is_reserved":false,"is_disabled":false,"rental_uris":{"android":"levelo://app?vid=ecf09b44-e069-44a2-a562-d24fb8224f2c","ios":"levelo://app?vid=ecf09b44-e069-44a2-a562-d24fb8224f2c"},"vehicle_type_id":"4","last_reported":1728331813,"current_range_meters":28400,"station_id":"ce4bgvh2rcd13ifvqcs0","pricing_plan_id":"cebpf4jnsgd1na2vs0mg"},{"bike_id":"db724972-e4fe-47e7-9b47-41e277e43d39","system_id":"levelo_inurba_marseille","lat":43.27998,"lon":5.40022,"is_reserved":false,"is_disabled":false,"rental_uris":{"android":"levelo://app?vid=db724972-e4fe-47e7-9b47-41e277e43d39","ios":"levelo://app?vid=db724972-e4fe-47e7-9b47-41e277e43d39"},"vehicle_type_id":"4","last_reported":1728331813,"current_range_meters":30800,"station_id":"ce4bho92rcd13ifvqh4g","pricing_plan_id":"cebpf4jnsgd1na2vs0mg"},{"bike_id":"2a2a6edc-94df-4091-8129-cc44034b0a57","system_id":"levelo_inurba_marseille","lat":43.28708,"lon":5.39993,"is_reserved":false,"is_disabled":false,"rental_uris":{"android":"levelo://app?vid=2a2a6edc-94df-4091-8129-cc44034b0a57","ios":"levelo://app?vid=2a2a6edc-94df-4091-8129-cc44034b0a57"},"vehicle_type_id":"4","last_reported":1728331813,"current_range_meters":33600,"station_id":"ce4bho92rcd13ifvqh3g","pricing_plan_id":"cebpf4jnsgd1na2vs0mg"},{"bike_id":"dae420d9-611b-44f3-99d0-ca63b4b44cf4","system_id":"levelo_inurba_marseille","lat":43.29515,"lon":5.39048,"is_reserved":false,"is_disabled":false,"rental_uris":{"android":"levelo://app?vid=dae420d9-611b-44f3-99d0-ca63b4b44cf4","ios":"levelo://app?vid=dae420d9-611b-44f3-99d0-ca63b4b44cf4"},"vehicle_type_id":"4","last_reported":1728331813,"current_range_meters":36800,"station_id":"ce4bh3p2rcd13ifvqdp0","pricing_plan_id":"cebpf4jnsgd1na2vs0mg"},