{"last_updated":1738220923,"ttl":60,"version":"2.2","data":{"bikes":[{"bike_id":"9a9c0178-f758-480b-afac-31e12e261007","system_id":"levelo_inurba_marseille","lat":43.30616,"lon":5.39402,"is_reserved":false,"is_disabled":false,"rental_uris":{"android":"levelo://app?vid=9a9c0178-f758-480b-afac-31e12e261007","ios":"levelo://app?vid=9a9c0178-f758-480b-afac-31e12e261007"},"vehicle_type_id":"4","last_reported":1738220923,"current_range_meters":30000,"station_id":"ce4bh0p2rcd13ifvqd80","pricing_plan_id":"cebpf4jnsgd1na2vs0mg"},{"bike_id":"f506a9e5-ac7d-4ec1-bc7d-dca336ec0ff0","system_id":"levelo_inurba_marseille","lat":43.30866,"lon":5.37787,"is_reserved":false,"is_disabled":false,"rental_uris":{"android":"levelo://app?vid=f506a9e5-ac7d-4ec1-bc7d-dca336ec0ff0","ios":"levelo://app?vid=f506a9e5-ac7d-4ec1-bc7d-dca336ec0ff0"},"vehicle_type_id":"4","last_reported":1738220923,"current_range_meters":28800,"station_id":"","pricing_plan_id":"cebpf4jnsgd1na2vs0mg"},{"bike_id":"9fd73913-dbae-4c44-9a9b-e393df78b1e9","system_id":"levelo_inurba_marseille","lat":43.25581,"lon":5.38234,"is_reserved":false,"is_disabled":false,"rental_uris":{"android":"levelo://app?vid=9fd73913-dbae-4c44-9a9b-e393df78b1e9","ios":"levelo://app?vid=9fd73913-dbae-4c44-9a9b-e393df78b1e9"},"vehicle_type_id":"4","last_reported":1738220923,"current_range_meters":39200,"station_id":"ce4bhih2rcd13ifvqfs0","pricing_plan_id":"cebpf4jnsgd1na2vs0mg"},{"bike_id":"6f54618b-a91a-49da-80b2-2b2a67e027e4","system_id":"levelo_inurba_marseille","lat":43.26551,"lon":5.37303,"is_reserved":false,"is_disabled":true,"rental_uris":{"android":"levelo://app?vid=6f54618b-a91a-49da-80b2-2b2a67e027e4","ios":"levelo://app?vid=6f54618b-a91a-49da-80b2-2b2a67e027e4"},"vehicle_type_id":"4","last_reported":1738220923,"current_range_meters":34800,"station_id":"ce4bhg12rcd13ifvqf70","pricing_plan_id":"cebpf4jnsgd1na2vs0mg"},{"bike_id":"db11cd7f-3734-41eb-95c8-7815def5f300","system_id":"levelo_inurba_marseille","lat":43.27834,"lon":5.39222,"is_reserved":false,"is_disabled":false,"rental_uris":{"android":"levelo://app?vid=db11cd7f-3734-41eb-95c8-7815def5f300","ios":"levelo://app?vid=db11cd7f-3734-41eb-95c8-7815def5f300"},"vehicle_type_id":"4","last_reported":1738220923,"current_range_meters":39200,"station_id":"ce4bhjp2rcd13ifvqga0","pricing_plan_id":"cebpf4jnsgd1na2vs0mg"},{"bike_id":"bf805637-214f-4482-b927-739da849a70e","system_id":"levelo_inurba_marseille","lat":43.28284,"lon":5.35075,"is_reserved":false,"is_disabled":false,"rental_uris":{"android":"levelo://app?vid=bf805637-214f-4482-b927-739da849a70e","ios":"levelo://app?vid=bf805637-214f-4482-b927-739da849a70e"},"vehicle_type_id":"4","last_reported":1738220923,"current_range_meters":35200,"station_id":"ce4bhbp2rcd13ifvqerg","pricing_plan_id":"cebpf4jnsgd1na2vs0mg"},{"bike_id":"070985a7-e942-45ed-a1dd-7324497fc05e","system_id":"levelo_inurba_marseille","lat":43.28141,"lon":5.42644,"is_reserved":false,"is_disabled":false,"rental_uris":{"android":"levelo://app?vid=070985a7-e942-45ed-a1dd-7324497fc05e","ios":"levelo://app?vid=070985a7-e942-45ed-a1dd-7324497fc05e"},"vehicle_type_id":"4","last_reported":1738220923,"current_range_meters":28800,"station_id":"ce4bhnh2rcd13ifvqgug","pricing_plan_id":"cebpf4jnsgd1na2vs0mg"},{"bike_id":"f7f8117f-03ef-415e-85c6-2eeaf165e4f2","system_id":"levelo_inurba_marseille","lat":43.26217,"lon":5.40453,"is_reserved":false,"is_disabled":true,"rental_uris":{"android":"levelo://app?vid=f7f8117f-03ef-415e-85c6-2eeaf165e4f2","ios":"levelo://app?vid=f7f8117f-03ef-415e-85c6-2eeaf165e4f2"},"vehicle_type_id":"4","last_reported":1738220923,"current_range_meters":26800,"station_id":"ce4bhmh2rcd13ifvqgmg","pricing_plan_id":"cebpf4jnsgd1na2vs0mg"},{"bike_id":"8fe0d328-8be8-4308-91bf-c38884def1a2","system_id":"levelo_inurba_marseille","lat":43.29038,"lon":5.39958,"is_reserved":false,"is_disabled":false,"rental_uris":{"android":"levelo://app?vid=8fe0d328-8be8-4308-91bf-c38884def1a2","ios":"levelo://app?vid=8fe0d328-8be8-4308-91bf-c38884def1a2"},"vehicle_type_id":"4","last_reported":1738220923,"current_range_meters":37600,"station_id":"ce4bh392rcd13ifvqdm0","pricing_plan_id":"cebpf4jnsgd1na2vs0mg"},{"bike_id":"d7a3cb0f-9b62-4b60-8c5a-fd30f79ab0b4","system_id":"levelo_inurba_marseille","lat":43.30531,"lon":5.38428,"is_reserved":false,"is_disabled":false,"rental_uris":{"android":"levelo://app?vid=d7a3cb0f-9b62-4b60-8c5a-fd30f79ab0b4","ios":"levelo://app?vid=d7a3cb0f-9b62-4b60-8c5a-fd30f79ab0b4"},"vehicle_type_id":"4","last_reported":1738220923,"current_range_meters":15200,"station_id":"ce4bgg92rcd13ifvqb30","pricing_plan_id":"cebpf4jnsgd1na2vs0mg"},{"bike_id":"7c600376-bf9d-4f29-ac74-8ed573dee02c","system_id":"levelo_inurba_marseille","lat":43.29789,"lon":5.3812,"is_reserved":false,"is_disabled":false,"rental_uris":{"android":"levelo://app?vid=7c600376-bf9d-4f29-ac74-8ed573dee02c","ios":"levelo://app?vid=7c600376-bf9d-4f29-ac74-8ed573dee02c"},"vehicle_type_id":"4","last_reported":1738220923,"current_range_meters":37600,"station_id":"ce4bgip2rcd13ifvqbb0","pricing_plan_id":"cebpf4jnsgd1na2vs0mg"},{"bike_id":"83d5f9d0-5f38-42f2-8723-27cd79b945eb","system_id":"levelo_inurba_marseille","lat":43.30463,"lon":5.37901,"is_reserved":false,"is_disabled":false,"rental_uris":{"android":"levelo://app?vid=83d5f9d0-5f38-42f2-8723-27cd79b945eb","ios":"levelo://app?vid=83d5f9d0-5f38-42f2-8723-27cd79b945eb"},"vehicle_type_id":"4","last_reported":1738220923,"current_range_meters":21600,"station_id":"ce4bgup2rcd13ifvqcn0","pricing_plan_id":"cebpf4jnsgd1na2vs0mg"},{"bike_id":"a535b742-caca-4fd0-b1de-61f39274aa03","system_id":"levelo_inurba_marseille","lat":43.30254,"lon":5.40073,"is_reserved":false,"is_disabled":false,"rental_uris":{"android":"levelo://app?vid=a535b742-caca-4fd0-b1de-61f39274aa03","ios":"levelo://app?vid=a535b742-caca-4fd0-b1de-61f39274aa03"},"vehicle_type_id":"4","last_reported":1738220923,"current_range_meters":28400,"station_id":"ce4bgvh2rcd13ifvqcs0","pricing_plan_id":"cebpf4jnsgd1na2vs0mg"},{"bike_id":"64ece864-0cde-40db-9391-98c0857bab87","system_id":"levelo_inurba_marseille","lat":43.30541,"lon":5.38428,"is_reserved":false,"is_disabled":false,"rental_uris":{"android":"levelo://app?vid=64ece864-0cde-40db-9391-98c0857bab87","ios":"levelo://app?vid=64ece864-0cde-40db-9391-98c0857bab87"},"vehicle_type_id":"4","last_reported":1738220923,"current_range_meters":37600,"station_id":"ce4bgg92rcd13ifvqb30","pricing_plan_id":"cebpf4jnsgd1na2vs0mg"},{"bike_id":"497916a9-33d4-4826-8179-7290ff70673f","system_id":"levelo_inurba_marseille","lat":43.30102,"lon":5.39078,"is_reserved":false,"is_disabled":false,"rental_uris":{"android":"levelo://app?vid=497916a9-33d4-4826-8179-7290ff70673f","ios":"levelo://app?vid=497916a9-33d4-4826-8179-7290ff70673f"},"vehicle_type_id":"4","last_reported":1738220923,"current_range_meters":36000,"station_id":"ce4bh192rcd13ifvqdb0","pricing_plan_id":"cebpf4jnsgd1na2vs0mg"},{"bike_id":"adc2855c-ce96-4ab1-9132-d4c82e18f627","system_id":"levelo_inurba_marseille","lat":43.26487,"lon":5.39559,"is_reserved":false,"is_disabled":false,"rental_uris":{"android":"levelo://app?vid=adc2855c-ce96-4ab1-9132-d4c82e18f627","ios":"levelo://app?vid=adc2855c-ce96-4ab1-9132-d4c82e18f627"},"vehicle_type_id":"4","last_reported":1738220923,"current_range_meters":29600,"station_id":"ce4bhi12rcd13ifvqfq0","pricing_plan_id":"cebpf4jnsgd1na2vs0mg"},{"bike_id":"b7959d54-10a6-4e6e-8fbf-d43ee65dd4f0","system_id":"levelo_inurba_marseille","lat":43.28425,"lon":5.37505,"is_reserved":false,"is_disabled":false,"rental_uris":{"android":"levelo://app?vid=b7959d54-10a6-4e6e-8fbf-d43ee65dd4f0","ios":"levelo://app?vid=b7959d54-10a6-4e6e-8fbf-d43ee65dd4f0"},"vehicle_type_id":"4","last_reported":1738220923,"current_range_meters":4000,"station_id":"ce4bh412rcd13ifvqds0","pricing_plan_id":"cebpf4jnsgd1na2vs0mg"},{"bike_id":"58de0904-14e0-4da6-ac0b-dcdfb8c7ce5b","system_id":"levelo_inurba_marseille","lat":43.271251,"lon":5.391828,"is_reserved":false,"is_disabled":false,"rental_uris":{"android":"levelo://app?vid=58de0904-14e0-4da6-ac0b-dcdfb8c7ce5b","ios":"levelo://app?vid=58de0904-14e0-4da6-ac0b-dcdfb8c7ce5b"},"vehicle_type_id":"4","last_reported":1738220923,"current_range_meters":17200,"station_id":"ce4bhhp2rcd13ifvqfm0","pricing_plan_id":"cebpf4jnsgd1na2vs0mg"},{"bike_id":"0288be9b-7b6f-484a-a06c-e6be0ec543fe","system_id":"levelo_inurba_marseille","lat":43.33594,"lon":5.41042,"is_reserved":false,"is_disabled":false,"rental_uris":{"android":"levelo://app?vid=0288be9b-7b6f-484a-a06c-e6be0ec543fe","ios":"levelo://app?vid=0288be9b-7b6f-484a-a06c-e6be0ec543fe"},"vehicle_type_id":"4","last_reported":1738220923,"current_range_meters":39200,"station_id":"ce4bhqh2rcd13ifvqhmg","pricing_plan_id":"cebpf4jnsgd1na2vs0mg"},{"bike_id":"6e8f542f-0432-48c6-adc8-7717ef7b776a","system_id":"levelo_inurba_marseille","lat":43.280981,"lon":5.378342,"is_reserved":false,"is_disabled":false,"rental_uris":{"android":"levelo://app?vid=6e8f542f-0432-48c6-adc8-7717ef7b776a","ios":"levelo://app?vid=6e8f542f-0432-48c6-adc8-7717ef7b776a"},"vehicle_type_id":"4","last_reported":1738220923,"current_range_meters":28800,"station_id":"ce4bha12rcd13ifvqee0","pricing_plan_id":"cebpf4jnsgd1na2vs0mg"},{"bike_id":"79b7a714-6899-43f0-a0e6-1e9b5234e282","system_id":"levelo_inurba_marseille","lat":43.29548,"lon":5.42291,"is_reserved":false,"is_disabled":false,"rental_uris":{"android":"levelo://app?vid=79b7a714-6899-43f0-a0e6-1e9b5234e282","ios":"levelo://app?vid=79b7a714-6899-43f0-a0e6-1e9b5234e282"},"vehicle_type_id":"4","last_reported":1738220923,"current_range_meters":37600,"station_id":"ce4bhph2rcd13ifvqhdg","pricing_plan_id":"cebpf4jnsgd1na2vs0mg"},{"bike_id":"e05d3339-457c-46fa-9827-97d4d0e79dfd","system_id":"levelo_inurba_marseille","lat":43.25856,"lon":5.3991,"is_reserved":false,"is_disabled":false,"rental_uris":{"android":"levelo://app?vid=e05d3339-457c-46fa-9827-97d4d0e79dfd","ios":"levelo://app?vid=e05d3339-457c-46fa-9827-97d4d0e79dfd"},"vehicle_type_id":"4","last_reported":1738220923,"current_range_meters":38400,"station_id":"ce4bhl92rcd13ifvqghg","pricing_plan_id":"cebpf4jnsgd1na2vs0mg"},{"bike_id":"38429bc6-1d2c-4549-a886-b18cfd66a4b7","system_id":"levelo_inurba_marseille","lat":43.32539,"lon":5.41433,"is_reserved":false,"is_disabled":false,"rental_uris":{"android":"levelo://app?vid=38429bc6-1d2c-4549-a886-b18cfd66a4b7","ios":"levelo://app?vid=38429bc6-1d2c-4549-a886-b18cfd66a4b7"},"vehicle_type_id":"4","last_reported":1738220923,"current_range_meters":39200,"station_id":"ce4bhq12rcd13ifvqhhg","pricing_plan_id":"cebpf4jnsgd1na2vs0mg"},{"bike_id":"9bd21267-26f6-4122-9567-2f0b5d4f790f","system_id":"levelo_inurba_marseille","lat":43.32364,"lon":5.38906,"is_reserved":false,"is_disabled":false,"rental_uris":{"android":"levelo://app?vid=9bd21267-26f6-4122-9567-2f0b5d4f790f","ios":"levelo://app?vid=9bd21267-26f6-4122-9567-2f0b5d4f790f"},"vehicle_type_id":"4","last_reported":1738220923,"current_range_meters":6400,"station_id":"ce4bhqp2rcd13ifvqhog","pricing_plan_id":"cebpf4jnsgd1na2vs0mg"},{"bike_id":"80c89dc5-7cdd-4969-bdc5-385775d28955","system_id":"levelo_inurba_marseille","lat":43.28454,"lon":5.35875,"is_reserved":false,"is_disabled":false,"rental_uris":{"android":"levelo://app?vid=80c89dc5-7cdd-4969-bdc5-385775d28955","ios":"levelo://app?vid=80c89dc5-7cdd-4969-bdc5-385775d28955"},"vehicle_type_id":"4","last_reported":1738220923,"current_range_meters":28400,"station_id":"ce4bhah2rcd13ifvqei0","pricing_plan_id":"cebpf4jnsgd1na2vs0mg"},{"bike_id":"87b0359e-6ad1-4ba5-8a01-11a2baaa93de","system_id":"levelo_inurba_marseille","lat":43.31358,"lon":5.38494,"is_reserved":false,"is_disabled":false,"rental_uris":{"android":"levelo://app?vid=87b0359e-6ad1-4ba5-8a01-11a2baaa93de","ios":"levelo://app?vid=87b0359e-6ad1-4ba5-8a01-11a2baaa93de"},"vehicle_type_id":"4","last_reported":1738220923,"current_range_meters":3200,"station_id":"ce4bgt92rcd13ifvqcf0","pricing_plan_id":"cebpf4jnsgd1na2vs0mg"},{"bike_id":"26415dbd-5d7e-47ec-8cf6-7e1b6ac2f723","system_id":"levelo_inurba_marseille","lat":43.26924,"lon":5.40263,"is_reserved":false,"is_disabled":false,"rental_uris":{"android":"levelo://app?vid=26415dbd-5d7e-47ec-8cf6-7e1b6ac2f723","ios":"levelo://app?vid=26415dbd-5d7e-47ec-8cf6-7e1b6ac2f723"},"vehicle_type_id":"4","last_reported":1738220923,"current_range_meters":38800,"station_id":"cjm6bp8fraef2m0cb0m0","pricing_plan_id":"cebpf4jnsgd1na2vs0mg"},{"bike_id":"8bde1ebe-5abf-474a-84a7-7794fe44c931","system_id":"levelo_inurba_marseille","lat":43.33059,"lon":5.39069,"is_reserved":false,"is_disabled":false,"rental_uris":{"android":"levelo://app?vid=8bde1ebe-5abf-474a-84a7-7794fe44c931","ios":"levelo://app?vid=8bde1ebe-5abf-474a-84a7-7794fe44c931"},"vehicle_type_id":"4","last_reported":1738220923,"current_range_meters":37600,"station_id":"","pricing_plan_id":"cebpf4jnsgd1na2vs0mg"},{"bike_id":"09e5ddb2-5ded-4084-b331-34c11b36e04b","system_id":"levelo_inurba_marseille","lat":43.2695,"lon":5.3863,"is_reserved":false,"is_disabled":false,"rental_uris":{"android":"levelo://app?vid=09e5ddb2-5ded-4084-b331-34c11b36e04b","ios":"levelo://app?vid=09e5ddb2-5ded-4084-b331-34c11b36e04b"},"vehicle_type_id":"4","last_reported":1738220923,"current_range_meters":21600,"station_id":"ce4bhh92rcd13ifvqfh0","pricing_plan_id":"cebpf4jnsgd1na2vs0mg"},{"bike_id":"1c63fa7b-8bb3-4da5-8267-9c40ab75cc0b","system_id":"levelo_inurba_marseille","lat":43.33747,"lon":5.39173,"is_reserved":false,"is_disabled":false,"rental_uris":{"android":"levelo://app?vid=1c63fa7b-8bb3-4da5-8267-9c40ab75cc0b","ios":"levelo://app?vid=1c63fa7b-8bb3-4da5-8267-9c40ab75cc0b"},"vehicle_type_id":"4","last_reported":1738220923,"current_range_meters":38800,"station_id":"ce4bhr92rcd13ifvqhsg","pricing_plan_id":"cebpf4jnsgd1na2vs0mg"},{"bike_id":"c51b0cb6-07eb-4994-ac2a-608b77bd9b97","system_id":"levelo_inurba_marseille","lat":43.30358,"lon":5.41878,"is_reserved":false,"is_disabled":false,"rental_uris":{"android":"levelo://app?vid=c51b0cb6-07eb-4994-ac2a-608b77bd9b97","ios":"levelo://app?vid=c51b0cb6-07eb-4994-ac2a-608b77bd9b97"},"vehicle_type_id":"4","last_reported":1738220923,"current_range_meters":36800,"station_id":"ce4bhop2rcd13ifvqh7g","pricing_plan_id":"cebpf4jnsgd1na2vs0mg"},{"bike_id":"fb57aee5-301b-407c-a9d0-c23dec2dfbec","system_id":"levelo_inurba_marseille","lat":43.27373,"lon":5.36265,"is_reserved":false,"is_disabled":false,"rental_uris":{"android":"levelo://app?vid=fb57aee5-301b-407c-a9d0-c23dec2dfbec","ios":"levelo://app?vid=fb57aee5-301b-407c-a9d0-c23dec2dfbec"},"vehicle_type_id":"4","last_reported":1738220923,"current_range_meters":27600,"station_id":"ce4bhbh2rcd13ifvqeo0","pricing_plan_id":"cebpf4jnsgd1na2vs0mg"},{"bike_id":"5d4915e0-4a9f-4c36-821a-8bde58abc3cd","system_id":"levelo_inurba_marseille","lat":43.25099,"lon":5.40332,"is_reserved":false,"is_disabled":true,"rental_uris":{"android":"levelo://app?vid=5d4915e0-4a9f-4c36-821a-8bde58abc3cd","ios":"levelo://app?vid=5d4915e0-4a9f-4c36-821a-8bde58abc3cd"},"vehicle_type_id":"4","last_reported":1738220923,"current_range_meters":38000,"station_id":"ce4bhlh2rcd13ifvqgig","pricing_plan_id":"cebpf4jnsgd1na2vs0mg"},{"bike_id":"71fe1c26-5853-405a-bd0a-7fc15a5f97c1","system_id":"levelo_inurba_marseille","lat":43.31399,"lon":5.36659,"is_reserved":false,"is_disabled":true,"rental_uris":{"android":"levelo://app?vid=71fe1c26-5853-405a-bd0a-7fc15a5f97c1","ios":"levelo://app?vid=71fe1c26-5853-405a-bd0a-7fc15a5f97c1"},"vehicle_type_id":"4","last_reported":1738220923,"current_range_meters":33600,"station_id":"ce4bgr92rcd13ifvqc6g","pricing_plan_id":"cebpf4jnsgd1na2vs0mg"},{"bike_id":"e13b7a82-8d03-471f-ac70-6a6d40fcbd32","system_id":"levelo_inurba_marseille","lat":43.28709,"lon":5.38307,"is_reserved":false,"is_disabled":true,"rental_uris":{"android":"levelo://app?vid=e13b7a82-8d03-471f-ac70-6a6d40fcbd32","ios":"levelo://app?vid=e13b7a82-8d03-471f-ac70-6a6d40fcbd32"},"vehicle_type_id":"4","last_reported":1738220923,"current_range_meters":0,"station_id":"","pricing_plan_id":"cebpf4jnsgd1na2vs0mg"},{"bike_id":"fa6a1f45-8d44-499c-88d7-706a6b159e5a","system_id":"levelo_inurba_marseille","lat":43.27494,"lon":5.42449,"is_reserved":false,"is_disabled":false,"rental_uris":{"android":"levelo://app?vid=fa6a1f45-8d44-499c-88d7-706a6b159e5a","ios":"levelo://app?vid=fa6a1f45-8d44-499c-88d7-706a6b159e5a"},"vehicle_type_id":"4","last_reported":1738220923,"current_range_meters":24400,"station_id":"ce4bhn92rcd13ifvqgrg","pricing_plan_id":"cebpf4jnsgd1na2vs0mg"},{"bike_id":"10d8361f-7304-4b98-a7da-1e8470473995","system_id":"levelo_inurba_marseille","lat":43.31719,"lon":5.42401,"is_reserved":false,"is_disabled":false,"rental_uris":{"android":"levelo://app?vid=10d8361f-7304-4b98-a7da-1e8470473995","ios":"levelo://app?vid=10d8361f-7304-4b98-a7da-1e8470473995"},"vehicle_type_id":"4","last_reported":1738220923,"current_range_meters":39200,"station_id":"ce4bhp92rcd13ifvqhbg","pricing_plan_id":"cebpf4jnsgd1na2vs0mg"},{"bike_id":"7fbc7fad-cb2e-48a7-bb1c-df9259f2da6b","system_id":"levelo_inurba_marseille","lat":43.28042,"lon":5.36945,"is_reserved":false,"is_disabled":false,"rental_uris":{"android":"levelo://app?vid=7fbc7fad-cb2e-48a7-bb1c-df9259f2da6b","ios":"levelo://app?vid=7fbc7fad-cb2e-48a7-bb1c-df9259f2da6b"},"vehicle_type_id":"4","last_reported":1738220923,"current_range_meters":32400,"station_id":"ce4bha12rcd13ifvqef0","pricing_plan_id":"cebpf4jnsgd1na2vs0mg"},{"bike_id":"21b52f6a-4d72-4210-8710-c5cde09123c4","system_id":"levelo_inurba_marseille","lat":43.27322,"lon":5.39072,"is_reserved":false,"is_disabled":false,"rental_uris":{"android":"levelo://app?vid=21b52f6a-4d72-4210-8710-c5cde09123c4","ios":"levelo://app?vid=21b52f6a-4d72-4210-8710-c5cde09123c4"},"vehicle_type_id":"4","last_reported":1738220923,"current_range_meters":38400,"station_id":"ce4bhgp2rcd13ifvqfe0","pricing_plan_id":"cebpf4jnsgd1na2vs0mg"},{"bike_id":"f34fcd93-0f66-400a-8f07-aa08bfa23861","system_id":"levelo_inurba_marseille","lat":43.25935,"lon":5.40902,"is_reserved":false,"is_disabled":false,"rental_uris":{"android":"levelo://app?vid=f34fcd93-0f66-400a-8f07-aa08bfa23861","ios":"levelo://app?vid=f34fcd93-0f66-400a-8f07-aa08bfa23861"},"vehicle_type_id":"4","last_reported":1738220923,"current_range_meters":12400,"station_id":"ce4bhm92rcd13ifvqglg","pricing_plan_id":"cebpf4jnsgd1na2vs0mg"},{"bike_id":"300ec558-f712-418f-99a0-60b30c7c264d","system_id":"levelo_inurba_marseille","lat":43.30361,"lon":5.41876,"is_reserved":false,"is_disabled":false,"rental_uris":{"android":"levelo://app?vid=300ec558-f712-418f-99a0-60b30c7c264d","ios":"levelo://app?vid=300ec558-f712-418f-99a0-60b30c7c264d"},"vehicle_type_id":"4","last_reported":1738220923,"current_range_meters":33200,"station_id":"ce4bhop2rcd13ifvqh7g","pricing_plan_id":"cebpf4jnsgd1na2vs0mg"},{"bike_id":"e24b0b00-1780-4162-aac0-9bb6ee5464a6","system_id":"levelo_inurba_marseille","lat":43.29036,"lon":5.37582,"is_reserved":false,"is_disabled":true,"rental_uris":{"android":"levelo://app?vid=e24b0b00-1780-4162-aac0-9bb6ee5464a6","ios":"levelo://app?vid=e24b0b00-1780-4162-aac0-9bb6ee5464a6"},"vehicle_type_id":"4","last_reported":1738220923,"current_range_meters":3600,"station_id":"ce4bh692rcd13ifvqe90","pricing_plan_id":"cebpf4jnsgd1na2vs0mg"},{"bike_id":"cd764bfd-a9c0-4815-807b-cf28d64a1086","system_id":"levelo_inurba_marseille","lat":43.28935,"lon":5.39635,"is_reserved":false,"is_disabled":false,"rental_uris":{"android":"levelo://app?vid=cd764bfd-a9c0-4815-807b-cf28d64a1086","ios":"levelo://app?vid=cd764bfd-a9c0-4815-807b-cf28d64a1086"},"vehicle_type_id":"4","last_reported":1738220923,"current_range_meters":36000,"station_id":"ce4bh3h2rcd13ifvqdn0","pricing_plan_id":"cebpf4jnsgd1na2vs0mg"},{"bike_id":"dd5c5c45-05d7-435f-b329-97ebdf5c921f","system_id":"levelo_inurba_marseille","lat":43.25114,"lon":5.40316,"is_reserved":false,"is_disabled":true,"rental_uris":{"android":"levelo://app?vid=dd5c5c45-05d7-435f-b329-97ebdf5c921f","ios":"levelo://app?vid=dd5c5c45-05d7-435f-b329-97ebdf5c921f"},"vehicle_type_id":"4","last_reported":1738220923,"current_range_meters":39200,"station_id":"ce4bhlh2rcd13ifvqgig","pricing_plan_id":"cebpf4jnsgd1na2vs0mg"},{"bike_id":"bdfbb612-e3cc-46c3-afbd-0cb7490a2615","system_id":"levelo_inurba_marseille","lat":43.28673,"lon":5.38659,"is_reserved":false,"is_disabled":false,"rental_uris":{"android":"levelo://app?vid=bdfbb612-e3cc-46c3-afbd-0cb7490a2615","ios":"levelo://app?vid=bdfbb612-e3cc-46c3-afbd-0cb7490a2615"},"vehicle_type_id":"4","last_reported":1738220923,"current_range_meters":27200,"station_id":"ce4bh492rcd13ifvqdug","pricing_plan_id":"cebpf4jnsgd1na2vs0mg"},{"bike_id":"978cd6cf-2e58-49e0-ba8e-01d18e0d5ab9","system_id":"levelo_inurba_marseille","lat":43.28443,"lon":5.39196,"is_reserved":false,"is_disabled":false,"rental_uris":{"android":"levelo://app?vid=978cd6cf-2e58-49e0-ba8e-01d18e0d5ab9","ios":"levelo://app?vid=978cd6cf-2e58-49e0-ba8e-01d18e0d5ab9"},"vehicle_type_id":"4","last_reported":1738220923,"current_range_meters":38800,"station_id":"ce4bhoh2rcd13ifvqh5g","pricing_plan_id":"cebpf4jnsgd1na2vs0mg"},{"bike_id":"dd6a3bb9-f911-4caa-9ac0-7103eedeaab1","system_id":"levelo_inurba_marseille","lat":43.27678,"lon":5.38875,"is_reserved":false,"is_disabled":false,"rental_uris":{"android":"levelo://app?vid=dd6a3bb9-f911-4caa-9ac0-7103eedeaab1","ios":"levelo://app?vid=dd6a3bb9-f911-4caa-9ac0-7103eedeaab1"},"vehicle_type_id":"4","last_reported":1738220923,"current_range_meters":38400,"station_id":"ce4bhi12rcd13ifvqfo0","pricing_plan_id":"cebpf4jnsgd1na2vs0mg"},{"bike_id":"9f7cbc3c-6e0b-4442-8c70-64c0b2a1452e","system_id":"levelo_inurba_marseille","lat":43.23061,"lon":5.35483,"is_reserved":false,"is_disabled":false,"rental_uris":{"android":"levelo://app?vid=9f7cbc3c-6e0b-4442-8c70-64c0b2a1452e","ios":"levelo://app?vid=9f7cbc3c-6e0b-4442-8c70-64c0b2a1452e"},"vehicle_type_id":"4","last_reported":1738220923,"current_range_meters":13600,"station_id":"cpo3342slgdg3j2ifvpg","pricing_plan_id":"cebpf4jnsgd1na2vs0mg"},{"bike_id":"c8a3a0ed-dff2-4f3c-87dc-2e6b47b1ad28","system_id":"levelo_inurba_marseille","lat":43.337444,"lon":5.374475,"is_reserved":false,"is_disabled":true,"rental_uris":{"android":"levelo://app?vid=c8a3a0ed-dff2-4f3c-87dc-2e6b47b1ad28","ios":"levelo://app?vid=c8a3a0ed-dff2-4f3c-87dc-2e6b47b1ad28"},"vehicle_type_id":"4","last_reported":1738220923,"current_range_meters":0,"station_id":"","pricing_plan_id":"cebpf4jnsgd1na2vs0mg"},{"bike_id":"03e31a20-cffb-4beb-97e3-c0a32106388f","system_id":"levelo_inurba_marseille","lat":43.29032,"lon":5.38646,"is_reserved":false,"is_disabled":false,"rental_uris":{"android":"levelo://app?vid=03e31a20-cffb-4beb-97e3-c0a32106388f","ios":"levelo://app?vid=03e31a20-cffb-4beb-97e3-c0a32106388f"},"vehicle_type_id":"4","last_reported":1738220923,"current_range_meters":38000,"station_id":"ce4bh4p2rcd13ifvqe0g","pricing_plan_id":"cebpf4jnsgd1na2vs0mg"},{"bike_id":"90bee0c8-b460-4794-b175-0c6ec028ed50","system_id":"levelo_inurba_marseille","lat":43.28155,"lon":5.42645,"is_reserved":false,"is_disabled":false,"rental_uris":{"android":"levelo://app?vid=90bee0c8-b460-4794-b175-0c6ec028ed50","ios":"levelo://app?vid=90bee0c8-b460-4794-b175-0c6ec028ed50"},"vehicle_type_id":"4","last_reported":1738220923,"current_range_meters":15200,"station_id":"ce4bhnh2rcd13ifvqgug","pricing_plan_id":"cebpf4jnsgd1na2vs0mg"},{"bike_id":"d6b02c53-f0cf-4b2a-a86f-01340b4cf04e","system_id":"levelo_inurba_marseille","lat":43.3137,"lon":5.38491,"is_reserved":false,"is_disabled":false,"rental_uris":{"android":"levelo://app?vid=d6b02c53-f0cf-4b2a-a86f-01340b4cf04e","ios":"levelo://app?vid=d6b02c53-f0cf-4b2a-a86f-01340b4cf04e"},"vehicle_type_id":"4","last_reported":1738220923,"current_range_meters":12000,"station_id":"ce4bgt92rcd13ifvqcf0","pricing_plan_id":"cebpf4jnsgd1na2vs0mg"},{"bike_id":"6c99b8b2-a42e-4fc9-97fc-a041766655e9","system_id":"levelo_inurba_marseille","lat":43.2847,"lon":5.38422,"is_reserved":false,"is_disabled":false,"rental_uris":{"android":"levelo://app?vid=6c99b8b2-a42e-4fc9-97fc-a041766655e9","ios":"levelo://app?vid=6c99b8b2-a42e-4fc9-97fc-a041766655e9"},"vehicle_type_id":"4","last_reported":1738220923,"current_range_meters":35200,"station_id":"ce4bh512rcd13ifvqe3g","pricing_plan_id":"cebpf4jnsgd1na2vs0mg"},{"bike_id":"c0281b79-6989-4087-9e8b-0e3f781339af","system_id":"levelo_inurba_marseille","lat":43.30431,"lon":5.38892,"is_reserved":false,"is_disabled":false,"rental_uris":{"android":"levelo://app?vid=c0281b79-6989-4087-9e8b-0e3f781339af","ios":"levelo://app?vid=c0281b79-6989-4087-9e8b-0e3f781339af"},"vehicle_type_id":"4","last_reported":1738220923,"current_range_meters":32000,"station_id":"ce4bgk12rcd13ifvqbi0","pricing_plan_id":"cebpf4jnsgd1na2vs0mg"},{"bike_id":"7327dd2b-5345-47bb-b1ed-1badcc91ac04","system_id":"levelo_inurba_marseille","lat":43.27072,"lon":5.42281,"is_reserved":false,"is_disabled":false,"rental_uris":{"android":"levelo://app?vid=7327dd2b-5345-47bb-b1ed-1badcc91ac04","ios":"levelo://app?vid=7327dd2b-5345-47bb-b1ed-1badcc91ac04"},"vehicle_type_id":"4","last_reported":1738220923,"current_range_meters":24800,"station_id":"ce4bhk92rcd13ifvqgb0","pricing_plan_id":"cebpf4jnsgd1na2vs0mg"},{"bike_id":"991e7465-9292-4d33-b4eb-9ae38338f8c0","system_id":"levelo_inurba_marseille","lat":43.25862,"lon":5.39918,"is_reserved":false,"is_disabled":false,"rental_uris":{"android":"levelo://app?vid=991e7465-9292-4d33-b4eb-9ae38338f8c0","ios":"levelo://app?vid=991e7465-9292-4d33-b4eb-9ae38338f8c0"},"vehicle_type_id":"4","last_reported":1738220923,"current_range_meters":38400,"station_id":"ce4bhl92rcd13ifvqghg","pricing_plan_id":"cebpf4jnsgd1na2vs0mg"},{"bike_id":"6811fcdd-0dd6-46b0-93c3-921932e8f90c","system_id":"levelo_inurba_marseille","lat":43.325354,"lon":5.414471,"is_reserved":false,"is_disabled":true,"rental_uris":{"android":"levelo://app?vid=6811fcdd-0dd6-46b0-93c3-921932e8f90c","ios":"levelo://app?vid=6811fcdd-0dd6-46b0-93c3-921932e8f90c"},"vehicle_type_id":"4","last_reported":1738220923,"current_range_meters":38000,"station_id":"ce4bhq12rcd13ifvqhhg","pricing_plan_id":"cebpf4jnsgd1na2vs0mg"},{"bike_id":"6e9d76be-156a-41cb-8911-51146af1d785","system_id":"levelo_inurba_marseille","lat":43.28352,"lon":5.38093,"is_reserved":false,"is_disabled":false,"rental_uris":{"android":"levelo://app?vid=6e9d76be-156a-41cb-8911-51146af1d785","ios":"levelo://app?vid=6e9d76be-156a-41cb-8911-51146af1d785"},"vehicle_type_id":"4","last_reported":1738220923,"current_range_meters":15200,"station_id":"ce4bh412rcd13ifvqdr0","pricing_plan_id":"cebpf4jnsgd1na2vs0mg"},{"bike_id":"9d2811f0-ab30-43e1-8fef-b9b6cb04c9ac","system_id":"levelo_inurba_marseille","lat":43.29035,"lon":5.38117,"is_reserved":false,"is_disabled":true,"rental_uris":{"android":"levelo://app?vid=9d2811f0-ab30-43e1-8fef-b9b6cb04c9ac","ios":"levelo://app?vid=9d2811f0-ab30-43e1-8fef-b9b6cb04c9ac"},"vehicle_type_id":"4","last_reported":1738220923,"current_range_meters":37600,"station_id":"ce4bh4p2rcd13ifvqe1g","pricing_plan_id":"cebpf4jnsgd1na2vs0mg"},{"bike_id":"978a4530-8081-4ef8-a205-2d8901e10846","system_id":"levelo_inurba_marseille","lat":43.29369,"lon":5.37833,"is_reserved":false,"is_disabled":false,"rental_uris":{"android":"levelo://app?vid=978a4530-8081-4ef8-a205-2d8901e10846","ios":"levelo://app?vid=978a4530-8081-4ef8-a205-2d8901e10846"},"vehicle_type_id":"4","last_reported":1738220923,"current_range_meters":33600,"station_id":"ce4bgjh2rcd13ifvqbf0","pricing_plan_id":"cebpf4jnsgd1na2vs0mg"},{"bike_id":"96111419-020e-4b85-8005-96ab906d2273","system_id":"levelo_inurba_marseille","lat":43.28157,"lon":5.42649,"is_reserved":false,"is_disabled":false,"rental_uris":{"android":"levelo://app?vid=96111419-020e-4b85-8005-96ab906d2273","ios":"levelo://app?vid=96111419-020e-4b85-8005-96ab906d2273"},"vehicle_type_id":"4","last_reported":1738220923,"current_range_meters":38800,"station_id":"ce4bhnh2rcd13ifvqgug","pricing_plan_id":"cebpf4jnsgd1na2vs0mg"},{"bike_id":"d64cdc92-7a94-488a-83c1-f2a3b1b58bb0","system_id":"levelo_inurba_marseille","lat":43.24082,"lon":5.37751,"is_reserved":false,"is_disabled":false,"rental_uris":{"android":"levelo://app?vid=d64cdc92-7a94-488a-83c1-f2a3b1b58bb0","ios":"levelo://app?vid=d64cdc92-7a94-488a-83c1-f2a3b1b58bb0"},"vehicle_type_id":"4","last_reported":1738220923,"current_range_meters":37600,"station_id":"ce4bhnp2rcd13ifvqgvg","pricing_plan_id":"cebpf4jnsgd1na2vs0mg"},{"bike_id":"9838cc78-2b53-49d3-ae13-82df62c4fd64","system_id":"levelo_inurba_marseille","lat":43.28412,"lon":5.40934,"is_reserved":false,"is_disabled":true,"rental_uris":{"android":"levelo://app?vid=9838cc78-2b53-49d3-ae13-82df62c4fd64","ios":"levelo://app?vid=9838cc78-2b53-49d3-ae13-82df62c4fd64"},"vehicle_type_id":"4","last_reported":1738220923,"current_range_meters":0,"station_id":"","pricing_plan_id":"cebpf4jnsgd1na2vs0mg"},{"bike_id":"a765fe06-018c-4a73-898c-2082c09f528c","system_id":"levelo_inurba_marseille","lat":43.2717,"lon":5.41007,"is_reserved":false,"is_disabled":false,"rental_uris":{"android":"levelo://app?vid=a765fe06-018c-4a73-898c-2082c09f528c","ios":"levelo://app?vid=a765fe06-018c-4a73-898c-2082c09f528c"},"vehicle_type_id":"4","last_reported":1738220923,"current_range_meters":24400,"station_id":"ce4bhl12rcd13ifvqgf0","pricing_plan_id":"cebpf4jnsgd1na2vs0mg"},{"bike_id":"0b1f4817-4c30-44b7-9201-5f8be66aeb19","system_id":"levelo_inurba_marseille","lat":43.28026,"lon":5.36959,"is_reserved":false,"is_disabled":false,"rental_uris":{"android":"levelo://app?vid=0b1f4817-4c30-44b7-9201-5f8be66aeb19","ios":"levelo://app?vid=0b1f4817-4c30-44b7-9201-5f8be66aeb19"},"vehicle_type_id":"4","last_reported":1738220923,"current_range_meters":38800,"station_id":"ce4bha12rcd13ifvqef0","pricing_plan_id":"cebpf4jnsgd1na2vs0mg"},{"bike_id":"ceef9a26-1a21-4202-9807-092512eb6f40","system_id":"levelo_inurba_marseille","lat":43.27494,"lon":5.42455,"is_reserved":false,"is_disabled":false,"rental_uris":{"android":"levelo://app?vid=ceef9a26-1a21-4202-9807-092512eb6f40","ios":"levelo://app?vid=ceef9a26-1a21-4202-9807-092512eb6f40"},"vehicle_type_id":"4","last_reported":1738220923,"current_range_meters":25600,"station_id":"ce4bhn92rcd13ifvqgrg","pricing_plan_id":"cebpf4jnsgd1na2vs0mg"},{"bike_id":"cebc1cc3-2475-48cb-aa41-05d47858d44e","system_id":"levelo_inurba_marseille","lat":43.29901,"lon":5.43664,"is_reserved":false,"is_disabled":false,"rental_uris":{"android":"levelo://app?vid=cebc1cc3-2475-48cb-aa41-05d47858d44e","ios":"levelo://app?vid=cebc1cc3-2475-48cb-aa41-05d47858d44e"},"vehicle_type_id":"4","last_reported":1738220923,"current_range_meters":24800,"station_id":"ce4bhpp2rcd13ifvqhfg","pricing_plan_id":"cebpf4jnsgd1na2vs0mg"},{"bike_id":"a6b336c6-34d6-4b26-bccf-abefa3771ff1","system_id":"levelo_inurba_marseille","lat":43.23148,"lon":5.43695,"is_reserved":false,"is_disabled":false,"rental_uris":{"android":"levelo://app?vid=a6b336c6-34d6-4b26-bccf-abefa3771ff1","ios":"levelo://app?vid=a6b336c6-34d6-4b26-bccf-abefa3771ff1"},"vehicle_type_id":"4","last_reported":1738220923,"current_range_meters":39200,"station_id":"ce4bhmp2rcd13ifvqgog","pricing_plan_id":"cebpf4jnsgd1na2vs0mg"},{"bike_id":"02de8578-c1fb-4324-9497-60f08c0a1031","system_id":"levelo_inurba_marseille","lat":43.281014,"lon":5.378352,"is_reserved":false,"is_disabled":false,"rental_uris":{"android":"levelo://app?vid=02de8578-c1fb-4324-9497-60f08c0a1031","ios":"levelo://app?vid=02de8578-c1fb-4324-9497-60f08c0a1031"},"vehicle_type_id":"4","last_reported":1738220923,"current_range_meters":27200,"station_id":"ce4bha12rcd13ifvqee0","pricing_plan_id":"cebpf4jnsgd1na2vs0mg"},{"bike_id":"49698054-e148-421c-85f9-5130c684e9e3","system_id":"levelo_inurba_marseille","lat":43.30597,"lon":5.39366,"is_reserved":false,"is_disabled":false,"rental_uris":{"android":"levelo://app?vid=49698054-e148-421c-85f9-5130c684e9e3","ios":"levelo://app?vid=49698054-e148-421c-85f9-5130c684e9e3"},"vehicle_type_id":"4","last_reported":1738220923,"current_range_meters":33200,"station_id":"ce4bh0p2rcd13ifvqd80","pricing_plan_id":"cebpf4jnsgd1na2vs0mg"},{"bike_id":"78e309f5-beb4-40fa-8263-71befb9e09e2","system_id":"levelo_inurba_marseille","lat":43.27492,"lon":5.42453,"is_reserved":false,"is_disabled":false,"rental_uris":{"android":"levelo://app?vid=78e309f5-beb4-40fa-8263-71befb9e09e2","ios":"levelo://app?vid=78e309f5-beb4-40fa-8263-71befb9e09e2"},"vehicle_type_id":"4","last_reported":1738220923,"current_range_meters":18800,"station_id":"ce4bhn92rcd13ifvqgrg","pricing_plan_id":"cebpf4jnsgd1na2vs0mg"},{"bike_id":"8316cb10-023d-4bec-a7d1-c688e60191c8","system_id":"levelo_inurba_marseille","lat":43.28161,"lon":5.42623,"is_reserved":false,"is_disabled":false,"rental_uris":{"android":"levelo://app?vid=8316cb10-023d-4bec-a7d1-c688e60191c8","ios":"levelo://app?vid=8316cb10-023d-4bec-a7d1-c688e60191c8"},"vehicle_type_id":"4","last_reported":1738220923,"current_range_meters":11200,"station_id":"ce4bhnh2rcd13ifvqgug","pricing_plan_id":"cebpf4jnsgd1na2vs0mg"},{"bike_id":"a3c9e827-88e1-47de-a4ae-9cb69e6bdeb2","system_id":"levelo_inurba_marseille","lat":43.30144,"lon":5.37414,"is_reserved":false,"is_disabled":false,"rental_uris":{"android":"levelo://app?vid=a3c9e827-88e1-47de-a4ae-9cb69e6bdeb2","ios":"levelo://app?vid=a3c9e827-88e1-47de-a4ae-9cb69e6bdeb2"},"vehicle_type_id":"4","last_reported":1738220923,"current_range_meters":30800,"station_id":"ce4bgs92rcd13ifvqcc0","pricing_plan_id":"cebpf4jnsgd1na2vs0mg"},{"bike_id":"4ad67fee-8571-4fab-a34a-5f44c7802ceb","system_id":"levelo_inurba_marseille","lat":43.28738,"lon":5.36076,"is_reserved":false,"is_disabled":false,"rental_uris":{"android":"levelo://app?vid=4ad67fee-8571-4fab-a34a-5f44c7802ceb","ios":"levelo://app?vid=4ad67fee-8571-4fab-a34a-5f44c7802ceb"},"vehicle_type_id":"4","last_reported":1738220923,"current_range_meters":19600,"station_id":"cki0cbj6b192h4jlfktg","pricing_plan_id":"cebpf4jnsgd1na2vs0mg"},{"bike_id":"890ae6dd-c41e-419f-9124-9417aaf48f7b","system_id":"levelo_inurba_marseille","lat":43.274901,"lon":5.42452,"is_reserved":false,"is_disabled":false,"rental_uris":{"android":"levelo://app?vid=890ae6dd-c41e-419f-9124-9417aaf48f7b","ios":"levelo://app?vid=890ae6dd-c41e-419f-9124-9417aaf48f7b"},"vehicle_type_id":"4","last_reported":1738220923,"current_range_meters":32400,"station_id":"ce4bhn92rcd13ifvqgrg","pricing_plan_id":"cebpf4jnsgd1na2vs0mg"},{"bike_id":"d979d8d2-ec65-47af-9229-e4270aab279a","system_id":"levelo_inurba_marseille","lat":43.23066,"lon":5.35497,"is_reserved":false,"is_disabled":false,"rental_uris":{"android":"levelo://app?vid=d979d8d2-ec65-47af-9229-e4270aab279a","ios":"levelo://app?vid=d979d8d2-ec65-47af-9229-e4270aab279a"},"vehicle_type_id":"4","last_reported":1738220923,"current_range_meters":16000,"station_id":"cpo3342slgdg3j2ifvpg","pricing_plan_id":"cebpf4jnsgd1na2vs0mg"},{"bike_id":"194d1743-47c5-4e9a-83b1-9de115cc85f9","system_id":"levelo_inurba_marseille","lat":43.28934,"lon":5.36644,"is_reserved":false,"is_disabled":false,"rental_uris":{"android":"levelo://app?vid=194d1743-47c5-4e9a-83b1-9de115cc85f9","ios":"levelo://app?vid=194d1743-47c5-4e9a-83b1-9de115cc85f9"},"vehicle_type_id":"4","last_reported":1738220923,"current_range_meters":38800,"station_id":"ce4bhap2rcd13ifvqek0","pricing_plan_id":"cebpf4jnsgd1na2vs0mg"},{"bike_id":"72fb6c3d-ab9b-438d-9161-f3042c3f00fc","system_id":"levelo_inurba_marseille","lat":43.32421,"lon":5.36987,"is_reserved":false,"is_disabled":false,"rental_uris":{"android":"levelo://app?vid=72fb6c3d-ab9b-438d-9161-f3042c3f00fc","ios":"levelo://app?vid=72fb6c3d-ab9b-438d-9161-f3042c3f00fc"},"vehicle_type_id":"4","last_reported":1738220923,"current_range_meters":38400,"station_id":"","pricing_plan_id":"cebpf4jnsgd1na2vs0mg"},{"bike_id":"8401c82e-2c7e-4101-98a2-b12f578674b6","system_id":"levelo_inurba_marseille","lat":43.284413,"lon":5.3919,"is_reserved":false,"is_disabled":false,"rental_uris":{"android":"levelo://app?vid=8401c82e-2c7e-4101-98a2-b12f578674b6","ios":"levelo://app?vid=8401c82e-2c7e-4101-98a2-b12f578674b6"},"vehicle_type_id":"4","last_reported":1738220923,"current_range_meters":38800,"station_id":"ce4bhoh2rcd13ifvqh5g","pricing_plan_id":"cebpf4jnsgd1na2vs0mg"},{"bike_id":"4b9d69a3-9df6-4088-b015-95b203e90966","system_id":"levelo_inurba_marseille","lat":43.25823,"lon":5.39433,"is_reserved":false,"is_disabled":false,"rental_uris":{"android":"levelo://app?vid=4b9d69a3-9df6-4088-b015-95b203e90966","ios":"levelo://app?vid=4b9d69a3-9df6-4088-b015-95b203e90966"},"vehicle_type_id":"4","last_reported":1738220923,"current_range_meters":38000,"station_id":"ce4bhip2rcd13ifvqft0","pricing_plan_id":"cebpf4jnsgd1na2vs0mg"},{"bike_id":"7d6260ec-6d8c-4d5b-8950-1a493871014c","system_id":"levelo_inurba_marseille","lat":43.29886,"lon":5.4371,"is_reserved":false,"is_disabled":false,"rental_uris":{"android":"levelo://app?vid=7d6260ec-6d8c-4d5b-8950-1a493871014c","ios":"levelo://app?vid=7d6260ec-6d8c-4d5b-8950-1a493871014c"},"vehicle_type_id":"4","last_reported":1738220923,"current_range_meters":35600,"station_id":"","pricing_plan_id":"cebpf4jnsgd1na2vs0mg"},{"bike_id":"cd809f94-5358-4489-9b94-66123c0ec66d","system_id":"levelo_inurba_marseille","lat":43.27976,"lon":5.38741,"is_reserved":false,"is_disabled":true,"rental_uris":{"android":"levelo://app?vid=cd809f94-5358-4489-9b94-66123c0ec66d","ios":"levelo://app?vid=cd809f94-5358-4489-9b94-66123c0ec66d"},"vehicle_type_id":"4","last_reported":1738220923,"current_range_meters":0,"station_id":"ce4bhg12rcd13ifvqf80","pricing_plan_id":"cebpf4jnsgd1na2vs0mg"},{"bike_id":"6be92d7d-a8c1-4c68-9c57-5f393165cf28","system_id":"levelo_inurba_marseille","lat":43.27083,"lon":5.42264,"is_reserved":false,"is_disabled":false,"rental_uris":{"android":"levelo://app?vid=6be92d7d-a8c1-4c68-9c57-5f393165cf28","ios":"levelo://app?vid=6be92d7d-a8c1-4c68-9c57-5f393165cf28"},"vehicle_type_id":"4","last_reported":1738220923,"current_range_meters":39200,"station_id":"ce4bhk92rcd13ifvqgb0","pricing_plan_id":"cebpf4jnsgd1na2vs0mg"},{"bike_id":"7ce9a2eb-fe23-42f3-8e11-50e2404a8911","system_id":"levelo_inurba_marseille","lat":43.30906,"lon":5.37192,"is_reserved":false,"is_disabled":false,"rental_uris":{"android":"levelo://app?vid=7ce9a2eb-fe23-42f3-8e11-50e2404a8911","ios":"levelo://app?vid=7ce9a2eb-fe23-42f3-8e11-50e2404a8911"},"vehicle_type_id":"4","last_reported":1738220923,"current_range_meters":36000,"station_id":"ce4bguh2rcd13ifvqckg","pricing_plan_id":"cebpf4jnsgd1na2vs0mg"},{"bike_id":"f56014df-baeb-46b7-95b7-a27befc1c000","system_id":"levelo_inurba_marseille","lat":43.30899,"lon":5.37182,"is_reserved":false,"is_disabled":false,"rental_uris":{"android":"levelo://app?vid=f56014df-baeb-46b7-95b7-a27befc1c000","ios":"levelo://app?vid=f56014df-baeb-46b7-95b7-a27befc1c000"},"vehicle_type_id":"4","last_reported":1738220923,"current_range_meters":38000,"station_id":"ce4bguh2rcd13ifvqckg","pricing_plan_id":"cebpf4jnsgd1na2vs0mg"},{"bike_id":"a7fa174b-9e7a-480f-96ea-d7b68ff91040","system_id":"levelo_inurba_marseille","lat":43.29974,"lon":5.38508,"is_reserved":false,"is_disabled":true,"rental_uris":{"android":"levelo://app?vid=a7fa174b-9e7a-480f-96ea-d7b68ff91040","ios":"levelo://app?vid=a7fa174b-9e7a-480f-96ea-d7b68ff91040"},"vehicle_type_id":"4","last_reported":1738220923,"current_range_meters":30400,"station_id":"ce4bgj92rcd13ifvqbd0","pricing_plan_id":"cebpf4jnsgd1na2vs0mg"},{"bike_id":"d8b1c3f9-ff6e-4179-8423-4ba0d2a2af0e","system_id":"levelo_inurba_marseille","lat":43.33718,"lon":5.39179,"is_reserved":false,"is_disabled":false,"rental_uris":{"android":"levelo://app?vid=d8b1c3f9-ff6e-4179-8423-4ba0d2a2af0e","ios":"levelo://app?vid=d8b1c3f9-ff6e-4179-8423-4ba0d2a2af0e"},"vehicle_type_id":"4","last_reported":1738220923,"current_range_meters":39200,"station_id":"ce4bhr92rcd13ifvqhsg","pricing_plan_id":"cebpf4jnsgd1na2vs0mg"},{"bike_id":"e24a026a-c0e3-4ed2-bec3-0ff2a9afc08f","system_id":"levelo_inurba_marseille","lat":43.33017,"lon":5.39037,"is_reserved":false,"is_disabled":false,"rental_uris":{"android":"levelo://app?vid=e24a026a-c0e3-4ed2-bec3-0ff2a9afc08f","ios":"levelo://app?vid=e24a026a-c0e3-4ed2-bec3-0ff2a9afc08f"},"vehicle_type_id":"4","last_reported":1738220923,"current_range_meters":38800,"station_id":"ce4bhr92rcd13ifvqhrg","pricing_plan_id":"cebpf4jnsgd1na2vs0mg"},{"bike_id":"ccb6318c-6994-46f1-b382-d420e97e4a87","system_id":"levelo_inurba_marseille","lat":43.272089,"lon":5.391861,"is_reserved":false,"is_disabled":true,"rental_uris":{"android":"levelo://app?vid=ccb6318c-6994-46f1-b382-d420e97e4a87","ios":"levelo://app?vid=ccb6318c-6994-46f1-b382-d420e97e4a87"},"vehicle_type_id":"4","last_reported":1738220923,"current_range_meters":35600,"station_id":"ce4bhhp2rcd13ifvqfm0","pricing_plan_id":"cebpf4jnsgd1na2vs0mg"},{"bike_id":"c6b22e63-3112-4b18-a4bd-a7ccda40bad7","system_id":"levelo_inurba_marseille","lat":43.29931,"lon":5.38127,"is_reserved":false,"is_disabled":true,"rental_uris":{"android":"levelo://app?vid=c6b22e63-3112-4b18-a4bd-a7ccda40bad7","ios":"levelo://app?vid=c6b22e63-3112-4b18-a4bd-a7ccda40bad7"},"vehicle_type_id":"4","last_reported":1738220923,"current_range_meters":26000,"station_id":"ce4bgj12rcd13ifvqbc0","pricing_plan_id":"cebpf4jnsgd1na2vs0mg"},{"bike_id":"fa3dd353-aa33-4c66-9a77-d64de75adc68","system_id":"levelo_inurba_marseille","lat":43.33601,"lon":5.41032,"is_reserved":false,"is_disabled":false,"rental_uris":{"android":"levelo://app?vid=fa3dd353-aa33-4c66-9a77-d64de75adc68","ios":"levelo://app?vid=fa3dd353-aa33-4c66-9a77-d64de75adc68"},"vehicle_type_id":"4","last_reported":1738220923,"current_range_meters":39200,"station_id":"ce4bhqh2rcd13ifvqhmg","pricing_plan_id":"cebpf4jnsgd1na2vs0mg"},{"bike_id":"d5a99833-3652-4e7f-b1b5-7ad0e5ec42f7","system_id":"levelo_inurba_marseille","lat":43.27829,"lon":5.39208,"is_reserved":false,"is_disabled":false,"rental_uris":{"android":"levelo://app?vid=d5a99833-3652-4e7f-b1b5-7ad0e5ec42f7","ios":"levelo://app?vid=d5a99833-3652-4e7f-b1b5-7ad0e5ec42f7"},"vehicle_type_id":"4","last_reported":1738220923,"current_range_meters":38000,"station_id":"ce4bhjp2rcd13ifvqga0","pricing_plan_id":"cebpf4jnsgd1na2vs0mg"},{"bike_id":"3c9c9088-9c27-4609-bc62-8218c0dc2be8","system_id":"levelo_inurba_marseille","lat":43.231928,"lon":5.355524,"is_reserved":false,"is_disabled":false,"rental_uris":{"android":"levelo://app?vid=3c9c9088-9c27-4609-bc62-8218c0dc2be8","ios":"levelo://app?vid=3c9c9088-9c27-4609-bc62-8218c0dc2be8"},"vehicle_type_id":"4","last_reported":1738220923,"current_range_meters":39200,"station_id":"ce4bhu92rcd13ifvqi70","pricing_plan_id":"cebpf4jnsgd1na2vs0mg"},{"bike_id":"c26f377d-0438-4f8f-817a-159f799709ee","system_id":"levelo_inurba_marseille","lat":43.30405,"lon":5.39774,"is_reserved":false,"is_disabled":false,"rental_uris":{"android":"levelo://app?vid=c26f377d-0438-4f8f-817a-159f799709ee","ios":"levelo://app?vid=c26f377d-0438-4f8f-817a-159f799709ee"},"vehicle_type_id":"4","last_reported":1738220923,"current_range_meters":38800,"station_id":"ce4bh092rcd13ifvqd20","pricing_plan_id":"cebpf4jnsgd1na2vs0mg"},{"bike_id":"9a6334c1-2529-46f5-9be3-482365ba227d","system_id":"levelo_inurba_marseille","lat":43.30172,"lon":5.38093,"is_reserved":false,"is_disabled":false,"rental_uris":{"android":"levelo://app?vid=9a6334c1-2529-46f5-9be3-482365ba227d","ios":"levelo://app?vid=9a6334c1-2529-46f5-9be3-482365ba227d"},"vehicle_type_id":"4","last_reported":1738220923,"current_range_meters":30000,"station_id":"ce4bgjp2rcd13ifvqbh0","pricing_plan_id":"cebpf4jnsgd1na2vs0mg"},{"bike_id":"fa2f1c21-3bfc-46ef-bcba-588774df180a","system_id":"levelo_inurba_marseille","lat":43.25857,"lon":5.39893,"is_reserved":false,"is_disabled":false,"rental_uris":{"android":"levelo://app?vid=fa2f1c21-3bfc-46ef-bcba-588774df180a","ios":"levelo://app?vid=fa2f1c21-3bfc-46ef-bcba-588774df180a"},"vehicle_type_id":"4","last_reported":1738220923,"current_range_meters":16800,"station_id":"ce4bhl92rcd13ifvqghg","pricing_plan_id":"cebpf4jnsgd1na2vs0mg"},{"bike_id":"44223985-a754-418c-b385-1bd11756dc9b","system_id":"levelo_inurba_marseille","lat":43.28615,"lon":5.35091,"is_reserved":false,"is_disabled":false,"rental_uris":{"android":"levelo://app?vid=44223985-a754-418c-b385-1bd11756dc9b","ios":"levelo://app?vid=44223985-a754-418c-b385-1bd11756dc9b"},"vehicle_type_id":"4","last_reported":1738220923,"current_range_meters":24800,"station_id":"ce4bhch2rcd13ifvqeug","pricing_plan_id":"cebpf4jnsgd1na2vs0mg"},{"bike_id":"a26f438d-ac85-48d8-a634-56198b8f74a1","system_id":"levelo_inurba_marseille","lat":43.27693,"lon":5.38856,"is_reserved":false,"is_disabled":false,"rental_uris":{"android":"levelo://app?vid=a26f438d-ac85-48d8-a634-56198b8f74a1","ios":"levelo://app?vid=a26f438d-ac85-48d8-a634-56198b8f74a1"},"vehicle_type_id":"4","last_reported":1738220923,"current_range_meters":26800,"station_id":"ce4bhi12rcd13ifvqfo0","pricing_plan_id":"cebpf4jnsgd1na2vs0mg"},{"bike_id":"42c78189-b400-4c78-92c4-ad00a450d7da","system_id":"levelo_inurba_marseille","lat":43.255068,"lon":5.376486,"is_reserved":false,"is_disabled":false,"rental_uris":{"android":"levelo://app?vid=42c78189-b400-4c78-92c4-ad00a450d7da","ios":"levelo://app?vid=42c78189-b400-4c78-92c4-ad00a450d7da"},"vehicle_type_id":"4","last_reported":1738220923,"current_range_meters":37600,"station_id":"ce4bhh12rcd13ifvqff0","pricing_plan_id":"cebpf4jnsgd1na2vs0mg"},{"bike_id":"130b2340-f846-43e5-a0aa-2fccdaa6beab","system_id":"levelo_inurba_marseille","lat":43.29534,"lon":5.38536,"is_reserved":false,"is_disabled":false,"rental_uris":{"android":"levelo://app?vid=130b2340-f846-43e5-a0aa-2fccdaa6beab","ios":"levelo://app?vid=130b2340-f846-43e5-a0aa-2fccdaa6beab"},"vehicle_type_id":"4","last_reported":1738220923,"current_range_meters":30000,"station_id":"ce4bgih2rcd13ifvqba0","pricing_plan_id":"cebpf4jnsgd1na2vs0mg"},{"bike_id":"45050adf-2de0-4c2c-bba2-790f025eb090","system_id":"levelo_inurba_marseille","lat":43.30469,"lon":5.37913,"is_reserved":false,"is_disabled":false,"rental_uris":{"android":"levelo://app?vid=45050adf-2de0-4c2c-bba2-790f025eb090","ios":"levelo://app?vid=45050adf-2de0-4c2c-bba2-790f025eb090"},"vehicle_type_id":"4","last_reported":1738220923,"current_range_meters":32800,"station_id":"ce4bgup2rcd13ifvqcn0","pricing_plan_id":"cebpf4jnsgd1na2vs0mg"},{"bike_id":"aa8684a0-4372-4167-987c-97a064c030c1","system_id":"levelo_inurba_marseille","lat":43.30692,"lon":5.42224,"is_reserved":false,"is_disabled":true,"rental_uris":{"android":"levelo://app?vid=aa8684a0-4372-4167-987c-97a064c030c1","ios":"levelo://app?vid=aa8684a0-4372-4167-987c-97a064c030c1"},"vehicle_type_id":"4","last_reported":1738220923,"current_range_meters":1200,"station_id":"","pricing_plan_id":"cebpf4jnsgd1na2vs0mg"},{"bike_id":"9d6721d7-fa42-4170-870f-97261a5de9c8","system_id":"levelo_inurba_marseille","lat":43.31366,"lon":5.36712,"is_reserved":false,"is_disabled":false,"rental_uris":{"android":"levelo://app?vid=9d6721d7-fa42-4170-870f-97261a5de9c8","ios":"levelo://app?vid=9d6721d7-fa42-4170-870f-97261a5de9c8"},"vehicle_type_id":"4","last_reported":1738220923,"current_range_meters":28400,"station_id":"ce4bgr92rcd13ifvqc6g","pricing_plan_id":"cebpf4jnsgd1na2vs0mg"},{"bike_id":"35f37634-7a87-42d5-9235-58870f12fb07","system_id":"levelo_inurba_marseille","lat":43.28412,"lon":5.34968,"is_reserved":false,"is_disabled":false,"rental_uris":{"android":"levelo://app?vid=35f37634-7a87-42d5-9235-58870f12fb07","ios":"levelo://app?vid=35f37634-7a87-42d5-9235-58870f12fb07"},"vehicle_type_id":"4","last_reported":1738220923,"current_range_meters":28400,"station_id":"ce4bhbh2rcd13ifvqepg","pricing_plan_id":"cebpf4jnsgd1na2vs0mg"},{"bike_id":"08743a1b-760a-40ce-9b81-d210486b71d7","system_id":"levelo_inurba_marseille","lat":43.3172,"lon":5.37785,"is_reserved":false,"is_disabled":false,"rental_uris":{"android":"levelo://app?vid=08743a1b-760a-40ce-9b81-d210486b71d7","ios":"levelo://app?vid=08743a1b-760a-40ce-9b81-d210486b71d7"},"vehicle_type_id":"4","last_reported":1738220923,"current_range_meters":4800,"station_id":"ce4bgth2rcd13ifvqch0","pricing_plan_id":"cebpf4jnsgd1na2vs0mg"},{"bike_id":"a55b3987-e581-43b1-a743-595f1d7fbf45","system_id":"levelo_inurba_marseille","lat":43.28106,"lon":5.37867,"is_reserved":false,"is_disabled":false,"rental_uris":{"android":"levelo://app?vid=a55b3987-e581-43b1-a743-595f1d7fbf45","ios":"levelo://app?vid=a55b3987-e581-43b1-a743-595f1d7fbf45"},"vehicle_type_id":"4","last_reported":1738220923,"current_range_meters":33200,"station_id":"ce4bha12rcd13ifvqee0","pricing_plan_id":"cebpf4jnsgd1na2vs0mg"},{"bike_id":"9061c30b-f0f7-46e3-8477-d3c2c36b1f53","system_id":"levelo_inurba_marseille","lat":43.28027,"lon":5.36943,"is_reserved":false,"is_disabled":false,"rental_uris":{"android":"levelo://app?vid=9061c30b-f0f7-46e3-8477-d3c2c36b1f53","ios":"levelo://app?vid=9061c30b-f0f7-46e3-8477-d3c2c36b1f53"},"vehicle_type_id":"4","last_reported":1738220923,"current_range_meters":38000,"station_id":"ce4bha12rcd13ifvqef0","pricing_plan_id":"cebpf4jnsgd1na2vs0mg"},{"bike_id":"73905958-9769-4a85-960e-ba1d4f721447","system_id":"levelo_inurba_marseille","lat":43.286613,"lon":5.363408,"is_reserved":false,"is_disabled":false,"rental_uris":{"android":"levelo://app?vid=73905958-9769-4a85-960e-ba1d4f721447","ios":"levelo://app?vid=73905958-9769-4a85-960e-ba1d4f721447"},"vehicle_type_id":"4","last_reported":1738220923,"current_range_meters":28400,"station_id":"ce4bhah2rcd13ifvqej0","pricing_plan_id":"cebpf4jnsgd1na2vs0mg"},{"bike_id":"f13d5aa8-c024-4fbb-8216-a7ef6ab1eff4","system_id":"levelo_inurba_marseille","lat":43.31882,"lon":5.4075,"is_reserved":false,"is_disabled":false,"rental_uris":{"android":"levelo://app?vid=f13d5aa8-c024-4fbb-8216-a7ef6ab1eff4","ios":"levelo://app?vid=f13d5aa8-c024-4fbb-8216-a7ef6ab1eff4"},"vehicle_type_id":"4","last_reported":1738220923,"current_range_meters":38000,"station_id":"ce4bhq12rcd13ifvqhig","pricing_plan_id":"cebpf4jnsgd1na2vs0mg"},{"bike_id":"39bd9e28-59f1-42e3-98fa-8269cd3a779a","system_id":"levelo_inurba_marseille","lat":43.28083,"lon":5.39654,"is_reserved":false,"is_disabled":false,"rental_uris":{"android":"levelo://app?vid=39bd9e28-59f1-42e3-98fa-8269cd3a779a","ios":"levelo://app?vid=39bd9e28-59f1-42e3-98fa-8269cd3a779a"},"vehicle_type_id":"4","last_reported":1738220923,"current_range_meters":38800,"station_id":"ce4bho12rcd13ifvqh2g","pricing_plan_id":"cebpf4jnsgd1na2vs0mg"},{"bike_id":"ab2c796a-c23b-4a3a-9534-777b873d6a05","system_id":"levelo_inurba_marseille","lat":43.24161,"lon":5.36398,"is_reserved":false,"is_disabled":false,"rental_uris":{"android":"levelo://app?vid=ab2c796a-c23b-4a3a-9534-777b873d6a05","ios":"levelo://app?vid=ab2c796a-c23b-4a3a-9534-777b873d6a05"},"vehicle_type_id":"4","last_reported":1738220923,"current_range_meters":12000,"station_id":"cpo36qri1sfpv3e86is0","pricing_plan_id":"cebpf4jnsgd1na2vs0mg"},{"bike_id":"eca914c1-5c29-44d5-b3d0-f7b51a76a49b","system_id":"levelo_inurba_marseille","lat":43.26033,"lon":5.37558,"is_reserved":false,"is_disabled":false,"rental_uris":{"android":"levelo://app?vid=eca914c1-5c29-44d5-b3d0-f7b51a76a49b","ios":"levelo://app?vid=eca914c1-5c29-44d5-b3d0-f7b51a76a49b"},"vehicle_type_id":"4","last_reported":1738220923,"current_range_meters":38000,"station_id":"ce4bhgh2rcd13ifvqfa0","pricing_plan_id":"cebpf4jnsgd1na2vs0mg"},{"bike_id":"e3d24e55-9c68-4f68-8903-3b34df454a10","system_id":"levelo_inurba_marseille","lat":43.28432,"lon":5.37515,"is_reserved":false,"is_disabled":false,"rental_uris":{"android":"levelo://app?vid=e3d24e55-9c68-4f68-8903-3b34df454a10","ios":"levelo://app?vid=e3d24e55-9c68-4f68-8903-3b34df454a10"},"vehicle_type_id":"4","last_reported":1738220923,"current_range_meters":27600,"station_id":"ce4bh412rcd13ifvqds0","pricing_plan_id":"cebpf4jnsgd1na2vs0mg"},{"bike_id":"ddf6027c-0dc1-4570-8a3a-79156f150c12","system_id":"levelo_inurba_marseille","lat":43.29796,"lon":5.38102,"is_reserved":false,"is_disabled":false,"rental_uris":{"android":"levelo://app?vid=ddf6027c-0dc1-4570-8a3a-79156f150c12","ios":"levelo://app?vid=ddf6027c-0dc1-4570-8a3a-79156f150c12"},"vehicle_type_id":"4","last_reported":1738220923,"current_range_meters":27600,"station_id":"ce4bgip2rcd13ifvqbb0","pricing_plan_id":"cebpf4jnsgd1na2vs0mg"},{"bike_id":"fa910578-4caa-4210-aa45-ea80af27e609","system_id":"levelo_inurba_marseille","lat":43.31757,"lon":5.42321,"is_reserved":false,"is_disabled":false,"rental_uris":{"android":"levelo://app?vid=fa910578-4caa-4210-aa45-ea80af27e609","ios":"levelo://app?vid=fa910578-4caa-4210-aa45-ea80af27e609"},"vehicle_type_id":"4","last_reported":1738220923,"current_range_meters":35600,"station_id":"","pricing_plan_id":"cebpf4jnsgd1na2vs0mg"},{"bike_id":"11a7852e-270e-45d9-9892-b44ae6bcec93","system_id":"levelo_inurba_marseille","lat":43.28829,"lon":5.35851,"is_reserved":false,"is_disabled":false,"rental_uris":{"android":"levelo://app?vid=11a7852e-270e-45d9-9892-b44ae6bcec93","ios":"levelo://app?vid=11a7852e-270e-45d9-9892-b44ae6bcec93"},"vehicle_type_id":"4","last_reported":1738220923,"current_range_meters":32800,"station_id":"ce4bhb12rcd13ifvqem0","pricing_plan_id":"cebpf4jnsgd1na2vs0mg"},{"bike_id":"31c9d8c4-8858-4563-93a1-8bbbb7e00d18","system_id":"levelo_inurba_marseille","lat":43.30589,"lon":5.39363,"is_reserved":false,"is_disabled":false,"rental_uris":{"android":"levelo://app?vid=31c9d8c4-8858-4563-93a1-8bbbb7e00d18","ios":"levelo://app?vid=31c9d8c4-8858-4563-93a1-8bbbb7e00d18"},"vehicle_type_id":"4","last_reported":1738220923,"current_range_meters":19600,"station_id":"ce4bh0p2rcd13ifvqd80","pricing_plan_id":"cebpf4jnsgd1na2vs0mg"},{"bike_id":"f0f07e84-01c4-443b-852b-4e00b882c1d8","system_id":"levelo_inurba_marseille","lat":43.30794,"lon":5.43523,"is_reserved":false,"is_disabled":false,"rental_uris":{"android":"levelo://app?vid=f0f07e84-01c4-443b-852b-4e00b882c1d8","ios":"levelo://app?vid=f0f07e84-01c4-443b-852b-4e00b882c1d8"},"vehicle_type_id":"4","last_reported":1738220923,"current_range_meters":39200,"station_id":"ce4bhph2rcd13ifvqheg","pricing_plan_id":"cebpf4jnsgd1na2vs0mg"},{"bike_id":"a4c7c837-2739-4508-8057-30ea8544173b","system_id":"levelo_inurba_marseille","lat":43.26552,"lon":5.37287,"is_reserved":false,"is_disabled":false,"rental_uris":{"android":"levelo://app?vid=a4c7c837-2739-4508-8057-30ea8544173b","ios":"levelo://app?vid=a4c7c837-2739-4508-8057-30ea8544173b"},"vehicle_type_id":"4","last_reported":1738220923,"current_range_meters":20800,"station_id":"ce4bhg12rcd13ifvqf70","pricing_plan_id":"cebpf4jnsgd1na2vs0mg"},{"bike_id":"615a0747-8d06-4fbf-b735-2ce44cc12594","system_id":"levelo_inurba_marseille","lat":43.32356,"lon":5.38895,"is_reserved":false,"is_disabled":false,"rental_uris":{"android":"levelo://app?vid=615a0747-8d06-4fbf-b735-2ce44cc12594","ios":"levelo://app?vid=615a0747-8d06-4fbf-b735-2ce44cc12594"},"vehicle_type_id":"4","last_reported":1738220923,"current_range_meters":16800,"station_id":"ce4bhqp2rcd13ifvqhog","pricing_plan_id":"cebpf4jnsgd1na2vs0mg"},{"bike_id":"8eeb5dfb-7158-4073-8c10-33dc86f27d7f","system_id":"levelo_inurba_marseille","lat":43.28673,"lon":5.36336,"is_reserved":false,"is_disabled":false,"rental_uris":{"android":"levelo://app?vid=8eeb5dfb-7158-4073-8c10-33dc86f27d7f","ios":"levelo://app?vid=8eeb5dfb-7158-4073-8c10-33dc86f27d7f"},"vehicle_type_id":"4","last_reported":1738220923,"current_range_meters":27200,"station_id":"ce4bhah2rcd13ifvqej0","pricing_plan_id":"cebpf4jnsgd1na2vs0mg"},{"bike_id":"147c6e83-12ef-48d2-b416-b057e0bd8af3","system_id":"levelo_inurba_marseille","lat":43.27947,"lon":5.41046,"is_reserved":false,"is_disabled":false,"rental_uris":{"android":"levelo://app?vid=147c6e83-12ef-48d2-b416-b057e0bd8af3","ios":"levelo://app?vid=147c6e83-12ef-48d2-b416-b057e0bd8af3"},"vehicle_type_id":"4","last_reported":1738220923,"current_range_meters":33600,"station_id":"ce4bhnp2rcd13ifvqh0g","pricing_plan_id":"cebpf4jnsgd1na2vs0mg"},{"bike_id":"3afe2907-14fe-40b0-8ce8-247215ed16c8","system_id":"levelo_inurba_marseille","lat":43.269463,"lon":5.38914,"is_reserved":false,"is_disabled":true,"rental_uris":{"android":"levelo://app?vid=3afe2907-14fe-40b0-8ce8-247215ed16c8","ios":"levelo://app?vid=3afe2907-14fe-40b0-8ce8-247215ed16c8"},"vehicle_type_id":"4","last_reported":1738220923,"current_range_meters":400,"station_id":"ce4bhhh2rcd13ifvqfl0","pricing_plan_id":"cebpf4jnsgd1na2vs0mg"},{"bike_id":"e8e1f7c6-d773-4c38-bfcc-4a6d773355ce","system_id":"levelo_inurba_marseille","lat":43.22946,"lon":5.35367,"is_reserved":false,"is_disabled":false,"rental_uris":{"android":"levelo://app?vid=e8e1f7c6-d773-4c38-bfcc-4a6d773355ce","ios":"levelo://app?vid=e8e1f7c6-d773-4c38-bfcc-4a6d773355ce"},"vehicle_type_id":"4","last_reported":1738220923,"current_range_meters":38800,"station_id":"cpo3532slgdg3j2ikp40","pricing_plan_id":"cebpf4jnsgd1na2vs0mg"},{"bike_id":"f0ed3e26-8dad-4678-bee9-f6903412b754","system_id":"levelo_inurba_marseille","lat":43.2813,"lon":5.37843,"is_reserved":false,"is_disabled":false,"rental_uris":{"android":"levelo://app?vid=f0ed3e26-8dad-4678-bee9-f6903412b754","ios":"levelo://app?vid=f0ed3e26-8dad-4678-bee9-f6903412b754"},"vehicle_type_id":"4","last_reported":1738220923,"current_range_meters":36000,"station_id":"ce4bha12rcd13ifvqee0","pricing_plan_id":"cebpf4jnsgd1na2vs0mg"},{"bike_id":"f7dd85f9-99a3-4ceb-b8ef-360181d35c56","system_id":"levelo_inurba_marseille","lat":43.2792,"lon":5.39585,"is_reserved":false,"is_disabled":false,"rental_uris":{"android":"levelo://app?vid=f7dd85f9-99a3-4ceb-b8ef-360181d35c56","ios":"levelo://app?vid=f7dd85f9-99a3-4ceb-b8ef-360181d35c56"},"vehicle_type_id":"4","last_reported":1738220923,"current_range_meters":20000,"station_id":"ce4bhf92rcd13ifvqf40","pricing_plan_id":"cebpf4jnsgd1na2vs0mg"},{"bike_id":"fc2636b6-f636-4e3b-b784-6cb5a11c5bfe","system_id":"levelo_inurba_marseille","lat":43.32286,"lon":5.38275,"is_reserved":false,"is_disabled":false,"rental_uris":{"android":"levelo://app?vid=fc2636b6-f636-4e3b-b784-6cb5a11c5bfe","ios":"levelo://app?vid=fc2636b6-f636-4e3b-b784-6cb5a11c5bfe"},"vehicle_type_id":"4","last_reported":1738220923,"current_range_meters":32800,"station_id":"ce4bhr12rcd13ifvqhqg","pricing_plan_id":"cebpf4jnsgd1na2vs0mg"},{"bike_id":"0b25861b-717b-42df-b70d-c57c7799ec00","system_id":"levelo_inurba_marseille","lat":43.261932,"lon":5.374482,"is_reserved":false,"is_disabled":false,"rental_uris":{"android":"levelo://app?vid=0b25861b-717b-42df-b70d-c57c7799ec00","ios":"levelo://app?vid=0b25861b-717b-42df-b70d-c57c7799ec00"},"vehicle_type_id":"4","last_reported":1738220923,"current_range_meters":20000,"station_id":"ce4bhgp2rcd13ifvqfc0","pricing_plan_id":"cebpf4jnsgd1na2vs0mg"},{"bike_id":"260c3224-c3e5-4a9a-a5e4-8a6ee28f69e2","system_id":"levelo_inurba_marseille","lat":43.28106,"lon":5.37866,"is_reserved":false,"is_disabled":false,"rental_uris":{"android":"levelo://app?vid=260c3224-c3e5-4a9a-a5e4-8a6ee28f69e2","ios":"levelo://app?vid=260c3224-c3e5-4a9a-a5e4-8a6ee28f69e2"},"vehicle_type_id":"4","last_reported":1738220923,"current_range_meters":30800,"station_id":"ce4bha12rcd13ifvqee0","pricing_plan_id":"cebpf4jnsgd1na2vs0mg"},{"bike_id":"13da3b75-536b-4260-bc06-acbd5c63dff9","system_id":"levelo_inurba_marseille","lat":43.23184,"lon":5.39993,"is_reserved":false,"is_disabled":false,"rental_uris":{"android":"levelo://app?vid=13da3b75-536b-4260-bc06-acbd5c63dff9","ios":"levelo://app?vid=13da3b75-536b-4260-bc06-acbd5c63dff9"},"vehicle_type_id":"4","last_reported":1738220923,"current_range_meters":38400,"station_id":"ce4bhn12rcd13ifvqgqg","pricing_plan_id":"cebpf4jnsgd1na2vs0mg"},{"bike_id":"c7d3cd14-c17e-40b6-ad28-95f8e7b23957","system_id":"levelo_inurba_marseille","lat":43.25708,"lon":5.41114,"is_reserved":false,"is_disabled":false,"rental_uris":{"android":"levelo://app?vid=c7d3cd14-c17e-40b6-ad28-95f8e7b23957","ios":"levelo://app?vid=c7d3cd14-c17e-40b6-ad28-95f8e7b23957"},"vehicle_type_id":"4","last_reported":1738220923,"current_range_meters":38800,"station_id":"ce4bhkp2rcd13ifvqgd0","pricing_plan_id":"cebpf4jnsgd1na2vs0mg"},{"bike_id":"dcc09b49-a81a-42a9-a8e6-ed8eb579a833","system_id":"levelo_inurba_marseille","lat":43.31078,"lon":5.42441,"is_reserved":false,"is_disabled":false,"rental_uris":{"android":"levelo://app?vid=dcc09b49-a81a-42a9-a8e6-ed8eb579a833","ios":"levelo://app?vid=dcc09b49-a81a-42a9-a8e6-ed8eb579a833"},"vehicle_type_id":"4","last_reported":1738220923,"current_range_meters":6000,"station_id":"ce4bhp92rcd13ifvqhag","pricing_plan_id":"cebpf4jnsgd1na2vs0mg"},{"bike_id":"ba31f84e-cbe5-49e8-9983-339e553731ce","system_id":"levelo_inurba_marseille","lat":43.32649,"lon":5.40994,"is_reserved":false,"is_disabled":true,"rental_uris":{"android":"levelo://app?vid=ba31f84e-cbe5-49e8-9983-339e553731ce","ios":"levelo://app?vid=ba31f84e-cbe5-49e8-9983-339e553731ce"},"vehicle_type_id":"4","last_reported":1738220923,"current_range_meters":0,"station_id":"ce4bhpp2rcd13ifvqhgg","pricing_plan_id":"cebpf4jnsgd1na2vs0mg"},{"bike_id":"208b0349-a5f9-4ad5-ad20-594f159f8b13","system_id":"levelo_inurba_marseille","lat":43.29031,"lon":5.38649,"is_reserved":false,"is_disabled":false,"rental_uris":{"android":"levelo://app?vid=208b0349-a5f9-4ad5-ad20-594f159f8b13","ios":"levelo://app?vid=208b0349-a5f9-4ad5-ad20-594f159f8b13"},"vehicle_type_id":"4","last_reported":1738220923,"current_range_meters":30800,"station_id":"ce4bh4p2rcd13ifvqe0g","pricing_plan_id":"cebpf4jnsgd1na2vs0mg"},{"bike_id":"5f8ad610-27bd-4d90-b382-023cf7ae6327","system_id":"levelo_inurba_marseille","lat":43.2894,"lon":5.39638,"is_reserved":false,"is_disabled":false,"rental_uris":{"android":"levelo://app?vid=5f8ad610-27bd-4d90-b382-023cf7ae6327","ios":"levelo://app?vid=5f8ad610-27bd-4d90-b382-023cf7ae6327"},"vehicle_type_id":"4","last_reported":1738220923,"current_range_meters":38400,"station_id":"ce4bh3h2rcd13ifvqdn0","pricing_plan_id":"cebpf4jnsgd1na2vs0mg"},{"bike_id":"dd195832-ff3f-4763-a260-74003ef7ff4c","system_id":"levelo_inurba_marseille","lat":43.2922,"lon":5.36039,"is_reserved":false,"is_disabled":false,"rental_uris":{"android":"levelo://app?vid=dd195832-ff3f-4763-a260-74003ef7ff4c","ios":"levelo://app?vid=dd195832-ff3f-4763-a260-74003ef7ff4c"},"vehicle_type_id":"4","last_reported":1738220923,"current_range_meters":30400,"station_id":"ce4bhbh2rcd13ifvqeqg","pricing_plan_id":"cebpf4jnsgd1na2vs0mg"},{"bike_id":"ee757b3c-1b66-4688-957f-c178b479b260","system_id":"levelo_inurba_marseille","lat":43.284313,"lon":5.391865,"is_reserved":false,"is_disabled":false,"rental_uris":{"android":"levelo://app?vid=ee757b3c-1b66-4688-957f-c178b479b260","ios":"levelo://app?vid=ee757b3c-1b66-4688-957f-c178b479b260"},"vehicle_type_id":"4","last_reported":1738220923,"current_range_meters":26800,"station_id":"ce4bhoh2rcd13ifvqh5g","pricing_plan_id":"cebpf4jnsgd1na2vs0mg"},{"bike_id":"c5dcf720-29ec-4d44-b13b-6a26ae6217c5","system_id":"levelo_inurba_marseille","lat":43.28334,"lon":5.38144,"is_reserved":false,"is_disabled":false,"rental_uris":{"android":"levelo://app?vid=c5dcf720-29ec-4d44-b13b-6a26ae6217c5","ios":"levelo://app?vid=c5dcf720-29ec-4d44-b13b-6a26ae6217c5"},"vehicle_type_id":"4","last_reported":1738220923,"current_range_meters":27600,"station_id":"ce4bh412rcd13ifvqdr0","pricing_plan_id":"cebpf4jnsgd1na2vs0mg"},{"bike_id":"c1d1ce73-8f8f-42c4-8303-66858ad4f592","system_id":"levelo_inurba_marseille","lat":43.2749,"lon":5.42426,"is_reserved":false,"is_disabled":true,"rental_uris":{"android":"levelo://app?vid=c1d1ce73-8f8f-42c4-8303-66858ad4f592","ios":"levelo://app?vid=c1d1ce73-8f8f-42c4-8303-66858ad4f592"},"vehicle_type_id":"4","last_reported":1738220923,"current_range_meters":24800,"station_id":"ce4bhn92rcd13ifvqgrg","pricing_plan_id":"cebpf4jnsgd1na2vs0mg"},{"bike_id":"069d41e3-e2ea-4605-b9ad-d91a62d0b834","system_id":"levelo_inurba_marseille","lat":43.28479,"lon":5.3855,"is_reserved":false,"is_disabled":false,"rental_uris":{"android":"levelo://app?vid=069d41e3-e2ea-4605-b9ad-d91a62d0b834","ios":"levelo://app?vid=069d41e3-e2ea-4605-b9ad-d91a62d0b834"},"vehicle_type_id":"4","last_reported":1738220923,"current_range_meters":39200,"station_id":"ce4bh8p2rcd13ifvqeb0","pricing_plan_id":"cebpf4jnsgd1na2vs0mg"},{"bike_id":"71f34f72-d3b7-46a5-9bd4-1fe057b3152f","system_id":"levelo_inurba_marseille","lat":43.229359,"lon":5.353778,"is_reserved":false,"is_disabled":false,"rental_uris":{"android":"levelo://app?vid=71f34f72-d3b7-46a5-9bd4-1fe057b3152f","ios":"levelo://app?vid=71f34f72-d3b7-46a5-9bd4-1fe057b3152f"},"vehicle_type_id":"4","last_reported":1738220923,"current_range_meters":39200,"station_id":"cpo3532slgdg3j2ikp40","pricing_plan_id":"cebpf4jnsgd1na2vs0mg"},{"bike_id":"66c12baa-9477-443c-ad62-ceeda86c1e58","system_id":"levelo_inurba_marseille","lat":43.25866,"lon":5.3991,"is_reserved":false,"is_disabled":false,"rental_uris":{"android":"levelo://app?vid=66c12baa-9477-443c-ad62-ceeda86c1e58","ios":"levelo://app?vid=66c12baa-9477-443c-ad62-ceeda86c1e58"},"vehicle_type_id":"4","last_reported":1738220923,"current_range_meters":3200,"station_id":"ce4bhl92rcd13ifvqghg","pricing_plan_id":"cebpf4jnsgd1na2vs0mg"},{"bike_id":"20029bdd-9f9c-4ff9-86e4-5ba6ed30f46a","system_id":"levelo_inurba_marseille","lat":43.23147,"lon":5.4371,"is_reserved":false,"is_disabled":true,"rental_uris":{"android":"levelo://app?vid=20029bdd-9f9c-4ff9-86e4-5ba6ed30f46a","ios":"levelo://app?vid=20029bdd-9f9c-4ff9-86e4-5ba6ed30f46a"},"vehicle_type_id":"4","last_reported":1738220923,"current_range_meters":0,"station_id":"ce4bhmp2rcd13ifvqgog","pricing_plan_id":"cebpf4jnsgd1na2vs0mg"},{"bike_id":"de8bed2d-3ac5-40e7-a112-1349b213284e","system_id":"levelo_inurba_marseille","lat":43.28353,"lon":5.38113,"is_reserved":false,"is_disabled":false,"rental_uris":{"android":"levelo://app?vid=de8bed2d-3ac5-40e7-a112-1349b213284e","ios":"levelo://app?vid=de8bed2d-3ac5-40e7-a112-1349b213284e"},"vehicle_type_id":"4","last_reported":1738220923,"current_range_meters":33200,"station_id":"ce4bh412rcd13ifvqdr0","pricing_plan_id":"cebpf4jnsgd1na2vs0mg"},{"bike_id":"a335131c-b12c-433f-9f2c-1edb5549eb18","system_id":"levelo_inurba_marseille","lat":43.30154,"lon":5.3808,"is_reserved":false,"is_disabled":false,"rental_uris":{"android":"levelo://app?vid=a335131c-b12c-433f-9f2c-1edb5549eb18","ios":"levelo://app?vid=a335131c-b12c-433f-9f2c-1edb5549eb18"},"vehicle_type_id":"4","last_reported":1738220923,"current_range_meters":23200,"station_id":"ce4bgjp2rcd13ifvqbh0","pricing_plan_id":"cebpf4jnsgd1na2vs0mg"},{"bike_id":"54be9070-7190-4bee-be47-845d7f7f7fa0","system_id":"levelo_inurba_marseille","lat":43.30137,"lon":5.38066,"is_reserved":false,"is_disabled":false,"rental_uris":{"android":"levelo://app?vid=54be9070-7190-4bee-be47-845d7f7f7fa0","ios":"levelo://app?vid=54be9070-7190-4bee-be47-845d7f7f7fa0"},"vehicle_type_id":"4","last_reported":1738220923,"current_range_meters":29600,"station_id":"ce4bgjp2rcd13ifvqbh0","pricing_plan_id":"cebpf4jnsgd1na2vs0mg"},{"bike_id":"c1c52d7b-f4b7-4049-ae1e-b30d91141d82","system_id":"levelo_inurba_marseille","lat":43.30465,"lon":5.37906,"is_reserved":false,"is_disabled":false,"rental_uris":{"android":"levelo://app?vid=c1c52d7b-f4b7-4049-ae1e-b30d91141d82","ios":"levelo://app?vid=c1c52d7b-f4b7-4049-ae1e-b30d91141d82"},"vehicle_type_id":"4","last_reported":1738220923,"current_range_meters":17200,"station_id":"ce4bgup2rcd13ifvqcn0","pricing_plan_id":"cebpf4jnsgd1na2vs0mg"},{"bike_id":"46f1f77e-98b6-4ba2-a396-1e36c4b255d1","system_id":"levelo_inurba_marseille","lat":43.28117,"lon":5.37815,"is_reserved":false,"is_disabled":false,"rental_uris":{"android":"levelo://app?vid=46f1f77e-98b6-4ba2-a396-1e36c4b255d1","ios":"levelo://app?vid=46f1f77e-98b6-4ba2-a396-1e36c4b255d1"},"vehicle_type_id":"4","last_reported":1738220923,"current_range_meters":16000,"station_id":"ce4bha12rcd13ifvqee0","pricing_plan_id":"cebpf4jnsgd1na2vs0mg"},{"bike_id":"7e417754-bc94-4584-a9ee-8bca7246b038","system_id":"levelo_inurba_marseille","lat":43.32047,"lon":5.41542,"is_reserved":false,"is_disabled":false,"rental_uris":{"android":"levelo://app?vid=7e417754-bc94-4584-a9ee-8bca7246b038","ios":"levelo://app?vid=7e417754-bc94-4584-a9ee-8bca7246b038"},"vehicle_type_id":"4","last_reported":1738220923,"current_range_meters":32400,"station_id":"ce4bhq92rcd13ifvqhkg","pricing_plan_id":"cebpf4jnsgd1na2vs0mg"},{"bike_id":"67010c49-4067-40f8-abbe-e9abaf8588d1","system_id":"levelo_inurba_marseille","lat":43.26012,"lon":5.37559,"is_reserved":false,"is_disabled":false,"rental_uris":{"android":"levelo://app?vid=67010c49-4067-40f8-abbe-e9abaf8588d1","ios":"levelo://app?vid=67010c49-4067-40f8-abbe-e9abaf8588d1"},"vehicle_type_id":"4","last_reported":1738220923,"current_range_meters":37600,"station_id":"ce4bhgh2rcd13ifvqfa0","pricing_plan_id":"cebpf4jnsgd1na2vs0mg"},{"bike_id":"bee89fe1-75de-4aa4-8834-a29197d70af2","system_id":"levelo_inurba_marseille","lat":43.30824,"lon":5.37125,"is_reserved":false,"is_disabled":true,"rental_uris":{"android":"levelo://app?vid=bee89fe1-75de-4aa4-8834-a29197d70af2","ios":"levelo://app?vid=bee89fe1-75de-4aa4-8834-a29197d70af2"},"vehicle_type_id":"4","last_reported":1738220923,"current_range_meters":0,"station_id":"","pricing_plan_id":"cebpf4jnsgd1na2vs0mg"},{"bike_id":"2ec84c22-8666-467b-b9ab-b38e4ac8ff9f","system_id":"levelo_inurba_marseille","lat":43.29888,"lon":5.43665,"is_reserved":false,"is_disabled":true,"rental_uris":{"android":"levelo://app?vid=2ec84c22-8666-467b-b9ab-b38e4ac8ff9f","ios":"levelo://app?vid=2ec84c22-8666-467b-b9ab-b38e4ac8ff9f"},"vehicle_type_id":"4","last_reported":1738220923,"current_range_meters":30000,"station_id":"ce4bhpp2rcd13ifvqhfg","pricing_plan_id":"cebpf4jnsgd1na2vs0mg"},{"bike_id":"ff7489a8-525d-444a-ae7d-2db32a4a8d61","system_id":"levelo_inurba_marseille","lat":43.29601,"lon":5.38111,"is_reserved":false,"is_disabled":false,"rental_uris":{"android":"levelo://app?vid=ff7489a8-525d-444a-ae7d-2db32a4a8d61","ios":"levelo://app?vid=ff7489a8-525d-444a-ae7d-2db32a4a8d61"},"vehicle_type_id":"4","last_reported":1738220923,"current_range_meters":3200,"station_id":"ce4bgl12rcd13ifvqbo0","pricing_plan_id":"cebpf4jnsgd1na2vs0mg"},{"bike_id":"c9c17ac2-0e98-4af0-a11c-93d69a9b620f","system_id":"levelo_inurba_marseille","lat":43.2862,"lon":5.35103,"is_reserved":false,"is_disabled":false,"rental_uris":{"android":"levelo://app?vid=c9c17ac2-0e98-4af0-a11c-93d69a9b620f","ios":"levelo://app?vid=c9c17ac2-0e98-4af0-a11c-93d69a9b620f"},"vehicle_type_id":"4","last_reported":1738220923,"current_range_meters":32800,"station_id":"ce4bhch2rcd13ifvqeug","pricing_plan_id":"cebpf4jnsgd1na2vs0mg"},{"bike_id":"9ea78203-8f98-4ce9-a46f-06802a5df390","system_id":"levelo_inurba_marseille","lat":43.23187,"lon":5.39983,"is_reserved":false,"is_disabled":false,"rental_uris":{"android":"levelo://app?vid=9ea78203-8f98-4ce9-a46f-06802a5df390","ios":"levelo://app?vid=9ea78203-8f98-4ce9-a46f-06802a5df390"},"vehicle_type_id":"4","last_reported":1738220923,"current_range_meters":9600,"station_id":"ce4bhn12rcd13ifvqgqg","pricing_plan_id":"cebpf4jnsgd1na2vs0mg"},{"bike_id":"19329eb2-7113-41d0-b698-36ef23b4839f","system_id":"levelo_inurba_marseille","lat":43.24066,"lon":5.37762,"is_reserved":false,"is_disabled":false,"rental_uris":{"android":"levelo://app?vid=19329eb2-7113-41d0-b698-36ef23b4839f","ios":"levelo://app?vid=19329eb2-7113-41d0-b698-36ef23b4839f"},"vehicle_type_id":"4","last_reported":1738220923,"current_range_meters":28800,"station_id":"ce4bhnp2rcd13ifvqgvg","pricing_plan_id":"cebpf4jnsgd1na2vs0mg"},{"bike_id":"296acca2-a355-4830-bc97-a6939a85f573","system_id":"levelo_inurba_marseille","lat":43.25561,"lon":5.38246,"is_reserved":false,"is_disabled":false,"rental_uris":{"android":"levelo://app?vid=296acca2-a355-4830-bc97-a6939a85f573","ios":"levelo://app?vid=296acca2-a355-4830-bc97-a6939a85f573"},"vehicle_type_id":"4","last_reported":1738220923,"current_range_meters":20000,"station_id":"ce4bhih2rcd13ifvqfs0","pricing_plan_id":"cebpf4jnsgd1na2vs0mg"},{"bike_id":"dfe58fe0-b8d2-4782-acf6-aaa6ebac6920","system_id":"levelo_inurba_marseille","lat":43.29516,"lon":5.39031,"is_reserved":false,"is_disabled":false,"rental_uris":{"android":"levelo://app?vid=dfe58fe0-b8d2-4782-acf6-aaa6ebac6920","ios":"levelo://app?vid=dfe58fe0-b8d2-4782-acf6-aaa6ebac6920"},"vehicle_type_id":"4","last_reported":1738220923,"current_range_meters":38400,"station_id":"ce4bh3p2rcd13ifvqdp0","pricing_plan_id":"cebpf4jnsgd1na2vs0mg"},{"bike_id":"69311afe-3d11-4d33-bd7f-5a46e643a98b","system_id":"levelo_inurba_marseille","lat":43.2706,"lon":5.40256,"is_reserved":false,"is_disabled":false,"rental_uris":{"android":"levelo://app?vid=69311afe-3d11-4d33-bd7f-5a46e643a98b","ios":"levelo://app?vid=69311afe-3d11-4d33-bd7f-5a46e643a98b"},"vehicle_type_id":"4","last_reported":1738220923,"current_range_meters":16800,"station_id":"ce4bhk92rcd13ifvqgc0","pricing_plan_id":"cebpf4jnsgd1na2vs0mg"},{"bike_id":"925464aa-a3c8-43ea-bb06-cf2b7a19f94d","system_id":"levelo_inurba_marseille","lat":43.26067,"lon":5.39398,"is_reserved":false,"is_disabled":false,"rental_uris":{"android":"levelo://app?vid=925464aa-a3c8-43ea-bb06-cf2b7a19f94d","ios":"levelo://app?vid=925464aa-a3c8-43ea-bb06-cf2b7a19f94d"},"vehicle_type_id":"4","last_reported":1738220923,"current_range_meters":36000,"station_id":"ce4bhh92rcd13ifvqfj0","pricing_plan_id":"cebpf4jnsgd1na2vs0mg"},{"bike_id":"ddd46040-8311-4f5c-89c2-37543ac9c47d","system_id":"levelo_inurba_marseille","lat":43.30355,"lon":5.41862,"is_reserved":false,"is_disabled":false,"rental_uris":{"android":"levelo://app?vid=ddd46040-8311-4f5c-89c2-37543ac9c47d","ios":"levelo://app?vid=ddd46040-8311-4f5c-89c2-37543ac9c47d"},"vehicle_type_id":"4","last_reported":1738220923,"current_range_meters":28800,"station_id":"ce4bhop2rcd13ifvqh7g","pricing_plan_id":"cebpf4jnsgd1na2vs0mg"},{"bike_id":"ca7b2926-e8c1-4f42-9e75-cc7bc1067448","system_id":"levelo_inurba_marseille","lat":43.29037,"lon":5.3862,"is_reserved":false,"is_disabled":false,"rental_uris":{"android":"levelo://app?vid=ca7b2926-e8c1-4f42-9e75-cc7bc1067448","ios":"levelo://app?vid=ca7b2926-e8c1-4f42-9e75-cc7bc1067448"},"vehicle_type_id":"4","last_reported":1738220923,"current_range_meters":38000,"station_id":"ce4bh4p2rcd13ifvqe0g","pricing_plan_id":"cebpf4jnsgd1na2vs0mg"},{"bike_id":"b176c437-3791-45a7-95a3-ec2019ff516f","system_id":"levelo_inurba_marseille","lat":43.24069,"lon":5.37764,"is_reserved":false,"is_disabled":false,"rental_uris":{"android":"levelo://app?vid=b176c437-3791-45a7-95a3-ec2019ff516f","ios":"levelo://app?vid=b176c437-3791-45a7-95a3-ec2019ff516f"},"vehicle_type_id":"4","last_reported":1738220923,"current_range_meters":31200,"station_id":"ce4bhnp2rcd13ifvqgvg","pricing_plan_id":"cebpf4jnsgd1na2vs0mg"},{"bike_id":"f8d9467f-c25f-4946-9de2-df6f7f0e4b8c","system_id":"levelo_inurba_marseille","lat":43.26068,"lon":5.39396,"is_reserved":false,"is_disabled":true,"rental_uris":{"android":"levelo://app?vid=f8d9467f-c25f-4946-9de2-df6f7f0e4b8c","ios":"levelo://app?vid=f8d9467f-c25f-4946-9de2-df6f7f0e4b8c"},"vehicle_type_id":"4","last_reported":1738220923,"current_range_meters":0,"station_id":"ce4bhh92rcd13ifvqfj0","pricing_plan_id":"cebpf4jnsgd1na2vs0mg"},{"bike_id":"569e7639-0d2d-4483-b72d-c146ab3b52b9","system_id":"levelo_inurba_marseille","lat":43.30779,"lon":5.37645,"is_reserved":false,"is_disabled":false,"rental_uris":{"android":"levelo://app?vid=569e7639-0d2d-4483-b72d-c146ab3b52b9","ios":"levelo://app?vid=569e7639-0d2d-4483-b72d-c146ab3b52b9"},"vehicle_type_id":"4","last_reported":1738220923,"current_range_meters":27600,"station_id":"ce4bgv92rcd13ifvqcq0","pricing_plan_id":"cebpf4jnsgd1na2vs0mg"},{"bike_id":"91cb2014-9ed5-41df-9ec7-498ff48f70b1","system_id":"levelo_inurba_marseille","lat":43.319483,"lon":5.364102,"is_reserved":false,"is_disabled":false,"rental_uris":{"android":"levelo://app?vid=91cb2014-9ed5-41df-9ec7-498ff48f70b1","ios":"levelo://app?vid=91cb2014-9ed5-41df-9ec7-498ff48f70b1"},"vehicle_type_id":"4","last_reported":1738220923,"current_range_meters":20400,"station_id":"ce4bhrh2rcd13ifvqhug","pricing_plan_id":"cebpf4jnsgd1na2vs0mg"},{"bike_id":"35a5c402-13ca-468f-8a93-76197813b571","system_id":"levelo_inurba_marseille","lat":43.259329,"lon":5.40893,"is_reserved":false,"is_disabled":true,"rental_uris":{"android":"levelo://app?vid=35a5c402-13ca-468f-8a93-76197813b571","ios":"levelo://app?vid=35a5c402-13ca-468f-8a93-76197813b571"},"vehicle_type_id":"4","last_reported":1738220923,"current_range_meters":38000,"station_id":"ce4bhm92rcd13ifvqglg","pricing_plan_id":"cebpf4jnsgd1na2vs0mg"},{"bike_id":"e3c5a10e-948d-477c-91ce-8c835a7fe362","system_id":"levelo_inurba_marseille","lat":43.28075,"lon":5.39697,"is_reserved":false,"is_disabled":true,"rental_uris":{"android":"levelo://app?vid=e3c5a10e-948d-477c-91ce-8c835a7fe362","ios":"levelo://app?vid=e3c5a10e-948d-477c-91ce-8c835a7fe362"},"vehicle_type_id":"4","last_reported":1738220923,"current_range_meters":0,"station_id":"ce4bho12rcd13ifvqh2g","pricing_plan_id":"cebpf4jnsgd1na2vs0mg"},{"bike_id":"f9d35a32-65b2-4842-bd83-8cbe10324274","system_id":"levelo_inurba_marseille","lat":43.28662,"lon":5.3508,"is_reserved":false,"is_disabled":false,"rental_uris":{"android":"levelo://app?vid=f9d35a32-65b2-4842-bd83-8cbe10324274","ios":"levelo://app?vid=f9d35a32-65b2-4842-bd83-8cbe10324274"},"vehicle_type_id":"4","last_reported":1738220923,"current_range_meters":18800,"station_id":"ce4bhch2rcd13ifvqeug","pricing_plan_id":"cebpf4jnsgd1na2vs0mg"},{"bike_id":"258c223c-46d6-47bb-80c4-3b4c4df01fd5","system_id":"levelo_inurba_marseille","lat":43.29253,"lon":5.38434,"is_reserved":false,"is_disabled":true,"rental_uris":{"android":"levelo://app?vid=258c223c-46d6-47bb-80c4-3b4c4df01fd5","ios":"levelo://app?vid=258c223c-46d6-47bb-80c4-3b4c4df01fd5"},"vehicle_type_id":"4","last_reported":1738220923,"current_range_meters":0,"station_id":"ce4bh692rcd13ifvqea0","pricing_plan_id":"cebpf4jnsgd1na2vs0mg"},{"bike_id":"7f732861-8b69-4d78-8c4f-fcf87f1518c2","system_id":"levelo_inurba_marseille","lat":43.28079,"lon":5.39656,"is_reserved":false,"is_disabled":false,"rental_uris":{"android":"levelo://app?vid=7f732861-8b69-4d78-8c4f-fcf87f1518c2","ios":"levelo://app?vid=7f732861-8b69-4d78-8c4f-fcf87f1518c2"},"vehicle_type_id":"4","last_reported":1738220923,"current_range_meters":38800,"station_id":"ce4bho12rcd13ifvqh2g","pricing_plan_id":"cebpf4jnsgd1na2vs0mg"},{"bike_id":"93db4405-564f-437d-ae8e-20bd9ff94856","system_id":"levelo_inurba_marseille","lat":43.28362,"lon":5.38107,"is_reserved":false,"is_disabled":false,"rental_uris":{"android":"levelo://app?vid=93db4405-564f-437d-ae8e-20bd9ff94856","ios":"levelo://app?vid=93db4405-564f-437d-ae8e-20bd9ff94856"},"vehicle_type_id":"4","last_reported":1738220923,"current_range_meters":35600,"station_id":"ce4bh412rcd13ifvqdr0","pricing_plan_id":"cebpf4jnsgd1na2vs0mg"},{"bike_id":"557092c3-b142-4a52-a865-d8c9a87da7d2","system_id":"levelo_inurba_marseille","lat":43.24645,"lon":5.38899,"is_reserved":false,"is_disabled":false,"rental_uris":{"android":"levelo://app?vid=557092c3-b142-4a52-a865-d8c9a87da7d2","ios":"levelo://app?vid=557092c3-b142-4a52-a865-d8c9a87da7d2"},"vehicle_type_id":"4","last_reported":1738220923,"current_range_meters":37600,"station_id":"ce4bhg12rcd13ifvqf60","pricing_plan_id":"cebpf4jnsgd1na2vs0mg"},{"bike_id":"b36c906d-b87a-42e3-922f-8e83776e60de","system_id":"levelo_inurba_marseille","lat":43.31346,"lon":5.36711,"is_reserved":false,"is_disabled":false,"rental_uris":{"android":"levelo://app?vid=b36c906d-b87a-42e3-922f-8e83776e60de","ios":"levelo://app?vid=b36c906d-b87a-42e3-922f-8e83776e60de"},"vehicle_type_id":"4","last_reported":1738220923,"current_range_meters":38800,"station_id":"ce4bgr92rcd13ifvqc6g","pricing_plan_id":"cebpf4jnsgd1na2vs0mg"},{"bike_id":"fa47f93f-7cc8-4df0-a5d9-a1919eca26a2","system_id":"levelo_inurba_marseille","lat":43.28958,"lon":5.39611,"is_reserved":false,"is_disabled":false,"rental_uris":{"android":"levelo://app?vid=fa47f93f-7cc8-4df0-a5d9-a1919eca26a2","ios":"levelo://app?vid=fa47f93f-7cc8-4df0-a5d9-a1919eca26a2"},"vehicle_type_id":"4","last_reported":1738220923,"current_range_meters":14800,"station_id":"ce4bh3h2rcd13ifvqdn0","pricing_plan_id":"cebpf4jnsgd1na2vs0mg"},{"bike_id":"22225b21-10e6-4d8c-bc6f-3b9f59cf6008","system_id":"levelo_inurba_marseille","lat":43.3375,"lon":5.37452,"is_reserved":false,"is_disabled":false,"rental_uris":{"android":"levelo://app?vid=22225b21-10e6-4d8c-bc6f-3b9f59cf6008","ios":"levelo://app?vid=22225b21-10e6-4d8c-bc6f-3b9f59cf6008"},"vehicle_type_id":"4","last_reported":1738220923,"current_range_meters":8400,"station_id":"","pricing_plan_id":"cebpf4jnsgd1na2vs0mg"},{"bike_id":"d543a3a0-6e69-4ea4-9d64-d6577a360668","system_id":"levelo_inurba_marseille","lat":43.30378,"lon":5.41839,"is_reserved":false,"is_disabled":false,"rental_uris":{"android":"levelo://app?vid=d543a3a0-6e69-4ea4-9d64-d6577a360668","ios":"levelo://app?vid=d543a3a0-6e69-4ea4-9d64-d6577a360668"},"vehicle_type_id":"4","last_reported":1738220923,"current_range_meters":38800,"station_id":"ce4bhop2rcd13ifvqh7g","pricing_plan_id":"cebpf4jnsgd1na2vs0mg"},{"bike_id":"de37ea1b-7291-4577-9b7a-26b4987668c7","system_id":"levelo_inurba_marseille","lat":43.30474,"lon":5.37914,"is_reserved":false,"is_disabled":true,"rental_uris":{"android":"levelo://app?vid=de37ea1b-7291-4577-9b7a-26b4987668c7","ios":"levelo://app?vid=de37ea1b-7291-4577-9b7a-26b4987668c7"},"vehicle_type_id":"4","last_reported":1738220923,"current_range_meters":800,"station_id":"ce4bgup2rcd13ifvqcn0","pricing_plan_id":"cebpf4jnsgd1na2vs0mg"},{"bike_id":"30874d9e-921a-4128-a8ff-baed7746c793","system_id":"levelo_inurba_marseille","lat":43.30597,"lon":5.37238,"is_reserved":false,"is_disabled":false,"rental_uris":{"android":"levelo://app?vid=30874d9e-921a-4128-a8ff-baed7746c793","ios":"levelo://app?vid=30874d9e-921a-4128-a8ff-baed7746c793"},"vehicle_type_id":"4","last_reported":1738220923,"current_range_meters":38800,"station_id":"ce4bgqh2rcd13ifvqc4g","pricing_plan_id":"cebpf4jnsgd1na2vs0mg"},{"bike_id":"daa77b68-dd0f-4d8a-bf00-fd607cc44ed7","system_id":"levelo_inurba_marseille","lat":43.33604,"lon":5.41016,"is_reserved":false,"is_disabled":false,"rental_uris":{"android":"levelo://app?vid=daa77b68-dd0f-4d8a-bf00-fd607cc44ed7","ios":"levelo://app?vid=daa77b68-dd0f-4d8a-bf00-fd607cc44ed7"},"vehicle_type_id":"4","last_reported":1738220923,"current_range_meters":18800,"station_id":"ce4bhqh2rcd13ifvqhmg","pricing_plan_id":"cebpf4jnsgd1na2vs0mg"},{"bike_id":"6b639d07-a348-4934-af55-36f8424a445c","system_id":"levelo_inurba_marseille","lat":43.27497,"lon":5.4245,"is_reserved":false,"is_disabled":false,"rental_uris":{"android":"levelo://app?vid=6b639d07-a348-4934-af55-36f8424a445c","ios":"levelo://app?vid=6b639d07-a348-4934-af55-36f8424a445c"},"vehicle_type_id":"4","last_reported":1738220923,"current_range_meters":25200,"station_id":"ce4bhn92rcd13ifvqgrg","pricing_plan_id":"cebpf4jnsgd1na2vs0mg"},{"bike_id":"ccebac2e-dd56-4f7c-af56-6e5473a29f80","system_id":"levelo_inurba_marseille","lat":43.27987,"lon":5.41669,"is_reserved":false,"is_disabled":false,"rental_uris":{"android":"levelo://app?vid=ccebac2e-dd56-4f7c-af56-6e5473a29f80","ios":"levelo://app?vid=ccebac2e-dd56-4f7c-af56-6e5473a29f80"},"vehicle_type_id":"4","last_reported":1738220923,"current_range_meters":38400,"station_id":"ce4bho12rcd13ifvqh1g","pricing_plan_id":"cebpf4jnsgd1na2vs0mg"},{"bike_id":"1a83e08e-8773-420e-b998-03b98777c460","system_id":"levelo_inurba_marseille","lat":43.307624,"lon":5.379906,"is_reserved":false,"is_disabled":false,"rental_uris":{"android":"levelo://app?vid=1a83e08e-8773-420e-b998-03b98777c460","ios":"levelo://app?vid=1a83e08e-8773-420e-b998-03b98777c460"},"vehicle_type_id":"4","last_reported":1738220923,"current_range_meters":36000,"station_id":"","pricing_plan_id":"cebpf4jnsgd1na2vs0mg"},{"bike_id":"e3ca7f32-8d86-4e90-bd3c-4b65e42bd5fd","system_id":"levelo_inurba_marseille","lat":43.28662,"lon":5.36348,"is_reserved":false,"is_disabled":true,"rental_uris":{"android":"levelo://app?vid=e3ca7f32-8d86-4e90-bd3c-4b65e42bd5fd","ios":"levelo://app?vid=e3ca7f32-8d86-4e90-bd3c-4b65e42bd5fd"},"vehicle_type_id":"4","last_reported":1738220923,"current_range_meters":1600,"station_id":"ce4bhah2rcd13ifvqej0","pricing_plan_id":"cebpf4jnsgd1na2vs0mg"},{"bike_id":"3ad10b32-c1b1-4c7a-9f3c-30dcc350bc0c","system_id":"levelo_inurba_marseille","lat":43.2795,"lon":5.41045,"is_reserved":false,"is_disabled":false,"rental_uris":{"android":"levelo://app?vid=3ad10b32-c1b1-4c7a-9f3c-30dcc350bc0c","ios":"levelo://app?vid=3ad10b32-c1b1-4c7a-9f3c-30dcc350bc0c"},"vehicle_type_id":"4","last_reported":1738220923,"current_range_meters":8400,"station_id":"ce4bhnp2rcd13ifvqh0g","pricing_plan_id":"cebpf4jnsgd1na2vs0mg"},{"bike_id":"2ab0b9e6-a4f5-453d-8d41-836266cf4b86","system_id":"levelo_inurba_marseille","lat":43.30467,"lon":5.37913,"is_reserved":false,"is_disabled":false,"rental_uris":{"android":"levelo://app?vid=2ab0b9e6-a4f5-453d-8d41-836266cf4b86","ios":"levelo://app?vid=2ab0b9e6-a4f5-453d-8d41-836266cf4b86"},"vehicle_type_id":"4","last_reported":1738220923,"current_range_meters":6800,"station_id":"ce4bgup2rcd13ifvqcn0","pricing_plan_id":"cebpf4jnsgd1na2vs0mg"},{"bike_id":"8382186f-0d25-40e6-beca-2632cc8590f2","system_id":"levelo_inurba_marseille","lat":43.295523,"lon":5.422827,"is_reserved":false,"is_disabled":true,"rental_uris":{"android":"levelo://app?vid=8382186f-0d25-40e6-beca-2632cc8590f2","ios":"levelo://app?vid=8382186f-0d25-40e6-beca-2632cc8590f2"},"vehicle_type_id":"4","last_reported":1738220923,"current_range_meters":9600,"station_id":"ce4bhph2rcd13ifvqhdg","pricing_plan_id":"cebpf4jnsgd1na2vs0mg"},{"bike_id":"c22553b8-e979-4a36-becf-dd2f233120b8","system_id":"levelo_inurba_marseille","lat":43.30678,"lon":5.40105,"is_reserved":false,"is_disabled":true,"rental_uris":{"android":"levelo://app?vid=c22553b8-e979-4a36-becf-dd2f233120b8","ios":"levelo://app?vid=c22553b8-e979-4a36-becf-dd2f233120b8"},"vehicle_type_id":"4","last_reported":1738220923,"current_range_meters":9600,"station_id":"ce4bh112rcd13ifvqda0","pricing_plan_id":"cebpf4jnsgd1na2vs0mg"},{"bike_id":"c2b2ab1c-6609-49aa-985b-495f6e0b0ef3","system_id":"levelo_inurba_marseille","lat":43.30481,"lon":5.37893,"is_reserved":false,"is_disabled":false,"rental_uris":{"android":"levelo://app?vid=c2b2ab1c-6609-49aa-985b-495f6e0b0ef3","ios":"levelo://app?vid=c2b2ab1c-6609-49aa-985b-495f6e0b0ef3"},"vehicle_type_id":"4","last_reported":1738220923,"current_range_meters":32000,"station_id":"ce4bgup2rcd13ifvqcn0","pricing_plan_id":"cebpf4jnsgd1na2vs0mg"},{"bike_id":"70f0c963-8c36-418f-a110-4edb8ff73131","system_id":"levelo_inurba_marseille","lat":43.29537,"lon":5.39391,"is_reserved":false,"is_disabled":true,"rental_uris":{"android":"levelo://app?vid=70f0c963-8c36-418f-a110-4edb8ff73131","ios":"levelo://app?vid=70f0c963-8c36-418f-a110-4edb8ff73131"},"vehicle_type_id":"4","last_reported":1738220923,"current_range_meters":33600,"station_id":"ce4bh292rcd13ifvqdf0","pricing_plan_id":"cebpf4jnsgd1na2vs0mg"},{"bike_id":"b6a6b106-c0a9-4afa-ad24-a5822ef23f96","system_id":"levelo_inurba_marseille","lat":43.28243,"lon":5.35073,"is_reserved":false,"is_disabled":false,"rental_uris":{"android":"levelo://app?vid=b6a6b106-c0a9-4afa-ad24-a5822ef23f96","ios":"levelo://app?vid=b6a6b106-c0a9-4afa-ad24-a5822ef23f96"},"vehicle_type_id":"4","last_reported":1738220923,"current_range_meters":38000,"station_id":"ce4bhbp2rcd13ifvqerg","pricing_plan_id":"cebpf4jnsgd1na2vs0mg"},{"bike_id":"d7948e25-84ea-46b8-8dd2-fbdb2a4b3d83","system_id":"levelo_inurba_marseille","lat":43.29306,"lon":5.37474,"is_reserved":false,"is_disabled":true,"rental_uris":{"android":"levelo://app?vid=d7948e25-84ea-46b8-8dd2-fbdb2a4b3d83","ios":"levelo://app?vid=d7948e25-84ea-46b8-8dd2-fbdb2a4b3d83"},"vehicle_type_id":"4","last_reported":1738220923,"current_range_meters":3600,"station_id":"ce4bgi12rcd13ifvqb70","pricing_plan_id":"cebpf4jnsgd1na2vs0mg"},{"bike_id":"df7d8f6a-5b66-47de-b5fc-4c59f37d7e14","system_id":"levelo_inurba_marseille","lat":43.29171,"lon":5.35811,"is_reserved":false,"is_disabled":false,"rental_uris":{"android":"levelo://app?vid=df7d8f6a-5b66-47de-b5fc-4c59f37d7e14","ios":"levelo://app?vid=df7d8f6a-5b66-47de-b5fc-4c59f37d7e14"},"vehicle_type_id":"4","last_reported":1738220923,"current_range_meters":38800,"station_id":"ce4bhb12rcd13ifvqel0","pricing_plan_id":"cebpf4jnsgd1na2vs0mg"},{"bike_id":"8a3ec8f9-6043-4136-98e0-7ea9b4dfbb3c","system_id":"levelo_inurba_marseille","lat":43.27841,"lon":5.391994,"is_reserved":false,"is_disabled":false,"rental_uris":{"android":"levelo://app?vid=8a3ec8f9-6043-4136-98e0-7ea9b4dfbb3c","ios":"levelo://app?vid=8a3ec8f9-6043-4136-98e0-7ea9b4dfbb3c"},"vehicle_type_id":"4","last_reported":1738220923,"current_range_meters":39200,"station_id":"ce4bhjp2rcd13ifvqga0","pricing_plan_id":"cebpf4jnsgd1na2vs0mg"},{"bike_id":"95a8a294-2cc0-4238-a871-149baed5d982","system_id":"levelo_inurba_marseille","lat":43.34141,"lon":5.40906,"is_reserved":false,"is_disabled":false,"rental_uris":{"android":"levelo://app?vid=95a8a294-2cc0-4238-a871-149baed5d982","ios":"levelo://app?vid=95a8a294-2cc0-4238-a871-149baed5d982"},"vehicle_type_id":"4","last_reported":1738220923,"current_range_meters":36400,"station_id":"ce4bhqh2rcd13ifvqhlg","pricing_plan_id":"cebpf4jnsgd1na2vs0mg"},{"bike_id":"26a7be3b-618e-488d-a9b6-8d123c7e0a10","system_id":"levelo_inurba_marseille","lat":43.2439,"lon":5.37068,"is_reserved":false,"is_disabled":false,"rental_uris":{"android":"levelo://app?vid=26a7be3b-618e-488d-a9b6-8d123c7e0a10","ios":"levelo://app?vid=26a7be3b-618e-488d-a9b6-8d123c7e0a10"},"vehicle_type_id":"4","last_reported":1738220923,"current_range_meters":33600,"station_id":"ce4bhhh2rcd13ifvqfk0","pricing_plan_id":"cebpf4jnsgd1na2vs0mg"},{"bike_id":"46a4f7c0-dc37-4682-82e2-99f6da91ba53","system_id":"levelo_inurba_marseille","lat":43.28936,"lon":5.39637,"is_reserved":false,"is_disabled":false,"rental_uris":{"android":"levelo://app?vid=46a4f7c0-dc37-4682-82e2-99f6da91ba53","ios":"levelo://app?vid=46a4f7c0-dc37-4682-82e2-99f6da91ba53"},"vehicle_type_id":"4","last_reported":1738220923,"current_range_meters":26000,"station_id":"ce4bh3h2rcd13ifvqdn0","pricing_plan_id":"cebpf4jnsgd1na2vs0mg"},{"bike_id":"f2cd1694-cbcf-4b6f-9463-8b28ee8d6f4b","system_id":"levelo_inurba_marseille","lat":43.230564,"lon":5.354938,"is_reserved":false,"is_disabled":false,"rental_uris":{"android":"levelo://app?vid=f2cd1694-cbcf-4b6f-9463-8b28ee8d6f4b","ios":"levelo://app?vid=f2cd1694-cbcf-4b6f-9463-8b28ee8d6f4b"},"vehicle_type_id":"4","last_reported":1738220923,"current_range_meters":18800,"station_id":"cpo3342slgdg3j2ifvpg","pricing_plan_id":"cebpf4jnsgd1na2vs0mg"},{"bike_id":"0a2fd205-d616-4064-aa75-d4d529957d90","system_id":"levelo_inurba_marseille","lat":43.23065,"lon":5.35497,"is_reserved":false,"is_disabled":false,"rental_uris":{"android":"levelo://app?vid=0a2fd205-d616-4064-aa75-d4d529957d90","ios":"levelo://app?vid=0a2fd205-d616-4064-aa75-d4d529957d90"},"vehicle_type_id":"4","last_reported":1738220923,"current_range_meters":25600,"station_id":"cpo3342slgdg3j2ifvpg","pricing_plan_id":"cebpf4jnsgd1na2vs0mg"},{"bike_id":"caa3b876-5f99-445e-9f14-a49dcdc1cc85","system_id":"levelo_inurba_marseille","lat":43.292,"lon":5.35802,"is_reserved":false,"is_disabled":false,"rental_uris":{"android":"levelo://app?vid=caa3b876-5f99-445e-9f14-a49dcdc1cc85","ios":"levelo://app?vid=caa3b876-5f99-445e-9f14-a49dcdc1cc85"},"vehicle_type_id":"4","last_reported":1738220923,"current_range_meters":38800,"station_id":"ce4bhb12rcd13ifvqel0","pricing_plan_id":"cebpf4jnsgd1na2vs0mg"},{"bike_id":"386742fa-28fc-4cf2-b8c5-1ededf3d0525","system_id":"levelo_inurba_marseille","lat":43.28286,"lon":5.35072,"is_reserved":false,"is_disabled":false,"rental_uris":{"android":"levelo://app?vid=386742fa-28fc-4cf2-b8c5-1ededf3d0525","ios":"levelo://app?vid=386742fa-28fc-4cf2-b8c5-1ededf3d0525"},"vehicle_type_id":"4","last_reported":1738220923,"current_range_meters":38800,"station_id":"ce4bhbp2rcd13ifvqerg","pricing_plan_id":"cebpf4jnsgd1na2vs0mg"},{"bike_id":"4238cfc4-f3d9-4b2e-be79-559974754111","system_id":"levelo_inurba_marseille","lat":43.26501,"lon":5.39556,"is_reserved":false,"is_disabled":false,"rental_uris":{"android":"levelo://app?vid=4238cfc4-f3d9-4b2e-be79-559974754111","ios":"levelo://app?vid=4238cfc4-f3d9-4b2e-be79-559974754111"},"vehicle_type_id":"4","last_reported":1738220923,"current_range_meters":38800,"station_id":"ce4bhi12rcd13ifvqfq0","pricing_plan_id":"cebpf4jnsgd1na2vs0mg"},{"bike_id":"851692c4-6ece-4a71-ba19-f442921d2278","system_id":"levelo_inurba_marseille","lat":43.298965,"lon":5.436619,"is_reserved":false,"is_disabled":false,"rental_uris":{"android":"levelo://app?vid=851692c4-6ece-4a71-ba19-f442921d2278","ios":"levelo://app?vid=851692c4-6ece-4a71-ba19-f442921d2278"},"vehicle_type_id":"4","last_reported":1738220923,"current_range_meters":38800,"station_id":"ce4bhpp2rcd13ifvqhfg","pricing_plan_id":"cebpf4jnsgd1na2vs0mg"},{"bike_id":"478bb8c8-b920-41b2-9b13-22266349dac7","system_id":"levelo_inurba_marseille","lat":43.27052,"lon":5.40263,"is_reserved":false,"is_disabled":false,"rental_uris":{"android":"levelo://app?vid=478bb8c8-b920-41b2-9b13-22266349dac7","ios":"levelo://app?vid=478bb8c8-b920-41b2-9b13-22266349dac7"},"vehicle_type_id":"4","last_reported":1738220923,"current_range_meters":33600,"station_id":"ce4bhk92rcd13ifvqgc0","pricing_plan_id":"cebpf4jnsgd1na2vs0mg"},{"bike_id":"5d85446d-a1e3-4da3-9e1b-711954a91272","system_id":"levelo_inurba_marseille","lat":43.32478,"lon":5.36562,"is_reserved":false,"is_disabled":false,"rental_uris":{"android":"levelo://app?vid=5d85446d-a1e3-4da3-9e1b-711954a91272","ios":"levelo://app?vid=5d85446d-a1e3-4da3-9e1b-711954a91272"},"vehicle_type_id":"4","last_reported":1738220923,"current_range_meters":38400,"station_id":"ce4bhs12rcd13ifvqhvg","pricing_plan_id":"cebpf4jnsgd1na2vs0mg"},{"bike_id":"f6e9fedd-0505-44b4-8eb7-643303b8ede3","system_id":"levelo_inurba_marseille","lat":43.32499,"lon":5.36569,"is_reserved":false,"is_disabled":false,"rental_uris":{"android":"levelo://app?vid=f6e9fedd-0505-44b4-8eb7-643303b8ede3","ios":"levelo://app?vid=f6e9fedd-0505-44b4-8eb7-643303b8ede3"},"vehicle_type_id":"4","last_reported":1738220923,"current_range_meters":28400,"station_id":"ce4bhs12rcd13ifvqhvg","pricing_plan_id":"cebpf4jnsgd1na2vs0mg"},{"bike_id":"bb0b8bbd-b07c-4d0c-bf42-68fb77960106","system_id":"levelo_inurba_marseille","lat":43.27503,"lon":5.42443,"is_reserved":false,"is_disabled":false,"rental_uris":{"android":"levelo://app?vid=bb0b8bbd-b07c-4d0c-bf42-68fb77960106","ios":"levelo://app?vid=bb0b8bbd-b07c-4d0c-bf42-68fb77960106"},"vehicle_type_id":"4","last_reported":1738220923,"current_range_meters":11600,"station_id":"ce4bhn92rcd13ifvqgrg","pricing_plan_id":"cebpf4jnsgd1na2vs0mg"},{"bike_id":"803e03d8-7d2e-4feb-ac46-774902d16dee","system_id":"levelo_inurba_marseille","lat":43.33731,"lon":5.37442,"is_reserved":false,"is_disabled":true,"rental_uris":{"android":"levelo://app?vid=803e03d8-7d2e-4feb-ac46-774902d16dee","ios":"levelo://app?vid=803e03d8-7d2e-4feb-ac46-774902d16dee"},"vehicle_type_id":"4","last_reported":1738220923,"current_range_meters":30000,"station_id":"","pricing_plan_id":"cebpf4jnsgd1na2vs0mg"},{"bike_id":"b947bf30-cd4c-4a7f-8b71-64a9e535f56f","system_id":"levelo_inurba_marseille","lat":43.2749,"lon":5.42452,"is_reserved":false,"is_disabled":false,"rental_uris":{"android":"levelo://app?vid=b947bf30-cd4c-4a7f-8b71-64a9e535f56f","ios":"levelo://app?vid=b947bf30-cd4c-4a7f-8b71-64a9e535f56f"},"vehicle_type_id":"4","last_reported":1738220923,"current_range_meters":8800,"station_id":"ce4bhn92rcd13ifvqgrg","pricing_plan_id":"cebpf4jnsgd1na2vs0mg"},{"bike_id":"cd03d573-58c8-4f21-a2c4-35b2102e5e06","system_id":"levelo_inurba_marseille","lat":43.28035,"lon":5.36951,"is_reserved":false,"is_disabled":false,"rental_uris":{"android":"levelo://app?vid=cd03d573-58c8-4f21-a2c4-35b2102e5e06","ios":"levelo://app?vid=cd03d573-58c8-4f21-a2c4-35b2102e5e06"},"vehicle_type_id":"4","last_reported":1738220923,"current_range_meters":8000,"station_id":"ce4bha12rcd13ifvqef0","pricing_plan_id":"cebpf4jnsgd1na2vs0mg"},{"bike_id":"f751521e-9fd1-4c68-b0aa-b71b2190168b","system_id":"levelo_inurba_marseille","lat":43.317,"lon":5.37783,"is_reserved":false,"is_disabled":false,"rental_uris":{"android":"levelo://app?vid=f751521e-9fd1-4c68-b0aa-b71b2190168b","ios":"levelo://app?vid=f751521e-9fd1-4c68-b0aa-b71b2190168b"},"vehicle_type_id":"4","last_reported":1738220923,"current_range_meters":33600,"station_id":"ce4bgth2rcd13ifvqch0","pricing_plan_id":"cebpf4jnsgd1na2vs0mg"},{"bike_id":"890269d4-c71f-417e-b83b-72a0f2b3ef7a","system_id":"levelo_inurba_marseille","lat":43.27493,"lon":5.42447,"is_reserved":false,"is_disabled":false,"rental_uris":{"android":"levelo://app?vid=890269d4-c71f-417e-b83b-72a0f2b3ef7a","ios":"levelo://app?vid=890269d4-c71f-417e-b83b-72a0f2b3ef7a"},"vehicle_type_id":"4","last_reported":1738220923,"current_range_meters":12000,"station_id":"ce4bhn92rcd13ifvqgrg","pricing_plan_id":"cebpf4jnsgd1na2vs0mg"},{"bike_id":"d7b055ae-afa4-45de-a5d1-2d3de46a980e","system_id":"levelo_inurba_marseille","lat":43.33017,"lon":5.39031,"is_reserved":false,"is_disabled":false,"rental_uris":{"android":"levelo://app?vid=d7b055ae-afa4-45de-a5d1-2d3de46a980e","ios":"levelo://app?vid=d7b055ae-afa4-45de-a5d1-2d3de46a980e"},"vehicle_type_id":"4","last_reported":1738220923,"current_range_meters":38800,"station_id":"ce4bhr92rcd13ifvqhrg","pricing_plan_id":"cebpf4jnsgd1na2vs0mg"},{"bike_id":"a8fc49fd-c8fd-4540-a7f1-0733d06006a3","system_id":"levelo_inurba_marseille","lat":43.28407,"lon":5.3751,"is_reserved":false,"is_disabled":false,"rental_uris":{"android":"levelo://app?vid=a8fc49fd-c8fd-4540-a7f1-0733d06006a3","ios":"levelo://app?vid=a8fc49fd-c8fd-4540-a7f1-0733d06006a3"},"vehicle_type_id":"4","last_reported":1738220923,"current_range_meters":13600,"station_id":"ce4bh412rcd13ifvqds0","pricing_plan_id":"cebpf4jnsgd1na2vs0mg"},{"bike_id":"06217c36-d2ea-4a6d-a01e-1e59921a9ae5","system_id":"levelo_inurba_marseille","lat":43.311781,"lon":5.387171,"is_reserved":false,"is_disabled":false,"rental_uris":{"android":"levelo://app?vid=06217c36-d2ea-4a6d-a01e-1e59921a9ae5","ios":"levelo://app?vid=06217c36-d2ea-4a6d-a01e-1e59921a9ae5"},"vehicle_type_id":"4","last_reported":1738220923,"current_range_meters":36800,"station_id":"ce4bgv12rcd13ifvqcp0","pricing_plan_id":"cebpf4jnsgd1na2vs0mg"},{"bike_id":"96e4f0e6-9ac8-4098-9f1b-21a5f705ae5c","system_id":"levelo_inurba_marseille","lat":43.31869,"lon":5.40736,"is_reserved":false,"is_disabled":false,"rental_uris":{"android":"levelo://app?vid=96e4f0e6-9ac8-4098-9f1b-21a5f705ae5c","ios":"levelo://app?vid=96e4f0e6-9ac8-4098-9f1b-21a5f705ae5c"},"vehicle_type_id":"4","last_reported":1738220923,"current_range_meters":35600,"station_id":"ce4bh0p2rcd13ifvqd70","pricing_plan_id":"cebpf4jnsgd1na2vs0mg"},{"bike_id":"c13793d5-278f-4085-bcb8-8cd4ab20f00f","system_id":"levelo_inurba_marseille","lat":43.317108,"lon":5.436944,"is_reserved":false,"is_disabled":false,"rental_uris":{"android":"levelo://app?vid=c13793d5-278f-4085-bcb8-8cd4ab20f00f","ios":"levelo://app?vid=c13793d5-278f-4085-bcb8-8cd4ab20f00f"},"vehicle_type_id":"4","last_reported":1738220923,"current_range_meters":8000,"station_id":"ce4bhp92rcd13ifvqhcg","pricing_plan_id":"cebpf4jnsgd1na2vs0mg"},{"bike_id":"10aee18a-7bb4-4843-8d95-8e637ad73df4","system_id":"levelo_inurba_marseille","lat":43.28345,"lon":5.38132,"is_reserved":false,"is_disabled":false,"rental_uris":{"android":"levelo://app?vid=10aee18a-7bb4-4843-8d95-8e637ad73df4","ios":"levelo://app?vid=10aee18a-7bb4-4843-8d95-8e637ad73df4"},"vehicle_type_id":"4","last_reported":1738220923,"current_range_meters":39200,"station_id":"ce4bh412rcd13ifvqdr0","pricing_plan_id":"cebpf4jnsgd1na2vs0mg"},{"bike_id":"1eedbc56-d358-4051-bf2a-244cd8cf52d4","system_id":"levelo_inurba_marseille","lat":43.2816,"lon":5.42635,"is_reserved":false,"is_disabled":false,"rental_uris":{"android":"levelo://app?vid=1eedbc56-d358-4051-bf2a-244cd8cf52d4","ios":"levelo://app?vid=1eedbc56-d358-4051-bf2a-244cd8cf52d4"},"vehicle_type_id":"4","last_reported":1738220923,"current_range_meters":6800,"station_id":"ce4bhnh2rcd13ifvqgug","pricing_plan_id":"cebpf4jnsgd1na2vs0mg"},