{"last_updated":1726492676,"ttl":30,"version":"2.2","data":{"bikes":[{"bike_id":"288ec7a4-1ad5-4cf3-b538-3476ccd85653","system_id":"levelo_inurba_marseille","lat":43.28623,"lon":5.35102,"is_reserved":false,"is_disabled":false,"rental_uris":{"android":"levelo://app?vid=288ec7a4-1ad5-4cf3-b538-3476ccd85653","ios":"levelo://app?vid=288ec7a4-1ad5-4cf3-b538-3476ccd85653"},"vehicle_type_id":"4","last_reported":1726492676,"current_range_meters":16800,"station_id":"ce4bhch2rcd13ifvqeug","pricing_plan_id":"cebpf4jnsgd1na2vs0mg"},{"bike_id":"833d538f-1447-43bc-aacf-69b268370a1d","system_id":"levelo_inurba_marseille","lat":43.26934,"lon":5.38918,"is_reserved":false,"is_disabled":false,"rental_uris":{"android":"levelo://app?vid=833d538f-1447-43bc-aacf-69b268370a1d","ios":"levelo://app?vid=833d538f-1447-43bc-aacf-69b268370a1d"},"vehicle_type_id":"4","last_reported":1726492676,"current_range_meters":19600,"station_id":"ce4bhhh2rcd13ifvqfl0","pricing_plan_id":"cebpf4jnsgd1na2vs0mg"},{"bike_id":"c71d4b0a-5710-453b-96ae-bda5e72a5c63","system_id":"levelo_inurba_marseille","lat":43.297032,"lon":5.377009,"is_reserved":false,"is_disabled":false,"rental_uris":{"android":"levelo://app?vid=c71d4b0a-5710-453b-96ae-bda5e72a5c63","ios":"levelo://app?vid=c71d4b0a-5710-453b-96ae-bda5e72a5c63"},"vehicle_type_id":"4","last_reported":1726492676,"current_range_meters":33600,"station_id":"ce4bgkh2rcd13ifvqbl0","pricing_plan_id":"cebpf4jnsgd1na2vs0mg"},{"bike_id":"8fbbab3a-6f2a-4cfe-b5d6-d805834de86b","system_id":"levelo_inurba_marseille","lat":43.28155,"lon":5.42645,"is_reserved":false,"is_disabled":false,"rental_uris":{"android":"levelo://app?vid=8fbbab3a-6f2a-4cfe-b5d6-d805834de86b","ios":"levelo://app?vid=8fbbab3a-6f2a-4cfe-b5d6-d805834de86b"},"vehicle_type_id":"4","last_reported":1726492676,"current_range_meters":36000,"station_id":"ce4bhnh2rcd13ifvqgug","pricing_plan_id":"cebpf4jnsgd1na2vs0mg"},{"bike_id":"9024e2c9-cc52-4aab-891d-2a6c21bc3f51","system_id":"levelo_inurba_marseille","lat":43.26505,"lon":5.39545,"is_reserved":false,"is_disabled":false,"rental_uris":{"android":"levelo://app?vid=9024e2c9-cc52-4aab-891d-2a6c21bc3f51","ios":"levelo://app?vid=9024e2c9-cc52-4aab-891d-2a6c21bc3f51"},"vehicle_type_id":"4","last_reported":1726492676,"current_range_meters":9600,"station_id":"ce4bhi12rcd13ifvqfq0","pricing_plan_id":"cebpf4jnsgd1na2vs0mg"},{"bike_id":"43176770-eaee-4996-86c7-d408161e4ce6","system_id":"levelo_inurba_marseille","lat":43.29903,"lon":5.43658,"is_reserved":false,"is_disabled":false,"rental_uris":{"android":"levelo://app?vid=43176770-eaee-4996-86c7-d408161e4ce6","ios":"levelo://app?vid=43176770-eaee-4996-86c7-d408161e4ce6"},"vehicle_type_id":"4","last_reported":1726492676,"current_range_meters":10800,"station_id":"ce4bhpp2rcd13ifvqhfg","pricing_plan_id":"cebpf4jnsgd1na2vs0mg"},{"bike_id":"6c52f639-8120-4166-817f-bf8841b5aaa0","system_id":"levelo_inurba_marseille","lat":43.29844,"lon":5.36275,"is_reserved":false,"is_disabled":false,"rental_uris":{"android":"levelo://app?vid=6c52f639-8120-4166-817f-bf8841b5aaa0","ios":"levelo://app?vid=6c52f639-8120-4166-817f-bf8841b5aaa0"},"vehicle_type_id":"4","last_reported":1726492676,"current_range_meters":28000,"station_id":"ce4bgpp2rcd13ifvqc3g","pricing_plan_id":"cebpf4jnsgd1na2vs0mg"},{"bike_id":"7e74ccf1-6e94-422c-bb3a-8867c576e37a","system_id":"levelo_inurba_marseille","lat":43.22931,"lon":5.35374,"is_reserved":false,"is_disabled":false,"rental_uris":{"android":"levelo://app?vid=7e74ccf1-6e94-422c-bb3a-8867c576e37a","ios":"levelo://app?vid=7e74ccf1-6e94-422c-bb3a-8867c576e37a"},"vehicle_type_id":"4","last_reported":1726492676,"current_range_meters":25200,"station_id":"cpo3532slgdg3j2ikp40","pricing_plan_id":"cebpf4jnsgd1na2vs0mg"},{"bike_id":"253d1e55-6b14-4b19-a1ba-1940e8d838ab","system_id":"levelo_inurba_marseille","lat":43.29199,"lon":5.39305,"is_reserved":false,"is_disabled":false,"rental_uris":{"android":"levelo://app?vid=253d1e55-6b14-4b19-a1ba-1940e8d838ab","ios":"levelo://app?vid=253d1e55-6b14-4b19-a1ba-1940e8d838ab"},"vehicle_type_id":"4","last_reported":1726492676,"current_range_meters":38800,"station_id":"ce4bh192rcd13ifvqdd0","pricing_plan_id":"cebpf4jnsgd1na2vs0mg"},{"bike_id":"8661cdbd-539b-4736-96ae-3b29c9f34a0b","system_id":"levelo_inurba_marseille","lat":43.24075,"lon":5.37753,"is_reserved":false,"is_disabled":false,"rental_uris":{"android":"levelo://app?vid=8661cdbd-539b-4736-96ae-3b29c9f34a0b","ios":"levelo://app?vid=8661cdbd-539b-4736-96ae-3b29c9f34a0b"},"vehicle_type_id":"4","last_reported":1726492676,"current_range_meters":38800,"station_id":"ce4bhnp2rcd13ifvqgvg","pricing_plan_id":"cebpf4jnsgd1na2vs0mg"},{"bike_id":"7ac7362e-63df-4a54-9f49-0b5316d033c3","system_id":"levelo_inurba_marseille","lat":43.292786,"lon":5.368402,"is_reserved":false,"is_disabled":false,"rental_uris":{"android":"levelo://app?vid=7ac7362e-63df-4a54-9f49-0b5316d033c3","ios":"levelo://app?vid=7ac7362e-63df-4a54-9f49-0b5316d033c3"},"vehicle_type_id":"4","last_reported":1726492676,"current_range_meters":28800,"station_id":"ce4bhbp2rcd13ifvqesg","pricing_plan_id":"cebpf4jnsgd1na2vs0mg"},{"bike_id":"acd8dd42-439b-49a6-ad69-77b2358b8988","system_id":"levelo_inurba_marseille","lat":43.29709,"lon":5.3769,"is_reserved":false,"is_disabled":false,"rental_uris":{"android":"levelo://app?vid=acd8dd42-439b-49a6-ad69-77b2358b8988","ios":"levelo://app?vid=acd8dd42-439b-49a6-ad69-77b2358b8988"},"vehicle_type_id":"4","last_reported":1726492676,"current_range_meters":16400,"station_id":"ce4bgkh2rcd13ifvqbl0","pricing_plan_id":"cebpf4jnsgd1na2vs0mg"},{"bike_id":"597417d7-96b7-48cd-ba56-2f052e10a43a","system_id":"levelo_inurba_marseille","lat":43.23156,"lon":5.43723,"is_reserved":false,"is_disabled":false,"rental_uris":{"android":"levelo://app?vid=597417d7-96b7-48cd-ba56-2f052e10a43a","ios":"levelo://app?vid=597417d7-96b7-48cd-ba56-2f052e10a43a"},"vehicle_type_id":"4","last_reported":1726492676,"current_range_meters":8000,"station_id":"ce4bhmp2rcd13ifvqgog","pricing_plan_id":"cebpf4jnsgd1na2vs0mg"},{"bike_id":"399d5ca3-f4a1-4813-bcb2-424bd1414aa0","system_id":"levelo_inurba_marseille","lat":43.24078,"lon":5.37757,"is_reserved":false,"is_disabled":false,"rental_uris":{"android":"levelo://app?vid=399d5ca3-f4a1-4813-bcb2-424bd1414aa0","ios":"levelo://app?vid=399d5ca3-f4a1-4813-bcb2-424bd1414aa0"},"vehicle_type_id":"4","last_reported":1726492676,"current_range_meters":16000,"station_id":"ce4bhnp2rcd13ifvqgvg","pricing_plan_id":"cebpf4jnsgd1na2vs0mg"},{"bike_id":"92a69cfe-25b5-4efa-b5f9-931292b367b6","system_id":"levelo_inurba_marseille","lat":43.27565,"lon":5.3842,"is_reserved":false,"is_disabled":false,"rental_uris":{"android":"levelo://app?vid=92a69cfe-25b5-4efa-b5f9-931292b367b6","ios":"levelo://app?vid=92a69cfe-25b5-4efa-b5f9-931292b367b6"},"vehicle_type_id":"4","last_reported":1726492676,"current_range_meters":9600,"station_id":"ce4bhh92rcd13ifvqfi0","pricing_plan_id":"cebpf4jnsgd1na2vs0mg"},{"bike_id":"13ec4916-f0ea-4897-8afc-596425b42c42","system_id":"levelo_inurba_marseille","lat":43.23192,"lon":5.35548,"is_reserved":false,"is_disabled":false,"rental_uris":{"android":"levelo://app?vid=13ec4916-f0ea-4897-8afc-596425b42c42","ios":"levelo://app?vid=13ec4916-f0ea-4897-8afc-596425b42c42"},"vehicle_type_id":"4","last_reported":1726492676,"current_range_meters":16000,"station_id":"ce4bhu92rcd13ifvqi70","pricing_plan_id":"cebpf4jnsgd1na2vs0mg"},{"bike_id":"e8549387-9deb-4f66-b733-a7cdaa0db866","system_id":"levelo_inurba_marseille","lat":43.33026,"lon":5.39037,"is_reserved":false,"is_disabled":false,"rental_uris":{"android":"levelo://app?vid=e8549387-9deb-4f66-b733-a7cdaa0db866","ios":"levelo://app?vid=e8549387-9deb-4f66-b733-a7cdaa0db866"},"vehicle_type_id":"4","last_reported":1726492676,"current_range_meters":10000,"station_id":"ce4bhr92rcd13ifvqhrg","pricing_plan_id":"cebpf4jnsgd1na2vs0mg"},{"bike_id":"76c2ad49-6301-48ff-bc82-807c296aea33","system_id":"levelo_inurba_marseille","lat":43.33025,"lon":5.39045,"is_reserved":false,"is_disabled":false,"rental_uris":{"android":"levelo://app?vid=76c2ad49-6301-48ff-bc82-807c296aea33","ios":"levelo://app?vid=76c2ad49-6301-48ff-bc82-807c296aea33"},"vehicle_type_id":"4","last_reported":1726492676,"current_range_meters":4400,"station_id":"ce4bhr92rcd13ifvqhrg","pricing_plan_id":"cebpf4jnsgd1na2vs0mg"},{"bike_id":"bf881f84-1ceb-4933-928f-0e749e329d22","system_id":"levelo_inurba_marseille","lat":43.24084,"lon":5.37744,"is_reserved":false,"is_disabled":false,"rental_uris":{"android":"levelo://app?vid=bf881f84-1ceb-4933-928f-0e749e329d22","ios":"levelo://app?vid=bf881f84-1ceb-4933-928f-0e749e329d22"},"vehicle_type_id":"4","last_reported":1726492676,"current_range_meters":27600,"station_id":"ce4bhnp2rcd13ifvqgvg","pricing_plan_id":"cebpf4jnsgd1na2vs0mg"},{"bike_id":"bfa447db-59ee-46ab-9d3a-20ff2d96d1c3","system_id":"levelo_inurba_marseille","lat":43.28619,"lon":5.35102,"is_reserved":false,"is_disabled":false,"rental_uris":{"android":"levelo://app?vid=bfa447db-59ee-46ab-9d3a-20ff2d96d1c3","ios":"levelo://app?vid=bfa447db-59ee-46ab-9d3a-20ff2d96d1c3"},"vehicle_type_id":"4","last_reported":1726492676,"current_range_meters":38800,"station_id":"ce4bhch2rcd13ifvqeug","pricing_plan_id":"cebpf4jnsgd1na2vs0mg"},{"bike_id":"908f298d-142b-4909-8730-59b64b4e107b","system_id":"levelo_inurba_marseille","lat":43.32369,"lon":5.38885,"is_reserved":false,"is_disabled":false,"rental_uris":{"android":"levelo://app?vid=908f298d-142b-4909-8730-59b64b4e107b","ios":"levelo://app?vid=908f298d-142b-4909-8730-59b64b4e107b"},"vehicle_type_id":"4","last_reported":1726492676,"current_range_meters":22400,"station_id":"ce4bhqp2rcd13ifvqhog","pricing_plan_id":"cebpf4jnsgd1na2vs0mg"},{"bike_id":"57b87d5c-c819-4ef6-97b0-dab8fd8c8e55","system_id":"levelo_inurba_marseille","lat":43.24083,"lon":5.37746,"is_reserved":false,"is_disabled":false,"rental_uris":{"android":"levelo://app?vid=57b87d5c-c819-4ef6-97b0-dab8fd8c8e55","ios":"levelo://app?vid=57b87d5c-c819-4ef6-97b0-dab8fd8c8e55"},"vehicle_type_id":"4","last_reported":1726492676,"current_range_meters":36400,"station_id":"ce4bhnp2rcd13ifvqgvg","pricing_plan_id":"cebpf4jnsgd1na2vs0mg"},{"bike_id":"2db20365-2a75-448a-afff-afeefbf146d3","system_id":"levelo_inurba_marseille","lat":43.24078,"lon":5.3776,"is_reserved":false,"is_disabled":false,"rental_uris":{"android":"levelo://app?vid=2db20365-2a75-448a-afff-afeefbf146d3","ios":"levelo://app?vid=2db20365-2a75-448a-afff-afeefbf146d3"},"vehicle_type_id":"4","last_reported":1726492676,"current_range_meters":30400,"station_id":"ce4bhnp2rcd13ifvqgvg","pricing_plan_id":"cebpf4jnsgd1na2vs0mg"},{"bike_id":"74c67d55-8a5f-40c9-8066-d68354718f8c","system_id":"levelo_inurba_marseille","lat":43.23196,"lon":5.35547,"is_reserved":false,"is_disabled":false,"rental_uris":{"android":"levelo://app?vid=74c67d55-8a5f-40c9-8066-d68354718f8c","ios":"levelo://app?vid=74c67d55-8a5f-40c9-8066-d68354718f8c"},"vehicle_type_id":"4","last_reported":1726492676,"current_range_meters":12800,"station_id":"ce4bhu92rcd13ifvqi70","pricing_plan_id":"cebpf4jnsgd1na2vs0mg"},{"bike_id":"f05d84f1-db17-4921-a353-e31d06725ec7","system_id":"levelo_inurba_marseille","lat":43.28286,"lon":5.35083,"is_reserved":false,"is_disabled":false,"rental_uris":{"android":"levelo://app?vid=f05d84f1-db17-4921-a353-e31d06725ec7","ios":"levelo://app?vid=f05d84f1-db17-4921-a353-e31d06725ec7"},"vehicle_type_id":"4","last_reported":1726492676,"current_range_meters":32000,"station_id":"ce4bhbp2rcd13ifvqerg","pricing_plan_id":"cebpf4jnsgd1na2vs0mg"},{"bike_id":"347c4d00-be62-486d-946b-513151545bf3","system_id":"levelo_inurba_marseille","lat":43.24082,"lon":5.37754,"is_reserved":false,"is_disabled":false,"rental_uris":{"android":"levelo://app?vid=347c4d00-be62-486d-946b-513151545bf3","ios":"levelo://app?vid=347c4d00-be62-486d-946b-513151545bf3"},"vehicle_type_id":"4","last_reported":1726492676,"current_range_meters":22800,"station_id":"ce4bhnp2rcd13ifvqgvg","pricing_plan_id":"cebpf4jnsgd1na2vs0mg"},{"bike_id":"f4fc0b87-1f02-4805-98ca-f2187fca17da","system_id":"levelo_inurba_marseille","lat":43.29229,"lon":5.36225,"is_reserved":false,"is_disabled":false,"rental_uris":{"android":"levelo://app?vid=f4fc0b87-1f02-4805-98ca-f2187fca17da","ios":"levelo://app?vid=f4fc0b87-1f02-4805-98ca-f2187fca17da"},"vehicle_type_id":"4","last_reported":1726492676,"current_range_meters":38000,"station_id":"","pricing_plan_id":"cebpf4jnsgd1na2vs0mg"},{"bike_id":"4bdccbaf-dd4a-4cd6-8c7c-23399a33ee75","system_id":"levelo_inurba_marseille","lat":43.29535,"lon":5.38546,"is_reserved":false,"is_disabled":false,"rental_uris":{"android":"levelo://app?vid=4bdccbaf-dd4a-4cd6-8c7c-23399a33ee75","ios":"levelo://app?vid=4bdccbaf-dd4a-4cd6-8c7c-23399a33ee75"},"vehicle_type_id":"4","last_reported":1726492676,"current_range_meters":17600,"station_id":"ce4bgih2rcd13ifvqba0","pricing_plan_id":"cebpf4jnsgd1na2vs0mg"},{"bike_id":"997cf817-130c-4d08-9a2e-aea2dac63382","system_id":"levelo_inurba_marseille","lat":43.29562,"lon":5.42285,"is_reserved":false,"is_disabled":false,"rental_uris":{"android":"levelo://app?vid=997cf817-130c-4d08-9a2e-aea2dac63382","ios":"levelo://app?vid=997cf817-130c-4d08-9a2e-aea2dac63382"},"vehicle_type_id":"4","last_reported":1726492676,"current_range_meters":37600,"station_id":"ce4bhph2rcd13ifvqhdg","pricing_plan_id":"cebpf4jnsgd1na2vs0mg"},{"bike_id":"9454884f-aa25-4771-81b4-781ca83c79bf","system_id":"levelo_inurba_marseille","lat":43.337444,"lon":5.374475,"is_reserved":false,"is_disabled":false,"rental_uris":{"android":"levelo://app?vid=9454884f-aa25-4771-81b4-781ca83c79bf","ios":"levelo://app?vid=9454884f-aa25-4771-81b4-781ca83c79bf"},"vehicle_type_id":"4","last_reported":1726492676,"current_range_meters":32800,"station_id":"ce4bh312rcd13ifvqdj0","pricing_plan_id":"cebpf4jnsgd1na2vs0mg"},{"bike_id":"7603c53f-dd82-49ac-a36b-a8256b4c91a2","system_id":"levelo_inurba_marseille","lat":43.26501,"lon":5.39532,"is_reserved":false,"is_disabled":false,"rental_uris":{"android":"levelo://app?vid=7603c53f-dd82-49ac-a36b-a8256b4c91a2","ios":"levelo://app?vid=7603c53f-dd82-49ac-a36b-a8256b4c91a2"},"vehicle_type_id":"4","last_reported":1726492676,"current_range_meters":24800,"station_id":"ce4bhi12rcd13ifvqfq0","pricing_plan_id":"cebpf4jnsgd1na2vs0mg"},{"bike_id":"de926bf7-1295-43c0-8367-941524b67039","system_id":"levelo_inurba_marseille","lat":43.25002,"lon":5.38927,"is_reserved":false,"is_disabled":false,"rental_uris":{"android":"levelo://app?vid=de926bf7-1295-43c0-8367-941524b67039","ios":"levelo://app?vid=de926bf7-1295-43c0-8367-941524b67039"},"vehicle_type_id":"4","last_reported":1726492676,"current_range_meters":38800,"station_id":"ce4bhgp2rcd13ifvqfd0","pricing_plan_id":"cebpf4jnsgd1na2vs0mg"},{"bike_id":"cc702287-d5dd-43a2-a4ae-2011a4d936a9","system_id":"levelo_inurba_marseille","lat":43.26963,"lon":5.38617,"is_reserved":false,"is_disabled":false,"rental_uris":{"android":"levelo://app?vid=cc702287-d5dd-43a2-a4ae-2011a4d936a9","ios":"levelo://app?vid=cc702287-d5dd-43a2-a4ae-2011a4d936a9"},"vehicle_type_id":"4","last_reported":1726492676,"current_range_meters":24000,"station_id":"ce4bhh92rcd13ifvqfh0","pricing_plan_id":"cebpf4jnsgd1na2vs0mg"},{"bike_id":"1ed8a0b3-92f7-4363-9b00-2fe39ac7defb","system_id":"levelo_inurba_marseille","lat":43.2985,"lon":5.36278,"is_reserved":false,"is_disabled":false,"rental_uris":{"android":"levelo://app?vid=1ed8a0b3-92f7-4363-9b00-2fe39ac7defb","ios":"levelo://app?vid=1ed8a0b3-92f7-4363-9b00-2fe39ac7defb"},"vehicle_type_id":"4","last_reported":1726492676,"current_range_meters":38800,"station_id":"ce4bgpp2rcd13ifvqc3g","pricing_plan_id":"cebpf4jnsgd1na2vs0mg"},{"bike_id":"48771114-b796-4ced-9d75-ea8db189ce81","system_id":"levelo_inurba_marseille","lat":43.28576,"lon":5.3949,"is_reserved":false,"is_disabled":false,"rental_uris":{"android":"levelo://app?vid=48771114-b796-4ced-9d75-ea8db189ce81","ios":"levelo://app?vid=48771114-b796-4ced-9d75-ea8db189ce81"},"vehicle_type_id":"4","last_reported":1726492676,"current_range_meters":37600,"station_id":"ce4bh292rcd13ifvqdg0","pricing_plan_id":"cebpf4jnsgd1na2vs0mg"},{"bike_id":"0aa75f12-c942-44d1-92b7-0b3badf3bf13","system_id":"levelo_inurba_marseille","lat":43.27494,"lon":5.42458,"is_reserved":false,"is_disabled":false,"rental_uris":{"android":"levelo://app?vid=0aa75f12-c942-44d1-92b7-0b3badf3bf13","ios":"levelo://app?vid=0aa75f12-c942-44d1-92b7-0b3badf3bf13"},"vehicle_type_id":"4","last_reported":1726492676,"current_range_meters":29600,"station_id":"ce4bhn92rcd13ifvqgrg","pricing_plan_id":"cebpf4jnsgd1na2vs0mg"},{"bike_id":"e75bdf37-6017-4dd9-8183-f2edc970ca06","system_id":"levelo_inurba_marseille","lat":43.23198,"lon":5.35548,"is_reserved":false,"is_disabled":false,"rental_uris":{"android":"levelo://app?vid=e75bdf37-6017-4dd9-8183-f2edc970ca06","ios":"levelo://app?vid=e75bdf37-6017-4dd9-8183-f2edc970ca06"},"vehicle_type_id":"4","last_reported":1726492676,"current_range_meters":36000,"station_id":"ce4bhu92rcd13ifvqi70","pricing_plan_id":"cebpf4jnsgd1na2vs0mg"},{"bike_id":"cc2aeaeb-ab01-4671-807a-2fbd6343da14","system_id":"levelo_inurba_marseille","lat":43.28485,"lon":5.38534,"is_reserved":false,"is_disabled":false,"rental_uris":{"android":"levelo://app?vid=cc2aeaeb-ab01-4671-807a-2fbd6343da14","ios":"levelo://app?vid=cc2aeaeb-ab01-4671-807a-2fbd6343da14"},"vehicle_type_id":"4","last_reported":1726492676,"current_range_meters":32000,"station_id":"ce4bh8p2rcd13ifvqeb0","pricing_plan_id":"cebpf4jnsgd1na2vs0mg"},{"bike_id":"35e8f3ae-8146-4ec2-90bc-0228be5fcd4d","system_id":"levelo_inurba_marseille","lat":43.25497,"lon":5.37644,"is_reserved":false,"is_disabled":false,"rental_uris":{"android":"levelo://app?vid=35e8f3ae-8146-4ec2-90bc-0228be5fcd4d","ios":"levelo://app?vid=35e8f3ae-8146-4ec2-90bc-0228be5fcd4d"},"vehicle_type_id":"4","last_reported":1726492676,"current_range_meters":16400,"station_id":"ce4bhh12rcd13ifvqff0","pricing_plan_id":"cebpf4jnsgd1na2vs0mg"},{"bike_id":"2248b649-4509-42c8-aaff-ea012591b791","system_id":"levelo_inurba_marseille","lat":43.29065,"lon":5.37161,"is_reserved":false,"is_disabled":false,"rental_uris":{"android":"levelo://app?vid=2248b649-4509-42c8-aaff-ea012591b791","ios":"levelo://app?vid=2248b649-4509-42c8-aaff-ea012591b791"},"vehicle_type_id":"4","last_reported":1726492676,"current_range_meters":30000,"station_id":"ce4bh5p2rcd13ifvqe4g","pricing_plan_id":"cebpf4jnsgd1na2vs0mg"},{"bike_id":"bd3352e5-7e07-4f89-8bb3-31b6a004fc2b","system_id":"levelo_inurba_marseille","lat":43.2903,"lon":5.38648,"is_reserved":false,"is_disabled":false,"rental_uris":{"android":"levelo://app?vid=bd3352e5-7e07-4f89-8bb3-31b6a004fc2b","ios":"levelo://app?vid=bd3352e5-7e07-4f89-8bb3-31b6a004fc2b"},"vehicle_type_id":"4","last_reported":1726492676,"current_range_meters":22400,"station_id":"ce4bh4p2rcd13ifvqe0g","pricing_plan_id":"cebpf4jnsgd1na2vs0mg"},{"bike_id":"d1bc3a38-4213-4e05-9512-47794e8b07ef","system_id":"levelo_inurba_marseille","lat":43.30466,"lon":5.37905,"is_reserved":false,"is_disabled":false,"rental_uris":{"android":"levelo://app?vid=d1bc3a38-4213-4e05-9512-47794e8b07ef","ios":"levelo://app?vid=d1bc3a38-4213-4e05-9512-47794e8b07ef"},"vehicle_type_id":"4","last_reported":1726492676,"current_range_meters":38800,"station_id":"ce4bgup2rcd13ifvqcn0","pricing_plan_id":"cebpf4jnsgd1na2vs0mg"},{"bike_id":"9048a29f-7cdc-4a5e-a17e-9ff87866c707","system_id":"levelo_inurba_marseille","lat":43.27321,"lon":5.39097,"is_reserved":false,"is_disabled":false,"rental_uris":{"android":"levelo://app?vid=9048a29f-7cdc-4a5e-a17e-9ff87866c707","ios":"levelo://app?vid=9048a29f-7cdc-4a5e-a17e-9ff87866c707"},"vehicle_type_id":"4","last_reported":1726492676,"current_range_meters":25200,"station_id":"ce4bhgp2rcd13ifvqfe0","pricing_plan_id":"cebpf4jnsgd1na2vs0mg"},{"bike_id":"b7e577f2-e522-472d-8d4c-d26793fc34ca","system_id":"levelo_inurba_marseille","lat":43.28084,"lon":5.39663,"is_reserved":false,"is_disabled":false,"rental_uris":{"android":"levelo://app?vid=b7e577f2-e522-472d-8d4c-d26793fc34ca","ios":"levelo://app?vid=b7e577f2-e522-472d-8d4c-d26793fc34ca"},"vehicle_type_id":"4","last_reported":1726492676,"current_range_meters":36400,"station_id":"ce4bho12rcd13ifvqh2g","pricing_plan_id":"cebpf4jnsgd1na2vs0mg"},{"bike_id":"e1fb1cfc-254e-44bd-afd4-23d853838bb3","system_id":"levelo_inurba_marseille","lat":43.27425,"lon":5.39406,"is_reserved":false,"is_disabled":false,"rental_uris":{"android":"levelo://app?vid=e1fb1cfc-254e-44bd-afd4-23d853838bb3","ios":"levelo://app?vid=e1fb1cfc-254e-44bd-afd4-23d853838bb3"},"vehicle_type_id":"4","last_reported":1726492676,"current_range_meters":36400,"station_id":"ce4bhdp2rcd13ifvqf20","pricing_plan_id":"cebpf4jnsgd1na2vs0mg"},{"bike_id":"c836d192-3400-4909-8320-8b8512159f8b","system_id":"levelo_inurba_marseille","lat":43.30316,"lon":5.36901,"is_reserved":false,"is_disabled":false,"rental_uris":{"android":"levelo://app?vid=c836d192-3400-4909-8320-8b8512159f8b","ios":"levelo://app?vid=c836d192-3400-4909-8320-8b8512159f8b"},"vehicle_type_id":"4","last_reported":1726492676,"current_range_meters":37600,"station_id":"ce4bgqh2rcd13ifvqc5g","pricing_plan_id":"cebpf4jnsgd1na2vs0mg"},{"bike_id":"c1b5887f-dc84-459e-a22b-7357939b51b8","system_id":"levelo_inurba_marseille","lat":43.29573,"lon":5.39983,"is_reserved":false,"is_disabled":false,"rental_uris":{"android":"levelo://app?vid=c1b5887f-dc84-459e-a22b-7357939b51b8","ios":"levelo://app?vid=c1b5887f-dc84-459e-a22b-7357939b51b8"},"vehicle_type_id":"4","last_reported":1726492676,"current_range_meters":38800,"station_id":"ce4bh312rcd13ifvqdj0","pricing_plan_id":"cebpf4jnsgd1na2vs0mg"},{"bike_id":"833d2529-c97a-4d7b-962d-a364f2c29687","system_id":"levelo_inurba_marseille","lat":43.23153,"lon":5.43712,"is_reserved":false,"is_disabled":false,"rental_uris":{"android":"levelo://app?vid=833d2529-c97a-4d7b-962d-a364f2c29687","ios":"levelo://app?vid=833d2529-c97a-4d7b-962d-a364f2c29687"},"vehicle_type_id":"4","last_reported":1726492676,"current_range_meters":9600,"station_id":"ce4bhmp2rcd13ifvqgog","pricing_plan_id":"cebpf4jnsgd1na2vs0mg"},{"bike_id":"f74619c4-72fa-40ba-8d01-1664c0bd9fa2","system_id":"levelo_inurba_marseille","lat":43.25085,"lon":5.39504,"is_reserved":false,"is_disabled":false,"rental_uris":{"android":"levelo://app?vid=f74619c4-72fa-40ba-8d01-1664c0bd9fa2","ios":"levelo://app?vid=f74619c4-72fa-40ba-8d01-1664c0bd9fa2"},"vehicle_type_id":"4","last_reported":1726492676,"current_range_meters":9600,"station_id":"ce4bhm12rcd13ifvqgkg","pricing_plan_id":"cebpf4jnsgd1na2vs0mg"},{"bike_id":"69410b0b-e72e-44d3-aa8d-fb2af1c10371","system_id":"levelo_inurba_marseille","lat":43.28373,"lon":5.34997,"is_reserved":false,"is_disabled":false,"rental_uris":{"android":"levelo://app?vid=69410b0b-e72e-44d3-aa8d-fb2af1c10371","ios":"levelo://app?vid=69410b0b-e72e-44d3-aa8d-fb2af1c10371"},"vehicle_type_id":"4","last_reported":1726492676,"current_range_meters":32000,"station_id":"","pricing_plan_id":"cebpf4jnsgd1na2vs0mg"},{"bike_id":"352cc108-92f7-4ac2-98c9-c4f7714f9f3f","system_id":"levelo_inurba_marseille","lat":43.25935,"lon":5.40902,"is_reserved":false,"is_disabled":false,"rental_uris":{"android":"levelo://app?vid=352cc108-92f7-4ac2-98c9-c4f7714f9f3f","ios":"levelo://app?vid=352cc108-92f7-4ac2-98c9-c4f7714f9f3f"},"vehicle_type_id":"4","last_reported":1726492676,"current_range_meters":32800,"station_id":"ce4bhm92rcd13ifvqglg","pricing_plan_id":"cebpf4jnsgd1na2vs0mg"},{"bike_id":"e025d1d4-36e0-4ea3-83b5-b5c409af52b2","system_id":"levelo_inurba_marseille","lat":43.2979,"lon":5.3934,"is_reserved":false,"is_disabled":false,"rental_uris":{"android":"levelo://app?vid=e025d1d4-36e0-4ea3-83b5-b5c409af52b2","ios":"levelo://app?vid=e025d1d4-36e0-4ea3-83b5-b5c409af52b2"},"vehicle_type_id":"4","last_reported":1726492676,"current_range_meters":24400,"station_id":"chh1huq6cuj3fo74tm60","pricing_plan_id":"cebpf4jnsgd1na2vs0mg"},{"bike_id":"1fb02331-3627-480b-8d72-70647f55044a","system_id":"levelo_inurba_marseille","lat":43.29989,"lon":5.38516,"is_reserved":false,"is_disabled":false,"rental_uris":{"android":"levelo://app?vid=1fb02331-3627-480b-8d72-70647f55044a","ios":"levelo://app?vid=1fb02331-3627-480b-8d72-70647f55044a"},"vehicle_type_id":"4","last_reported":1726492676,"current_range_meters":39200,"station_id":"ce4bgj92rcd13ifvqbd0","pricing_plan_id":"cebpf4jnsgd1na2vs0mg"},{"bike_id":"b9698a86-1ec3-4eed-ac6f-4fc5121a02f0","system_id":"levelo_inurba_marseille","lat":43.30551,"lon":5.36694,"is_reserved":false,"is_disabled":false,"rental_uris":{"android":"levelo://app?vid=b9698a86-1ec3-4eed-ac6f-4fc5121a02f0","ios":"levelo://app?vid=b9698a86-1ec3-4eed-ac6f-4fc5121a02f0"},"vehicle_type_id":"4","last_reported":1726492676,"current_range_meters":38800,"station_id":"ce4bgrp2rcd13ifvqc9g","pricing_plan_id":"cebpf4jnsgd1na2vs0mg"},{"bike_id":"2e3fa3c1-55aa-4e86-bd3e-7bdc4a6b47ac","system_id":"levelo_inurba_marseille","lat":43.27497,"lon":5.42454,"is_reserved":false,"is_disabled":false,"rental_uris":{"android":"levelo://app?vid=2e3fa3c1-55aa-4e86-bd3e-7bdc4a6b47ac","ios":"levelo://app?vid=2e3fa3c1-55aa-4e86-bd3e-7bdc4a6b47ac"},"vehicle_type_id":"4","last_reported":1726492676,"current_range_meters":33600,"station_id":"ce4bhn92rcd13ifvqgrg","pricing_plan_id":"cebpf4jnsgd1na2vs0mg"},{"bike_id":"bd51c70e-bad0-4545-b67c-27df050db04c","system_id":"levelo_inurba_marseille","lat":43.29972,"lon":5.38493,"is_reserved":false,"is_disabled":false,"rental_uris":{"android":"levelo://app?vid=bd51c70e-bad0-4545-b67c-27df050db04c","ios":"levelo://app?vid=bd51c70e-bad0-4545-b67c-27df050db04c"},"vehicle_type_id":"4","last_reported":1726492676,"current_range_meters":37600,"station_id":"ce4bgj92rcd13ifvqbd0","pricing_plan_id":"cebpf4jnsgd1na2vs0mg"},{"bike_id":"a7649358-7b1e-4e20-b463-599f4ff8067d","system_id":"levelo_inurba_marseille","lat":43.25011,"lon":5.38917,"is_reserved":false,"is_disabled":false,"rental_uris":{"android":"levelo://app?vid=a7649358-7b1e-4e20-b463-599f4ff8067d","ios":"levelo://app?vid=a7649358-7b1e-4e20-b463-599f4ff8067d"},"vehicle_type_id":"4","last_reported":1726492676,"current_range_meters":34000,"station_id":"ce4bhgp2rcd13ifvqfd0","pricing_plan_id":"cebpf4jnsgd1na2vs0mg"},{"bike_id":"b0076467-af2c-4620-88b9-aa243dc895fc","system_id":"levelo_inurba_marseille","lat":43.29932,"lon":5.36535,"is_reserved":false,"is_disabled":false,"rental_uris":{"android":"levelo://app?vid=b0076467-af2c-4620-88b9-aa243dc895fc","ios":"levelo://app?vid=b0076467-af2c-4620-88b9-aa243dc895fc"},"vehicle_type_id":"4","last_reported":1726492676,"current_range_meters":27200,"station_id":"ce4bgm92rcd13ifvqbr0","pricing_plan_id":"cebpf4jnsgd1na2vs0mg"},{"bike_id":"b918754b-56d0-437b-8182-be9d6ff52d2a","system_id":"levelo_inurba_marseille","lat":43.28461,"lon":5.35882,"is_reserved":false,"is_disabled":false,"rental_uris":{"android":"levelo://app?vid=b918754b-56d0-437b-8182-be9d6ff52d2a","ios":"levelo://app?vid=b918754b-56d0-437b-8182-be9d6ff52d2a"},"vehicle_type_id":"4","last_reported":1726492676,"current_range_meters":11200,"station_id":"ce4bhah2rcd13ifvqei0","pricing_plan_id":"cebpf4jnsgd1na2vs0mg"},{"bike_id":"c7f93bf2-2b30-4c5c-aa72-447b3f4a28ea","system_id":"levelo_inurba_marseille","lat":43.29899,"lon":5.43658,"is_reserved":false,"is_disabled":false,"rental_uris":{"android":"levelo://app?vid=c7f93bf2-2b30-4c5c-aa72-447b3f4a28ea","ios":"levelo://app?vid=c7f93bf2-2b30-4c5c-aa72-447b3f4a28ea"},"vehicle_type_id":"4","last_reported":1726492676,"current_range_meters":15200,"station_id":"ce4bhpp2rcd13ifvqhfg","pricing_plan_id":"cebpf4jnsgd1na2vs0mg"},{"bike_id":"fd5de5a6-c774-4a4f-9ba4-449590ed10ea","system_id":"levelo_inurba_marseille","lat":43.26491,"lon":5.3955,"is_reserved":false,"is_disabled":false,"rental_uris":{"android":"levelo://app?vid=fd5de5a6-c774-4a4f-9ba4-449590ed10ea","ios":"levelo://app?vid=fd5de5a6-c774-4a4f-9ba4-449590ed10ea"},"vehicle_type_id":"4","last_reported":1726492676,"current_range_meters":21600,"station_id":"ce4bhi12rcd13ifvqfq0","pricing_plan_id":"cebpf4jnsgd1na2vs0mg"},{"bike_id":"1bf1b9e2-eb6f-4206-9dd4-ba751e0b3fb5","system_id":"levelo_inurba_marseille","lat":43.28625,"lon":5.35106,"is_reserved":false,"is_disabled":false,"rental_uris":{"android":"levelo://app?vid=1bf1b9e2-eb6f-4206-9dd4-ba751e0b3fb5","ios":"levelo://app?vid=1bf1b9e2-eb6f-4206-9dd4-ba751e0b3fb5"},"vehicle_type_id":"4","last_reported":1726492676,"current_range_meters":20400,"station_id":"ce4bhch2rcd13ifvqeug","pricing_plan_id":"cebpf4jnsgd1na2vs0mg"},{"bike_id":"26db0265-0a91-4c66-8aa8-67a94f7eef0d","system_id":"levelo_inurba_marseille","lat":43.26935,"lon":5.40053,"is_reserved":false,"is_disabled":false,"rental_uris":{"android":"levelo://app?vid=26db0265-0a91-4c66-8aa8-67a94f7eef0d","ios":"levelo://app?vid=26db0265-0a91-4c66-8aa8-67a94f7eef0d"},"vehicle_type_id":"4","last_reported":1726492676,"current_range_meters":4000,"station_id":"","pricing_plan_id":"cebpf4jnsgd1na2vs0mg"},{"bike_id":"f837a508-ded8-48f0-8fa5-451d633960b3","system_id":"levelo_inurba_marseille","lat":43.29785,"lon":5.37096,"is_reserved":false,"is_disabled":false,"rental_uris":{"android":"levelo://app?vid=f837a508-ded8-48f0-8fa5-451d633960b3","ios":"levelo://app?vid=f837a508-ded8-48f0-8fa5-451d633960b3"},"vehicle_type_id":"4","last_reported":1726492676,"current_range_meters":37600,"station_id":"ce4bgop2rcd13ifvqc1g","pricing_plan_id":"cebpf4jnsgd1na2vs0mg"},{"bike_id":"49b20a4a-88ba-4e27-8c12-a5c427e7dfa4","system_id":"levelo_inurba_marseille","lat":43.27175,"lon":5.40992,"is_reserved":false,"is_disabled":false,"rental_uris":{"android":"levelo://app?vid=49b20a4a-88ba-4e27-8c12-a5c427e7dfa4","ios":"levelo://app?vid=49b20a4a-88ba-4e27-8c12-a5c427e7dfa4"},"vehicle_type_id":"4","last_reported":1726492676,"current_range_meters":32000,"station_id":"ce4bhl12rcd13ifvqgf0","pricing_plan_id":"cebpf4jnsgd1na2vs0mg"},{"bike_id":"243c1754-4022-45f8-a548-d0a20bd37f29","system_id":"levelo_inurba_marseille","lat":43.3043,"lon":5.39747,"is_reserved":false,"is_disabled":false,"rental_uris":{"android":"levelo://app?vid=243c1754-4022-45f8-a548-d0a20bd37f29","ios":"levelo://app?vid=243c1754-4022-45f8-a548-d0a20bd37f29"},"vehicle_type_id":"4","last_reported":1726492676,"current_range_meters":8000,"station_id":"ce4bh092rcd13ifvqd20","pricing_plan_id":"cebpf4jnsgd1na2vs0mg"},{"bike_id":"7675f843-b73d-480f-a26d-20e97c833fb3","system_id":"levelo_inurba_marseille","lat":43.337444,"lon":5.374475,"is_reserved":false,"is_disabled":false,"rental_uris":{"android":"levelo://app?vid=7675f843-b73d-480f-a26d-20e97c833fb3","ios":"levelo://app?vid=7675f843-b73d-480f-a26d-20e97c833fb3"},"vehicle_type_id":"4","last_reported":1726492676,"current_range_meters":10000,"station_id":"","pricing_plan_id":"cebpf4jnsgd1na2vs0mg"},{"bike_id":"52d63a82-15c0-435c-b16e-08b30c04e2ee","system_id":"levelo_inurba_marseille","lat":43.258636,"lon":5.399035,"is_reserved":false,"is_disabled":false,"rental_uris":{"android":"levelo://app?vid=52d63a82-15c0-435c-b16e-08b30c04e2ee","ios":"levelo://app?vid=52d63a82-15c0-435c-b16e-08b30c04e2ee"},"vehicle_type_id":"4","last_reported":1726492676,"current_range_meters":17200,"station_id":"ce4bhl92rcd13ifvqghg","pricing_plan_id":"cebpf4jnsgd1na2vs0mg"},{"bike_id":"309c51a6-dc88-4a59-a6d9-a8a9cfc51a1b","system_id":"levelo_inurba_marseille","lat":43.25001,"lon":5.38933,"is_reserved":false,"is_disabled":false,"rental_uris":{"android":"levelo://app?vid=309c51a6-dc88-4a59-a6d9-a8a9cfc51a1b","ios":"levelo://app?vid=309c51a6-dc88-4a59-a6d9-a8a9cfc51a1b"},"vehicle_type_id":"4","last_reported":1726492676,"current_range_meters":27600,"station_id":"","pricing_plan_id":"cebpf4jnsgd1na2vs0mg"},{"bike_id":"3055b1b8-4072-4a34-9300-8213aae2872f","system_id":"levelo_inurba_marseille","lat":43.30128,"lon":5.3878,"is_reserved":false,"is_disabled":false,"rental_uris":{"android":"levelo://app?vid=3055b1b8-4072-4a34-9300-8213aae2872f","ios":"levelo://app?vid=3055b1b8-4072-4a34-9300-8213aae2872f"},"vehicle_type_id":"4","last_reported":1726492676,"current_range_meters":38800,"station_id":"ce4bghh2rcd13ifvqb60","pricing_plan_id":"cebpf4jnsgd1na2vs0mg"},{"bike_id":"4153cc51-d4e8-4e56-a8fd-c1a04ecf3fa7","system_id":"levelo_inurba_marseille","lat":43.29963,"lon":5.41322,"is_reserved":false,"is_disabled":false,"rental_uris":{"android":"levelo://app?vid=4153cc51-d4e8-4e56-a8fd-c1a04ecf3fa7","ios":"levelo://app?vid=4153cc51-d4e8-4e56-a8fd-c1a04ecf3fa7"},"vehicle_type_id":"4","last_reported":1726492676,"current_range_meters":34800,"station_id":"ce4bhp12rcd13ifvqh9g","pricing_plan_id":"cebpf4jnsgd1na2vs0mg"},{"bike_id":"704bd4ff-c6ae-4fcf-a83a-81202466c629","system_id":"levelo_inurba_marseille","lat":43.2996,"lon":5.41327,"is_reserved":false,"is_disabled":false,"rental_uris":{"android":"levelo://app?vid=704bd4ff-c6ae-4fcf-a83a-81202466c629","ios":"levelo://app?vid=704bd4ff-c6ae-4fcf-a83a-81202466c629"},"vehicle_type_id":"4","last_reported":1726492676,"current_range_meters":19600,"station_id":"ce4bhp12rcd13ifvqh9g","pricing_plan_id":"cebpf4jnsgd1na2vs0mg"},{"bike_id":"8cb592d9-f82f-4171-894f-8d7ffa6525e5","system_id":"levelo_inurba_marseille","lat":43.23196,"lon":5.35542,"is_reserved":false,"is_disabled":false,"rental_uris":{"android":"levelo://app?vid=8cb592d9-f82f-4171-894f-8d7ffa6525e5","ios":"levelo://app?vid=8cb592d9-f82f-4171-894f-8d7ffa6525e5"},"vehicle_type_id":"4","last_reported":1726492676,"current_range_meters":24800,"station_id":"ce4bhu92rcd13ifvqi70","pricing_plan_id":"cebpf4jnsgd1na2vs0mg"},{"bike_id":"ccaad85f-f4b0-49d1-939c-fcd14e218f69","system_id":"levelo_inurba_marseille","lat":43.27182,"lon":5.40996,"is_reserved":false,"is_disabled":false,"rental_uris":{"android":"levelo://app?vid=ccaad85f-f4b0-49d1-939c-fcd14e218f69","ios":"levelo://app?vid=ccaad85f-f4b0-49d1-939c-fcd14e218f69"},"vehicle_type_id":"4","last_reported":1726492676,"current_range_meters":31200,"station_id":"ce4bhl12rcd13ifvqgf0","pricing_plan_id":"cebpf4jnsgd1na2vs0mg"},{"bike_id":"79752fd1-c487-410d-a206-6bc206b43c4f","system_id":"levelo_inurba_marseille","lat":43.30145,"lon":5.37425,"is_reserved":false,"is_disabled":false,"rental_uris":{"android":"levelo://app?vid=79752fd1-c487-410d-a206-6bc206b43c4f","ios":"levelo://app?vid=79752fd1-c487-410d-a206-6bc206b43c4f"},"vehicle_type_id":"4","last_reported":1726492676,"current_range_meters":38800,"station_id":"ce4bgs92rcd13ifvqcc0","pricing_plan_id":"cebpf4jnsgd1na2vs0mg"},{"bike_id":"e8577ff1-e7d5-4bd8-af09-a820a63b8b50","system_id":"levelo_inurba_marseille","lat":43.33023,"lon":5.39036,"is_reserved":false,"is_disabled":false,"rental_uris":{"android":"levelo://app?vid=e8577ff1-e7d5-4bd8-af09-a820a63b8b50","ios":"levelo://app?vid=e8577ff1-e7d5-4bd8-af09-a820a63b8b50"},"vehicle_type_id":"4","last_reported":1726492676,"current_range_meters":20000,"station_id":"ce4bhr92rcd13ifvqhrg","pricing_plan_id":"cebpf4jnsgd1na2vs0mg"},{"bike_id":"23af3e5f-c4dd-433e-9385-25485af76f31","system_id":"levelo_inurba_marseille","lat":43.32491,"lon":5.3656,"is_reserved":false,"is_disabled":false,"rental_uris":{"android":"levelo://app?vid=23af3e5f-c4dd-433e-9385-25485af76f31","ios":"levelo://app?vid=23af3e5f-c4dd-433e-9385-25485af76f31"},"vehicle_type_id":"4","last_reported":1726492676,"current_range_meters":18800,"station_id":"ce4bhs12rcd13ifvqhvg","pricing_plan_id":"cebpf4jnsgd1na2vs0mg"},{"bike_id":"6fcb0470-5b2d-4c1d-8d35-ccfb07e79374","system_id":"levelo_inurba_marseille","lat":43.304485,"lon":5.397262,"is_reserved":false,"is_disabled":false,"rental_uris":{"android":"levelo://app?vid=6fcb0470-5b2d-4c1d-8d35-ccfb07e79374","ios":"levelo://app?vid=6fcb0470-5b2d-4c1d-8d35-ccfb07e79374"},"vehicle_type_id":"4","last_reported":1726492676,"current_range_meters":24800,"station_id":"ce4bgvp2rcd13ifvqcu0","pricing_plan_id":"cebpf4jnsgd1na2vs0mg"},{"bike_id":"9c25d7f9-3117-44f1-acec-713cdafffebf","system_id":"levelo_inurba_marseille","lat":43.34151,"lon":5.40915,"is_reserved":false,"is_disabled":false,"rental_uris":{"android":"levelo://app?vid=9c25d7f9-3117-44f1-acec-713cdafffebf","ios":"levelo://app?vid=9c25d7f9-3117-44f1-acec-713cdafffebf"},"vehicle_type_id":"4","last_reported":1726492676,"current_range_meters":32800,"station_id":"ce4bhqh2rcd13ifvqhlg","pricing_plan_id":"cebpf4jnsgd1na2vs0mg"},{"bike_id":"3e3ff3a6-6614-480d-b38b-a276f7604b95","system_id":"levelo_inurba_marseille","lat":43.30788,"lon":5.37655,"is_reserved":false,"is_disabled":false,"rental_uris":{"android":"levelo://app?vid=3e3ff3a6-6614-480d-b38b-a276f7604b95","ios":"levelo://app?vid=3e3ff3a6-6614-480d-b38b-a276f7604b95"},"vehicle_type_id":"4","last_reported":1726492676,"current_range_meters":38800,"station_id":"ce4bgv92rcd13ifvqcq0","pricing_plan_id":"cebpf4jnsgd1na2vs0mg"},{"bike_id":"b1db6496-7d7b-4acc-a88c-e5406d38e100","system_id":"levelo_inurba_marseille","lat":43.23198,"lon":5.35544,"is_reserved":false,"is_disabled":false,"rental_uris":{"android":"levelo://app?vid=b1db6496-7d7b-4acc-a88c-e5406d38e100","ios":"levelo://app?vid=b1db6496-7d7b-4acc-a88c-e5406d38e100"},"vehicle_type_id":"4","last_reported":1726492676,"current_range_meters":32000,"station_id":"ce4bhu92rcd13ifvqi70","pricing_plan_id":"cebpf4jnsgd1na2vs0mg"},{"bike_id":"a45e584f-45ef-40d2-91fe-95472d347909","system_id":"levelo_inurba_marseille","lat":43.24552,"lon":5.39517,"is_reserved":false,"is_disabled":false,"rental_uris":{"android":"levelo://app?vid=a45e584f-45ef-40d2-91fe-95472d347909","ios":"levelo://app?vid=a45e584f-45ef-40d2-91fe-95472d347909"},"vehicle_type_id":"4","last_reported":1726492676,"current_range_meters":28000,"station_id":"ce4bhlp2rcd13ifvqgjg","pricing_plan_id":"cebpf4jnsgd1na2vs0mg"},{"bike_id":"ee721f16-71d0-49c8-9da4-858f78b55bcb","system_id":"levelo_inurba_marseille","lat":43.25944,"lon":5.40894,"is_reserved":false,"is_disabled":false,"rental_uris":{"android":"levelo://app?vid=ee721f16-71d0-49c8-9da4-858f78b55bcb","ios":"levelo://app?vid=ee721f16-71d0-49c8-9da4-858f78b55bcb"},"vehicle_type_id":"4","last_reported":1726492676,"current_range_meters":20000,"station_id":"ce4bhm92rcd13ifvqglg","pricing_plan_id":"cebpf4jnsgd1na2vs0mg"},{"bike_id":"d0d98569-4684-457d-b8c1-a6ed6dcc71d0","system_id":"levelo_inurba_marseille","lat":43.29882,"lon":5.39737,"is_reserved":false,"is_disabled":false,"rental_uris":{"android":"levelo://app?vid=d0d98569-4684-457d-b8c1-a6ed6dcc71d0","ios":"levelo://app?vid=d0d98569-4684-457d-b8c1-a6ed6dcc71d0"},"vehicle_type_id":"4","last_reported":1726492676,"current_range_meters":37600,"station_id":"ce4bh0h2rcd13ifvqd50","pricing_plan_id":"cebpf4jnsgd1na2vs0mg"},{"bike_id":"673c1b5e-9443-4dc4-bb54-52e29ea0abc7","system_id":"levelo_inurba_marseille","lat":43.23149,"lon":5.43721,"is_reserved":false,"is_disabled":false,"rental_uris":{"android":"levelo://app?vid=673c1b5e-9443-4dc4-bb54-52e29ea0abc7","ios":"levelo://app?vid=673c1b5e-9443-4dc4-bb54-52e29ea0abc7"},"vehicle_type_id":"4","last_reported":1726492676,"current_range_meters":32400,"station_id":"ce4bhmp2rcd13ifvqgog","pricing_plan_id":"cebpf4jnsgd1na2vs0mg"},{"bike_id":"5cf4c2f1-f092-4550-b8cf-369099ebc3bc","system_id":"levelo_inurba_marseille","lat":43.24564,"lon":5.41549,"is_reserved":false,"is_disabled":false,"rental_uris":{"android":"levelo://app?vid=5cf4c2f1-f092-4550-b8cf-369099ebc3bc","ios":"levelo://app?vid=5cf4c2f1-f092-4550-b8cf-369099ebc3bc"},"vehicle_type_id":"4","last_reported":1726492676,"current_range_meters":8800,"station_id":"ce4bhlh2rcd13ifvqgig","pricing_plan_id":"cebpf4jnsgd1na2vs0mg"},{"bike_id":"2b708fe1-35f1-4271-80ba-95ca5cf02c60","system_id":"levelo_inurba_marseille","lat":43.29625,"lon":5.37169,"is_reserved":false,"is_disabled":false,"rental_uris":{"android":"levelo://app?vid=2b708fe1-35f1-4271-80ba-95ca5cf02c60","ios":"levelo://app?vid=2b708fe1-35f1-4271-80ba-95ca5cf02c60"},"vehicle_type_id":"4","last_reported":1726492676,"current_range_meters":17600,"station_id":"ce4bgnh2rcd13ifvqc0g","pricing_plan_id":"cebpf4jnsgd1na2vs0mg"},{"bike_id":"4721e0a5-8c0a-4c61-91fb-10c3ba183135","system_id":"levelo_inurba_marseille","lat":43.25009,"lon":5.38923,"is_reserved":false,"is_disabled":false,"rental_uris":{"android":"levelo://app?vid=4721e0a5-8c0a-4c61-91fb-10c3ba183135","ios":"levelo://app?vid=4721e0a5-8c0a-4c61-91fb-10c3ba183135"},"vehicle_type_id":"4","last_reported":1726492676,"current_range_meters":9200,"station_id":"ce4bhgp2rcd13ifvqfd0","pricing_plan_id":"cebpf4jnsgd1na2vs0mg"},{"bike_id":"cee6c614-0070-47b5-af92-02b115abd659","system_id":"levelo_inurba_marseille","lat":43.30547,"lon":5.36528,"is_reserved":false,"is_disabled":false,"rental_uris":{"android":"levelo://app?vid=cee6c614-0070-47b5-af92-02b115abd659","ios":"levelo://app?vid=cee6c614-0070-47b5-af92-02b115abd659"},"vehicle_type_id":"4","last_reported":1726492676,"current_range_meters":27200,"station_id":"ce4bgs12rcd13ifvqcag","pricing_plan_id":"cebpf4jnsgd1na2vs0mg"},{"bike_id":"223bcd1f-bde5-46f7-ab5f-e5751f9d998e","system_id":"levelo_inurba_marseille","lat":43.3055,"lon":5.36696,"is_reserved":false,"is_disabled":false,"rental_uris":{"android":"levelo://app?vid=223bcd1f-bde5-46f7-ab5f-e5751f9d998e","ios":"levelo://app?vid=223bcd1f-bde5-46f7-ab5f-e5751f9d998e"},"vehicle_type_id":"4","last_reported":1726492676,"current_range_meters":20800,"station_id":"ce4bgrp2rcd13ifvqc9g","pricing_plan_id":"cebpf4jnsgd1na2vs0mg"},{"bike_id":"b08950ba-02a0-46d4-8c68-863f0b3477e8","system_id":"levelo_inurba_marseille","lat":43.32485,"lon":5.36555,"is_reserved":false,"is_disabled":false,"rental_uris":{"android":"levelo://app?vid=b08950ba-02a0-46d4-8c68-863f0b3477e8","ios":"levelo://app?vid=b08950ba-02a0-46d4-8c68-863f0b3477e8"},"vehicle_type_id":"4","last_reported":1726492676,"current_range_meters":36800,"station_id":"ce4bhs12rcd13ifvqhvg","pricing_plan_id":"cebpf4jnsgd1na2vs0mg"},{"bike_id":"bed3da00-39fe-4606-96dc-24bfc70d6795","system_id":"levelo_inurba_marseille","lat":43.29879,"lon":5.39738,"is_reserved":false,"is_disabled":false,"rental_uris":{"android":"levelo://app?vid=bed3da00-39fe-4606-96dc-24bfc70d6795","ios":"levelo://app?vid=bed3da00-39fe-4606-96dc-24bfc70d6795"},"vehicle_type_id":"4","last_reported":1726492676,"current_range_meters":3600,"station_id":"ce4bh0h2rcd13ifvqd50","pricing_plan_id":"cebpf4jnsgd1na2vs0mg"},{"bike_id":"b645ac77-0d58-4fa9-8ad3-947af8bdb1d9","system_id":"levelo_inurba_marseille","lat":43.29899,"lon":5.43659,"is_reserved":false,"is_disabled":false,"rental_uris":{"android":"levelo://app?vid=b645ac77-0d58-4fa9-8ad3-947af8bdb1d9","ios":"levelo://app?vid=b645ac77-0d58-4fa9-8ad3-947af8bdb1d9"},"vehicle_type_id":"4","last_reported":1726492676,"current_range_meters":28800,"station_id":"ce4bhpp2rcd13ifvqhfg","pricing_plan_id":"cebpf4jnsgd1na2vs0mg"},{"bike_id":"03515e55-0de8-4f6d-953a-abbf71a9cce4","system_id":"levelo_inurba_marseille","lat":43.24075,"lon":5.37758,"is_reserved":false,"is_disabled":false,"rental_uris":{"android":"levelo://app?vid=03515e55-0de8-4f6d-953a-abbf71a9cce4","ios":"levelo://app?vid=03515e55-0de8-4f6d-953a-abbf71a9cce4"},"vehicle_type_id":"4","last_reported":1726492676,"current_range_meters":11200,"station_id":"ce4bhnp2rcd13ifvqgvg","pricing_plan_id":"cebpf4jnsgd1na2vs0mg"},{"bike_id":"07936be4-7e2c-435b-8572-d40958df7f67","system_id":"levelo_inurba_marseille","lat":43.30316,"lon":5.3691,"is_reserved":false,"is_disabled":false,"rental_uris":{"android":"levelo://app?vid=07936be4-7e2c-435b-8572-d40958df7f67","ios":"levelo://app?vid=07936be4-7e2c-435b-8572-d40958df7f67"},"vehicle_type_id":"4","last_reported":1726492676,"current_range_meters":36800,"station_id":"ce4bgqh2rcd13ifvqc5g","pricing_plan_id":"cebpf4jnsgd1na2vs0mg"},{"bike_id":"7abc2a25-404a-4f70-a7c0-c89315b5c4bc","system_id":"levelo_inurba_marseille","lat":43.29217,"lon":5.39925,"is_reserved":false,"is_disabled":false,"rental_uris":{"android":"levelo://app?vid=7abc2a25-404a-4f70-a7c0-c89315b5c4bc","ios":"levelo://app?vid=7abc2a25-404a-4f70-a7c0-c89315b5c4bc"},"vehicle_type_id":"4","last_reported":1726492676,"current_range_meters":26800,"station_id":"","pricing_plan_id":"cebpf4jnsgd1na2vs0mg"},{"bike_id":"a5306699-aa7b-4204-b727-7976ba1e747b","system_id":"levelo_inurba_marseille","lat":43.25936,"lon":5.40902,"is_reserved":false,"is_disabled":false,"rental_uris":{"android":"levelo://app?vid=a5306699-aa7b-4204-b727-7976ba1e747b","ios":"levelo://app?vid=a5306699-aa7b-4204-b727-7976ba1e747b"},"vehicle_type_id":"4","last_reported":1726492676,"current_range_meters":35200,"station_id":"ce4bhm92rcd13ifvqglg","pricing_plan_id":"cebpf4jnsgd1na2vs0mg"},{"bike_id":"d7003d70-1cbe-4c17-8a62-69957ba44368","system_id":"levelo_inurba_marseille","lat":43.267922,"lon":5.394153,"is_reserved":false,"is_disabled":false,"rental_uris":{"android":"levelo://app?vid=d7003d70-1cbe-4c17-8a62-69957ba44368","ios":"levelo://app?vid=d7003d70-1cbe-4c17-8a62-69957ba44368"},"vehicle_type_id":"4","last_reported":1726492676,"current_range_meters":27600,"station_id":"ce4bhh12rcd13ifvqfg0","pricing_plan_id":"cebpf4jnsgd1na2vs0mg"},{"bike_id":"677498c9-746b-4650-9a8e-2c7479635944","system_id":"levelo_inurba_marseille","lat":43.33022,"lon":5.3905,"is_reserved":false,"is_disabled":false,"rental_uris":{"android":"levelo://app?vid=677498c9-746b-4650-9a8e-2c7479635944","ios":"levelo://app?vid=677498c9-746b-4650-9a8e-2c7479635944"},"vehicle_type_id":"4","last_reported":1726492676,"current_range_meters":27200,"station_id":"ce4bhr92rcd13ifvqhrg","pricing_plan_id":"cebpf4jnsgd1na2vs0mg"},{"bike_id":"4054ec18-6eb9-47fe-8d35-44d9b58f9e73","system_id":"levelo_inurba_marseille","lat":43.337444,"lon":5.374475,"is_reserved":false,"is_disabled":false,"rental_uris":{"android":"levelo://app?vid=4054ec18-6eb9-47fe-8d35-44d9b58f9e73","ios":"levelo://app?vid=4054ec18-6eb9-47fe-8d35-44d9b58f9e73"},"vehicle_type_id":"4","last_reported":1726492676,"current_range_meters":26000,"station_id":"ce4bgvp2rcd13ifvqct0","pricing_plan_id":"cebpf4jnsgd1na2vs0mg"},{"bike_id":"38894744-911e-42cb-9034-5737d38051af","system_id":"levelo_inurba_marseille","lat":43.28282,"lon":5.35067,"is_reserved":false,"is_disabled":false,"rental_uris":{"android":"levelo://app?vid=38894744-911e-42cb-9034-5737d38051af","ios":"levelo://app?vid=38894744-911e-42cb-9034-5737d38051af"},"vehicle_type_id":"4","last_reported":1726492676,"current_range_meters":31200,"station_id":"ce4bhbp2rcd13ifvqerg","pricing_plan_id":"cebpf4jnsgd1na2vs0mg"},{"bike_id":"072a6d16-7683-4506-9dc1-09d443e8f562","system_id":"levelo_inurba_marseille","lat":43.31356,"lon":5.36707,"is_reserved":false,"is_disabled":false,"rental_uris":{"android":"levelo://app?vid=072a6d16-7683-4506-9dc1-09d443e8f562","ios":"levelo://app?vid=072a6d16-7683-4506-9dc1-09d443e8f562"},"vehicle_type_id":"4","last_reported":1726492676,"current_range_meters":26800,"station_id":"ce4bgr92rcd13ifvqc6g","pricing_plan_id":"cebpf4jnsgd1na2vs0mg"},{"bike_id":"3f5b63b5-9f49-4a52-a4be-0b706a026622","system_id":"levelo_inurba_marseille","lat":43.33027,"lon":5.39026,"is_reserved":false,"is_disabled":false,"rental_uris":{"android":"levelo://app?vid=3f5b63b5-9f49-4a52-a4be-0b706a026622","ios":"levelo://app?vid=3f5b63b5-9f49-4a52-a4be-0b706a026622"},"vehicle_type_id":"4","last_reported":1726492676,"current_range_meters":39200,"station_id":"ce4bhr92rcd13ifvqhrg","pricing_plan_id":"cebpf4jnsgd1na2vs0mg"},{"bike_id":"7e84a3ad-b6e2-47cb-a879-414e01b71399","system_id":"levelo_inurba_marseille","lat":43.27497,"lon":5.42452,"is_reserved":false,"is_disabled":false,"rental_uris":{"android":"levelo://app?vid=7e84a3ad-b6e2-47cb-a879-414e01b71399","ios":"levelo://app?vid=7e84a3ad-b6e2-47cb-a879-414e01b71399"},"vehicle_type_id":"4","last_reported":1726492676,"current_range_meters":36400,"station_id":"ce4bhn92rcd13ifvqgrg","pricing_plan_id":"cebpf4jnsgd1na2vs0mg"},{"bike_id":"768c1919-bd6b-4946-836a-3b7da2a75b45","system_id":"levelo_inurba_marseille","lat":43.29577,"lon":5.3996,"is_reserved":false,"is_disabled":false,"rental_uris":{"android":"levelo://app?vid=768c1919-bd6b-4946-836a-3b7da2a75b45","ios":"levelo://app?vid=768c1919-bd6b-4946-836a-3b7da2a75b45"},"vehicle_type_id":"4","last_reported":1726492676,"current_range_meters":27600,"station_id":"ce4bh312rcd13ifvqdj0","pricing_plan_id":"cebpf4jnsgd1na2vs0mg"},{"bike_id":"dd3fa9ce-2365-48d1-bc88-6f622db69778","system_id":"levelo_inurba_marseille","lat":43.26485,"lon":5.39553,"is_reserved":false,"is_disabled":false,"rental_uris":{"android":"levelo://app?vid=dd3fa9ce-2365-48d1-bc88-6f622db69778","ios":"levelo://app?vid=dd3fa9ce-2365-48d1-bc88-6f622db69778"},"vehicle_type_id":"4","last_reported":1726492676,"current_range_meters":18800,"station_id":"ce4bhi12rcd13ifvqfq0","pricing_plan_id":"cebpf4jnsgd1na2vs0mg"},{"bike_id":"cf8bb925-2f34-4ac0-90a2-a3cae3790e74","system_id":"levelo_inurba_marseille","lat":43.26562,"lon":5.38998,"is_reserved":false,"is_disabled":false,"rental_uris":{"android":"levelo://app?vid=cf8bb925-2f34-4ac0-90a2-a3cae3790e74","ios":"levelo://app?vid=cf8bb925-2f34-4ac0-90a2-a3cae3790e74"},"vehicle_type_id":"4","last_reported":1726492676,"current_range_meters":24400,"station_id":"ce4bhe12rcd13ifvqf30","pricing_plan_id":"cebpf4jnsgd1na2vs0mg"},{"bike_id":"fed06930-89a5-4d22-8cb4-0207d0de30ad","system_id":"levelo_inurba_marseille","lat":43.27569,"lon":5.3841,"is_reserved":false,"is_disabled":false,"rental_uris":{"android":"levelo://app?vid=fed06930-89a5-4d22-8cb4-0207d0de30ad","ios":"levelo://app?vid=fed06930-89a5-4d22-8cb4-0207d0de30ad"},"vehicle_type_id":"4","last_reported":1726492676,"current_range_meters":9600,"station_id":"ce4bhh92rcd13ifvqfi0","pricing_plan_id":"cebpf4jnsgd1na2vs0mg"},{"bike_id":"8d252846-4f48-41e0-8750-fdb4b254a6e4","system_id":"levelo_inurba_marseille","lat":43.24073,"lon":5.3775,"is_reserved":false,"is_disabled":false,"rental_uris":{"android":"levelo://app?vid=8d252846-4f48-41e0-8750-fdb4b254a6e4","ios":"levelo://app?vid=8d252846-4f48-41e0-8750-fdb4b254a6e4"},"vehicle_type_id":"4","last_reported":1726492676,"current_range_meters":13600,"station_id":"ce4bhnp2rcd13ifvqgvg","pricing_plan_id":"cebpf4jnsgd1na2vs0mg"},{"bike_id":"d6563275-bced-405d-afca-a6c17d96a2be","system_id":"levelo_inurba_marseille","lat":43.25943,"lon":5.40901,"is_reserved":false,"is_disabled":false,"rental_uris":{"android":"levelo://app?vid=d6563275-bced-405d-afca-a6c17d96a2be","ios":"levelo://app?vid=d6563275-bced-405d-afca-a6c17d96a2be"},"vehicle_type_id":"4","last_reported":1726492676,"current_range_meters":27600,"station_id":"ce4bhm92rcd13ifvqglg","pricing_plan_id":"cebpf4jnsgd1na2vs0mg"},{"bike_id":"a17977b7-f5c8-458d-b64e-0e9931d6064c","system_id":"levelo_inurba_marseille","lat":43.25,"lon":5.38929,"is_reserved":false,"is_disabled":false,"rental_uris":{"android":"levelo://app?vid=a17977b7-f5c8-458d-b64e-0e9931d6064c","ios":"levelo://app?vid=a17977b7-f5c8-458d-b64e-0e9931d6064c"},"vehicle_type_id":"4","last_reported":1726492676,"current_range_meters":28000,"station_id":"ce4bhgp2rcd13ifvqfd0","pricing_plan_id":"cebpf4jnsgd1na2vs0mg"},{"bike_id":"dd2d821c-8b24-431f-a2ec-388c48a5aca8","system_id":"levelo_inurba_marseille","lat":43.24668,"lon":5.38168,"is_reserved":false,"is_disabled":false,"rental_uris":{"android":"levelo://app?vid=dd2d821c-8b24-431f-a2ec-388c48a5aca8","ios":"levelo://app?vid=dd2d821c-8b24-431f-a2ec-388c48a5aca8"},"vehicle_type_id":"4","last_reported":1726492676,"current_range_meters":38800,"station_id":"ce4bhih2rcd13ifvqfr0","pricing_plan_id":"cebpf4jnsgd1na2vs0mg"},{"bike_id":"c60db088-9c81-4d76-a80e-75deeca547cd","system_id":"levelo_inurba_marseille","lat":43.30143,"lon":5.37415,"is_reserved":false,"is_disabled":false,"rental_uris":{"android":"levelo://app?vid=c60db088-9c81-4d76-a80e-75deeca547cd","ios":"levelo://app?vid=c60db088-9c81-4d76-a80e-75deeca547cd"},"vehicle_type_id":"4","last_reported":1726492676,"current_range_meters":19200,"station_id":"ce4bgs92rcd13ifvqcc0","pricing_plan_id":"cebpf4jnsgd1na2vs0mg"},{"bike_id":"613500e7-734e-4c90-b180-b530482da983","system_id":"levelo_inurba_marseille","lat":43.27814,"lon":5.40715,"is_reserved":false,"is_disabled":false,"rental_uris":{"android":"levelo://app?vid=613500e7-734e-4c90-b180-b530482da983","ios":"levelo://app?vid=613500e7-734e-4c90-b180-b530482da983"},"vehicle_type_id":"4","last_reported":1726492676,"current_range_meters":27200,"station_id":"ce4bhnh2rcd13ifvqgtg","pricing_plan_id":"cebpf4jnsgd1na2vs0mg"},{"bike_id":"2b17c26f-d867-445e-b68a-2c6f8b249fd3","system_id":"levelo_inurba_marseille","lat":43.25123,"lon":5.40317,"is_reserved":false,"is_disabled":false,"rental_uris":{"android":"levelo://app?vid=2b17c26f-d867-445e-b68a-2c6f8b249fd3","ios":"levelo://app?vid=2b17c26f-d867-445e-b68a-2c6f8b249fd3"},"vehicle_type_id":"4","last_reported":1726492676,"current_range_meters":38800,"station_id":"ce4bhlh2rcd13ifvqgig","pricing_plan_id":"cebpf4jnsgd1na2vs0mg"},{"bike_id":"d026a83b-f22d-4a8c-b2f2-7730a6b16272","system_id":"levelo_inurba_marseille","lat":43.23146,"lon":5.4372,"is_reserved":false,"is_disabled":false,"rental_uris":{"android":"levelo://app?vid=d026a83b-f22d-4a8c-b2f2-7730a6b16272","ios":"levelo://app?vid=d026a83b-f22d-4a8c-b2f2-7730a6b16272"},"vehicle_type_id":"4","last_reported":1726492676,"current_range_meters":38800,"station_id":"ce4bhmp2rcd13ifvqgog","pricing_plan_id":"cebpf4jnsgd1na2vs0mg"},{"bike_id":"34d94a26-ec93-4e8d-a6c6-3d558ea2d4e4","system_id":"levelo_inurba_marseille","lat":43.25941,"lon":5.40902,"is_reserved":false,"is_disabled":false,"rental_uris":{"android":"levelo://app?vid=34d94a26-ec93-4e8d-a6c6-3d558ea2d4e4","ios":"levelo://app?vid=34d94a26-ec93-4e8d-a6c6-3d558ea2d4e4"},"vehicle_type_id":"4","last_reported":1726492676,"current_range_meters":17200,"station_id":"ce4bhm92rcd13ifvqglg","pricing_plan_id":"cebpf4jnsgd1na2vs0mg"},{"bike_id":"4b2ba85a-29ad-44c1-a157-f219369e26f8","system_id":"levelo_inurba_marseille","lat":43.27497,"lon":5.4245,"is_reserved":false,"is_disabled":false,"rental_uris":{"android":"levelo://app?vid=4b2ba85a-29ad-44c1-a157-f219369e26f8","ios":"levelo://app?vid=4b2ba85a-29ad-44c1-a157-f219369e26f8"},"vehicle_type_id":"4","last_reported":1726492676,"current_range_meters":35200,"station_id":"ce4bhn92rcd13ifvqgrg","pricing_plan_id":"cebpf4jnsgd1na2vs0mg"},{"bike_id":"99684f50-b398-427b-a4e9-7ca0a0382c79","system_id":"levelo_inurba_marseille","lat":43.23202,"lon":5.35543,"is_reserved":false,"is_disabled":false,"rental_uris":{"android":"levelo://app?vid=99684f50-b398-427b-a4e9-7ca0a0382c79","ios":"levelo://app?vid=99684f50-b398-427b-a4e9-7ca0a0382c79"},"vehicle_type_id":"4","last_reported":1726492676,"current_range_meters":39200,"station_id":"ce4bhu92rcd13ifvqi70","pricing_plan_id":"cebpf4jnsgd1na2vs0mg"},{"bike_id":"a539c83d-af40-4a5b-bc2b-6b1214ec88bd","system_id":"levelo_inurba_marseille","lat":43.30313,"lon":5.36889,"is_reserved":false,"is_disabled":false,"rental_uris":{"android":"levelo://app?vid=a539c83d-af40-4a5b-bc2b-6b1214ec88bd","ios":"levelo://app?vid=a539c83d-af40-4a5b-bc2b-6b1214ec88bd"},"vehicle_type_id":"4","last_reported":1726492676,"current_range_meters":38800,"station_id":"ce4bgqh2rcd13ifvqc5g","pricing_plan_id":"cebpf4jnsgd1na2vs0mg"},{"bike_id":"1713f163-d2b1-4bf3-a721-d65fea6d9acf","system_id":"levelo_inurba_marseille","lat":43.3176,"lon":5.39014,"is_reserved":false,"is_disabled":false,"rental_uris":{"android":"levelo://app?vid=1713f163-d2b1-4bf3-a721-d65fea6d9acf","ios":"levelo://app?vid=1713f163-d2b1-4bf3-a721-d65fea6d9acf"},"vehicle_type_id":"4","last_reported":1726492676,"current_range_meters":32400,"station_id":"ce4bhqp2rcd13ifvqhng","pricing_plan_id":"cebpf4jnsgd1na2vs0mg"},{"bike_id":"4ba01153-3392-40e0-8d38-f742b42315d8","system_id":"levelo_inurba_marseille","lat":43.3229,"lon":5.38277,"is_reserved":false,"is_disabled":false,"rental_uris":{"android":"levelo://app?vid=4ba01153-3392-40e0-8d38-f742b42315d8","ios":"levelo://app?vid=4ba01153-3392-40e0-8d38-f742b42315d8"},"vehicle_type_id":"4","last_reported":1726492676,"current_range_meters":32000,"station_id":"ce4bhr12rcd13ifvqhqg","pricing_plan_id":"cebpf4jnsgd1na2vs0mg"},{"bike_id":"4fc276e2-64e1-4816-8d01-972775c8c58d","system_id":"levelo_inurba_marseille","lat":43.27943,"lon":5.41046,"is_reserved":false,"is_disabled":false,"rental_uris":{"android":"levelo://app?vid=4fc276e2-64e1-4816-8d01-972775c8c58d","ios":"levelo://app?vid=4fc276e2-64e1-4816-8d01-972775c8c58d"},"vehicle_type_id":"4","last_reported":1726492676,"current_range_meters":2000,"station_id":"ce4bhnp2rcd13ifvqh0g","pricing_plan_id":"cebpf4jnsgd1na2vs0mg"},{"bike_id":"a6311b6f-10f9-4a78-92f6-30afcc0f336d","system_id":"levelo_inurba_marseille","lat":43.337444,"lon":5.374475,"is_reserved":false,"is_disabled":false,"rental_uris":{"android":"levelo://app?vid=a6311b6f-10f9-4a78-92f6-30afcc0f336d","ios":"levelo://app?vid=a6311b6f-10f9-4a78-92f6-30afcc0f336d"},"vehicle_type_id":"4","last_reported":1726492676,"current_range_meters":32400,"station_id":"","pricing_plan_id":"cebpf4jnsgd1na2vs0mg"},{"bike_id":"0f808d02-6df2-4fb7-b534-a56f3c6d6147","system_id":"levelo_inurba_marseille","lat":43.32492,"lon":5.36551,"is_reserved":false,"is_disabled":false,"rental_uris":{"android":"levelo://app?vid=0f808d02-6df2-4fb7-b534-a56f3c6d6147","ios":"levelo://app?vid=0f808d02-6df2-4fb7-b534-a56f3c6d6147"},"vehicle_type_id":"4","last_reported":1726492676,"current_range_meters":30800,"station_id":"ce4bhs12rcd13ifvqhvg","pricing_plan_id":"cebpf4jnsgd1na2vs0mg"},{"bike_id":"69830abe-c924-423a-8786-36a00a1d2d02","system_id":"levelo_inurba_marseille","lat":43.31722,"lon":5.42398,"is_reserved":false,"is_disabled":false,"rental_uris":{"android":"levelo://app?vid=69830abe-c924-423a-8786-36a00a1d2d02","ios":"levelo://app?vid=69830abe-c924-423a-8786-36a00a1d2d02"},"vehicle_type_id":"4","last_reported":1726492676,"current_range_meters":38000,"station_id":"ce4bhp92rcd13ifvqhbg","pricing_plan_id":"cebpf4jnsgd1na2vs0mg"},{"bike_id":"5586d3e5-948d-4b1b-bc04-513461f1fd5f","system_id":"levelo_inurba_marseille","lat":43.31501,"lon":5.37312,"is_reserved":false,"is_disabled":false,"rental_uris":{"android":"levelo://app?vid=5586d3e5-948d-4b1b-bc04-513461f1fd5f","ios":"levelo://app?vid=5586d3e5-948d-4b1b-bc04-513461f1fd5f"},"vehicle_type_id":"4","last_reported":1726492676,"current_range_meters":38800,"station_id":"","pricing_plan_id":"cebpf4jnsgd1na2vs0mg"},{"bike_id":"974d0292-e689-41dc-84d3-0fc581324517","system_id":"levelo_inurba_marseille","lat":43.31231,"lon":5.36857,"is_reserved":false,"is_disabled":false,"rental_uris":{"android":"levelo://app?vid=974d0292-e689-41dc-84d3-0fc581324517","ios":"levelo://app?vid=974d0292-e689-41dc-84d3-0fc581324517"},"vehicle_type_id":"4","last_reported":1726492676,"current_range_meters":20800,"station_id":"ce4bgl92rcd13ifvqbq0","pricing_plan_id":"cebpf4jnsgd1na2vs0mg"},{"bike_id":"e2fa99e4-8bad-47d3-84a6-360fe67ed967","system_id":"levelo_inurba_marseille","lat":43.26957,"lon":5.38628,"is_reserved":false,"is_disabled":false,"rental_uris":{"android":"levelo://app?vid=e2fa99e4-8bad-47d3-84a6-360fe67ed967","ios":"levelo://app?vid=e2fa99e4-8bad-47d3-84a6-360fe67ed967"},"vehicle_type_id":"4","last_reported":1726492676,"current_range_meters":14800,"station_id":"ce4bhh92rcd13ifvqfh0","pricing_plan_id":"cebpf4jnsgd1na2vs0mg"},{"bike_id":"785783be-7bfb-4269-b660-c5c3fd28c889","system_id":"levelo_inurba_marseille","lat":43.27989,"lon":5.41652,"is_reserved":false,"is_disabled":false,"rental_uris":{"android":"levelo://app?vid=785783be-7bfb-4269-b660-c5c3fd28c889","ios":"levelo://app?vid=785783be-7bfb-4269-b660-c5c3fd28c889"},"vehicle_type_id":"4","last_reported":1726492676,"current_range_meters":29600,"station_id":"ce4bho12rcd13ifvqh1g","pricing_plan_id":"cebpf4jnsgd1na2vs0mg"},{"bike_id":"ac90c758-253d-406b-a691-60250802baf4","system_id":"levelo_inurba_marseille","lat":43.30536,"lon":5.36709,"is_reserved":false,"is_disabled":false,"rental_uris":{"android":"levelo://app?vid=ac90c758-253d-406b-a691-60250802baf4","ios":"levelo://app?vid=ac90c758-253d-406b-a691-60250802baf4"},"vehicle_type_id":"4","last_reported":1726492676,"current_range_meters":19200,"station_id":"ce4bgrp2rcd13ifvqc9g","pricing_plan_id":"cebpf4jnsgd1na2vs0mg"},{"bike_id":"9b63ba48-49dc-41b6-8742-1ca59afdc1a0","system_id":"levelo_inurba_marseille","lat":43.31515,"lon":5.37316,"is_reserved":false,"is_disabled":false,"rental_uris":{"android":"levelo://app?vid=9b63ba48-49dc-41b6-8742-1ca59afdc1a0","ios":"levelo://app?vid=9b63ba48-49dc-41b6-8742-1ca59afdc1a0"},"vehicle_type_id":"4","last_reported":1726492676,"current_range_meters":8800,"station_id":"ce4bgt12rcd13ifvqcd0","pricing_plan_id":"cebpf4jnsgd1na2vs0mg"},{"bike_id":"eb1b4904-bf0b-4641-a21f-954c2b5ed616","system_id":"levelo_inurba_marseille","lat":43.30789,"lon":5.37642,"is_reserved":false,"is_disabled":false,"rental_uris":{"android":"levelo://app?vid=eb1b4904-bf0b-4641-a21f-954c2b5ed616","ios":"levelo://app?vid=eb1b4904-bf0b-4641-a21f-954c2b5ed616"},"vehicle_type_id":"4","last_reported":1726492676,"current_range_meters":9200,"station_id":"ce4bgv92rcd13ifvqcq0","pricing_plan_id":"cebpf4jnsgd1na2vs0mg"},{"bike_id":"16239724-f1a2-42c5-b099-e68180263f2d","system_id":"levelo_inurba_marseille","lat":43.25091,"lon":5.3952,"is_reserved":false,"is_disabled":false,"rental_uris":{"android":"levelo://app?vid=16239724-f1a2-42c5-b099-e68180263f2d","ios":"levelo://app?vid=16239724-f1a2-42c5-b099-e68180263f2d"},"vehicle_type_id":"4","last_reported":1726492676,"current_range_meters":12000,"station_id":"ce4bhm12rcd13ifvqgkg","pricing_plan_id":"cebpf4jnsgd1na2vs0mg"},{"bike_id":"5c8586be-866d-4c70-a99a-c0b1dc83c9c5","system_id":"levelo_inurba_marseille","lat":43.29281,"lon":5.40125,"is_reserved":false,"is_disabled":false,"rental_uris":{"android":"levelo://app?vid=5c8586be-866d-4c70-a99a-c0b1dc83c9c5","ios":"levelo://app?vid=5c8586be-866d-4c70-a99a-c0b1dc83c9c5"},"vehicle_type_id":"4","last_reported":1726492676,"current_range_meters":38800,"station_id":"ce4bh312rcd13ifvqdk0","pricing_plan_id":"cebpf4jnsgd1na2vs0mg"},{"bike_id":"c43d8329-860b-4792-8ce2-387084c42c33","system_id":"levelo_inurba_marseille","lat":43.32493,"lon":5.36562,"is_reserved":false,"is_disabled":false,"rental_uris":{"android":"levelo://app?vid=c43d8329-860b-4792-8ce2-387084c42c33","ios":"levelo://app?vid=c43d8329-860b-4792-8ce2-387084c42c33"},"vehicle_type_id":"4","last_reported":1726492676,"current_range_meters":24400,"station_id":"ce4bhs12rcd13ifvqhvg","pricing_plan_id":"cebpf4jnsgd1na2vs0mg"},{"bike_id":"e807f4ee-bb96-4206-b3cd-61d1caed3ef3","system_id":"levelo_inurba_marseille","lat":43.27202,"lon":5.39174,"is_reserved":false,"is_disabled":false,"rental_uris":{"android":"levelo://app?vid=e807f4ee-bb96-4206-b3cd-61d1caed3ef3","ios":"levelo://app?vid=e807f4ee-bb96-4206-b3cd-61d1caed3ef3"},"vehicle_type_id":"4","last_reported":1726492676,"current_range_meters":24800,"station_id":"ce4bh492rcd13ifvqdug","pricing_plan_id":"cebpf4jnsgd1na2vs0mg"},{"bike_id":"78ef158b-f472-48c4-a6d2-2dd6b3bb182b","system_id":"levelo_inurba_marseille","lat":43.2842,"lon":5.3498,"is_reserved":false,"is_disabled":false,"rental_uris":{"android":"levelo://app?vid=78ef158b-f472-48c4-a6d2-2dd6b3bb182b","ios":"levelo://app?vid=78ef158b-f472-48c4-a6d2-2dd6b3bb182b"},"vehicle_type_id":"4","last_reported":1726492676,"current_range_meters":20000,"station_id":"ce4bhbh2rcd13ifvqepg","pricing_plan_id":"cebpf4jnsgd1na2vs0mg"},{"bike_id":"e6c21cbb-a64c-440b-ad39-4a66fc0a1536","system_id":"levelo_inurba_marseille","lat":43.23068,"lon":5.35484,"is_reserved":false,"is_disabled":false,"rental_uris":{"android":"levelo://app?vid=e6c21cbb-a64c-440b-ad39-4a66fc0a1536","ios":"levelo://app?vid=e6c21cbb-a64c-440b-ad39-4a66fc0a1536"},"vehicle_type_id":"4","last_reported":1726492676,"current_range_meters":10000,"station_id":"cpo3342slgdg3j2ifvpg","pricing_plan_id":"cebpf4jnsgd1na2vs0mg"},{"bike_id":"25e305b7-c7fb-459a-bfdc-467ce5803429","system_id":"levelo_inurba_marseille","lat":43.2654,"lon":5.40316,"is_reserved":false,"is_disabled":false,"rental_uris":{"android":"levelo://app?vid=25e305b7-c7fb-459a-bfdc-467ce5803429","ios":"levelo://app?vid=25e305b7-c7fb-459a-bfdc-467ce5803429"},"vehicle_type_id":"4","last_reported":1726492676,"current_range_meters":36800,"station_id":"","pricing_plan_id":"cebpf4jnsgd1na2vs0mg"},{"bike_id":"f2c760ef-a707-4f31-a5ce-d42cd50f2c9f","system_id":"levelo_inurba_marseille","lat":43.30889,"lon":5.37188,"is_reserved":false,"is_disabled":false,"rental_uris":{"android":"levelo://app?vid=f2c760ef-a707-4f31-a5ce-d42cd50f2c9f","ios":"levelo://app?vid=f2c760ef-a707-4f31-a5ce-d42cd50f2c9f"},"vehicle_type_id":"4","last_reported":1726492676,"current_range_meters":14000,"station_id":"ce4bguh2rcd13ifvqckg","pricing_plan_id":"cebpf4jnsgd1na2vs0mg"},{"bike_id":"ce703cb4-aa06-4ca3-9d0d-9d78109ec482","system_id":"levelo_inurba_marseille","lat":43.31237,"lon":5.36878,"is_reserved":false,"is_disabled":false,"rental_uris":{"android":"levelo://app?vid=ce703cb4-aa06-4ca3-9d0d-9d78109ec482","ios":"levelo://app?vid=ce703cb4-aa06-4ca3-9d0d-9d78109ec482"},"vehicle_type_id":"4","last_reported":1726492676,"current_range_meters":28000,"station_id":"ce4bgl92rcd13ifvqbq0","pricing_plan_id":"cebpf4jnsgd1na2vs0mg"},{"bike_id":"6ad2fe94-195b-4d58-9ac6-d3a9675a4c80","system_id":"levelo_inurba_marseille","lat":43.23069,"lon":5.3549,"is_reserved":false,"is_disabled":false,"rental_uris":{"android":"levelo://app?vid=6ad2fe94-195b-4d58-9ac6-d3a9675a4c80","ios":"levelo://app?vid=6ad2fe94-195b-4d58-9ac6-d3a9675a4c80"},"vehicle_type_id":"4","last_reported":1726492676,"current_range_meters":16400,"station_id":"cpo3342slgdg3j2ifvpg","pricing_plan_id":"cebpf4jnsgd1na2vs0mg"},{"bike_id":"6dd17a2f-59bb-4453-859d-2c09ab795824","system_id":"levelo_inurba_marseille","lat":43.33021,"lon":5.39047,"is_reserved":false,"is_disabled":false,"rental_uris":{"android":"levelo://app?vid=6dd17a2f-59bb-4453-859d-2c09ab795824","ios":"levelo://app?vid=6dd17a2f-59bb-4453-859d-2c09ab795824"},"vehicle_type_id":"4","last_reported":1726492676,"current_range_meters":36800,"station_id":"ce4bhr92rcd13ifvqhrg","pricing_plan_id":"cebpf4jnsgd1na2vs0mg"},{"bike_id":"fc2e8ef3-f33f-4409-a28c-80d42488b868","system_id":"levelo_inurba_marseille","lat":43.24811,"lon":5.37454,"is_reserved":false,"is_disabled":false,"rental_uris":{"android":"levelo://app?vid=fc2e8ef3-f33f-4409-a28c-80d42488b868","ios":"levelo://app?vid=fc2e8ef3-f33f-4409-a28c-80d42488b868"},"vehicle_type_id":"4","last_reported":1726492676,"current_range_meters":17200,"station_id":"ce4bhgh2rcd13ifvqfb0","pricing_plan_id":"cebpf4jnsgd1na2vs0mg"},{"bike_id":"726f70c5-02a6-439d-a5e1-a2121d64266e","system_id":"levelo_inurba_marseille","lat":43.27179,"lon":5.40987,"is_reserved":false,"is_disabled":false,"rental_uris":{"android":"levelo://app?vid=726f70c5-02a6-439d-a5e1-a2121d64266e","ios":"levelo://app?vid=726f70c5-02a6-439d-a5e1-a2121d64266e"},"vehicle_type_id":"4","last_reported":1726492676,"current_range_meters":39200,"station_id":"ce4bhl12rcd13ifvqgf0","pricing_plan_id":"cebpf4jnsgd1na2vs0mg"},{"bike_id":"1c79db96-5e4d-4cfe-b310-bde8716f7bfd","system_id":"levelo_inurba_marseille","lat":43.30543,"lon":5.36696,"is_reserved":false,"is_disabled":false,"rental_uris":{"android":"levelo://app?vid=1c79db96-5e4d-4cfe-b310-bde8716f7bfd","ios":"levelo://app?vid=1c79db96-5e4d-4cfe-b310-bde8716f7bfd"},"vehicle_type_id":"4","last_reported":1726492676,"current_range_meters":16000,"station_id":"ce4bgrp2rcd13ifvqc9g","pricing_plan_id":"cebpf4jnsgd1na2vs0mg"},{"bike_id":"719c6b5a-bf77-44b5-bb4f-55c69a8b5caf","system_id":"levelo_inurba_marseille","lat":43.29799,"lon":5.38089,"is_reserved":false,"is_disabled":false,"rental_uris":{"android":"levelo://app?vid=719c6b5a-bf77-44b5-bb4f-55c69a8b5caf","ios":"levelo://app?vid=719c6b5a-bf77-44b5-bb4f-55c69a8b5caf"},"vehicle_type_id":"4","last_reported":1726492676,"current_range_meters":38000,"station_id":"ce4bgip2rcd13ifvqbb0","pricing_plan_id":"cebpf4jnsgd1na2vs0mg"},{"bike_id":"ee96fd0b-2e8e-46a7-9a56-213f944d9ccc","system_id":"levelo_inurba_marseille","lat":43.32493,"lon":5.36554,"is_reserved":false,"is_disabled":false,"rental_uris":{"android":"levelo://app?vid=ee96fd0b-2e8e-46a7-9a56-213f944d9ccc","ios":"levelo://app?vid=ee96fd0b-2e8e-46a7-9a56-213f944d9ccc"},"vehicle_type_id":"4","last_reported":1726492676,"current_range_meters":32000,"station_id":"ce4bhs12rcd13ifvqhvg","pricing_plan_id":"cebpf4jnsgd1na2vs0mg"},{"bike_id":"46b58b90-8e2a-4727-b3c0-7a0f24b91ceb","system_id":"levelo_inurba_marseille","lat":43.283203,"lon":5.388669,"is_reserved":false,"is_disabled":false,"rental_uris":{"android":"levelo://app?vid=46b58b90-8e2a-4727-b3c0-7a0f24b91ceb","ios":"levelo://app?vid=46b58b90-8e2a-4727-b3c0-7a0f24b91ceb"},"vehicle_type_id":"4","last_reported":1726492676,"current_range_meters":33200,"station_id":"ce4bgvh2rcd13ifvqcs0","pricing_plan_id":"cebpf4jnsgd1na2vs0mg"},{"bike_id":"1144f570-f9b4-45ed-9f6f-77fd7ad6e2c0","system_id":"levelo_inurba_marseille","lat":43.29965,"lon":5.4132,"is_reserved":false,"is_disabled":false,"rental_uris":{"android":"levelo://app?vid=1144f570-f9b4-45ed-9f6f-77fd7ad6e2c0","ios":"levelo://app?vid=1144f570-f9b4-45ed-9f6f-77fd7ad6e2c0"},"vehicle_type_id":"4","last_reported":1726492676,"current_range_meters":22400,"station_id":"ce4bhp12rcd13ifvqh9g","pricing_plan_id":"cebpf4jnsgd1na2vs0mg"},{"bike_id":"22f26e89-4ccd-47af-bb30-5f037502847c","system_id":"levelo_inurba_marseille","lat":43.23184,"lon":5.39997,"is_reserved":false,"is_disabled":false,"rental_uris":{"android":"levelo://app?vid=22f26e89-4ccd-47af-bb30-5f037502847c","ios":"levelo://app?vid=22f26e89-4ccd-47af-bb30-5f037502847c"},"vehicle_type_id":"4","last_reported":1726492676,"current_range_meters":32800,"station_id":"ce4bhn12rcd13ifvqgqg","pricing_plan_id":"cebpf4jnsgd1na2vs0mg"},{"bike_id":"58eaf4dd-20c7-4430-8cc9-f27340e81d2b","system_id":"levelo_inurba_marseille","lat":43.25838,"lon":5.39431,"is_reserved":false,"is_disabled":false,"rental_uris":{"android":"levelo://app?vid=58eaf4dd-20c7-4430-8cc9-f27340e81d2b","ios":"levelo://app?vid=58eaf4dd-20c7-4430-8cc9-f27340e81d2b"},"vehicle_type_id":"4","last_reported":1726492676,"current_range_meters":8800,"station_id":"ce4bhip2rcd13ifvqft0","pricing_plan_id":"cebpf4jnsgd1na2vs0mg"},{"bike_id":"b7176f90-1b00-4928-b03a-5e1c1e2ace12","system_id":"levelo_inurba_marseille","lat":43.3249,"lon":5.36566,"is_reserved":false,"is_disabled":false,"rental_uris":{"android":"levelo://app?vid=b7176f90-1b00-4928-b03a-5e1c1e2ace12","ios":"levelo://app?vid=b7176f90-1b00-4928-b03a-5e1c1e2ace12"},"vehicle_type_id":"4","last_reported":1726492676,"current_range_meters":8000,"station_id":"ce4bhs12rcd13ifvqhvg","pricing_plan_id":"cebpf4jnsgd1na2vs0mg"},{"bike_id":"d058256b-c6a8-498a-bee5-fce4ff6caee2","system_id":"levelo_inurba_marseille","lat":43.26947,"lon":5.40235,"is_reserved":false,"is_disabled":false,"rental_uris":{"android":"levelo://app?vid=d058256b-c6a8-498a-bee5-fce4ff6caee2","ios":"levelo://app?vid=d058256b-c6a8-498a-bee5-fce4ff6caee2"},"vehicle_type_id":"4","last_reported":1726492676,"current_range_meters":38400,"station_id":"cjm6bp8fraef2m0cb0m0","pricing_plan_id":"cebpf4jnsgd1na2vs0mg"},{"bike_id":"65eecb51-7024-4f30-af20-d65f809bce2b","system_id":"levelo_inurba_marseille","lat":43.31562,"lon":5.39253,"is_reserved":false,"is_disabled":false,"rental_uris":{"android":"levelo://app?vid=65eecb51-7024-4f30-af20-d65f809bce2b","ios":"levelo://app?vid=65eecb51-7024-4f30-af20-d65f809bce2b"},"vehicle_type_id":"4","last_reported":1726492676,"current_range_meters":13600,"station_id":"ce4bgvp2rcd13ifvqcu0","pricing_plan_id":"cebpf4jnsgd1na2vs0mg"},{"bike_id":"28b3e53a-b365-48d9-979e-58cb1b2618a4","system_id":"levelo_inurba_marseille","lat":43.279081,"lon":5.395729,"is_reserved":false,"is_disabled":false,"rental_uris":{"android":"levelo://app?vid=28b3e53a-b365-48d9-979e-58cb1b2618a4","ios":"levelo://app?vid=28b3e53a-b365-48d9-979e-58cb1b2618a4"},"vehicle_type_id":"4","last_reported":1726492676,"current_range_meters":36800,"station_id":"ce4bhf92rcd13ifvqf40","pricing_plan_id":"cebpf4jnsgd1na2vs0mg"},{"bike_id":"59be6144-8687-42b8-9009-fa3bb9900330","system_id":"levelo_inurba_marseille","lat":43.27307,"lon":5.39084,"is_reserved":false,"is_disabled":false,"rental_uris":{"android":"levelo://app?vid=59be6144-8687-42b8-9009-fa3bb9900330","ios":"levelo://app?vid=59be6144-8687-42b8-9009-fa3bb9900330"},"vehicle_type_id":"4","last_reported":1726492676,"current_range_meters":28400,"station_id":"ce4bhgp2rcd13ifvqfe0","pricing_plan_id":"cebpf4jnsgd1na2vs0mg"},{"bike_id":"00264db3-ff75-431a-8a64-b10abb53eb31","system_id":"levelo_inurba_marseille","lat":43.29554,"lon":5.42293,"is_reserved":false,"is_disabled":false,"rental_uris":{"android":"levelo://app?vid=00264db3-ff75-431a-8a64-b10abb53eb31","ios":"levelo://app?vid=00264db3-ff75-431a-8a64-b10abb53eb31"},"vehicle_type_id":"4","last_reported":1726492676,"current_range_meters":37600,"station_id":"ce4bhph2rcd13ifvqhdg","pricing_plan_id":"cebpf4jnsgd1na2vs0mg"},{"bike_id":"a18117be-7bd3-487f-af7a-2344c9ce9eb2","system_id":"levelo_inurba_marseille","lat":43.28285,"lon":5.35079,"is_reserved":false,"is_disabled":false,"rental_uris":{"android":"levelo://app?vid=a18117be-7bd3-487f-af7a-2344c9ce9eb2","ios":"levelo://app?vid=a18117be-7bd3-487f-af7a-2344c9ce9eb2"},"vehicle_type_id":"4","last_reported":1726492676,"current_range_meters":3200,"station_id":"ce4bhbp2rcd13ifvqerg","pricing_plan_id":"cebpf4jnsgd1na2vs0mg"},{"bike_id":"b802fa5b-e60e-4c41-85b2-184adfa16019","system_id":"levelo_inurba_marseille","lat":43.337444,"lon":5.374475,"is_reserved":false,"is_disabled":false,"rental_uris":{"android":"levelo://app?vid=b802fa5b-e60e-4c41-85b2-184adfa16019","ios":"levelo://app?vid=b802fa5b-e60e-4c41-85b2-184adfa16019"},"vehicle_type_id":"4","last_reported":1726492676,"current_range_meters":38000,"station_id":"","pricing_plan_id":"cebpf4jnsgd1na2vs0mg"},{"bike_id":"c830d428-4458-4ff4-acc8-164eac537974","system_id":"levelo_inurba_marseille","lat":43.337444,"lon":5.374475,"is_reserved":false,"is_disabled":false,"rental_uris":{"android":"levelo://app?vid=c830d428-4458-4ff4-acc8-164eac537974","ios":"levelo://app?vid=c830d428-4458-4ff4-acc8-164eac537974"},"vehicle_type_id":"4","last_reported":1726492676,"current_range_meters":6800,"station_id":"ce4bh312rcd13ifvqdj0","pricing_plan_id":"cebpf4jnsgd1na2vs0mg"},{"bike_id":"77be640b-ac4b-4617-be22-5763d79d29be","system_id":"levelo_inurba_marseille","lat":43.32484,"lon":5.3655,"is_reserved":false,"is_disabled":false,"rental_uris":{"android":"levelo://app?vid=77be640b-ac4b-4617-be22-5763d79d29be","ios":"levelo://app?vid=77be640b-ac4b-4617-be22-5763d79d29be"},"vehicle_type_id":"4","last_reported":1726492676,"current_range_meters":27600,"station_id":"ce4bhs12rcd13ifvqhvg","pricing_plan_id":"cebpf4jnsgd1na2vs0mg"},{"bike_id":"ede27382-2e15-413e-be39-239be05fdd62","system_id":"levelo_inurba_marseille","lat":43.23186,"lon":5.39989,"is_reserved":false,"is_disabled":false,"rental_uris":{"android":"levelo://app?vid=ede27382-2e15-413e-be39-239be05fdd62","ios":"levelo://app?vid=ede27382-2e15-413e-be39-239be05fdd62"},"vehicle_type_id":"4","last_reported":1726492676,"current_range_meters":35600,"station_id":"ce4bhn12rcd13ifvqgqg","pricing_plan_id":"cebpf4jnsgd1na2vs0mg"},{"bike_id":"2719e9bf-b2e1-4fde-bacb-91aecc6eaf41","system_id":"levelo_inurba_marseille","lat":43.26683,"lon":5.38266,"is_reserved":false,"is_disabled":false,"rental_uris":{"android":"levelo://app?vid=2719e9bf-b2e1-4fde-bacb-91aecc6eaf41","ios":"levelo://app?vid=2719e9bf-b2e1-4fde-bacb-91aecc6eaf41"},"vehicle_type_id":"4","last_reported":1726492676,"current_range_meters":10000,"station_id":"ce4bhg92rcd13ifvqf90","pricing_plan_id":"cebpf4jnsgd1na2vs0mg"},{"bike_id":"bd1998e9-4049-4c61-8c23-a9018ce938cc","system_id":"levelo_inurba_marseille","lat":43.27498,"lon":5.42448,"is_reserved":false,"is_disabled":false,"rental_uris":{"android":"levelo://app?vid=bd1998e9-4049-4c61-8c23-a9018ce938cc","ios":"levelo://app?vid=bd1998e9-4049-4c61-8c23-a9018ce938cc"},"vehicle_type_id":"4","last_reported":1726492676,"current_range_meters":30000,"station_id":"ce4bhn92rcd13ifvqgrg","pricing_plan_id":"cebpf4jnsgd1na2vs0mg"},{"bike_id":"7b81eb04-f8af-4de5-94c0-5bdd3caa8a4b","system_id":"levelo_inurba_marseille","lat":43.26558,"lon":5.37279,"is_reserved":false,"is_disabled":false,"rental_uris":{"android":"levelo://app?vid=7b81eb04-f8af-4de5-94c0-5bdd3caa8a4b","ios":"levelo://app?vid=7b81eb04-f8af-4de5-94c0-5bdd3caa8a4b"},"vehicle_type_id":"4","last_reported":1726492676,"current_range_meters":8400,"station_id":"ce4bhg12rcd13ifvqf70","pricing_plan_id":"cebpf4jnsgd1na2vs0mg"},{"bike_id":"6da566a6-1c56-4830-ad07-012b26ffeade","system_id":"levelo_inurba_marseille","lat":43.32488,"lon":5.36554,"is_reserved":false,"is_disabled":false,"rental_uris":{"android":"levelo://app?vid=6da566a6-1c56-4830-ad07-012b26ffeade","ios":"levelo://app?vid=6da566a6-1c56-4830-ad07-012b26ffeade"},"vehicle_type_id":"4","last_reported":1726492676,"current_range_meters":36800,"station_id":"ce4bhs12rcd13ifvqhvg","pricing_plan_id":"cebpf4jnsgd1na2vs0mg"},{"bike_id":"b7e318f9-9132-411a-90fb-eba3c066fa24","system_id":"levelo_inurba_marseille","lat":43.29533,"lon":5.38541,"is_reserved":false,"is_disabled":false,"rental_uris":{"android":"levelo://app?vid=b7e318f9-9132-411a-90fb-eba3c066fa24","ios":"levelo://app?vid=b7e318f9-9132-411a-90fb-eba3c066fa24"},"vehicle_type_id":"4","last_reported":1726492676,"current_range_meters":35200,"station_id":"ce4bgih2rcd13ifvqba0","pricing_plan_id":"cebpf4jnsgd1na2vs0mg"},{"bike_id":"2e95b63c-f6e4-4c4e-808c-eb3614b140b9","system_id":"levelo_inurba_marseille","lat":43.2758,"lon":5.38404,"is_reserved":false,"is_disabled":false,"rental_uris":{"android":"levelo://app?vid=2e95b63c-f6e4-4c4e-808c-eb3614b140b9","ios":"levelo://app?vid=2e95b63c-f6e4-4c4e-808c-eb3614b140b9"},"vehicle_type_id":"4","last_reported":1726492676,"current_range_meters":29600,"station_id":"ce4bhh92rcd13ifvqfi0","pricing_plan_id":"cebpf4jnsgd1na2vs0mg"},{"bike_id":"ba113fc8-69a7-4f82-8c00-86a31e048c97","system_id":"levelo_inurba_marseille","lat":43.32546,"lon":5.41433,"is_reserved":false,"is_disabled":false,"rental_uris":{"android":"levelo://app?vid=ba113fc8-69a7-4f82-8c00-86a31e048c97","ios":"levelo://app?vid=ba113fc8-69a7-4f82-8c00-86a31e048c97"},"vehicle_type_id":"4","last_reported":1726492676,"current_range_meters":18000,"station_id":"ce4bhq12rcd13ifvqhhg","pricing_plan_id":"cebpf4jnsgd1na2vs0mg"},{"bike_id":"412b9dee-d5b5-4cb3-a96f-23b8224490cc","system_id":"levelo_inurba_marseille","lat":43.27321,"lon":5.39081,"is_reserved":false,"is_disabled":false,"rental_uris":{"android":"levelo://app?vid=412b9dee-d5b5-4cb3-a96f-23b8224490cc","ios":"levelo://app?vid=412b9dee-d5b5-4cb3-a96f-23b8224490cc"},"vehicle_type_id":"4","last_reported":1726492676,"current_range_meters":26800,"station_id":"ce4bhgp2rcd13ifvqfe0","pricing_plan_id":"cebpf4jnsgd1na2vs0mg"},{"bike_id":"d919000c-5aae-4fe3-9444-cda057a56741","system_id":"levelo_inurba_marseille","lat":43.30142,"lon":5.37415,"is_reserved":false,"is_disabled":false,"rental_uris":{"android":"levelo://app?vid=d919000c-5aae-4fe3-9444-cda057a56741","ios":"levelo://app?vid=d919000c-5aae-4fe3-9444-cda057a56741"},"vehicle_type_id":"4","last_reported":1726492676,"current_range_meters":39200,"station_id":"ce4bgs92rcd13ifvqcc0","pricing_plan_id":"cebpf4jnsgd1na2vs0mg"},{"bike_id":"cbaf03bf-0340-4293-a424-18d0ef0b595f","system_id":"levelo_inurba_marseille","lat":43.29897,"lon":5.43668,"is_reserved":false,"is_disabled":false,"rental_uris":{"android":"levelo://app?vid=cbaf03bf-0340-4293-a424-18d0ef0b595f","ios":"levelo://app?vid=cbaf03bf-0340-4293-a424-18d0ef0b595f"},"vehicle_type_id":"4","last_reported":1726492676,"current_range_meters":27200,"station_id":"ce4bhpp2rcd13ifvqhfg","pricing_plan_id":"cebpf4jnsgd1na2vs0mg"},{"bike_id":"e3786723-9b65-43ea-9541-93bf1103a904","system_id":"levelo_inurba_marseille","lat":43.248102,"lon":5.374522,"is_reserved":false,"is_disabled":false,"rental_uris":{"android":"levelo://app?vid=e3786723-9b65-43ea-9541-93bf1103a904","ios":"levelo://app?vid=e3786723-9b65-43ea-9541-93bf1103a904"},"vehicle_type_id":"4","last_reported":1726492676,"current_range_meters":20400,"station_id":"ce4bhgh2rcd13ifvqfb0","pricing_plan_id":"cebpf4jnsgd1na2vs0mg"},{"bike_id":"fabd6680-bf5f-42cc-b8ce-1a55fdaaaa2c","system_id":"levelo_inurba_marseille","lat":43.28622,"lon":5.35107,"is_reserved":false,"is_disabled":false,"rental_uris":{"android":"levelo://app?vid=fabd6680-bf5f-42cc-b8ce-1a55fdaaaa2c","ios":"levelo://app?vid=fabd6680-bf5f-42cc-b8ce-1a55fdaaaa2c"},"vehicle_type_id":"4","last_reported":1726492676,"current_range_meters":36800,"station_id":"ce4bhch2rcd13ifvqeug","pricing_plan_id":"cebpf4jnsgd1na2vs0mg"},{"bike_id":"9310b7ad-2ca0-43b0-8762-7d9a2657eb36","system_id":"levelo_inurba_marseille","lat":43.26946,"lon":5.40244,"is_reserved":false,"is_disabled":false,"rental_uris":{"android":"levelo://app?vid=9310b7ad-2ca0-43b0-8762-7d9a2657eb36","ios":"levelo://app?vid=9310b7ad-2ca0-43b0-8762-7d9a2657eb36"},"vehicle_type_id":"4","last_reported":1726492676,"current_range_meters":33200,"station_id":"cjm6bp8fraef2m0cb0m0","pricing_plan_id":"cebpf4jnsgd1na2vs0mg"},{"bike_id":"5c62d84b-bcac-4078-9f3e-f282f882f378","system_id":"levelo_inurba_marseille","lat":43.26059,"lon":5.39392,"is_reserved":false,"is_disabled":false,"rental_uris":{"android":"levelo://app?vid=5c62d84b-bcac-4078-9f3e-f282f882f378","ios":"levelo://app?vid=5c62d84b-bcac-4078-9f3e-f282f882f378"},"vehicle_type_id":"4","last_reported":1726492676,"current_range_meters":30000,"station_id":"ce4bhh92rcd13ifvqfj0","pricing_plan_id":"cebpf4jnsgd1na2vs0mg"},{"bike_id":"103368f7-6cf9-4f61-a9f7-0e638a4ed99a","system_id":"levelo_inurba_marseille","lat":43.24082,"lon":5.37748,"is_reserved":false,"is_disabled":false,"rental_uris":{"android":"levelo://app?vid=103368f7-6cf9-4f61-a9f7-0e638a4ed99a","ios":"levelo://app?vid=103368f7-6cf9-4f61-a9f7-0e638a4ed99a"},"vehicle_type_id":"4","last_reported":1726492676,"current_range_meters":8000,"station_id":"ce4bhnp2rcd13ifvqgvg","pricing_plan_id":"cebpf4jnsgd1na2vs0mg"},{"bike_id":"75e88314-acce-46dd-b1a9-55527e8815c5","system_id":"levelo_inurba_marseille","lat":43.319145,"lon":5.392153,"is_reserved":false,"is_disabled":false,"rental_uris":{"android":"levelo://app?vid=75e88314-acce-46dd-b1a9-55527e8815c5","ios":"levelo://app?vid=75e88314-acce-46dd-b1a9-55527e8815c5"},"vehicle_type_id":"4","last_reported":1726492676,"current_range_meters":22000,"station_id":"ce4bhpp2rcd13ifvqhgg","pricing_plan_id":"cebpf4jnsgd1na2vs0mg"},{"bike_id":"af78b383-cb47-4a8e-8a00-34ed69efc3a0","system_id":"levelo_inurba_marseille","lat":43.24084,"lon":5.37738,"is_reserved":false,"is_disabled":false,"rental_uris":{"android":"levelo://app?vid=af78b383-cb47-4a8e-8a00-34ed69efc3a0","ios":"levelo://app?vid=af78b383-cb47-4a8e-8a00-34ed69efc3a0"},"vehicle_type_id":"4","last_reported":1726492676,"current_range_meters":38800,"station_id":"ce4bhnp2rcd13ifvqgvg","pricing_plan_id":"cebpf4jnsgd1na2vs0mg"},{"bike_id":"60202742-9104-41de-9c12-24edb545b697","system_id":"levelo_inurba_marseille","lat":43.291992,"lon":5.357969,"is_reserved":false,"is_disabled":false,"rental_uris":{"android":"levelo://app?vid=60202742-9104-41de-9c12-24edb545b697","ios":"levelo://app?vid=60202742-9104-41de-9c12-24edb545b697"},"vehicle_type_id":"4","last_reported":1726492676,"current_range_meters":8000,"station_id":"ce4bhb12rcd13ifvqel0","pricing_plan_id":"cebpf4jnsgd1na2vs0mg"},{"bike_id":"227910f0-9bce-4d02-8f3e-f8c601475d9f","system_id":"levelo_inurba_marseille","lat":43.27316,"lon":5.3909,"is_reserved":false,"is_disabled":false,"rental_uris":{"android":"levelo://app?vid=227910f0-9bce-4d02-8f3e-f8c601475d9f","ios":"levelo://app?vid=227910f0-9bce-4d02-8f3e-f8c601475d9f"},"vehicle_type_id":"4","last_reported":1726492676,"current_range_meters":18800,"station_id":"ce4bhgp2rcd13ifvqfe0","pricing_plan_id":"cebpf4jnsgd1na2vs0mg"},{"bike_id":"1aa4718f-9c27-4777-bb45-8e9f7bbf680a","system_id":"levelo_inurba_marseille","lat":43.28289,"lon":5.35081,"is_reserved":false,"is_disabled":false,"rental_uris":{"android":"levelo://app?vid=1aa4718f-9c27-4777-bb45-8e9f7bbf680a","ios":"levelo://app?vid=1aa4718f-9c27-4777-bb45-8e9f7bbf680a"},"vehicle_type_id":"4","last_reported":1726492676,"current_range_meters":6800,"station_id":"ce4bhbp2rcd13ifvqerg","pricing_plan_id":"cebpf4jnsgd1na2vs0mg"},{"bike_id":"0e736644-d83f-49af-8949-113b3fa583e6","system_id":"levelo_inurba_marseille","lat":43.29364,"lon":5.378333,"is_reserved":false,"is_disabled":false,"rental_uris":{"android":"levelo://app?vid=0e736644-d83f-49af-8949-113b3fa583e6","ios":"levelo://app?vid=0e736644-d83f-49af-8949-113b3fa583e6"},"vehicle_type_id":"4","last_reported":1726492676,"current_range_meters":38400,"station_id":"ce4bgjh2rcd13ifvqbf0","pricing_plan_id":"cebpf4jnsgd1na2vs0mg"},{"bike_id":"60c14ad0-3a02-40db-9d47-55c818997cf7","system_id":"levelo_inurba_marseille","lat":43.2968,"lon":5.37291,"is_reserved":false,"is_disabled":false,"rental_uris":{"android":"levelo://app?vid=60c14ad0-3a02-40db-9d47-55c818997cf7","ios":"levelo://app?vid=60c14ad0-3a02-40db-9d47-55c818997cf7"},"vehicle_type_id":"4","last_reported":1726492676,"current_range_meters":24800,"station_id":"ce4bgk12rcd13ifvqbj0","pricing_plan_id":"cebpf4jnsgd1na2vs0mg"},{"bike_id":"4934e737-919f-4619-92f3-8d9aa28b6e21","system_id":"levelo_inurba_marseille","lat":43.29597,"lon":5.38086,"is_reserved":false,"is_disabled":false,"rental_uris":{"android":"levelo://app?vid=4934e737-919f-4619-92f3-8d9aa28b6e21","ios":"levelo://app?vid=4934e737-919f-4619-92f3-8d9aa28b6e21"},"vehicle_type_id":"4","last_reported":1726492676,"current_range_meters":27600,"station_id":"ce4bgl12rcd13ifvqbo0","pricing_plan_id":"cebpf4jnsgd1na2vs0mg"},{"bike_id":"c37ee193-e3fe-4e97-846d-52e56e959712","system_id":"levelo_inurba_marseille","lat":43.28487,"lon":5.38552,"is_reserved":false,"is_disabled":false,"rental_uris":{"android":"levelo://app?vid=c37ee193-e3fe-4e97-846d-52e56e959712","ios":"levelo://app?vid=c37ee193-e3fe-4e97-846d-52e56e959712"},"vehicle_type_id":"4","last_reported":1726492676,"current_range_meters":33600,"station_id":"ce4bh8p2rcd13ifvqeb0","pricing_plan_id":"cebpf4jnsgd1na2vs0mg"},{"bike_id":"328d45f9-980e-4811-97c0-47d761861509","system_id":"levelo_inurba_marseille","lat":43.29847,"lon":5.37836,"is_reserved":false,"is_disabled":false,"rental_uris":{"android":"levelo://app?vid=328d45f9-980e-4811-97c0-47d761861509","ios":"levelo://app?vid=328d45f9-980e-4811-97c0-47d761861509"},"vehicle_type_id":"4","last_reported":1726492676,"current_range_meters":23200,"station_id":"ce4bgkh2rcd13ifvqbl0","pricing_plan_id":"cebpf4jnsgd1na2vs0mg"},{"bike_id":"4896d151-2d9e-453e-bdd1-c2fc4dc1aa85","system_id":"levelo_inurba_marseille","lat":43.24667,"lon":5.38162,"is_reserved":false,"is_disabled":false,"rental_uris":{"android":"levelo://app?vid=4896d151-2d9e-453e-bdd1-c2fc4dc1aa85","ios":"levelo://app?vid=4896d151-2d9e-453e-bdd1-c2fc4dc1aa85"},"vehicle_type_id":"4","last_reported":1726492676,"current_range_meters":38800,"station_id":"ce4bhih2rcd13ifvqfr0","pricing_plan_id":"cebpf4jnsgd1na2vs0mg"},{"bike_id":"d8a0bd84-3e0a-476a-b974-c2fd3059b61b","system_id":"levelo_inurba_marseille","lat":43.26791,"lon":5.39424,"is_reserved":false,"is_disabled":false,"rental_uris":{"android":"levelo://app?vid=d8a0bd84-3e0a-476a-b974-c2fd3059b61b","ios":"levelo://app?vid=d8a0bd84-3e0a-476a-b974-c2fd3059b61b"},"vehicle_type_id":"4","last_reported":1726492676,"current_range_meters":38800,"station_id":"ce4bhh12rcd13ifvqfg0","pricing_plan_id":"cebpf4jnsgd1na2vs0mg"},{"bike_id":"3b496bfb-60cc-4eed-943d-d02a88a31b34","system_id":"levelo_inurba_marseille","lat":43.28942,"lon":5.39637,"is_reserved":false,"is_disabled":false,"rental_uris":{"android":"levelo://app?vid=3b496bfb-60cc-4eed-943d-d02a88a31b34","ios":"levelo://app?vid=3b496bfb-60cc-4eed-943d-d02a88a31b34"},"vehicle_type_id":"4","last_reported":1726492676,"current_range_meters":14400,"station_id":"ce4bh3h2rcd13ifvqdn0","pricing_plan_id":"cebpf4jnsgd1na2vs0mg"},{"bike_id":"faf816e6-4e87-4e93-88d4-5861eae33b5c","system_id":"levelo_inurba_marseille","lat":43.2408,"lon":5.37754,"is_reserved":false,"is_disabled":false,"rental_uris":{"android":"levelo://app?vid=faf816e6-4e87-4e93-88d4-5861eae33b5c","ios":"levelo://app?vid=faf816e6-4e87-4e93-88d4-5861eae33b5c"},"vehicle_type_id":"4","last_reported":1726492676,"current_range_meters":20000,"station_id":"ce4bhnp2rcd13ifvqgvg","pricing_plan_id":"cebpf4jnsgd1na2vs0mg"},{"bike_id":"d1bc1a92-c34f-45bd-b470-2fca788491ee","system_id":"levelo_inurba_marseille","lat":43.32487,"lon":5.36575,"is_reserved":false,"is_disabled":false,"rental_uris":{"android":"levelo://app?vid=d1bc1a92-c34f-45bd-b470-2fca788491ee","ios":"levelo://app?vid=d1bc1a92-c34f-45bd-b470-2fca788491ee"},"vehicle_type_id":"4","last_reported":1726492676,"current_range_meters":37600,"station_id":"ce4bhs12rcd13ifvqhvg","pricing_plan_id":"cebpf4jnsgd1na2vs0mg"},{"bike_id":"7255c62a-cfb4-45f9-ad6d-d07ce72aba13","system_id":"levelo_inurba_marseille","lat":43.28618,"lon":5.35102,"is_reserved":false,"is_disabled":false,"rental_uris":{"android":"levelo://app?vid=7255c62a-cfb4-45f9-ad6d-d07ce72aba13","ios":"levelo://app?vid=7255c62a-cfb4-45f9-ad6d-d07ce72aba13"},"vehicle_type_id":"4","last_reported":1726492676,"current_range_meters":28800,"station_id":"ce4bhch2rcd13ifvqeug","pricing_plan_id":"cebpf4jnsgd1na2vs0mg"},{"bike_id":"009c7e0a-a052-421a-8cf8-bac7ad9b461e","system_id":"levelo_inurba_marseille","lat":43.26685,"lon":5.38267,"is_reserved":false,"is_disabled":false,"rental_uris":{"android":"levelo://app?vid=009c7e0a-a052-421a-8cf8-bac7ad9b461e","ios":"levelo://app?vid=009c7e0a-a052-421a-8cf8-bac7ad9b461e"},"vehicle_type_id":"4","last_reported":1726492676,"current_range_meters":30400,"station_id":"ce4bhg92rcd13ifvqf90","pricing_plan_id":"cebpf4jnsgd1na2vs0mg"},{"bike_id":"fa690805-233a-4a70-a9f3-33f1b67cdb1f","system_id":"levelo_inurba_marseille","lat":43.32297,"lon":5.38265,"is_reserved":false,"is_disabled":false,"rental_uris":{"android":"levelo://app?vid=fa690805-233a-4a70-a9f3-33f1b67cdb1f","ios":"levelo://app?vid=fa690805-233a-4a70-a9f3-33f1b67cdb1f"},"vehicle_type_id":"4","last_reported":1726492676,"current_range_meters":37600,"station_id":"ce4bhr12rcd13ifvqhqg","pricing_plan_id":"cebpf4jnsgd1na2vs0mg"},{"bike_id":"8b608b96-fedf-4511-8d4b-09bad2606e1a","system_id":"levelo_inurba_marseille","lat":43.27735,"lon":5.41122,"is_reserved":false,"is_disabled":false,"rental_uris":{"android":"levelo://app?vid=8b608b96-fedf-4511-8d4b-09bad2606e1a","ios":"levelo://app?vid=8b608b96-fedf-4511-8d4b-09bad2606e1a"},"vehicle_type_id":"4","last_reported":1726492676,"current_range_meters":16000,"station_id":"","pricing_plan_id":"cebpf4jnsgd1na2vs0mg"},{"bike_id":"d687a8dc-c1c6-418b-a078-1f315f5fdb26","system_id":"levelo_inurba_marseille","lat":43.32495,"lon":5.36566,"is_reserved":false,"is_disabled":false,"rental_uris":{"android":"levelo://app?vid=d687a8dc-c1c6-418b-a078-1f315f5fdb26","ios":"levelo://app?vid=d687a8dc-c1c6-418b-a078-1f315f5fdb26"},"vehicle_type_id":"4","last_reported":1726492676,"current_range_meters":22000,"station_id":"ce4bhs12rcd13ifvqhvg","pricing_plan_id":"cebpf4jnsgd1na2vs0mg"},{"bike_id":"a1fa1eb5-fa10-41a1-b6fd-10cd6cadbf54","system_id":"levelo_inurba_marseille","lat":43.30299,"lon":5.36639,"is_reserved":false,"is_disabled":false,"rental_uris":{"android":"levelo://app?vid=a1fa1eb5-fa10-41a1-b6fd-10cd6cadbf54","ios":"levelo://app?vid=a1fa1eb5-fa10-41a1-b6fd-10cd6cadbf54"},"vehicle_type_id":"4","last_reported":1726492676,"current_range_meters":33200,"station_id":"ce4bgs12rcd13ifvqcag","pricing_plan_id":"cebpf4jnsgd1na2vs0mg"},{"bike_id":"06a7c092-1998-443e-9265-06b28c60fee7","system_id":"levelo_inurba_marseille","lat":43.28462,"lon":5.35888,"is_reserved":false,"is_disabled":false,"rental_uris":{"android":"levelo://app?vid=06a7c092-1998-443e-9265-06b28c60fee7","ios":"levelo://app?vid=06a7c092-1998-443e-9265-06b28c60fee7"},"vehicle_type_id":"4","last_reported":1726492676,"current_range_meters":13600,"station_id":"ce4bhah2rcd13ifvqei0","pricing_plan_id":"cebpf4jnsgd1na2vs0mg"},{"bike_id":"fa2b0a9f-66ad-4cd1-b7bb-93b9cffdc904","system_id":"levelo_inurba_marseille","lat":43.25934,"lon":5.40904,"is_reserved":false,"is_disabled":false,"rental_uris":{"android":"levelo://app?vid=fa2b0a9f-66ad-4cd1-b7bb-93b9cffdc904","ios":"levelo://app?vid=fa2b0a9f-66ad-4cd1-b7bb-93b9cffdc904"},"vehicle_type_id":"4","last_reported":1726492676,"current_range_meters":27600,"station_id":"ce4bhm92rcd13ifvqglg","pricing_plan_id":"cebpf4jnsgd1na2vs0mg"},{"bike_id":"d4c88bd5-a352-4ca1-93b6-38ee5b0f1032","system_id":"levelo_inurba_marseille","lat":43.28282,"lon":5.35079,"is_reserved":false,"is_disabled":false,"rental_uris":{"android":"levelo://app?vid=d4c88bd5-a352-4ca1-93b6-38ee5b0f1032","ios":"levelo://app?vid=d4c88bd5-a352-4ca1-93b6-38ee5b0f1032"},"vehicle_type_id":"4","last_reported":1726492676,"current_range_meters":20400,"station_id":"ce4bhbp2rcd13ifvqerg","pricing_plan_id":"cebpf4jnsgd1na2vs0mg"},{"bike_id":"28c6d943-5531-4458-8f95-af9087750f51","system_id":"levelo_inurba_marseille","lat":43.30545,"lon":5.36695,"is_reserved":false,"is_disabled":false,"rental_uris":{"android":"levelo://app?vid=28c6d943-5531-4458-8f95-af9087750f51","ios":"levelo://app?vid=28c6d943-5531-4458-8f95-af9087750f51"},"vehicle_type_id":"4","last_reported":1726492676,"current_range_meters":38800,"station_id":"ce4bgrp2rcd13ifvqc9g","pricing_plan_id":"cebpf4jnsgd1na2vs0mg"},{"bike_id":"fd55c62d-3254-4352-8b6a-fc74838c83ca","system_id":"levelo_inurba_marseille","lat":43.29915,"lon":5.37467,"is_reserved":false,"is_disabled":false,"rental_uris":{"android":"levelo://app?vid=fd55c62d-3254-4352-8b6a-fc74838c83ca","ios":"levelo://app?vid=fd55c62d-3254-4352-8b6a-fc74838c83ca"},"vehicle_type_id":"4","last_reported":1726492676,"current_range_meters":16800,"station_id":"ce4bgjh2rcd13ifvqbg0","pricing_plan_id":"cebpf4jnsgd1na2vs0mg"},{"bike_id":"df298333-f24a-40c4-b401-be7ee974c4d4","system_id":"levelo_inurba_marseille","lat":43.30465,"lon":5.37898,"is_reserved":false,"is_disabled":false,"rental_uris":{"android":"levelo://app?vid=df298333-f24a-40c4-b401-be7ee974c4d4","ios":"levelo://app?vid=df298333-f24a-40c4-b401-be7ee974c4d4"},"vehicle_type_id":"4","last_reported":1726492676,"current_range_meters":24400,"station_id":"ce4bgup2rcd13ifvqcn0","pricing_plan_id":"cebpf4jnsgd1na2vs0mg"},{"bike_id":"2bc00c15-b391-445f-8056-cc4a33f1972d","system_id":"levelo_inurba_marseille","lat":43.25719,"lon":5.4111,"is_reserved":false,"is_disabled":false,"rental_uris":{"android":"levelo://app?vid=2bc00c15-b391-445f-8056-cc4a33f1972d","ios":"levelo://app?vid=2bc00c15-b391-445f-8056-cc4a33f1972d"},"vehicle_type_id":"4","last_reported":1726492676,"current_range_meters":24400,"station_id":"ce4bhkp2rcd13ifvqgd0","pricing_plan_id":"cebpf4jnsgd1na2vs0mg"},{"bike_id":"d2ca61ed-07b0-4f91-990e-b98a38e76d1b","system_id":"levelo_inurba_marseille","lat":43.24073,"lon":5.37752,"is_reserved":false,"is_disabled":false,"rental_uris":{"android":"levelo://app?vid=d2ca61ed-07b0-4f91-990e-b98a38e76d1b","ios":"levelo://app?vid=d2ca61ed-07b0-4f91-990e-b98a38e76d1b"},"vehicle_type_id":"4","last_reported":1726492676,"current_range_meters":38800,"station_id":"ce4bhnp2rcd13ifvqgvg","pricing_plan_id":"cebpf4jnsgd1na2vs0mg"},{"bike_id":"05676a45-5ad0-47a1-bce0-8e23f33b2fbd","system_id":"levelo_inurba_marseille","lat":43.25944,"lon":5.40901,"is_reserved":false,"is_disabled":false,"rental_uris":{"android":"levelo://app?vid=05676a45-5ad0-47a1-bce0-8e23f33b2fbd","ios":"levelo://app?vid=05676a45-5ad0-47a1-bce0-8e23f33b2fbd"},"vehicle_type_id":"4","last_reported":1726492676,"current_range_meters":20400,"station_id":"ce4bhm92rcd13ifvqglg","pricing_plan_id":"cebpf4jnsgd1na2vs0mg"},{"bike_id":"8ce5a7f4-7567-41a9-933e-bdcf2ff2d630","system_id":"levelo_inurba_marseille","lat":43.24996,"lon":5.3893,"is_reserved":false,"is_disabled":false,"rental_uris":{"android":"levelo://app?vid=8ce5a7f4-7567-41a9-933e-bdcf2ff2d630","ios":"levelo://app?vid=8ce5a7f4-7567-41a9-933e-bdcf2ff2d630"},"vehicle_type_id":"4","last_reported":1726492676,"current_range_meters":15200,"station_id":"ce4bhgp2rcd13ifvqfd0","pricing_plan_id":"cebpf4jnsgd1na2vs0mg"},{"bike_id":"a6450a4f-ab7d-46ce-8102-3f9585ec3842","system_id":"levelo_inurba_marseille","lat":43.29877,"lon":5.39736,"is_reserved":false,"is_disabled":false,"rental_uris":{"android":"levelo://app?vid=a6450a4f-ab7d-46ce-8102-3f9585ec3842","ios":"levelo://app?vid=a6450a4f-ab7d-46ce-8102-3f9585ec3842"},"vehicle_type_id":"4","last_reported":1726492676,"current_range_meters":37600,"station_id":"ce4bh0h2rcd13ifvqd50","pricing_plan_id":"cebpf4jnsgd1na2vs0mg"},{"bike_id":"16f68352-a855-48ab-9ad3-5be94cc79a5d","system_id":"levelo_inurba_marseille","lat":43.27503,"lon":5.42451,"is_reserved":false,"is_disabled":false,"rental_uris":{"android":"levelo://app?vid=16f68352-a855-48ab-9ad3-5be94cc79a5d","ios":"levelo://app?vid=16f68352-a855-48ab-9ad3-5be94cc79a5d"},"vehicle_type_id":"4","last_reported":1726492676,"current_range_meters":36400,"station_id":"ce4bhn92rcd13ifvqgrg","pricing_plan_id":"cebpf4jnsgd1na2vs0mg"},{"bike_id":"8234f341-9cf0-401b-8b49-d884834b64bd","system_id":"levelo_inurba_marseille","lat":43.24078,"lon":5.37756,"is_reserved":false,"is_disabled":false,"rental_uris":{"android":"levelo://app?vid=8234f341-9cf0-401b-8b49-d884834b64bd","ios":"levelo://app?vid=8234f341-9cf0-401b-8b49-d884834b64bd"},"vehicle_type_id":"4","last_reported":1726492676,"current_range_meters":34800,"station_id":"ce4bhnp2rcd13ifvqgvg","pricing_plan_id":"cebpf4jnsgd1na2vs0mg"},{"bike_id":"f1e8ceee-9573-4b77-ab79-482d0d3b70cc","system_id":"levelo_inurba_marseille","lat":43.24176,"lon":5.36398,"is_reserved":false,"is_disabled":false,"rental_uris":{"android":"levelo://app?vid=f1e8ceee-9573-4b77-ab79-482d0d3b70cc","ios":"levelo://app?vid=f1e8ceee-9573-4b77-ab79-482d0d3b70cc"},"vehicle_type_id":"4","last_reported":1726492676,"current_range_meters":30000,"station_id":"cpo36qri1sfpv3e86is0","pricing_plan_id":"cebpf4jnsgd1na2vs0mg"},{"bike_id":"f52c86a1-d03e-4390-afc6-0facad696cb6","system_id":"levelo_inurba_marseille","lat":43.24073,"lon":5.37766,"is_reserved":false,"is_disabled":false,"rental_uris":{"android":"levelo://app?vid=f52c86a1-d03e-4390-afc6-0facad696cb6","ios":"levelo://app?vid=f52c86a1-d03e-4390-afc6-0facad696cb6"},"vehicle_type_id":"4","last_reported":1726492676,"current_range_meters":38800,"station_id":"ce4bhnp2rcd13ifvqgvg","pricing_plan_id":"cebpf4jnsgd1na2vs0mg"},{"bike_id":"acfd1312-9be1-4ed4-a794-200cafef7fa9","system_id":"levelo_inurba_marseille","lat":43.2953,"lon":5.38538,"is_reserved":false,"is_disabled":false,"rental_uris":{"android":"levelo://app?vid=acfd1312-9be1-4ed4-a794-200cafef7fa9","ios":"levelo://app?vid=acfd1312-9be1-4ed4-a794-200cafef7fa9"},"vehicle_type_id":"4","last_reported":1726492676,"current_range_meters":22800,"station_id":"ce4bgih2rcd13ifvqba0","pricing_plan_id":"cebpf4jnsgd1na2vs0mg"},{"bike_id":"adf4f941-700f-425e-b99f-c6e9f081c463","system_id":"levelo_inurba_marseille","lat":43.30918,"lon":5.36847,"is_reserved":false,"is_disabled":false,"rental_uris":{"android":"levelo://app?vid=adf4f941-700f-425e-b99f-c6e9f081c463","ios":"levelo://app?vid=adf4f941-700f-425e-b99f-c6e9f081c463"},"vehicle_type_id":"4","last_reported":1726492676,"current_range_meters":38800,"station_id":"ce4bgn92rcd13ifvqbvg","pricing_plan_id":"cebpf4jnsgd1na2vs0mg"},{"bike_id":"f3fc704d-d8e6-463c-99d8-35d4e8adc75a","system_id":"levelo_inurba_marseille","lat":43.31079,"lon":5.3835,"is_reserved":false,"is_disabled":false,"rental_uris":{"android":"levelo://app?vid=f3fc704d-d8e6-463c-99d8-35d4e8adc75a","ios":"levelo://app?vid=f3fc704d-d8e6-463c-99d8-35d4e8adc75a"},"vehicle_type_id":"4","last_reported":1726492676,"current_range_meters":20400,"station_id":"ce4bgv92rcd13ifvqcr0","pricing_plan_id":"cebpf4jnsgd1na2vs0mg"},{"bike_id":"488980a2-2581-4786-a55f-6746fccab000","system_id":"levelo_inurba_marseille","lat":43.24077,"lon":5.37756,"is_reserved":false,"is_disabled":false,"rental_uris":{"android":"levelo://app?vid=488980a2-2581-4786-a55f-6746fccab000","ios":"levelo://app?vid=488980a2-2581-4786-a55f-6746fccab000"},"vehicle_type_id":"4","last_reported":1726492676,"current_range_meters":36400,"station_id":"ce4bhnp2rcd13ifvqgvg","pricing_plan_id":"cebpf4jnsgd1na2vs0mg"},