{"last_updated":1702501581,"ttl":30,"version":"2.2","data":{"bikes":[{"bike_id":"3f8b821f-e430-4a35-bf14-f8b6e777ea11","system_id":"levelo_inurba_marseille","lat":43.313939,"lon":5.375306,"is_reserved":false,"is_disabled":false,"rental_uris":{"android":"levelo://app?vid=3f8b821f-e430-4a35-bf14-f8b6e777ea11","ios":"levelo://app?vid=3f8b821f-e430-4a35-bf14-f8b6e777ea11"},"vehicle_type_id":"4","last_reported":1702501581,"current_range_meters":6400,"station_id":"","pricing_plan_id":"free"},{"bike_id":"c6c87030-235b-4fa5-abd6-be054119259e","system_id":"levelo_inurba_marseille","lat":43.305448,"lon":5.367002,"is_reserved":false,"is_disabled":false,"rental_uris":{"android":"levelo://app?vid=c6c87030-235b-4fa5-abd6-be054119259e","ios":"levelo://app?vid=c6c87030-235b-4fa5-abd6-be054119259e"},"vehicle_type_id":"4","last_reported":1702501581,"current_range_meters":30800,"station_id":"ce4bgrp2rcd13ifvqc9g","pricing_plan_id":"free"},{"bike_id":"1f3d50e6-3470-4133-884b-7a0ef801f57d","system_id":"levelo_inurba_marseille","lat":43.305418,"lon":5.365415,"is_reserved":false,"is_disabled":false,"rental_uris":{"android":"levelo://app?vid=1f3d50e6-3470-4133-884b-7a0ef801f57d","ios":"levelo://app?vid=1f3d50e6-3470-4133-884b-7a0ef801f57d"},"vehicle_type_id":"4","last_reported":1702501581,"current_range_meters":5600,"station_id":"ce4bgs12rcd13ifvqcag","pricing_plan_id":"free"},{"bike_id":"be7d28e5-3c73-4f04-b104-e59d6eee37a4","system_id":"levelo_inurba_marseille","lat":43.305714,"lon":5.365633,"is_reserved":false,"is_disabled":false,"rental_uris":{"android":"levelo://app?vid=be7d28e5-3c73-4f04-b104-e59d6eee37a4","ios":"levelo://app?vid=be7d28e5-3c73-4f04-b104-e59d6eee37a4"},"vehicle_type_id":"4","last_reported":1702501581,"current_range_meters":31200,"station_id":"ce4bgs12rcd13ifvqcag","pricing_plan_id":"free"},{"bike_id":"4e1982f9-6b36-45cd-a08a-fa506f8af925","system_id":"levelo_inurba_marseille","lat":43.305706,"lon":5.365654,"is_reserved":false,"is_disabled":false,"rental_uris":{"android":"levelo://app?vid=4e1982f9-6b36-45cd-a08a-fa506f8af925","ios":"levelo://app?vid=4e1982f9-6b36-45cd-a08a-fa506f8af925"},"vehicle_type_id":"4","last_reported":1702501581,"current_range_meters":12400,"station_id":"ce4bgs12rcd13ifvqcag","pricing_plan_id":"free"},{"bike_id":"955e4ab2-16e5-44e8-a986-a2f50ff96c06","system_id":"levelo_inurba_marseille","lat":43.305382,"lon":5.365389,"is_reserved":false,"is_disabled":false,"rental_uris":{"android":"levelo://app?vid=955e4ab2-16e5-44e8-a986-a2f50ff96c06","ios":"levelo://app?vid=955e4ab2-16e5-44e8-a986-a2f50ff96c06"},"vehicle_type_id":"4","last_reported":1702501581,"current_range_meters":25600,"station_id":"","pricing_plan_id":"free"},{"bike_id":"5619130e-958d-456f-b0ae-2e291d606956","system_id":"levelo_inurba_marseille","lat":43.30529,"lon":5.36721,"is_reserved":false,"is_disabled":false,"rental_uris":{"android":"levelo://app?vid=5619130e-958d-456f-b0ae-2e291d606956","ios":"levelo://app?vid=5619130e-958d-456f-b0ae-2e291d606956"},"vehicle_type_id":"4","last_reported":1702501581,"current_range_meters":14000,"station_id":"ce4bgrp2rcd13ifvqc9g","pricing_plan_id":"free"},{"bike_id":"8690328e-820c-4e4f-9edf-5c865383d5aa","system_id":"levelo_inurba_marseille","lat":43.305706,"lon":5.365654,"is_reserved":false,"is_disabled":false,"rental_uris":{"android":"levelo://app?vid=8690328e-820c-4e4f-9edf-5c865383d5aa","ios":"levelo://app?vid=8690328e-820c-4e4f-9edf-5c865383d5aa"},"vehicle_type_id":"4","last_reported":1702501581,"current_range_meters":31200,"station_id":"ce4bgs12rcd13ifvqcag","pricing_plan_id":"free"},{"bike_id":"c007ab80-c099-4918-be17-3d4adef11cad","system_id":"levelo_inurba_marseille","lat":43.311125,"lon":5.377624,"is_reserved":false,"is_disabled":false,"rental_uris":{"android":"levelo://app?vid=c007ab80-c099-4918-be17-3d4adef11cad","ios":"levelo://app?vid=c007ab80-c099-4918-be17-3d4adef11cad"},"vehicle_type_id":"4","last_reported":1702501581,"current_range_meters":30000,"station_id":"ce4bgt92rcd13ifvqcg0","pricing_plan_id":"free"},{"bike_id":"dc68debd-6203-4696-b9a5-55eea857c5a0","system_id":"levelo_inurba_marseille","lat":43.317126,"lon":5.376854,"is_reserved":false,"is_disabled":false,"rental_uris":{"android":"levelo://app?vid=dc68debd-6203-4696-b9a5-55eea857c5a0","ios":"levelo://app?vid=dc68debd-6203-4696-b9a5-55eea857c5a0"},"vehicle_type_id":"4","last_reported":1702501581,"current_range_meters":22400,"station_id":"ce4bgth2rcd13ifvqch0","pricing_plan_id":"free"},{"bike_id":"1f383a01-2cd3-4b15-b984-8e1ac42d23a2","system_id":"levelo_inurba_marseille","lat":43.317075,"lon":5.377367,"is_reserved":false,"is_disabled":false,"rental_uris":{"android":"levelo://app?vid=1f383a01-2cd3-4b15-b984-8e1ac42d23a2","ios":"levelo://app?vid=1f383a01-2cd3-4b15-b984-8e1ac42d23a2"},"vehicle_type_id":"4","last_reported":1702501581,"current_range_meters":3200,"station_id":"ce4bgth2rcd13ifvqch0","pricing_plan_id":"free"},{"bike_id":"fd2b54fa-5532-41a4-9944-caf1598f8da4","system_id":"levelo_inurba_marseille","lat":43.30304,"lon":5.368987,"is_reserved":false,"is_disabled":false,"rental_uris":{"android":"levelo://app?vid=fd2b54fa-5532-41a4-9944-caf1598f8da4","ios":"levelo://app?vid=fd2b54fa-5532-41a4-9944-caf1598f8da4"},"vehicle_type_id":"4","last_reported":1702501581,"current_range_meters":9600,"station_id":"ce4bgqh2rcd13ifvqc5g","pricing_plan_id":"free"},{"bike_id":"227b454f-cbfd-4a97-b4c2-968569f53a3b","system_id":"levelo_inurba_marseille","lat":43.315374,"lon":5.380321,"is_reserved":false,"is_disabled":false,"rental_uris":{"android":"levelo://app?vid=227b454f-cbfd-4a97-b4c2-968569f53a3b","ios":"levelo://app?vid=227b454f-cbfd-4a97-b4c2-968569f53a3b"},"vehicle_type_id":"4","last_reported":1702501581,"current_range_meters":27600,"station_id":"ce4bhsp2rcd13ifvqi50","pricing_plan_id":"free"},{"bike_id":"81bd0fa4-0462-4c0e-b45d-e3b550d8b0e9","system_id":"levelo_inurba_marseille","lat":43.31537,"lon":5.3804,"is_reserved":false,"is_disabled":false,"rental_uris":{"android":"levelo://app?vid=81bd0fa4-0462-4c0e-b45d-e3b550d8b0e9","ios":"levelo://app?vid=81bd0fa4-0462-4c0e-b45d-e3b550d8b0e9"},"vehicle_type_id":"4","last_reported":1702501581,"current_range_meters":16400,"station_id":"ce4bhsp2rcd13ifvqi50","pricing_plan_id":"free"},{"bike_id":"b795cd07-df6b-4c4c-8507-2dcae79f9bad","system_id":"levelo_inurba_marseille","lat":43.309039,"lon":5.371797,"is_reserved":false,"is_disabled":false,"rental_uris":{"android":"levelo://app?vid=b795cd07-df6b-4c4c-8507-2dcae79f9bad","ios":"levelo://app?vid=b795cd07-df6b-4c4c-8507-2dcae79f9bad"},"vehicle_type_id":"4","last_reported":1702501581,"current_range_meters":3600,"station_id":"ce4bguh2rcd13ifvqckg","pricing_plan_id":"free"},{"bike_id":"33b32154-5a94-41f4-952b-76fa76dba29b","system_id":"levelo_inurba_marseille","lat":43.304606,"lon":5.379026,"is_reserved":false,"is_disabled":false,"rental_uris":{"android":"levelo://app?vid=33b32154-5a94-41f4-952b-76fa76dba29b","ios":"levelo://app?vid=33b32154-5a94-41f4-952b-76fa76dba29b"},"vehicle_type_id":"4","last_reported":1702501581,"current_range_meters":9200,"station_id":"ce4bgup2rcd13ifvqcn0","pricing_plan_id":"free"},{"bike_id":"8c6d566c-fd2c-4a1e-b0f3-9e4cf2d76ecc","system_id":"levelo_inurba_marseille","lat":43.31993,"lon":5.38155,"is_reserved":false,"is_disabled":false,"rental_uris":{"android":"levelo://app?vid=8c6d566c-fd2c-4a1e-b0f3-9e4cf2d76ecc","ios":"levelo://app?vid=8c6d566c-fd2c-4a1e-b0f3-9e4cf2d76ecc"},"vehicle_type_id":"4","last_reported":1702501581,"current_range_meters":9200,"station_id":"ce4bhr12rcd13ifvqhpg","pricing_plan_id":"free"},{"bike_id":"0a956dae-9fb6-40fc-b61a-5bb393e9a4f8","system_id":"levelo_inurba_marseille","lat":43.31994,"lon":5.38161,"is_reserved":false,"is_disabled":false,"rental_uris":{"android":"levelo://app?vid=0a956dae-9fb6-40fc-b61a-5bb393e9a4f8","ios":"levelo://app?vid=0a956dae-9fb6-40fc-b61a-5bb393e9a4f8"},"vehicle_type_id":"4","last_reported":1702501581,"current_range_meters":7200,"station_id":"ce4bhr12rcd13ifvqhpg","pricing_plan_id":"free"},{"bike_id":"41037219-91ff-45ce-b2d6-c53389d12989","system_id":"levelo_inurba_marseille","lat":43.313571,"lon":5.384829,"is_reserved":false,"is_disabled":false,"rental_uris":{"android":"levelo://app?vid=41037219-91ff-45ce-b2d6-c53389d12989","ios":"levelo://app?vid=41037219-91ff-45ce-b2d6-c53389d12989"},"vehicle_type_id":"4","last_reported":1702501581,"current_range_meters":26800,"station_id":"ce4bgt92rcd13ifvqcf0","pricing_plan_id":"free"},{"bike_id":"7b0bdb86-f013-4b5a-bd12-b0e602bad957","system_id":"levelo_inurba_marseille","lat":43.313571,"lon":5.384829,"is_reserved":false,"is_disabled":false,"rental_uris":{"android":"levelo://app?vid=7b0bdb86-f013-4b5a-bd12-b0e602bad957","ios":"levelo://app?vid=7b0bdb86-f013-4b5a-bd12-b0e602bad957"},"vehicle_type_id":"4","last_reported":1702501581,"current_range_meters":20400,"station_id":"ce4bgt92rcd13ifvqcf0","pricing_plan_id":"free"},{"bike_id":"1071c7f1-e14d-443f-b974-3b5938ddd235","system_id":"levelo_inurba_marseille","lat":43.32526,"lon":5.37395,"is_reserved":false,"is_disabled":false,"rental_uris":{"android":"levelo://app?vid=1071c7f1-e14d-443f-b974-3b5938ddd235","ios":"levelo://app?vid=1071c7f1-e14d-443f-b974-3b5938ddd235"},"vehicle_type_id":"4","last_reported":1702501581,"current_range_meters":28800,"station_id":"","pricing_plan_id":"free"},{"bike_id":"0dd7db3f-1085-4d40-b571-186db4b26317","system_id":"levelo_inurba_marseille","lat":43.32541,"lon":5.37413,"is_reserved":false,"is_disabled":false,"rental_uris":{"android":"levelo://app?vid=0dd7db3f-1085-4d40-b571-186db4b26317","ios":"levelo://app?vid=0dd7db3f-1085-4d40-b571-186db4b26317"},"vehicle_type_id":"4","last_reported":1702501581,"current_range_meters":24000,"station_id":"","pricing_plan_id":"free"},{"bike_id":"6d959ce9-19dd-4acb-9e9d-ea01bc314f7f","system_id":"levelo_inurba_marseille","lat":43.298433,"lon":5.362774,"is_reserved":false,"is_disabled":false,"rental_uris":{"android":"levelo://app?vid=6d959ce9-19dd-4acb-9e9d-ea01bc314f7f","ios":"levelo://app?vid=6d959ce9-19dd-4acb-9e9d-ea01bc314f7f"},"vehicle_type_id":"4","last_reported":1702501581,"current_range_meters":26800,"station_id":"ce4bgpp2rcd13ifvqc3g","pricing_plan_id":"free"},{"bike_id":"00957afa-27fa-4de9-b612-01f5d58fd240","system_id":"levelo_inurba_marseille","lat":43.298433,"lon":5.362774,"is_reserved":false,"is_disabled":false,"rental_uris":{"android":"levelo://app?vid=00957afa-27fa-4de9-b612-01f5d58fd240","ios":"levelo://app?vid=00957afa-27fa-4de9-b612-01f5d58fd240"},"vehicle_type_id":"4","last_reported":1702501581,"current_range_meters":28400,"station_id":"ce4bgpp2rcd13ifvqc3g","pricing_plan_id":"free"},{"bike_id":"62c4f95f-ec48-4f8f-96b5-1da2ba2b0a34","system_id":"levelo_inurba_marseille","lat":43.31159,"lon":5.38697,"is_reserved":false,"is_disabled":false,"rental_uris":{"android":"levelo://app?vid=62c4f95f-ec48-4f8f-96b5-1da2ba2b0a34","ios":"levelo://app?vid=62c4f95f-ec48-4f8f-96b5-1da2ba2b0a34"},"vehicle_type_id":"4","last_reported":1702501581,"current_range_meters":12800,"station_id":"ce4bgv12rcd13ifvqcp0","pricing_plan_id":"free"},{"bike_id":"77a6c46d-d898-4e4f-8846-efa91689c7f0","system_id":"levelo_inurba_marseille","lat":43.302006,"lon":5.38065,"is_reserved":false,"is_disabled":false,"rental_uris":{"android":"levelo://app?vid=77a6c46d-d898-4e4f-8846-efa91689c7f0","ios":"levelo://app?vid=77a6c46d-d898-4e4f-8846-efa91689c7f0"},"vehicle_type_id":"4","last_reported":1702501581,"current_range_meters":0,"station_id":"","pricing_plan_id":"free"},{"bike_id":"5715f67a-9edc-4aa9-81de-d621d2e855ae","system_id":"levelo_inurba_marseille","lat":43.311722,"lon":5.387247,"is_reserved":false,"is_disabled":false,"rental_uris":{"android":"levelo://app?vid=5715f67a-9edc-4aa9-81de-d621d2e855ae","ios":"levelo://app?vid=5715f67a-9edc-4aa9-81de-d621d2e855ae"},"vehicle_type_id":"4","last_reported":1702501581,"current_range_meters":18400,"station_id":"ce4bgv12rcd13ifvqcp0","pricing_plan_id":"free"},{"bike_id":"8b82d8c3-5832-4d49-9f63-4797e7a4315c","system_id":"levelo_inurba_marseille","lat":43.311722,"lon":5.387247,"is_reserved":false,"is_disabled":false,"rental_uris":{"android":"levelo://app?vid=8b82d8c3-5832-4d49-9f63-4797e7a4315c","ios":"levelo://app?vid=8b82d8c3-5832-4d49-9f63-4797e7a4315c"},"vehicle_type_id":"4","last_reported":1702501581,"current_range_meters":24400,"station_id":"ce4bgv12rcd13ifvqcp0","pricing_plan_id":"free"},{"bike_id":"bfe0732e-e8f8-4866-b2ea-8265a2e7116c","system_id":"levelo_inurba_marseille","lat":43.31172,"lon":5.38726,"is_reserved":false,"is_disabled":false,"rental_uris":{"android":"levelo://app?vid=bfe0732e-e8f8-4866-b2ea-8265a2e7116c","ios":"levelo://app?vid=bfe0732e-e8f8-4866-b2ea-8265a2e7116c"},"vehicle_type_id":"4","last_reported":1702501581,"current_range_meters":4800,"station_id":"ce4bgv12rcd13ifvqcp0","pricing_plan_id":"free"},{"bike_id":"845dc11a-992a-4047-b7cb-2502696f07e1","system_id":"levelo_inurba_marseille","lat":43.297774,"lon":5.370875,"is_reserved":false,"is_disabled":false,"rental_uris":{"android":"levelo://app?vid=845dc11a-992a-4047-b7cb-2502696f07e1","ios":"levelo://app?vid=845dc11a-992a-4047-b7cb-2502696f07e1"},"vehicle_type_id":"4","last_reported":1702501581,"current_range_meters":24400,"station_id":"ce4bgop2rcd13ifvqc1g","pricing_plan_id":"free"},{"bike_id":"5a55f5f0-f311-407c-95c3-e7b1788970dc","system_id":"levelo_inurba_marseille","lat":43.322872,"lon":5.382756,"is_reserved":false,"is_disabled":false,"rental_uris":{"android":"levelo://app?vid=5a55f5f0-f311-407c-95c3-e7b1788970dc","ios":"levelo://app?vid=5a55f5f0-f311-407c-95c3-e7b1788970dc"},"vehicle_type_id":"4","last_reported":1702501581,"current_range_meters":16800,"station_id":"ce4bhr12rcd13ifvqhqg","pricing_plan_id":"free"},{"bike_id":"9493db55-342e-439d-b7ad-6cd9a7588a13","system_id":"levelo_inurba_marseille","lat":43.297794,"lon":5.370888,"is_reserved":false,"is_disabled":false,"rental_uris":{"android":"levelo://app?vid=9493db55-342e-439d-b7ad-6cd9a7588a13","ios":"levelo://app?vid=9493db55-342e-439d-b7ad-6cd9a7588a13"},"vehicle_type_id":"4","last_reported":1702501581,"current_range_meters":14400,"station_id":"ce4bgop2rcd13ifvqc1g","pricing_plan_id":"free"},{"bike_id":"1c9c228c-5954-4155-a104-2a72ed6d3f0b","system_id":"levelo_inurba_marseille","lat":43.32284,"lon":5.38275,"is_reserved":false,"is_disabled":false,"rental_uris":{"android":"levelo://app?vid=1c9c228c-5954-4155-a104-2a72ed6d3f0b","ios":"levelo://app?vid=1c9c228c-5954-4155-a104-2a72ed6d3f0b"},"vehicle_type_id":"4","last_reported":1702501581,"current_range_meters":27200,"station_id":"ce4bhr12rcd13ifvqhqg","pricing_plan_id":"free"},{"bike_id":"659a38c5-092d-469d-acdb-90f2143cb397","system_id":"levelo_inurba_marseille","lat":43.32826,"lon":5.36691,"is_reserved":false,"is_disabled":false,"rental_uris":{"android":"levelo://app?vid=659a38c5-092d-469d-acdb-90f2143cb397","ios":"levelo://app?vid=659a38c5-092d-469d-acdb-90f2143cb397"},"vehicle_type_id":"4","last_reported":1702501581,"current_range_meters":12800,"station_id":"ce4bhs92rcd13ifvqi0g","pricing_plan_id":"free"},{"bike_id":"bc06b289-dab8-4815-820b-662dd218c477","system_id":"levelo_inurba_marseille","lat":43.32828,"lon":5.36676,"is_reserved":false,"is_disabled":false,"rental_uris":{"android":"levelo://app?vid=bc06b289-dab8-4815-820b-662dd218c477","ios":"levelo://app?vid=bc06b289-dab8-4815-820b-662dd218c477"},"vehicle_type_id":"4","last_reported":1702501581,"current_range_meters":2400,"station_id":"ce4bhs92rcd13ifvqi0g","pricing_plan_id":"free"},{"bike_id":"9c987803-0a08-4677-a896-fb69fb86257f","system_id":"levelo_inurba_marseille","lat":43.29573,"lon":5.367355,"is_reserved":false,"is_disabled":false,"rental_uris":{"android":"levelo://app?vid=9c987803-0a08-4677-a896-fb69fb86257f","ios":"levelo://app?vid=9c987803-0a08-4677-a896-fb69fb86257f"},"vehicle_type_id":"4","last_reported":1702501581,"current_range_meters":20800,"station_id":"ce4bgph2rcd13ifvqc2g","pricing_plan_id":"free"},{"bike_id":"1f8e4869-7bfa-4a34-8adf-919f0963d790","system_id":"levelo_inurba_marseille","lat":43.299028,"lon":5.381509,"is_reserved":false,"is_disabled":false,"rental_uris":{"android":"levelo://app?vid=1f8e4869-7bfa-4a34-8adf-919f0963d790","ios":"levelo://app?vid=1f8e4869-7bfa-4a34-8adf-919f0963d790"},"vehicle_type_id":"4","last_reported":1702501581,"current_range_meters":11200,"station_id":"ce4bgj12rcd13ifvqbc0","pricing_plan_id":"free"},{"bike_id":"e9d78157-ab4a-41df-a9e7-085811189ed4","system_id":"levelo_inurba_marseille","lat":43.317557,"lon":5.390173,"is_reserved":false,"is_disabled":false,"rental_uris":{"android":"levelo://app?vid=e9d78157-ab4a-41df-a9e7-085811189ed4","ios":"levelo://app?vid=e9d78157-ab4a-41df-a9e7-085811189ed4"},"vehicle_type_id":"4","last_reported":1702501581,"current_range_meters":31600,"station_id":"ce4bhqp2rcd13ifvqhng","pricing_plan_id":"free"},{"bike_id":"c840002a-d80a-40b4-a65f-1d4c04eabb61","system_id":"levelo_inurba_marseille","lat":43.317557,"lon":5.390173,"is_reserved":false,"is_disabled":false,"rental_uris":{"android":"levelo://app?vid=c840002a-d80a-40b4-a65f-1d4c04eabb61","ios":"levelo://app?vid=c840002a-d80a-40b4-a65f-1d4c04eabb61"},"vehicle_type_id":"4","last_reported":1702501581,"current_range_meters":9200,"station_id":"ce4bhqp2rcd13ifvqhng","pricing_plan_id":"free"},{"bike_id":"0b1fd6f7-3532-4f6f-bc98-f8ed0d30b622","system_id":"levelo_inurba_marseille","lat":43.29804,"lon":5.38086,"is_reserved":false,"is_disabled":false,"rental_uris":{"android":"levelo://app?vid=0b1fd6f7-3532-4f6f-bc98-f8ed0d30b622","ios":"levelo://app?vid=0b1fd6f7-3532-4f6f-bc98-f8ed0d30b622"},"vehicle_type_id":"4","last_reported":1702501581,"current_range_meters":0,"station_id":"ce4bgip2rcd13ifvqbb0","pricing_plan_id":"free"},{"bike_id":"f7abeb9c-e352-49cf-bd0b-9dafabcfdca5","system_id":"levelo_inurba_marseille","lat":43.295748,"lon":5.37522,"is_reserved":false,"is_disabled":false,"rental_uris":{"android":"levelo://app?vid=f7abeb9c-e352-49cf-bd0b-9dafabcfdca5","ios":"levelo://app?vid=f7abeb9c-e352-49cf-bd0b-9dafabcfdca5"},"vehicle_type_id":"4","last_reported":1702501581,"current_range_meters":0,"station_id":"ce4bgh92rcd13ifvqb50","pricing_plan_id":"free"},{"bike_id":"ef76321a-9b04-47b4-92de-d682e9f5920f","system_id":"levelo_inurba_marseille","lat":43.32364,"lon":5.38879,"is_reserved":false,"is_disabled":false,"rental_uris":{"android":"levelo://app?vid=ef76321a-9b04-47b4-92de-d682e9f5920f","ios":"levelo://app?vid=ef76321a-9b04-47b4-92de-d682e9f5920f"},"vehicle_type_id":"4","last_reported":1702501581,"current_range_meters":4800,"station_id":"ce4bhqp2rcd13ifvqhog","pricing_plan_id":"free"},{"bike_id":"8ab9895a-c9b8-42e7-a73a-c3d8ad10cfa2","system_id":"levelo_inurba_marseille","lat":43.32365,"lon":5.38884,"is_reserved":false,"is_disabled":false,"rental_uris":{"android":"levelo://app?vid=8ab9895a-c9b8-42e7-a73a-c3d8ad10cfa2","ios":"levelo://app?vid=8ab9895a-c9b8-42e7-a73a-c3d8ad10cfa2"},"vehicle_type_id":"4","last_reported":1702501581,"current_range_meters":4400,"station_id":"ce4bhqp2rcd13ifvqhog","pricing_plan_id":"free"},{"bike_id":"03f6119d-7ba1-4608-b75b-b20f3efbdaef","system_id":"levelo_inurba_marseille","lat":43.323703,"lon":5.388822,"is_reserved":false,"is_disabled":false,"rental_uris":{"android":"levelo://app?vid=03f6119d-7ba1-4608-b75b-b20f3efbdaef","ios":"levelo://app?vid=03f6119d-7ba1-4608-b75b-b20f3efbdaef"},"vehicle_type_id":"4","last_reported":1702501581,"current_range_meters":14400,"station_id":"ce4bhqp2rcd13ifvqhog","pricing_plan_id":"free"},{"bike_id":"dc01d294-5e1b-433f-878e-eb8a914aadd8","system_id":"levelo_inurba_marseille","lat":43.32367,"lon":5.38886,"is_reserved":false,"is_disabled":false,"rental_uris":{"android":"levelo://app?vid=dc01d294-5e1b-433f-878e-eb8a914aadd8","ios":"levelo://app?vid=dc01d294-5e1b-433f-878e-eb8a914aadd8"},"vehicle_type_id":"4","last_reported":1702501581,"current_range_meters":6000,"station_id":"ce4bhqp2rcd13ifvqhog","pricing_plan_id":"free"},{"bike_id":"18e8fec3-c034-486d-b65b-5c2605e3f3ab","system_id":"levelo_inurba_marseille","lat":43.32366,"lon":5.38888,"is_reserved":false,"is_disabled":false,"rental_uris":{"android":"levelo://app?vid=18e8fec3-c034-486d-b65b-5c2605e3f3ab","ios":"levelo://app?vid=18e8fec3-c034-486d-b65b-5c2605e3f3ab"},"vehicle_type_id":"4","last_reported":1702501581,"current_range_meters":14800,"station_id":"ce4bhqp2rcd13ifvqhog","pricing_plan_id":"free"},{"bike_id":"639b340b-e817-400b-80a5-21631106d224","system_id":"levelo_inurba_marseille","lat":43.29869,"lon":5.38907,"is_reserved":false,"is_disabled":false,"rental_uris":{"android":"levelo://app?vid=639b340b-e817-400b-80a5-21631106d224","ios":"levelo://app?vid=639b340b-e817-400b-80a5-21631106d224"},"vehicle_type_id":"4","last_reported":1702501581,"current_range_meters":19600,"station_id":"","pricing_plan_id":"free"},{"bike_id":"831e3817-a6c9-429b-be4f-c6bebf51f027","system_id":"levelo_inurba_marseille","lat":43.291994,"lon":5.357886,"is_reserved":false,"is_disabled":false,"rental_uris":{"android":"levelo://app?vid=831e3817-a6c9-429b-be4f-c6bebf51f027","ios":"levelo://app?vid=831e3817-a6c9-429b-be4f-c6bebf51f027"},"vehicle_type_id":"4","last_reported":1702501581,"current_range_meters":0,"station_id":"ce4bhb12rcd13ifvqel0","pricing_plan_id":"free"},{"bike_id":"5bb34ae8-db0c-4a3a-8970-f45c98fc2148","system_id":"levelo_inurba_marseille","lat":43.309038,"lon":5.396546,"is_reserved":false,"is_disabled":false,"rental_uris":{"android":"levelo://app?vid=5bb34ae8-db0c-4a3a-8970-f45c98fc2148","ios":"levelo://app?vid=5bb34ae8-db0c-4a3a-8970-f45c98fc2148"},"vehicle_type_id":"4","last_reported":1702501581,"current_range_meters":8400,"station_id":"ce4bh012rcd13ifvqcv0","pricing_plan_id":"free"},{"bike_id":"ac36c72b-4d79-486c-88c4-37f6e9f36b7e","system_id":"levelo_inurba_marseille","lat":43.313291,"lon":5.396838,"is_reserved":false,"is_disabled":false,"rental_uris":{"android":"levelo://app?vid=ac36c72b-4d79-486c-88c4-37f6e9f36b7e","ios":"levelo://app?vid=ac36c72b-4d79-486c-88c4-37f6e9f36b7e"},"vehicle_type_id":"4","last_reported":1702501581,"current_range_meters":21600,"station_id":"ce4bgvp2rcd13ifvqcu0","pricing_plan_id":"free"},{"bike_id":"513d5e1b-2666-4cf6-9ce7-8edd12bf70ec","system_id":"levelo_inurba_marseille","lat":43.313291,"lon":5.396838,"is_reserved":false,"is_disabled":false,"rental_uris":{"android":"levelo://app?vid=513d5e1b-2666-4cf6-9ce7-8edd12bf70ec","ios":"levelo://app?vid=513d5e1b-2666-4cf6-9ce7-8edd12bf70ec"},"vehicle_type_id":"4","last_reported":1702501581,"current_range_meters":31200,"station_id":"ce4bgvp2rcd13ifvqcu0","pricing_plan_id":"free"},{"bike_id":"e7e2b0fa-c48c-4c63-bec9-90f54738ea82","system_id":"levelo_inurba_marseille","lat":43.313291,"lon":5.396838,"is_reserved":false,"is_disabled":false,"rental_uris":{"android":"levelo://app?vid=e7e2b0fa-c48c-4c63-bec9-90f54738ea82","ios":"levelo://app?vid=e7e2b0fa-c48c-4c63-bec9-90f54738ea82"},"vehicle_type_id":"4","last_reported":1702501581,"current_range_meters":11200,"station_id":"ce4bgvp2rcd13ifvqcu0","pricing_plan_id":"free"},{"bike_id":"b313773f-d131-42d7-b0a0-86560c090f28","system_id":"levelo_inurba_marseille","lat":43.309038,"lon":5.396546,"is_reserved":false,"is_disabled":false,"rental_uris":{"android":"levelo://app?vid=b313773f-d131-42d7-b0a0-86560c090f28","ios":"levelo://app?vid=b313773f-d131-42d7-b0a0-86560c090f28"},"vehicle_type_id":"4","last_reported":1702501581,"current_range_meters":21200,"station_id":"ce4bh012rcd13ifvqcv0","pricing_plan_id":"free"},{"bike_id":"03ce2c01-3605-4da1-b297-425e40d4ffea","system_id":"levelo_inurba_marseille","lat":43.313291,"lon":5.396838,"is_reserved":false,"is_disabled":false,"rental_uris":{"android":"levelo://app?vid=03ce2c01-3605-4da1-b297-425e40d4ffea","ios":"levelo://app?vid=03ce2c01-3605-4da1-b297-425e40d4ffea"},"vehicle_type_id":"4","last_reported":1702501581,"current_range_meters":6000,"station_id":"ce4bgvp2rcd13ifvqcu0","pricing_plan_id":"free"},{"bike_id":"2a54657b-ca11-485d-b42f-eeaeba72a652","system_id":"levelo_inurba_marseille","lat":43.309038,"lon":5.396546,"is_reserved":false,"is_disabled":false,"rental_uris":{"android":"levelo://app?vid=2a54657b-ca11-485d-b42f-eeaeba72a652","ios":"levelo://app?vid=2a54657b-ca11-485d-b42f-eeaeba72a652"},"vehicle_type_id":"4","last_reported":1702501581,"current_range_meters":4400,"station_id":"ce4bh012rcd13ifvqcv0","pricing_plan_id":"free"},{"bike_id":"83c0b4af-7dee-4434-acb6-f3d071a17a62","system_id":"levelo_inurba_marseille","lat":43.289184,"lon":5.366408,"is_reserved":false,"is_disabled":false,"rental_uris":{"android":"levelo://app?vid=83c0b4af-7dee-4434-acb6-f3d071a17a62","ios":"levelo://app?vid=83c0b4af-7dee-4434-acb6-f3d071a17a62"},"vehicle_type_id":"4","last_reported":1702501581,"current_range_meters":8400,"station_id":"ce4bhap2rcd13ifvqek0","pricing_plan_id":"free"},{"bike_id":"87ce0178-02b6-4ff2-aa77-b22fae5d944e","system_id":"levelo_inurba_marseille","lat":43.29418,"lon":5.38623,"is_reserved":false,"is_disabled":false,"rental_uris":{"android":"levelo://app?vid=87ce0178-02b6-4ff2-aa77-b22fae5d944e","ios":"levelo://app?vid=87ce0178-02b6-4ff2-aa77-b22fae5d944e"},"vehicle_type_id":"4","last_reported":1702501581,"current_range_meters":1600,"station_id":"ce4bh2h2rcd13ifvqdh0","pricing_plan_id":"free"},{"bike_id":"2dc72e56-307b-44b9-9577-e6ff0039da4a","system_id":"levelo_inurba_marseille","lat":43.289184,"lon":5.366408,"is_reserved":false,"is_disabled":false,"rental_uris":{"android":"levelo://app?vid=2dc72e56-307b-44b9-9577-e6ff0039da4a","ios":"levelo://app?vid=2dc72e56-307b-44b9-9577-e6ff0039da4a"},"vehicle_type_id":"4","last_reported":1702501581,"current_range_meters":20800,"station_id":"ce4bhap2rcd13ifvqek0","pricing_plan_id":"free"},{"bike_id":"321f2064-47e9-4c58-a44e-66dc3ba2ef55","system_id":"levelo_inurba_marseille","lat":43.289184,"lon":5.366408,"is_reserved":false,"is_disabled":false,"rental_uris":{"android":"levelo://app?vid=321f2064-47e9-4c58-a44e-66dc3ba2ef55","ios":"levelo://app?vid=321f2064-47e9-4c58-a44e-66dc3ba2ef55"},"vehicle_type_id":"4","last_reported":1702501581,"current_range_meters":17200,"station_id":"ce4bhap2rcd13ifvqek0","pricing_plan_id":"free"},{"bike_id":"357989ab-e430-4f7f-8990-d28cd60f40ba","system_id":"levelo_inurba_marseille","lat":43.289184,"lon":5.366408,"is_reserved":false,"is_disabled":false,"rental_uris":{"android":"levelo://app?vid=357989ab-e430-4f7f-8990-d28cd60f40ba","ios":"levelo://app?vid=357989ab-e430-4f7f-8990-d28cd60f40ba"},"vehicle_type_id":"4","last_reported":1702501581,"current_range_meters":7200,"station_id":"ce4bhap2rcd13ifvqek0","pricing_plan_id":"free"},{"bike_id":"b1d4e296-89b4-4587-9fbe-6266f701108a","system_id":"levelo_inurba_marseille","lat":43.289184,"lon":5.366408,"is_reserved":false,"is_disabled":false,"rental_uris":{"android":"levelo://app?vid=b1d4e296-89b4-4587-9fbe-6266f701108a","ios":"levelo://app?vid=b1d4e296-89b4-4587-9fbe-6266f701108a"},"vehicle_type_id":"4","last_reported":1702501581,"current_range_meters":8400,"station_id":"ce4bhap2rcd13ifvqek0","pricing_plan_id":"free"},{"bike_id":"0a3f687c-0cc4-4950-95ee-5e9837875a9d","system_id":"levelo_inurba_marseille","lat":43.289184,"lon":5.366408,"is_reserved":false,"is_disabled":false,"rental_uris":{"android":"levelo://app?vid=0a3f687c-0cc4-4950-95ee-5e9837875a9d","ios":"levelo://app?vid=0a3f687c-0cc4-4950-95ee-5e9837875a9d"},"vehicle_type_id":"4","last_reported":1702501581,"current_range_meters":10400,"station_id":"ce4bhap2rcd13ifvqek0","pricing_plan_id":"free"},{"bike_id":"139e17cf-8eb6-462f-b32a-559006d26f61","system_id":"levelo_inurba_marseille","lat":43.292644,"lon":5.384257,"is_reserved":false,"is_disabled":false,"rental_uris":{"android":"levelo://app?vid=139e17cf-8eb6-462f-b32a-559006d26f61","ios":"levelo://app?vid=139e17cf-8eb6-462f-b32a-559006d26f61"},"vehicle_type_id":"4","last_reported":1702501581,"current_range_meters":19200,"station_id":"ce4bh692rcd13ifvqea0","pricing_plan_id":"free"},{"bike_id":"e07a93c5-7e89-4d07-9a59-8fc93506e4c1","system_id":"levelo_inurba_marseille","lat":43.292642,"lon":5.384254,"is_reserved":false,"is_disabled":false,"rental_uris":{"android":"levelo://app?vid=e07a93c5-7e89-4d07-9a59-8fc93506e4c1","ios":"levelo://app?vid=e07a93c5-7e89-4d07-9a59-8fc93506e4c1"},"vehicle_type_id":"4","last_reported":1702501581,"current_range_meters":2400,"station_id":"ce4bh692rcd13ifvqea0","pricing_plan_id":"free"},{"bike_id":"25606491-eee5-43c7-8c90-1748526b53ec","system_id":"levelo_inurba_marseille","lat":43.33042,"lon":5.38916,"is_reserved":false,"is_disabled":false,"rental_uris":{"android":"levelo://app?vid=25606491-eee5-43c7-8c90-1748526b53ec","ios":"levelo://app?vid=25606491-eee5-43c7-8c90-1748526b53ec"},"vehicle_type_id":"4","last_reported":1702501581,"current_range_meters":16400,"station_id":"ce4bhr92rcd13ifvqhrg","pricing_plan_id":"free"},{"bike_id":"07f670d0-374a-4b81-b8b0-158fd4af9fa0","system_id":"levelo_inurba_marseille","lat":43.33043,"lon":5.3892,"is_reserved":false,"is_disabled":false,"rental_uris":{"android":"levelo://app?vid=07f670d0-374a-4b81-b8b0-158fd4af9fa0","ios":"levelo://app?vid=07f670d0-374a-4b81-b8b0-158fd4af9fa0"},"vehicle_type_id":"4","last_reported":1702501581,"current_range_meters":10800,"station_id":"ce4bhr92rcd13ifvqhrg","pricing_plan_id":"free"},{"bike_id":"0a75e64e-3c37-473e-92cc-4953104d2425","system_id":"levelo_inurba_marseille","lat":43.330442,"lon":5.389148,"is_reserved":false,"is_disabled":false,"rental_uris":{"android":"levelo://app?vid=0a75e64e-3c37-473e-92cc-4953104d2425","ios":"levelo://app?vid=0a75e64e-3c37-473e-92cc-4953104d2425"},"vehicle_type_id":"4","last_reported":1702501581,"current_range_meters":23600,"station_id":"ce4bhr92rcd13ifvqhrg","pricing_plan_id":"free"},{"bike_id":"a9fd12e2-72d1-4109-bab3-5ff3ea2ee72b","system_id":"levelo_inurba_marseille","lat":43.31269,"lon":5.40165,"is_reserved":false,"is_disabled":false,"rental_uris":{"android":"levelo://app?vid=a9fd12e2-72d1-4109-bab3-5ff3ea2ee72b","ios":"levelo://app?vid=a9fd12e2-72d1-4109-bab3-5ff3ea2ee72b"},"vehicle_type_id":"4","last_reported":1702501581,"current_range_meters":0,"station_id":"ce4bh092rcd13ifvqd30","pricing_plan_id":"free"},{"bike_id":"25c6ef8d-f0f4-4d31-89d2-0361bf2fc013","system_id":"levelo_inurba_marseille","lat":43.30916,"lon":5.40138,"is_reserved":false,"is_disabled":false,"rental_uris":{"android":"levelo://app?vid=25c6ef8d-f0f4-4d31-89d2-0361bf2fc013","ios":"levelo://app?vid=25c6ef8d-f0f4-4d31-89d2-0361bf2fc013"},"vehicle_type_id":"4","last_reported":1702501581,"current_range_meters":26800,"station_id":"ce4bgvp2rcd13ifvqct0","pricing_plan_id":"free"},{"bike_id":"fa23bc4c-3492-4ba5-ab13-c42e18316583","system_id":"levelo_inurba_marseille","lat":43.337553,"lon":5.374737,"is_reserved":false,"is_disabled":false,"rental_uris":{"android":"levelo://app?vid=fa23bc4c-3492-4ba5-ab13-c42e18316583","ios":"levelo://app?vid=fa23bc4c-3492-4ba5-ab13-c42e18316583"},"vehicle_type_id":"4","last_reported":1702501581,"current_range_meters":30400,"station_id":"","pricing_plan_id":"free"},{"bike_id":"1f731f79-da92-4bc7-b21b-0abd1ee03930","system_id":"levelo_inurba_marseille","lat":43.33763,"lon":5.3743,"is_reserved":false,"is_disabled":false,"rental_uris":{"android":"levelo://app?vid=1f731f79-da92-4bc7-b21b-0abd1ee03930","ios":"levelo://app?vid=1f731f79-da92-4bc7-b21b-0abd1ee03930"},"vehicle_type_id":"4","last_reported":1702501581,"current_range_meters":24800,"station_id":"","pricing_plan_id":"free"},{"bike_id":"d1401e11-55bb-4e68-8553-4ee05204b2df","system_id":"levelo_inurba_marseille","lat":43.33763,"lon":5.37454,"is_reserved":false,"is_disabled":false,"rental_uris":{"android":"levelo://app?vid=d1401e11-55bb-4e68-8553-4ee05204b2df","ios":"levelo://app?vid=d1401e11-55bb-4e68-8553-4ee05204b2df"},"vehicle_type_id":"4","last_reported":1702501581,"current_range_meters":31200,"station_id":"","pricing_plan_id":"free"},{"bike_id":"7647b481-189f-41cd-98cc-c6437da80d4e","system_id":"levelo_inurba_marseille","lat":43.301117,"lon":5.398795,"is_reserved":false,"is_disabled":false,"rental_uris":{"android":"levelo://app?vid=7647b481-189f-41cd-98cc-c6437da80d4e","ios":"levelo://app?vid=7647b481-189f-41cd-98cc-c6437da80d4e"},"vehicle_type_id":"4","last_reported":1702501581,"current_range_meters":6000,"station_id":"ce4bh0h2rcd13ifvqd40","pricing_plan_id":"free"},{"bike_id":"f0d70e3a-0236-4546-99a7-bae9167c0494","system_id":"levelo_inurba_marseille","lat":43.28727,"lon":5.36078,"is_reserved":false,"is_disabled":false,"rental_uris":{"android":"levelo://app?vid=f0d70e3a-0236-4546-99a7-bae9167c0494","ios":"levelo://app?vid=f0d70e3a-0236-4546-99a7-bae9167c0494"},"vehicle_type_id":"4","last_reported":1702501581,"current_range_meters":28000,"station_id":"cki0cbj6b192h4jlfktg","pricing_plan_id":"free"},{"bike_id":"d26d58e1-6968-4755-a5df-fa3aa7d263a0","system_id":"levelo_inurba_marseille","lat":43.28727,"lon":5.36078,"is_reserved":false,"is_disabled":false,"rental_uris":{"android":"levelo://app?vid=d26d58e1-6968-4755-a5df-fa3aa7d263a0","ios":"levelo://app?vid=d26d58e1-6968-4755-a5df-fa3aa7d263a0"},"vehicle_type_id":"4","last_reported":1702501581,"current_range_meters":26800,"station_id":"cki0cbj6b192h4jlfktg","pricing_plan_id":"free"},{"bike_id":"64b382ee-c706-4dd6-bfcf-1bcc9919d75c","system_id":"levelo_inurba_marseille","lat":43.286961,"lon":5.373785,"is_reserved":false,"is_disabled":false,"rental_uris":{"android":"levelo://app?vid=64b382ee-c706-4dd6-bfcf-1bcc9919d75c","ios":"levelo://app?vid=64b382ee-c706-4dd6-bfcf-1bcc9919d75c"},"vehicle_type_id":"4","last_reported":1702501581,"current_range_meters":18400,"station_id":"ce4bh3p2rcd13ifvqdq0","pricing_plan_id":"free"},{"bike_id":"5b4537f9-f154-4fd8-8bbc-985443715f2c","system_id":"levelo_inurba_marseille","lat":43.289307,"lon":5.38406,"is_reserved":false,"is_disabled":false,"rental_uris":{"android":"levelo://app?vid=5b4537f9-f154-4fd8-8bbc-985443715f2c","ios":"levelo://app?vid=5b4537f9-f154-4fd8-8bbc-985443715f2c"},"vehicle_type_id":"4","last_reported":1702501581,"current_range_meters":25600,"station_id":"ce4bh612rcd13ifvqe6g","pricing_plan_id":"free"},{"bike_id":"de33024a-cf0e-47f6-9523-d0eb50dba9cc","system_id":"levelo_inurba_marseille","lat":43.290345,"lon":5.38646,"is_reserved":false,"is_disabled":false,"rental_uris":{"android":"levelo://app?vid=de33024a-cf0e-47f6-9523-d0eb50dba9cc","ios":"levelo://app?vid=de33024a-cf0e-47f6-9523-d0eb50dba9cc"},"vehicle_type_id":"4","last_reported":1702501581,"current_range_meters":15200,"station_id":"ce4bh4p2rcd13ifvqe0g","pricing_plan_id":"free"},{"bike_id":"5dc10632-1838-4b46-a105-042f318474fa","system_id":"levelo_inurba_marseille","lat":43.286039,"lon":5.370681,"is_reserved":false,"is_disabled":false,"rental_uris":{"android":"levelo://app?vid=5dc10632-1838-4b46-a105-042f318474fa","ios":"levelo://app?vid=5dc10632-1838-4b46-a105-042f318474fa"},"vehicle_type_id":"4","last_reported":1702501581,"current_range_meters":19200,"station_id":"ce4bht12rcd13ifvqi60","pricing_plan_id":"free"},{"bike_id":"3dc17693-3aa5-480c-b1b0-d5e0a2b7938c","system_id":"levelo_inurba_marseille","lat":43.291994,"lon":5.392907,"is_reserved":false,"is_disabled":false,"rental_uris":{"android":"levelo://app?vid=3dc17693-3aa5-480c-b1b0-d5e0a2b7938c","ios":"levelo://app?vid=3dc17693-3aa5-480c-b1b0-d5e0a2b7938c"},"vehicle_type_id":"4","last_reported":1702501581,"current_range_meters":0,"station_id":"ce4bh192rcd13ifvqdd0","pricing_plan_id":"free"},{"bike_id":"a93dac9a-eb0d-4428-a95c-38a000ce55ae","system_id":"levelo_inurba_marseille","lat":43.284538,"lon":5.358657,"is_reserved":false,"is_disabled":false,"rental_uris":{"android":"levelo://app?vid=a93dac9a-eb0d-4428-a95c-38a000ce55ae","ios":"levelo://app?vid=a93dac9a-eb0d-4428-a95c-38a000ce55ae"},"vehicle_type_id":"4","last_reported":1702501581,"current_range_meters":5200,"station_id":"ce4bhah2rcd13ifvqei0","pricing_plan_id":"free"},{"bike_id":"83479b9e-f975-4df3-a4f8-95be3cb3a1c1","system_id":"levelo_inurba_marseille","lat":43.284538,"lon":5.358657,"is_reserved":false,"is_disabled":false,"rental_uris":{"android":"levelo://app?vid=83479b9e-f975-4df3-a4f8-95be3cb3a1c1","ios":"levelo://app?vid=83479b9e-f975-4df3-a4f8-95be3cb3a1c1"},"vehicle_type_id":"4","last_reported":1702501581,"current_range_meters":20800,"station_id":"ce4bhah2rcd13ifvqei0","pricing_plan_id":"free"},{"bike_id":"ca031547-cfb3-4b2b-bc50-11b7481bd43b","system_id":"levelo_inurba_marseille","lat":43.284534,"lon":5.358662,"is_reserved":false,"is_disabled":false,"rental_uris":{"android":"levelo://app?vid=ca031547-cfb3-4b2b-bc50-11b7481bd43b","ios":"levelo://app?vid=ca031547-cfb3-4b2b-bc50-11b7481bd43b"},"vehicle_type_id":"4","last_reported":1702501581,"current_range_meters":22800,"station_id":"ce4bhah2rcd13ifvqei0","pricing_plan_id":"free"},{"bike_id":"6ae5d872-abb9-44a2-a5f5-4a738ee17dd5","system_id":"levelo_inurba_marseille","lat":43.28617,"lon":5.35107,"is_reserved":false,"is_disabled":false,"rental_uris":{"android":"levelo://app?vid=6ae5d872-abb9-44a2-a5f5-4a738ee17dd5","ios":"levelo://app?vid=6ae5d872-abb9-44a2-a5f5-4a738ee17dd5"},"vehicle_type_id":"4","last_reported":1702501581,"current_range_meters":17200,"station_id":"ce4bhch2rcd13ifvqeug","pricing_plan_id":"free"},{"bike_id":"e3c167b8-4bc0-4261-9f55-681ba47e8c9d","system_id":"levelo_inurba_marseille","lat":43.29567,"lon":5.39963,"is_reserved":false,"is_disabled":false,"rental_uris":{"android":"levelo://app?vid=e3c167b8-4bc0-4261-9f55-681ba47e8c9d","ios":"levelo://app?vid=e3c167b8-4bc0-4261-9f55-681ba47e8c9d"},"vehicle_type_id":"4","last_reported":1702501581,"current_range_meters":0,"station_id":"ce4bh312rcd13ifvqdj0","pricing_plan_id":"free"},{"bike_id":"7487c396-dfd4-485f-b5bb-671f69023309","system_id":"levelo_inurba_marseille","lat":43.283998,"lon":5.375062,"is_reserved":false,"is_disabled":false,"rental_uris":{"android":"levelo://app?vid=7487c396-dfd4-485f-b5bb-671f69023309","ios":"levelo://app?vid=7487c396-dfd4-485f-b5bb-671f69023309"},"vehicle_type_id":"4","last_reported":1702501581,"current_range_meters":16000,"station_id":"ce4bh412rcd13ifvqds0","pricing_plan_id":"free"},{"bike_id":"ce44360c-204e-4aa2-bc9f-2f1013996707","system_id":"levelo_inurba_marseille","lat":43.297946,"lon":5.404063,"is_reserved":false,"is_disabled":false,"rental_uris":{"android":"levelo://app?vid=ce44360c-204e-4aa2-bc9f-2f1013996707","ios":"levelo://app?vid=ce44360c-204e-4aa2-bc9f-2f1013996707"},"vehicle_type_id":"4","last_reported":1702501581,"current_range_meters":17200,"station_id":"ce4bh112rcd13ifvqd90","pricing_plan_id":"free"},{"bike_id":"35530c7f-c8cf-4da9-9300-04e635da6cde","system_id":"levelo_inurba_marseille","lat":43.298041,"lon":5.404136,"is_reserved":false,"is_disabled":false,"rental_uris":{"android":"levelo://app?vid=35530c7f-c8cf-4da9-9300-04e635da6cde","ios":"levelo://app?vid=35530c7f-c8cf-4da9-9300-04e635da6cde"},"vehicle_type_id":"4","last_reported":1702501581,"current_range_meters":28400,"station_id":"ce4bh112rcd13ifvqd90","pricing_plan_id":"free"},{"bike_id":"3bfb1dde-3326-4d92-ac4d-f9775938d33d","system_id":"levelo_inurba_marseille","lat":43.283494,"lon":5.380945,"is_reserved":false,"is_disabled":false,"rental_uris":{"android":"levelo://app?vid=3bfb1dde-3326-4d92-ac4d-f9775938d33d","ios":"levelo://app?vid=3bfb1dde-3326-4d92-ac4d-f9775938d33d"},"vehicle_type_id":"4","last_reported":1702501581,"current_range_meters":11600,"station_id":"ce4bh412rcd13ifvqdr0","pricing_plan_id":"free"},{"bike_id":"a33ad8df-d7d0-451c-a9d3-a31ecf47db76","system_id":"levelo_inurba_marseille","lat":43.282744,"lon":5.350533,"is_reserved":false,"is_disabled":false,"rental_uris":{"android":"levelo://app?vid=a33ad8df-d7d0-451c-a9d3-a31ecf47db76","ios":"levelo://app?vid=a33ad8df-d7d0-451c-a9d3-a31ecf47db76"},"vehicle_type_id":"4","last_reported":1702501581,"current_range_meters":24800,"station_id":"ce4bhbp2rcd13ifvqerg","pricing_plan_id":"free"},{"bike_id":"aa31d776-cefe-43ae-b65b-dd8de1a11de5","system_id":"levelo_inurba_marseille","lat":43.282754,"lon":5.350519,"is_reserved":false,"is_disabled":false,"rental_uris":{"android":"levelo://app?vid=aa31d776-cefe-43ae-b65b-dd8de1a11de5","ios":"levelo://app?vid=aa31d776-cefe-43ae-b65b-dd8de1a11de5"},"vehicle_type_id":"4","last_reported":1702501581,"current_range_meters":22000,"station_id":"ce4bhbp2rcd13ifvqerg","pricing_plan_id":"free"},{"bike_id":"c8c5cff7-36d7-498a-b8bd-01aa079975ac","system_id":"levelo_inurba_marseille","lat":43.281044,"lon":5.378308,"is_reserved":false,"is_disabled":false,"rental_uris":{"android":"levelo://app?vid=c8c5cff7-36d7-498a-b8bd-01aa079975ac","ios":"levelo://app?vid=c8c5cff7-36d7-498a-b8bd-01aa079975ac"},"vehicle_type_id":"4","last_reported":1702501581,"current_range_meters":20400,"station_id":"ce4bha12rcd13ifvqee0","pricing_plan_id":"free"},{"bike_id":"f84b1966-ee0d-437f-bc68-fd45c1879fd9","system_id":"levelo_inurba_marseille","lat":43.296263,"lon":5.40601,"is_reserved":false,"is_disabled":false,"rental_uris":{"android":"levelo://app?vid=f84b1966-ee0d-437f-bc68-fd45c1879fd9","ios":"levelo://app?vid=f84b1966-ee0d-437f-bc68-fd45c1879fd9"},"vehicle_type_id":"4","last_reported":1702501581,"current_range_meters":24400,"station_id":"ce4bh0h2rcd13ifvqd60","pricing_plan_id":"free"},{"bike_id":"0653dd16-eb5f-489f-8efe-965cd7fb511a","system_id":"levelo_inurba_marseille","lat":43.281044,"lon":5.378308,"is_reserved":false,"is_disabled":false,"rental_uris":{"android":"levelo://app?vid=0653dd16-eb5f-489f-8efe-965cd7fb511a","ios":"levelo://app?vid=0653dd16-eb5f-489f-8efe-965cd7fb511a"},"vehicle_type_id":"4","last_reported":1702501581,"current_range_meters":5200,"station_id":"ce4bha12rcd13ifvqee0","pricing_plan_id":"free"},{"bike_id":"991997b1-c923-49d1-8fdf-e06a7a482ddd","system_id":"levelo_inurba_marseille","lat":43.304188,"lon":5.412904,"is_reserved":false,"is_disabled":false,"rental_uris":{"android":"levelo://app?vid=991997b1-c923-49d1-8fdf-e06a7a482ddd","ios":"levelo://app?vid=991997b1-c923-49d1-8fdf-e06a7a482ddd"},"vehicle_type_id":"4","last_reported":1702501581,"current_range_meters":26400,"station_id":"ce4bhop2rcd13ifvqh8g","pricing_plan_id":"free"},{"bike_id":"e53b3a4d-9aac-4e94-8796-cafcea6e6f56","system_id":"levelo_inurba_marseille","lat":43.279087,"lon":5.380114,"is_reserved":false,"is_disabled":false,"rental_uris":{"android":"levelo://app?vid=e53b3a4d-9aac-4e94-8796-cafcea6e6f56","ios":"levelo://app?vid=e53b3a4d-9aac-4e94-8796-cafcea6e6f56"},"vehicle_type_id":"4","last_reported":1702501581,"current_range_meters":16000,"station_id":"ce4bhf92rcd13ifvqf50","pricing_plan_id":"free"},{"bike_id":"8bd421a2-2c8a-4abb-9200-08ce97dd8881","system_id":"levelo_inurba_marseille","lat":43.279087,"lon":5.380114,"is_reserved":false,"is_disabled":false,"rental_uris":{"android":"levelo://app?vid=8bd421a2-2c8a-4abb-9200-08ce97dd8881","ios":"levelo://app?vid=8bd421a2-2c8a-4abb-9200-08ce97dd8881"},"vehicle_type_id":"4","last_reported":1702501581,"current_range_meters":26400,"station_id":"ce4bhf92rcd13ifvqf50","pricing_plan_id":"free"},{"bike_id":"b3ed85f2-f283-43b6-8c0c-b9f76eef7f9b","system_id":"levelo_inurba_marseille","lat":43.287154,"lon":5.399979,"is_reserved":false,"is_disabled":false,"rental_uris":{"android":"levelo://app?vid=b3ed85f2-f283-43b6-8c0c-b9f76eef7f9b","ios":"levelo://app?vid=b3ed85f2-f283-43b6-8c0c-b9f76eef7f9b"},"vehicle_type_id":"4","last_reported":1702501581,"current_range_meters":18400,"station_id":"ce4bho92rcd13ifvqh3g","pricing_plan_id":"free"},{"bike_id":"d6f8ea22-eb63-477f-b65f-7feeb09ed4e1","system_id":"levelo_inurba_marseille","lat":43.287154,"lon":5.399979,"is_reserved":false,"is_disabled":false,"rental_uris":{"android":"levelo://app?vid=d6f8ea22-eb63-477f-b65f-7feeb09ed4e1","ios":"levelo://app?vid=d6f8ea22-eb63-477f-b65f-7feeb09ed4e1"},"vehicle_type_id":"4","last_reported":1702501581,"current_range_meters":4400,"station_id":"ce4bho92rcd13ifvqh3g","pricing_plan_id":"free"},{"bike_id":"022fbf18-f14c-4c51-b94a-c43068e6e4bb","system_id":"levelo_inurba_marseille","lat":43.2797,"lon":5.38735,"is_reserved":false,"is_disabled":false,"rental_uris":{"android":"levelo://app?vid=022fbf18-f14c-4c51-b94a-c43068e6e4bb","ios":"levelo://app?vid=022fbf18-f14c-4c51-b94a-c43068e6e4bb"},"vehicle_type_id":"4","last_reported":1702501581,"current_range_meters":0,"station_id":"ce4bhg12rcd13ifvqf80","pricing_plan_id":"free"},{"bike_id":"bac7f80f-57fe-40eb-8330-1a5ff70c2840","system_id":"levelo_inurba_marseille","lat":43.27956,"lon":5.38733,"is_reserved":false,"is_disabled":false,"rental_uris":{"android":"levelo://app?vid=bac7f80f-57fe-40eb-8330-1a5ff70c2840","ios":"levelo://app?vid=bac7f80f-57fe-40eb-8330-1a5ff70c2840"},"vehicle_type_id":"4","last_reported":1702501581,"current_range_meters":0,"station_id":"ce4bhg12rcd13ifvqf80","pricing_plan_id":"free"},{"bike_id":"0ee73de2-2bbb-44e8-a446-c5857dc8dd35","system_id":"levelo_inurba_marseille","lat":43.292571,"lon":5.409107,"is_reserved":false,"is_disabled":false,"rental_uris":{"android":"levelo://app?vid=0ee73de2-2bbb-44e8-a446-c5857dc8dd35","ios":"levelo://app?vid=0ee73de2-2bbb-44e8-a446-c5857dc8dd35"},"vehicle_type_id":"4","last_reported":1702501581,"current_range_meters":20000,"station_id":"ce4bh192rcd13ifvqdc0","pricing_plan_id":"free"},{"bike_id":"41878be8-5525-4b88-958b-6b1fe5000c03","system_id":"levelo_inurba_marseille","lat":43.292569,"lon":5.409107,"is_reserved":false,"is_disabled":false,"rental_uris":{"android":"levelo://app?vid=41878be8-5525-4b88-958b-6b1fe5000c03","ios":"levelo://app?vid=41878be8-5525-4b88-958b-6b1fe5000c03"},"vehicle_type_id":"4","last_reported":1702501581,"current_range_meters":14400,"station_id":"ce4bh192rcd13ifvqdc0","pricing_plan_id":"free"},{"bike_id":"c016e672-b4d7-49b9-b38f-69fd9e1cf7ed","system_id":"levelo_inurba_marseille","lat":43.325243,"lon":5.414326,"is_reserved":false,"is_disabled":false,"rental_uris":{"android":"levelo://app?vid=c016e672-b4d7-49b9-b38f-69fd9e1cf7ed","ios":"levelo://app?vid=c016e672-b4d7-49b9-b38f-69fd9e1cf7ed"},"vehicle_type_id":"4","last_reported":1702501581,"current_range_meters":19200,"station_id":"ce4bhq12rcd13ifvqhhg","pricing_plan_id":"free"},{"bike_id":"359fb6df-e61b-45e7-95a6-2a3959446907","system_id":"levelo_inurba_marseille","lat":43.27614,"lon":5.36125,"is_reserved":false,"is_disabled":false,"rental_uris":{"android":"levelo://app?vid=359fb6df-e61b-45e7-95a6-2a3959446907","ios":"levelo://app?vid=359fb6df-e61b-45e7-95a6-2a3959446907"},"vehicle_type_id":"4","last_reported":1702501581,"current_range_meters":0,"station_id":"ce4bgj92rcd13ifvqbe0","pricing_plan_id":"free"},{"bike_id":"39eefe27-03d9-47f3-9de8-d68c3a12f1c4","system_id":"levelo_inurba_marseille","lat":43.35094,"lon":5.3681,"is_reserved":false,"is_disabled":false,"rental_uris":{"android":"levelo://app?vid=39eefe27-03d9-47f3-9de8-d68c3a12f1c4","ios":"levelo://app?vid=39eefe27-03d9-47f3-9de8-d68c3a12f1c4"},"vehicle_type_id":"4","last_reported":1702501581,"current_range_meters":0,"station_id":"","pricing_plan_id":"free"},{"bike_id":"880aa1c5-8b19-4862-ae8e-55a3060b0ba9","system_id":"levelo_inurba_marseille","lat":43.280784,"lon":5.396622,"is_reserved":false,"is_disabled":false,"rental_uris":{"android":"levelo://app?vid=880aa1c5-8b19-4862-ae8e-55a3060b0ba9","ios":"levelo://app?vid=880aa1c5-8b19-4862-ae8e-55a3060b0ba9"},"vehicle_type_id":"4","last_reported":1702501581,"current_range_meters":23200,"station_id":"ce4bho12rcd13ifvqh2g","pricing_plan_id":"free"},{"bike_id":"1b386c08-0496-4165-97aa-f3e75d73bbed","system_id":"levelo_inurba_marseille","lat":43.303837,"lon":5.418724,"is_reserved":false,"is_disabled":false,"rental_uris":{"android":"levelo://app?vid=1b386c08-0496-4165-97aa-f3e75d73bbed","ios":"levelo://app?vid=1b386c08-0496-4165-97aa-f3e75d73bbed"},"vehicle_type_id":"4","last_reported":1702501581,"current_range_meters":31200,"station_id":"ce4bhop2rcd13ifvqh7g","pricing_plan_id":"free"},{"bike_id":"20a8e39e-b78f-48be-8ea9-d0c043f262da","system_id":"levelo_inurba_marseille","lat":43.278399,"lon":5.392139,"is_reserved":false,"is_disabled":false,"rental_uris":{"android":"levelo://app?vid=20a8e39e-b78f-48be-8ea9-d0c043f262da","ios":"levelo://app?vid=20a8e39e-b78f-48be-8ea9-d0c043f262da"},"vehicle_type_id":"4","last_reported":1702501581,"current_range_meters":6000,"station_id":"ce4bhjp2rcd13ifvqga0","pricing_plan_id":"free"},{"bike_id":"ce791a0a-98e5-49d2-b915-4178abe085b9","system_id":"levelo_inurba_marseille","lat":43.275625,"lon":5.384392,"is_reserved":false,"is_disabled":false,"rental_uris":{"android":"levelo://app?vid=ce791a0a-98e5-49d2-b915-4178abe085b9","ios":"levelo://app?vid=ce791a0a-98e5-49d2-b915-4178abe085b9"},"vehicle_type_id":"4","last_reported":1702501581,"current_range_meters":400,"station_id":"ce4bhh92rcd13ifvqfi0","pricing_plan_id":"free"},{"bike_id":"695aec7a-46a5-4722-8dc8-bbaa18c8538f","system_id":"levelo_inurba_marseille","lat":43.273613,"lon":5.362705,"is_reserved":false,"is_disabled":false,"rental_uris":{"android":"levelo://app?vid=695aec7a-46a5-4722-8dc8-bbaa18c8538f","ios":"levelo://app?vid=695aec7a-46a5-4722-8dc8-bbaa18c8538f"},"vehicle_type_id":"4","last_reported":1702501581,"current_range_meters":22800,"station_id":"ce4bhbh2rcd13ifvqeo0","pricing_plan_id":"free"},{"bike_id":"fa983061-5134-4d54-8ae6-e419c0aa537c","system_id":"levelo_inurba_marseille","lat":43.336148,"lon":5.410349,"is_reserved":false,"is_disabled":false,"rental_uris":{"android":"levelo://app?vid=fa983061-5134-4d54-8ae6-e419c0aa537c","ios":"levelo://app?vid=fa983061-5134-4d54-8ae6-e419c0aa537c"},"vehicle_type_id":"4","last_reported":1702501581,"current_range_meters":0,"station_id":"ce4bhqh2rcd13ifvqhmg","pricing_plan_id":"free"},{"bike_id":"79650ebc-967e-4d1c-81ae-bc942d9248c1","system_id":"levelo_inurba_marseille","lat":43.279975,"lon":5.40009,"is_reserved":false,"is_disabled":false,"rental_uris":{"android":"levelo://app?vid=79650ebc-967e-4d1c-81ae-bc942d9248c1","ios":"levelo://app?vid=79650ebc-967e-4d1c-81ae-bc942d9248c1"},"vehicle_type_id":"4","last_reported":1702501581,"current_range_meters":14400,"station_id":"ce4bho92rcd13ifvqh4g","pricing_plan_id":"free"},{"bike_id":"946f57eb-3762-4ab4-825d-a8d3a102ceba","system_id":"levelo_inurba_marseille","lat":43.279952,"lon":5.400085,"is_reserved":false,"is_disabled":false,"rental_uris":{"android":"levelo://app?vid=946f57eb-3762-4ab4-825d-a8d3a102ceba","ios":"levelo://app?vid=946f57eb-3762-4ab4-825d-a8d3a102ceba"},"vehicle_type_id":"4","last_reported":1702501581,"current_range_meters":21600,"station_id":"ce4bho92rcd13ifvqh4g","pricing_plan_id":"free"},{"bike_id":"55f8cf7b-a384-4860-b1f5-075034029351","system_id":"levelo_inurba_marseille","lat":43.31712,"lon":5.42402,"is_reserved":false,"is_disabled":false,"rental_uris":{"android":"levelo://app?vid=55f8cf7b-a384-4860-b1f5-075034029351","ios":"levelo://app?vid=55f8cf7b-a384-4860-b1f5-075034029351"},"vehicle_type_id":"4","last_reported":1702501581,"current_range_meters":24000,"station_id":"ce4bhp92rcd13ifvqhbg","pricing_plan_id":"free"},{"bike_id":"fdfea060-a937-4f92-8430-8f650d233de2","system_id":"levelo_inurba_marseille","lat":43.317121,"lon":5.423936,"is_reserved":false,"is_disabled":false,"rental_uris":{"android":"levelo://app?vid=fdfea060-a937-4f92-8430-8f650d233de2","ios":"levelo://app?vid=fdfea060-a937-4f92-8430-8f650d233de2"},"vehicle_type_id":"4","last_reported":1702501581,"current_range_meters":24800,"station_id":"ce4bhp92rcd13ifvqhbg","pricing_plan_id":"free"},{"bike_id":"b1c028eb-0fe1-4afa-b35c-b9783a0e9537","system_id":"levelo_inurba_marseille","lat":43.31723,"lon":5.42405,"is_reserved":false,"is_disabled":false,"rental_uris":{"android":"levelo://app?vid=b1c028eb-0fe1-4afa-b35c-b9783a0e9537","ios":"levelo://app?vid=b1c028eb-0fe1-4afa-b35c-b9783a0e9537"},"vehicle_type_id":"4","last_reported":1702501581,"current_range_meters":400,"station_id":"ce4bhp92rcd13ifvqhbg","pricing_plan_id":"free"},{"bike_id":"735a48c3-eb5d-4627-ac05-6da9b77b047f","system_id":"levelo_inurba_marseille","lat":43.340804,"lon":5.410219,"is_reserved":false,"is_disabled":false,"rental_uris":{"android":"levelo://app?vid=735a48c3-eb5d-4627-ac05-6da9b77b047f","ios":"levelo://app?vid=735a48c3-eb5d-4627-ac05-6da9b77b047f"},"vehicle_type_id":"4","last_reported":1702501581,"current_range_meters":23200,"station_id":"ce4bhqh2rcd13ifvqhlg","pricing_plan_id":"free"},{"bike_id":"3ca2c2d2-99b0-4aa6-a05d-e30f02e6a7fb","system_id":"levelo_inurba_marseille","lat":43.27588,"lon":5.39495,"is_reserved":false,"is_disabled":false,"rental_uris":{"android":"levelo://app?vid=3ca2c2d2-99b0-4aa6-a05d-e30f02e6a7fb","ios":"levelo://app?vid=3ca2c2d2-99b0-4aa6-a05d-e30f02e6a7fb"},"vehicle_type_id":"4","last_reported":1702501581,"current_range_meters":14000,"station_id":"","pricing_plan_id":"free"},{"bike_id":"f24842c9-86a0-47e5-beb1-29d6f71a0a0b","system_id":"levelo_inurba_marseille","lat":43.295523,"lon":5.422926,"is_reserved":false,"is_disabled":false,"rental_uris":{"android":"levelo://app?vid=f24842c9-86a0-47e5-beb1-29d6f71a0a0b","ios":"levelo://app?vid=f24842c9-86a0-47e5-beb1-29d6f71a0a0b"},"vehicle_type_id":"4","last_reported":1702501581,"current_range_meters":20400,"station_id":"ce4bhph2rcd13ifvqhdg","pricing_plan_id":"free"},{"bike_id":"21cd849d-d21e-4908-819b-2fc71912a061","system_id":"levelo_inurba_marseille","lat":43.295511,"lon":5.422926,"is_reserved":false,"is_disabled":false,"rental_uris":{"android":"levelo://app?vid=21cd849d-d21e-4908-819b-2fc71912a061","ios":"levelo://app?vid=21cd849d-d21e-4908-819b-2fc71912a061"},"vehicle_type_id":"4","last_reported":1702501581,"current_range_meters":18000,"station_id":"ce4bhph2rcd13ifvqhdg","pricing_plan_id":"free"},{"bike_id":"4390bffd-7c0b-4706-b12e-4a9031cdebaa","system_id":"levelo_inurba_marseille","lat":43.278128,"lon":5.407195,"is_reserved":false,"is_disabled":false,"rental_uris":{"android":"levelo://app?vid=4390bffd-7c0b-4706-b12e-4a9031cdebaa","ios":"levelo://app?vid=4390bffd-7c0b-4706-b12e-4a9031cdebaa"},"vehicle_type_id":"4","last_reported":1702501581,"current_range_meters":26800,"station_id":"ce4bhnh2rcd13ifvqgtg","pricing_plan_id":"free"},{"bike_id":"13aeab0c-5fc7-4a70-9d35-9a78d4004e35","system_id":"levelo_inurba_marseille","lat":43.27943,"lon":5.41046,"is_reserved":false,"is_disabled":false,"rental_uris":{"android":"levelo://app?vid=13aeab0c-5fc7-4a70-9d35-9a78d4004e35","ios":"levelo://app?vid=13aeab0c-5fc7-4a70-9d35-9a78d4004e35"},"vehicle_type_id":"4","last_reported":1702501581,"current_range_meters":5200,"station_id":"ce4bhnp2rcd13ifvqh0g","pricing_plan_id":"free"},{"bike_id":"2f954a71-a24d-4218-8131-98337f69cd1b","system_id":"levelo_inurba_marseille","lat":43.279465,"lon":5.410561,"is_reserved":false,"is_disabled":false,"rental_uris":{"android":"levelo://app?vid=2f954a71-a24d-4218-8131-98337f69cd1b","ios":"levelo://app?vid=2f954a71-a24d-4218-8131-98337f69cd1b"},"vehicle_type_id":"4","last_reported":1702501581,"current_range_meters":13200,"station_id":"ce4bhnp2rcd13ifvqh0g","pricing_plan_id":"free"},{"bike_id":"e2900e18-4941-4439-8de2-b15297bc1263","system_id":"levelo_inurba_marseille","lat":43.26681,"lon":5.382694,"is_reserved":false,"is_disabled":false,"rental_uris":{"android":"levelo://app?vid=e2900e18-4941-4439-8de2-b15297bc1263","ios":"levelo://app?vid=e2900e18-4941-4439-8de2-b15297bc1263"},"vehicle_type_id":"4","last_reported":1702501581,"current_range_meters":17200,"station_id":"ce4bhg92rcd13ifvqf90","pricing_plan_id":"free"},{"bike_id":"cb25c8bf-e4ee-4d5d-bae9-3b58e7e9abcd","system_id":"levelo_inurba_marseille","lat":43.265714,"lon":5.372891,"is_reserved":false,"is_disabled":false,"rental_uris":{"android":"levelo://app?vid=cb25c8bf-e4ee-4d5d-bae9-3b58e7e9abcd","ios":"levelo://app?vid=cb25c8bf-e4ee-4d5d-bae9-3b58e7e9abcd"},"vehicle_type_id":"4","last_reported":1702501581,"current_range_meters":30800,"station_id":"ce4bhg12rcd13ifvqf70","pricing_plan_id":"free"},{"bike_id":"fee91fa2-5868-42fc-8e40-ea18a86e9560","system_id":"levelo_inurba_marseille","lat":43.26553,"lon":5.37295,"is_reserved":false,"is_disabled":false,"rental_uris":{"android":"levelo://app?vid=fee91fa2-5868-42fc-8e40-ea18a86e9560","ios":"levelo://app?vid=fee91fa2-5868-42fc-8e40-ea18a86e9560"},"vehicle_type_id":"4","last_reported":1702501581,"current_range_meters":29200,"station_id":"ce4bhg12rcd13ifvqf70","pricing_plan_id":"free"},{"bike_id":"8bcd14b3-672d-4381-87fd-d93a905497a9","system_id":"levelo_inurba_marseille","lat":43.27996,"lon":5.416624,"is_reserved":false,"is_disabled":false,"rental_uris":{"android":"levelo://app?vid=8bcd14b3-672d-4381-87fd-d93a905497a9","ios":"levelo://app?vid=8bcd14b3-672d-4381-87fd-d93a905497a9"},"vehicle_type_id":"4","last_reported":1702501581,"current_range_meters":20400,"station_id":"ce4bho12rcd13ifvqh1g","pricing_plan_id":"free"},{"bike_id":"3f232a0b-f328-4a7c-9376-5d1041aa79e5","system_id":"levelo_inurba_marseille","lat":43.30803,"lon":5.43523,"is_reserved":false,"is_disabled":false,"rental_uris":{"android":"levelo://app?vid=3f232a0b-f328-4a7c-9376-5d1041aa79e5","ios":"levelo://app?vid=3f232a0b-f328-4a7c-9376-5d1041aa79e5"},"vehicle_type_id":"4","last_reported":1702501581,"current_range_meters":30400,"station_id":"ce4bhph2rcd13ifvqheg","pricing_plan_id":"free"},{"bike_id":"b582c90a-7ad2-4807-97c7-a55d689f7b21","system_id":"levelo_inurba_marseille","lat":43.261782,"lon":5.374515,"is_reserved":false,"is_disabled":false,"rental_uris":{"android":"levelo://app?vid=b582c90a-7ad2-4807-97c7-a55d689f7b21","ios":"levelo://app?vid=b582c90a-7ad2-4807-97c7-a55d689f7b21"},"vehicle_type_id":"4","last_reported":1702501581,"current_range_meters":3200,"station_id":"ce4bhgp2rcd13ifvqfc0","pricing_plan_id":"free"},{"bike_id":"d7c68083-de0d-4032-884a-e4511850567b","system_id":"levelo_inurba_marseille","lat":43.26202,"lon":5.379299,"is_reserved":false,"is_disabled":false,"rental_uris":{"android":"levelo://app?vid=d7c68083-de0d-4032-884a-e4511850567b","ios":"levelo://app?vid=d7c68083-de0d-4032-884a-e4511850567b"},"vehicle_type_id":"4","last_reported":1702501581,"current_range_meters":30000,"station_id":"ce4bhjp2rcd13ifvqg90","pricing_plan_id":"free"},{"bike_id":"4f487e36-00dc-42e1-bb73-139c0266d0c1","system_id":"levelo_inurba_marseille","lat":43.271368,"lon":5.40928,"is_reserved":false,"is_disabled":false,"rental_uris":{"android":"levelo://app?vid=4f487e36-00dc-42e1-bb73-139c0266d0c1","ios":"levelo://app?vid=4f487e36-00dc-42e1-bb73-139c0266d0c1"},"vehicle_type_id":"4","last_reported":1702501581,"current_range_meters":26400,"station_id":"ce4bhl12rcd13ifvqgf0","pricing_plan_id":"free"},{"bike_id":"237634d4-2d23-479f-935b-09427197b407","system_id":"levelo_inurba_marseille","lat":43.27088,"lon":5.40958,"is_reserved":false,"is_disabled":false,"rental_uris":{"android":"levelo://app?vid=237634d4-2d23-479f-935b-09427197b407","ios":"levelo://app?vid=237634d4-2d23-479f-935b-09427197b407"},"vehicle_type_id":"4","last_reported":1702501581,"current_range_meters":10400,"station_id":"","pricing_plan_id":"free"},{"bike_id":"35a85cf9-9566-462c-8635-8548e14e231f","system_id":"levelo_inurba_marseille","lat":43.298768,"lon":5.43643,"is_reserved":false,"is_disabled":false,"rental_uris":{"android":"levelo://app?vid=35a85cf9-9566-462c-8635-8548e14e231f","ios":"levelo://app?vid=35a85cf9-9566-462c-8635-8548e14e231f"},"vehicle_type_id":"4","last_reported":1702501581,"current_range_meters":1600,"station_id":"ce4bhpp2rcd13ifvqhfg","pricing_plan_id":"free"},{"bike_id":"f860f387-f2ce-4d8f-830e-bd8a0d08dbe2","system_id":"levelo_inurba_marseille","lat":43.298768,"lon":5.43643,"is_reserved":false,"is_disabled":false,"rental_uris":{"android":"levelo://app?vid=f860f387-f2ce-4d8f-830e-bd8a0d08dbe2","ios":"levelo://app?vid=f860f387-f2ce-4d8f-830e-bd8a0d08dbe2"},"vehicle_type_id":"4","last_reported":1702501581,"current_range_meters":28000,"station_id":"ce4bhpp2rcd13ifvqhfg","pricing_plan_id":"free"},{"bike_id":"38a4a3ac-b01c-43e0-abb4-5a012521fc8c","system_id":"levelo_inurba_marseille","lat":43.298768,"lon":5.43643,"is_reserved":false,"is_disabled":false,"rental_uris":{"android":"levelo://app?vid=38a4a3ac-b01c-43e0-abb4-5a012521fc8c","ios":"levelo://app?vid=38a4a3ac-b01c-43e0-abb4-5a012521fc8c"},"vehicle_type_id":"4","last_reported":1702501581,"current_range_meters":31600,"station_id":"ce4bhpp2rcd13ifvqhfg","pricing_plan_id":"free"},{"bike_id":"4ec71661-c1e3-4c3b-a17d-3fefed6d4370","system_id":"levelo_inurba_marseille","lat":43.298768,"lon":5.43643,"is_reserved":false,"is_disabled":false,"rental_uris":{"android":"levelo://app?vid=4ec71661-c1e3-4c3b-a17d-3fefed6d4370","ios":"levelo://app?vid=4ec71661-c1e3-4c3b-a17d-3fefed6d4370"},"vehicle_type_id":"4","last_reported":1702501581,"current_range_meters":18400,"station_id":"ce4bhpp2rcd13ifvqhfg","pricing_plan_id":"free"},{"bike_id":"af5d9ae9-c611-48ae-bdd0-02a1acfdf6ec","system_id":"levelo_inurba_marseille","lat":43.281548,"lon":5.42643,"is_reserved":false,"is_disabled":false,"rental_uris":{"android":"levelo://app?vid=af5d9ae9-c611-48ae-bdd0-02a1acfdf6ec","ios":"levelo://app?vid=af5d9ae9-c611-48ae-bdd0-02a1acfdf6ec"},"vehicle_type_id":"4","last_reported":1702501581,"current_range_meters":16000,"station_id":"ce4bhnh2rcd13ifvqgug","pricing_plan_id":"free"},{"bike_id":"90dd1de4-f108-4a51-959d-09fe5b551bc7","system_id":"levelo_inurba_marseille","lat":43.281548,"lon":5.42643,"is_reserved":false,"is_disabled":false,"rental_uris":{"android":"levelo://app?vid=90dd1de4-f108-4a51-959d-09fe5b551bc7","ios":"levelo://app?vid=90dd1de4-f108-4a51-959d-09fe5b551bc7"},"vehicle_type_id":"4","last_reported":1702501581,"current_range_meters":0,"station_id":"ce4bhnh2rcd13ifvqgug","pricing_plan_id":"free"},{"bike_id":"9dfe7244-85f5-4cb8-95ef-7f323294d3b9","system_id":"levelo_inurba_marseille","lat":43.281548,"lon":5.42643,"is_reserved":false,"is_disabled":false,"rental_uris":{"android":"levelo://app?vid=9dfe7244-85f5-4cb8-95ef-7f323294d3b9","ios":"levelo://app?vid=9dfe7244-85f5-4cb8-95ef-7f323294d3b9"},"vehicle_type_id":"4","last_reported":1702501581,"current_range_meters":19200,"station_id":"ce4bhnh2rcd13ifvqgug","pricing_plan_id":"free"},{"bike_id":"89f090d1-02e6-4ed1-950a-6f917dc6929a","system_id":"levelo_inurba_marseille","lat":43.281548,"lon":5.42643,"is_reserved":false,"is_disabled":false,"rental_uris":{"android":"levelo://app?vid=89f090d1-02e6-4ed1-950a-6f917dc6929a","ios":"levelo://app?vid=89f090d1-02e6-4ed1-950a-6f917dc6929a"},"vehicle_type_id":"4","last_reported":1702501581,"current_range_meters":5600,"station_id":"ce4bhnh2rcd13ifvqgug","pricing_plan_id":"free"},{"bike_id":"139a7b0f-d716-4a89-a8df-8cb0192f7033","system_id":"levelo_inurba_marseille","lat":43.275028,"lon":5.424534,"is_reserved":false,"is_disabled":false,"rental_uris":{"android":"levelo://app?vid=139a7b0f-d716-4a89-a8df-8cb0192f7033","ios":"levelo://app?vid=139a7b0f-d716-4a89-a8df-8cb0192f7033"},"vehicle_type_id":"4","last_reported":1702501581,"current_range_meters":26000,"station_id":"ce4bhn92rcd13ifvqgrg","pricing_plan_id":"free"},{"bike_id":"b04a6739-f6b9-47a5-af29-c65f45a39c0c","system_id":"levelo_inurba_marseille","lat":43.258658,"lon":5.398935,"is_reserved":false,"is_disabled":false,"rental_uris":{"android":"levelo://app?vid=b04a6739-f6b9-47a5-af29-c65f45a39c0c","ios":"levelo://app?vid=b04a6739-f6b9-47a5-af29-c65f45a39c0c"},"vehicle_type_id":"4","last_reported":1702501581,"current_range_meters":28400,"station_id":"ce4bhl92rcd13ifvqghg","pricing_plan_id":"free"},{"bike_id":"73a73585-1665-4627-bc17-b7ee3ccd65ae","system_id":"levelo_inurba_marseille","lat":43.258657,"lon":5.39902,"is_reserved":false,"is_disabled":false,"rental_uris":{"android":"levelo://app?vid=73a73585-1665-4627-bc17-b7ee3ccd65ae","ios":"levelo://app?vid=73a73585-1665-4627-bc17-b7ee3ccd65ae"},"vehicle_type_id":"4","last_reported":1702501581,"current_range_meters":12800,"station_id":"ce4bhl92rcd13ifvqghg","pricing_plan_id":"free"},{"bike_id":"b3778f4b-17a5-414d-a355-5d6709a05873","system_id":"levelo_inurba_marseille","lat":43.25397,"lon":5.38284,"is_reserved":false,"is_disabled":false,"rental_uris":{"android":"levelo://app?vid=b3778f4b-17a5-414d-a355-5d6709a05873","ios":"levelo://app?vid=b3778f4b-17a5-414d-a355-5d6709a05873"},"vehicle_type_id":"4","last_reported":1702501581,"current_range_meters":21600,"station_id":"","pricing_plan_id":"free"},{"bike_id":"a8e20f3c-56a3-473c-a768-733a19fc879c","system_id":"levelo_inurba_marseille","lat":43.257079,"lon":5.411051,"is_reserved":false,"is_disabled":false,"rental_uris":{"android":"levelo://app?vid=a8e20f3c-56a3-473c-a768-733a19fc879c","ios":"levelo://app?vid=a8e20f3c-56a3-473c-a768-733a19fc879c"},"vehicle_type_id":"4","last_reported":1702501581,"current_range_meters":17600,"station_id":"ce4bhkp2rcd13ifvqgd0","pricing_plan_id":"free"},{"bike_id":"ca59e1dd-c6b2-4ee1-8447-6d8e6c6340f0","system_id":"levelo_inurba_marseille","lat":43.250009,"lon":5.389195,"is_reserved":false,"is_disabled":false,"rental_uris":{"android":"levelo://app?vid=ca59e1dd-c6b2-4ee1-8447-6d8e6c6340f0","ios":"levelo://app?vid=ca59e1dd-c6b2-4ee1-8447-6d8e6c6340f0"},"vehicle_type_id":"4","last_reported":1702501581,"current_range_meters":16800,"station_id":"ce4bhgp2rcd13ifvqfd0","pricing_plan_id":"free"},{"bike_id":"5cae2298-3e03-42c1-bf24-6a636c501b6f","system_id":"levelo_inurba_marseille","lat":43.248049,"lon":5.3746,"is_reserved":false,"is_disabled":false,"rental_uris":{"android":"levelo://app?vid=5cae2298-3e03-42c1-bf24-6a636c501b6f","ios":"levelo://app?vid=5cae2298-3e03-42c1-bf24-6a636c501b6f"},"vehicle_type_id":"4","last_reported":1702501581,"current_range_meters":3200,"station_id":"","pricing_plan_id":"free"},{"bike_id":"4e5ad467-5b2a-4311-bfbd-5ed452f7c851","system_id":"levelo_inurba_marseille","lat":43.250966,"lon":5.395186,"is_reserved":false,"is_disabled":false,"rental_uris":{"android":"levelo://app?vid=4e5ad467-5b2a-4311-bfbd-5ed452f7c851","ios":"levelo://app?vid=4e5ad467-5b2a-4311-bfbd-5ed452f7c851"},"vehicle_type_id":"4","last_reported":1702501581,"current_range_meters":23600,"station_id":"ce4bhm12rcd13ifvqgkg","pricing_plan_id":"free"},{"bike_id":"7e1973b3-f606-4647-8baa-0aa70235ba76","system_id":"levelo_inurba_marseille","lat":43.250966,"lon":5.395186,"is_reserved":false,"is_disabled":false,"rental_uris":{"android":"levelo://app?vid=7e1973b3-f606-4647-8baa-0aa70235ba76","ios":"levelo://app?vid=7e1973b3-f606-4647-8baa-0aa70235ba76"},"vehicle_type_id":"4","last_reported":1702501581,"current_range_meters":31200,"station_id":"ce4bhm12rcd13ifvqgkg","pricing_plan_id":"free"},{"bike_id":"25e0324e-910e-4862-8371-f8a3555d36f6","system_id":"levelo_inurba_marseille","lat":43.250966,"lon":5.395186,"is_reserved":false,"is_disabled":false,"rental_uris":{"android":"levelo://app?vid=25e0324e-910e-4862-8371-f8a3555d36f6","ios":"levelo://app?vid=25e0324e-910e-4862-8371-f8a3555d36f6"},"vehicle_type_id":"4","last_reported":1702501581,"current_range_meters":20800,"station_id":"ce4bhm12rcd13ifvqgkg","pricing_plan_id":"free"},{"bike_id":"dc118269-ea24-4acd-9418-28f82ac9c150","system_id":"levelo_inurba_marseille","lat":43.25102,"lon":5.403214,"is_reserved":false,"is_disabled":false,"rental_uris":{"android":"levelo://app?vid=dc118269-ea24-4acd-9418-28f82ac9c150","ios":"levelo://app?vid=dc118269-ea24-4acd-9418-28f82ac9c150"},"vehicle_type_id":"4","last_reported":1702501581,"current_range_meters":18400,"station_id":"ce4bhlh2rcd13ifvqgig","pricing_plan_id":"free"},{"bike_id":"f3fe1602-6781-4d4c-930e-5179af172901","system_id":"levelo_inurba_marseille","lat":43.25102,"lon":5.403214,"is_reserved":false,"is_disabled":false,"rental_uris":{"android":"levelo://app?vid=f3fe1602-6781-4d4c-930e-5179af172901","ios":"levelo://app?vid=f3fe1602-6781-4d4c-930e-5179af172901"},"vehicle_type_id":"4","last_reported":1702501581,"current_range_meters":19600,"station_id":"ce4bhlh2rcd13ifvqgig","pricing_plan_id":"free"},{"bike_id":"8280a86c-fb3f-46d2-9f05-1e811d2cbd0b","system_id":"levelo_inurba_marseille","lat":43.2466,"lon":5.3816,"is_reserved":false,"is_disabled":false,"rental_uris":{"android":"levelo://app?vid=8280a86c-fb3f-46d2-9f05-1e811d2cbd0b","ios":"levelo://app?vid=8280a86c-fb3f-46d2-9f05-1e811d2cbd0b"},"vehicle_type_id":"4","last_reported":1702501581,"current_range_meters":25200,"station_id":"ce4bhih2rcd13ifvqfr0","pricing_plan_id":"free"},{"bike_id":"061c59c2-1961-4229-8a98-6ee4e01c183b","system_id":"levelo_inurba_marseille","lat":43.25102,"lon":5.403214,"is_reserved":false,"is_disabled":false,"rental_uris":{"android":"levelo://app?vid=061c59c2-1961-4229-8a98-6ee4e01c183b","ios":"levelo://app?vid=061c59c2-1961-4229-8a98-6ee4e01c183b"},"vehicle_type_id":"4","last_reported":1702501581,"current_range_meters":14400,"station_id":"ce4bhlh2rcd13ifvqgig","pricing_plan_id":"free"},{"bike_id":"ff5e0797-a271-4d1e-8059-a2e1f74a08f0","system_id":"levelo_inurba_marseille","lat":43.25102,"lon":5.403214,"is_reserved":false,"is_disabled":false,"rental_uris":{"android":"levelo://app?vid=ff5e0797-a271-4d1e-8059-a2e1f74a08f0","ios":"levelo://app?vid=ff5e0797-a271-4d1e-8059-a2e1f74a08f0"},"vehicle_type_id":"4","last_reported":1702501581,"current_range_meters":0,"station_id":"ce4bhlh2rcd13ifvqgig","pricing_plan_id":"free"},{"bike_id":"f61707de-c839-47df-b06d-a3b8de53d564","system_id":"levelo_inurba_marseille","lat":43.25102,"lon":5.403214,"is_reserved":false,"is_disabled":false,"rental_uris":{"android":"levelo://app?vid=f61707de-c839-47df-b06d-a3b8de53d564","ios":"levelo://app?vid=f61707de-c839-47df-b06d-a3b8de53d564"},"vehicle_type_id":"4","last_reported":1702501581,"current_range_meters":31200,"station_id":"ce4bhlh2rcd13ifvqgig","pricing_plan_id":"free"},{"bike_id":"f1da4a16-cef8-424b-af9c-3ddddca82b56","system_id":"levelo_inurba_marseille","lat":43.246467,"lon":5.388984,"is_reserved":false,"is_disabled":false,"rental_uris":{"android":"levelo://app?vid=f1da4a16-cef8-424b-af9c-3ddddca82b56","ios":"levelo://app?vid=f1da4a16-cef8-424b-af9c-3ddddca82b56"},"vehicle_type_id":"4","last_reported":1702501581,"current_range_meters":30000,"station_id":"ce4bhg12rcd13ifvqf60","pricing_plan_id":"free"},{"bike_id":"34fe02de-1ec0-492a-9fa0-73f72984c928","system_id":"levelo_inurba_marseille","lat":43.24072,"lon":5.37761,"is_reserved":false,"is_disabled":false,"rental_uris":{"android":"levelo://app?vid=34fe02de-1ec0-492a-9fa0-73f72984c928","ios":"levelo://app?vid=34fe02de-1ec0-492a-9fa0-73f72984c928"},"vehicle_type_id":"4","last_reported":1702501581,"current_range_meters":9200,"station_id":"ce4bhnp2rcd13ifvqgvg","pricing_plan_id":"free"},{"bike_id":"1b2ea811-591a-43e2-a7a2-2a84bd8d0164","system_id":"levelo_inurba_marseille","lat":43.240623,"lon":5.377642,"is_reserved":false,"is_disabled":false,"rental_uris":{"android":"levelo://app?vid=1b2ea811-591a-43e2-a7a2-2a84bd8d0164","ios":"levelo://app?vid=1b2ea811-591a-43e2-a7a2-2a84bd8d0164"},"vehicle_type_id":"4","last_reported":1702501581,"current_range_meters":20400,"station_id":"ce4bhnp2rcd13ifvqgvg","pricing_plan_id":"free"},{"bike_id":"d1e4ffa3-0a0a-4153-b85c-71ae60bb1e49","system_id":"levelo_inurba_marseille","lat":43.240623,"lon":5.377642,"is_reserved":false,"is_disabled":false,"rental_uris":{"android":"levelo://app?vid=d1e4ffa3-0a0a-4153-b85c-71ae60bb1e49","ios":"levelo://app?vid=d1e4ffa3-0a0a-4153-b85c-71ae60bb1e49"},"vehicle_type_id":"4","last_reported":1702501581,"current_range_meters":11600,"station_id":"ce4bhnp2rcd13ifvqgvg","pricing_plan_id":"free"},{"bike_id":"825265e1-f294-4e04-ac72-2c431a6af408","system_id":"levelo_inurba_marseille","lat":43.239588,"lon":5.366238,"is_reserved":false,"is_disabled":false,"rental_uris":{"android":"levelo://app?vid=825265e1-f294-4e04-ac72-2c431a6af408","ios":"levelo://app?vid=825265e1-f294-4e04-ac72-2c431a6af408"},"vehicle_type_id":"4","last_reported":1702501581,"current_range_meters":31200,"station_id":"ce4bhi12rcd13ifvqfp0","pricing_plan_id":"free"},{"bike_id":"9af76f9c-24ab-48cd-a884-2f55b135e3d5","system_id":"levelo_inurba_marseille","lat":43.239588,"lon":5.366238,"is_reserved":false,"is_disabled":false,"rental_uris":{"android":"levelo://app?vid=9af76f9c-24ab-48cd-a884-2f55b135e3d5","ios":"levelo://app?vid=9af76f9c-24ab-48cd-a884-2f55b135e3d5"},"vehicle_type_id":"4","last_reported":1702501581,"current_range_meters":26400,"station_id":"ce4bhi12rcd13ifvqfp0","pricing_plan_id":"free"},{"bike_id":"6bd20864-53b2-4d37-8c90-9b33e3024701","system_id":"levelo_inurba_marseille","lat":43.23965,"lon":5.366317,"is_reserved":false,"is_disabled":false,"rental_uris":{"android":"levelo://app?vid=6bd20864-53b2-4d37-8c90-9b33e3024701","ios":"levelo://app?vid=6bd20864-53b2-4d37-8c90-9b33e3024701"},"vehicle_type_id":"4","last_reported":1702501581,"current_range_meters":5600,"station_id":"ce4bhi12rcd13ifvqfp0","pricing_plan_id":"free"},{"bike_id":"1a11021d-6d42-4b34-88b2-d10245b35442","system_id":"levelo_inurba_marseille","lat":43.239588,"lon":5.366238,"is_reserved":false,"is_disabled":false,"rental_uris":{"android":"levelo://app?vid=1a11021d-6d42-4b34-88b2-d10245b35442","ios":"levelo://app?vid=1a11021d-6d42-4b34-88b2-d10245b35442"},"vehicle_type_id":"4","last_reported":1702501581,"current_range_meters":10000,"station_id":"ce4bhi12rcd13ifvqfp0","pricing_plan_id":"free"},{"bike_id":"6319c87f-71db-4e16-88ff-997c6b137b73","system_id":"levelo_inurba_marseille","lat":43.239588,"lon":5.366238,"is_reserved":false,"is_disabled":false,"rental_uris":{"android":"levelo://app?vid=6319c87f-71db-4e16-88ff-997c6b137b73","ios":"levelo://app?vid=6319c87f-71db-4e16-88ff-997c6b137b73"},"vehicle_type_id":"4","last_reported":1702501581,"current_range_meters":30000,"station_id":"ce4bhi12rcd13ifvqfp0","pricing_plan_id":"free"},{"bike_id":"d2de9bcc-0a4a-4f92-a74d-96a33e79b929","system_id":"levelo_inurba_marseille","lat":43.239588,"lon":5.366238,"is_reserved":false,"is_disabled":false,"rental_uris":{"android":"levelo://app?vid=d2de9bcc-0a4a-4f92-a74d-96a33e79b929","ios":"levelo://app?vid=d2de9bcc-0a4a-4f92-a74d-96a33e79b929"},"vehicle_type_id":"4","last_reported":1702501581,"current_range_meters":0,"station_id":"ce4bhi12rcd13ifvqfp0","pricing_plan_id":"free"},{"bike_id":"708e0811-e309-4ac8-b94d-8fd0999b98bf","system_id":"levelo_inurba_marseille","lat":43.241782,"lon":5.397261,"is_reserved":false,"is_disabled":false,"rental_uris":{"android":"levelo://app?vid=708e0811-e309-4ac8-b94d-8fd0999b98bf","ios":"levelo://app?vid=708e0811-e309-4ac8-b94d-8fd0999b98bf"},"vehicle_type_id":"4","last_reported":1702501581,"current_range_meters":19600,"station_id":"ce4bhn12rcd13ifvqgpg","pricing_plan_id":"free"},{"bike_id":"4501f0c0-2fad-486e-ad6e-e0992861428f","system_id":"levelo_inurba_marseille","lat":43.241782,"lon":5.397261,"is_reserved":false,"is_disabled":false,"rental_uris":{"android":"levelo://app?vid=4501f0c0-2fad-486e-ad6e-e0992861428f","ios":"levelo://app?vid=4501f0c0-2fad-486e-ad6e-e0992861428f"},"vehicle_type_id":"4","last_reported":1702501581,"current_range_meters":24800,"station_id":"ce4bhn12rcd13ifvqgpg","pricing_plan_id":"free"},{"bike_id":"976b51c7-50e5-4a1e-9623-472378627f57","system_id":"levelo_inurba_marseille","lat":43.231794,"lon":5.400052,"is_reserved":false,"is_disabled":false,"rental_uris":{"android":"levelo://app?vid=976b51c7-50e5-4a1e-9623-472378627f57","ios":"levelo://app?vid=976b51c7-50e5-4a1e-9623-472378627f57"},"vehicle_type_id":"4","last_reported":1702501581,"current_range_meters":31200,"station_id":"ce4bhn12rcd13ifvqgqg","pricing_plan_id":"free"},{"bike_id":"e9e13da5-814b-4e04-963f-f688451db439","system_id":"levelo_inurba_marseille","lat":43.231793,"lon":5.400044,"is_reserved":false,"is_disabled":false,"rental_uris":{"android":"levelo://app?vid=e9e13da5-814b-4e04-963f-f688451db439","ios":"levelo://app?vid=e9e13da5-814b-4e04-963f-f688451db439"},"vehicle_type_id":"4","last_reported":1702501581,"current_range_meters":30800,"station_id":"ce4bhn12rcd13ifvqgqg","pricing_plan_id":"free"},{"bike_id":"46e85755-7f44-4770-9e69-88e3e5d2d0d4","system_id":"levelo_inurba_marseille","lat":43.231794,"lon":5.400052,"is_reserved":false,"is_disabled":false,"rental_uris":{"android":"levelo://app?vid=46e85755-7f44-4770-9e69-88e3e5d2d0d4","ios":"levelo://app?vid=46e85755-7f44-4770-9e69-88e3e5d2d0d4"},"vehicle_type_id":"4","last_reported":1702501581,"current_range_meters":20400,"station_id":"ce4bhn12rcd13ifvqgqg","pricing_plan_id":"free"},{"bike_id":"2b605040-44f0-4665-aefa-dbb05f50f601","system_id":"levelo_inurba_marseille","lat":43.231793,"lon":5.400044,"is_reserved":false,"is_disabled":false,"rental_uris":{"android":"levelo://app?vid=2b605040-44f0-4665-aefa-dbb05f50f601","ios":"levelo://app?vid=2b605040-44f0-4665-aefa-dbb05f50f601"},"vehicle_type_id":"4","last_reported":1702501581,"current_range_meters":4800,"station_id":"ce4bhn12rcd13ifvqgqg","pricing_plan_id":"free"},{"bike_id":"a70842cf-3cdd-4227-8996-9e4cdf55219b","system_id":"levelo_inurba_marseille","lat":43.231793,"lon":5.400044,"is_reserved":false,"is_disabled":false,"rental_uris":{"android":"levelo://app?vid=a70842cf-3cdd-4227-8996-9e4cdf55219b","ios":"levelo://app?vid=a70842cf-3cdd-4227-8996-9e4cdf55219b"},"vehicle_type_id":"4","last_reported":1702501581,"current_range_meters":28000,"station_id":"ce4bhn12rcd13ifvqgqg","pricing_plan_id":"free"},{"bike_id":"5d66a1e1-407e-43b7-8a1f-b43437a90341","system_id":"levelo_inurba_marseille","lat":43.231794,"lon":5.400052,"is_reserved":false,"is_disabled":false,"rental_uris":{"android":"levelo://app?vid=5d66a1e1-407e-43b7-8a1f-b43437a90341","ios":"levelo://app?vid=5d66a1e1-407e-43b7-8a1f-b43437a90341"},"vehicle_type_id":"4","last_reported":1702501581,"current_range_meters":31600,"station_id":"ce4bhn12rcd13ifvqgqg","pricing_plan_id":"free"},{"bike_id":"7686f611-5aad-4e08-8e3f-9126375d30b8","system_id":"levelo_inurba_marseille","lat":43.231794,"lon":5.400052,"is_reserved":false,"is_disabled":false,"rental_uris":{"android":"levelo://app?vid=7686f611-5aad-4e08-8e3f-9126375d30b8","ios":"levelo://app?vid=7686f611-5aad-4e08-8e3f-9126375d30b8"},"vehicle_type_id":"4","last_reported":1702501581,"current_range_meters":24800,"station_id":"ce4bhn12rcd13ifvqgqg","pricing_plan_id":"free"},{"bike_id":"28cf0186-3129-4448-9e8f-8fa9860365e7","system_id":"levelo_inurba_marseille","lat":43.231794,"lon":5.400052,"is_reserved":false,"is_disabled":false,"rental_uris":{"android":"levelo://app?vid=28cf0186-3129-4448-9e8f-8fa9860365e7","ios":"levelo://app?vid=28cf0186-3129-4448-9e8f-8fa9860365e7"},"vehicle_type_id":"4","last_reported":1702501581,"current_range_meters":18400,"station_id":"ce4bhn12rcd13ifvqgqg","pricing_plan_id":"free"},{"bike_id":"c66ca343-0c27-4535-baf6-7afe3f4ae09f","system_id":"levelo_inurba_marseille","lat":43.231794,"lon":5.400052,"is_reserved":false,"is_disabled":false,"rental_uris":{"android":"levelo://app?vid=c66ca343-0c27-4535-baf6-7afe3f4ae09f","ios":"levelo://app?vid=c66ca343-0c27-4535-baf6-7afe3f4ae09f"},"vehicle_type_id":"4","last_reported":1702501581,"current_range_meters":29200,"station_id":"ce4bhn12rcd13ifvqgqg","pricing_plan_id":"free"},{"bike_id":"089568fd-e936-4c31-a2a6-ab09f2b4391b","system_id":"levelo_inurba_marseille","lat":43.231794,"lon":5.400052,"is_reserved":false,"is_disabled":false,"rental_uris":{"android":"levelo://app?vid=089568fd-e936-4c31-a2a6-ab09f2b4391b","ios":"levelo://app?vid=089568fd-e936-4c31-a2a6-ab09f2b4391b"},"vehicle_type_id":"4","last_reported":1702501581,"current_range_meters":800,"station_id":"ce4bhn12rcd13ifvqgqg","pricing_plan_id":"free"},{"bike_id":"b5e4fe9e-d152-47d1-ab48-f60ff93db450","system_id":"levelo_inurba_marseille","lat":43.231793,"lon":5.400044,"is_reserved":false,"is_disabled":false,"rental_uris":{"android":"levelo://app?vid=b5e4fe9e-d152-47d1-ab48-f60ff93db450","ios":"levelo://app?vid=b5e4fe9e-d152-47d1-ab48-f60ff93db450"},"vehicle_type_id":"4","last_reported":1702501581,"current_range_meters":9600,"station_id":"ce4bhn12rcd13ifvqgqg","pricing_plan_id":"free"}]}}