{"last_updated":1727014038,"ttl":30,"version":"2.2","data":{"bikes":[{"bike_id":"fd84f170-c075-4570-a556-c5e617e29406","system_id":"levelo_inurba_marseille","lat":43.28305,"lon":5.40895,"is_reserved":false,"is_disabled":false,"rental_uris":{"android":"levelo://app?vid=fd84f170-c075-4570-a556-c5e617e29406","ios":"levelo://app?vid=fd84f170-c075-4570-a556-c5e617e29406"},"vehicle_type_id":"4","last_reported":1727014038,"current_range_meters":18800,"station_id":"","pricing_plan_id":"cebpf4jnsgd1na2vs0mg"},{"bike_id":"d2d06111-a841-484d-bec5-ada42b7fc423","system_id":"levelo_inurba_marseille","lat":43.28418,"lon":5.34986,"is_reserved":false,"is_disabled":false,"rental_uris":{"android":"levelo://app?vid=d2d06111-a841-484d-bec5-ada42b7fc423","ios":"levelo://app?vid=d2d06111-a841-484d-bec5-ada42b7fc423"},"vehicle_type_id":"4","last_reported":1727014038,"current_range_meters":20800,"station_id":"ce4bhbh2rcd13ifvqepg","pricing_plan_id":"cebpf4jnsgd1na2vs0mg"},{"bike_id":"153e00a7-3c27-4fb8-9f75-d10b1fce9e8e","system_id":"levelo_inurba_marseille","lat":43.25091,"lon":5.39515,"is_reserved":false,"is_disabled":false,"rental_uris":{"android":"levelo://app?vid=153e00a7-3c27-4fb8-9f75-d10b1fce9e8e","ios":"levelo://app?vid=153e00a7-3c27-4fb8-9f75-d10b1fce9e8e"},"vehicle_type_id":"4","last_reported":1727014038,"current_range_meters":38000,"station_id":"ce4bhm12rcd13ifvqgkg","pricing_plan_id":"cebpf4jnsgd1na2vs0mg"},{"bike_id":"0f4bd5ad-8a1a-4214-94a9-f7a00a32a067","system_id":"levelo_inurba_marseille","lat":43.32043,"lon":5.41536,"is_reserved":false,"is_disabled":false,"rental_uris":{"android":"levelo://app?vid=0f4bd5ad-8a1a-4214-94a9-f7a00a32a067","ios":"levelo://app?vid=0f4bd5ad-8a1a-4214-94a9-f7a00a32a067"},"vehicle_type_id":"4","last_reported":1727014038,"current_range_meters":27600,"station_id":"ce4bhq92rcd13ifvqhkg","pricing_plan_id":"cebpf4jnsgd1na2vs0mg"},{"bike_id":"c604313a-a9d7-49cc-b38b-d0010159cea5","system_id":"levelo_inurba_marseille","lat":43.32489,"lon":5.36574,"is_reserved":false,"is_disabled":false,"rental_uris":{"android":"levelo://app?vid=c604313a-a9d7-49cc-b38b-d0010159cea5","ios":"levelo://app?vid=c604313a-a9d7-49cc-b38b-d0010159cea5"},"vehicle_type_id":"4","last_reported":1727014038,"current_range_meters":21600,"station_id":"ce4bhs12rcd13ifvqhvg","pricing_plan_id":"cebpf4jnsgd1na2vs0mg"},{"bike_id":"f84f0098-9b9f-4ce7-9b7c-09e959a1be10","system_id":"levelo_inurba_marseille","lat":43.24805,"lon":5.37456,"is_reserved":false,"is_disabled":false,"rental_uris":{"android":"levelo://app?vid=f84f0098-9b9f-4ce7-9b7c-09e959a1be10","ios":"levelo://app?vid=f84f0098-9b9f-4ce7-9b7c-09e959a1be10"},"vehicle_type_id":"4","last_reported":1727014038,"current_range_meters":37600,"station_id":"ce4bhgh2rcd13ifvqfb0","pricing_plan_id":"cebpf4jnsgd1na2vs0mg"},{"bike_id":"724bab07-77e8-4acd-9b76-5e61ef7a5908","system_id":"levelo_inurba_marseille","lat":43.31712,"lon":5.43702,"is_reserved":false,"is_disabled":false,"rental_uris":{"android":"levelo://app?vid=724bab07-77e8-4acd-9b76-5e61ef7a5908","ios":"levelo://app?vid=724bab07-77e8-4acd-9b76-5e61ef7a5908"},"vehicle_type_id":"4","last_reported":1727014038,"current_range_meters":20400,"station_id":"ce4bhp92rcd13ifvqhcg","pricing_plan_id":"cebpf4jnsgd1na2vs0mg"},{"bike_id":"bc6a1d9b-916f-469a-a1d4-2dbe91fab3c5","system_id":"levelo_inurba_marseille","lat":43.33025,"lon":5.3906,"is_reserved":false,"is_disabled":false,"rental_uris":{"android":"levelo://app?vid=bc6a1d9b-916f-469a-a1d4-2dbe91fab3c5","ios":"levelo://app?vid=bc6a1d9b-916f-469a-a1d4-2dbe91fab3c5"},"vehicle_type_id":"4","last_reported":1727014038,"current_range_meters":23200,"station_id":"ce4bhr92rcd13ifvqhrg","pricing_plan_id":"cebpf4jnsgd1na2vs0mg"},{"bike_id":"52e81577-a2e5-47c6-b3d9-ce1630a3f69d","system_id":"levelo_inurba_marseille","lat":43.28619,"lon":5.35105,"is_reserved":false,"is_disabled":false,"rental_uris":{"android":"levelo://app?vid=52e81577-a2e5-47c6-b3d9-ce1630a3f69d","ios":"levelo://app?vid=52e81577-a2e5-47c6-b3d9-ce1630a3f69d"},"vehicle_type_id":"4","last_reported":1727014038,"current_range_meters":37600,"station_id":"ce4bhch2rcd13ifvqeug","pricing_plan_id":"cebpf4jnsgd1na2vs0mg"},{"bike_id":"915592fc-0339-4002-9328-5a1d44e61499","system_id":"levelo_inurba_marseille","lat":43.265326,"lon":5.396152,"is_reserved":false,"is_disabled":false,"rental_uris":{"android":"levelo://app?vid=915592fc-0339-4002-9328-5a1d44e61499","ios":"levelo://app?vid=915592fc-0339-4002-9328-5a1d44e61499"},"vehicle_type_id":"4","last_reported":1727014038,"current_range_meters":3200,"station_id":"ce4bhi12rcd13ifvqfq0","pricing_plan_id":"cebpf4jnsgd1na2vs0mg"},{"bike_id":"b916b727-e423-4d3e-beba-144c1c53929b","system_id":"levelo_inurba_marseille","lat":43.25496,"lon":5.3765,"is_reserved":false,"is_disabled":false,"rental_uris":{"android":"levelo://app?vid=b916b727-e423-4d3e-beba-144c1c53929b","ios":"levelo://app?vid=b916b727-e423-4d3e-beba-144c1c53929b"},"vehicle_type_id":"4","last_reported":1727014038,"current_range_meters":17200,"station_id":"ce4bhh12rcd13ifvqff0","pricing_plan_id":"cebpf4jnsgd1na2vs0mg"},{"bike_id":"42d235e8-5a14-4155-9875-45971031c29a","system_id":"levelo_inurba_marseille","lat":43.24814,"lon":5.37461,"is_reserved":false,"is_disabled":false,"rental_uris":{"android":"levelo://app?vid=42d235e8-5a14-4155-9875-45971031c29a","ios":"levelo://app?vid=42d235e8-5a14-4155-9875-45971031c29a"},"vehicle_type_id":"4","last_reported":1727014038,"current_range_meters":6800,"station_id":"ce4bhgh2rcd13ifvqfb0","pricing_plan_id":"cebpf4jnsgd1na2vs0mg"},{"bike_id":"20a042f1-81aa-4cde-8548-4f002e395336","system_id":"levelo_inurba_marseille","lat":43.30179,"lon":5.39854,"is_reserved":false,"is_disabled":false,"rental_uris":{"android":"levelo://app?vid=20a042f1-81aa-4cde-8548-4f002e395336","ios":"levelo://app?vid=20a042f1-81aa-4cde-8548-4f002e395336"},"vehicle_type_id":"4","last_reported":1727014038,"current_range_meters":36800,"station_id":"ce4bgvp2rcd13ifvqct0","pricing_plan_id":"cebpf4jnsgd1na2vs0mg"},{"bike_id":"3b856dfb-1b5e-4709-93aa-ec7d747bd7cf","system_id":"levelo_inurba_marseille","lat":43.31084,"lon":5.42437,"is_reserved":false,"is_disabled":false,"rental_uris":{"android":"levelo://app?vid=3b856dfb-1b5e-4709-93aa-ec7d747bd7cf","ios":"levelo://app?vid=3b856dfb-1b5e-4709-93aa-ec7d747bd7cf"},"vehicle_type_id":"4","last_reported":1727014038,"current_range_meters":9200,"station_id":"ce4bhp92rcd13ifvqhag","pricing_plan_id":"cebpf4jnsgd1na2vs0mg"},{"bike_id":"ac390ab1-f540-47ca-8788-510116250151","system_id":"levelo_inurba_marseille","lat":43.245367,"lon":5.395242,"is_reserved":false,"is_disabled":false,"rental_uris":{"android":"levelo://app?vid=ac390ab1-f540-47ca-8788-510116250151","ios":"levelo://app?vid=ac390ab1-f540-47ca-8788-510116250151"},"vehicle_type_id":"4","last_reported":1727014038,"current_range_meters":32000,"station_id":"ce4bhlp2rcd13ifvqgjg","pricing_plan_id":"cebpf4jnsgd1na2vs0mg"},{"bike_id":"437e44f6-4ea8-4b5b-9c71-80ecda620a2f","system_id":"levelo_inurba_marseille","lat":43.3079,"lon":5.37642,"is_reserved":false,"is_disabled":false,"rental_uris":{"android":"levelo://app?vid=437e44f6-4ea8-4b5b-9c71-80ecda620a2f","ios":"levelo://app?vid=437e44f6-4ea8-4b5b-9c71-80ecda620a2f"},"vehicle_type_id":"4","last_reported":1727014038,"current_range_meters":37600,"station_id":"ce4bgv92rcd13ifvqcq0","pricing_plan_id":"cebpf4jnsgd1na2vs0mg"},{"bike_id":"22529dbb-2df3-4794-98ec-23dc0d78a633","system_id":"levelo_inurba_marseille","lat":43.286141,"lon":5.351023,"is_reserved":false,"is_disabled":false,"rental_uris":{"android":"levelo://app?vid=22529dbb-2df3-4794-98ec-23dc0d78a633","ios":"levelo://app?vid=22529dbb-2df3-4794-98ec-23dc0d78a633"},"vehicle_type_id":"4","last_reported":1727014038,"current_range_meters":36000,"station_id":"ce4bhch2rcd13ifvqeug","pricing_plan_id":"cebpf4jnsgd1na2vs0mg"},{"bike_id":"ddef2735-203a-4460-8fe2-32d0d088e5d5","system_id":"levelo_inurba_marseille","lat":43.31244,"lon":5.37983,"is_reserved":false,"is_disabled":false,"rental_uris":{"android":"levelo://app?vid=ddef2735-203a-4460-8fe2-32d0d088e5d5","ios":"levelo://app?vid=ddef2735-203a-4460-8fe2-32d0d088e5d5"},"vehicle_type_id":"4","last_reported":1727014038,"current_range_meters":6000,"station_id":"","pricing_plan_id":"cebpf4jnsgd1na2vs0mg"},{"bike_id":"c2339e5d-da2f-42ac-83ab-8f1aba430929","system_id":"levelo_inurba_marseille","lat":43.29222,"lon":5.36045,"is_reserved":false,"is_disabled":false,"rental_uris":{"android":"levelo://app?vid=c2339e5d-da2f-42ac-83ab-8f1aba430929","ios":"levelo://app?vid=c2339e5d-da2f-42ac-83ab-8f1aba430929"},"vehicle_type_id":"4","last_reported":1727014038,"current_range_meters":38800,"station_id":"ce4bhbh2rcd13ifvqeqg","pricing_plan_id":"cebpf4jnsgd1na2vs0mg"},{"bike_id":"baa9e3ba-a317-4c5a-937b-63c24c256bd8","system_id":"levelo_inurba_marseille","lat":43.32683,"lon":5.40829,"is_reserved":false,"is_disabled":false,"rental_uris":{"android":"levelo://app?vid=baa9e3ba-a317-4c5a-937b-63c24c256bd8","ios":"levelo://app?vid=baa9e3ba-a317-4c5a-937b-63c24c256bd8"},"vehicle_type_id":"4","last_reported":1727014038,"current_range_meters":39200,"station_id":"","pricing_plan_id":"cebpf4jnsgd1na2vs0mg"},{"bike_id":"1ce7e00c-dc7a-4e73-9e65-f483f56cfd50","system_id":"levelo_inurba_marseille","lat":43.31219,"lon":5.368429,"is_reserved":false,"is_disabled":false,"rental_uris":{"android":"levelo://app?vid=1ce7e00c-dc7a-4e73-9e65-f483f56cfd50","ios":"levelo://app?vid=1ce7e00c-dc7a-4e73-9e65-f483f56cfd50"},"vehicle_type_id":"4","last_reported":1727014038,"current_range_meters":24800,"station_id":"ce4bgl92rcd13ifvqbq0","pricing_plan_id":"cebpf4jnsgd1na2vs0mg"},{"bike_id":"6419325f-76c1-4392-9dbc-8446db0b27c5","system_id":"levelo_inurba_marseille","lat":43.29681,"lon":5.40382,"is_reserved":false,"is_disabled":false,"rental_uris":{"android":"levelo://app?vid=6419325f-76c1-4392-9dbc-8446db0b27c5","ios":"levelo://app?vid=6419325f-76c1-4392-9dbc-8446db0b27c5"},"vehicle_type_id":"4","last_reported":1727014038,"current_range_meters":14400,"station_id":"","pricing_plan_id":"cebpf4jnsgd1na2vs0mg"},{"bike_id":"a07f20ab-04f8-40cb-aaf7-8c289b1a8a59","system_id":"levelo_inurba_marseille","lat":43.27376,"lon":5.36254,"is_reserved":false,"is_disabled":false,"rental_uris":{"android":"levelo://app?vid=a07f20ab-04f8-40cb-aaf7-8c289b1a8a59","ios":"levelo://app?vid=a07f20ab-04f8-40cb-aaf7-8c289b1a8a59"},"vehicle_type_id":"4","last_reported":1727014038,"current_range_meters":38800,"station_id":"ce4bhbh2rcd13ifvqeo0","pricing_plan_id":"cebpf4jnsgd1na2vs0mg"},{"bike_id":"bda83ca7-9798-4a91-9454-79010960b865","system_id":"levelo_inurba_marseille","lat":43.25723,"lon":5.41119,"is_reserved":false,"is_disabled":false,"rental_uris":{"android":"levelo://app?vid=bda83ca7-9798-4a91-9454-79010960b865","ios":"levelo://app?vid=bda83ca7-9798-4a91-9454-79010960b865"},"vehicle_type_id":"4","last_reported":1727014038,"current_range_meters":30000,"station_id":"ce4bhkp2rcd13ifvqgd0","pricing_plan_id":"cebpf4jnsgd1na2vs0mg"},{"bike_id":"edfb1ff5-b81b-4225-8da9-100a9115b1e3","system_id":"levelo_inurba_marseille","lat":43.29735,"lon":5.36561,"is_reserved":false,"is_disabled":false,"rental_uris":{"android":"levelo://app?vid=edfb1ff5-b81b-4225-8da9-100a9115b1e3","ios":"levelo://app?vid=edfb1ff5-b81b-4225-8da9-100a9115b1e3"},"vehicle_type_id":"4","last_reported":1727014038,"current_range_meters":3600,"station_id":"","pricing_plan_id":"cebpf4jnsgd1na2vs0mg"},{"bike_id":"b2369a74-d626-4218-9beb-2c29576c6ab9","system_id":"levelo_inurba_marseille","lat":43.31078,"lon":5.38359,"is_reserved":false,"is_disabled":false,"rental_uris":{"android":"levelo://app?vid=b2369a74-d626-4218-9beb-2c29576c6ab9","ios":"levelo://app?vid=b2369a74-d626-4218-9beb-2c29576c6ab9"},"vehicle_type_id":"4","last_reported":1727014038,"current_range_meters":9200,"station_id":"ce4bgv92rcd13ifvqcr0","pricing_plan_id":"cebpf4jnsgd1na2vs0mg"},{"bike_id":"bf1b2103-b792-4830-9ce1-52d19f810b0b","system_id":"levelo_inurba_marseille","lat":43.30805,"lon":5.43525,"is_reserved":false,"is_disabled":false,"rental_uris":{"android":"levelo://app?vid=bf1b2103-b792-4830-9ce1-52d19f810b0b","ios":"levelo://app?vid=bf1b2103-b792-4830-9ce1-52d19f810b0b"},"vehicle_type_id":"4","last_reported":1727014038,"current_range_meters":9600,"station_id":"ce4bhph2rcd13ifvqheg","pricing_plan_id":"cebpf4jnsgd1na2vs0mg"},{"bike_id":"ffad191f-99b3-47d9-a749-d894af1c214b","system_id":"levelo_inurba_marseille","lat":43.29848,"lon":5.36279,"is_reserved":false,"is_disabled":false,"rental_uris":{"android":"levelo://app?vid=ffad191f-99b3-47d9-a749-d894af1c214b","ios":"levelo://app?vid=ffad191f-99b3-47d9-a749-d894af1c214b"},"vehicle_type_id":"4","last_reported":1727014038,"current_range_meters":29600,"station_id":"ce4bgpp2rcd13ifvqc3g","pricing_plan_id":"cebpf4jnsgd1na2vs0mg"},{"bike_id":"4672ec35-1834-4c83-98de-460325a8d0b5","system_id":"levelo_inurba_marseille","lat":43.295776,"lon":5.367368,"is_reserved":false,"is_disabled":false,"rental_uris":{"android":"levelo://app?vid=4672ec35-1834-4c83-98de-460325a8d0b5","ios":"levelo://app?vid=4672ec35-1834-4c83-98de-460325a8d0b5"},"vehicle_type_id":"4","last_reported":1727014038,"current_range_meters":22000,"station_id":"ce4bgph2rcd13ifvqc2g","pricing_plan_id":"cebpf4jnsgd1na2vs0mg"},{"bike_id":"4f68f3c3-0968-4a0f-98d8-232e652f5b28","system_id":"levelo_inurba_marseille","lat":43.23193,"lon":5.39985,"is_reserved":false,"is_disabled":false,"rental_uris":{"android":"levelo://app?vid=4f68f3c3-0968-4a0f-98d8-232e652f5b28","ios":"levelo://app?vid=4f68f3c3-0968-4a0f-98d8-232e652f5b28"},"vehicle_type_id":"4","last_reported":1727014038,"current_range_meters":15200,"station_id":"ce4bhn12rcd13ifvqgqg","pricing_plan_id":"cebpf4jnsgd1na2vs0mg"},{"bike_id":"a78f62cd-230c-4feb-bd38-2d6734496e59","system_id":"levelo_inurba_marseille","lat":43.29845,"lon":5.36271,"is_reserved":false,"is_disabled":false,"rental_uris":{"android":"levelo://app?vid=a78f62cd-230c-4feb-bd38-2d6734496e59","ios":"levelo://app?vid=a78f62cd-230c-4feb-bd38-2d6734496e59"},"vehicle_type_id":"4","last_reported":1727014038,"current_range_meters":18000,"station_id":"ce4bgpp2rcd13ifvqc3g","pricing_plan_id":"cebpf4jnsgd1na2vs0mg"},{"bike_id":"55bebb5c-52e4-4d89-98be-f6a82338f516","system_id":"levelo_inurba_marseille","lat":43.28152,"lon":5.42642,"is_reserved":false,"is_disabled":false,"rental_uris":{"android":"levelo://app?vid=55bebb5c-52e4-4d89-98be-f6a82338f516","ios":"levelo://app?vid=55bebb5c-52e4-4d89-98be-f6a82338f516"},"vehicle_type_id":"4","last_reported":1727014038,"current_range_meters":16800,"station_id":"ce4bhnh2rcd13ifvqgug","pricing_plan_id":"cebpf4jnsgd1na2vs0mg"},{"bike_id":"d1851a9d-34a9-49ec-8ecd-75614db8dd33","system_id":"levelo_inurba_marseille","lat":43.29852,"lon":5.36286,"is_reserved":false,"is_disabled":false,"rental_uris":{"android":"levelo://app?vid=d1851a9d-34a9-49ec-8ecd-75614db8dd33","ios":"levelo://app?vid=d1851a9d-34a9-49ec-8ecd-75614db8dd33"},"vehicle_type_id":"4","last_reported":1727014038,"current_range_meters":30400,"station_id":"ce4bgpp2rcd13ifvqc3g","pricing_plan_id":"cebpf4jnsgd1na2vs0mg"},{"bike_id":"2931cecd-bcd5-401b-935e-fee6dd6582f2","system_id":"levelo_inurba_marseille","lat":43.29483,"lon":5.42073,"is_reserved":false,"is_disabled":false,"rental_uris":{"android":"levelo://app?vid=2931cecd-bcd5-401b-935e-fee6dd6582f2","ios":"levelo://app?vid=2931cecd-bcd5-401b-935e-fee6dd6582f2"},"vehicle_type_id":"4","last_reported":1727014038,"current_range_meters":28000,"station_id":"ce4bhph2rcd13ifvqhdg","pricing_plan_id":"cebpf4jnsgd1na2vs0mg"},{"bike_id":"f9a95eab-0223-4144-b856-f15596b1d518","system_id":"levelo_inurba_marseille","lat":43.23189,"lon":5.39976,"is_reserved":false,"is_disabled":false,"rental_uris":{"android":"levelo://app?vid=f9a95eab-0223-4144-b856-f15596b1d518","ios":"levelo://app?vid=f9a95eab-0223-4144-b856-f15596b1d518"},"vehicle_type_id":"4","last_reported":1727014038,"current_range_meters":18800,"station_id":"ce4bhn12rcd13ifvqgqg","pricing_plan_id":"cebpf4jnsgd1na2vs0mg"},{"bike_id":"5419b1bf-d37c-4076-a34c-52ede101758e","system_id":"levelo_inurba_marseille","lat":43.337444,"lon":5.374475,"is_reserved":false,"is_disabled":false,"rental_uris":{"android":"levelo://app?vid=5419b1bf-d37c-4076-a34c-52ede101758e","ios":"levelo://app?vid=5419b1bf-d37c-4076-a34c-52ede101758e"},"vehicle_type_id":"4","last_reported":1727014038,"current_range_meters":28000,"station_id":"","pricing_plan_id":"cebpf4jnsgd1na2vs0mg"},{"bike_id":"975dbfe0-7117-43e5-9af6-411ebfe42429","system_id":"levelo_inurba_marseille","lat":43.27373,"lon":5.36255,"is_reserved":false,"is_disabled":false,"rental_uris":{"android":"levelo://app?vid=975dbfe0-7117-43e5-9af6-411ebfe42429","ios":"levelo://app?vid=975dbfe0-7117-43e5-9af6-411ebfe42429"},"vehicle_type_id":"4","last_reported":1727014038,"current_range_meters":35600,"station_id":"ce4bhbh2rcd13ifvqeo0","pricing_plan_id":"cebpf4jnsgd1na2vs0mg"},{"bike_id":"43e67049-781d-4c7e-b6e7-dd14597d7730","system_id":"levelo_inurba_marseille","lat":43.26034,"lon":5.37547,"is_reserved":false,"is_disabled":false,"rental_uris":{"android":"levelo://app?vid=43e67049-781d-4c7e-b6e7-dd14597d7730","ios":"levelo://app?vid=43e67049-781d-4c7e-b6e7-dd14597d7730"},"vehicle_type_id":"4","last_reported":1727014038,"current_range_meters":38800,"station_id":"ce4bhgh2rcd13ifvqfa0","pricing_plan_id":"cebpf4jnsgd1na2vs0mg"},{"bike_id":"36661395-fd2f-4fea-be8b-870f6e78c760","system_id":"levelo_inurba_marseille","lat":43.28853,"lon":5.35848,"is_reserved":false,"is_disabled":false,"rental_uris":{"android":"levelo://app?vid=36661395-fd2f-4fea-be8b-870f6e78c760","ios":"levelo://app?vid=36661395-fd2f-4fea-be8b-870f6e78c760"},"vehicle_type_id":"4","last_reported":1727014038,"current_range_meters":22800,"station_id":"ce4bhb12rcd13ifvqem0","pricing_plan_id":"cebpf4jnsgd1na2vs0mg"},{"bike_id":"4dc4057c-adc4-4b59-afb8-964a7e63c311","system_id":"levelo_inurba_marseille","lat":43.29578,"lon":5.36742,"is_reserved":false,"is_disabled":false,"rental_uris":{"android":"levelo://app?vid=4dc4057c-adc4-4b59-afb8-964a7e63c311","ios":"levelo://app?vid=4dc4057c-adc4-4b59-afb8-964a7e63c311"},"vehicle_type_id":"4","last_reported":1727014038,"current_range_meters":36400,"station_id":"ce4bgph2rcd13ifvqc2g","pricing_plan_id":"cebpf4jnsgd1na2vs0mg"},{"bike_id":"870a1f8b-9acd-4417-ad40-456726425e82","system_id":"levelo_inurba_marseille","lat":43.28148,"lon":5.42644,"is_reserved":false,"is_disabled":false,"rental_uris":{"android":"levelo://app?vid=870a1f8b-9acd-4417-ad40-456726425e82","ios":"levelo://app?vid=870a1f8b-9acd-4417-ad40-456726425e82"},"vehicle_type_id":"4","last_reported":1727014038,"current_range_meters":13600,"station_id":"ce4bhnh2rcd13ifvqgug","pricing_plan_id":"cebpf4jnsgd1na2vs0mg"},{"bike_id":"bc08d377-8934-49f9-a16b-d231e67a2261","system_id":"levelo_inurba_marseille","lat":43.2816,"lon":5.42642,"is_reserved":false,"is_disabled":false,"rental_uris":{"android":"levelo://app?vid=bc08d377-8934-49f9-a16b-d231e67a2261","ios":"levelo://app?vid=bc08d377-8934-49f9-a16b-d231e67a2261"},"vehicle_type_id":"4","last_reported":1727014038,"current_range_meters":4800,"station_id":"ce4bhnh2rcd13ifvqgug","pricing_plan_id":"cebpf4jnsgd1na2vs0mg"},{"bike_id":"4f801477-ea18-4ec4-9a8e-7cc278d6526b","system_id":"levelo_inurba_marseille","lat":43.29858,"lon":5.36289,"is_reserved":false,"is_disabled":false,"rental_uris":{"android":"levelo://app?vid=4f801477-ea18-4ec4-9a8e-7cc278d6526b","ios":"levelo://app?vid=4f801477-ea18-4ec4-9a8e-7cc278d6526b"},"vehicle_type_id":"4","last_reported":1727014038,"current_range_meters":38800,"station_id":"ce4bgpp2rcd13ifvqc3g","pricing_plan_id":"cebpf4jnsgd1na2vs0mg"},{"bike_id":"72121689-e7b2-4e14-9327-236a36bf70b7","system_id":"levelo_inurba_marseille","lat":43.28622,"lon":5.35111,"is_reserved":false,"is_disabled":false,"rental_uris":{"android":"levelo://app?vid=72121689-e7b2-4e14-9327-236a36bf70b7","ios":"levelo://app?vid=72121689-e7b2-4e14-9327-236a36bf70b7"},"vehicle_type_id":"4","last_reported":1727014038,"current_range_meters":39200,"station_id":"ce4bhch2rcd13ifvqeug","pricing_plan_id":"cebpf4jnsgd1na2vs0mg"},{"bike_id":"1352a40d-466e-4d2c-8cdb-4a76dc219763","system_id":"levelo_inurba_marseille","lat":43.28575,"lon":5.39492,"is_reserved":false,"is_disabled":false,"rental_uris":{"android":"levelo://app?vid=1352a40d-466e-4d2c-8cdb-4a76dc219763","ios":"levelo://app?vid=1352a40d-466e-4d2c-8cdb-4a76dc219763"},"vehicle_type_id":"4","last_reported":1727014038,"current_range_meters":28800,"station_id":"ce4bh292rcd13ifvqdg0","pricing_plan_id":"cebpf4jnsgd1na2vs0mg"},{"bike_id":"bcdd228b-a442-4006-a3d5-b3cd8d5eede0","system_id":"levelo_inurba_marseille","lat":43.26027,"lon":5.37552,"is_reserved":false,"is_disabled":false,"rental_uris":{"android":"levelo://app?vid=bcdd228b-a442-4006-a3d5-b3cd8d5eede0","ios":"levelo://app?vid=bcdd228b-a442-4006-a3d5-b3cd8d5eede0"},"vehicle_type_id":"4","last_reported":1727014038,"current_range_meters":38000,"station_id":"ce4bhgh2rcd13ifvqfa0","pricing_plan_id":"cebpf4jnsgd1na2vs0mg"},{"bike_id":"82ba613b-f52c-4f55-88f6-0eb80118eec9","system_id":"levelo_inurba_marseille","lat":43.313263,"lon":5.396886,"is_reserved":false,"is_disabled":false,"rental_uris":{"android":"levelo://app?vid=82ba613b-f52c-4f55-88f6-0eb80118eec9","ios":"levelo://app?vid=82ba613b-f52c-4f55-88f6-0eb80118eec9"},"vehicle_type_id":"4","last_reported":1727014038,"current_range_meters":30400,"station_id":"ce4bgvp2rcd13ifvqcu0","pricing_plan_id":"cebpf4jnsgd1na2vs0mg"},{"bike_id":"763a8251-6798-4ed0-aef6-3ce1f2e4eeac","system_id":"levelo_inurba_marseille","lat":43.28255,"lon":5.35064,"is_reserved":false,"is_disabled":false,"rental_uris":{"android":"levelo://app?vid=763a8251-6798-4ed0-aef6-3ce1f2e4eeac","ios":"levelo://app?vid=763a8251-6798-4ed0-aef6-3ce1f2e4eeac"},"vehicle_type_id":"4","last_reported":1727014038,"current_range_meters":11200,"station_id":"ce4bhbp2rcd13ifvqerg","pricing_plan_id":"cebpf4jnsgd1na2vs0mg"},{"bike_id":"8bb83ea8-734b-4d51-a726-b7d505877fcb","system_id":"levelo_inurba_marseille","lat":43.29366,"lon":5.37836,"is_reserved":false,"is_disabled":false,"rental_uris":{"android":"levelo://app?vid=8bb83ea8-734b-4d51-a726-b7d505877fcb","ios":"levelo://app?vid=8bb83ea8-734b-4d51-a726-b7d505877fcb"},"vehicle_type_id":"4","last_reported":1727014038,"current_range_meters":24800,"station_id":"ce4bgjh2rcd13ifvqbf0","pricing_plan_id":"cebpf4jnsgd1na2vs0mg"},{"bike_id":"149779fc-bc45-458a-857f-33707eedaf6a","system_id":"levelo_inurba_marseille","lat":43.23197,"lon":5.35553,"is_reserved":false,"is_disabled":false,"rental_uris":{"android":"levelo://app?vid=149779fc-bc45-458a-857f-33707eedaf6a","ios":"levelo://app?vid=149779fc-bc45-458a-857f-33707eedaf6a"},"vehicle_type_id":"4","last_reported":1727014038,"current_range_meters":15200,"station_id":"ce4bhu92rcd13ifvqi70","pricing_plan_id":"cebpf4jnsgd1na2vs0mg"},{"bike_id":"96ac29e4-5789-4936-829f-3fc62ccd3f98","system_id":"levelo_inurba_marseille","lat":43.26034,"lon":5.37554,"is_reserved":false,"is_disabled":false,"rental_uris":{"android":"levelo://app?vid=96ac29e4-5789-4936-829f-3fc62ccd3f98","ios":"levelo://app?vid=96ac29e4-5789-4936-829f-3fc62ccd3f98"},"vehicle_type_id":"4","last_reported":1727014038,"current_range_meters":17600,"station_id":"ce4bhgh2rcd13ifvqfa0","pricing_plan_id":"cebpf4jnsgd1na2vs0mg"},{"bike_id":"fc2f2df2-b6d9-4dbf-81a0-4ab1eb8e5d8a","system_id":"levelo_inurba_marseille","lat":43.26567,"lon":5.39003,"is_reserved":false,"is_disabled":false,"rental_uris":{"android":"levelo://app?vid=fc2f2df2-b6d9-4dbf-81a0-4ab1eb8e5d8a","ios":"levelo://app?vid=fc2f2df2-b6d9-4dbf-81a0-4ab1eb8e5d8a"},"vehicle_type_id":"4","last_reported":1727014038,"current_range_meters":28400,"station_id":"ce4bhe12rcd13ifvqf30","pricing_plan_id":"cebpf4jnsgd1na2vs0mg"},{"bike_id":"63d8546c-6d10-4d58-9b3c-7dd33ffba474","system_id":"levelo_inurba_marseille","lat":43.3118,"lon":5.38713,"is_reserved":false,"is_disabled":false,"rental_uris":{"android":"levelo://app?vid=63d8546c-6d10-4d58-9b3c-7dd33ffba474","ios":"levelo://app?vid=63d8546c-6d10-4d58-9b3c-7dd33ffba474"},"vehicle_type_id":"4","last_reported":1727014038,"current_range_meters":38000,"station_id":"ce4bgv12rcd13ifvqcp0","pricing_plan_id":"cebpf4jnsgd1na2vs0mg"},{"bike_id":"a9baa544-21ec-4dab-8dcb-4836b1ce1aa9","system_id":"levelo_inurba_marseille","lat":43.29848,"lon":5.36274,"is_reserved":false,"is_disabled":false,"rental_uris":{"android":"levelo://app?vid=a9baa544-21ec-4dab-8dcb-4836b1ce1aa9","ios":"levelo://app?vid=a9baa544-21ec-4dab-8dcb-4836b1ce1aa9"},"vehicle_type_id":"4","last_reported":1727014038,"current_range_meters":31200,"station_id":"ce4bgpp2rcd13ifvqc3g","pricing_plan_id":"cebpf4jnsgd1na2vs0mg"},{"bike_id":"1ec4a1a6-d356-4203-a26c-bb417dab434e","system_id":"levelo_inurba_marseille","lat":43.26214,"lon":5.37443,"is_reserved":false,"is_disabled":false,"rental_uris":{"android":"levelo://app?vid=1ec4a1a6-d356-4203-a26c-bb417dab434e","ios":"levelo://app?vid=1ec4a1a6-d356-4203-a26c-bb417dab434e"},"vehicle_type_id":"4","last_reported":1727014038,"current_range_meters":11200,"station_id":"ce4bhgp2rcd13ifvqfc0","pricing_plan_id":"cebpf4jnsgd1na2vs0mg"},{"bike_id":"41f339c8-d854-41a1-bc68-5e37c66f0d94","system_id":"levelo_inurba_marseille","lat":43.24662,"lon":5.38163,"is_reserved":false,"is_disabled":false,"rental_uris":{"android":"levelo://app?vid=41f339c8-d854-41a1-bc68-5e37c66f0d94","ios":"levelo://app?vid=41f339c8-d854-41a1-bc68-5e37c66f0d94"},"vehicle_type_id":"4","last_reported":1727014038,"current_range_meters":32400,"station_id":"ce4bhih2rcd13ifvqfr0","pricing_plan_id":"cebpf4jnsgd1na2vs0mg"},{"bike_id":"6b7b7d46-9f0b-4113-92a1-6fce24304b50","system_id":"levelo_inurba_marseille","lat":43.26552,"lon":5.37285,"is_reserved":false,"is_disabled":false,"rental_uris":{"android":"levelo://app?vid=6b7b7d46-9f0b-4113-92a1-6fce24304b50","ios":"levelo://app?vid=6b7b7d46-9f0b-4113-92a1-6fce24304b50"},"vehicle_type_id":"4","last_reported":1727014038,"current_range_meters":34000,"station_id":"ce4bhg12rcd13ifvqf70","pricing_plan_id":"cebpf4jnsgd1na2vs0mg"},{"bike_id":"2e484917-8ba5-454c-9240-27aabacc117d","system_id":"levelo_inurba_marseille","lat":43.28264,"lon":5.35068,"is_reserved":false,"is_disabled":false,"rental_uris":{"android":"levelo://app?vid=2e484917-8ba5-454c-9240-27aabacc117d","ios":"levelo://app?vid=2e484917-8ba5-454c-9240-27aabacc117d"},"vehicle_type_id":"4","last_reported":1727014038,"current_range_meters":28800,"station_id":"ce4bhbp2rcd13ifvqerg","pricing_plan_id":"cebpf4jnsgd1na2vs0mg"},{"bike_id":"c750c22f-57e5-44e7-ab11-ab84ef9a0b5e","system_id":"levelo_inurba_marseille","lat":43.23191,"lon":5.39985,"is_reserved":false,"is_disabled":false,"rental_uris":{"android":"levelo://app?vid=c750c22f-57e5-44e7-ab11-ab84ef9a0b5e","ios":"levelo://app?vid=c750c22f-57e5-44e7-ab11-ab84ef9a0b5e"},"vehicle_type_id":"4","last_reported":1727014038,"current_range_meters":12800,"station_id":"ce4bhn12rcd13ifvqgqg","pricing_plan_id":"cebpf4jnsgd1na2vs0mg"},{"bike_id":"d4cd02a2-8196-45a0-ade7-083f2b1cddee","system_id":"levelo_inurba_marseille","lat":43.24182,"lon":5.39711,"is_reserved":false,"is_disabled":false,"rental_uris":{"android":"levelo://app?vid=d4cd02a2-8196-45a0-ade7-083f2b1cddee","ios":"levelo://app?vid=d4cd02a2-8196-45a0-ade7-083f2b1cddee"},"vehicle_type_id":"4","last_reported":1727014038,"current_range_meters":38400,"station_id":"ce4bhn12rcd13ifvqgpg","pricing_plan_id":"cebpf4jnsgd1na2vs0mg"},{"bike_id":"a8d42cf3-65fd-4e73-93d7-47142c435399","system_id":"levelo_inurba_marseille","lat":43.34398,"lon":5.40851,"is_reserved":false,"is_disabled":false,"rental_uris":{"android":"levelo://app?vid=a8d42cf3-65fd-4e73-93d7-47142c435399","ios":"levelo://app?vid=a8d42cf3-65fd-4e73-93d7-47142c435399"},"vehicle_type_id":"4","last_reported":1727014038,"current_range_meters":21600,"station_id":"","pricing_plan_id":"cebpf4jnsgd1na2vs0mg"},{"bike_id":"affeab95-004c-4559-a39d-9d9c7e294ed6","system_id":"levelo_inurba_marseille","lat":43.24179,"lon":5.39735,"is_reserved":false,"is_disabled":false,"rental_uris":{"android":"levelo://app?vid=affeab95-004c-4559-a39d-9d9c7e294ed6","ios":"levelo://app?vid=affeab95-004c-4559-a39d-9d9c7e294ed6"},"vehicle_type_id":"4","last_reported":1727014038,"current_range_meters":40000,"station_id":"ce4bhn12rcd13ifvqgpg","pricing_plan_id":"cebpf4jnsgd1na2vs0mg"},{"bike_id":"44ff0d5b-9a2b-435c-8e3c-e4bd6fb3fd52","system_id":"levelo_inurba_marseille","lat":43.29225,"lon":5.36052,"is_reserved":false,"is_disabled":false,"rental_uris":{"android":"levelo://app?vid=44ff0d5b-9a2b-435c-8e3c-e4bd6fb3fd52","ios":"levelo://app?vid=44ff0d5b-9a2b-435c-8e3c-e4bd6fb3fd52"},"vehicle_type_id":"4","last_reported":1727014038,"current_range_meters":30800,"station_id":"ce4bhbh2rcd13ifvqeqg","pricing_plan_id":"cebpf4jnsgd1na2vs0mg"},{"bike_id":"488eab58-702a-49ef-b05e-83a9813536ca","system_id":"levelo_inurba_marseille","lat":43.28154,"lon":5.42639,"is_reserved":false,"is_disabled":false,"rental_uris":{"android":"levelo://app?vid=488eab58-702a-49ef-b05e-83a9813536ca","ios":"levelo://app?vid=488eab58-702a-49ef-b05e-83a9813536ca"},"vehicle_type_id":"4","last_reported":1727014038,"current_range_meters":36000,"station_id":"ce4bhnh2rcd13ifvqgug","pricing_plan_id":"cebpf4jnsgd1na2vs0mg"},{"bike_id":"eb0e566e-7d71-4cc0-bc76-de33a9fd73a8","system_id":"levelo_inurba_marseille","lat":43.2319,"lon":5.35546,"is_reserved":false,"is_disabled":false,"rental_uris":{"android":"levelo://app?vid=eb0e566e-7d71-4cc0-bc76-de33a9fd73a8","ios":"levelo://app?vid=eb0e566e-7d71-4cc0-bc76-de33a9fd73a8"},"vehicle_type_id":"4","last_reported":1727014038,"current_range_meters":37600,"station_id":"ce4bhu92rcd13ifvqi70","pricing_plan_id":"cebpf4jnsgd1na2vs0mg"},{"bike_id":"d2f42c73-bd3d-4506-95d8-a3a01c6cd3e0","system_id":"levelo_inurba_marseille","lat":43.27372,"lon":5.36261,"is_reserved":false,"is_disabled":false,"rental_uris":{"android":"levelo://app?vid=d2f42c73-bd3d-4506-95d8-a3a01c6cd3e0","ios":"levelo://app?vid=d2f42c73-bd3d-4506-95d8-a3a01c6cd3e0"},"vehicle_type_id":"4","last_reported":1727014038,"current_range_meters":6800,"station_id":"ce4bhbh2rcd13ifvqeo0","pricing_plan_id":"cebpf4jnsgd1na2vs0mg"},{"bike_id":"221db931-4db8-4bb2-abfc-721280c4ed58","system_id":"levelo_inurba_marseille","lat":43.26219,"lon":5.37438,"is_reserved":false,"is_disabled":false,"rental_uris":{"android":"levelo://app?vid=221db931-4db8-4bb2-abfc-721280c4ed58","ios":"levelo://app?vid=221db931-4db8-4bb2-abfc-721280c4ed58"},"vehicle_type_id":"4","last_reported":1727014038,"current_range_meters":25200,"station_id":"ce4bhgp2rcd13ifvqfc0","pricing_plan_id":"cebpf4jnsgd1na2vs0mg"},{"bike_id":"08276fa6-eb7d-417b-9f03-60582219cefc","system_id":"levelo_inurba_marseille","lat":43.29581,"lon":5.36742,"is_reserved":false,"is_disabled":false,"rental_uris":{"android":"levelo://app?vid=08276fa6-eb7d-417b-9f03-60582219cefc","ios":"levelo://app?vid=08276fa6-eb7d-417b-9f03-60582219cefc"},"vehicle_type_id":"4","last_reported":1727014038,"current_range_meters":39200,"station_id":"ce4bgph2rcd13ifvqc2g","pricing_plan_id":"cebpf4jnsgd1na2vs0mg"},{"bike_id":"d400dd9e-bcc7-41e2-af05-b49115b194cf","system_id":"levelo_inurba_marseille","lat":43.3053,"lon":5.36721,"is_reserved":false,"is_disabled":false,"rental_uris":{"android":"levelo://app?vid=d400dd9e-bcc7-41e2-af05-b49115b194cf","ios":"levelo://app?vid=d400dd9e-bcc7-41e2-af05-b49115b194cf"},"vehicle_type_id":"4","last_reported":1727014038,"current_range_meters":28400,"station_id":"ce4bgrp2rcd13ifvqc9g","pricing_plan_id":"cebpf4jnsgd1na2vs0mg"},{"bike_id":"2783d38a-f09b-492f-9cc4-525f5fb4b566","system_id":"levelo_inurba_marseille","lat":43.26487,"lon":5.39546,"is_reserved":false,"is_disabled":false,"rental_uris":{"android":"levelo://app?vid=2783d38a-f09b-492f-9cc4-525f5fb4b566","ios":"levelo://app?vid=2783d38a-f09b-492f-9cc4-525f5fb4b566"},"vehicle_type_id":"4","last_reported":1727014038,"current_range_meters":33600,"station_id":"ce4bhi12rcd13ifvqfq0","pricing_plan_id":"cebpf4jnsgd1na2vs0mg"},{"bike_id":"6800a59b-a28f-4178-a0ba-7a1d9885f3fb","system_id":"levelo_inurba_marseille","lat":43.29842,"lon":5.36274,"is_reserved":false,"is_disabled":false,"rental_uris":{"android":"levelo://app?vid=6800a59b-a28f-4178-a0ba-7a1d9885f3fb","ios":"levelo://app?vid=6800a59b-a28f-4178-a0ba-7a1d9885f3fb"},"vehicle_type_id":"4","last_reported":1727014038,"current_range_meters":39200,"station_id":"ce4bgpp2rcd13ifvqc3g","pricing_plan_id":"cebpf4jnsgd1na2vs0mg"},{"bike_id":"a7a2630d-54d4-495a-8506-d0472b9b9a1a","system_id":"levelo_inurba_marseille","lat":43.2956,"lon":5.4229,"is_reserved":false,"is_disabled":false,"rental_uris":{"android":"levelo://app?vid=a7a2630d-54d4-495a-8506-d0472b9b9a1a","ios":"levelo://app?vid=a7a2630d-54d4-495a-8506-d0472b9b9a1a"},"vehicle_type_id":"4","last_reported":1727014038,"current_range_meters":38800,"station_id":"ce4bhph2rcd13ifvqhdg","pricing_plan_id":"cebpf4jnsgd1na2vs0mg"},{"bike_id":"10a45a83-6a02-46f7-9db3-35edfba1d9bf","system_id":"levelo_inurba_marseille","lat":43.24395,"lon":5.37063,"is_reserved":false,"is_disabled":false,"rental_uris":{"android":"levelo://app?vid=10a45a83-6a02-46f7-9db3-35edfba1d9bf","ios":"levelo://app?vid=10a45a83-6a02-46f7-9db3-35edfba1d9bf"},"vehicle_type_id":"4","last_reported":1727014038,"current_range_meters":24000,"station_id":"ce4bhhh2rcd13ifvqfk0","pricing_plan_id":"cebpf4jnsgd1na2vs0mg"},{"bike_id":"0cedede6-c508-47b6-bbe0-a22424c46b3f","system_id":"levelo_inurba_marseille","lat":43.29004,"lon":5.35614,"is_reserved":false,"is_disabled":false,"rental_uris":{"android":"levelo://app?vid=0cedede6-c508-47b6-bbe0-a22424c46b3f","ios":"levelo://app?vid=0cedede6-c508-47b6-bbe0-a22424c46b3f"},"vehicle_type_id":"4","last_reported":1727014038,"current_range_meters":16000,"station_id":"ce4bhb92rcd13ifvqen0","pricing_plan_id":"cebpf4jnsgd1na2vs0mg"},{"bike_id":"7f1fe001-1157-480f-847c-cbdd0af83ad3","system_id":"levelo_inurba_marseille","lat":43.29723,"lon":5.37696,"is_reserved":false,"is_disabled":false,"rental_uris":{"android":"levelo://app?vid=7f1fe001-1157-480f-847c-cbdd0af83ad3","ios":"levelo://app?vid=7f1fe001-1157-480f-847c-cbdd0af83ad3"},"vehicle_type_id":"4","last_reported":1727014038,"current_range_meters":30000,"station_id":"ce4bgkh2rcd13ifvqbl0","pricing_plan_id":"cebpf4jnsgd1na2vs0mg"},{"bike_id":"7b9dd459-340b-4978-bfb0-6c163a5263e8","system_id":"levelo_inurba_marseille","lat":43.2319,"lon":5.35548,"is_reserved":false,"is_disabled":false,"rental_uris":{"android":"levelo://app?vid=7b9dd459-340b-4978-bfb0-6c163a5263e8","ios":"levelo://app?vid=7b9dd459-340b-4978-bfb0-6c163a5263e8"},"vehicle_type_id":"4","last_reported":1727014038,"current_range_meters":40000,"station_id":"ce4bhu92rcd13ifvqi70","pricing_plan_id":"cebpf4jnsgd1na2vs0mg"},{"bike_id":"f719dfc7-0eb7-41a3-a0a1-c7a815ef3662","system_id":"levelo_inurba_marseille","lat":43.273751,"lon":5.362577,"is_reserved":false,"is_disabled":false,"rental_uris":{"android":"levelo://app?vid=f719dfc7-0eb7-41a3-a0a1-c7a815ef3662","ios":"levelo://app?vid=f719dfc7-0eb7-41a3-a0a1-c7a815ef3662"},"vehicle_type_id":"4","last_reported":1727014038,"current_range_meters":39200,"station_id":"ce4bhbh2rcd13ifvqeo0","pricing_plan_id":"cebpf4jnsgd1na2vs0mg"},{"bike_id":"7dbb74f1-69b4-441b-a912-2f40c6760cb1","system_id":"levelo_inurba_marseille","lat":43.29003,"lon":5.35608,"is_reserved":false,"is_disabled":false,"rental_uris":{"android":"levelo://app?vid=7dbb74f1-69b4-441b-a912-2f40c6760cb1","ios":"levelo://app?vid=7dbb74f1-69b4-441b-a912-2f40c6760cb1"},"vehicle_type_id":"4","last_reported":1727014038,"current_range_meters":8800,"station_id":"ce4bhb12rcd13ifvqel0","pricing_plan_id":"cebpf4jnsgd1na2vs0mg"},{"bike_id":"0e1dc82c-7d5b-407b-b9e7-aefc01444c33","system_id":"levelo_inurba_marseille","lat":43.25002,"lon":5.38915,"is_reserved":false,"is_disabled":false,"rental_uris":{"android":"levelo://app?vid=0e1dc82c-7d5b-407b-b9e7-aefc01444c33","ios":"levelo://app?vid=0e1dc82c-7d5b-407b-b9e7-aefc01444c33"},"vehicle_type_id":"4","last_reported":1727014038,"current_range_meters":16800,"station_id":"ce4bhgp2rcd13ifvqfd0","pricing_plan_id":"cebpf4jnsgd1na2vs0mg"},{"bike_id":"71aa8592-ddf7-4343-aed4-c00d3433340f","system_id":"levelo_inurba_marseille","lat":43.337444,"lon":5.374475,"is_reserved":false,"is_disabled":false,"rental_uris":{"android":"levelo://app?vid=71aa8592-ddf7-4343-aed4-c00d3433340f","ios":"levelo://app?vid=71aa8592-ddf7-4343-aed4-c00d3433340f"},"vehicle_type_id":"4","last_reported":1727014038,"current_range_meters":31200,"station_id":"","pricing_plan_id":"cebpf4jnsgd1na2vs0mg"},{"bike_id":"3740c6df-06cd-419b-9ae6-b8d9e5eff548","system_id":"levelo_inurba_marseille","lat":43.2753,"lon":5.40935,"is_reserved":false,"is_disabled":false,"rental_uris":{"android":"levelo://app?vid=3740c6df-06cd-419b-9ae6-b8d9e5eff548","ios":"levelo://app?vid=3740c6df-06cd-419b-9ae6-b8d9e5eff548"},"vehicle_type_id":"4","last_reported":1727014038,"current_range_meters":12800,"station_id":"","pricing_plan_id":"cebpf4jnsgd1na2vs0mg"},{"bike_id":"54874dcd-47ff-4f32-930a-b043169b6fab","system_id":"levelo_inurba_marseille","lat":43.33599,"lon":5.41018,"is_reserved":false,"is_disabled":false,"rental_uris":{"android":"levelo://app?vid=54874dcd-47ff-4f32-930a-b043169b6fab","ios":"levelo://app?vid=54874dcd-47ff-4f32-930a-b043169b6fab"},"vehicle_type_id":"4","last_reported":1727014038,"current_range_meters":39200,"station_id":"ce4bhqh2rcd13ifvqhmg","pricing_plan_id":"cebpf4jnsgd1na2vs0mg"},{"bike_id":"7df90442-99e0-4d37-a85e-b9ac13b280ee","system_id":"levelo_inurba_marseille","lat":43.307831,"lon":5.376592,"is_reserved":false,"is_disabled":false,"rental_uris":{"android":"levelo://app?vid=7df90442-99e0-4d37-a85e-b9ac13b280ee","ios":"levelo://app?vid=7df90442-99e0-4d37-a85e-b9ac13b280ee"},"vehicle_type_id":"4","last_reported":1727014038,"current_range_meters":4000,"station_id":"ce4bgv92rcd13ifvqcq0","pricing_plan_id":"cebpf4jnsgd1na2vs0mg"},{"bike_id":"41ad91e1-7a59-4965-89b1-f87092f37a86","system_id":"levelo_inurba_marseille","lat":43.28615,"lon":5.35106,"is_reserved":false,"is_disabled":false,"rental_uris":{"android":"levelo://app?vid=41ad91e1-7a59-4965-89b1-f87092f37a86","ios":"levelo://app?vid=41ad91e1-7a59-4965-89b1-f87092f37a86"},"vehicle_type_id":"4","last_reported":1727014038,"current_range_meters":32400,"station_id":"ce4bhch2rcd13ifvqeug","pricing_plan_id":"cebpf4jnsgd1na2vs0mg"},{"bike_id":"587b7091-1fcd-4c6f-a820-801ebabc18cc","system_id":"levelo_inurba_marseille","lat":43.29845,"lon":5.3627,"is_reserved":false,"is_disabled":false,"rental_uris":{"android":"levelo://app?vid=587b7091-1fcd-4c6f-a820-801ebabc18cc","ios":"levelo://app?vid=587b7091-1fcd-4c6f-a820-801ebabc18cc"},"vehicle_type_id":"4","last_reported":1727014038,"current_range_meters":30400,"station_id":"ce4bgpp2rcd13ifvqc3g","pricing_plan_id":"cebpf4jnsgd1na2vs0mg"},{"bike_id":"3e7d9d59-3887-45fa-b0f9-325d7b15244d","system_id":"levelo_inurba_marseille","lat":43.2318,"lon":5.39977,"is_reserved":false,"is_disabled":false,"rental_uris":{"android":"levelo://app?vid=3e7d9d59-3887-45fa-b0f9-325d7b15244d","ios":"levelo://app?vid=3e7d9d59-3887-45fa-b0f9-325d7b15244d"},"vehicle_type_id":"4","last_reported":1727014038,"current_range_meters":10000,"station_id":"ce4bhn12rcd13ifvqgqg","pricing_plan_id":"cebpf4jnsgd1na2vs0mg"},{"bike_id":"96bfdcec-eb15-49e2-893d-fdb79f6b8452","system_id":"levelo_inurba_marseille","lat":43.31271,"lon":5.40173,"is_reserved":false,"is_disabled":false,"rental_uris":{"android":"levelo://app?vid=96bfdcec-eb15-49e2-893d-fdb79f6b8452","ios":"levelo://app?vid=96bfdcec-eb15-49e2-893d-fdb79f6b8452"},"vehicle_type_id":"4","last_reported":1727014038,"current_range_meters":39200,"station_id":"ce4bh092rcd13ifvqd30","pricing_plan_id":"cebpf4jnsgd1na2vs0mg"},{"bike_id":"0a533487-a6ec-4633-9f1c-0ce6ae6783a7","system_id":"levelo_inurba_marseille","lat":43.25008,"lon":5.38917,"is_reserved":false,"is_disabled":false,"rental_uris":{"android":"levelo://app?vid=0a533487-a6ec-4633-9f1c-0ce6ae6783a7","ios":"levelo://app?vid=0a533487-a6ec-4633-9f1c-0ce6ae6783a7"},"vehicle_type_id":"4","last_reported":1727014038,"current_range_meters":38400,"station_id":"ce4bhgp2rcd13ifvqfd0","pricing_plan_id":"cebpf4jnsgd1na2vs0mg"},{"bike_id":"34bac9de-afcc-485f-a901-124a385dd441","system_id":"levelo_inurba_marseille","lat":43.24541,"lon":5.39527,"is_reserved":false,"is_disabled":false,"rental_uris":{"android":"levelo://app?vid=34bac9de-afcc-485f-a901-124a385dd441","ios":"levelo://app?vid=34bac9de-afcc-485f-a901-124a385dd441"},"vehicle_type_id":"4","last_reported":1727014038,"current_range_meters":38400,"station_id":"ce4bhlp2rcd13ifvqgjg","pricing_plan_id":"cebpf4jnsgd1na2vs0mg"},{"bike_id":"718cb686-d684-45fb-aa3d-5f603f04b5f8","system_id":"levelo_inurba_marseille","lat":43.29623,"lon":5.37163,"is_reserved":false,"is_disabled":false,"rental_uris":{"android":"levelo://app?vid=718cb686-d684-45fb-aa3d-5f603f04b5f8","ios":"levelo://app?vid=718cb686-d684-45fb-aa3d-5f603f04b5f8"},"vehicle_type_id":"4","last_reported":1727014038,"current_range_meters":8800,"station_id":"ce4bgnh2rcd13ifvqc0g","pricing_plan_id":"cebpf4jnsgd1na2vs0mg"},{"bike_id":"fd046330-bac2-49c2-85f8-e1e41cbe30fd","system_id":"levelo_inurba_marseille","lat":43.260651,"lon":5.393977,"is_reserved":false,"is_disabled":false,"rental_uris":{"android":"levelo://app?vid=fd046330-bac2-49c2-85f8-e1e41cbe30fd","ios":"levelo://app?vid=fd046330-bac2-49c2-85f8-e1e41cbe30fd"},"vehicle_type_id":"4","last_reported":1727014038,"current_range_meters":38800,"station_id":"ce4bhh92rcd13ifvqfj0","pricing_plan_id":"cebpf4jnsgd1na2vs0mg"},{"bike_id":"1575e777-51f8-479e-bd95-714cef91a125","system_id":"levelo_inurba_marseille","lat":43.24178,"lon":5.39709,"is_reserved":false,"is_disabled":false,"rental_uris":{"android":"levelo://app?vid=1575e777-51f8-479e-bd95-714cef91a125","ios":"levelo://app?vid=1575e777-51f8-479e-bd95-714cef91a125"},"vehicle_type_id":"4","last_reported":1727014038,"current_range_meters":27200,"station_id":"ce4bhn12rcd13ifvqgpg","pricing_plan_id":"cebpf4jnsgd1na2vs0mg"},{"bike_id":"499f0186-49a9-4e89-9bdb-4e4250b9ca38","system_id":"levelo_inurba_marseille","lat":43.29848,"lon":5.36269,"is_reserved":false,"is_disabled":false,"rental_uris":{"android":"levelo://app?vid=499f0186-49a9-4e89-9bdb-4e4250b9ca38","ios":"levelo://app?vid=499f0186-49a9-4e89-9bdb-4e4250b9ca38"},"vehicle_type_id":"4","last_reported":1727014038,"current_range_meters":20000,"station_id":"ce4bgpp2rcd13ifvqc3g","pricing_plan_id":"cebpf4jnsgd1na2vs0mg"},{"bike_id":"9ccabcf0-d8c8-4452-a354-45bd651704ab","system_id":"levelo_inurba_marseille","lat":43.23971,"lon":5.36635,"is_reserved":false,"is_disabled":false,"rental_uris":{"android":"levelo://app?vid=9ccabcf0-d8c8-4452-a354-45bd651704ab","ios":"levelo://app?vid=9ccabcf0-d8c8-4452-a354-45bd651704ab"},"vehicle_type_id":"4","last_reported":1727014038,"current_range_meters":20800,"station_id":"ce4bhi12rcd13ifvqfp0","pricing_plan_id":"cebpf4jnsgd1na2vs0mg"},{"bike_id":"2fc02b85-81fe-454d-9328-676fe85a7d3f","system_id":"levelo_inurba_marseille","lat":43.29219,"lon":5.36049,"is_reserved":false,"is_disabled":false,"rental_uris":{"android":"levelo://app?vid=2fc02b85-81fe-454d-9328-676fe85a7d3f","ios":"levelo://app?vid=2fc02b85-81fe-454d-9328-676fe85a7d3f"},"vehicle_type_id":"4","last_reported":1727014038,"current_range_meters":38000,"station_id":"ce4bhbh2rcd13ifvqeqg","pricing_plan_id":"cebpf4jnsgd1na2vs0mg"},{"bike_id":"f5ea4fb7-cd73-4cf4-86d3-87889789d90a","system_id":"levelo_inurba_marseille","lat":43.28267,"lon":5.35061,"is_reserved":false,"is_disabled":false,"rental_uris":{"android":"levelo://app?vid=f5ea4fb7-cd73-4cf4-86d3-87889789d90a","ios":"levelo://app?vid=f5ea4fb7-cd73-4cf4-86d3-87889789d90a"},"vehicle_type_id":"4","last_reported":1727014038,"current_range_meters":19200,"station_id":"ce4bhbp2rcd13ifvqerg","pricing_plan_id":"cebpf4jnsgd1na2vs0mg"},{"bike_id":"885eb9fd-e64e-4dcf-b796-e74b9bc20997","system_id":"levelo_inurba_marseille","lat":43.27922,"lon":5.39571,"is_reserved":false,"is_disabled":false,"rental_uris":{"android":"levelo://app?vid=885eb9fd-e64e-4dcf-b796-e74b9bc20997","ios":"levelo://app?vid=885eb9fd-e64e-4dcf-b796-e74b9bc20997"},"vehicle_type_id":"4","last_reported":1727014038,"current_range_meters":36400,"station_id":"ce4bhf92rcd13ifvqf40","pricing_plan_id":"cebpf4jnsgd1na2vs0mg"},{"bike_id":"5911660d-be7b-4b01-a96f-66273963d8e3","system_id":"levelo_inurba_marseille","lat":43.335948,"lon":5.409617,"is_reserved":false,"is_disabled":false,"rental_uris":{"android":"levelo://app?vid=5911660d-be7b-4b01-a96f-66273963d8e3","ios":"levelo://app?vid=5911660d-be7b-4b01-a96f-66273963d8e3"},"vehicle_type_id":"4","last_reported":1727014038,"current_range_meters":16000,"station_id":"ce4bhqh2rcd13ifvqhmg","pricing_plan_id":"cebpf4jnsgd1na2vs0mg"},{"bike_id":"76672621-e213-41a0-b34e-0cc92de5c5fd","system_id":"levelo_inurba_marseille","lat":43.310577,"lon":5.381497,"is_reserved":false,"is_disabled":false,"rental_uris":{"android":"levelo://app?vid=76672621-e213-41a0-b34e-0cc92de5c5fd","ios":"levelo://app?vid=76672621-e213-41a0-b34e-0cc92de5c5fd"},"vehicle_type_id":"4","last_reported":1727014038,"current_range_meters":26000,"station_id":"","pricing_plan_id":"cebpf4jnsgd1na2vs0mg"},{"bike_id":"cfdd42bc-2434-4e5f-af6f-be9466847576","system_id":"levelo_inurba_marseille","lat":43.2952,"lon":5.37507,"is_reserved":false,"is_disabled":false,"rental_uris":{"android":"levelo://app?vid=cfdd42bc-2434-4e5f-af6f-be9466847576","ios":"levelo://app?vid=cfdd42bc-2434-4e5f-af6f-be9466847576"},"vehicle_type_id":"4","last_reported":1727014038,"current_range_meters":36800,"station_id":"ce4bgkp2rcd13ifvqbmg","pricing_plan_id":"cebpf4jnsgd1na2vs0mg"},{"bike_id":"feb42740-c719-4916-9efa-d99f861e0e6d","system_id":"levelo_inurba_marseille","lat":43.32481,"lon":5.36578,"is_reserved":false,"is_disabled":false,"rental_uris":{"android":"levelo://app?vid=feb42740-c719-4916-9efa-d99f861e0e6d","ios":"levelo://app?vid=feb42740-c719-4916-9efa-d99f861e0e6d"},"vehicle_type_id":"4","last_reported":1727014038,"current_range_meters":36400,"station_id":"ce4bhs12rcd13ifvqhvg","pricing_plan_id":"cebpf4jnsgd1na2vs0mg"},{"bike_id":"fe1fe812-856d-4960-9bb0-68f67d84a67f","system_id":"levelo_inurba_marseille","lat":43.24085,"lon":5.37747,"is_reserved":false,"is_disabled":false,"rental_uris":{"android":"levelo://app?vid=fe1fe812-856d-4960-9bb0-68f67d84a67f","ios":"levelo://app?vid=fe1fe812-856d-4960-9bb0-68f67d84a67f"},"vehicle_type_id":"4","last_reported":1727014038,"current_range_meters":29600,"station_id":"ce4bhnp2rcd13ifvqgvg","pricing_plan_id":"cebpf4jnsgd1na2vs0mg"},{"bike_id":"6e793def-70c3-4898-88e9-cb21c07de165","system_id":"levelo_inurba_marseille","lat":43.2827,"lon":5.35065,"is_reserved":false,"is_disabled":false,"rental_uris":{"android":"levelo://app?vid=6e793def-70c3-4898-88e9-cb21c07de165","ios":"levelo://app?vid=6e793def-70c3-4898-88e9-cb21c07de165"},"vehicle_type_id":"4","last_reported":1727014038,"current_range_meters":38800,"station_id":"ce4bhbp2rcd13ifvqerg","pricing_plan_id":"cebpf4jnsgd1na2vs0mg"},{"bike_id":"fce734b4-6c36-4cb6-983c-c95238702258","system_id":"levelo_inurba_marseille","lat":43.31063,"lon":5.3811,"is_reserved":false,"is_disabled":false,"rental_uris":{"android":"levelo://app?vid=fce734b4-6c36-4cb6-983c-c95238702258","ios":"levelo://app?vid=fce734b4-6c36-4cb6-983c-c95238702258"},"vehicle_type_id":"4","last_reported":1727014038,"current_range_meters":12400,"station_id":"","pricing_plan_id":"cebpf4jnsgd1na2vs0mg"},{"bike_id":"2e08f3a2-b9a7-4fc8-aced-6ab967f39f94","system_id":"levelo_inurba_marseille","lat":43.254923,"lon":5.376491,"is_reserved":false,"is_disabled":false,"rental_uris":{"android":"levelo://app?vid=2e08f3a2-b9a7-4fc8-aced-6ab967f39f94","ios":"levelo://app?vid=2e08f3a2-b9a7-4fc8-aced-6ab967f39f94"},"vehicle_type_id":"4","last_reported":1727014038,"current_range_meters":37600,"station_id":"ce4bhgh2rcd13ifvqfa0","pricing_plan_id":"cebpf4jnsgd1na2vs0mg"},{"bike_id":"b7413d86-639c-4d69-b667-3a428978d70e","system_id":"levelo_inurba_marseille","lat":43.31885,"lon":5.4073,"is_reserved":false,"is_disabled":false,"rental_uris":{"android":"levelo://app?vid=b7413d86-639c-4d69-b667-3a428978d70e","ios":"levelo://app?vid=b7413d86-639c-4d69-b667-3a428978d70e"},"vehicle_type_id":"4","last_reported":1727014038,"current_range_meters":39200,"station_id":"ce4bhq12rcd13ifvqhig","pricing_plan_id":"cebpf4jnsgd1na2vs0mg"},{"bike_id":"f74941be-f473-4ce7-9230-0799526567ae","system_id":"levelo_inurba_marseille","lat":43.23196,"lon":5.35549,"is_reserved":false,"is_disabled":false,"rental_uris":{"android":"levelo://app?vid=f74941be-f473-4ce7-9230-0799526567ae","ios":"levelo://app?vid=f74941be-f473-4ce7-9230-0799526567ae"},"vehicle_type_id":"4","last_reported":1727014038,"current_range_meters":38800,"station_id":"ce4bhu92rcd13ifvqi70","pricing_plan_id":"cebpf4jnsgd1na2vs0mg"},{"bike_id":"e8241004-42df-417c-be04-81a64ba9d444","system_id":"levelo_inurba_marseille","lat":43.302765,"lon":5.377034,"is_reserved":false,"is_disabled":false,"rental_uris":{"android":"levelo://app?vid=e8241004-42df-417c-be04-81a64ba9d444","ios":"levelo://app?vid=e8241004-42df-417c-be04-81a64ba9d444"},"vehicle_type_id":"4","last_reported":1727014038,"current_range_meters":30800,"station_id":"ce4bguh2rcd13ifvqcj0","pricing_plan_id":"cebpf4jnsgd1na2vs0mg"},{"bike_id":"ce63bca5-bae6-4a79-ad67-ba4dd2939ab0","system_id":"levelo_inurba_marseille","lat":43.29219,"lon":5.36051,"is_reserved":false,"is_disabled":false,"rental_uris":{"android":"levelo://app?vid=ce63bca5-bae6-4a79-ad67-ba4dd2939ab0","ios":"levelo://app?vid=ce63bca5-bae6-4a79-ad67-ba4dd2939ab0"},"vehicle_type_id":"4","last_reported":1727014038,"current_range_meters":39200,"station_id":"ce4bhbh2rcd13ifvqeqg","pricing_plan_id":"cebpf4jnsgd1na2vs0mg"},{"bike_id":"4476b9c4-f13e-4310-af55-0eed7165f87b","system_id":"levelo_inurba_marseille","lat":43.270782,"lon":5.422787,"is_reserved":false,"is_disabled":false,"rental_uris":{"android":"levelo://app?vid=4476b9c4-f13e-4310-af55-0eed7165f87b","ios":"levelo://app?vid=4476b9c4-f13e-4310-af55-0eed7165f87b"},"vehicle_type_id":"4","last_reported":1727014038,"current_range_meters":26000,"station_id":"ce4bhk92rcd13ifvqgb0","pricing_plan_id":"cebpf4jnsgd1na2vs0mg"},{"bike_id":"27be6f2f-1bc2-4192-a569-44eba2fb71ae","system_id":"levelo_inurba_marseille","lat":43.25942,"lon":5.409,"is_reserved":false,"is_disabled":false,"rental_uris":{"android":"levelo://app?vid=27be6f2f-1bc2-4192-a569-44eba2fb71ae","ios":"levelo://app?vid=27be6f2f-1bc2-4192-a569-44eba2fb71ae"},"vehicle_type_id":"4","last_reported":1727014038,"current_range_meters":12000,"station_id":"ce4bhm92rcd13ifvqglg","pricing_plan_id":"cebpf4jnsgd1na2vs0mg"},{"bike_id":"a865ebfe-83bc-4c44-bef5-62b9a703b70f","system_id":"levelo_inurba_marseille","lat":43.27496,"lon":5.42457,"is_reserved":false,"is_disabled":false,"rental_uris":{"android":"levelo://app?vid=a865ebfe-83bc-4c44-bef5-62b9a703b70f","ios":"levelo://app?vid=a865ebfe-83bc-4c44-bef5-62b9a703b70f"},"vehicle_type_id":"4","last_reported":1727014038,"current_range_meters":38800,"station_id":"ce4bhn92rcd13ifvqgrg","pricing_plan_id":"cebpf4jnsgd1na2vs0mg"},{"bike_id":"53db6389-9f49-484e-9307-5776eb9773de","system_id":"levelo_inurba_marseille","lat":43.282623,"lon":5.350509,"is_reserved":false,"is_disabled":false,"rental_uris":{"android":"levelo://app?vid=53db6389-9f49-484e-9307-5776eb9773de","ios":"levelo://app?vid=53db6389-9f49-484e-9307-5776eb9773de"},"vehicle_type_id":"4","last_reported":1727014038,"current_range_meters":38800,"station_id":"ce4bhbp2rcd13ifvqerg","pricing_plan_id":"cebpf4jnsgd1na2vs0mg"},{"bike_id":"6f44b9b4-6c14-4762-bc2c-28c660b37c4d","system_id":"levelo_inurba_marseille","lat":43.2466,"lon":5.38162,"is_reserved":false,"is_disabled":false,"rental_uris":{"android":"levelo://app?vid=6f44b9b4-6c14-4762-bc2c-28c660b37c4d","ios":"levelo://app?vid=6f44b9b4-6c14-4762-bc2c-28c660b37c4d"},"vehicle_type_id":"4","last_reported":1727014038,"current_range_meters":36000,"station_id":"ce4bhih2rcd13ifvqfr0","pricing_plan_id":"cebpf4jnsgd1na2vs0mg"},{"bike_id":"e7f90f57-85ca-4974-b08a-1d2bffd2fac7","system_id":"levelo_inurba_marseille","lat":43.24181,"lon":5.397303,"is_reserved":false,"is_disabled":false,"rental_uris":{"android":"levelo://app?vid=e7f90f57-85ca-4974-b08a-1d2bffd2fac7","ios":"levelo://app?vid=e7f90f57-85ca-4974-b08a-1d2bffd2fac7"},"vehicle_type_id":"4","last_reported":1727014038,"current_range_meters":20400,"station_id":"ce4bhgh2rcd13ifvqfa0","pricing_plan_id":"cebpf4jnsgd1na2vs0mg"},{"bike_id":"80247f41-cabe-49b6-98e7-0f4faf0dea90","system_id":"levelo_inurba_marseille","lat":43.269337,"lon":5.36649,"is_reserved":false,"is_disabled":false,"rental_uris":{"android":"levelo://app?vid=80247f41-cabe-49b6-98e7-0f4faf0dea90","ios":"levelo://app?vid=80247f41-cabe-49b6-98e7-0f4faf0dea90"},"vehicle_type_id":"4","last_reported":1727014038,"current_range_meters":35600,"station_id":"","pricing_plan_id":"cebpf4jnsgd1na2vs0mg"},{"bike_id":"aebd32a9-d634-431e-b703-68b75f1b5edd","system_id":"levelo_inurba_marseille","lat":43.299413,"lon":5.363496,"is_reserved":false,"is_disabled":false,"rental_uris":{"android":"levelo://app?vid=aebd32a9-d634-431e-b703-68b75f1b5edd","ios":"levelo://app?vid=aebd32a9-d634-431e-b703-68b75f1b5edd"},"vehicle_type_id":"4","last_reported":1727014038,"current_range_meters":8400,"station_id":"","pricing_plan_id":"cebpf4jnsgd1na2vs0mg"},{"bike_id":"fa690805-233a-4a70-a9f3-33f1b67cdb1f","system_id":"levelo_inurba_marseille","lat":43.32293,"lon":5.38266,"is_reserved":false,"is_disabled":false,"rental_uris":{"android":"levelo://app?vid=fa690805-233a-4a70-a9f3-33f1b67cdb1f","ios":"levelo://app?vid=fa690805-233a-4a70-a9f3-33f1b67cdb1f"},"vehicle_type_id":"4","last_reported":1727014038,"current_range_meters":7200,"station_id":"ce4bhr12rcd13ifvqhqg","pricing_plan_id":"cebpf4jnsgd1na2vs0mg"},{"bike_id":"57b9489f-926f-401e-beb7-ad1ce87e1c2c","system_id":"levelo_inurba_marseille","lat":43.28155,"lon":5.42643,"is_reserved":false,"is_disabled":false,"rental_uris":{"android":"levelo://app?vid=57b9489f-926f-401e-beb7-ad1ce87e1c2c","ios":"levelo://app?vid=57b9489f-926f-401e-beb7-ad1ce87e1c2c"},"vehicle_type_id":"4","last_reported":1727014038,"current_range_meters":24800,"station_id":"ce4bhnh2rcd13ifvqgug","pricing_plan_id":"cebpf4jnsgd1na2vs0mg"},{"bike_id":"a9dfff17-5f89-4d06-b058-9067da185709","system_id":"levelo_inurba_marseille","lat":43.29048,"lon":5.35907,"is_reserved":false,"is_disabled":false,"rental_uris":{"android":"levelo://app?vid=a9dfff17-5f89-4d06-b058-9067da185709","ios":"levelo://app?vid=a9dfff17-5f89-4d06-b058-9067da185709"},"vehicle_type_id":"4","last_reported":1727014038,"current_range_meters":38400,"station_id":"ce4bha92rcd13ifvqeg0","pricing_plan_id":"cebpf4jnsgd1na2vs0mg"},{"bike_id":"ef11fbcf-c9f3-4239-9efa-59ca0395a1ef","system_id":"levelo_inurba_marseille","lat":43.24812,"lon":5.37458,"is_reserved":false,"is_disabled":false,"rental_uris":{"android":"levelo://app?vid=ef11fbcf-c9f3-4239-9efa-59ca0395a1ef","ios":"levelo://app?vid=ef11fbcf-c9f3-4239-9efa-59ca0395a1ef"},"vehicle_type_id":"4","last_reported":1727014038,"current_range_meters":26800,"station_id":"ce4bhgh2rcd13ifvqfb0","pricing_plan_id":"cebpf4jnsgd1na2vs0mg"},{"bike_id":"ff82c0ba-4152-4503-97ce-43a7e22b5adf","system_id":"levelo_inurba_marseille","lat":43.29007,"lon":5.3561,"is_reserved":false,"is_disabled":false,"rental_uris":{"android":"levelo://app?vid=ff82c0ba-4152-4503-97ce-43a7e22b5adf","ios":"levelo://app?vid=ff82c0ba-4152-4503-97ce-43a7e22b5adf"},"vehicle_type_id":"4","last_reported":1727014038,"current_range_meters":13600,"station_id":"ce4bhb92rcd13ifvqen0","pricing_plan_id":"cebpf4jnsgd1na2vs0mg"},{"bike_id":"c784d8a6-e6d8-44f9-9281-5ef543c1f73c","system_id":"levelo_inurba_marseille","lat":43.2958,"lon":5.36736,"is_reserved":false,"is_disabled":false,"rental_uris":{"android":"levelo://app?vid=c784d8a6-e6d8-44f9-9281-5ef543c1f73c","ios":"levelo://app?vid=c784d8a6-e6d8-44f9-9281-5ef543c1f73c"},"vehicle_type_id":"4","last_reported":1727014038,"current_range_meters":15200,"station_id":"ce4bgph2rcd13ifvqc2g","pricing_plan_id":"cebpf4jnsgd1na2vs0mg"},{"bike_id":"b2763354-ec6c-4733-8de6-6c4493759ae9","system_id":"levelo_inurba_marseille","lat":43.29032,"lon":5.40123,"is_reserved":false,"is_disabled":false,"rental_uris":{"android":"levelo://app?vid=b2763354-ec6c-4733-8de6-6c4493759ae9","ios":"levelo://app?vid=b2763354-ec6c-4733-8de6-6c4493759ae9"},"vehicle_type_id":"4","last_reported":1727014038,"current_range_meters":8400,"station_id":"","pricing_plan_id":"cebpf4jnsgd1na2vs0mg"},{"bike_id":"12fa2c3e-9969-420f-b38a-45357d5aee49","system_id":"levelo_inurba_marseille","lat":43.32038,"lon":5.41559,"is_reserved":false,"is_disabled":false,"rental_uris":{"android":"levelo://app?vid=12fa2c3e-9969-420f-b38a-45357d5aee49","ios":"levelo://app?vid=12fa2c3e-9969-420f-b38a-45357d5aee49"},"vehicle_type_id":"4","last_reported":1727014038,"current_range_meters":16000,"station_id":"ce4bhq92rcd13ifvqhkg","pricing_plan_id":"cebpf4jnsgd1na2vs0mg"},{"bike_id":"6ab113a3-534c-4dc7-9f90-3b6560c4091a","system_id":"levelo_inurba_marseille","lat":43.30311,"lon":5.40355,"is_reserved":false,"is_disabled":false,"rental_uris":{"android":"levelo://app?vid=6ab113a3-534c-4dc7-9f90-3b6560c4091a","ios":"levelo://app?vid=6ab113a3-534c-4dc7-9f90-3b6560c4091a"},"vehicle_type_id":"4","last_reported":1727014038,"current_range_meters":38800,"station_id":"","pricing_plan_id":"cebpf4jnsgd1na2vs0mg"},{"bike_id":"27bfd98a-3548-4c9d-a80d-c9f7f0496016","system_id":"levelo_inurba_marseille","lat":43.23193,"lon":5.35558,"is_reserved":false,"is_disabled":false,"rental_uris":{"android":"levelo://app?vid=27bfd98a-3548-4c9d-a80d-c9f7f0496016","ios":"levelo://app?vid=27bfd98a-3548-4c9d-a80d-c9f7f0496016"},"vehicle_type_id":"4","last_reported":1727014038,"current_range_meters":34800,"station_id":"ce4bhu92rcd13ifvqi70","pricing_plan_id":"cebpf4jnsgd1na2vs0mg"},{"bike_id":"1bb7d2c0-6698-4c98-a872-047ea08ec901","system_id":"levelo_inurba_marseille","lat":43.33027,"lon":5.39044,"is_reserved":false,"is_disabled":false,"rental_uris":{"android":"levelo://app?vid=1bb7d2c0-6698-4c98-a872-047ea08ec901","ios":"levelo://app?vid=1bb7d2c0-6698-4c98-a872-047ea08ec901"},"vehicle_type_id":"4","last_reported":1727014038,"current_range_meters":4400,"station_id":"ce4bhr92rcd13ifvqhrg","pricing_plan_id":"cebpf4jnsgd1na2vs0mg"},{"bike_id":"6e866676-6958-47a0-bba1-aad239c4e52e","system_id":"levelo_inurba_marseille","lat":43.30345,"lon":5.41871,"is_reserved":false,"is_disabled":false,"rental_uris":{"android":"levelo://app?vid=6e866676-6958-47a0-bba1-aad239c4e52e","ios":"levelo://app?vid=6e866676-6958-47a0-bba1-aad239c4e52e"},"vehicle_type_id":"4","last_reported":1727014038,"current_range_meters":20400,"station_id":"ce4bhop2rcd13ifvqh7g","pricing_plan_id":"cebpf4jnsgd1na2vs0mg"},{"bike_id":"d28ffa41-9d7e-41f1-8b70-1aa04f034503","system_id":"levelo_inurba_marseille","lat":43.29558,"lon":5.42279,"is_reserved":false,"is_disabled":false,"rental_uris":{"android":"levelo://app?vid=d28ffa41-9d7e-41f1-8b70-1aa04f034503","ios":"levelo://app?vid=d28ffa41-9d7e-41f1-8b70-1aa04f034503"},"vehicle_type_id":"4","last_reported":1727014038,"current_range_meters":3600,"station_id":"ce4bhph2rcd13ifvqhdg","pricing_plan_id":"cebpf4jnsgd1na2vs0mg"},{"bike_id":"397349b3-2c2d-44e5-a149-6f78c0100682","system_id":"levelo_inurba_marseille","lat":43.23198,"lon":5.35559,"is_reserved":false,"is_disabled":false,"rental_uris":{"android":"levelo://app?vid=397349b3-2c2d-44e5-a149-6f78c0100682","ios":"levelo://app?vid=397349b3-2c2d-44e5-a149-6f78c0100682"},"vehicle_type_id":"4","last_reported":1727014038,"current_range_meters":14400,"station_id":"ce4bhu92rcd13ifvqi70","pricing_plan_id":"cebpf4jnsgd1na2vs0mg"},{"bike_id":"9ef2f7df-e9fb-4da5-aa12-396d9c7c126d","system_id":"levelo_inurba_marseille","lat":43.31084,"lon":5.4243,"is_reserved":false,"is_disabled":false,"rental_uris":{"android":"levelo://app?vid=9ef2f7df-e9fb-4da5-aa12-396d9c7c126d","ios":"levelo://app?vid=9ef2f7df-e9fb-4da5-aa12-396d9c7c126d"},"vehicle_type_id":"4","last_reported":1727014038,"current_range_meters":33200,"station_id":"ce4bhp92rcd13ifvqhag","pricing_plan_id":"cebpf4jnsgd1na2vs0mg"},{"bike_id":"d11c7d16-cb21-47e8-87f3-bb414903ae1f","system_id":"levelo_inurba_marseille","lat":43.284088,"lon":5.37494,"is_reserved":false,"is_disabled":false,"rental_uris":{"android":"levelo://app?vid=d11c7d16-cb21-47e8-87f3-bb414903ae1f","ios":"levelo://app?vid=d11c7d16-cb21-47e8-87f3-bb414903ae1f"},"vehicle_type_id":"4","last_reported":1727014038,"current_range_meters":19600,"station_id":"ce4bh412rcd13ifvqds0","pricing_plan_id":"cebpf4jnsgd1na2vs0mg"},{"bike_id":"1d0172e7-661d-4f95-b75f-94201d8aaa4c","system_id":"levelo_inurba_marseille","lat":43.24176,"lon":5.39729,"is_reserved":false,"is_disabled":false,"rental_uris":{"android":"levelo://app?vid=1d0172e7-661d-4f95-b75f-94201d8aaa4c","ios":"levelo://app?vid=1d0172e7-661d-4f95-b75f-94201d8aaa4c"},"vehicle_type_id":"4","last_reported":1727014038,"current_range_meters":10800,"station_id":"ce4bhn12rcd13ifvqgpg","pricing_plan_id":"cebpf4jnsgd1na2vs0mg"},{"bike_id":"9a0f00dc-b8ef-464f-a451-306e17c6a63b","system_id":"levelo_inurba_marseille","lat":43.32027,"lon":5.41565,"is_reserved":false,"is_disabled":false,"rental_uris":{"android":"levelo://app?vid=9a0f00dc-b8ef-464f-a451-306e17c6a63b","ios":"levelo://app?vid=9a0f00dc-b8ef-464f-a451-306e17c6a63b"},"vehicle_type_id":"4","last_reported":1727014038,"current_range_meters":32000,"station_id":"ce4bhq92rcd13ifvqhkg","pricing_plan_id":"cebpf4jnsgd1na2vs0mg"},{"bike_id":"38393c15-5264-4cb8-8dcf-2e1d10e22d23","system_id":"levelo_inurba_marseille","lat":43.30882,"lon":5.37192,"is_reserved":false,"is_disabled":false,"rental_uris":{"android":"levelo://app?vid=38393c15-5264-4cb8-8dcf-2e1d10e22d23","ios":"levelo://app?vid=38393c15-5264-4cb8-8dcf-2e1d10e22d23"},"vehicle_type_id":"4","last_reported":1727014038,"current_range_meters":29600,"station_id":"ce4bguh2rcd13ifvqckg","pricing_plan_id":"cebpf4jnsgd1na2vs0mg"},{"bike_id":"e5c2d294-aaba-4416-a4c8-cdc9ea762a2e","system_id":"levelo_inurba_marseille","lat":43.29519,"lon":5.37514,"is_reserved":false,"is_disabled":false,"rental_uris":{"android":"levelo://app?vid=e5c2d294-aaba-4416-a4c8-cdc9ea762a2e","ios":"levelo://app?vid=e5c2d294-aaba-4416-a4c8-cdc9ea762a2e"},"vehicle_type_id":"4","last_reported":1727014038,"current_range_meters":39200,"station_id":"ce4bgkp2rcd13ifvqbmg","pricing_plan_id":"cebpf4jnsgd1na2vs0mg"},{"bike_id":"5feb8f9d-df3e-4036-aaa2-6a9de2f6503a","system_id":"levelo_inurba_marseille","lat":43.29899,"lon":5.43662,"is_reserved":false,"is_disabled":false,"rental_uris":{"android":"levelo://app?vid=5feb8f9d-df3e-4036-aaa2-6a9de2f6503a","ios":"levelo://app?vid=5feb8f9d-df3e-4036-aaa2-6a9de2f6503a"},"vehicle_type_id":"4","last_reported":1727014038,"current_range_meters":37600,"station_id":"ce4bhpp2rcd13ifvqhfg","pricing_plan_id":"cebpf4jnsgd1na2vs0mg"},{"bike_id":"00b8cb17-44a1-4aee-ae8f-902ce1415657","system_id":"levelo_inurba_marseille","lat":43.24805,"lon":5.3746,"is_reserved":false,"is_disabled":false,"rental_uris":{"android":"levelo://app?vid=00b8cb17-44a1-4aee-ae8f-902ce1415657","ios":"levelo://app?vid=00b8cb17-44a1-4aee-ae8f-902ce1415657"},"vehicle_type_id":"4","last_reported":1727014038,"current_range_meters":26800,"station_id":"ce4bhgh2rcd13ifvqfb0","pricing_plan_id":"cebpf4jnsgd1na2vs0mg"},{"bike_id":"bd7c3e0a-860c-49fe-a998-d715b61f3929","system_id":"levelo_inurba_marseille","lat":43.30901,"lon":5.36835,"is_reserved":false,"is_disabled":false,"rental_uris":{"android":"levelo://app?vid=bd7c3e0a-860c-49fe-a998-d715b61f3929","ios":"levelo://app?vid=bd7c3e0a-860c-49fe-a998-d715b61f3929"},"vehicle_type_id":"4","last_reported":1727014038,"current_range_meters":22000,"station_id":"ce4bgn92rcd13ifvqbvg","pricing_plan_id":"cebpf4jnsgd1na2vs0mg"},{"bike_id":"f8621f1b-e82b-45e7-8469-e2fdcfbdcca7","system_id":"levelo_inurba_marseille","lat":43.32056,"lon":5.41537,"is_reserved":false,"is_disabled":false,"rental_uris":{"android":"levelo://app?vid=f8621f1b-e82b-45e7-8469-e2fdcfbdcca7","ios":"levelo://app?vid=f8621f1b-e82b-45e7-8469-e2fdcfbdcca7"},"vehicle_type_id":"4","last_reported":1727014038,"current_range_meters":38000,"station_id":"ce4bhq92rcd13ifvqhkg","pricing_plan_id":"cebpf4jnsgd1na2vs0mg"},{"bike_id":"85dead6e-9c70-451c-a362-6759e6d0f604","system_id":"levelo_inurba_marseille","lat":43.275141,"lon":5.384445,"is_reserved":false,"is_disabled":false,"rental_uris":{"android":"levelo://app?vid=85dead6e-9c70-451c-a362-6759e6d0f604","ios":"levelo://app?vid=85dead6e-9c70-451c-a362-6759e6d0f604"},"vehicle_type_id":"4","last_reported":1727014038,"current_range_meters":27200,"station_id":"ce4bhh92rcd13ifvqfi0","pricing_plan_id":"cebpf4jnsgd1na2vs0mg"},{"bike_id":"86cbb0fe-8f3e-4bd0-a9e7-8ff4a6071120","system_id":"levelo_inurba_marseille","lat":43.28259,"lon":5.35064,"is_reserved":false,"is_disabled":false,"rental_uris":{"android":"levelo://app?vid=86cbb0fe-8f3e-4bd0-a9e7-8ff4a6071120","ios":"levelo://app?vid=86cbb0fe-8f3e-4bd0-a9e7-8ff4a6071120"},"vehicle_type_id":"4","last_reported":1727014038,"current_range_meters":10000,"station_id":"ce4bhbp2rcd13ifvqerg","pricing_plan_id":"cebpf4jnsgd1na2vs0mg"},{"bike_id":"92ed882f-44fe-403c-8423-71094b2ecaef","system_id":"levelo_inurba_marseille","lat":43.280273,"lon":5.378386,"is_reserved":false,"is_disabled":false,"rental_uris":{"android":"levelo://app?vid=92ed882f-44fe-403c-8423-71094b2ecaef","ios":"levelo://app?vid=92ed882f-44fe-403c-8423-71094b2ecaef"},"vehicle_type_id":"4","last_reported":1727014038,"current_range_meters":21600,"station_id":"ce4bha12rcd13ifvqee0","pricing_plan_id":"cebpf4jnsgd1na2vs0mg"},{"bike_id":"cf9a7b85-b97c-4605-8252-58b7ca65d188","system_id":"levelo_inurba_marseille","lat":43.30213,"lon":5.39466,"is_reserved":false,"is_disabled":false,"rental_uris":{"android":"levelo://app?vid=cf9a7b85-b97c-4605-8252-58b7ca65d188","ios":"levelo://app?vid=cf9a7b85-b97c-4605-8252-58b7ca65d188"},"vehicle_type_id":"4","last_reported":1727014038,"current_range_meters":30800,"station_id":"ce4bh0p2rcd13ifvqd70","pricing_plan_id":"cebpf4jnsgd1na2vs0mg"},{"bike_id":"b253620b-9638-4dbf-90e7-a12513e56dfc","system_id":"levelo_inurba_marseille","lat":43.28268,"lon":5.35059,"is_reserved":false,"is_disabled":false,"rental_uris":{"android":"levelo://app?vid=b253620b-9638-4dbf-90e7-a12513e56dfc","ios":"levelo://app?vid=b253620b-9638-4dbf-90e7-a12513e56dfc"},"vehicle_type_id":"4","last_reported":1727014038,"current_range_meters":6800,"station_id":"ce4bhbp2rcd13ifvqerg","pricing_plan_id":"cebpf4jnsgd1na2vs0mg"},{"bike_id":"f8e2cd92-8b54-4810-a65c-9e66a181abaf","system_id":"levelo_inurba_marseille","lat":43.25005,"lon":5.38922,"is_reserved":false,"is_disabled":false,"rental_uris":{"android":"levelo://app?vid=f8e2cd92-8b54-4810-a65c-9e66a181abaf","ios":"levelo://app?vid=f8e2cd92-8b54-4810-a65c-9e66a181abaf"},"vehicle_type_id":"4","last_reported":1727014038,"current_range_meters":4800,"station_id":"ce4bhgp2rcd13ifvqfd0","pricing_plan_id":"cebpf4jnsgd1na2vs0mg"},{"bike_id":"4dc01cdf-b89f-474f-bc0e-2879bb7804cc","system_id":"levelo_inurba_marseille","lat":43.2397,"lon":5.36625,"is_reserved":false,"is_disabled":false,"rental_uris":{"android":"levelo://app?vid=4dc01cdf-b89f-474f-bc0e-2879bb7804cc","ios":"levelo://app?vid=4dc01cdf-b89f-474f-bc0e-2879bb7804cc"},"vehicle_type_id":"4","last_reported":1727014038,"current_range_meters":36400,"station_id":"ce4bhi12rcd13ifvqfp0","pricing_plan_id":"cebpf4jnsgd1na2vs0mg"},{"bike_id":"a455464a-3544-4ea7-bbfd-a66a123e573c","system_id":"levelo_inurba_marseille","lat":43.2794,"lon":5.41038,"is_reserved":false,"is_disabled":false,"rental_uris":{"android":"levelo://app?vid=a455464a-3544-4ea7-bbfd-a66a123e573c","ios":"levelo://app?vid=a455464a-3544-4ea7-bbfd-a66a123e573c"},"vehicle_type_id":"4","last_reported":1727014038,"current_range_meters":4400,"station_id":"ce4bhnp2rcd13ifvqh0g","pricing_plan_id":"cebpf4jnsgd1na2vs0mg"},{"bike_id":"39a33512-1884-431f-97b0-7c60d91d2ea4","system_id":"levelo_inurba_marseille","lat":43.30602,"lon":5.37219,"is_reserved":false,"is_disabled":false,"rental_uris":{"android":"levelo://app?vid=39a33512-1884-431f-97b0-7c60d91d2ea4","ios":"levelo://app?vid=39a33512-1884-431f-97b0-7c60d91d2ea4"},"vehicle_type_id":"4","last_reported":1727014038,"current_range_meters":39200,"station_id":"ce4bgqh2rcd13ifvqc4g","pricing_plan_id":"cebpf4jnsgd1na2vs0mg"},{"bike_id":"1102eb3d-2dc8-4019-9e1d-c4670dad7e11","system_id":"levelo_inurba_marseille","lat":43.23968,"lon":5.36622,"is_reserved":false,"is_disabled":false,"rental_uris":{"android":"levelo://app?vid=1102eb3d-2dc8-4019-9e1d-c4670dad7e11","ios":"levelo://app?vid=1102eb3d-2dc8-4019-9e1d-c4670dad7e11"},"vehicle_type_id":"4","last_reported":1727014038,"current_range_meters":11600,"station_id":"ce4bhi12rcd13ifvqfp0","pricing_plan_id":"cebpf4jnsgd1na2vs0mg"},{"bike_id":"d323bc23-4105-4d98-87ab-fb3899c88f8a","system_id":"levelo_inurba_marseille","lat":43.23198,"lon":5.35556,"is_reserved":false,"is_disabled":false,"rental_uris":{"android":"levelo://app?vid=d323bc23-4105-4d98-87ab-fb3899c88f8a","ios":"levelo://app?vid=d323bc23-4105-4d98-87ab-fb3899c88f8a"},"vehicle_type_id":"4","last_reported":1727014038,"current_range_meters":31200,"station_id":"ce4bhu92rcd13ifvqi70","pricing_plan_id":"cebpf4jnsgd1na2vs0mg"},{"bike_id":"974c31d8-15f9-4dd4-a7c8-f26e96b94077","system_id":"levelo_inurba_marseille","lat":43.286074,"lon":5.350871,"is_reserved":false,"is_disabled":false,"rental_uris":{"android":"levelo://app?vid=974c31d8-15f9-4dd4-a7c8-f26e96b94077","ios":"levelo://app?vid=974c31d8-15f9-4dd4-a7c8-f26e96b94077"},"vehicle_type_id":"4","last_reported":1727014038,"current_range_meters":4000,"station_id":"ce4bhch2rcd13ifvqeug","pricing_plan_id":"cebpf4jnsgd1na2vs0mg"},{"bike_id":"8c95e4dd-dcfd-43d4-9a20-cea16208859d","system_id":"levelo_inurba_marseille","lat":43.25012,"lon":5.38913,"is_reserved":false,"is_disabled":false,"rental_uris":{"android":"levelo://app?vid=8c95e4dd-dcfd-43d4-9a20-cea16208859d","ios":"levelo://app?vid=8c95e4dd-dcfd-43d4-9a20-cea16208859d"},"vehicle_type_id":"4","last_reported":1727014038,"current_range_meters":26800,"station_id":"ce4bhgp2rcd13ifvqfd0","pricing_plan_id":"cebpf4jnsgd1na2vs0mg"},{"bike_id":"510fcc7a-9b5e-4a15-a9b4-86c2f0d3b058","system_id":"levelo_inurba_marseille","lat":43.325005,"lon":5.415204,"is_reserved":false,"is_disabled":false,"rental_uris":{"android":"levelo://app?vid=510fcc7a-9b5e-4a15-a9b4-86c2f0d3b058","ios":"levelo://app?vid=510fcc7a-9b5e-4a15-a9b4-86c2f0d3b058"},"vehicle_type_id":"4","last_reported":1727014038,"current_range_meters":38000,"station_id":"ce4bhq12rcd13ifvqhhg","pricing_plan_id":"cebpf4jnsgd1na2vs0mg"},{"bike_id":"1be7b04a-e9c9-421f-9fc2-0e2a546f4a94","system_id":"levelo_inurba_marseille","lat":43.31574,"lon":5.40593,"is_reserved":false,"is_disabled":false,"rental_uris":{"android":"levelo://app?vid=1be7b04a-e9c9-421f-9fc2-0e2a546f4a94","ios":"levelo://app?vid=1be7b04a-e9c9-421f-9fc2-0e2a546f4a94"},"vehicle_type_id":"4","last_reported":1727014038,"current_range_meters":21600,"station_id":"","pricing_plan_id":"cebpf4jnsgd1na2vs0mg"},{"bike_id":"45fe8ee9-3848-4424-a341-bffa7da353f9","system_id":"levelo_inurba_marseille","lat":43.29279,"lon":5.40903,"is_reserved":false,"is_disabled":false,"rental_uris":{"android":"levelo://app?vid=45fe8ee9-3848-4424-a341-bffa7da353f9","ios":"levelo://app?vid=45fe8ee9-3848-4424-a341-bffa7da353f9"},"vehicle_type_id":"4","last_reported":1727014038,"current_range_meters":17600,"station_id":"ce4bh192rcd13ifvqdc0","pricing_plan_id":"cebpf4jnsgd1na2vs0mg"},{"bike_id":"34ca874c-a33e-4a87-b458-001601984402","system_id":"levelo_inurba_marseille","lat":43.23194,"lon":5.35558,"is_reserved":false,"is_disabled":false,"rental_uris":{"android":"levelo://app?vid=34ca874c-a33e-4a87-b458-001601984402","ios":"levelo://app?vid=34ca874c-a33e-4a87-b458-001601984402"},"vehicle_type_id":"4","last_reported":1727014038,"current_range_meters":30400,"station_id":"ce4bhu92rcd13ifvqi70","pricing_plan_id":"cebpf4jnsgd1na2vs0mg"},{"bike_id":"36dc71fe-bfc9-4a4d-b2ef-39ebb067c458","system_id":"levelo_inurba_marseille","lat":43.29554,"lon":5.42285,"is_reserved":false,"is_disabled":false,"rental_uris":{"android":"levelo://app?vid=36dc71fe-bfc9-4a4d-b2ef-39ebb067c458","ios":"levelo://app?vid=36dc71fe-bfc9-4a4d-b2ef-39ebb067c458"},"vehicle_type_id":"4","last_reported":1727014038,"current_range_meters":36800,"station_id":"ce4bhph2rcd13ifvqhdg","pricing_plan_id":"cebpf4jnsgd1na2vs0mg"},{"bike_id":"e7a7c4c1-0f68-4027-8eb8-4a1c1dd29633","system_id":"levelo_inurba_marseille","lat":43.30307,"lon":5.36896,"is_reserved":false,"is_disabled":false,"rental_uris":{"android":"levelo://app?vid=e7a7c4c1-0f68-4027-8eb8-4a1c1dd29633","ios":"levelo://app?vid=e7a7c4c1-0f68-4027-8eb8-4a1c1dd29633"},"vehicle_type_id":"4","last_reported":1727014038,"current_range_meters":14000,"station_id":"ce4bgqh2rcd13ifvqc5g","pricing_plan_id":"cebpf4jnsgd1na2vs0mg"},{"bike_id":"baad33e0-e11d-4e13-9910-d7ae58107e3b","system_id":"levelo_inurba_marseille","lat":43.32106,"lon":5.36772,"is_reserved":false,"is_disabled":false,"rental_uris":{"android":"levelo://app?vid=baad33e0-e11d-4e13-9910-d7ae58107e3b","ios":"levelo://app?vid=baad33e0-e11d-4e13-9910-d7ae58107e3b"},"vehicle_type_id":"4","last_reported":1727014038,"current_range_meters":36400,"station_id":"","pricing_plan_id":"cebpf4jnsgd1na2vs0mg"},{"bike_id":"bcbe6095-74c6-4e6a-9235-6041481bec8a","system_id":"levelo_inurba_marseille","lat":43.23184,"lon":5.39984,"is_reserved":false,"is_disabled":false,"rental_uris":{"android":"levelo://app?vid=bcbe6095-74c6-4e6a-9235-6041481bec8a","ios":"levelo://app?vid=bcbe6095-74c6-4e6a-9235-6041481bec8a"},"vehicle_type_id":"4","last_reported":1727014038,"current_range_meters":7200,"station_id":"ce4bhn12rcd13ifvqgqg","pricing_plan_id":"cebpf4jnsgd1na2vs0mg"},{"bike_id":"1437b30c-7d45-456f-be5f-6d19204997b1","system_id":"levelo_inurba_marseille","lat":43.32485,"lon":5.36563,"is_reserved":false,"is_disabled":false,"rental_uris":{"android":"levelo://app?vid=1437b30c-7d45-456f-be5f-6d19204997b1","ios":"levelo://app?vid=1437b30c-7d45-456f-be5f-6d19204997b1"},"vehicle_type_id":"4","last_reported":1727014038,"current_range_meters":27200,"station_id":"ce4bhs12rcd13ifvqhvg","pricing_plan_id":"cebpf4jnsgd1na2vs0mg"},{"bike_id":"128ca26e-1dbb-4422-993a-f439c409861c","system_id":"levelo_inurba_marseille","lat":43.26553,"lon":5.37284,"is_reserved":false,"is_disabled":false,"rental_uris":{"android":"levelo://app?vid=128ca26e-1dbb-4422-993a-f439c409861c","ios":"levelo://app?vid=128ca26e-1dbb-4422-993a-f439c409861c"},"vehicle_type_id":"4","last_reported":1727014038,"current_range_meters":21600,"station_id":"ce4bhg12rcd13ifvqf70","pricing_plan_id":"cebpf4jnsgd1na2vs0mg"},{"bike_id":"7ae379da-9440-4378-a690-86693789de4b","system_id":"levelo_inurba_marseille","lat":43.29555,"lon":5.42283,"is_reserved":false,"is_disabled":false,"rental_uris":{"android":"levelo://app?vid=7ae379da-9440-4378-a690-86693789de4b","ios":"levelo://app?vid=7ae379da-9440-4378-a690-86693789de4b"},"vehicle_type_id":"4","last_reported":1727014038,"current_range_meters":17600,"station_id":"ce4bhph2rcd13ifvqhdg","pricing_plan_id":"cebpf4jnsgd1na2vs0mg"},{"bike_id":"02552a84-93ac-4f47-9115-b594cbf16674","system_id":"levelo_inurba_marseille","lat":43.29558,"lon":5.42294,"is_reserved":false,"is_disabled":false,"rental_uris":{"android":"levelo://app?vid=02552a84-93ac-4f47-9115-b594cbf16674","ios":"levelo://app?vid=02552a84-93ac-4f47-9115-b594cbf16674"},"vehicle_type_id":"4","last_reported":1727014038,"current_range_meters":32000,"station_id":"ce4bhph2rcd13ifvqhdg","pricing_plan_id":"cebpf4jnsgd1na2vs0mg"},{"bike_id":"0a218b19-b2f2-4ff3-8045-a169a885f5c4","system_id":"levelo_inurba_marseille","lat":43.258656,"lon":5.398999,"is_reserved":false,"is_disabled":false,"rental_uris":{"android":"levelo://app?vid=0a218b19-b2f2-4ff3-8045-a169a885f5c4","ios":"levelo://app?vid=0a218b19-b2f2-4ff3-8045-a169a885f5c4"},"vehicle_type_id":"4","last_reported":1727014038,"current_range_meters":6800,"station_id":"ce4bhl92rcd13ifvqghg","pricing_plan_id":"cebpf4jnsgd1na2vs0mg"},{"bike_id":"e9a1e151-756c-4e1b-a057-3d1363e4584d","system_id":"levelo_inurba_marseille","lat":43.28843,"lon":5.35849,"is_reserved":false,"is_disabled":false,"rental_uris":{"android":"levelo://app?vid=e9a1e151-756c-4e1b-a057-3d1363e4584d","ios":"levelo://app?vid=e9a1e151-756c-4e1b-a057-3d1363e4584d"},"vehicle_type_id":"4","last_reported":1727014038,"current_range_meters":31200,"station_id":"ce4bhb12rcd13ifvqem0","pricing_plan_id":"cebpf4jnsgd1na2vs0mg"},{"bike_id":"f76df8ad-e94b-4735-a9e4-73b0c270df2d","system_id":"levelo_inurba_marseille","lat":43.28271,"lon":5.35065,"is_reserved":false,"is_disabled":false,"rental_uris":{"android":"levelo://app?vid=f76df8ad-e94b-4735-a9e4-73b0c270df2d","ios":"levelo://app?vid=f76df8ad-e94b-4735-a9e4-73b0c270df2d"},"vehicle_type_id":"4","last_reported":1727014038,"current_range_meters":27200,"station_id":"ce4bhbp2rcd13ifvqerg","pricing_plan_id":"cebpf4jnsgd1na2vs0mg"},{"bike_id":"6e6f62bf-d7a1-4114-8267-6c7fb56f9821","system_id":"levelo_inurba_marseille","lat":43.29843,"lon":5.36268,"is_reserved":false,"is_disabled":false,"rental_uris":{"android":"levelo://app?vid=6e6f62bf-d7a1-4114-8267-6c7fb56f9821","ios":"levelo://app?vid=6e6f62bf-d7a1-4114-8267-6c7fb56f9821"},"vehicle_type_id":"4","last_reported":1727014038,"current_range_meters":33600,"station_id":"ce4bgpp2rcd13ifvqc3g","pricing_plan_id":"cebpf4jnsgd1na2vs0mg"},{"bike_id":"a73686db-afc2-4b6d-aa38-a9f0f517d109","system_id":"levelo_inurba_marseille","lat":43.29853,"lon":5.36286,"is_reserved":false,"is_disabled":false,"rental_uris":{"android":"levelo://app?vid=a73686db-afc2-4b6d-aa38-a9f0f517d109","ios":"levelo://app?vid=a73686db-afc2-4b6d-aa38-a9f0f517d109"},"vehicle_type_id":"4","last_reported":1727014038,"current_range_meters":26800,"station_id":"ce4bgpp2rcd13ifvqc3g","pricing_plan_id":"cebpf4jnsgd1na2vs0mg"},{"bike_id":"b49e8aa4-b4d7-4f9d-a437-8d1bbdfe618a","system_id":"levelo_inurba_marseille","lat":43.29557,"lon":5.42284,"is_reserved":false,"is_disabled":false,"rental_uris":{"android":"levelo://app?vid=b49e8aa4-b4d7-4f9d-a437-8d1bbdfe618a","ios":"levelo://app?vid=b49e8aa4-b4d7-4f9d-a437-8d1bbdfe618a"},"vehicle_type_id":"4","last_reported":1727014038,"current_range_meters":39200,"station_id":"ce4bhph2rcd13ifvqhdg","pricing_plan_id":"cebpf4jnsgd1na2vs0mg"},{"bike_id":"ee2d9ab1-04f5-486a-bb5a-fcd6379f1df0","system_id":"levelo_inurba_marseille","lat":43.23194,"lon":5.35551,"is_reserved":false,"is_disabled":false,"rental_uris":{"android":"levelo://app?vid=ee2d9ab1-04f5-486a-bb5a-fcd6379f1df0","ios":"levelo://app?vid=ee2d9ab1-04f5-486a-bb5a-fcd6379f1df0"},"vehicle_type_id":"4","last_reported":1727014038,"current_range_meters":2800,"station_id":"ce4bhu92rcd13ifvqi70","pricing_plan_id":"cebpf4jnsgd1na2vs0mg"},{"bike_id":"b5dac5e1-0a40-4def-8c62-f68a67a7e0a5","system_id":"levelo_inurba_marseille","lat":43.32651,"lon":5.43822,"is_reserved":false,"is_disabled":false,"rental_uris":{"android":"levelo://app?vid=b5dac5e1-0a40-4def-8c62-f68a67a7e0a5","ios":"levelo://app?vid=b5dac5e1-0a40-4def-8c62-f68a67a7e0a5"},"vehicle_type_id":"4","last_reported":1727014038,"current_range_meters":18000,"station_id":"","pricing_plan_id":"cebpf4jnsgd1na2vs0mg"},{"bike_id":"ed1091d8-bd8f-418d-8680-a8be5df05bee","system_id":"levelo_inurba_marseille","lat":43.26788,"lon":5.39411,"is_reserved":false,"is_disabled":false,"rental_uris":{"android":"levelo://app?vid=ed1091d8-bd8f-418d-8680-a8be5df05bee","ios":"levelo://app?vid=ed1091d8-bd8f-418d-8680-a8be5df05bee"},"vehicle_type_id":"4","last_reported":1727014038,"current_range_meters":6000,"station_id":"ce4bhh12rcd13ifvqfg0","pricing_plan_id":"cebpf4jnsgd1na2vs0mg"},{"bike_id":"79725833-569d-4b84-8b31-bcdcbc2f6df7","system_id":"levelo_inurba_marseille","lat":43.28952,"lon":5.36401,"is_reserved":false,"is_disabled":false,"rental_uris":{"android":"levelo://app?vid=79725833-569d-4b84-8b31-bcdcbc2f6df7","ios":"levelo://app?vid=79725833-569d-4b84-8b31-bcdcbc2f6df7"},"vehicle_type_id":"4","last_reported":1727014038,"current_range_meters":20800,"station_id":"ce4bhc92rcd13ifvqetg","pricing_plan_id":"cebpf4jnsgd1na2vs0mg"},{"bike_id":"99138a47-30bd-4ae2-aa47-7de407305e8f","system_id":"levelo_inurba_marseille","lat":43.26559,"lon":5.39006,"is_reserved":false,"is_disabled":false,"rental_uris":{"android":"levelo://app?vid=99138a47-30bd-4ae2-aa47-7de407305e8f","ios":"levelo://app?vid=99138a47-30bd-4ae2-aa47-7de407305e8f"},"vehicle_type_id":"4","last_reported":1727014038,"current_range_meters":38800,"station_id":"ce4bhe12rcd13ifvqf30","pricing_plan_id":"cebpf4jnsgd1na2vs0mg"},{"bike_id":"71745df1-8511-42d1-b236-94ecb1109e61","system_id":"levelo_inurba_marseille","lat":43.31689,"lon":5.39617,"is_reserved":false,"is_disabled":false,"rental_uris":{"android":"levelo://app?vid=71745df1-8511-42d1-b236-94ecb1109e61","ios":"levelo://app?vid=71745df1-8511-42d1-b236-94ecb1109e61"},"vehicle_type_id":"4","last_reported":1727014038,"current_range_meters":8400,"station_id":"","pricing_plan_id":"cebpf4jnsgd1na2vs0mg"},{"bike_id":"429a8509-53ef-4f50-8d3e-2590263747f2","system_id":"levelo_inurba_marseille","lat":43.33022,"lon":5.39044,"is_reserved":false,"is_disabled":false,"rental_uris":{"android":"levelo://app?vid=429a8509-53ef-4f50-8d3e-2590263747f2","ios":"levelo://app?vid=429a8509-53ef-4f50-8d3e-2590263747f2"},"vehicle_type_id":"4","last_reported":1727014038,"current_range_meters":6000,"station_id":"ce4bhr92rcd13ifvqhrg","pricing_plan_id":"cebpf4jnsgd1na2vs0mg"},{"bike_id":"31f63b1e-de95-4253-a4ba-6b8a68b225a9","system_id":"levelo_inurba_marseille","lat":43.29227,"lon":5.36053,"is_reserved":false,"is_disabled":false,"rental_uris":{"android":"levelo://app?vid=31f63b1e-de95-4253-a4ba-6b8a68b225a9","ios":"levelo://app?vid=31f63b1e-de95-4253-a4ba-6b8a68b225a9"},"vehicle_type_id":"4","last_reported":1727014038,"current_range_meters":16800,"station_id":"ce4bhbh2rcd13ifvqeqg","pricing_plan_id":"cebpf4jnsgd1na2vs0mg"},{"bike_id":"d9c56186-e13b-4cc1-8a6f-275319844107","system_id":"levelo_inurba_marseille","lat":43.31996,"lon":5.38148,"is_reserved":false,"is_disabled":false,"rental_uris":{"android":"levelo://app?vid=d9c56186-e13b-4cc1-8a6f-275319844107","ios":"levelo://app?vid=d9c56186-e13b-4cc1-8a6f-275319844107"},"vehicle_type_id":"4","last_reported":1727014038,"current_range_meters":36400,"station_id":"ce4bhr12rcd13ifvqhpg","pricing_plan_id":"cebpf4jnsgd1na2vs0mg"},{"bike_id":"3c42e052-6622-4625-bf38-ca40ad89c93b","system_id":"levelo_inurba_marseille","lat":43.29854,"lon":5.36289,"is_reserved":false,"is_disabled":false,"rental_uris":{"android":"levelo://app?vid=3c42e052-6622-4625-bf38-ca40ad89c93b","ios":"levelo://app?vid=3c42e052-6622-4625-bf38-ca40ad89c93b"},"vehicle_type_id":"4","last_reported":1727014038,"current_range_meters":20400,"station_id":"ce4bgpp2rcd13ifvqc3g","pricing_plan_id":"cebpf4jnsgd1na2vs0mg"},{"bike_id":"ed34894f-e0d0-4aa6-83a3-778d4afa97c3","system_id":"levelo_inurba_marseille","lat":43.311678,"lon":5.425313,"is_reserved":false,"is_disabled":false,"rental_uris":{"android":"levelo://app?vid=ed34894f-e0d0-4aa6-83a3-778d4afa97c3","ios":"levelo://app?vid=ed34894f-e0d0-4aa6-83a3-778d4afa97c3"},"vehicle_type_id":"4","last_reported":1727014038,"current_range_meters":25600,"station_id":"","pricing_plan_id":"cebpf4jnsgd1na2vs0mg"},{"bike_id":"32457331-836f-4e2c-ade2-05278a6ef20c","system_id":"levelo_inurba_marseille","lat":43.25115,"lon":5.40332,"is_reserved":false,"is_disabled":false,"rental_uris":{"android":"levelo://app?vid=32457331-836f-4e2c-ade2-05278a6ef20c","ios":"levelo://app?vid=32457331-836f-4e2c-ade2-05278a6ef20c"},"vehicle_type_id":"4","last_reported":1727014038,"current_range_meters":17600,"station_id":"ce4bhlh2rcd13ifvqgig","pricing_plan_id":"cebpf4jnsgd1na2vs0mg"},{"bike_id":"7915a7dc-55c7-4825-9ead-6e970efe0c47","system_id":"levelo_inurba_marseille","lat":43.26783,"lon":5.39413,"is_reserved":false,"is_disabled":false,"rental_uris":{"android":"levelo://app?vid=7915a7dc-55c7-4825-9ead-6e970efe0c47","ios":"levelo://app?vid=7915a7dc-55c7-4825-9ead-6e970efe0c47"},"vehicle_type_id":"4","last_reported":1727014038,"current_range_meters":8400,"station_id":"ce4bhh12rcd13ifvqfg0","pricing_plan_id":"cebpf4jnsgd1na2vs0mg"},{"bike_id":"d399b5a5-50ac-471e-9ce7-cb1b1b3a1724","system_id":"levelo_inurba_marseille","lat":43.33023,"lon":5.39039,"is_reserved":false,"is_disabled":false,"rental_uris":{"android":"levelo://app?vid=d399b5a5-50ac-471e-9ce7-cb1b1b3a1724","ios":"levelo://app?vid=d399b5a5-50ac-471e-9ce7-cb1b1b3a1724"},"vehicle_type_id":"4","last_reported":1727014038,"current_range_meters":37600,"station_id":"ce4bhr92rcd13ifvqhrg","pricing_plan_id":"cebpf4jnsgd1na2vs0mg"},{"bike_id":"22e4a15e-6041-4c71-b288-1c12c69d262d","system_id":"levelo_inurba_marseille","lat":43.33727,"lon":5.39182,"is_reserved":false,"is_disabled":false,"rental_uris":{"android":"levelo://app?vid=22e4a15e-6041-4c71-b288-1c12c69d262d","ios":"levelo://app?vid=22e4a15e-6041-4c71-b288-1c12c69d262d"},"vehicle_type_id":"4","last_reported":1727014038,"current_range_meters":8000,"station_id":"ce4bhr92rcd13ifvqhsg","pricing_plan_id":"cebpf4jnsgd1na2vs0mg"},{"bike_id":"e2b19855-27e1-4ecb-baad-016998751a64","system_id":"levelo_inurba_marseille","lat":43.25004,"lon":5.3891,"is_reserved":false,"is_disabled":false,"rental_uris":{"android":"levelo://app?vid=e2b19855-27e1-4ecb-baad-016998751a64","ios":"levelo://app?vid=e2b19855-27e1-4ecb-baad-016998751a64"},"vehicle_type_id":"4","last_reported":1727014038,"current_range_meters":24800,"station_id":"ce4bhgp2rcd13ifvqfd0","pricing_plan_id":"cebpf4jnsgd1na2vs0mg"},{"bike_id":"ccb28739-8e64-4168-b4cc-373d4612f470","system_id":"levelo_inurba_marseille","lat":43.29,"lon":5.35602,"is_reserved":false,"is_disabled":false,"rental_uris":{"android":"levelo://app?vid=ccb28739-8e64-4168-b4cc-373d4612f470","ios":"levelo://app?vid=ccb28739-8e64-4168-b4cc-373d4612f470"},"vehicle_type_id":"4","last_reported":1727014038,"current_range_meters":19200,"station_id":"ce4bhb92rcd13ifvqen0","pricing_plan_id":"cebpf4jnsgd1na2vs0mg"},{"bike_id":"7f54fc07-b683-4cbc-8cef-46e1535322ed","system_id":"levelo_inurba_marseille","lat":43.29585,"lon":5.36741,"is_reserved":false,"is_disabled":false,"rental_uris":{"android":"levelo://app?vid=7f54fc07-b683-4cbc-8cef-46e1535322ed","ios":"levelo://app?vid=7f54fc07-b683-4cbc-8cef-46e1535322ed"},"vehicle_type_id":"4","last_reported":1727014038,"current_range_meters":0,"station_id":"ce4bgph2rcd13ifvqc2g","pricing_plan_id":"cebpf4jnsgd1na2vs0mg"},{"bike_id":"5f885e53-d03b-469a-a21c-6a00390ffe91","system_id":"levelo_inurba_marseille","lat":43.254913,"lon":5.37637,"is_reserved":false,"is_disabled":false,"rental_uris":{"android":"levelo://app?vid=5f885e53-d03b-469a-a21c-6a00390ffe91","ios":"levelo://app?vid=5f885e53-d03b-469a-a21c-6a00390ffe91"},"vehicle_type_id":"4","last_reported":1727014038,"current_range_meters":39200,"station_id":"ce4bhh12rcd13ifvqff0","pricing_plan_id":"cebpf4jnsgd1na2vs0mg"},{"bike_id":"ab9de632-0a34-4da5-8550-8ec2dcde3f4c","system_id":"levelo_inurba_marseille","lat":43.2319,"lon":5.39981,"is_reserved":false,"is_disabled":false,"rental_uris":{"android":"levelo://app?vid=ab9de632-0a34-4da5-8550-8ec2dcde3f4c","ios":"levelo://app?vid=ab9de632-0a34-4da5-8550-8ec2dcde3f4c"},"vehicle_type_id":"4","last_reported":1727014038,"current_range_meters":38800,"station_id":"ce4bhn12rcd13ifvqgqg","pricing_plan_id":"cebpf4jnsgd1na2vs0mg"},{"bike_id":"fd892628-2ded-4e66-badb-53fa02b81d40","system_id":"levelo_inurba_marseille","lat":43.24179,"lon":5.39736,"is_reserved":false,"is_disabled":false,"rental_uris":{"android":"levelo://app?vid=fd892628-2ded-4e66-badb-53fa02b81d40","ios":"levelo://app?vid=fd892628-2ded-4e66-badb-53fa02b81d40"},"vehicle_type_id":"4","last_reported":1727014038,"current_range_meters":39200,"station_id":"ce4bhn12rcd13ifvqgpg","pricing_plan_id":"cebpf4jnsgd1na2vs0mg"},{"bike_id":"d17218e2-0191-4570-8ff9-ebd961e6d45b","system_id":"levelo_inurba_marseille","lat":43.28152,"lon":5.42636,"is_reserved":false,"is_disabled":false,"rental_uris":{"android":"levelo://app?vid=d17218e2-0191-4570-8ff9-ebd961e6d45b","ios":"levelo://app?vid=d17218e2-0191-4570-8ff9-ebd961e6d45b"},"vehicle_type_id":"4","last_reported":1727014038,"current_range_meters":38400,"station_id":"ce4bhnh2rcd13ifvqgug","pricing_plan_id":"cebpf4jnsgd1na2vs0mg"},{"bike_id":"a67b4287-da83-43eb-8e86-126974c9a016","system_id":"levelo_inurba_marseille","lat":43.29549,"lon":5.42282,"is_reserved":false,"is_disabled":false,"rental_uris":{"android":"levelo://app?vid=a67b4287-da83-43eb-8e86-126974c9a016","ios":"levelo://app?vid=a67b4287-da83-43eb-8e86-126974c9a016"},"vehicle_type_id":"4","last_reported":1727014038,"current_range_meters":28800,"station_id":"ce4bhph2rcd13ifvqhdg","pricing_plan_id":"cebpf4jnsgd1na2vs0mg"},{"bike_id":"231df590-15eb-4c0a-bdf6-dddd3cb861cb","system_id":"levelo_inurba_marseille","lat":43.337444,"lon":5.374475,"is_reserved":false,"is_disabled":false,"rental_uris":{"android":"levelo://app?vid=231df590-15eb-4c0a-bdf6-dddd3cb861cb","ios":"levelo://app?vid=231df590-15eb-4c0a-bdf6-dddd3cb861cb"},"vehicle_type_id":"4","last_reported":1727014038,"current_range_meters":26000,"station_id":"","pricing_plan_id":"cebpf4jnsgd1na2vs0mg"},{"bike_id":"3b211465-5030-4ebd-b5e2-78bdfeebc435","system_id":"levelo_inurba_marseille","lat":43.33717,"lon":5.39177,"is_reserved":false,"is_disabled":false,"rental_uris":{"android":"levelo://app?vid=3b211465-5030-4ebd-b5e2-78bdfeebc435","ios":"levelo://app?vid=3b211465-5030-4ebd-b5e2-78bdfeebc435"},"vehicle_type_id":"4","last_reported":1727014038,"current_range_meters":27200,"station_id":"ce4bhr92rcd13ifvqhsg","pricing_plan_id":"cebpf4jnsgd1na2vs0mg"},{"bike_id":"d993d452-22b6-441f-a3fc-bf189768d438","system_id":"levelo_inurba_marseille","lat":43.29848,"lon":5.36271,"is_reserved":false,"is_disabled":false,"rental_uris":{"android":"levelo://app?vid=d993d452-22b6-441f-a3fc-bf189768d438","ios":"levelo://app?vid=d993d452-22b6-441f-a3fc-bf189768d438"},"vehicle_type_id":"4","last_reported":1727014038,"current_range_meters":24800,"station_id":"ce4bgpp2rcd13ifvqc3g","pricing_plan_id":"cebpf4jnsgd1na2vs0mg"},{"bike_id":"ee87174a-c99c-4645-a1ad-4c74b35b7de4","system_id":"levelo_inurba_marseille","lat":43.31083,"lon":5.42432,"is_reserved":false,"is_disabled":false,"rental_uris":{"android":"levelo://app?vid=ee87174a-c99c-4645-a1ad-4c74b35b7de4","ios":"levelo://app?vid=ee87174a-c99c-4645-a1ad-4c74b35b7de4"},"vehicle_type_id":"4","last_reported":1727014038,"current_range_meters":38800,"station_id":"ce4bhp92rcd13ifvqhag","pricing_plan_id":"cebpf4jnsgd1na2vs0mg"},{"bike_id":"3e156987-96e3-48ad-8746-0582637bdaa1","system_id":"levelo_inurba_marseille","lat":43.29897,"lon":5.43656,"is_reserved":false,"is_disabled":false,"rental_uris":{"android":"levelo://app?vid=3e156987-96e3-48ad-8746-0582637bdaa1","ios":"levelo://app?vid=3e156987-96e3-48ad-8746-0582637bdaa1"},"vehicle_type_id":"4","last_reported":1727014038,"current_range_meters":24000,"station_id":"ce4bhpp2rcd13ifvqhfg","pricing_plan_id":"cebpf4jnsgd1na2vs0mg"},{"bike_id":"6fcc8cb6-d3f6-44cd-92ef-ec521e3c06ac","system_id":"levelo_inurba_marseille","lat":43.29289,"lon":5.36915,"is_reserved":false,"is_disabled":false,"rental_uris":{"android":"levelo://app?vid=6fcc8cb6-d3f6-44cd-92ef-ec521e3c06ac","ios":"levelo://app?vid=6fcc8cb6-d3f6-44cd-92ef-ec521e3c06ac"},"vehicle_type_id":"4","last_reported":1727014038,"current_range_meters":35200,"station_id":"","pricing_plan_id":"cebpf4jnsgd1na2vs0mg"},{"bike_id":"f186c300-7412-43e0-b024-9070c161185c","system_id":"levelo_inurba_marseille","lat":43.28277,"lon":5.35073,"is_reserved":false,"is_disabled":false,"rental_uris":{"android":"levelo://app?vid=f186c300-7412-43e0-b024-9070c161185c","ios":"levelo://app?vid=f186c300-7412-43e0-b024-9070c161185c"},"vehicle_type_id":"4","last_reported":1727014038,"current_range_meters":12400,"station_id":"ce4bhbp2rcd13ifvqerg","pricing_plan_id":"cebpf4jnsgd1na2vs0mg"},{"bike_id":"55f2771c-53ff-4823-bded-f545474af69a","system_id":"levelo_inurba_marseille","lat":43.23198,"lon":5.3556,"is_reserved":false,"is_disabled":false,"rental_uris":{"android":"levelo://app?vid=55f2771c-53ff-4823-bded-f545474af69a","ios":"levelo://app?vid=55f2771c-53ff-4823-bded-f545474af69a"},"vehicle_type_id":"4","last_reported":1727014038,"current_range_meters":8000,"station_id":"ce4bhu92rcd13ifvqi70","pricing_plan_id":"cebpf4jnsgd1na2vs0mg"},{"bike_id":"a1041eec-eb7a-4499-ba20-a56a8dd768ec","system_id":"levelo_inurba_marseille","lat":43.30356,"lon":5.41888,"is_reserved":false,"is_disabled":false,"rental_uris":{"android":"levelo://app?vid=a1041eec-eb7a-4499-ba20-a56a8dd768ec","ios":"levelo://app?vid=a1041eec-eb7a-4499-ba20-a56a8dd768ec"},"vehicle_type_id":"4","last_reported":1727014038,"current_range_meters":16000,"station_id":"ce4bhop2rcd13ifvqh7g","pricing_plan_id":"cebpf4jnsgd1na2vs0mg"},{"bike_id":"56cf3414-a2dc-42aa-8492-b3cd5954feff","system_id":"levelo_inurba_marseille","lat":43.28154,"lon":5.42641,"is_reserved":false,"is_disabled":false,"rental_uris":{"android":"levelo://app?vid=56cf3414-a2dc-42aa-8492-b3cd5954feff","ios":"levelo://app?vid=56cf3414-a2dc-42aa-8492-b3cd5954feff"},"vehicle_type_id":"4","last_reported":1727014038,"current_range_meters":38400,"station_id":"ce4bhnh2rcd13ifvqgug","pricing_plan_id":"cebpf4jnsgd1na2vs0mg"},{"bike_id":"c1c1b18a-49f5-41a2-a471-ed8b62206a38","system_id":"levelo_inurba_marseille","lat":43.29616,"lon":5.37156,"is_reserved":false,"is_disabled":false,"rental_uris":{"android":"levelo://app?vid=c1c1b18a-49f5-41a2-a471-ed8b62206a38","ios":"levelo://app?vid=c1c1b18a-49f5-41a2-a471-ed8b62206a38"},"vehicle_type_id":"4","last_reported":1727014038,"current_range_meters":6400,"station_id":"ce4bgnh2rcd13ifvqc0g","pricing_plan_id":"cebpf4jnsgd1na2vs0mg"},{"bike_id":"69428265-8326-46aa-ab94-56749389a2b7","system_id":"levelo_inurba_marseille","lat":43.30422,"lon":5.41277,"is_reserved":false,"is_disabled":false,"rental_uris":{"android":"levelo://app?vid=69428265-8326-46aa-ab94-56749389a2b7","ios":"levelo://app?vid=69428265-8326-46aa-ab94-56749389a2b7"},"vehicle_type_id":"4","last_reported":1727014038,"current_range_meters":8800,"station_id":"ce4bhop2rcd13ifvqh8g","pricing_plan_id":"cebpf4jnsgd1na2vs0mg"},{"bike_id":"7024a2f2-5452-4e67-9016-95119757ca6d","system_id":"levelo_inurba_marseille","lat":43.27214,"lon":5.39177,"is_reserved":false,"is_disabled":false,"rental_uris":{"android":"levelo://app?vid=7024a2f2-5452-4e67-9016-95119757ca6d","ios":"levelo://app?vid=7024a2f2-5452-4e67-9016-95119757ca6d"},"vehicle_type_id":"4","last_reported":1727014038,"current_range_meters":17200,"station_id":"ce4bhhp2rcd13ifvqfm0","pricing_plan_id":"cebpf4jnsgd1na2vs0mg"},{"bike_id":"3113b1eb-f7b7-4ac0-bd18-3aa32975f9e6","system_id":"levelo_inurba_marseille","lat":43.25238,"lon":5.38609,"is_reserved":false,"is_disabled":false,"rental_uris":{"android":"levelo://app?vid=3113b1eb-f7b7-4ac0-bd18-3aa32975f9e6","ios":"levelo://app?vid=3113b1eb-f7b7-4ac0-bd18-3aa32975f9e6"},"vehicle_type_id":"4","last_reported":1727014038,"current_range_meters":34800,"station_id":"","pricing_plan_id":"cebpf4jnsgd1na2vs0mg"},{"bike_id":"873e7300-26b3-49b0-b308-7d5574e4dac9","system_id":"levelo_inurba_marseille","lat":43.28267,"lon":5.35068,"is_reserved":false,"is_disabled":false,"rental_uris":{"android":"levelo://app?vid=873e7300-26b3-49b0-b308-7d5574e4dac9","ios":"levelo://app?vid=873e7300-26b3-49b0-b308-7d5574e4dac9"},"vehicle_type_id":"4","last_reported":1727014038,"current_range_meters":38400,"station_id":"ce4bhbp2rcd13ifvqerg","pricing_plan_id":"cebpf4jnsgd1na2vs0mg"},{"bike_id":"2347817f-e20e-4496-af0e-1f65e3ba6aef","system_id":"levelo_inurba_marseille","lat":43.32108,"lon":5.36777,"is_reserved":false,"is_disabled":false,"rental_uris":{"android":"levelo://app?vid=2347817f-e20e-4496-af0e-1f65e3ba6aef","ios":"levelo://app?vid=2347817f-e20e-4496-af0e-1f65e3ba6aef"},"vehicle_type_id":"4","last_reported":1727014038,"current_range_meters":37600,"station_id":"","pricing_plan_id":"cebpf4jnsgd1na2vs0mg"},{"bike_id":"add0be89-cdd9-4216-be7f-9000a0b9d2c6","system_id":"levelo_inurba_marseille","lat":43.28001,"lon":5.400042,"is_reserved":false,"is_disabled":false,"rental_uris":{"android":"levelo://app?vid=add0be89-cdd9-4216-be7f-9000a0b9d2c6","ios":"levelo://app?vid=add0be89-cdd9-4216-be7f-9000a0b9d2c6"},"vehicle_type_id":"4","last_reported":1727014038,"current_range_meters":24400,"station_id":"ce4bho92rcd13ifvqh4g","pricing_plan_id":"cebpf4jnsgd1na2vs0mg"},{"bike_id":"eab9455d-4834-45cd-9e5b-4d136258d9ca","system_id":"levelo_inurba_marseille","lat":43.24392,"lon":5.37062,"is_reserved":false,"is_disabled":false,"rental_uris":{"android":"levelo://app?vid=eab9455d-4834-45cd-9e5b-4d136258d9ca","ios":"levelo://app?vid=eab9455d-4834-45cd-9e5b-4d136258d9ca"},"vehicle_type_id":"4","last_reported":1727014038,"current_range_meters":38800,"station_id":"ce4bhhh2rcd13ifvqfk0","pricing_plan_id":"cebpf4jnsgd1na2vs0mg"},{"bike_id":"3314adbf-644e-4dae-94fb-1dcc34ff9d73","system_id":"levelo_inurba_marseille","lat":43.24653,"lon":5.38889,"is_reserved":false,"is_disabled":false,"rental_uris":{"android":"levelo://app?vid=3314adbf-644e-4dae-94fb-1dcc34ff9d73","ios":"levelo://app?vid=3314adbf-644e-4dae-94fb-1dcc34ff9d73"},"vehicle_type_id":"4","last_reported":1727014038,"current_range_meters":38000,"station_id":"ce4bhg12rcd13ifvqf60","pricing_plan_id":"cebpf4jnsgd1na2vs0mg"},{"bike_id":"8ec9ccc7-b489-4775-989c-ccac4806d2f4","system_id":"levelo_inurba_marseille","lat":43.22932,"lon":5.35375,"is_reserved":false,"is_disabled":false,"rental_uris":{"android":"levelo://app?vid=8ec9ccc7-b489-4775-989c-ccac4806d2f4","ios":"levelo://app?vid=8ec9ccc7-b489-4775-989c-ccac4806d2f4"},"vehicle_type_id":"4","last_reported":1727014038,"current_range_meters":10000,"station_id":"cpo3532slgdg3j2ikp40","pricing_plan_id":"cebpf4jnsgd1na2vs0mg"},{"bike_id":"0cfc5ea0-e1f8-4143-9c07-ec846be36d51","system_id":"levelo_inurba_marseille","lat":43.29628,"lon":5.37168,"is_reserved":false,"is_disabled":false,"rental_uris":{"android":"levelo://app?vid=0cfc5ea0-e1f8-4143-9c07-ec846be36d51","ios":"levelo://app?vid=0cfc5ea0-e1f8-4143-9c07-ec846be36d51"},"vehicle_type_id":"4","last_reported":1727014038,"current_range_meters":25600,"station_id":"ce4bgnh2rcd13ifvqc0g","pricing_plan_id":"cebpf4jnsgd1na2vs0mg"},{"bike_id":"188ea615-909b-4b5c-9cae-3d3e59a0bb1c","system_id":"levelo_inurba_marseille","lat":43.30431,"lon":5.38884,"is_reserved":false,"is_disabled":false,"rental_uris":{"android":"levelo://app?vid=188ea615-909b-4b5c-9cae-3d3e59a0bb1c","ios":"levelo://app?vid=188ea615-909b-4b5c-9cae-3d3e59a0bb1c"},"vehicle_type_id":"4","last_reported":1727014038,"current_range_meters":8800,"station_id":"ce4bgk12rcd13ifvqbi0","pricing_plan_id":"cebpf4jnsgd1na2vs0mg"},{"bike_id":"3f7a3a4c-c660-45ff-a65e-1b2410bc9121","system_id":"levelo_inurba_marseille","lat":43.25725,"lon":5.41107,"is_reserved":false,"is_disabled":false,"rental_uris":{"android":"levelo://app?vid=3f7a3a4c-c660-45ff-a65e-1b2410bc9121","ios":"levelo://app?vid=3f7a3a4c-c660-45ff-a65e-1b2410bc9121"},"vehicle_type_id":"4","last_reported":1727014038,"current_range_meters":38000,"station_id":"ce4bhkp2rcd13ifvqgd0","pricing_plan_id":"cebpf4jnsgd1na2vs0mg"},{"bike_id":"a74d72a3-9fbe-4eb1-8f70-7be63f495da9","system_id":"levelo_inurba_marseille","lat":43.29958,"lon":5.41319,"is_reserved":false,"is_disabled":false,"rental_uris":{"android":"levelo://app?vid=a74d72a3-9fbe-4eb1-8f70-7be63f495da9","ios":"levelo://app?vid=a74d72a3-9fbe-4eb1-8f70-7be63f495da9"},"vehicle_type_id":"4","last_reported":1727014038,"current_range_meters":39200,"station_id":"ce4bhp12rcd13ifvqh9g","pricing_plan_id":"cebpf4jnsgd1na2vs0mg"},{"bike_id":"c7749fc5-8e7e-4d58-b0aa-ab9b81bcc87f","system_id":"levelo_inurba_marseille","lat":43.28162,"lon":5.4263,"is_reserved":false,"is_disabled":false,"rental_uris":{"android":"levelo://app?vid=c7749fc5-8e7e-4d58-b0aa-ab9b81bcc87f","ios":"levelo://app?vid=c7749fc5-8e7e-4d58-b0aa-ab9b81bcc87f"},