{"last_updated":1747062695,"ttl":60,"version":"2.2","data":{"bikes":[{"bike_id":"c0b9fd4f-e181-46ce-b0bf-f5119973334f","system_id":"levelo_inurba_marseille","lat":43.33771,"lon":5.37424,"is_reserved":false,"is_disabled":false,"rental_uris":{"android":"levelo://app?vid=c0b9fd4f-e181-46ce-b0bf-f5119973334f","ios":"levelo://app?vid=c0b9fd4f-e181-46ce-b0bf-f5119973334f"},"vehicle_type_id":"4","last_reported":1747062695,"current_range_meters":27600,"station_id":"","pricing_plan_id":"cebpf4jnsgd1na2vs0mg"},{"bike_id":"229001d2-7627-43e0-aeea-2d75580fd339","system_id":"levelo_inurba_marseille","lat":43.33776,"lon":5.3748,"is_reserved":false,"is_disabled":true,"rental_uris":{"android":"levelo://app?vid=229001d2-7627-43e0-aeea-2d75580fd339","ios":"levelo://app?vid=229001d2-7627-43e0-aeea-2d75580fd339"},"vehicle_type_id":"4","last_reported":1747062695,"current_range_meters":0,"station_id":"","pricing_plan_id":"cebpf4jnsgd1na2vs0mg"},{"bike_id":"1c68ac78-7ea5-4a79-9cf7-af85d6e75def","system_id":"levelo_inurba_marseille","lat":43.25577,"lon":5.38297,"is_reserved":false,"is_disabled":true,"rental_uris":{"android":"levelo://app?vid=1c68ac78-7ea5-4a79-9cf7-af85d6e75def","ios":"levelo://app?vid=1c68ac78-7ea5-4a79-9cf7-af85d6e75def"},"vehicle_type_id":"4","last_reported":1747062695,"current_range_meters":0,"station_id":"","pricing_plan_id":"cebpf4jnsgd1na2vs0mg"},{"bike_id":"828418bc-b6f3-4668-865d-c3a8b014b129","system_id":"levelo_inurba_marseille","lat":43.29022,"lon":5.38334,"is_reserved":false,"is_disabled":true,"rental_uris":{"android":"levelo://app?vid=828418bc-b6f3-4668-865d-c3a8b014b129","ios":"levelo://app?vid=828418bc-b6f3-4668-865d-c3a8b014b129"},"vehicle_type_id":"4","last_reported":1747062695,"current_range_meters":0,"station_id":"","pricing_plan_id":"cebpf4jnsgd1na2vs0mg"},{"bike_id":"96c72210-ffd5-494a-89c0-bed5ae154cce","system_id":"levelo_inurba_marseille","lat":43.268246,"lon":5.41097,"is_reserved":false,"is_disabled":true,"rental_uris":{"android":"levelo://app?vid=96c72210-ffd5-494a-89c0-bed5ae154cce","ios":"levelo://app?vid=96c72210-ffd5-494a-89c0-bed5ae154cce"},"vehicle_type_id":"4","last_reported":1747062695,"current_range_meters":0,"station_id":"","pricing_plan_id":"cebpf4jnsgd1na2vs0mg"},{"bike_id":"55e209da-2595-4e1b-bbf3-85cc416f3916","system_id":"levelo_inurba_marseille","lat":43.27614,"lon":5.36107,"is_reserved":false,"is_disabled":true,"rental_uris":{"android":"levelo://app?vid=55e209da-2595-4e1b-bbf3-85cc416f3916","ios":"levelo://app?vid=55e209da-2595-4e1b-bbf3-85cc416f3916"},"vehicle_type_id":"4","last_reported":1747062695,"current_range_meters":0,"station_id":"ce4bgj92rcd13ifvqbe0","pricing_plan_id":"cebpf4jnsgd1na2vs0mg"},{"bike_id":"8146301b-0b07-4a75-aba2-65ee33f2ae29","system_id":"levelo_inurba_marseille","lat":43.296183,"lon":5.371635,"is_reserved":false,"is_disabled":true,"rental_uris":{"android":"levelo://app?vid=8146301b-0b07-4a75-aba2-65ee33f2ae29","ios":"levelo://app?vid=8146301b-0b07-4a75-aba2-65ee33f2ae29"},"vehicle_type_id":"4","last_reported":1747062695,"current_range_meters":0,"station_id":"ce4bgnh2rcd13ifvqc0g","pricing_plan_id":"cebpf4jnsgd1na2vs0mg"},{"bike_id":"6a253556-b13a-4498-93f2-54135c94fdfe","system_id":"levelo_inurba_marseille","lat":43.29095,"lon":5.38141,"is_reserved":false,"is_disabled":true,"rental_uris":{"android":"levelo://app?vid=6a253556-b13a-4498-93f2-54135c94fdfe","ios":"levelo://app?vid=6a253556-b13a-4498-93f2-54135c94fdfe"},"vehicle_type_id":"4","last_reported":1747062695,"current_range_meters":0,"station_id":"ce4bh512rcd13ifvqe2g","pricing_plan_id":"cebpf4jnsgd1na2vs0mg"},{"bike_id":"40417a61-f02a-426e-9740-9ca02122a0c1","system_id":"levelo_inurba_marseille","lat":43.2737,"lon":5.36262,"is_reserved":false,"is_disabled":true,"rental_uris":{"android":"levelo://app?vid=40417a61-f02a-426e-9740-9ca02122a0c1","ios":"levelo://app?vid=40417a61-f02a-426e-9740-9ca02122a0c1"},"vehicle_type_id":"4","last_reported":1747062695,"current_range_meters":0,"station_id":"ce4bhbh2rcd13ifvqeo0","pricing_plan_id":"cebpf4jnsgd1na2vs0mg"},{"bike_id":"013ee23d-0ffa-4f10-bea8-ad4374d5414f","system_id":"levelo_inurba_marseille","lat":43.28271,"lon":5.35081,"is_reserved":false,"is_disabled":true,"rental_uris":{"android":"levelo://app?vid=013ee23d-0ffa-4f10-bea8-ad4374d5414f","ios":"levelo://app?vid=013ee23d-0ffa-4f10-bea8-ad4374d5414f"},"vehicle_type_id":"4","last_reported":1747062695,"current_range_meters":0,"station_id":"ce4bhbp2rcd13ifvqerg","pricing_plan_id":"cebpf4jnsgd1na2vs0mg"},{"bike_id":"7aa9ae52-7577-4c6d-ac30-ffcc3def021d","system_id":"levelo_inurba_marseille","lat":43.26565,"lon":5.3901,"is_reserved":false,"is_disabled":true,"rental_uris":{"android":"levelo://app?vid=7aa9ae52-7577-4c6d-ac30-ffcc3def021d","ios":"levelo://app?vid=7aa9ae52-7577-4c6d-ac30-ffcc3def021d"},"vehicle_type_id":"4","last_reported":1747062695,"current_range_meters":0,"station_id":"ce4bhe12rcd13ifvqf30","pricing_plan_id":"cebpf4jnsgd1na2vs0mg"},{"bike_id":"1b80c3b6-a672-4340-a80e-f9eb86f661a3","system_id":"levelo_inurba_marseille","lat":43.27072,"lon":5.40247,"is_reserved":false,"is_disabled":true,"rental_uris":{"android":"levelo://app?vid=1b80c3b6-a672-4340-a80e-f9eb86f661a3","ios":"levelo://app?vid=1b80c3b6-a672-4340-a80e-f9eb86f661a3"},"vehicle_type_id":"4","last_reported":1747062695,"current_range_meters":0,"station_id":"ce4bhk92rcd13ifvqgc0","pricing_plan_id":"cebpf4jnsgd1na2vs0mg"},{"bike_id":"72e0d1bb-65a0-44b9-b7d3-96e9f6412c0e","system_id":"levelo_inurba_marseille","lat":43.25081,"lon":5.39546,"is_reserved":false,"is_disabled":true,"rental_uris":{"android":"levelo://app?vid=72e0d1bb-65a0-44b9-b7d3-96e9f6412c0e","ios":"levelo://app?vid=72e0d1bb-65a0-44b9-b7d3-96e9f6412c0e"},"vehicle_type_id":"4","last_reported":1747062695,"current_range_meters":0,"station_id":"ce4bhm12rcd13ifvqgkg","pricing_plan_id":"cebpf4jnsgd1na2vs0mg"},{"bike_id":"f3f30ef5-78ef-4805-8fb2-cbd995947f93","system_id":"levelo_inurba_marseille","lat":43.28155,"lon":5.42638,"is_reserved":false,"is_disabled":true,"rental_uris":{"android":"levelo://app?vid=f3f30ef5-78ef-4805-8fb2-cbd995947f93","ios":"levelo://app?vid=f3f30ef5-78ef-4805-8fb2-cbd995947f93"},"vehicle_type_id":"4","last_reported":1747062695,"current_range_meters":0,"station_id":"ce4bhnh2rcd13ifvqgug","pricing_plan_id":"cebpf4jnsgd1na2vs0mg"},{"bike_id":"476f40ff-1987-41aa-8cc3-a48e86b5adf3","system_id":"levelo_inurba_marseille","lat":43.24072,"lon":5.37766,"is_reserved":false,"is_disabled":true,"rental_uris":{"android":"levelo://app?vid=476f40ff-1987-41aa-8cc3-a48e86b5adf3","ios":"levelo://app?vid=476f40ff-1987-41aa-8cc3-a48e86b5adf3"},"vehicle_type_id":"4","last_reported":1747062695,"current_range_meters":0,"station_id":"ce4bhnp2rcd13ifvqgvg","pricing_plan_id":"cebpf4jnsgd1na2vs0mg"},{"bike_id":"e544305d-5175-4b20-81c3-f92c34f3f62c","system_id":"levelo_inurba_marseille","lat":43.29548,"lon":5.42278,"is_reserved":false,"is_disabled":true,"rental_uris":{"android":"levelo://app?vid=e544305d-5175-4b20-81c3-f92c34f3f62c","ios":"levelo://app?vid=e544305d-5175-4b20-81c3-f92c34f3f62c"},"vehicle_type_id":"4","last_reported":1747062695,"current_range_meters":0,"station_id":"ce4bhph2rcd13ifvqhdg","pricing_plan_id":"cebpf4jnsgd1na2vs0mg"},{"bike_id":"533c5096-224c-40d7-b2e9-63fc241cf74a","system_id":"levelo_inurba_marseille","lat":43.23212,"lon":5.35554,"is_reserved":false,"is_disabled":true,"rental_uris":{"android":"levelo://app?vid=533c5096-224c-40d7-b2e9-63fc241cf74a","ios":"levelo://app?vid=533c5096-224c-40d7-b2e9-63fc241cf74a"},"vehicle_type_id":"4","last_reported":1747062695,"current_range_meters":0,"station_id":"ce4bhu92rcd13ifvqi70","pricing_plan_id":"cebpf4jnsgd1na2vs0mg"},{"bike_id":"92fde137-de58-48d4-a9d9-59d69522d5f1","system_id":"levelo_inurba_marseille","lat":43.23216,"lon":5.35519,"is_reserved":false,"is_disabled":true,"rental_uris":{"android":"levelo://app?vid=92fde137-de58-48d4-a9d9-59d69522d5f1","ios":"levelo://app?vid=92fde137-de58-48d4-a9d9-59d69522d5f1"},"vehicle_type_id":"4","last_reported":1747062695,"current_range_meters":0,"station_id":"ce4bhu92rcd13ifvqi70","pricing_plan_id":"cebpf4jnsgd1na2vs0mg"},{"bike_id":"bd8aab58-d465-4e7e-9193-4e7915a9b249","system_id":"levelo_inurba_marseille","lat":43.29199,"lon":5.39322,"is_reserved":false,"is_disabled":true,"rental_uris":{"android":"levelo://app?vid=bd8aab58-d465-4e7e-9193-4e7915a9b249","ios":"levelo://app?vid=bd8aab58-d465-4e7e-9193-4e7915a9b249"},"vehicle_type_id":"4","last_reported":1747062695,"current_range_meters":400,"station_id":"ce4bh192rcd13ifvqdd0","pricing_plan_id":"cebpf4jnsgd1na2vs0mg"},{"bike_id":"52fba427-deaf-4f65-a88b-95254ff1eff9","system_id":"levelo_inurba_marseille","lat":43.25111,"lon":5.40321,"is_reserved":false,"is_disabled":true,"rental_uris":{"android":"levelo://app?vid=52fba427-deaf-4f65-a88b-95254ff1eff9","ios":"levelo://app?vid=52fba427-deaf-4f65-a88b-95254ff1eff9"},"vehicle_type_id":"4","last_reported":1747062695,"current_range_meters":400,"station_id":"ce4bhlh2rcd13ifvqgig","pricing_plan_id":"cebpf4jnsgd1na2vs0mg"},{"bike_id":"da021d7a-1e02-4134-b788-dad67d5cfd7a","system_id":"levelo_inurba_marseille","lat":43.29912,"lon":5.38128,"is_reserved":false,"is_disabled":true,"rental_uris":{"android":"levelo://app?vid=da021d7a-1e02-4134-b788-dad67d5cfd7a","ios":"levelo://app?vid=da021d7a-1e02-4134-b788-dad67d5cfd7a"},"vehicle_type_id":"4","last_reported":1747062695,"current_range_meters":800,"station_id":"ce4bgj12rcd13ifvqbc0","pricing_plan_id":"cebpf4jnsgd1na2vs0mg"},{"bike_id":"45cce633-9df2-4ec1-8e50-1df0dea57d07","system_id":"levelo_inurba_marseille","lat":43.29942,"lon":5.36554,"is_reserved":false,"is_disabled":true,"rental_uris":{"android":"levelo://app?vid=45cce633-9df2-4ec1-8e50-1df0dea57d07","ios":"levelo://app?vid=45cce633-9df2-4ec1-8e50-1df0dea57d07"},"vehicle_type_id":"4","last_reported":1747062695,"current_range_meters":800,"station_id":"ce4bgm92rcd13ifvqbr0","pricing_plan_id":"cebpf4jnsgd1na2vs0mg"},{"bike_id":"b423dd89-a12f-4d37-beec-ae31d27cd503","system_id":"levelo_inurba_marseille","lat":43.29635,"lon":5.40601,"is_reserved":false,"is_disabled":true,"rental_uris":{"android":"levelo://app?vid=b423dd89-a12f-4d37-beec-ae31d27cd503","ios":"levelo://app?vid=b423dd89-a12f-4d37-beec-ae31d27cd503"},"vehicle_type_id":"4","last_reported":1747062695,"current_range_meters":800,"station_id":"ce4bh0h2rcd13ifvqd60","pricing_plan_id":"cebpf4jnsgd1na2vs0mg"},{"bike_id":"0c48d3b7-b329-4bea-ad13-f08429f35cf4","system_id":"levelo_inurba_marseille","lat":43.26568,"lon":5.39006,"is_reserved":false,"is_disabled":true,"rental_uris":{"android":"levelo://app?vid=0c48d3b7-b329-4bea-ad13-f08429f35cf4","ios":"levelo://app?vid=0c48d3b7-b329-4bea-ad13-f08429f35cf4"},"vehicle_type_id":"4","last_reported":1747062695,"current_range_meters":800,"station_id":"ce4bhe12rcd13ifvqf30","pricing_plan_id":"cebpf4jnsgd1na2vs0mg"},{"bike_id":"c0d5508b-4c27-4721-8daa-6bb5139cfe04","system_id":"levelo_inurba_marseille","lat":43.261963,"lon":5.374489,"is_reserved":false,"is_disabled":true,"rental_uris":{"android":"levelo://app?vid=c0d5508b-4c27-4721-8daa-6bb5139cfe04","ios":"levelo://app?vid=c0d5508b-4c27-4721-8daa-6bb5139cfe04"},"vehicle_type_id":"4","last_reported":1747062695,"current_range_meters":800,"station_id":"ce4bhgp2rcd13ifvqfc0","pricing_plan_id":"cebpf4jnsgd1na2vs0mg"},{"bike_id":"6b79d119-47bd-4b08-82d0-fdc201096455","system_id":"levelo_inurba_marseille","lat":43.23157,"lon":5.43723,"is_reserved":false,"is_disabled":true,"rental_uris":{"android":"levelo://app?vid=6b79d119-47bd-4b08-82d0-fdc201096455","ios":"levelo://app?vid=6b79d119-47bd-4b08-82d0-fdc201096455"},"vehicle_type_id":"4","last_reported":1747062695,"current_range_meters":800,"station_id":"ce4bhmp2rcd13ifvqgog","pricing_plan_id":"cebpf4jnsgd1na2vs0mg"},{"bike_id":"bad7192e-0872-4f98-ac68-fe232ee449c6","system_id":"levelo_inurba_marseille","lat":43.294327,"lon":5.386015,"is_reserved":false,"is_disabled":true,"rental_uris":{"android":"levelo://app?vid=bad7192e-0872-4f98-ac68-fe232ee449c6","ios":"levelo://app?vid=bad7192e-0872-4f98-ac68-fe232ee449c6"},"vehicle_type_id":"4","last_reported":1747062695,"current_range_meters":1200,"station_id":"","pricing_plan_id":"cebpf4jnsgd1na2vs0mg"},{"bike_id":"b96e4101-34bc-4cf7-9bf4-f8e31aaa2b15","system_id":"levelo_inurba_marseille","lat":43.28227,"lon":5.38581,"is_reserved":false,"is_disabled":true,"rental_uris":{"android":"levelo://app?vid=b96e4101-34bc-4cf7-9bf4-f8e31aaa2b15","ios":"levelo://app?vid=b96e4101-34bc-4cf7-9bf4-f8e31aaa2b15"},"vehicle_type_id":"4","last_reported":1747062695,"current_range_meters":1200,"station_id":"","pricing_plan_id":"cebpf4jnsgd1na2vs0mg"},{"bike_id":"ae8aac3a-d543-4059-8409-820694f9491e","system_id":"levelo_inurba_marseille","lat":43.29968,"lon":5.38494,"is_reserved":false,"is_disabled":true,"rental_uris":{"android":"levelo://app?vid=ae8aac3a-d543-4059-8409-820694f9491e","ios":"levelo://app?vid=ae8aac3a-d543-4059-8409-820694f9491e"},"vehicle_type_id":"4","last_reported":1747062695,"current_range_meters":1200,"station_id":"ce4bgj92rcd13ifvqbd0","pricing_plan_id":"cebpf4jnsgd1na2vs0mg"},{"bike_id":"de84b7fd-8041-42fd-9c1f-7ca691e7c464","system_id":"levelo_inurba_marseille","lat":43.30788,"lon":5.38163,"is_reserved":false,"is_disabled":true,"rental_uris":{"android":"levelo://app?vid=de84b7fd-8041-42fd-9c1f-7ca691e7c464","ios":"levelo://app?vid=de84b7fd-8041-42fd-9c1f-7ca691e7c464"},"vehicle_type_id":"4","last_reported":1747062695,"current_range_meters":1200,"station_id":"ce4bgt12rcd13ifvqce0","pricing_plan_id":"cebpf4jnsgd1na2vs0mg"},{"bike_id":"86e82a9a-a9dc-4fdc-bced-0a7e431e16ee","system_id":"levelo_inurba_marseille","lat":43.29034,"lon":5.39967,"is_reserved":false,"is_disabled":true,"rental_uris":{"android":"levelo://app?vid=86e82a9a-a9dc-4fdc-bced-0a7e431e16ee","ios":"levelo://app?vid=86e82a9a-a9dc-4fdc-bced-0a7e431e16ee"},"vehicle_type_id":"4","last_reported":1747062695,"current_range_meters":1200,"station_id":"ce4bh392rcd13ifvqdm0","pricing_plan_id":"cebpf4jnsgd1na2vs0mg"},{"bike_id":"0bfbcc24-3528-4d0f-b657-934f7df209ed","system_id":"levelo_inurba_marseille","lat":43.289339,"lon":5.366442,"is_reserved":false,"is_disabled":true,"rental_uris":{"android":"levelo://app?vid=0bfbcc24-3528-4d0f-b657-934f7df209ed","ios":"levelo://app?vid=0bfbcc24-3528-4d0f-b657-934f7df209ed"},"vehicle_type_id":"4","last_reported":1747062695,"current_range_meters":1200,"station_id":"ce4bhap2rcd13ifvqek0","pricing_plan_id":"cebpf4jnsgd1na2vs0mg"},{"bike_id":"53ebce7a-c62c-45ed-97c4-1eca4e263dc4","system_id":"levelo_inurba_marseille","lat":43.26873,"lon":5.38872,"is_reserved":false,"is_disabled":true,"rental_uris":{"android":"levelo://app?vid=53ebce7a-c62c-45ed-97c4-1eca4e263dc4","ios":"levelo://app?vid=53ebce7a-c62c-45ed-97c4-1eca4e263dc4"},"vehicle_type_id":"4","last_reported":1747062695,"current_range_meters":1200,"station_id":"ce4bhhh2rcd13ifvqfl0","pricing_plan_id":"cebpf4jnsgd1na2vs0mg"},{"bike_id":"7f8c7345-d406-4807-af7f-35cfceed3814","system_id":"levelo_inurba_marseille","lat":43.337444,"lon":5.374475,"is_reserved":false,"is_disabled":true,"rental_uris":{"android":"levelo://app?vid=7f8c7345-d406-4807-af7f-35cfceed3814","ios":"levelo://app?vid=7f8c7345-d406-4807-af7f-35cfceed3814"},"vehicle_type_id":"4","last_reported":1747062695,"current_range_meters":1200,"station_id":"cpo3532slgdg3j2ikp40","pricing_plan_id":"cebpf4jnsgd1na2vs0mg"},{"bike_id":"de2e0eba-a246-4989-8222-cef341dea91e","system_id":"levelo_inurba_marseille","lat":43.29256,"lon":5.37629,"is_reserved":false,"is_disabled":true,"rental_uris":{"android":"levelo://app?vid=de2e0eba-a246-4989-8222-cef341dea91e","ios":"levelo://app?vid=de2e0eba-a246-4989-8222-cef341dea91e"},"vehicle_type_id":"4","last_reported":1747062695,"current_range_meters":1600,"station_id":"ce4bgi12rcd13ifvqb80","pricing_plan_id":"cebpf4jnsgd1na2vs0mg"},{"bike_id":"e3681a1e-9f02-4c16-b4bb-cd4f3080356b","system_id":"levelo_inurba_marseille","lat":43.30307,"lon":5.3922,"is_reserved":false,"is_disabled":true,"rental_uris":{"android":"levelo://app?vid=e3681a1e-9f02-4c16-b4bb-cd4f3080356b","ios":"levelo://app?vid=e3681a1e-9f02-4c16-b4bb-cd4f3080356b"},"vehicle_type_id":"4","last_reported":1747062695,"current_range_meters":1600,"station_id":"ce4bgkh2rcd13ifvqbk0","pricing_plan_id":"cebpf4jnsgd1na2vs0mg"},{"bike_id":"0f1fa73a-0458-4143-81ae-3e0f34d7320e","system_id":"levelo_inurba_marseille","lat":43.28677,"lon":5.38693,"is_reserved":false,"is_disabled":true,"rental_uris":{"android":"levelo://app?vid=0f1fa73a-0458-4143-81ae-3e0f34d7320e","ios":"levelo://app?vid=0f1fa73a-0458-4143-81ae-3e0f34d7320e"},"vehicle_type_id":"4","last_reported":1747062695,"current_range_meters":2000,"station_id":"ce4bh492rcd13ifvqdug","pricing_plan_id":"cebpf4jnsgd1na2vs0mg"},{"bike_id":"2f5b2e9b-c7ee-4d7c-9941-da24ac1a54e1","system_id":"levelo_inurba_marseille","lat":43.28933,"lon":5.36643,"is_reserved":false,"is_disabled":true,"rental_uris":{"android":"levelo://app?vid=2f5b2e9b-c7ee-4d7c-9941-da24ac1a54e1","ios":"levelo://app?vid=2f5b2e9b-c7ee-4d7c-9941-da24ac1a54e1"},"vehicle_type_id":"4","last_reported":1747062695,"current_range_meters":2000,"station_id":"ce4bhap2rcd13ifvqek0","pricing_plan_id":"cebpf4jnsgd1na2vs0mg"},{"bike_id":"4e4ec88f-a409-4bf9-8154-739796cc08f3","system_id":"levelo_inurba_marseille","lat":43.27917,"lon":5.3958,"is_reserved":false,"is_disabled":true,"rental_uris":{"android":"levelo://app?vid=4e4ec88f-a409-4bf9-8154-739796cc08f3","ios":"levelo://app?vid=4e4ec88f-a409-4bf9-8154-739796cc08f3"},"vehicle_type_id":"4","last_reported":1747062695,"current_range_meters":2000,"station_id":"ce4bhf92rcd13ifvqf40","pricing_plan_id":"cebpf4jnsgd1na2vs0mg"},{"bike_id":"3cf43a09-f99e-405c-a5d1-aeef538e19a2","system_id":"levelo_inurba_marseille","lat":43.30325,"lon":5.40434,"is_reserved":false,"is_disabled":false,"rental_uris":{"android":"levelo://app?vid=3cf43a09-f99e-405c-a5d1-aeef538e19a2","ios":"levelo://app?vid=3cf43a09-f99e-405c-a5d1-aeef538e19a2"},"vehicle_type_id":"4","last_reported":1747062695,"current_range_meters":2800,"station_id":"ce4bh012rcd13ifvqd10","pricing_plan_id":"cebpf4jnsgd1na2vs0mg"},{"bike_id":"cb6f7c06-8f61-4afb-9ecb-abffa5d0af2f","system_id":"levelo_inurba_marseille","lat":43.24658,"lon":5.38161,"is_reserved":false,"is_disabled":false,"rental_uris":{"android":"levelo://app?vid=cb6f7c06-8f61-4afb-9ecb-abffa5d0af2f","ios":"levelo://app?vid=cb6f7c06-8f61-4afb-9ecb-abffa5d0af2f"},"vehicle_type_id":"4","last_reported":1747062695,"current_range_meters":2800,"station_id":"ce4bhih2rcd13ifvqfr0","pricing_plan_id":"cebpf4jnsgd1na2vs0mg"},{"bike_id":"9b3b3e6a-58c7-4aa4-8fb8-edea5dc60143","system_id":"levelo_inurba_marseille","lat":43.28345,"lon":5.38092,"is_reserved":false,"is_disabled":false,"rental_uris":{"android":"levelo://app?vid=9b3b3e6a-58c7-4aa4-8fb8-edea5dc60143","ios":"levelo://app?vid=9b3b3e6a-58c7-4aa4-8fb8-edea5dc60143"},"vehicle_type_id":"4","last_reported":1747062695,"current_range_meters":3200,"station_id":"ce4bh412rcd13ifvqdr0","pricing_plan_id":"cebpf4jnsgd1na2vs0mg"},{"bike_id":"3c9ea187-8bc5-4195-b089-7ccb740bfcd0","system_id":"levelo_inurba_marseille","lat":43.28474,"lon":5.3842,"is_reserved":false,"is_disabled":false,"rental_uris":{"android":"levelo://app?vid=3c9ea187-8bc5-4195-b089-7ccb740bfcd0","ios":"levelo://app?vid=3c9ea187-8bc5-4195-b089-7ccb740bfcd0"},"vehicle_type_id":"4","last_reported":1747062695,"current_range_meters":3200,"station_id":"ce4bh512rcd13ifvqe3g","pricing_plan_id":"cebpf4jnsgd1na2vs0mg"},{"bike_id":"96b7319a-1008-45f2-952f-353f869e4ef2","system_id":"levelo_inurba_marseille","lat":43.27973,"lon":5.38742,"is_reserved":false,"is_disabled":false,"rental_uris":{"android":"levelo://app?vid=96b7319a-1008-45f2-952f-353f869e4ef2","ios":"levelo://app?vid=96b7319a-1008-45f2-952f-353f869e4ef2"},"vehicle_type_id":"4","last_reported":1747062695,"current_range_meters":3200,"station_id":"ce4bhg12rcd13ifvqf80","pricing_plan_id":"cebpf4jnsgd1na2vs0mg"},{"bike_id":"c295727c-c8e7-40aa-ac80-4ac4ae1dbab6","system_id":"levelo_inurba_marseille","lat":43.26567,"lon":5.3901,"is_reserved":false,"is_disabled":false,"rental_uris":{"android":"levelo://app?vid=c295727c-c8e7-40aa-ac80-4ac4ae1dbab6","ios":"levelo://app?vid=c295727c-c8e7-40aa-ac80-4ac4ae1dbab6"},"vehicle_type_id":"4","last_reported":1747062695,"current_range_meters":3600,"station_id":"ce4bhe12rcd13ifvqf30","pricing_plan_id":"cebpf4jnsgd1na2vs0mg"},{"bike_id":"eeec7112-f04f-4731-a038-83587a778084","system_id":"levelo_inurba_marseille","lat":43.29776,"lon":5.39337,"is_reserved":false,"is_disabled":false,"rental_uris":{"android":"levelo://app?vid=eeec7112-f04f-4731-a038-83587a778084","ios":"levelo://app?vid=eeec7112-f04f-4731-a038-83587a778084"},"vehicle_type_id":"4","last_reported":1747062695,"current_range_meters":3600,"station_id":"chh1huq6cuj3fo74tm60","pricing_plan_id":"cebpf4jnsgd1na2vs0mg"},{"bike_id":"579cdac1-21e4-4881-980c-d479360f859f","system_id":"levelo_inurba_marseille","lat":43.29885,"lon":5.3889,"is_reserved":false,"is_disabled":false,"rental_uris":{"android":"levelo://app?vid=579cdac1-21e4-4881-980c-d479360f859f","ios":"levelo://app?vid=579cdac1-21e4-4881-980c-d479360f859f"},"vehicle_type_id":"4","last_reported":1747062695,"current_range_meters":4400,"station_id":"ce4bh392rcd13ifvqdl0","pricing_plan_id":"cebpf4jnsgd1na2vs0mg"},{"bike_id":"47cc4249-3a5b-49c9-99db-b4740a8edc3a","system_id":"levelo_inurba_marseille","lat":43.301107,"lon":5.375152,"is_reserved":false,"is_disabled":false,"rental_uris":{"android":"levelo://app?vid=47cc4249-3a5b-49c9-99db-b4740a8edc3a","ios":"levelo://app?vid=47cc4249-3a5b-49c9-99db-b4740a8edc3a"},"vehicle_type_id":"4","last_reported":1747062695,"current_range_meters":4400,"station_id":"ce4bh692rcd13ifvqea0","pricing_plan_id":"cebpf4jnsgd1na2vs0mg"},{"bike_id":"ebb76217-faa1-417b-bc4e-47cbb262bace","system_id":"levelo_inurba_marseille","lat":43.28262,"lon":5.3506,"is_reserved":false,"is_disabled":false,"rental_uris":{"android":"levelo://app?vid=ebb76217-faa1-417b-bc4e-47cbb262bace","ios":"levelo://app?vid=ebb76217-faa1-417b-bc4e-47cbb262bace"},"vehicle_type_id":"4","last_reported":1747062695,"current_range_meters":4800,"station_id":"ce4bhbp2rcd13ifvqerg","pricing_plan_id":"cebpf4jnsgd1na2vs0mg"},{"bike_id":"739c3252-ff1e-4429-96f2-1afe27d0df15","system_id":"levelo_inurba_marseille","lat":43.265536,"lon":5.37288,"is_reserved":false,"is_disabled":false,"rental_uris":{"android":"levelo://app?vid=739c3252-ff1e-4429-96f2-1afe27d0df15","ios":"levelo://app?vid=739c3252-ff1e-4429-96f2-1afe27d0df15"},"vehicle_type_id":"4","last_reported":1747062695,"current_range_meters":4800,"station_id":"ce4bhg12rcd13ifvqf70","pricing_plan_id":"cebpf4jnsgd1na2vs0mg"},{"bike_id":"d6f23741-d51c-475a-8806-89664a1ebe17","system_id":"levelo_inurba_marseille","lat":43.26224,"lon":5.4045,"is_reserved":false,"is_disabled":false,"rental_uris":{"android":"levelo://app?vid=d6f23741-d51c-475a-8806-89664a1ebe17","ios":"levelo://app?vid=d6f23741-d51c-475a-8806-89664a1ebe17"},"vehicle_type_id":"4","last_reported":1747062695,"current_range_meters":4800,"station_id":"ce4bhmh2rcd13ifvqgmg","pricing_plan_id":"cebpf4jnsgd1na2vs0mg"},{"bike_id":"fc2577e7-1497-425b-9d4f-ab8d7dc843c6","system_id":"levelo_inurba_marseille","lat":43.33771,"lon":5.37485,"is_reserved":false,"is_disabled":false,"rental_uris":{"android":"levelo://app?vid=fc2577e7-1497-425b-9d4f-ab8d7dc843c6","ios":"levelo://app?vid=fc2577e7-1497-425b-9d4f-ab8d7dc843c6"},"vehicle_type_id":"4","last_reported":1747062695,"current_range_meters":5600,"station_id":"","pricing_plan_id":"cebpf4jnsgd1na2vs0mg"},{"bike_id":"889a6190-56c1-481a-a02f-e2624efcc3be","system_id":"levelo_inurba_marseille","lat":43.30137,"lon":5.38796,"is_reserved":false,"is_disabled":false,"rental_uris":{"android":"levelo://app?vid=889a6190-56c1-481a-a02f-e2624efcc3be","ios":"levelo://app?vid=889a6190-56c1-481a-a02f-e2624efcc3be"},"vehicle_type_id":"4","last_reported":1747062695,"current_range_meters":5600,"station_id":"ce4bghh2rcd13ifvqb60","pricing_plan_id":"cebpf4jnsgd1na2vs0mg"},{"bike_id":"878774e5-557a-457d-a1ae-38863eb7f595","system_id":"levelo_inurba_marseille","lat":43.29765,"lon":5.37101,"is_reserved":false,"is_disabled":false,"rental_uris":{"android":"levelo://app?vid=878774e5-557a-457d-a1ae-38863eb7f595","ios":"levelo://app?vid=878774e5-557a-457d-a1ae-38863eb7f595"},"vehicle_type_id":"4","last_reported":1747062695,"current_range_meters":5600,"station_id":"ce4bgop2rcd13ifvqc1g","pricing_plan_id":"cebpf4jnsgd1na2vs0mg"},{"bike_id":"780e5039-cf2e-4423-893b-db2a3c58bc4f","system_id":"levelo_inurba_marseille","lat":43.28671,"lon":5.36348,"is_reserved":false,"is_disabled":false,"rental_uris":{"android":"levelo://app?vid=780e5039-cf2e-4423-893b-db2a3c58bc4f","ios":"levelo://app?vid=780e5039-cf2e-4423-893b-db2a3c58bc4f"},"vehicle_type_id":"4","last_reported":1747062695,"current_range_meters":5600,"station_id":"ce4bhah2rcd13ifvqej0","pricing_plan_id":"cebpf4jnsgd1na2vs0mg"},{"bike_id":"8626d48e-ad6c-4e58-b28e-66c661bbd6b7","system_id":"levelo_inurba_marseille","lat":43.27974,"lon":5.38736,"is_reserved":false,"is_disabled":false,"rental_uris":{"android":"levelo://app?vid=8626d48e-ad6c-4e58-b28e-66c661bbd6b7","ios":"levelo://app?vid=8626d48e-ad6c-4e58-b28e-66c661bbd6b7"},"vehicle_type_id":"4","last_reported":1747062695,"current_range_meters":5600,"station_id":"ce4bhg12rcd13ifvqf80","pricing_plan_id":"cebpf4jnsgd1na2vs0mg"},{"bike_id":"dbdd099f-bdd7-4c3b-9d9e-de2b758ba0a8","system_id":"levelo_inurba_marseille","lat":43.26208,"lon":5.37445,"is_reserved":false,"is_disabled":false,"rental_uris":{"android":"levelo://app?vid=dbdd099f-bdd7-4c3b-9d9e-de2b758ba0a8","ios":"levelo://app?vid=dbdd099f-bdd7-4c3b-9d9e-de2b758ba0a8"},"vehicle_type_id":"4","last_reported":1747062695,"current_range_meters":5600,"station_id":"ce4bhgp2rcd13ifvqfc0","pricing_plan_id":"cebpf4jnsgd1na2vs0mg"},{"bike_id":"95b5267e-2c74-4ee8-9f86-8f1af37bbf9a","system_id":"levelo_inurba_marseille","lat":43.29863,"lon":5.39737,"is_reserved":false,"is_disabled":false,"rental_uris":{"android":"levelo://app?vid=95b5267e-2c74-4ee8-9f86-8f1af37bbf9a","ios":"levelo://app?vid=95b5267e-2c74-4ee8-9f86-8f1af37bbf9a"},"vehicle_type_id":"4","last_reported":1747062695,"current_range_meters":6000,"station_id":"ce4bh0h2rcd13ifvqd50","pricing_plan_id":"cebpf4jnsgd1na2vs0mg"},{"bike_id":"0954f83b-2626-4063-8f22-bd819914ac56","system_id":"levelo_inurba_marseille","lat":43.275661,"lon":5.384316,"is_reserved":false,"is_disabled":false,"rental_uris":{"android":"levelo://app?vid=0954f83b-2626-4063-8f22-bd819914ac56","ios":"levelo://app?vid=0954f83b-2626-4063-8f22-bd819914ac56"},"vehicle_type_id":"4","last_reported":1747062695,"current_range_meters":6000,"station_id":"ce4bhh92rcd13ifvqfi0","pricing_plan_id":"cebpf4jnsgd1na2vs0mg"},{"bike_id":"20a65662-3276-4e06-8f27-2a3d9f3edacc","system_id":"levelo_inurba_marseille","lat":43.30807,"lon":5.43532,"is_reserved":false,"is_disabled":false,"rental_uris":{"android":"levelo://app?vid=20a65662-3276-4e06-8f27-2a3d9f3edacc","ios":"levelo://app?vid=20a65662-3276-4e06-8f27-2a3d9f3edacc"},"vehicle_type_id":"4","last_reported":1747062695,"current_range_meters":6000,"station_id":"ce4bhph2rcd13ifvqheg","pricing_plan_id":"cebpf4jnsgd1na2vs0mg"},{"bike_id":"f2b6d74b-782a-417f-b0c7-c8050fa139c2","system_id":"levelo_inurba_marseille","lat":43.28868,"lon":5.35865,"is_reserved":false,"is_disabled":false,"rental_uris":{"android":"levelo://app?vid=f2b6d74b-782a-417f-b0c7-c8050fa139c2","ios":"levelo://app?vid=f2b6d74b-782a-417f-b0c7-c8050fa139c2"},"vehicle_type_id":"4","last_reported":1747062695,"current_range_meters":6400,"station_id":"ce4bhb12rcd13ifvqem0","pricing_plan_id":"cebpf4jnsgd1na2vs0mg"},{"bike_id":"eaca220c-e447-4bb0-b498-07a7691a727f","system_id":"levelo_inurba_marseille","lat":43.296,"lon":5.37721,"is_reserved":false,"is_disabled":false,"rental_uris":{"android":"levelo://app?vid=eaca220c-e447-4bb0-b498-07a7691a727f","ios":"levelo://app?vid=eaca220c-e447-4bb0-b498-07a7691a727f"},"vehicle_type_id":"4","last_reported":1747062695,"current_range_meters":6800,"station_id":"ce4bgi92rcd13ifvqb90","pricing_plan_id":"cebpf4jnsgd1na2vs0mg"},{"bike_id":"2b516356-aee9-44a8-9767-5c163a984140","system_id":"levelo_inurba_marseille","lat":43.280975,"lon":5.37838,"is_reserved":false,"is_disabled":false,"rental_uris":{"android":"levelo://app?vid=2b516356-aee9-44a8-9767-5c163a984140","ios":"levelo://app?vid=2b516356-aee9-44a8-9767-5c163a984140"},"vehicle_type_id":"4","last_reported":1747062695,"current_range_meters":6800,"station_id":"ce4bha12rcd13ifvqee0","pricing_plan_id":"cebpf4jnsgd1na2vs0mg"},{"bike_id":"cb4aa7f8-5e58-4103-827e-f5aa7f653469","system_id":"levelo_inurba_marseille","lat":43.23209,"lon":5.3552,"is_reserved":false,"is_disabled":false,"rental_uris":{"android":"levelo://app?vid=cb4aa7f8-5e58-4103-827e-f5aa7f653469","ios":"levelo://app?vid=cb4aa7f8-5e58-4103-827e-f5aa7f653469"},"vehicle_type_id":"4","last_reported":1747062695,"current_range_meters":6800,"station_id":"ce4bhu92rcd13ifvqi70","pricing_plan_id":"cebpf4jnsgd1na2vs0mg"},{"bike_id":"da458ef8-d137-405f-bc2d-1904bf0a7be8","system_id":"levelo_inurba_marseille","lat":43.31325,"lon":5.39705,"is_reserved":false,"is_disabled":false,"rental_uris":{"android":"levelo://app?vid=da458ef8-d137-405f-bc2d-1904bf0a7be8","ios":"levelo://app?vid=da458ef8-d137-405f-bc2d-1904bf0a7be8"},"vehicle_type_id":"4","last_reported":1747062695,"current_range_meters":7200,"station_id":"ce4bgvp2rcd13ifvqcu0","pricing_plan_id":"cebpf4jnsgd1na2vs0mg"},{"bike_id":"9b4c6d61-d91b-4c29-a260-8e37646db1af","system_id":"levelo_inurba_marseille","lat":43.28459,"lon":5.35897,"is_reserved":false,"is_disabled":false,"rental_uris":{"android":"levelo://app?vid=9b4c6d61-d91b-4c29-a260-8e37646db1af","ios":"levelo://app?vid=9b4c6d61-d91b-4c29-a260-8e37646db1af"},"vehicle_type_id":"4","last_reported":1747062695,"current_range_meters":7200,"station_id":"ce4bhah2rcd13ifvqei0","pricing_plan_id":"cebpf4jnsgd1na2vs0mg"},{"bike_id":"84b3578e-464c-4e02-8572-cf52522db097","system_id":"levelo_inurba_marseille","lat":43.25106,"lon":5.40327,"is_reserved":false,"is_disabled":false,"rental_uris":{"android":"levelo://app?vid=84b3578e-464c-4e02-8572-cf52522db097","ios":"levelo://app?vid=84b3578e-464c-4e02-8572-cf52522db097"},"vehicle_type_id":"4","last_reported":1747062695,"current_range_meters":7200,"station_id":"ce4bhlh2rcd13ifvqgig","pricing_plan_id":"cebpf4jnsgd1na2vs0mg"},{"bike_id":"2ecf26f9-a614-457d-bd66-bd71d817c60c","system_id":"levelo_inurba_marseille","lat":43.33025,"lon":5.39039,"is_reserved":false,"is_disabled":false,"rental_uris":{"android":"levelo://app?vid=2ecf26f9-a614-457d-bd66-bd71d817c60c","ios":"levelo://app?vid=2ecf26f9-a614-457d-bd66-bd71d817c60c"},"vehicle_type_id":"4","last_reported":1747062695,"current_range_meters":7200,"station_id":"ce4bhr92rcd13ifvqhrg","pricing_plan_id":"cebpf4jnsgd1na2vs0mg"},{"bike_id":"01abea4d-2774-4eda-a5af-6a99bc90c7c6","system_id":"levelo_inurba_marseille","lat":43.25721,"lon":5.41099,"is_reserved":false,"is_disabled":false,"rental_uris":{"android":"levelo://app?vid=01abea4d-2774-4eda-a5af-6a99bc90c7c6","ios":"levelo://app?vid=01abea4d-2774-4eda-a5af-6a99bc90c7c6"},"vehicle_type_id":"4","last_reported":1747062695,"current_range_meters":8000,"station_id":"ce4bhkp2rcd13ifvqgd0","pricing_plan_id":"cebpf4jnsgd1na2vs0mg"},{"bike_id":"c0ea7b5f-8e82-47ef-968b-b02736cb59af","system_id":"levelo_inurba_marseille","lat":43.24169,"lon":5.36437,"is_reserved":false,"is_disabled":false,"rental_uris":{"android":"levelo://app?vid=c0ea7b5f-8e82-47ef-968b-b02736cb59af","ios":"levelo://app?vid=c0ea7b5f-8e82-47ef-968b-b02736cb59af"},"vehicle_type_id":"4","last_reported":1747062695,"current_range_meters":8000,"station_id":"cpo36qri1sfpv3e86is0","pricing_plan_id":"cebpf4jnsgd1na2vs0mg"},{"bike_id":"ef5ff6a6-0941-4194-a3ee-43ae0b7ba1c9","system_id":"levelo_inurba_marseille","lat":43.29675,"lon":5.36855,"is_reserved":false,"is_disabled":false,"rental_uris":{"android":"levelo://app?vid=ef5ff6a6-0941-4194-a3ee-43ae0b7ba1c9","ios":"levelo://app?vid=ef5ff6a6-0941-4194-a3ee-43ae0b7ba1c9"},"vehicle_type_id":"4","last_reported":1747062695,"current_range_meters":8400,"station_id":"","pricing_plan_id":"cebpf4jnsgd1na2vs0mg"},{"bike_id":"4aea4752-a402-4e63-add4-6f30012fbcbc","system_id":"levelo_inurba_marseille","lat":43.29162,"lon":5.37164,"is_reserved":false,"is_disabled":false,"rental_uris":{"android":"levelo://app?vid=4aea4752-a402-4e63-add4-6f30012fbcbc","ios":"levelo://app?vid=4aea4752-a402-4e63-add4-6f30012fbcbc"},"vehicle_type_id":"4","last_reported":1747062695,"current_range_meters":8400,"station_id":"ce4bha92rcd13ifvqeh0","pricing_plan_id":"cebpf4jnsgd1na2vs0mg"},{"bike_id":"c19ad4e3-cdf9-42c4-bbb8-415b28c57b50","system_id":"levelo_inurba_marseille","lat":43.27812,"lon":5.40713,"is_reserved":false,"is_disabled":false,"rental_uris":{"android":"levelo://app?vid=c19ad4e3-cdf9-42c4-bbb8-415b28c57b50","ios":"levelo://app?vid=c19ad4e3-cdf9-42c4-bbb8-415b28c57b50"},"vehicle_type_id":"4","last_reported":1747062695,"current_range_meters":8400,"station_id":"ce4bhnh2rcd13ifvqgtg","pricing_plan_id":"cebpf4jnsgd1na2vs0mg"},{"bike_id":"987e9629-e4dc-453c-9b3b-29bf2e8fbd12","system_id":"levelo_inurba_marseille","lat":43.29906,"lon":5.43637,"is_reserved":false,"is_disabled":false,"rental_uris":{"android":"levelo://app?vid=987e9629-e4dc-453c-9b3b-29bf2e8fbd12","ios":"levelo://app?vid=987e9629-e4dc-453c-9b3b-29bf2e8fbd12"},"vehicle_type_id":"4","last_reported":1747062695,"current_range_meters":8400,"station_id":"ce4bhpp2rcd13ifvqhfg","pricing_plan_id":"cebpf4jnsgd1na2vs0mg"},{"bike_id":"e0372e11-e2d7-499e-bc01-d37180083c7d","system_id":"levelo_inurba_marseille","lat":43.32378,"lon":5.3672,"is_reserved":false,"is_disabled":false,"rental_uris":{"android":"levelo://app?vid=e0372e11-e2d7-499e-bc01-d37180083c7d","ios":"levelo://app?vid=e0372e11-e2d7-499e-bc01-d37180083c7d"},"vehicle_type_id":"4","last_reported":1747062695,"current_range_meters":8400,"station_id":"ce4bhsh2rcd13ifvqi2g","pricing_plan_id":"cebpf4jnsgd1na2vs0mg"},{"bike_id":"77896ad2-425b-45c1-aa30-19af8d1a76e5","system_id":"levelo_inurba_marseille","lat":43.29919,"lon":5.37446,"is_reserved":false,"is_disabled":false,"rental_uris":{"android":"levelo://app?vid=77896ad2-425b-45c1-aa30-19af8d1a76e5","ios":"levelo://app?vid=77896ad2-425b-45c1-aa30-19af8d1a76e5"},"vehicle_type_id":"4","last_reported":1747062695,"current_range_meters":8800,"station_id":"ce4bgjh2rcd13ifvqbg0","pricing_plan_id":"cebpf4jnsgd1na2vs0mg"},{"bike_id":"7ac96b9d-3fea-4b27-953b-0131d1be75c9","system_id":"levelo_inurba_marseille","lat":43.294946,"lon":5.375085,"is_reserved":false,"is_disabled":false,"rental_uris":{"android":"levelo://app?vid=7ac96b9d-3fea-4b27-953b-0131d1be75c9","ios":"levelo://app?vid=7ac96b9d-3fea-4b27-953b-0131d1be75c9"},"vehicle_type_id":"4","last_reported":1747062695,"current_range_meters":8800,"station_id":"ce4bgkp2rcd13ifvqbmg","pricing_plan_id":"cebpf4jnsgd1na2vs0mg"},{"bike_id":"42e81aa4-c52f-4b4d-b6a2-da443ade49a4","system_id":"levelo_inurba_marseille","lat":43.30788,"lon":5.37649,"is_reserved":false,"is_disabled":false,"rental_uris":{"android":"levelo://app?vid=42e81aa4-c52f-4b4d-b6a2-da443ade49a4","ios":"levelo://app?vid=42e81aa4-c52f-4b4d-b6a2-da443ade49a4"},"vehicle_type_id":"4","last_reported":1747062695,"current_range_meters":8800,"station_id":"ce4bgv92rcd13ifvqcq0","pricing_plan_id":"cebpf4jnsgd1na2vs0mg"},{"bike_id":"f696d577-8861-466e-83a8-c9a28176431a","system_id":"levelo_inurba_marseille","lat":43.309337,"lon":5.4014,"is_reserved":false,"is_disabled":false,"rental_uris":{"android":"levelo://app?vid=f696d577-8861-466e-83a8-c9a28176431a","ios":"levelo://app?vid=f696d577-8861-466e-83a8-c9a28176431a"},"vehicle_type_id":"4","last_reported":1747062695,"current_range_meters":8800,"station_id":"ce4bgvp2rcd13ifvqct0","pricing_plan_id":"cebpf4jnsgd1na2vs0mg"},{"bike_id":"4193b3ff-7911-46cf-aafe-21c4ebe7fd24","system_id":"levelo_inurba_marseille","lat":43.23183,"lon":5.399866,"is_reserved":false,"is_disabled":false,"rental_uris":{"android":"levelo://app?vid=4193b3ff-7911-46cf-aafe-21c4ebe7fd24","ios":"levelo://app?vid=4193b3ff-7911-46cf-aafe-21c4ebe7fd24"},"vehicle_type_id":"4","last_reported":1747062695,"current_range_meters":8800,"station_id":"ce4bhn12rcd13ifvqgqg","pricing_plan_id":"cebpf4jnsgd1na2vs0mg"},{"bike_id":"009dd47b-b2eb-44ab-b26b-eec13d91283d","system_id":"levelo_inurba_marseille","lat":43.22932,"lon":5.35375,"is_reserved":false,"is_disabled":false,"rental_uris":{"android":"levelo://app?vid=009dd47b-b2eb-44ab-b26b-eec13d91283d","ios":"levelo://app?vid=009dd47b-b2eb-44ab-b26b-eec13d91283d"},"vehicle_type_id":"4","last_reported":1747062695,"current_range_meters":8800,"station_id":"cpo3532slgdg3j2ikp40","pricing_plan_id":"cebpf4jnsgd1na2vs0mg"},{"bike_id":"042b3dc3-c51a-4f23-941b-2ed058374260","system_id":"levelo_inurba_marseille","lat":43.2417,"lon":5.36391,"is_reserved":false,"is_disabled":false,"rental_uris":{"android":"levelo://app?vid=042b3dc3-c51a-4f23-941b-2ed058374260","ios":"levelo://app?vid=042b3dc3-c51a-4f23-941b-2ed058374260"},"vehicle_type_id":"4","last_reported":1747062695,"current_range_meters":8800,"station_id":"cpo36qri1sfpv3e86is0","pricing_plan_id":"cebpf4jnsgd1na2vs0mg"},{"bike_id":"89251ead-989e-4058-9af4-1dce8f07f5da","system_id":"levelo_inurba_marseille","lat":43.28611,"lon":5.35128,"is_reserved":false,"is_disabled":false,"rental_uris":{"android":"levelo://app?vid=89251ead-989e-4058-9af4-1dce8f07f5da","ios":"levelo://app?vid=89251ead-989e-4058-9af4-1dce8f07f5da"},"vehicle_type_id":"4","last_reported":1747062695,"current_range_meters":9200,"station_id":"ce4bhch2rcd13ifvqeug","pricing_plan_id":"cebpf4jnsgd1na2vs0mg"},{"bike_id":"414a0fa3-93f3-40f3-bbbe-73c3b87203c0","system_id":"levelo_inurba_marseille","lat":43.27944,"lon":5.41048,"is_reserved":false,"is_disabled":false,"rental_uris":{"android":"levelo://app?vid=414a0fa3-93f3-40f3-bbbe-73c3b87203c0","ios":"levelo://app?vid=414a0fa3-93f3-40f3-bbbe-73c3b87203c0"},"vehicle_type_id":"4","last_reported":1747062695,"current_range_meters":9200,"station_id":"ce4bhnp2rcd13ifvqh0g","pricing_plan_id":"cebpf4jnsgd1na2vs0mg"},{"bike_id":"de4a530f-3b17-41b9-bd98-d22e64d46bdc","system_id":"levelo_inurba_marseille","lat":43.321044,"lon":5.367859,"is_reserved":false,"is_disabled":false,"rental_uris":{"android":"levelo://app?vid=de4a530f-3b17-41b9-bd98-d22e64d46bdc","ios":"levelo://app?vid=de4a530f-3b17-41b9-bd98-d22e64d46bdc"},"vehicle_type_id":"4","last_reported":1747062695,"current_range_meters":9200,"station_id":"ce4bhrh2rcd13ifvqhug","pricing_plan_id":"cebpf4jnsgd1na2vs0mg"},{"bike_id":"948466dc-99ae-48c4-9313-f6499794ec6d","system_id":"levelo_inurba_marseille","lat":43.29635,"lon":5.40611,"is_reserved":false,"is_disabled":false,"rental_uris":{"android":"levelo://app?vid=948466dc-99ae-48c4-9313-f6499794ec6d","ios":"levelo://app?vid=948466dc-99ae-48c4-9313-f6499794ec6d"},"vehicle_type_id":"4","last_reported":1747062695,"current_range_meters":9600,"station_id":"ce4bh0h2rcd13ifvqd60","pricing_plan_id":"cebpf4jnsgd1na2vs0mg"},{"bike_id":"c39ffec0-bf54-4b94-892c-11b3ef277137","system_id":"levelo_inurba_marseille","lat":43.2318,"lon":5.39984,"is_reserved":false,"is_disabled":false,"rental_uris":{"android":"levelo://app?vid=c39ffec0-bf54-4b94-892c-11b3ef277137","ios":"levelo://app?vid=c39ffec0-bf54-4b94-892c-11b3ef277137"},"vehicle_type_id":"4","last_reported":1747062695,"current_range_meters":9600,"station_id":"ce4bhn12rcd13ifvqgqg","pricing_plan_id":"cebpf4jnsgd1na2vs0mg"},{"bike_id":"bbba9b2a-8e9d-4a1d-a5f2-90d259e41385","system_id":"levelo_inurba_marseille","lat":43.31757,"lon":5.39022,"is_reserved":false,"is_disabled":false,"rental_uris":{"android":"levelo://app?vid=bbba9b2a-8e9d-4a1d-a5f2-90d259e41385","ios":"levelo://app?vid=bbba9b2a-8e9d-4a1d-a5f2-90d259e41385"},"vehicle_type_id":"4","last_reported":1747062695,"current_range_meters":9600,"station_id":"ce4bhqp2rcd13ifvqhng","pricing_plan_id":"cebpf4jnsgd1na2vs0mg"},{"bike_id":"6a30e80b-5853-49bf-b56f-8986d3d06cc3","system_id":"levelo_inurba_marseille","lat":43.28839,"lon":5.39298,"is_reserved":false,"is_disabled":false,"rental_uris":{"android":"levelo://app?vid=6a30e80b-5853-49bf-b56f-8986d3d06cc3","ios":"levelo://app?vid=6a30e80b-5853-49bf-b56f-8986d3d06cc3"},"vehicle_type_id":"4","last_reported":1747062695,"current_range_meters":10000,"station_id":"ce4bh2p2rcd13ifvqdi0","pricing_plan_id":"cebpf4jnsgd1na2vs0mg"},{"bike_id":"54c74bba-3daf-4db5-8a9e-e1dca5c14876","system_id":"levelo_inurba_marseille","lat":43.248169,"lon":5.37477,"is_reserved":false,"is_disabled":false,"rental_uris":{"android":"levelo://app?vid=54c74bba-3daf-4db5-8a9e-e1dca5c14876","ios":"levelo://app?vid=54c74bba-3daf-4db5-8a9e-e1dca5c14876"},"vehicle_type_id":"4","last_reported":1747062695,"current_range_meters":10000,"station_id":"ce4bhgh2rcd13ifvqfb0","pricing_plan_id":"cebpf4jnsgd1na2vs0mg"},{"bike_id":"0f14aaef-9bbe-435f-9e9c-f8c999f1e857","system_id":"levelo_inurba_marseille","lat":43.23194,"lon":5.35554,"is_reserved":false,"is_disabled":false,"rental_uris":{"android":"levelo://app?vid=0f14aaef-9bbe-435f-9e9c-f8c999f1e857","ios":"levelo://app?vid=0f14aaef-9bbe-435f-9e9c-f8c999f1e857"},"vehicle_type_id":"4","last_reported":1747062695,"current_range_meters":10000,"station_id":"ce4bhu92rcd13ifvqi70","pricing_plan_id":"cebpf4jnsgd1na2vs0mg"},{"bike_id":"63bec25a-1453-4fe4-b106-97d9d0f462d0","system_id":"levelo_inurba_marseille","lat":43.284,"lon":5.34983,"is_reserved":false,"is_disabled":false,"rental_uris":{"android":"levelo://app?vid=63bec25a-1453-4fe4-b106-97d9d0f462d0","ios":"levelo://app?vid=63bec25a-1453-4fe4-b106-97d9d0f462d0"},"vehicle_type_id":"4","last_reported":1747062695,"current_range_meters":10800,"station_id":"ce4bhbh2rcd13ifvqepg","pricing_plan_id":"cebpf4jnsgd1na2vs0mg"},{"bike_id":"0b3fc1f2-b856-4f39-bb34-74fe5962893b","system_id":"levelo_inurba_marseille","lat":43.25944,"lon":5.40896,"is_reserved":false,"is_disabled":false,"rental_uris":{"android":"levelo://app?vid=0b3fc1f2-b856-4f39-bb34-74fe5962893b","ios":"levelo://app?vid=0b3fc1f2-b856-4f39-bb34-74fe5962893b"},"vehicle_type_id":"4","last_reported":1747062695,"current_range_meters":10800,"station_id":"ce4bhm92rcd13ifvqglg","pricing_plan_id":"cebpf4jnsgd1na2vs0mg"},{"bike_id":"08cf1eea-2e51-4b03-b6f2-1bc272e1117c","system_id":"levelo_inurba_marseille","lat":43.29544,"lon":5.42281,"is_reserved":false,"is_disabled":false,"rental_uris":{"android":"levelo://app?vid=08cf1eea-2e51-4b03-b6f2-1bc272e1117c","ios":"levelo://app?vid=08cf1eea-2e51-4b03-b6f2-1bc272e1117c"},"vehicle_type_id":"4","last_reported":1747062695,"current_range_meters":10800,"station_id":"ce4bhph2rcd13ifvqhdg","pricing_plan_id":"cebpf4jnsgd1na2vs0mg"},{"bike_id":"ca0cfa5f-9b69-450b-922c-15e0d815a840","system_id":"levelo_inurba_marseille","lat":43.32363,"lon":5.38884,"is_reserved":false,"is_disabled":false,"rental_uris":{"android":"levelo://app?vid=ca0cfa5f-9b69-450b-922c-15e0d815a840","ios":"levelo://app?vid=ca0cfa5f-9b69-450b-922c-15e0d815a840"},"vehicle_type_id":"4","last_reported":1747062695,"current_range_meters":10800,"station_id":"ce4bhqp2rcd13ifvqhog","pricing_plan_id":"cebpf4jnsgd1na2vs0mg"},{"bike_id":"2ee4d910-0ee1-4bc5-86c8-c77afad12b4f","system_id":"levelo_inurba_marseille","lat":43.32109,"lon":5.367853,"is_reserved":false,"is_disabled":false,"rental_uris":{"android":"levelo://app?vid=2ee4d910-0ee1-4bc5-86c8-c77afad12b4f","ios":"levelo://app?vid=2ee4d910-0ee1-4bc5-86c8-c77afad12b4f"},"vehicle_type_id":"4","last_reported":1747062695,"current_range_meters":10800,"station_id":"ce4bhrh2rcd13ifvqhug","pricing_plan_id":"cebpf4jnsgd1na2vs0mg"},{"bike_id":"c717b955-1d23-42a6-bf63-f39e0d9342dd","system_id":"levelo_inurba_marseille","lat":43.28285,"lon":5.43095,"is_reserved":false,"is_disabled":false,"rental_uris":{"android":"levelo://app?vid=c717b955-1d23-42a6-bf63-f39e0d9342dd","ios":"levelo://app?vid=c717b955-1d23-42a6-bf63-f39e0d9342dd"},"vehicle_type_id":"4","last_reported":1747062695,"current_range_meters":11200,"station_id":"","pricing_plan_id":"cebpf4jnsgd1na2vs0mg"},{"bike_id":"8835fb1c-283a-456e-9f20-2c53d9b8bdbc","system_id":"levelo_inurba_marseille","lat":43.29714,"lon":5.37709,"is_reserved":false,"is_disabled":false,"rental_uris":{"android":"levelo://app?vid=8835fb1c-283a-456e-9f20-2c53d9b8bdbc","ios":"levelo://app?vid=8835fb1c-283a-456e-9f20-2c53d9b8bdbc"},"vehicle_type_id":"4","last_reported":1747062695,"current_range_meters":11200,"station_id":"ce4bgkh2rcd13ifvqbl0","pricing_plan_id":"cebpf4jnsgd1na2vs0mg"},{"bike_id":"a2624839-9fbd-423d-b3ef-510938059a7d","system_id":"levelo_inurba_marseille","lat":43.29631,"lon":5.406,"is_reserved":false,"is_disabled":false,"rental_uris":{"android":"levelo://app?vid=a2624839-9fbd-423d-b3ef-510938059a7d","ios":"levelo://app?vid=a2624839-9fbd-423d-b3ef-510938059a7d"},"vehicle_type_id":"4","last_reported":1747062695,"current_range_meters":11200,"station_id":"ce4bh0h2rcd13ifvqd60","pricing_plan_id":"cebpf4jnsgd1na2vs0mg"},{"bike_id":"af3ff72f-7d87-4d79-ac62-59d9001b0bd8","system_id":"levelo_inurba_marseille","lat":43.25086,"lon":5.39527,"is_reserved":false,"is_disabled":false,"rental_uris":{"android":"levelo://app?vid=af3ff72f-7d87-4d79-ac62-59d9001b0bd8","ios":"levelo://app?vid=af3ff72f-7d87-4d79-ac62-59d9001b0bd8"},"vehicle_type_id":"4","last_reported":1747062695,"current_range_meters":11200,"station_id":"ce4bhm12rcd13ifvqgkg","pricing_plan_id":"cebpf4jnsgd1na2vs0mg"},{"bike_id":"0bf31d40-2ad2-494c-afdd-13acdb3f7f8d","system_id":"levelo_inurba_marseille","lat":43.29589,"lon":5.4223,"is_reserved":false,"is_disabled":false,"rental_uris":{"android":"levelo://app?vid=0bf31d40-2ad2-494c-afdd-13acdb3f7f8d","ios":"levelo://app?vid=0bf31d40-2ad2-494c-afdd-13acdb3f7f8d"},"vehicle_type_id":"4","last_reported":1747062695,"current_range_meters":11600,"station_id":"","pricing_plan_id":"cebpf4jnsgd1na2vs0mg"},{"bike_id":"62d20394-ad69-4244-94aa-296eeddf849a","system_id":"levelo_inurba_marseille","lat":43.29035,"lon":5.35919,"is_reserved":false,"is_disabled":false,"rental_uris":{"android":"levelo://app?vid=62d20394-ad69-4244-94aa-296eeddf849a","ios":"levelo://app?vid=62d20394-ad69-4244-94aa-296eeddf849a"},"vehicle_type_id":"4","last_reported":1747062695,"current_range_meters":11600,"station_id":"ce4bha92rcd13ifvqeg0","pricing_plan_id":"cebpf4jnsgd1na2vs0mg"},{"bike_id":"14974396-773a-4225-b2c9-f2fca04895a5","system_id":"levelo_inurba_marseille","lat":43.28454,"lon":5.35886,"is_reserved":false,"is_disabled":false,"rental_uris":{"android":"levelo://app?vid=14974396-773a-4225-b2c9-f2fca04895a5","ios":"levelo://app?vid=14974396-773a-4225-b2c9-f2fca04895a5"},"vehicle_type_id":"4","last_reported":1747062695,"current_range_meters":11600,"station_id":"ce4bhah2rcd13ifvqei0","pricing_plan_id":"cebpf4jnsgd1na2vs0mg"},{"bike_id":"bbcf38c6-0c0f-44b9-8934-b31643c5cb0b","system_id":"levelo_inurba_marseille","lat":43.26206,"lon":5.37443,"is_reserved":false,"is_disabled":false,"rental_uris":{"android":"levelo://app?vid=bbcf38c6-0c0f-44b9-8934-b31643c5cb0b","ios":"levelo://app?vid=bbcf38c6-0c0f-44b9-8934-b31643c5cb0b"},"vehicle_type_id":"4","last_reported":1747062695,"current_range_meters":11600,"station_id":"ce4bhgp2rcd13ifvqfc0","pricing_plan_id":"cebpf4jnsgd1na2vs0mg"},{"bike_id":"a31e79d1-5585-4d55-8721-27bd269fa7c9","system_id":"levelo_inurba_marseille","lat":43.27995,"lon":5.40009,"is_reserved":false,"is_disabled":false,"rental_uris":{"android":"levelo://app?vid=a31e79d1-5585-4d55-8721-27bd269fa7c9","ios":"levelo://app?vid=a31e79d1-5585-4d55-8721-27bd269fa7c9"},"vehicle_type_id":"4","last_reported":1747062695,"current_range_meters":11600,"station_id":"ce4bho92rcd13ifvqh4g","pricing_plan_id":"cebpf4jnsgd1na2vs0mg"},{"bike_id":"4bd94f65-6b97-4a72-9bac-3b76d33b81b6","system_id":"levelo_inurba_marseille","lat":43.24162,"lon":5.36433,"is_reserved":false,"is_disabled":false,"rental_uris":{"android":"levelo://app?vid=4bd94f65-6b97-4a72-9bac-3b76d33b81b6","ios":"levelo://app?vid=4bd94f65-6b97-4a72-9bac-3b76d33b81b6"},"vehicle_type_id":"4","last_reported":1747062695,"current_range_meters":11600,"station_id":"cpo36qri1sfpv3e86is0","pricing_plan_id":"cebpf4jnsgd1na2vs0mg"},{"bike_id":"b0be558c-96df-4e99-8616-693c938b6615","system_id":"levelo_inurba_marseille","lat":43.283521,"lon":5.381027,"is_reserved":false,"is_disabled":false,"rental_uris":{"android":"levelo://app?vid=b0be558c-96df-4e99-8616-693c938b6615","ios":"levelo://app?vid=b0be558c-96df-4e99-8616-693c938b6615"},"vehicle_type_id":"4","last_reported":1747062695,"current_range_meters":12000,"station_id":"ce4bh412rcd13ifvqdr0","pricing_plan_id":"cebpf4jnsgd1na2vs0mg"},{"bike_id":"0fbdf097-aab6-463d-8f8c-dc54dc3262e1","system_id":"levelo_inurba_marseille","lat":43.28949,"lon":5.36389,"is_reserved":false,"is_disabled":false,"rental_uris":{"android":"levelo://app?vid=0fbdf097-aab6-463d-8f8c-dc54dc3262e1","ios":"levelo://app?vid=0fbdf097-aab6-463d-8f8c-dc54dc3262e1"},"vehicle_type_id":"4","last_reported":1747062695,"current_range_meters":12000,"station_id":"ce4bhc92rcd13ifvqetg","pricing_plan_id":"cebpf4jnsgd1na2vs0mg"},{"bike_id":"1d3096b7-4cab-47fd-8e57-b11e8dd42cf2","system_id":"levelo_inurba_marseille","lat":43.26569,"lon":5.39015,"is_reserved":false,"is_disabled":false,"rental_uris":{"android":"levelo://app?vid=1d3096b7-4cab-47fd-8e57-b11e8dd42cf2","ios":"levelo://app?vid=1d3096b7-4cab-47fd-8e57-b11e8dd42cf2"},"vehicle_type_id":"4","last_reported":1747062695,"current_range_meters":12000,"station_id":"ce4bhe12rcd13ifvqf30","pricing_plan_id":"cebpf4jnsgd1na2vs0mg"},{"bike_id":"2709e55d-9ff4-42a1-94fb-673a5d3da18e","system_id":"levelo_inurba_marseille","lat":43.27918,"lon":5.39583,"is_reserved":false,"is_disabled":false,"rental_uris":{"android":"levelo://app?vid=2709e55d-9ff4-42a1-94fb-673a5d3da18e","ios":"levelo://app?vid=2709e55d-9ff4-42a1-94fb-673a5d3da18e"},"vehicle_type_id":"4","last_reported":1747062695,"current_range_meters":12000,"station_id":"ce4bhf92rcd13ifvqf40","pricing_plan_id":"cebpf4jnsgd1na2vs0mg"},{"bike_id":"aeff9c77-e609-4b5f-a55a-daa07998a08e","system_id":"levelo_inurba_marseille","lat":43.23182,"lon":5.39988,"is_reserved":false,"is_disabled":false,"rental_uris":{"android":"levelo://app?vid=aeff9c77-e609-4b5f-a55a-daa07998a08e","ios":"levelo://app?vid=aeff9c77-e609-4b5f-a55a-daa07998a08e"},"vehicle_type_id":"4","last_reported":1747062695,"current_range_meters":12000,"station_id":"ce4bhn12rcd13ifvqgqg","pricing_plan_id":"cebpf4jnsgd1na2vs0mg"},{"bike_id":"61ef8e28-9dc8-4e65-9e10-edf806c2236d","system_id":"levelo_inurba_marseille","lat":43.33028,"lon":5.3904,"is_reserved":false,"is_disabled":false,"rental_uris":{"android":"levelo://app?vid=61ef8e28-9dc8-4e65-9e10-edf806c2236d","ios":"levelo://app?vid=61ef8e28-9dc8-4e65-9e10-edf806c2236d"},"vehicle_type_id":"4","last_reported":1747062695,"current_range_meters":12000,"station_id":"ce4bhr92rcd13ifvqhrg","pricing_plan_id":"cebpf4jnsgd1na2vs0mg"},{"bike_id":"193857da-ac97-4db6-8622-82398b4a72eb","system_id":"levelo_inurba_marseille","lat":43.29533,"lon":5.38536,"is_reserved":false,"is_disabled":false,"rental_uris":{"android":"levelo://app?vid=193857da-ac97-4db6-8622-82398b4a72eb","ios":"levelo://app?vid=193857da-ac97-4db6-8622-82398b4a72eb"},"vehicle_type_id":"4","last_reported":1747062695,"current_range_meters":12400,"station_id":"ce4bgih2rcd13ifvqba0","pricing_plan_id":"cebpf4jnsgd1na2vs0mg"},{"bike_id":"09667552-604c-472f-b05c-2be0e1fd2bf4","system_id":"levelo_inurba_marseille","lat":43.2803,"lon":5.36932,"is_reserved":false,"is_disabled":false,"rental_uris":{"android":"levelo://app?vid=09667552-604c-472f-b05c-2be0e1fd2bf4","ios":"levelo://app?vid=09667552-604c-472f-b05c-2be0e1fd2bf4"},"vehicle_type_id":"4","last_reported":1747062695,"current_range_meters":12400,"station_id":"ce4bha12rcd13ifvqef0","pricing_plan_id":"cebpf4jnsgd1na2vs0mg"},{"bike_id":"f1c412b2-72a9-4ae9-9300-180b883f0c3d","system_id":"levelo_inurba_marseille","lat":43.27377,"lon":5.36254,"is_reserved":false,"is_disabled":false,"rental_uris":{"android":"levelo://app?vid=f1c412b2-72a9-4ae9-9300-180b883f0c3d","ios":"levelo://app?vid=f1c412b2-72a9-4ae9-9300-180b883f0c3d"},"vehicle_type_id":"4","last_reported":1747062695,"current_range_meters":12400,"station_id":"ce4bhbh2rcd13ifvqeo0","pricing_plan_id":"cebpf4jnsgd1na2vs0mg"},{"bike_id":"98c01e1d-c54a-48f0-80ca-193f0fc528f3","system_id":"levelo_inurba_marseille","lat":43.27378,"lon":5.3625,"is_reserved":false,"is_disabled":false,"rental_uris":{"android":"levelo://app?vid=98c01e1d-c54a-48f0-80ca-193f0fc528f3","ios":"levelo://app?vid=98c01e1d-c54a-48f0-80ca-193f0fc528f3"},"vehicle_type_id":"4","last_reported":1747062695,"current_range_meters":12800,"station_id":"ce4bhbh2rcd13ifvqeo0","pricing_plan_id":"cebpf4jnsgd1na2vs0mg"},{"bike_id":"2426c398-e9ff-4bc6-af2e-6b6e8459674c","system_id":"levelo_inurba_marseille","lat":43.28411,"lon":5.34975,"is_reserved":false,"is_disabled":false,"rental_uris":{"android":"levelo://app?vid=2426c398-e9ff-4bc6-af2e-6b6e8459674c","ios":"levelo://app?vid=2426c398-e9ff-4bc6-af2e-6b6e8459674c"},"vehicle_type_id":"4","last_reported":1747062695,"current_range_meters":12800,"station_id":"ce4bhbh2rcd13ifvqepg","pricing_plan_id":"cebpf4jnsgd1na2vs0mg"},{"bike_id":"89c550d1-b31b-49dc-bb41-cd52ba1ad9f2","system_id":"levelo_inurba_marseille","lat":43.24164,"lon":5.36398,"is_reserved":false,"is_disabled":false,"rental_uris":{"android":"levelo://app?vid=89c550d1-b31b-49dc-bb41-cd52ba1ad9f2","ios":"levelo://app?vid=89c550d1-b31b-49dc-bb41-cd52ba1ad9f2"},"vehicle_type_id":"4","last_reported":1747062695,"current_range_meters":12800,"station_id":"cpo36qri1sfpv3e86is0","pricing_plan_id":"cebpf4jnsgd1na2vs0mg"},{"bike_id":"11c6ac18-15fd-4429-b596-8c2fe3290aef","system_id":"levelo_inurba_marseille","lat":43.28936,"lon":5.3664,"is_reserved":false,"is_disabled":false,"rental_uris":{"android":"levelo://app?vid=11c6ac18-15fd-4429-b596-8c2fe3290aef","ios":"levelo://app?vid=11c6ac18-15fd-4429-b596-8c2fe3290aef"},"vehicle_type_id":"4","last_reported":1747062695,"current_range_meters":13600,"station_id":"ce4bhap2rcd13ifvqek0","pricing_plan_id":"cebpf4jnsgd1na2vs0mg"},{"bike_id":"94c87ee0-3f3d-495e-8c05-641372105856","system_id":"levelo_inurba_marseille","lat":43.29257,"lon":5.40908,"is_reserved":false,"is_disabled":false,"rental_uris":{"android":"levelo://app?vid=94c87ee0-3f3d-495e-8c05-641372105856","ios":"levelo://app?vid=94c87ee0-3f3d-495e-8c05-641372105856"},"vehicle_type_id":"4","last_reported":1747062695,"current_range_meters":14000,"station_id":"ce4bh192rcd13ifvqdc0","pricing_plan_id":"cebpf4jnsgd1na2vs0mg"},{"bike_id":"fc8890f4-4388-45df-a327-ba03d14caef2","system_id":"levelo_inurba_marseille","lat":43.241709,"lon":5.363932,"is_reserved":false,"is_disabled":false,"rental_uris":{"android":"levelo://app?vid=fc8890f4-4388-45df-a327-ba03d14caef2","ios":"levelo://app?vid=fc8890f4-4388-45df-a327-ba03d14caef2"},"vehicle_type_id":"4","last_reported":1747062695,"current_range_meters":14000,"station_id":"cpo36qri1sfpv3e86is0","pricing_plan_id":"cebpf4jnsgd1na2vs0mg"},{"bike_id":"b062ff75-47bc-448e-a470-1882fe31d702","system_id":"levelo_inurba_marseille","lat":43.30418,"lon":5.38874,"is_reserved":false,"is_disabled":false,"rental_uris":{"android":"levelo://app?vid=b062ff75-47bc-448e-a470-1882fe31d702","ios":"levelo://app?vid=b062ff75-47bc-448e-a470-1882fe31d702"},"vehicle_type_id":"4","last_reported":1747062695,"current_range_meters":14400,"station_id":"ce4bgk12rcd13ifvqbi0","pricing_plan_id":"cebpf4jnsgd1na2vs0mg"},{"bike_id":"d6484563-d9fb-4659-b31c-b9b088834717","system_id":"levelo_inurba_marseille","lat":43.28609,"lon":5.35107,"is_reserved":false,"is_disabled":false,"rental_uris":{"android":"levelo://app?vid=d6484563-d9fb-4659-b31c-b9b088834717","ios":"levelo://app?vid=d6484563-d9fb-4659-b31c-b9b088834717"},"vehicle_type_id":"4","last_reported":1747062695,"current_range_meters":14400,"station_id":"ce4bhch2rcd13ifvqeug","pricing_plan_id":"cebpf4jnsgd1na2vs0mg"},{"bike_id":"65a4ff3f-f65f-40a9-b772-6e6ed46e2dea","system_id":"levelo_inurba_marseille","lat":43.26211,"lon":5.37443,"is_reserved":false,"is_disabled":false,"rental_uris":{"android":"levelo://app?vid=65a4ff3f-f65f-40a9-b772-6e6ed46e2dea","ios":"levelo://app?vid=65a4ff3f-f65f-40a9-b772-6e6ed46e2dea"},"vehicle_type_id":"4","last_reported":1747062695,"current_range_meters":14400,"station_id":"ce4bhgp2rcd13ifvqfc0","pricing_plan_id":"cebpf4jnsgd1na2vs0mg"},{"bike_id":"a68ef539-b508-47fe-b9d5-e9bdcaf82503","system_id":"levelo_inurba_marseille","lat":43.23199,"lon":5.35482,"is_reserved":false,"is_disabled":false,"rental_uris":{"android":"levelo://app?vid=a68ef539-b508-47fe-b9d5-e9bdcaf82503","ios":"levelo://app?vid=a68ef539-b508-47fe-b9d5-e9bdcaf82503"},"vehicle_type_id":"4","last_reported":1747062695,"current_range_meters":14400,"station_id":"ce4bhu92rcd13ifvqi70","pricing_plan_id":"cebpf4jnsgd1na2vs0mg"},{"bike_id":"f240594f-15b8-450c-8149-9a498d685101","system_id":"levelo_inurba_marseille","lat":43.27611,"lon":5.36107,"is_reserved":false,"is_disabled":false,"rental_uris":{"android":"levelo://app?vid=f240594f-15b8-450c-8149-9a498d685101","ios":"levelo://app?vid=f240594f-15b8-450c-8149-9a498d685101"},"vehicle_type_id":"4","last_reported":1747062695,"current_range_meters":14800,"station_id":"ce4bgj92rcd13ifvqbe0","pricing_plan_id":"cebpf4jnsgd1na2vs0mg"},{"bike_id":"e8874c94-6de2-4ab4-800d-f3e3da63a460","system_id":"levelo_inurba_marseille","lat":43.29031,"lon":5.38132,"is_reserved":false,"is_disabled":false,"rental_uris":{"android":"levelo://app?vid=e8874c94-6de2-4ab4-800d-f3e3da63a460","ios":"levelo://app?vid=e8874c94-6de2-4ab4-800d-f3e3da63a460"},"vehicle_type_id":"4","last_reported":1747062695,"current_range_meters":14800,"station_id":"ce4bh4p2rcd13ifvqe1g","pricing_plan_id":"cebpf4jnsgd1na2vs0mg"},{"bike_id":"7aa43850-2a6c-49f5-b44d-469e9f0fc8a9","system_id":"levelo_inurba_marseille","lat":43.29259,"lon":5.38434,"is_reserved":false,"is_disabled":false,"rental_uris":{"android":"levelo://app?vid=7aa43850-2a6c-49f5-b44d-469e9f0fc8a9","ios":"levelo://app?vid=7aa43850-2a6c-49f5-b44d-469e9f0fc8a9"},"vehicle_type_id":"4","last_reported":1747062695,"current_range_meters":14800,"station_id":"ce4bh692rcd13ifvqea0","pricing_plan_id":"cebpf4jnsgd1na2vs0mg"},{"bike_id":"78c92003-a57f-4508-819e-56e2949f9ea3","system_id":"levelo_inurba_marseille","lat":43.292706,"lon":5.384373,"is_reserved":false,"is_disabled":false,"rental_uris":{"android":"levelo://app?vid=78c92003-a57f-4508-819e-56e2949f9ea3","ios":"levelo://app?vid=78c92003-a57f-4508-819e-56e2949f9ea3"},"vehicle_type_id":"4","last_reported":1747062695,"current_range_meters":14800,"station_id":"ce4bh692rcd13ifvqea0","pricing_plan_id":"cebpf4jnsgd1na2vs0mg"},{"bike_id":"76582004-7c67-4271-8cc4-f92a78226c2f","system_id":"levelo_inurba_marseille","lat":43.28671,"lon":5.3635,"is_reserved":false,"is_disabled":false,"rental_uris":{"android":"levelo://app?vid=76582004-7c67-4271-8cc4-f92a78226c2f","ios":"levelo://app?vid=76582004-7c67-4271-8cc4-f92a78226c2f"},"vehicle_type_id":"4","last_reported":1747062695,"current_range_meters":14800,"station_id":"ce4bhah2rcd13ifvqej0","pricing_plan_id":"cebpf4jnsgd1na2vs0mg"},{"bike_id":"b9a7d646-21e7-459b-b0ef-b24b80dc677f","system_id":"levelo_inurba_marseille","lat":43.27047,"lon":5.4026,"is_reserved":false,"is_disabled":false,"rental_uris":{"android":"levelo://app?vid=b9a7d646-21e7-459b-b0ef-b24b80dc677f","ios":"levelo://app?vid=b9a7d646-21e7-459b-b0ef-b24b80dc677f"},"vehicle_type_id":"4","last_reported":1747062695,"current_range_meters":15200,"station_id":"ce4bhk92rcd13ifvqgc0","pricing_plan_id":"cebpf4jnsgd1na2vs0mg"},{"bike_id":"cb19f80d-6adc-4438-823a-0736cc2c8c84","system_id":"levelo_inurba_marseille","lat":43.28039,"lon":5.36946,"is_reserved":false,"is_disabled":false,"rental_uris":{"android":"levelo://app?vid=cb19f80d-6adc-4438-823a-0736cc2c8c84","ios":"levelo://app?vid=cb19f80d-6adc-4438-823a-0736cc2c8c84"},"vehicle_type_id":"4","last_reported":1747062695,"current_range_meters":16000,"station_id":"ce4bha12rcd13ifvqef0","pricing_plan_id":"cebpf4jnsgd1na2vs0mg"},{"bike_id":"142056cc-1b47-43e0-8cec-dd9c2f387849","system_id":"levelo_inurba_marseille","lat":43.28268,"lon":5.3506,"is_reserved":false,"is_disabled":false,"rental_uris":{"android":"levelo://app?vid=142056cc-1b47-43e0-8cec-dd9c2f387849","ios":"levelo://app?vid=142056cc-1b47-43e0-8cec-dd9c2f387849"},"vehicle_type_id":"4","last_reported":1747062695,"current_range_meters":16000,"station_id":"ce4bhbp2rcd13ifvqerg","pricing_plan_id":"cebpf4jnsgd1na2vs0mg"},{"bike_id":"3dc39aba-db38-4207-ab86-6512a2f6b506","system_id":"levelo_inurba_marseille","lat":43.32477,"lon":5.36569,"is_reserved":false,"is_disabled":false,"rental_uris":{"android":"levelo://app?vid=3dc39aba-db38-4207-ab86-6512a2f6b506","ios":"levelo://app?vid=3dc39aba-db38-4207-ab86-6512a2f6b506"},"vehicle_type_id":"4","last_reported":1747062695,"current_range_meters":16000,"station_id":"ce4bhs12rcd13ifvqhvg","pricing_plan_id":"cebpf4jnsgd1na2vs0mg"},{"bike_id":"992d5eac-d37e-402b-a196-919ddf17528b","system_id":"levelo_inurba_marseille","lat":43.315277,"lon":5.380335,"is_reserved":false,"is_disabled":false,"rental_uris":{"android":"levelo://app?vid=992d5eac-d37e-402b-a196-919ddf17528b","ios":"levelo://app?vid=992d5eac-d37e-402b-a196-919ddf17528b"},"vehicle_type_id":"4","last_reported":1747062695,"current_range_meters":16400,"station_id":"ce4bhsp2rcd13ifvqi50","pricing_plan_id":"cebpf4jnsgd1na2vs0mg"},{"bike_id":"db6b5e8c-4f4e-4bac-91be-8a2a91cd0ffd","system_id":"levelo_inurba_marseille","lat":43.29852,"lon":5.36284,"is_reserved":false,"is_disabled":false,"rental_uris":{"android":"levelo://app?vid=db6b5e8c-4f4e-4bac-91be-8a2a91cd0ffd","ios":"levelo://app?vid=db6b5e8c-4f4e-4bac-91be-8a2a91cd0ffd"},"vehicle_type_id":"4","last_reported":1747062695,"current_range_meters":16800,"station_id":"ce4bgpp2rcd13ifvqc3g","pricing_plan_id":"cebpf4jnsgd1na2vs0mg"},{"bike_id":"c1e295f5-ecaa-446a-9a35-3bba2995840d","system_id":"levelo_inurba_marseille","lat":43.28425,"lon":5.37518,"is_reserved":false,"is_disabled":false,"rental_uris":{"android":"levelo://app?vid=c1e295f5-ecaa-446a-9a35-3bba2995840d","ios":"levelo://app?vid=c1e295f5-ecaa-446a-9a35-3bba2995840d"},"vehicle_type_id":"4","last_reported":1747062695,"current_range_meters":16800,"station_id":"ce4bh412rcd13ifvqds0","pricing_plan_id":"cebpf4jnsgd1na2vs0mg"},{"bike_id":"04be18fb-28f2-4aaa-a90a-6b195a3f55a8","system_id":"levelo_inurba_marseille","lat":43.28421,"lon":5.34995,"is_reserved":false,"is_disabled":false,"rental_uris":{"android":"levelo://app?vid=04be18fb-28f2-4aaa-a90a-6b195a3f55a8","ios":"levelo://app?vid=04be18fb-28f2-4aaa-a90a-6b195a3f55a8"},"vehicle_type_id":"4","last_reported":1747062695,"current_range_meters":16800,"station_id":"ce4bhbh2rcd13ifvqepg","pricing_plan_id":"cebpf4jnsgd1na2vs0mg"},{"bike_id":"c10cf749-6e7a-4106-9dba-682985042f48","system_id":"levelo_inurba_marseille","lat":43.28261,"lon":5.35066,"is_reserved":false,"is_disabled":false,"rental_uris":{"android":"levelo://app?vid=c10cf749-6e7a-4106-9dba-682985042f48","ios":"levelo://app?vid=c10cf749-6e7a-4106-9dba-682985042f48"},"vehicle_type_id":"4","last_reported":1747062695,"current_range_meters":17200,"station_id":"ce4bhbp2rcd13ifvqerg","pricing_plan_id":"cebpf4jnsgd1na2vs0mg"},{"bike_id":"357ae3b1-84c1-4f39-85f1-6e816f69eaf5","system_id":"levelo_inurba_marseille","lat":43.27548,"lon":5.38428,"is_reserved":false,"is_disabled":false,"rental_uris":{"android":"levelo://app?vid=357ae3b1-84c1-4f39-85f1-6e816f69eaf5","ios":"levelo://app?vid=357ae3b1-84c1-4f39-85f1-6e816f69eaf5"},"vehicle_type_id":"4","last_reported":1747062695,"current_range_meters":17200,"station_id":"ce4bhh92rcd13ifvqfi0","pricing_plan_id":"cebpf4jnsgd1na2vs0mg"},{"bike_id":"347dd91d-2f23-4e25-a27e-d3305bb962e5","system_id":"levelo_inurba_marseille","lat":43.32653,"lon":5.40998,"is_reserved":false,"is_disabled":false,"rental_uris":{"android":"levelo://app?vid=347dd91d-2f23-4e25-a27e-d3305bb962e5","ios":"levelo://app?vid=347dd91d-2f23-4e25-a27e-d3305bb962e5"},"vehicle_type_id":"4","last_reported":1747062695,"current_range_meters":17200,"station_id":"ce4bhpp2rcd13ifvqhgg","pricing_plan_id":"cebpf4jnsgd1na2vs0mg"},{"bike_id":"dcff86c8-70be-418a-877f-23036e34e8e6","system_id":"levelo_inurba_marseille","lat":43.245789,"lon":5.395183,"is_reserved":false,"is_disabled":false,"rental_uris":{"android":"levelo://app?vid=dcff86c8-70be-418a-877f-23036e34e8e6","ios":"levelo://app?vid=dcff86c8-70be-418a-877f-23036e34e8e6"},"vehicle_type_id":"4","last_reported":1747062695,"current_range_meters":17200,"station_id":"ce4bhu92rcd13ifvqi70","pricing_plan_id":"cebpf4jnsgd1na2vs0mg"},{"bike_id":"39db497b-458b-43c4-b5ae-9755986e2fdc","system_id":"levelo_inurba_marseille","lat":43.26165,"lon":5.42066,"is_reserved":false,"is_disabled":false,"rental_uris":{"android":"levelo://app?vid=39db497b-458b-43c4-b5ae-9755986e2fdc","ios":"levelo://app?vid=39db497b-458b-43c4-b5ae-9755986e2fdc"},"vehicle_type_id":"4","last_reported":1747062695,"current_range_meters":17600,"station_id":"","pricing_plan_id":"cebpf4jnsgd1na2vs0mg"},{"bike_id":"9a9cd75a-ac73-4fba-b14c-f055f3ad256f","system_id":"levelo_inurba_marseille","lat":43.30332,"lon":5.40434,"is_reserved":false,"is_disabled":false,"rental_uris":{"android":"levelo://app?vid=9a9cd75a-ac73-4fba-b14c-f055f3ad256f","ios":"levelo://app?vid=9a9cd75a-ac73-4fba-b14c-f055f3ad256f"},"vehicle_type_id":"4","last_reported":1747062695,"current_range_meters":17600,"station_id":"ce4bh012rcd13ifvqd10","pricing_plan_id":"cebpf4jnsgd1na2vs0mg"},{"bike_id":"2718dadd-b179-436a-9c3c-c24f5585e9be","system_id":"levelo_inurba_marseille","lat":43.28461,"lon":5.35882,"is_reserved":false,"is_disabled":false,"rental_uris":{"android":"levelo://app?vid=2718dadd-b179-436a-9c3c-c24f5585e9be","ios":"levelo://app?vid=2718dadd-b179-436a-9c3c-c24f5585e9be"},"vehicle_type_id":"4","last_reported":1747062695,"current_range_meters":17600,"station_id":"ce4bhah2rcd13ifvqei0","pricing_plan_id":"cebpf4jnsgd1na2vs0mg"},{"bike_id":"8809c9c0-f709-4a8b-9af6-0d58caa99b42","system_id":"levelo_inurba_marseille","lat":43.2867,"lon":5.36351,"is_reserved":false,"is_disabled":false,"rental_uris":{"android":"levelo://app?vid=8809c9c0-f709-4a8b-9af6-0d58caa99b42","ios":"levelo://app?vid=8809c9c0-f709-4a8b-9af6-0d58caa99b42"},"vehicle_type_id":"4","last_reported":1747062695,"current_range_meters":17600,"station_id":"ce4bhah2rcd13ifvqej0","pricing_plan_id":"cebpf4jnsgd1na2vs0mg"},{"bike_id":"86689108-8b6c-425a-98ae-946b288cf2c2","system_id":"levelo_inurba_marseille","lat":43.28464,"lon":5.35894,"is_reserved":false,"is_disabled":false,"rental_uris":{"android":"levelo://app?vid=86689108-8b6c-425a-98ae-946b288cf2c2","ios":"levelo://app?vid=86689108-8b6c-425a-98ae-946b288cf2c2"},"vehicle_type_id":"4","last_reported":1747062695,"current_range_meters":18000,"station_id":"ce4bhah2rcd13ifvqei0","pricing_plan_id":"cebpf4jnsgd1na2vs0mg"},{"bike_id":"aed54943-02e4-40d7-9e7d-bd03d9ec6745","system_id":"levelo_inurba_marseille","lat":43.28461,"lon":5.35888,"is_reserved":false,"is_disabled":false,"rental_uris":{"android":"levelo://app?vid=aed54943-02e4-40d7-9e7d-bd03d9ec6745","ios":"levelo://app?vid=aed54943-02e4-40d7-9e7d-bd03d9ec6745"},"vehicle_type_id":"4","last_reported":1747062695,"current_range_meters":18000,"station_id":"ce4bhah2rcd13ifvqei0","pricing_plan_id":"cebpf4jnsgd1na2vs0mg"},{"bike_id":"78a336b2-7d28-4a19-a82c-6806dcf329c6","system_id":"levelo_inurba_marseille","lat":43.286143,"lon":5.35108,"is_reserved":false,"is_disabled":false,"rental_uris":{"android":"levelo://app?vid=78a336b2-7d28-4a19-a82c-6806dcf329c6","ios":"levelo://app?vid=78a336b2-7d28-4a19-a82c-6806dcf329c6"},"vehicle_type_id":"4","last_reported":1747062695,"current_range_meters":18000,"station_id":"ce4bhch2rcd13ifvqeug","pricing_plan_id":"cebpf4jnsgd1na2vs0mg"},{"bike_id":"8890f94d-b195-434a-bc2f-64eacce97edb","system_id":"levelo_inurba_marseille","lat":43.26502,"lon":5.39557,"is_reserved":false,"is_disabled":false,"rental_uris":{"android":"levelo://app?vid=8890f94d-b195-434a-bc2f-64eacce97edb","ios":"levelo://app?vid=8890f94d-b195-434a-bc2f-64eacce97edb"},"vehicle_type_id":"4","last_reported":1747062695,"current_range_meters":18000,"station_id":"ce4bhi12rcd13ifvqfq0","pricing_plan_id":"cebpf4jnsgd1na2vs0mg"},{"bike_id":"b1a33274-f4fa-47ba-8997-5161a38534c0","system_id":"levelo_inurba_marseille","lat":43.28715,"lon":5.3999,"is_reserved":false,"is_disabled":false,"rental_uris":{"android":"levelo://app?vid=b1a33274-f4fa-47ba-8997-5161a38534c0","ios":"levelo://app?vid=b1a33274-f4fa-47ba-8997-5161a38534c0"},"vehicle_type_id":"4","last_reported":1747062695,"current_range_meters":18000,"station_id":"ce4bho92rcd13ifvqh3g","pricing_plan_id":"cebpf4jnsgd1na2vs0mg"},{"bike_id":"18cb3cb1-6210-453b-babf-714307623ee5","system_id":"levelo_inurba_marseille","lat":43.29898,"lon":5.43671,"is_reserved":false,"is_disabled":false,"rental_uris":{"android":"levelo://app?vid=18cb3cb1-6210-453b-babf-714307623ee5","ios":"levelo://app?vid=18cb3cb1-6210-453b-babf-714307623ee5"},"vehicle_type_id":"4","last_reported":1747062695,"current_range_meters":18000,"station_id":"ce4bhpp2rcd13ifvqhfg","pricing_plan_id":"cebpf4jnsgd1na2vs0mg"},{"bike_id":"691ad911-b1d0-47fc-a77d-e5e3db08d382","system_id":"levelo_inurba_marseille","lat":43.21753,"lon":5.34599,"is_reserved":false,"is_disabled":false,"rental_uris":{"android":"levelo://app?vid=691ad911-b1d0-47fc-a77d-e5e3db08d382","ios":"levelo://app?vid=691ad911-b1d0-47fc-a77d-e5e3db08d382"},"vehicle_type_id":"4","last_reported":1747062695,"current_range_meters":18000,"station_id":"st_cvj6r9ubvosntc0bgbag","pricing_plan_id":"cebpf4jnsgd1na2vs0mg"},{"bike_id":"e7ae04ee-9050-433f-af0d-e5c29af9b929","system_id":"levelo_inurba_marseille","lat":43.28488,"lon":5.38559,"is_reserved":false,"is_disabled":false,"rental_uris":{"android":"levelo://app?vid=e7ae04ee-9050-433f-af0d-e5c29af9b929","ios":"levelo://app?vid=e7ae04ee-9050-433f-af0d-e5c29af9b929"},"vehicle_type_id":"4","last_reported":1747062695,"current_range_meters":18800,"station_id":"ce4bh8p2rcd13ifvqeb0","pricing_plan_id":"cebpf4jnsgd1na2vs0mg"},{"bike_id":"fe207541-e392-4c0b-9660-5ceac08ab227","system_id":"levelo_inurba_marseille","lat":43.28668,"lon":5.36352,"is_reserved":false,"is_disabled":false,"rental_uris":{"android":"levelo://app?vid=fe207541-e392-4c0b-9660-5ceac08ab227","ios":"levelo://app?vid=fe207541-e392-4c0b-9660-5ceac08ab227"},"vehicle_type_id":"4","last_reported":1747062695,"current_range_meters":18800,"station_id":"ce4bhah2rcd13ifvqej0","pricing_plan_id":"cebpf4jnsgd1na2vs0mg"},{"bike_id":"111998c6-70e8-4823-85aa-cbe0eb12546b","system_id":"levelo_inurba_marseille","lat":43.28418,"lon":5.34979,"is_reserved":false,"is_disabled":false,"rental_uris":{"android":"levelo://app?vid=111998c6-70e8-4823-85aa-cbe0eb12546b","ios":"levelo://app?vid=111998c6-70e8-4823-85aa-cbe0eb12546b"},"vehicle_type_id":"4","last_reported":1747062695,"current_range_meters":18800,"station_id":"ce4bhbh2rcd13ifvqepg","pricing_plan_id":"cebpf4jnsgd1na2vs0mg"},{"bike_id":"906d41c6-9a22-4dff-923f-34df196c50da","system_id":"levelo_inurba_marseille","lat":43.27311,"lon":5.39097,"is_reserved":false,"is_disabled":false,"rental_uris":{"android":"levelo://app?vid=906d41c6-9a22-4dff-923f-34df196c50da","ios":"levelo://app?vid=906d41c6-9a22-4dff-923f-34df196c50da"},"vehicle_type_id":"4","last_reported":1747062695,"current_range_meters":18800,"station_id":"ce4bhgp2rcd13ifvqfe0","pricing_plan_id":"cebpf4jnsgd1na2vs0mg"},{"bike_id":"052e8be5-756e-40b8-bf8d-fe2bdca2d830","system_id":"levelo_inurba_marseille","lat":43.21189,"lon":5.35079,"is_reserved":false,"is_disabled":false,"rental_uris":{"android":"levelo://app?vid=052e8be5-756e-40b8-bf8d-fe2bdca2d830","ios":"levelo://app?vid=052e8be5-756e-40b8-bf8d-fe2bdca2d830"},"vehicle_type_id":"4","last_reported":1747062695,"current_range_meters":18800,"station_id":"st_cvj6sg6p6f1abm77japg","pricing_plan_id":"cebpf4jnsgd1na2vs0mg"},{"bike_id":"e2c80733-19b7-4d31-aee0-dc716a34092b","system_id":"levelo_inurba_marseille","lat":43.28428,"lon":5.35032,"is_reserved":false,"is_disabled":false,"rental_uris":{"android":"levelo://app?vid=e2c80733-19b7-4d31-aee0-dc716a34092b","ios":"levelo://app?vid=e2c80733-19b7-4d31-aee0-dc716a34092b"},"vehicle_type_id":"4","last_reported":1747062695,"current_range_meters":19200,"station_id":"","pricing_plan_id":"cebpf4jnsgd1na2vs0mg"},{"bike_id":"53c8b5f5-e188-45b6-994b-c7c54c51c742","system_id":"levelo_inurba_marseille","lat":43.29068,"lon":5.35543,"is_reserved":false,"is_disabled":false,"rental_uris":{"android":"levelo://app?vid=53c8b5f5-e188-45b6-994b-c7c54c51c742","ios":"levelo://app?vid=53c8b5f5-e188-45b6-994b-c7c54c51c742"},"vehicle_type_id":"4","last_reported":1747062695,"current_range_meters":19200,"station_id":"","pricing_plan_id":"cebpf4jnsgd1na2vs0mg"},{"bike_id":"cc25aae6-3197-44f8-8471-8a0efb35cc4f","system_id":"levelo_inurba_marseille","lat":43.3063,"lon":5.36596,"is_reserved":false,"is_disabled":false,"rental_uris":{"android":"levelo://app?vid=cc25aae6-3197-44f8-8471-8a0efb35cc4f","ios":"levelo://app?vid=cc25aae6-3197-44f8-8471-8a0efb35cc4f"},"vehicle_type_id":"4","last_reported":1747062695,"current_range_meters":19200,"station_id":"","pricing_plan_id":"cebpf4jnsgd1na2vs0mg"},{"bike_id":"78c7c0b5-a5a7-40cd-be70-ea21114f1e27","system_id":"levelo_inurba_marseille","lat":43.29033,"lon":5.39968,"is_reserved":false,"is_disabled":false,"rental_uris":{"android":"levelo://app?vid=78c7c0b5-a5a7-40cd-be70-ea21114f1e27","ios":"levelo://app?vid=78c7c0b5-a5a7-40cd-be70-ea21114f1e27"},"vehicle_type_id":"4","last_reported":1747062695,"current_range_meters":19200,"station_id":"ce4bh392rcd13ifvqdm0","pricing_plan_id":"cebpf4jnsgd1na2vs0mg"},{"bike_id":"8b348a1c-b152-459f-b933-4175c7739ccb","system_id":"levelo_inurba_marseille","lat":43.29032,"lon":5.38652,"is_reserved":false,"is_disabled":false,"rental_uris":{"android":"levelo://app?vid=8b348a1c-b152-459f-b933-4175c7739ccb","ios":"levelo://app?vid=8b348a1c-b152-459f-b933-4175c7739ccb"},"vehicle_type_id":"4","last_reported":1747062695,"current_range_meters":19200,"station_id":"ce4bh4p2rcd13ifvqe0g","pricing_plan_id":"cebpf4jnsgd1na2vs0mg"},{"bike_id":"62c4b963-0289-4259-bd4d-a57ec9739f61","system_id":"levelo_inurba_marseille","lat":43.28612,"lon":5.3511,"is_reserved":false,"is_disabled":false,"rental_uris":{"android":"levelo://app?vid=62c4b963-0289-4259-bd4d-a57ec9739f61","ios":"levelo://app?vid=62c4b963-0289-4259-bd4d-a57ec9739f61"},"vehicle_type_id":"4","last_reported":1747062695,"current_range_meters":19200,"station_id":"ce4bhch2rcd13ifvqeug","pricing_plan_id":"cebpf4jnsgd1na2vs0mg"},{"bike_id":"703a7319-9556-49d1-b63e-edbfabd93eff","system_id":"levelo_inurba_marseille","lat":43.28624,"lon":5.35098,"is_reserved":false,"is_disabled":false,"rental_uris":{"android":"levelo://app?vid=703a7319-9556-49d1-b63e-edbfabd93eff","ios":"levelo://app?vid=703a7319-9556-49d1-b63e-edbfabd93eff"},"vehicle_type_id":"4","last_reported":1747062695,"current_range_meters":19200,"station_id":"ce4bhch2rcd13ifvqeug","pricing_plan_id":"cebpf4jnsgd1na2vs0mg"},{"bike_id":"0d1b9028-eaed-4da4-b7e5-462e7bd32a25","system_id":"levelo_inurba_marseille","lat":43.2319,"lon":5.39989,"is_reserved":false,"is_disabled":false,"rental_uris":{"android":"levelo://app?vid=0d1b9028-eaed-4da4-b7e5-462e7bd32a25","ios":"levelo://app?vid=0d1b9028-eaed-4da4-b7e5-462e7bd32a25"},"vehicle_type_id":"4","last_reported":1747062695,"current_range_meters":19200,"station_id":"ce4bhn12rcd13ifvqgqg","pricing_plan_id":"cebpf4jnsgd1na2vs0mg"},{"bike_id":"8c790ac3-4b40-4994-9f91-e1dd066a5ea1","system_id":"levelo_inurba_marseille","lat":43.32491,"lon":5.36567,"is_reserved":false,"is_disabled":false,"rental_uris":{"android":"levelo://app?vid=8c790ac3-4b40-4994-9f91-e1dd066a5ea1","ios":"levelo://app?vid=8c790ac3-4b40-4994-9f91-e1dd066a5ea1"},"vehicle_type_id":"4","last_reported":1747062695,"current_range_meters":19200,"station_id":"ce4bhs12rcd13ifvqhvg","pricing_plan_id":"cebpf4jnsgd1na2vs0mg"},{"bike_id":"8f898ea4-0b70-46db-b495-a08fd22223a4","system_id":"levelo_inurba_marseille","lat":43.22946,"lon":5.35384,"is_reserved":false,"is_disabled":false,"rental_uris":{"android":"levelo://app?vid=8f898ea4-0b70-46db-b495-a08fd22223a4","ios":"levelo://app?vid=8f898ea4-0b70-46db-b495-a08fd22223a4"},"vehicle_type_id":"4","last_reported":1747062695,"current_range_meters":19200,"station_id":"cpo3532slgdg3j2ikp40","pricing_plan_id":"cebpf4jnsgd1na2vs0mg"},{"bike_id":"5f5f11d4-a733-467b-a871-0e1aac532296","system_id":"levelo_inurba_marseille","lat":43.31704,"lon":5.37767,"is_reserved":false,"is_disabled":false,"rental_uris":{"android":"levelo://app?vid=5f5f11d4-a733-467b-a871-0e1aac532296","ios":"levelo://app?vid=5f5f11d4-a733-467b-a871-0e1aac532296"},"vehicle_type_id":"4","last_reported":1747062695,"current_range_meters":19600,"station_id":"ce4bgth2rcd13ifvqch0","pricing_plan_id":"cebpf4jnsgd1na2vs0mg"},{"bike_id":"8ef831d4-0dbc-4f70-892d-eef0645518c0","system_id":"levelo_inurba_marseille","lat":43.28459,"lon":5.3589,"is_reserved":false,"is_disabled":false,"rental_uris":{"android":"levelo://app?vid=8ef831d4-0dbc-4f70-892d-eef0645518c0","ios":"levelo://app?vid=8ef831d4-0dbc-4f70-892d-eef0645518c0"},"vehicle_type_id":"4","last_reported":1747062695,"current_range_meters":19600,"station_id":"ce4bhah2rcd13ifvqei0","pricing_plan_id":"cebpf4jnsgd1na2vs0mg"},{"bike_id":"118cd84e-40a8-4993-88b2-1ac768b02024","system_id":"levelo_inurba_marseille","lat":43.23182,"lon":5.39988,"is_reserved":false,"is_disabled":false,"rental_uris":{"android":"levelo://app?vid=118cd84e-40a8-4993-88b2-1ac768b02024","ios":"levelo://app?vid=118cd84e-40a8-4993-88b2-1ac768b02024"},"vehicle_type_id":"4","last_reported":1747062695,"current_range_meters":19600,"station_id":"ce4bhn12rcd13ifvqgqg","pricing_plan_id":"cebpf4jnsgd1na2vs0mg"},{"bike_id":"e83dcaca-181c-4b02-bf44-8d4da8809b5b","system_id":"levelo_inurba_marseille","lat":43.31712,"lon":5.43709,"is_reserved":false,"is_disabled":false,"rental_uris":{"android":"levelo://app?vid=e83dcaca-181c-4b02-bf44-8d4da8809b5b","ios":"levelo://app?vid=e83dcaca-181c-4b02-bf44-8d4da8809b5b"},"vehicle_type_id":"4","last_reported":1747062695,"current_range_meters":19600,"station_id":"ce4bhp92rcd13ifvqhcg","pricing_plan_id":"cebpf4jnsgd1na2vs0mg"},{"bike_id":"863a1a2b-1f37-469a-b7ac-75aa2de2addd","system_id":"levelo_inurba_marseille","lat":43.28968,"lon":5.37835,"is_reserved":false,"is_disabled":false,"rental_uris":{"android":"levelo://app?vid=863a1a2b-1f37-469a-b7ac-75aa2de2addd","ios":"levelo://app?vid=863a1a2b-1f37-469a-b7ac-75aa2de2addd"},"vehicle_type_id":"4","last_reported":1747062695,"current_range_meters":20000,"station_id":"ce4bh9p2rcd13ifvqed0","pricing_plan_id":"cebpf4jnsgd1na2vs0mg"},{"bike_id":"6751c3af-2785-42de-bc81-f466abd046af","system_id":"levelo_inurba_marseille","lat":43.28401,"lon":5.34985,"is_reserved":false,"is_disabled":false,"rental_uris":{"android":"levelo://app?vid=6751c3af-2785-42de-bc81-f466abd046af","ios":"levelo://app?vid=6751c3af-2785-42de-bc81-f466abd046af"},"vehicle_type_id":"4","last_reported":1747062695,"current_range_meters":20000,"station_id":"ce4bhbh2rcd13ifvqepg","pricing_plan_id":"cebpf4jnsgd1na2vs0mg"},{"bike_id":"82171c0d-e74b-441d-9785-ea5f1f55c2b9","system_id":"levelo_inurba_marseille","lat":43.2842,"lon":5.34997,"is_reserved":false,"is_disabled":false,"rental_uris":{"android":"levelo://app?vid=82171c0d-e74b-441d-9785-ea5f1f55c2b9","ios":"levelo://app?vid=82171c0d-e74b-441d-9785-ea5f1f55c2b9"},"vehicle_type_id":"4","last_reported":1747062695,"current_range_meters":20000,"station_id":"ce4bhbh2rcd13ifvqepg","pricing_plan_id":"cebpf4jnsgd1na2vs0mg"},{"bike_id":"efc88c3c-910a-4ce7-84b2-480af6d11f71","system_id":"levelo_inurba_marseille","lat":43.28266,"lon":5.35083,"is_reserved":false,"is_disabled":false,"rental_uris":{"android":"levelo://app?vid=efc88c3c-910a-4ce7-84b2-480af6d11f71","ios":"levelo://app?vid=efc88c3c-910a-4ce7-84b2-480af6d11f71"},"vehicle_type_id":"4","last_reported":1747062695,"current_range_meters":20000,"station_id":"ce4bhbp2rcd13ifvqerg","pricing_plan_id":"cebpf4jnsgd1na2vs0mg"},{"bike_id":"34e47527-cfa2-433b-8804-99368dbada27","system_id":"levelo_inurba_marseille","lat":43.24665,"lon":5.38156,"is_reserved":false,"is_disabled":false,"rental_uris":{"android":"levelo://app?vid=34e47527-cfa2-433b-8804-99368dbada27","ios":"levelo://app?vid=34e47527-cfa2-433b-8804-99368dbada27"},"vehicle_type_id":"4","last_reported":1747062695,"current_range_meters":20000,"station_id":"ce4bhih2rcd13ifvqfr0","pricing_plan_id":"cebpf4jnsgd1na2vs0mg"},{"bike_id":"49c96fcf-2465-4fdc-bf30-4c24a3d614d2","system_id":"levelo_inurba_marseille","lat":43.25584,"lon":5.3825,"is_reserved":false,"is_disabled":false,"rental_uris":{"android":"levelo://app?vid=49c96fcf-2465-4fdc-bf30-4c24a3d614d2","ios":"levelo://app?vid=49c96fcf-2465-4fdc-bf30-4c24a3d614d2"},"vehicle_type_id":"4","last_reported":1747062695,"current_range_meters":20000,"station_id":"ce4bhih2rcd13ifvqfs0","pricing_plan_id":"cebpf4jnsgd1na2vs0mg"},{"bike_id":"ee9711bb-60b9-45e3-abe3-db1afee53a9f","system_id":"levelo_inurba_marseille","lat":43.21769,"lon":5.34588,"is_reserved":false,"is_disabled":false,"rental_uris":{"android":"levelo://app?vid=ee9711bb-60b9-45e3-abe3-db1afee53a9f","ios":"levelo://app?vid=ee9711bb-60b9-45e3-abe3-db1afee53a9f"},"vehicle_type_id":"4","last_reported":1747062695,"current_range_meters":20000,"station_id":"st_cvj6r9ubvosntc0bgbag","pricing_plan_id":"cebpf4jnsgd1na2vs0mg"},{"bike_id":"167a870f-e34d-43fa-af2e-5270aa1c6c86","system_id":"levelo_inurba_marseille","lat":43.278097,"lon":5.40705,"is_reserved":false,"is_disabled":false,"rental_uris":{"android":"levelo://app?vid=167a870f-e34d-43fa-af2e-5270aa1c6c86","ios":"levelo://app?vid=167a870f-e34d-43fa-af2e-5270aa1c6c86"},"vehicle_type_id":"4","last_reported":1747062695,"current_range_meters":20400,"station_id":"ce4bhnh2rcd13ifvqgtg","pricing_plan_id":"cebpf4jnsgd1na2vs0mg"},{"bike_id":"a618bd84-b224-41c3-8f2a-0f8d8b6eaeaf","system_id":"levelo_inurba_marseille","lat":43.28054,"lon":5.36956,"is_reserved":false,"is_disabled":false,"rental_uris":{"android":"levelo://app?vid=a618bd84-b224-41c3-8f2a-0f8d8b6eaeaf","ios":"levelo://app?vid=a618bd84-b224-41c3-8f2a-0f8d8b6eaeaf"},"vehicle_type_id":"4","last_reported":1747062695,"current_range_meters":20800,"station_id":"ce4bha12rcd13ifvqef0","pricing_plan_id":"cebpf4jnsgd1na2vs0mg"},{"bike_id":"3095a942-073d-45d3-8929-7fbc1acd2575","system_id":"levelo_inurba_marseille","lat":43.311908,"lon":5.378134,"is_reserved":false,"is_disabled":false,"rental_uris":{"android":"levelo://app?vid=3095a942-073d-45d3-8929-7fbc1acd2575","ios":"levelo://app?vid=3095a942-073d-45d3-8929-7fbc1acd2575"},"vehicle_type_id":"4","last_reported":1747062695,"current_range_meters":21600,"station_id":"","pricing_plan_id":"cebpf4jnsgd1na2vs0mg"},{"bike_id":"57ee22e5-5119-4d4b-acd5-a0393f10ca16","system_id":"levelo_inurba_marseille","lat":43.31491,"lon":5.37303,"is_reserved":false,"is_disabled":false,"rental_uris":{"android":"levelo://app?vid=57ee22e5-5119-4d4b-acd5-a0393f10ca16","ios":"levelo://app?vid=57ee22e5-5119-4d4b-acd5-a0393f10ca16"},"vehicle_type_id":"4","last_reported":1747062695,"current_range_meters":21600,"station_id":"ce4bgt12rcd13ifvqcd0","pricing_plan_id":"cebpf4jnsgd1na2vs0mg"},{"bike_id":"d2c85fce-4bf1-4dc9-8e0a-3da06a55db3f","system_id":"levelo_inurba_marseille","lat":43.2893,"lon":5.36639,"is_reserved":false,"is_disabled":false,"rental_uris":{"android":"levelo://app?vid=d2c85fce-4bf1-4dc9-8e0a-3da06a55db3f","ios":"levelo://app?vid=d2c85fce-4bf1-4dc9-8e0a-3da06a55db3f"},"vehicle_type_id":"4","last_reported":1747062695,"current_range_meters":21600,"station_id":"ce4bhap2rcd13ifvqek0","pricing_plan_id":"cebpf4jnsgd1na2vs0mg"},{"bike_id":"f5f56616-51a0-431c-89e7-486f796b7791","system_id":"levelo_inurba_marseille","lat":43.2594,"lon":5.40904,"is_reserved":false,"is_disabled":false,"rental_uris":{"android":"levelo://app?vid=f5f56616-51a0-431c-89e7-486f796b7791","ios":"levelo://app?vid=f5f56616-51a0-431c-89e7-486f796b7791"},"vehicle_type_id":"4","last_reported":1747062695,"current_range_meters":21600,"station_id":"ce4bhm92rcd13ifvqglg","pricing_plan_id":"cebpf4jnsgd1na2vs0mg"},{"bike_id":"5d8d9d93-d6f4-48b8-a891-3bdb84a02602","system_id":"levelo_inurba_marseille","lat":43.299095,"lon":5.397463,"is_reserved":false,"is_disabled":false,"rental_uris":{"android":"levelo://app?vid=5d8d9d93-d6f4-48b8-a891-3bdb84a02602","ios":"levelo://app?vid=5d8d9d93-d6f4-48b8-a891-3bdb84a02602"},"vehicle_type_id":"4","last_reported":1747062695,"current_range_meters":22000,"station_id":"","pricing_plan_id":"cebpf4jnsgd1na2vs0mg"},{"bike_id":"73327103-5b82-491d-8c66-63974d548961","system_id":"levelo_inurba_marseille","lat":43.30158,"lon":5.38037,"is_reserved":false,"is_disabled":false,"rental_uris":{"android":"levelo://app?vid=73327103-5b82-491d-8c66-63974d548961","ios":"levelo://app?vid=73327103-5b82-491d-8c66-63974d548961"},"vehicle_type_id":"4","last_reported":1747062695,"current_range_meters":22000,"station_id":"ce4bgjp2rcd13ifvqbh0","pricing_plan_id":"cebpf4jnsgd1na2vs0mg"},{"bike_id":"b2824850-a4d4-4e00-a3b3-7379fc320050","system_id":"levelo_inurba_marseille","lat":43.30927,"lon":5.40143,"is_reserved":false,"is_disabled":false,"rental_uris":{"android":"levelo://app?vid=b2824850-a4d4-4e00-a3b3-7379fc320050","ios":"levelo://app?vid=b2824850-a4d4-4e00-a3b3-7379fc320050"},"vehicle_type_id":"4","last_reported":1747062695,"current_range_meters":22000,"station_id":"ce4bgvp2rcd13ifvqct0","pricing_plan_id":"cebpf4jnsgd1na2vs0mg"},{"bike_id":"1095b252-790e-4155-ab4e-86136a24d6fc","system_id":"levelo_inurba_marseille","lat":43.28468,"lon":5.35879,"is_reserved":false,"is_disabled":false,"rental_uris":{"android":"levelo://app?vid=1095b252-790e-4155-ab4e-86136a24d6fc","ios":"levelo://app?vid=1095b252-790e-4155-ab4e-86136a24d6fc"},"vehicle_type_id":"4","last_reported":1747062695,"current_range_meters":22000,"station_id":"ce4bhah2rcd13ifvqei0","pricing_plan_id":"cebpf4jnsgd1na2vs0mg"},{"bike_id":"30ebbac4-c771-41bd-bc7d-d9873bbcba30","system_id":"levelo_inurba_marseille","lat":43.28981,"lon":5.37818,"is_reserved":false,"is_disabled":false,"rental_uris":{"android":"levelo://app?vid=30ebbac4-c771-41bd-bc7d-d9873bbcba30","ios":"levelo://app?vid=30ebbac4-c771-41bd-bc7d-d9873bbcba30"},"vehicle_type_id":"4","last_reported":1747062695,"current_range_meters":22400,"station_id":"ce4bh9p2rcd13ifvqed0","pricing_plan_id":"cebpf4jnsgd1na2vs0mg"},{"bike_id":"50bfafaa-d718-4e3d-b4a4-4b5c3b3cc9b5","system_id":"levelo_inurba_marseille","lat":43.28455,"lon":5.35894,"is_reserved":false,"is_disabled":false,"rental_uris":{"android":"levelo://app?vid=50bfafaa-d718-4e3d-b4a4-4b5c3b3cc9b5","ios":"levelo://app?vid=50bfafaa-d718-4e3d-b4a4-4b5c3b3cc9b5"},"vehicle_type_id":"4","last_reported":1747062695,"current_range_meters":22400,"station_id":"ce4bhah2rcd13ifvqei0","pricing_plan_id":"cebpf4jnsgd1na2vs0mg"},{"bike_id":"dc641743-b968-4496-812a-3b41120ce533","system_id":"levelo_inurba_marseille","lat":43.28417,"lon":5.34979,"is_reserved":false,"is_disabled":false,"rental_uris":{"android":"levelo://app?vid=dc641743-b968-4496-812a-3b41120ce533","ios":"levelo://app?vid=dc641743-b968-4496-812a-3b41120ce533"},"vehicle_type_id":"4","last_reported":1747062695,"current_range_meters":22800,"station_id":"ce4bhbh2rcd13ifvqepg","pricing_plan_id":"cebpf4jnsgd1na2vs0mg"},{"bike_id":"ded21d3b-017a-431c-a119-0da980f4a122","system_id":"levelo_inurba_marseille","lat":43.28414,"lon":5.35003,"is_reserved":false,"is_disabled":false,"rental_uris":{"android":"levelo://app?vid=ded21d3b-017a-431c-a119-0da980f4a122","ios":"levelo://app?vid=ded21d3b-017a-431c-a119-0da980f4a122"},"vehicle_type_id":"4","last_reported":1747062695,"current_range_meters":22800,"station_id":"ce4bhbh2rcd13ifvqepg","pricing_plan_id":"cebpf4jnsgd1na2vs0mg"},{"bike_id":"581a76c6-406f-436c-80cf-424046378536","system_id":"levelo_inurba_marseille","lat":43.23144,"lon":5.43713,"is_reserved":false,"is_disabled":false,"rental_uris":{"android":"levelo://app?vid=581a76c6-406f-436c-80cf-424046378536","ios":"levelo://app?vid=581a76c6-406f-436c-80cf-424046378536"},"vehicle_type_id":"4","last_reported":1747062695,"current_range_meters":22800,"station_id":"ce4bhmp2rcd13ifvqgog","pricing_plan_id":"cebpf4jnsgd1na2vs0mg"},{"bike_id":"3dd44e7b-80f7-4907-a2fd-5fc7788b09dd","system_id":"levelo_inurba_marseille","lat":43.30889,"lon":5.37801,"is_reserved":false,"is_disabled":false,"rental_uris":{"android":"levelo://app?vid=3dd44e7b-80f7-4907-a2fd-5fc7788b09dd","ios":"levelo://app?vid=3dd44e7b-80f7-4907-a2fd-5fc7788b09dd"},"vehicle_type_id":"4","last_reported":1747062695,"current_range_meters":23200,"station_id":"","pricing_plan_id":"cebpf4jnsgd1na2vs0mg"},{"bike_id":"f75d2477-8489-4237-8390-332a01f4eb44","system_id":"levelo_inurba_marseille","lat":43.30173,"lon":5.36616,"is_reserved":false,"is_disabled":false,"rental_uris":{"android":"levelo://app?vid=f75d2477-8489-4237-8390-332a01f4eb44","ios":"levelo://app?vid=f75d2477-8489-4237-8390-332a01f4eb44"},"vehicle_type_id":"4","last_reported":1747062695,"current_range_meters":23200,"station_id":"ce4bgrh2rcd13ifvqc8g","pricing_plan_id":"cebpf4jnsgd1na2vs0mg"},{"bike_id":"f8dc9e04-d2ee-4752-9e41-df75a435cdb1","system_id":"levelo_inurba_marseille","lat":43.32542,"lon":5.41436,"is_reserved":false,"is_disabled":false,"rental_uris":{"android":"levelo://app?vid=f8dc9e04-d2ee-4752-9e41-df75a435cdb1","ios":"levelo://app?vid=f8dc9e04-d2ee-4752-9e41-df75a435cdb1"},"vehicle_type_id":"4","last_reported":1747062695,"current_range_meters":23200,"station_id":"ce4bhq12rcd13ifvqhhg","pricing_plan_id":"cebpf4jnsgd1na2vs0mg"},{"bike_id":"6df347ed-c861-48a7-8de9-6c66c37b6bb4","system_id":"levelo_inurba_marseille","lat":43.32105,"lon":5.36804,"is_reserved":false,"is_disabled":false,"rental_uris":{"android":"levelo://app?vid=6df347ed-c861-48a7-8de9-6c66c37b6bb4","ios":"levelo://app?vid=6df347ed-c861-48a7-8de9-6c66c37b6bb4"},"vehicle_type_id":"4","last_reported":1747062695,"current_range_meters":23200,"station_id":"ce4bhrh2rcd13ifvqhug","pricing_plan_id":"cebpf4jnsgd1na2vs0mg"},{"bike_id":"f4f4d196-8fdf-49ef-9786-b2592296ab46","system_id":"levelo_inurba_marseille","lat":43.31524,"lon":5.38035,"is_reserved":false,"is_disabled":false,"rental_uris":{"android":"levelo://app?vid=f4f4d196-8fdf-49ef-9786-b2592296ab46","ios":"levelo://app?vid=f4f4d196-8fdf-49ef-9786-b2592296ab46"},"vehicle_type_id":"4","last_reported":1747062695,"current_range_meters":23200,"station_id":"ce4bhsp2rcd13ifvqi50","pricing_plan_id":"cebpf4jnsgd1na2vs0mg"},{"bike_id":"711c3665-551b-4176-9dc3-d824e9806ffd","system_id":"levelo_inurba_marseille","lat":43.31638,"lon":5.38304,"is_reserved":false,"is_disabled":false,"rental_uris":{"android":"levelo://app?vid=711c3665-551b-4176-9dc3-d824e9806ffd","ios":"levelo://app?vid=711c3665-551b-4176-9dc3-d824e9806ffd"},"vehicle_type_id":"4","last_reported":1747062695,"current_range_meters":24000,"station_id":"","pricing_plan_id":"cebpf4jnsgd1na2vs0mg"},{"bike_id":"80318c02-b10b-45a1-ad8c-63a5f351d169","system_id":"levelo_inurba_marseille","lat":43.30759,"lon":5.368,"is_reserved":false,"is_disabled":false,"rental_uris":{"android":"levelo://app?vid=80318c02-b10b-45a1-ad8c-63a5f351d169","ios":"levelo://app?vid=80318c02-b10b-45a1-ad8c-63a5f351d169"},"vehicle_type_id":"4","last_reported":1747062695,"current_range_meters":24000,"station_id":"","pricing_plan_id":"cebpf4jnsgd1na2vs0mg"},{"bike_id":"b15b10f4-ec94-4938-9a6e-4c8bbc2c9ab5","system_id":"levelo_inurba_marseille","lat":43.27618,"lon":5.36102,"is_reserved":false,"is_disabled":false,"rental_uris":{"android":"levelo://app?vid=b15b10f4-ec94-4938-9a6e-4c8bbc2c9ab5","ios":"levelo://app?vid=b15b10f4-ec94-4938-9a6e-4c8bbc2c9ab5"},"vehicle_type_id":"4","last_reported":1747062695,"current_range_meters":24000,"station_id":"ce4bgj92rcd13ifvqbe0","pricing_plan_id":"cebpf4jnsgd1na2vs0mg"},{"bike_id":"e90e94e2-2d11-489e-b2c5-2812e78f5f26","system_id":"levelo_inurba_marseille","lat":43.29512,"lon":5.39408,"is_reserved":false,"is_disabled":false,"rental_uris":{"android":"levelo://app?vid=e90e94e2-2d11-489e-b2c5-2812e78f5f26","ios":"levelo://app?vid=e90e94e2-2d11-489e-b2c5-2812e78f5f26"},"vehicle_type_id":"4","last_reported":1747062695,"current_range_meters":24000,"station_id":"ce4bh292rcd13ifvqdf0","pricing_plan_id":"cebpf4jnsgd1na2vs0mg"},{"bike_id":"c8199cd4-01e9-41c0-866d-09d164417541","system_id":"levelo_inurba_marseille","lat":43.29072,"lon":5.37147,"is_reserved":false,"is_disabled":false,"rental_uris":{"android":"levelo://app?vid=c8199cd4-01e9-41c0-866d-09d164417541","ios":"levelo://app?vid=c8199cd4-01e9-41c0-866d-09d164417541"},"vehicle_type_id":"4","last_reported":1747062695,"current_range_meters":24000,"station_id":"ce4bh5p2rcd13ifvqe4g","pricing_plan_id":"cebpf4jnsgd1na2vs0mg"},{"bike_id":"45dfc6cd-63a1-4b2d-8825-3b97f2ebf4ea","system_id":"levelo_inurba_marseille","lat":43.28492,"lon":5.38579,"is_reserved":false,"is_disabled":false,"rental_uris":{"android":"levelo://app?vid=45dfc6cd-63a1-4b2d-8825-3b97f2ebf4ea","ios":"levelo://app?vid=45dfc6cd-63a1-4b2d-8825-3b97f2ebf4ea"},"vehicle_type_id":"4","last_reported":1747062695,"current_range_meters":24000,"station_id":"ce4bh8p2rcd13ifvqeb0","pricing_plan_id":"cebpf4jnsgd1na2vs0mg"},{"bike_id":"8892484f-f9ec-44c3-b588-42caae6f41a9","system_id":"levelo_inurba_marseille","lat":43.2804,"lon":5.36939,"is_reserved":false,"is_disabled":false,"rental_uris":{"android":"levelo://app?vid=8892484f-f9ec-44c3-b588-42caae6f41a9","ios":"levelo://app?vid=8892484f-f9ec-44c3-b588-42caae6f41a9"},"vehicle_type_id":"4","last_reported":1747062695,"current_range_meters":24000,"station_id":"ce4bha12rcd13ifvqef0","pricing_plan_id":"cebpf4jnsgd1na2vs0mg"},{"bike_id":"6a708787-a975-44d5-9304-b6066798fcec","system_id":"levelo_inurba_marseille","lat":43.289421,"lon":5.363813,"is_reserved":false,"is_disabled":false,"rental_uris":{"android":"levelo://app?vid=6a708787-a975-44d5-9304-b6066798fcec","ios":"levelo://app?vid=6a708787-a975-44d5-9304-b6066798fcec"},"vehicle_type_id":"4","last_reported":1747062695,"current_range_meters":24000,"station_id":"ce4bhc92rcd13ifvqetg","pricing_plan_id":"cebpf4jnsgd1na2vs0mg"},{"bike_id":"2e52d1f9-537f-44f2-978e-90714af5555e","system_id":"levelo_inurba_marseille","lat":43.25001,"lon":5.38924,"is_reserved":false,"is_disabled":false,"rental_uris":{"android":"levelo://app?vid=2e52d1f9-537f-44f2-978e-90714af5555e","ios":"levelo://app?vid=2e52d1f9-537f-44f2-978e-90714af5555e"},"vehicle_type_id":"4","last_reported":1747062695,"current_range_meters":24000,"station_id":"ce4bhgp2rcd13ifvqfd0","pricing_plan_id":"cebpf4jnsgd1na2vs0mg"},{"bike_id":"1f5322c9-a788-43dc-b50f-08df4bab5594","system_id":"levelo_inurba_marseille","lat":43.29048,"lon":5.35916,"is_reserved":false,"is_disabled":false,"rental_uris":{"android":"levelo://app?vid=1f5322c9-a788-43dc-b50f-08df4bab5594","ios":"levelo://app?vid=1f5322c9-a788-43dc-b50f-08df4bab5594"},"vehicle_type_id":"4","last_reported":1747062695,"current_range_meters":24400,"station_id":"ce4bha92rcd13ifvqeg0","pricing_plan_id":"cebpf4jnsgd1na2vs0mg"},{"bike_id":"05a29e6a-462a-44a5-b3b5-0212cefb378b","system_id":"levelo_inurba_marseille","lat":43.28463,"lon":5.35899,"is_reserved":false,"is_disabled":false,"rental_uris":{"android":"levelo://app?vid=05a29e6a-462a-44a5-b3b5-0212cefb378b","ios":"levelo://app?vid=05a29e6a-462a-44a5-b3b5-0212cefb378b"},"vehicle_type_id":"4","last_reported":1747062695,"current_range_meters":24400,"station_id":"ce4bhah2rcd13ifvqei0","pricing_plan_id":"cebpf4jnsgd1na2vs0mg"},{"bike_id":"1cf409dd-023d-46ae-afdb-1189356d80d1","system_id":"levelo_inurba_marseille","lat":43.27378,"lon":5.3625,"is_reserved":false,"is_disabled":false,"rental_uris":{"android":"levelo://app?vid=1cf409dd-023d-46ae-afdb-1189356d80d1","ios":"levelo://app?vid=1cf409dd-023d-46ae-afdb-1189356d80d1"},"vehicle_type_id":"4","last_reported":1747062695,"current_range_meters":24400,"station_id":"ce4bhbh2rcd13ifvqeo0","pricing_plan_id":"cebpf4jnsgd1na2vs0mg"},{"bike_id":"0d19f400-7a92-49b0-8bde-33c71d956a65","system_id":"levelo_inurba_marseille","lat":43.28605,"lon":5.35144,"is_reserved":false,"is_disabled":false,"rental_uris":{"android":"levelo://app?vid=0d19f400-7a92-49b0-8bde-33c71d956a65","ios":"levelo://app?vid=0d19f400-7a92-49b0-8bde-33c71d956a65"},"vehicle_type_id":"4","last_reported":1747062695,"current_range_meters":24400,"station_id":"ce4bhch2rcd13ifvqeug","pricing_plan_id":"cebpf4jnsgd1na2vs0mg"},{"bike_id":"0f779dc2-a17b-4d77-ad50-fafb62e114e1","system_id":"levelo_inurba_marseille","lat":43.32112,"lon":5.36768,"is_reserved":false,"is_disabled":false,"rental_uris":{"android":"levelo://app?vid=0f779dc2-a17b-4d77-ad50-fafb62e114e1","ios":"levelo://app?vid=0f779dc2-a17b-4d77-ad50-fafb62e114e1"},"vehicle_type_id":"4","last_reported":1747062695,"current_range_meters":24400,"station_id":"ce4bhrh2rcd13ifvqhug","pricing_plan_id":"cebpf4jnsgd1na2vs0mg"},{"bike_id":"2aff00df-3d4f-4caa-90ca-4c8fb72f5c08","system_id":"levelo_inurba_marseille","lat":43.31328,"lon":5.37339,"is_reserved":false,"is_disabled":false,"rental_uris":{"android":"levelo://app?vid=2aff00df-3d4f-4caa-90ca-4c8fb72f5c08","ios":"levelo://app?vid=2aff00df-3d4f-4caa-90ca-4c8fb72f5c08"},"vehicle_type_id":"4","last_reported":1747062695,"current_range_meters":24800,"station_id":"","pricing_plan_id":"cebpf4jnsgd1na2vs0mg"},{"bike_id":"024ac960-c2be-477d-b47b-f6409ad6b3fe","system_id":"levelo_inurba_marseille","lat":43.280362,"lon":5.369468,"is_reserved":false,"is_disabled":false,"rental_uris":{"android":"levelo://app?vid=024ac960-c2be-477d-b47b-f6409ad6b3fe","ios":"levelo://app?vid=024ac960-c2be-477d-b47b-f6409ad6b3fe"},"vehicle_type_id":"4","last_reported":1747062695,"current_range_meters":24800,"station_id":"ce4bha12rcd13ifvqef0","pricing_plan_id":"cebpf4jnsgd1na2vs0mg"},{"bike_id":"ae66fd72-58b1-4e13-af5b-1d1bac8a8d08","system_id":"levelo_inurba_marseille","lat":43.28404,"lon":5.34991,"is_reserved":false,"is_disabled":false,"rental_uris":{"android":"levelo://app?vid=ae66fd72-58b1-4e13-af5b-1d1bac8a8d08","ios":"levelo://app?vid=ae66fd72-58b1-4e13-af5b-1d1bac8a8d08"},"vehicle_type_id":"4","last_reported":1747062695,"current_range_meters":24800,"station_id":"ce4bhbh2rcd13ifvqepg","pricing_plan_id":"cebpf4jnsgd1na2vs0mg"},{"bike_id":"c8564660-7386-448c-8d89-efadc49fe92a","system_id":"levelo_inurba_marseille","lat":43.25968,"lon":5.40922,"is_reserved":false,"is_disabled":false,"rental_uris":{"android":"levelo://app?vid=c8564660-7386-448c-8d89-efadc49fe92a","ios":"levelo://app?vid=c8564660-7386-448c-8d89-efadc49fe92a"},"vehicle_type_id":"4","last_reported":1747062695,"current_range_meters":24800,"station_id":"ce4bhm92rcd13ifvqglg","pricing_plan_id":"cebpf4jnsgd1na2vs0mg"},{"bike_id":"baf96505-6a7a-48f0-83cd-1776c0df679e","system_id":"levelo_inurba_marseille","lat":43.231949,"lon":5.355451,"is_reserved":false,"is_disabled":false,"rental_uris":{"android":"levelo://app?vid=baf96505-6a7a-48f0-83cd-1776c0df679e","ios":"levelo://app?vid=baf96505-6a7a-48f0-83cd-1776c0df679e"},"vehicle_type_id":"4","last_reported":1747062695,"current_range_meters":24800,"station_id":"ce4bhu92rcd13ifvqi70","pricing_plan_id":"cebpf4jnsgd1na2vs0mg"},{"bike_id":"cd9f13fb-4000-4f07-a0b3-3b20214d9668","system_id":"levelo_inurba_marseille","lat":43.22935,"lon":5.35374,"is_reserved":false,"is_disabled":false,"rental_uris":{"android":"levelo://app?vid=cd9f13fb-4000-4f07-a0b3-3b20214d9668","ios":"levelo://app?vid=cd9f13fb-4000-4f07-a0b3-3b20214d9668"},"vehicle_type_id":"4","last_reported":1747062695,"current_range_meters":24800,"station_id":"cpo3532slgdg3j2ikp40","pricing_plan_id":"cebpf4jnsgd1na2vs0mg"},{"bike_id":"1128d188-9a91-4aa3-8eb4-b1a97ce123b8","system_id":"levelo_inurba_marseille","lat":43.31489,"lon":5.37307,"is_reserved":false,"is_disabled":false,"rental_uris":{"android":"levelo://app?vid=1128d188-9a91-4aa3-8eb4-b1a97ce123b8","ios":"levelo://app?vid=1128d188-9a91-4aa3-8eb4-b1a97ce123b8"},