{"last_updated":1741622969,"ttl":60,"version":"2.2","data":{"bikes":[{"bike_id":"a823a252-79ed-4eab-8ed3-c099ec187b1d","system_id":"levelo_inurba_marseille","lat":43.27071,"lon":5.42275,"is_reserved":false,"is_disabled":false,"rental_uris":{"android":"levelo://app?vid=a823a252-79ed-4eab-8ed3-c099ec187b1d","ios":"levelo://app?vid=a823a252-79ed-4eab-8ed3-c099ec187b1d"},"vehicle_type_id":"4","last_reported":1741622969,"current_range_meters":2800,"station_id":"ce4bhk92rcd13ifvqgb0","pricing_plan_id":"cebpf4jnsgd1na2vs0mg"},{"bike_id":"f21245ca-1d40-4045-a573-1dd5d449e562","system_id":"levelo_inurba_marseille","lat":43.29978,"lon":5.37171,"is_reserved":false,"is_disabled":false,"rental_uris":{"android":"levelo://app?vid=f21245ca-1d40-4045-a573-1dd5d449e562","ios":"levelo://app?vid=f21245ca-1d40-4045-a573-1dd5d449e562"},"vehicle_type_id":"4","last_reported":1741622969,"current_range_meters":2800,"station_id":"ce4bgr92rcd13ifvqc7g","pricing_plan_id":"cebpf4jnsgd1na2vs0mg"},{"bike_id":"b74aee41-da99-446a-abe1-4b25ed7ab403","system_id":"levelo_inurba_marseille","lat":43.32046,"lon":5.41554,"is_reserved":false,"is_disabled":false,"rental_uris":{"android":"levelo://app?vid=b74aee41-da99-446a-abe1-4b25ed7ab403","ios":"levelo://app?vid=b74aee41-da99-446a-abe1-4b25ed7ab403"},"vehicle_type_id":"4","last_reported":1741622969,"current_range_meters":3200,"station_id":"ce4bhq92rcd13ifvqhkg","pricing_plan_id":"cebpf4jnsgd1na2vs0mg"},{"bike_id":"44793802-9530-4eea-af90-35ce2141cc79","system_id":"levelo_inurba_marseille","lat":43.25729,"lon":5.41099,"is_reserved":false,"is_disabled":false,"rental_uris":{"android":"levelo://app?vid=44793802-9530-4eea-af90-35ce2141cc79","ios":"levelo://app?vid=44793802-9530-4eea-af90-35ce2141cc79"},"vehicle_type_id":"4","last_reported":1741622969,"current_range_meters":3600,"station_id":"ce4bhkp2rcd13ifvqgd0","pricing_plan_id":"cebpf4jnsgd1na2vs0mg"},{"bike_id":"c480f18f-7566-4b4c-a062-f1d7cdb773bc","system_id":"levelo_inurba_marseille","lat":43.27052,"lon":5.4026,"is_reserved":false,"is_disabled":false,"rental_uris":{"android":"levelo://app?vid=c480f18f-7566-4b4c-a062-f1d7cdb773bc","ios":"levelo://app?vid=c480f18f-7566-4b4c-a062-f1d7cdb773bc"},"vehicle_type_id":"4","last_reported":1741622969,"current_range_meters":3600,"station_id":"ce4bhk92rcd13ifvqgc0","pricing_plan_id":"cebpf4jnsgd1na2vs0mg"},{"bike_id":"c1e1eaa3-7327-4652-bc88-c58dbdb48b3b","system_id":"levelo_inurba_marseille","lat":43.27204,"lon":5.39183,"is_reserved":false,"is_disabled":false,"rental_uris":{"android":"levelo://app?vid=c1e1eaa3-7327-4652-bc88-c58dbdb48b3b","ios":"levelo://app?vid=c1e1eaa3-7327-4652-bc88-c58dbdb48b3b"},"vehicle_type_id":"4","last_reported":1741622969,"current_range_meters":3200,"station_id":"ce4bhhp2rcd13ifvqfm0","pricing_plan_id":"cebpf4jnsgd1na2vs0mg"},{"bike_id":"07316115-40e7-45c0-85d6-4da667bc9015","system_id":"levelo_inurba_marseille","lat":43.28894,"lon":5.36068,"is_reserved":false,"is_disabled":false,"rental_uris":{"android":"levelo://app?vid=07316115-40e7-45c0-85d6-4da667bc9015","ios":"levelo://app?vid=07316115-40e7-45c0-85d6-4da667bc9015"},"vehicle_type_id":"4","last_reported":1741622969,"current_range_meters":3600,"station_id":"ce4bh512rcd13ifvqe3g","pricing_plan_id":"cebpf4jnsgd1na2vs0mg"},{"bike_id":"040b5ebc-1b7b-4a18-b885-571db40b86ef","system_id":"levelo_inurba_marseille","lat":43.27082,"lon":5.42273,"is_reserved":false,"is_disabled":false,"rental_uris":{"android":"levelo://app?vid=040b5ebc-1b7b-4a18-b885-571db40b86ef","ios":"levelo://app?vid=040b5ebc-1b7b-4a18-b885-571db40b86ef"},"vehicle_type_id":"4","last_reported":1741622969,"current_range_meters":4000,"station_id":"ce4bhk92rcd13ifvqgb0","pricing_plan_id":"cebpf4jnsgd1na2vs0mg"},{"bike_id":"19bbe8da-d7df-496e-a677-cbaab925cf5e","system_id":"levelo_inurba_marseille","lat":43.24882,"lon":5.42519,"is_reserved":false,"is_disabled":false,"rental_uris":{"android":"levelo://app?vid=19bbe8da-d7df-496e-a677-cbaab925cf5e","ios":"levelo://app?vid=19bbe8da-d7df-496e-a677-cbaab925cf5e"},"vehicle_type_id":"4","last_reported":1741622969,"current_range_meters":4000,"station_id":"","pricing_plan_id":"cebpf4jnsgd1na2vs0mg"},{"bike_id":"6cb9203d-3e84-491a-9e8f-1f5564f385fe","system_id":"levelo_inurba_marseille","lat":43.24402,"lon":5.37061,"is_reserved":false,"is_disabled":false,"rental_uris":{"android":"levelo://app?vid=6cb9203d-3e84-491a-9e8f-1f5564f385fe","ios":"levelo://app?vid=6cb9203d-3e84-491a-9e8f-1f5564f385fe"},"vehicle_type_id":"4","last_reported":1741622969,"current_range_meters":4000,"station_id":"ce4bhhh2rcd13ifvqfk0","pricing_plan_id":"cebpf4jnsgd1na2vs0mg"},{"bike_id":"055be4ea-ad64-4255-b6e2-e210b490519e","system_id":"levelo_inurba_marseille","lat":43.30541,"lon":5.36729,"is_reserved":false,"is_disabled":false,"rental_uris":{"android":"levelo://app?vid=055be4ea-ad64-4255-b6e2-e210b490519e","ios":"levelo://app?vid=055be4ea-ad64-4255-b6e2-e210b490519e"},"vehicle_type_id":"4","last_reported":1741622969,"current_range_meters":4400,"station_id":"ce4bgrp2rcd13ifvqc9g","pricing_plan_id":"cebpf4jnsgd1na2vs0mg"},{"bike_id":"7ddeb106-28c6-41fa-969d-4dfe46cb5776","system_id":"levelo_inurba_marseille","lat":43.28357,"lon":5.381,"is_reserved":false,"is_disabled":false,"rental_uris":{"android":"levelo://app?vid=7ddeb106-28c6-41fa-969d-4dfe46cb5776","ios":"levelo://app?vid=7ddeb106-28c6-41fa-969d-4dfe46cb5776"},"vehicle_type_id":"4","last_reported":1741622969,"current_range_meters":4000,"station_id":"ce4bh412rcd13ifvqdr0","pricing_plan_id":"cebpf4jnsgd1na2vs0mg"},{"bike_id":"004724cc-c769-4e20-a5c8-243e93328edf","system_id":"levelo_inurba_marseille","lat":43.29969,"lon":5.38153,"is_reserved":false,"is_disabled":false,"rental_uris":{"android":"levelo://app?vid=004724cc-c769-4e20-a5c8-243e93328edf","ios":"levelo://app?vid=004724cc-c769-4e20-a5c8-243e93328edf"},"vehicle_type_id":"4","last_reported":1741622969,"current_range_meters":4400,"station_id":"ce4bgj12rcd13ifvqbc0","pricing_plan_id":"cebpf4jnsgd1na2vs0mg"},{"bike_id":"c2309335-af79-4267-886b-cf11af772657","system_id":"levelo_inurba_marseille","lat":43.27949,"lon":5.41049,"is_reserved":false,"is_disabled":true,"rental_uris":{"android":"levelo://app?vid=c2309335-af79-4267-886b-cf11af772657","ios":"levelo://app?vid=c2309335-af79-4267-886b-cf11af772657"},"vehicle_type_id":"4","last_reported":1741622969,"current_range_meters":4400,"station_id":"ce4bhnp2rcd13ifvqh0g","pricing_plan_id":"cebpf4jnsgd1na2vs0mg"},{"bike_id":"2daf1def-9d66-4fe4-a943-060afa8e2217","system_id":"levelo_inurba_marseille","lat":43.26232,"lon":5.40465,"is_reserved":false,"is_disabled":false,"rental_uris":{"android":"levelo://app?vid=2daf1def-9d66-4fe4-a943-060afa8e2217","ios":"levelo://app?vid=2daf1def-9d66-4fe4-a943-060afa8e2217"},"vehicle_type_id":"4","last_reported":1741622969,"current_range_meters":4800,"station_id":"ce4bhmh2rcd13ifvqgmg","pricing_plan_id":"cebpf4jnsgd1na2vs0mg"},{"bike_id":"1c427250-17e1-4518-bc21-dadd7d9ed0b9","system_id":"levelo_inurba_marseille","lat":43.23943,"lon":5.36622,"is_reserved":false,"is_disabled":false,"rental_uris":{"android":"levelo://app?vid=1c427250-17e1-4518-bc21-dadd7d9ed0b9","ios":"levelo://app?vid=1c427250-17e1-4518-bc21-dadd7d9ed0b9"},"vehicle_type_id":"4","last_reported":1741622969,"current_range_meters":5600,"station_id":"ce4bhi12rcd13ifvqfp0","pricing_plan_id":"cebpf4jnsgd1na2vs0mg"},{"bike_id":"44a48c38-4dd6-4a83-be80-600e172c39f8","system_id":"levelo_inurba_marseille","lat":43.27055,"lon":5.40249,"is_reserved":false,"is_disabled":false,"rental_uris":{"android":"levelo://app?vid=44a48c38-4dd6-4a83-be80-600e172c39f8","ios":"levelo://app?vid=44a48c38-4dd6-4a83-be80-600e172c39f8"},"vehicle_type_id":"4","last_reported":1741622969,"current_range_meters":5600,"station_id":"ce4bhk92rcd13ifvqgc0","pricing_plan_id":"cebpf4jnsgd1na2vs0mg"},{"bike_id":"0a8a7aa2-1e3b-4230-9280-4875c0e74e3f","system_id":"levelo_inurba_marseille","lat":43.30109,"lon":5.39085,"is_reserved":false,"is_disabled":false,"rental_uris":{"android":"levelo://app?vid=0a8a7aa2-1e3b-4230-9280-4875c0e74e3f","ios":"levelo://app?vid=0a8a7aa2-1e3b-4230-9280-4875c0e74e3f"},"vehicle_type_id":"4","last_reported":1741622969,"current_range_meters":6400,"station_id":"ce4bh192rcd13ifvqdb0","pricing_plan_id":"cebpf4jnsgd1na2vs0mg"},{"bike_id":"59ce7af3-1ce4-4e06-8f4e-d184fe851043","system_id":"levelo_inurba_marseille","lat":43.30593,"lon":5.39352,"is_reserved":false,"is_disabled":false,"rental_uris":{"android":"levelo://app?vid=59ce7af3-1ce4-4e06-8f4e-d184fe851043","ios":"levelo://app?vid=59ce7af3-1ce4-4e06-8f4e-d184fe851043"},"vehicle_type_id":"4","last_reported":1741622969,"current_range_meters":6400,"station_id":"ce4bh0p2rcd13ifvqd80","pricing_plan_id":"cebpf4jnsgd1na2vs0mg"},{"bike_id":"b6404c83-c221-4701-aedc-ec25f430dead","system_id":"levelo_inurba_marseille","lat":43.3047,"lon":5.37904,"is_reserved":false,"is_disabled":true,"rental_uris":{"android":"levelo://app?vid=b6404c83-c221-4701-aedc-ec25f430dead","ios":"levelo://app?vid=b6404c83-c221-4701-aedc-ec25f430dead"},"vehicle_type_id":"4","last_reported":1741622969,"current_range_meters":6400,"station_id":"ce4bgup2rcd13ifvqcn0","pricing_plan_id":"cebpf4jnsgd1na2vs0mg"},{"bike_id":"009b4cfe-da0b-4b02-af20-8b837fc48364","system_id":"levelo_inurba_marseille","lat":43.24073,"lon":5.37766,"is_reserved":false,"is_disabled":false,"rental_uris":{"android":"levelo://app?vid=009b4cfe-da0b-4b02-af20-8b837fc48364","ios":"levelo://app?vid=009b4cfe-da0b-4b02-af20-8b837fc48364"},"vehicle_type_id":"4","last_reported":1741622969,"current_range_meters":6400,"station_id":"ce4bhnp2rcd13ifvqgvg","pricing_plan_id":"cebpf4jnsgd1na2vs0mg"},{"bike_id":"d9395f0b-f59e-438e-a2a7-b5eee31b0ba9","system_id":"levelo_inurba_marseille","lat":43.25009,"lon":5.38917,"is_reserved":false,"is_disabled":false,"rental_uris":{"android":"levelo://app?vid=d9395f0b-f59e-438e-a2a7-b5eee31b0ba9","ios":"levelo://app?vid=d9395f0b-f59e-438e-a2a7-b5eee31b0ba9"},"vehicle_type_id":"4","last_reported":1741622969,"current_range_meters":6400,"station_id":"ce4bhgp2rcd13ifvqfd0","pricing_plan_id":"cebpf4jnsgd1na2vs0mg"},{"bike_id":"7e3b6732-5d30-44ba-8ff3-1bbc6583984b","system_id":"levelo_inurba_marseille","lat":43.31269,"lon":5.3852,"is_reserved":false,"is_disabled":false,"rental_uris":{"android":"levelo://app?vid=7e3b6732-5d30-44ba-8ff3-1bbc6583984b","ios":"levelo://app?vid=7e3b6732-5d30-44ba-8ff3-1bbc6583984b"},"vehicle_type_id":"4","last_reported":1741622969,"current_range_meters":6400,"station_id":"","pricing_plan_id":"cebpf4jnsgd1na2vs0mg"},{"bike_id":"efea3750-d273-4e90-9523-7c918ec9235e","system_id":"levelo_inurba_marseille","lat":43.28156,"lon":5.42639,"is_reserved":false,"is_disabled":false,"rental_uris":{"android":"levelo://app?vid=efea3750-d273-4e90-9523-7c918ec9235e","ios":"levelo://app?vid=efea3750-d273-4e90-9523-7c918ec9235e"},"vehicle_type_id":"4","last_reported":1741622969,"current_range_meters":6400,"station_id":"ce4bhnh2rcd13ifvqgug","pricing_plan_id":"cebpf4jnsgd1na2vs0mg"},{"bike_id":"65ebf940-f6f1-4ba2-8b75-2b2127dd3199","system_id":"levelo_inurba_marseille","lat":43.25031,"lon":5.38033,"is_reserved":false,"is_disabled":false,"rental_uris":{"android":"levelo://app?vid=65ebf940-f6f1-4ba2-8b75-2b2127dd3199","ios":"levelo://app?vid=65ebf940-f6f1-4ba2-8b75-2b2127dd3199"},"vehicle_type_id":"4","last_reported":1741622969,"current_range_meters":6400,"station_id":"","pricing_plan_id":"cebpf4jnsgd1na2vs0mg"},{"bike_id":"4711a0d3-184b-4ba2-86aa-fea8964a4a5c","system_id":"levelo_inurba_marseille","lat":43.31086,"lon":5.42428,"is_reserved":false,"is_disabled":false,"rental_uris":{"android":"levelo://app?vid=4711a0d3-184b-4ba2-86aa-fea8964a4a5c","ios":"levelo://app?vid=4711a0d3-184b-4ba2-86aa-fea8964a4a5c"},"vehicle_type_id":"4","last_reported":1741622969,"current_range_meters":6400,"station_id":"ce4bhp92rcd13ifvqhag","pricing_plan_id":"cebpf4jnsgd1na2vs0mg"},{"bike_id":"96886562-387d-4deb-8b80-1bc6653e972f","system_id":"levelo_inurba_marseille","lat":43.26229,"lon":5.40458,"is_reserved":false,"is_disabled":false,"rental_uris":{"android":"levelo://app?vid=96886562-387d-4deb-8b80-1bc6653e972f","ios":"levelo://app?vid=96886562-387d-4deb-8b80-1bc6653e972f"},"vehicle_type_id":"4","last_reported":1741622969,"current_range_meters":6800,"station_id":"ce4bhmh2rcd13ifvqgmg","pricing_plan_id":"cebpf4jnsgd1na2vs0mg"},{"bike_id":"8425bb45-e3f7-4329-aa62-8800d09d1e17","system_id":"levelo_inurba_marseille","lat":43.2962,"lon":5.37167,"is_reserved":false,"is_disabled":false,"rental_uris":{"android":"levelo://app?vid=8425bb45-e3f7-4329-aa62-8800d09d1e17","ios":"levelo://app?vid=8425bb45-e3f7-4329-aa62-8800d09d1e17"},"vehicle_type_id":"4","last_reported":1741622969,"current_range_meters":6800,"station_id":"","pricing_plan_id":"cebpf4jnsgd1na2vs0mg"},{"bike_id":"a503ad1f-b0f5-42fe-99c1-10b14b57aa8d","system_id":"levelo_inurba_marseille","lat":43.24073,"lon":5.37746,"is_reserved":false,"is_disabled":false,"rental_uris":{"android":"levelo://app?vid=a503ad1f-b0f5-42fe-99c1-10b14b57aa8d","ios":"levelo://app?vid=a503ad1f-b0f5-42fe-99c1-10b14b57aa8d"},"vehicle_type_id":"4","last_reported":1741622969,"current_range_meters":6800,"station_id":"ce4bhnp2rcd13ifvqgvg","pricing_plan_id":"cebpf4jnsgd1na2vs0mg"},{"bike_id":"c37e2630-4e07-4e0e-b481-bac3cf0a5a47","system_id":"levelo_inurba_marseille","lat":43.29249,"lon":5.40892,"is_reserved":false,"is_disabled":false,"rental_uris":{"android":"levelo://app?vid=c37e2630-4e07-4e0e-b481-bac3cf0a5a47","ios":"levelo://app?vid=c37e2630-4e07-4e0e-b481-bac3cf0a5a47"},"vehicle_type_id":"4","last_reported":1741622969,"current_range_meters":6400,"station_id":"ce4bh192rcd13ifvqdc0","pricing_plan_id":"cebpf4jnsgd1na2vs0mg"},{"bike_id":"f109c872-b1fb-4cc8-859a-f41880b04efa","system_id":"levelo_inurba_marseille","lat":43.29736,"lon":5.37697,"is_reserved":false,"is_disabled":false,"rental_uris":{"android":"levelo://app?vid=f109c872-b1fb-4cc8-859a-f41880b04efa","ios":"levelo://app?vid=f109c872-b1fb-4cc8-859a-f41880b04efa"},"vehicle_type_id":"4","last_reported":1741622969,"current_range_meters":7200,"station_id":"ce4bgkh2rcd13ifvqbl0","pricing_plan_id":"cebpf4jnsgd1na2vs0mg"},{"bike_id":"ab048089-6532-41fd-bed4-cea69d29f84b","system_id":"levelo_inurba_marseille","lat":43.2781,"lon":5.4071,"is_reserved":false,"is_disabled":false,"rental_uris":{"android":"levelo://app?vid=ab048089-6532-41fd-bed4-cea69d29f84b","ios":"levelo://app?vid=ab048089-6532-41fd-bed4-cea69d29f84b"},"vehicle_type_id":"4","last_reported":1741622969,"current_range_meters":7200,"station_id":"ce4bhnh2rcd13ifvqgtg","pricing_plan_id":"cebpf4jnsgd1na2vs0mg"},{"bike_id":"f5aed332-681c-437a-9651-5a1f005138ca","system_id":"levelo_inurba_marseille","lat":43.29746,"lon":5.37681,"is_reserved":false,"is_disabled":false,"rental_uris":{"android":"levelo://app?vid=f5aed332-681c-437a-9651-5a1f005138ca","ios":"levelo://app?vid=f5aed332-681c-437a-9651-5a1f005138ca"},"vehicle_type_id":"4","last_reported":1741622969,"current_range_meters":7200,"station_id":"ce4bgkh2rcd13ifvqbl0","pricing_plan_id":"cebpf4jnsgd1na2vs0mg"},{"bike_id":"e5cdcfcd-ce0a-4718-91b4-f561a06c6ee7","system_id":"levelo_inurba_marseille","lat":43.25116,"lon":5.40315,"is_reserved":false,"is_disabled":false,"rental_uris":{"android":"levelo://app?vid=e5cdcfcd-ce0a-4718-91b4-f561a06c6ee7","ios":"levelo://app?vid=e5cdcfcd-ce0a-4718-91b4-f561a06c6ee7"},"vehicle_type_id":"4","last_reported":1741622969,"current_range_meters":7200,"station_id":"ce4bhlh2rcd13ifvqgig","pricing_plan_id":"cebpf4jnsgd1na2vs0mg"},{"bike_id":"6d30fa00-fa73-4a2d-aac6-368b08cd61f0","system_id":"levelo_inurba_marseille","lat":43.31187,"lon":5.37953,"is_reserved":false,"is_disabled":false,"rental_uris":{"android":"levelo://app?vid=6d30fa00-fa73-4a2d-aac6-368b08cd61f0","ios":"levelo://app?vid=6d30fa00-fa73-4a2d-aac6-368b08cd61f0"},"vehicle_type_id":"4","last_reported":1741622969,"current_range_meters":7200,"station_id":"","pricing_plan_id":"cebpf4jnsgd1na2vs0mg"},{"bike_id":"985ee3c3-05dc-4c79-b323-55d5a7a29f5d","system_id":"levelo_inurba_marseille","lat":43.24542,"lon":5.39524,"is_reserved":false,"is_disabled":false,"rental_uris":{"android":"levelo://app?vid=985ee3c3-05dc-4c79-b323-55d5a7a29f5d","ios":"levelo://app?vid=985ee3c3-05dc-4c79-b323-55d5a7a29f5d"},"vehicle_type_id":"4","last_reported":1741622969,"current_range_meters":7200,"station_id":"ce4bhlp2rcd13ifvqgjg","pricing_plan_id":"cebpf4jnsgd1na2vs0mg"},{"bike_id":"85858945-288d-4d7b-aac5-8cf9d060c580","system_id":"levelo_inurba_marseille","lat":43.32357,"lon":5.36779,"is_reserved":false,"is_disabled":false,"rental_uris":{"android":"levelo://app?vid=85858945-288d-4d7b-aac5-8cf9d060c580","ios":"levelo://app?vid=85858945-288d-4d7b-aac5-8cf9d060c580"},"vehicle_type_id":"4","last_reported":1741622969,"current_range_meters":7200,"station_id":"ce4bhsh2rcd13ifvqi2g","pricing_plan_id":"cebpf4jnsgd1na2vs0mg"},{"bike_id":"4b4add69-8ff3-427b-9939-b88320696fa7","system_id":"levelo_inurba_marseille","lat":43.31115,"lon":5.37771,"is_reserved":false,"is_disabled":false,"rental_uris":{"android":"levelo://app?vid=4b4add69-8ff3-427b-9939-b88320696fa7","ios":"levelo://app?vid=4b4add69-8ff3-427b-9939-b88320696fa7"},"vehicle_type_id":"4","last_reported":1741622969,"current_range_meters":8000,"station_id":"ce4bgt92rcd13ifvqcg0","pricing_plan_id":"cebpf4jnsgd1na2vs0mg"},{"bike_id":"a33ff287-61ba-4c62-8253-cbd9b33a13c6","system_id":"levelo_inurba_marseille","lat":43.24077,"lon":5.37726,"is_reserved":false,"is_disabled":true,"rental_uris":{"android":"levelo://app?vid=a33ff287-61ba-4c62-8253-cbd9b33a13c6","ios":"levelo://app?vid=a33ff287-61ba-4c62-8253-cbd9b33a13c6"},"vehicle_type_id":"4","last_reported":1741622969,"current_range_meters":8000,"station_id":"ce4bhnp2rcd13ifvqgvg","pricing_plan_id":"cebpf4jnsgd1na2vs0mg"},{"bike_id":"089fa96c-06f0-4a31-aa59-e3a83d994d6c","system_id":"levelo_inurba_marseille","lat":43.28155,"lon":5.42644,"is_reserved":false,"is_disabled":false,"rental_uris":{"android":"levelo://app?vid=089fa96c-06f0-4a31-aa59-e3a83d994d6c","ios":"levelo://app?vid=089fa96c-06f0-4a31-aa59-e3a83d994d6c"},"vehicle_type_id":"4","last_reported":1741622969,"current_range_meters":8000,"station_id":"ce4bhnh2rcd13ifvqgug","pricing_plan_id":"cebpf4jnsgd1na2vs0mg"},{"bike_id":"3dbd7750-ff14-4780-8d79-b5c3ab040cc9","system_id":"levelo_inurba_marseille","lat":43.3088,"lon":5.39631,"is_reserved":false,"is_disabled":false,"rental_uris":{"android":"levelo://app?vid=3dbd7750-ff14-4780-8d79-b5c3ab040cc9","ios":"levelo://app?vid=3dbd7750-ff14-4780-8d79-b5c3ab040cc9"},"vehicle_type_id":"4","last_reported":1741622969,"current_range_meters":8000,"station_id":"ce4bh012rcd13ifvqcv0","pricing_plan_id":"cebpf4jnsgd1na2vs0mg"},{"bike_id":"b104001a-10f7-4c93-b613-2b76cb885027","system_id":"levelo_inurba_marseille","lat":43.31208,"lon":5.3707,"is_reserved":false,"is_disabled":false,"rental_uris":{"android":"levelo://app?vid=b104001a-10f7-4c93-b613-2b76cb885027","ios":"levelo://app?vid=b104001a-10f7-4c93-b613-2b76cb885027"},"vehicle_type_id":"4","last_reported":1741622969,"current_range_meters":8000,"station_id":"","pricing_plan_id":"cebpf4jnsgd1na2vs0mg"},{"bike_id":"ebb2d58b-982f-41cd-b65c-668035c69ec1","system_id":"levelo_inurba_marseille","lat":43.304914,"lon":5.371558,"is_reserved":false,"is_disabled":false,"rental_uris":{"android":"levelo://app?vid=ebb2d58b-982f-41cd-b65c-668035c69ec1","ios":"levelo://app?vid=ebb2d58b-982f-41cd-b65c-668035c69ec1"},"vehicle_type_id":"4","last_reported":1741622969,"current_range_meters":8000,"station_id":"","pricing_plan_id":"cebpf4jnsgd1na2vs0mg"},{"bike_id":"57bb9620-7e1d-4375-9183-8aca42377c8c","system_id":"levelo_inurba_marseille","lat":43.30468,"lon":5.38204,"is_reserved":false,"is_disabled":false,"rental_uris":{"android":"levelo://app?vid=57bb9620-7e1d-4375-9183-8aca42377c8c","ios":"levelo://app?vid=57bb9620-7e1d-4375-9183-8aca42377c8c"},"vehicle_type_id":"4","last_reported":1741622969,"current_range_meters":8000,"station_id":"","pricing_plan_id":"cebpf4jnsgd1na2vs0mg"},{"bike_id":"61193e8a-8e60-4220-8577-846bbeba5e58","system_id":"levelo_inurba_marseille","lat":43.31405,"lon":5.38607,"is_reserved":false,"is_disabled":false,"rental_uris":{"android":"levelo://app?vid=61193e8a-8e60-4220-8577-846bbeba5e58","ios":"levelo://app?vid=61193e8a-8e60-4220-8577-846bbeba5e58"},"vehicle_type_id":"4","last_reported":1741622969,"current_range_meters":8000,"station_id":"","pricing_plan_id":"cebpf4jnsgd1na2vs0mg"},{"bike_id":"bdb11683-f5f8-4c4f-9a13-5cbb4f50b560","system_id":"levelo_inurba_marseille","lat":43.27058,"lon":5.4025,"is_reserved":false,"is_disabled":false,"rental_uris":{"android":"levelo://app?vid=bdb11683-f5f8-4c4f-9a13-5cbb4f50b560","ios":"levelo://app?vid=bdb11683-f5f8-4c4f-9a13-5cbb4f50b560"},"vehicle_type_id":"4","last_reported":1741622969,"current_range_meters":8400,"station_id":"ce4bhk92rcd13ifvqgc0","pricing_plan_id":"cebpf4jnsgd1na2vs0mg"},{"bike_id":"217e6fac-312f-4d34-9f0a-9208688bb967","system_id":"levelo_inurba_marseille","lat":43.24168,"lon":5.39752,"is_reserved":false,"is_disabled":false,"rental_uris":{"android":"levelo://app?vid=217e6fac-312f-4d34-9f0a-9208688bb967","ios":"levelo://app?vid=217e6fac-312f-4d34-9f0a-9208688bb967"},"vehicle_type_id":"4","last_reported":1741622969,"current_range_meters":8400,"station_id":"ce4bhn12rcd13ifvqgpg","pricing_plan_id":"cebpf4jnsgd1na2vs0mg"},{"bike_id":"7f08542c-3622-4bee-8852-d0974c0ec085","system_id":"levelo_inurba_marseille","lat":43.24133,"lon":5.36347,"is_reserved":false,"is_disabled":false,"rental_uris":{"android":"levelo://app?vid=7f08542c-3622-4bee-8852-d0974c0ec085","ios":"levelo://app?vid=7f08542c-3622-4bee-8852-d0974c0ec085"},"vehicle_type_id":"4","last_reported":1741622969,"current_range_meters":8400,"station_id":"","pricing_plan_id":"cebpf4jnsgd1na2vs0mg"},{"bike_id":"5deac90d-7061-42ce-af0a-740a96262b05","system_id":"levelo_inurba_marseille","lat":43.27206,"lon":5.39181,"is_reserved":false,"is_disabled":false,"rental_uris":{"android":"levelo://app?vid=5deac90d-7061-42ce-af0a-740a96262b05","ios":"levelo://app?vid=5deac90d-7061-42ce-af0a-740a96262b05"},"vehicle_type_id":"4","last_reported":1741622969,"current_range_meters":8000,"station_id":"ce4bhhp2rcd13ifvqfm0","pricing_plan_id":"cebpf4jnsgd1na2vs0mg"},{"bike_id":"6fc45882-d39a-4a11-8d19-649988fbd318","system_id":"levelo_inurba_marseille","lat":43.32333,"lon":5.4062,"is_reserved":false,"is_disabled":false,"rental_uris":{"android":"levelo://app?vid=6fc45882-d39a-4a11-8d19-649988fbd318","ios":"levelo://app?vid=6fc45882-d39a-4a11-8d19-649988fbd318"},"vehicle_type_id":"4","last_reported":1741622969,"current_range_meters":8000,"station_id":"ce4bhq92rcd13ifvqhjg","pricing_plan_id":"cebpf4jnsgd1na2vs0mg"},{"bike_id":"60f4da96-da64-488c-98f7-c9a61709620a","system_id":"levelo_inurba_marseille","lat":43.2558,"lon":5.38234,"is_reserved":false,"is_disabled":false,"rental_uris":{"android":"levelo://app?vid=60f4da96-da64-488c-98f7-c9a61709620a","ios":"levelo://app?vid=60f4da96-da64-488c-98f7-c9a61709620a"},"vehicle_type_id":"4","last_reported":1741622969,"current_range_meters":8400,"station_id":"ce4bhih2rcd13ifvqfs0","pricing_plan_id":"cebpf4jnsgd1na2vs0mg"},{"bike_id":"87c40d47-5266-4f6a-9a89-01987f8bf62c","system_id":"levelo_inurba_marseille","lat":43.26243,"lon":5.40452,"is_reserved":false,"is_disabled":false,"rental_uris":{"android":"levelo://app?vid=87c40d47-5266-4f6a-9a89-01987f8bf62c","ios":"levelo://app?vid=87c40d47-5266-4f6a-9a89-01987f8bf62c"},"vehicle_type_id":"4","last_reported":1741622969,"current_range_meters":8400,"station_id":"ce4bhmh2rcd13ifvqgmg","pricing_plan_id":"cebpf4jnsgd1na2vs0mg"},{"bike_id":"5d44eec5-0f76-4d9d-87c9-f425c19e364b","system_id":"levelo_inurba_marseille","lat":43.25088,"lon":5.39479,"is_reserved":false,"is_disabled":false,"rental_uris":{"android":"levelo://app?vid=5d44eec5-0f76-4d9d-87c9-f425c19e364b","ios":"levelo://app?vid=5d44eec5-0f76-4d9d-87c9-f425c19e364b"},"vehicle_type_id":"4","last_reported":1741622969,"current_range_meters":8400,"station_id":"ce4bhm12rcd13ifvqgkg","pricing_plan_id":"cebpf4jnsgd1na2vs0mg"},{"bike_id":"57d491f8-4706-4b00-ad57-f6b6c494e279","system_id":"levelo_inurba_marseille","lat":43.27061,"lon":5.40249,"is_reserved":false,"is_disabled":false,"rental_uris":{"android":"levelo://app?vid=57d491f8-4706-4b00-ad57-f6b6c494e279","ios":"levelo://app?vid=57d491f8-4706-4b00-ad57-f6b6c494e279"},"vehicle_type_id":"4","last_reported":1741622969,"current_range_meters":8400,"station_id":"ce4bhk92rcd13ifvqgc0","pricing_plan_id":"cebpf4jnsgd1na2vs0mg"},{"bike_id":"bdc78fc7-57a8-460b-93ec-004636e44691","system_id":"levelo_inurba_marseille","lat":43.29783,"lon":5.39366,"is_reserved":false,"is_disabled":false,"rental_uris":{"android":"levelo://app?vid=bdc78fc7-57a8-460b-93ec-004636e44691","ios":"levelo://app?vid=bdc78fc7-57a8-460b-93ec-004636e44691"},"vehicle_type_id":"4","last_reported":1741622969,"current_range_meters":8400,"station_id":"chh1huq6cuj3fo74tm60","pricing_plan_id":"cebpf4jnsgd1na2vs0mg"},{"bike_id":"e374535e-2a0d-4878-b24a-be8c2963daa8","system_id":"levelo_inurba_marseille","lat":43.26932,"lon":5.38903,"is_reserved":false,"is_disabled":false,"rental_uris":{"android":"levelo://app?vid=e374535e-2a0d-4878-b24a-be8c2963daa8","ios":"levelo://app?vid=e374535e-2a0d-4878-b24a-be8c2963daa8"},"vehicle_type_id":"4","last_reported":1741622969,"current_range_meters":8400,"station_id":"ce4bhhh2rcd13ifvqfl0","pricing_plan_id":"cebpf4jnsgd1na2vs0mg"},{"bike_id":"ee71878d-2833-4e1f-8d3d-16729951ab6d","system_id":"levelo_inurba_marseille","lat":43.23182,"lon":5.39992,"is_reserved":false,"is_disabled":false,"rental_uris":{"android":"levelo://app?vid=ee71878d-2833-4e1f-8d3d-16729951ab6d","ios":"levelo://app?vid=ee71878d-2833-4e1f-8d3d-16729951ab6d"},"vehicle_type_id":"4","last_reported":1741622969,"current_range_meters":8400,"station_id":"ce4bhn12rcd13ifvqgqg","pricing_plan_id":"cebpf4jnsgd1na2vs0mg"},{"bike_id":"169b38ad-d958-40d3-89a3-ded19f11a319","system_id":"levelo_inurba_marseille","lat":43.3372,"lon":5.39186,"is_reserved":false,"is_disabled":false,"rental_uris":{"android":"levelo://app?vid=169b38ad-d958-40d3-89a3-ded19f11a319","ios":"levelo://app?vid=169b38ad-d958-40d3-89a3-ded19f11a319"},"vehicle_type_id":"4","last_reported":1741622969,"current_range_meters":8800,"station_id":"ce4bhr92rcd13ifvqhsg","pricing_plan_id":"cebpf4jnsgd1na2vs0mg"},{"bike_id":"de9fddf8-e875-43a6-8820-e573f760aa4b","system_id":"levelo_inurba_marseille","lat":43.304869,"lon":5.380606,"is_reserved":false,"is_disabled":false,"rental_uris":{"android":"levelo://app?vid=de9fddf8-e875-43a6-8820-e573f760aa4b","ios":"levelo://app?vid=de9fddf8-e875-43a6-8820-e573f760aa4b"},"vehicle_type_id":"4","last_reported":1741622969,"current_range_meters":9200,"station_id":"ce4bgup2rcd13ifvqcn0","pricing_plan_id":"cebpf4jnsgd1na2vs0mg"},{"bike_id":"565245af-1098-4207-83d1-fdf36ab786b5","system_id":"levelo_inurba_marseille","lat":43.28081,"lon":5.4419,"is_reserved":false,"is_disabled":true,"rental_uris":{"android":"levelo://app?vid=565245af-1098-4207-83d1-fdf36ab786b5","ios":"levelo://app?vid=565245af-1098-4207-83d1-fdf36ab786b5"},"vehicle_type_id":"4","last_reported":1741622969,"current_range_meters":8800,"station_id":"","pricing_plan_id":"cebpf4jnsgd1na2vs0mg"},{"bike_id":"1f72adc6-3d1a-4fad-a905-cb9dcd596e26","system_id":"levelo_inurba_marseille","lat":43.23837,"lon":5.43565,"is_reserved":false,"is_disabled":false,"rental_uris":{"android":"levelo://app?vid=1f72adc6-3d1a-4fad-a905-cb9dcd596e26","ios":"levelo://app?vid=1f72adc6-3d1a-4fad-a905-cb9dcd596e26"},"vehicle_type_id":"4","last_reported":1741622969,"current_range_meters":8800,"station_id":"","pricing_plan_id":"cebpf4jnsgd1na2vs0mg"},{"bike_id":"ef6303de-f84a-4b1f-9060-2a8d28e015bb","system_id":"levelo_inurba_marseille","lat":43.24087,"lon":5.37704,"is_reserved":false,"is_disabled":false,"rental_uris":{"android":"levelo://app?vid=ef6303de-f84a-4b1f-9060-2a8d28e015bb","ios":"levelo://app?vid=ef6303de-f84a-4b1f-9060-2a8d28e015bb"},"vehicle_type_id":"4","last_reported":1741622969,"current_range_meters":9200,"station_id":"ce4bhnp2rcd13ifvqgvg","pricing_plan_id":"cebpf4jnsgd1na2vs0mg"},{"bike_id":"199cb7b2-857a-4db4-b08b-30cc2dc0c4f3","system_id":"levelo_inurba_marseille","lat":43.31711,"lon":5.437,"is_reserved":false,"is_disabled":false,"rental_uris":{"android":"levelo://app?vid=199cb7b2-857a-4db4-b08b-30cc2dc0c4f3","ios":"levelo://app?vid=199cb7b2-857a-4db4-b08b-30cc2dc0c4f3"},"vehicle_type_id":"4","last_reported":1741622969,"current_range_meters":9200,"station_id":"ce4bhp92rcd13ifvqhcg","pricing_plan_id":"cebpf4jnsgd1na2vs0mg"},{"bike_id":"877e3590-137f-4625-ab26-597e3b2ab8d7","system_id":"levelo_inurba_marseille","lat":43.30356,"lon":5.41878,"is_reserved":false,"is_disabled":false,"rental_uris":{"android":"levelo://app?vid=877e3590-137f-4625-ab26-597e3b2ab8d7","ios":"levelo://app?vid=877e3590-137f-4625-ab26-597e3b2ab8d7"},"vehicle_type_id":"4","last_reported":1741622969,"current_range_meters":9200,"station_id":"ce4bhop2rcd13ifvqh7g","pricing_plan_id":"cebpf4jnsgd1na2vs0mg"},{"bike_id":"72505422-dde5-4a26-b2b5-19a4cf729bc5","system_id":"levelo_inurba_marseille","lat":43.29258,"lon":5.37628,"is_reserved":false,"is_disabled":false,"rental_uris":{"android":"levelo://app?vid=72505422-dde5-4a26-b2b5-19a4cf729bc5","ios":"levelo://app?vid=72505422-dde5-4a26-b2b5-19a4cf729bc5"},"vehicle_type_id":"4","last_reported":1741622969,"current_range_meters":9200,"station_id":"ce4bgi12rcd13ifvqb80","pricing_plan_id":"cebpf4jnsgd1na2vs0mg"},{"bike_id":"757f94c5-da38-4e78-b071-653f7b036a52","system_id":"levelo_inurba_marseille","lat":43.28693,"lon":5.39996,"is_reserved":false,"is_disabled":false,"rental_uris":{"android":"levelo://app?vid=757f94c5-da38-4e78-b071-653f7b036a52","ios":"levelo://app?vid=757f94c5-da38-4e78-b071-653f7b036a52"},"vehicle_type_id":"4","last_reported":1741622969,"current_range_meters":9600,"station_id":"ce4bho92rcd13ifvqh3g","pricing_plan_id":"cebpf4jnsgd1na2vs0mg"},{"bike_id":"691863b4-ec64-4a21-a5ef-afa25690e6c7","system_id":"levelo_inurba_marseille","lat":43.29973,"lon":5.41313,"is_reserved":false,"is_disabled":false,"rental_uris":{"android":"levelo://app?vid=691863b4-ec64-4a21-a5ef-afa25690e6c7","ios":"levelo://app?vid=691863b4-ec64-4a21-a5ef-afa25690e6c7"},"vehicle_type_id":"4","last_reported":1741622969,"current_range_meters":9200,"station_id":"ce4bhp12rcd13ifvqh9g","pricing_plan_id":"cebpf4jnsgd1na2vs0mg"},{"bike_id":"9ad3941c-a1ac-4563-9a21-7dd980942c2e","system_id":"levelo_inurba_marseille","lat":43.26025,"lon":5.37552,"is_reserved":false,"is_disabled":true,"rental_uris":{"android":"levelo://app?vid=9ad3941c-a1ac-4563-9a21-7dd980942c2e","ios":"levelo://app?vid=9ad3941c-a1ac-4563-9a21-7dd980942c2e"},"vehicle_type_id":"4","last_reported":1741622969,"current_range_meters":9600,"station_id":"ce4bhgh2rcd13ifvqfa0","pricing_plan_id":"cebpf4jnsgd1na2vs0mg"},{"bike_id":"a37d42aa-085d-4a56-8e08-eaf93bfe5e2b","system_id":"levelo_inurba_marseille","lat":43.31189,"lon":5.38707,"is_reserved":false,"is_disabled":true,"rental_uris":{"android":"levelo://app?vid=a37d42aa-085d-4a56-8e08-eaf93bfe5e2b","ios":"levelo://app?vid=a37d42aa-085d-4a56-8e08-eaf93bfe5e2b"},"vehicle_type_id":"4","last_reported":1741622969,"current_range_meters":9600,"station_id":"ce4bgv12rcd13ifvqcp0","pricing_plan_id":"cebpf4jnsgd1na2vs0mg"},{"bike_id":"371d65a8-de3e-42cf-9fd2-40a93480beb8","system_id":"levelo_inurba_marseille","lat":43.28919,"lon":5.3839,"is_reserved":false,"is_disabled":false,"rental_uris":{"android":"levelo://app?vid=371d65a8-de3e-42cf-9fd2-40a93480beb8","ios":"levelo://app?vid=371d65a8-de3e-42cf-9fd2-40a93480beb8"},"vehicle_type_id":"4","last_reported":1741622969,"current_range_meters":10000,"station_id":"ce4bh612rcd13ifvqe6g","pricing_plan_id":"cebpf4jnsgd1na2vs0mg"},{"bike_id":"5bf1fd3d-106c-4b23-b455-ae5552f33fa7","system_id":"levelo_inurba_marseille","lat":43.25083,"lon":5.39502,"is_reserved":false,"is_disabled":false,"rental_uris":{"android":"levelo://app?vid=5bf1fd3d-106c-4b23-b455-ae5552f33fa7","ios":"levelo://app?vid=5bf1fd3d-106c-4b23-b455-ae5552f33fa7"},"vehicle_type_id":"4","last_reported":1741622969,"current_range_meters":10000,"station_id":"ce4bhm12rcd13ifvqgkg","pricing_plan_id":"cebpf4jnsgd1na2vs0mg"},{"bike_id":"53d2eea6-1459-4552-b770-3bbd98f45f4d","system_id":"levelo_inurba_marseille","lat":43.25825,"lon":5.39437,"is_reserved":false,"is_disabled":false,"rental_uris":{"android":"levelo://app?vid=53d2eea6-1459-4552-b770-3bbd98f45f4d","ios":"levelo://app?vid=53d2eea6-1459-4552-b770-3bbd98f45f4d"},"vehicle_type_id":"4","last_reported":1741622969,"current_range_meters":10000,"station_id":"ce4bhip2rcd13ifvqft0","pricing_plan_id":"cebpf4jnsgd1na2vs0mg"},{"bike_id":"d4030f47-96f1-48b0-9062-ba0cdbc0f80a","system_id":"levelo_inurba_marseille","lat":43.29168,"lon":5.37162,"is_reserved":false,"is_disabled":false,"rental_uris":{"android":"levelo://app?vid=d4030f47-96f1-48b0-9062-ba0cdbc0f80a","ios":"levelo://app?vid=d4030f47-96f1-48b0-9062-ba0cdbc0f80a"},"vehicle_type_id":"4","last_reported":1741622969,"current_range_meters":9600,"station_id":"ce4bha92rcd13ifvqeh0","pricing_plan_id":"cebpf4jnsgd1na2vs0mg"},{"bike_id":"3c71483b-0e6b-4340-98a0-a87e4be20258","system_id":"levelo_inurba_marseille","lat":43.2706,"lon":5.40252,"is_reserved":false,"is_disabled":false,"rental_uris":{"android":"levelo://app?vid=3c71483b-0e6b-4340-98a0-a87e4be20258","ios":"levelo://app?vid=3c71483b-0e6b-4340-98a0-a87e4be20258"},"vehicle_type_id":"4","last_reported":1741622969,"current_range_meters":10000,"station_id":"ce4bhk92rcd13ifvqgc0","pricing_plan_id":"cebpf4jnsgd1na2vs0mg"},{"bike_id":"3ddb4ec9-e924-4e39-ab9e-46ada2d7105d","system_id":"levelo_inurba_marseille","lat":43.3092,"lon":5.36856,"is_reserved":false,"is_disabled":false,"rental_uris":{"android":"levelo://app?vid=3ddb4ec9-e924-4e39-ab9e-46ada2d7105d","ios":"levelo://app?vid=3ddb4ec9-e924-4e39-ab9e-46ada2d7105d"},"vehicle_type_id":"4","last_reported":1741622969,"current_range_meters":10000,"station_id":"","pricing_plan_id":"cebpf4jnsgd1na2vs0mg"},{"bike_id":"92964d35-8bef-4355-aa2c-12af3389d34c","system_id":"levelo_inurba_marseille","lat":43.289069,"lon":5.366455,"is_reserved":false,"is_disabled":false,"rental_uris":{"android":"levelo://app?vid=92964d35-8bef-4355-aa2c-12af3389d34c","ios":"levelo://app?vid=92964d35-8bef-4355-aa2c-12af3389d34c"},"vehicle_type_id":"4","last_reported":1741622969,"current_range_meters":10800,"station_id":"ce4bhah2rcd13ifvqej0","pricing_plan_id":"cebpf4jnsgd1na2vs0mg"},{"bike_id":"ae4913d3-c7b3-4e3b-8b0e-9eedefc8bcf1","system_id":"levelo_inurba_marseille","lat":43.31315,"lon":5.38842,"is_reserved":false,"is_disabled":false,"rental_uris":{"android":"levelo://app?vid=ae4913d3-c7b3-4e3b-8b0e-9eedefc8bcf1","ios":"levelo://app?vid=ae4913d3-c7b3-4e3b-8b0e-9eedefc8bcf1"},"vehicle_type_id":"4","last_reported":1741622969,"current_range_meters":10800,"station_id":"","pricing_plan_id":"cebpf4jnsgd1na2vs0mg"},{"bike_id":"075be894-d272-4532-a157-af4f02ee78bd","system_id":"levelo_inurba_marseille","lat":43.24075,"lon":5.37748,"is_reserved":false,"is_disabled":false,"rental_uris":{"android":"levelo://app?vid=075be894-d272-4532-a157-af4f02ee78bd","ios":"levelo://app?vid=075be894-d272-4532-a157-af4f02ee78bd"},"vehicle_type_id":"4","last_reported":1741622969,"current_range_meters":10800,"station_id":"ce4bhnp2rcd13ifvqgvg","pricing_plan_id":"cebpf4jnsgd1na2vs0mg"},{"bike_id":"3d78b594-3d44-45a3-a9cc-f8ea9d219d77","system_id":"levelo_inurba_marseille","lat":43.29255,"lon":5.37627,"is_reserved":false,"is_disabled":false,"rental_uris":{"android":"levelo://app?vid=3d78b594-3d44-45a3-a9cc-f8ea9d219d77","ios":"levelo://app?vid=3d78b594-3d44-45a3-a9cc-f8ea9d219d77"},"vehicle_type_id":"4","last_reported":1741622969,"current_range_meters":10800,"station_id":"ce4bgi12rcd13ifvqb80","pricing_plan_id":"cebpf4jnsgd1na2vs0mg"},{"bike_id":"949a394d-0ab3-48f6-a473-31bbb4623c92","system_id":"levelo_inurba_marseille","lat":43.2925,"lon":5.40899,"is_reserved":false,"is_disabled":false,"rental_uris":{"android":"levelo://app?vid=949a394d-0ab3-48f6-a473-31bbb4623c92","ios":"levelo://app?vid=949a394d-0ab3-48f6-a473-31bbb4623c92"},"vehicle_type_id":"4","last_reported":1741622969,"current_range_meters":10000,"station_id":"ce4bh192rcd13ifvqdc0","pricing_plan_id":"cebpf4jnsgd1na2vs0mg"},{"bike_id":"41ac3081-7c2d-477e-85ec-9a95ad6338e4","system_id":"levelo_inurba_marseille","lat":43.3044,"lon":5.38889,"is_reserved":false,"is_disabled":false,"rental_uris":{"android":"levelo://app?vid=41ac3081-7c2d-477e-85ec-9a95ad6338e4","ios":"levelo://app?vid=41ac3081-7c2d-477e-85ec-9a95ad6338e4"},"vehicle_type_id":"4","last_reported":1741622969,"current_range_meters":10800,"station_id":"ce4bgk12rcd13ifvqbi0","pricing_plan_id":"cebpf4jnsgd1na2vs0mg"},{"bike_id":"07d88002-6642-40fb-8b08-fb9039151b5a","system_id":"levelo_inurba_marseille","lat":43.24801,"lon":5.37461,"is_reserved":false,"is_disabled":false,"rental_uris":{"android":"levelo://app?vid=07d88002-6642-40fb-8b08-fb9039151b5a","ios":"levelo://app?vid=07d88002-6642-40fb-8b08-fb9039151b5a"},"vehicle_type_id":"4","last_reported":1741622969,"current_range_meters":10800,"station_id":"ce4bhgh2rcd13ifvqfb0","pricing_plan_id":"cebpf4jnsgd1na2vs0mg"},{"bike_id":"5168a913-5224-4ddf-8293-e2c5484c5bf7","system_id":"levelo_inurba_marseille","lat":43.255879,"lon":5.382463,"is_reserved":false,"is_disabled":false,"rental_uris":{"android":"levelo://app?vid=5168a913-5224-4ddf-8293-e2c5484c5bf7","ios":"levelo://app?vid=5168a913-5224-4ddf-8293-e2c5484c5bf7"},"vehicle_type_id":"4","last_reported":1741622969,"current_range_meters":10800,"station_id":"ce4bhih2rcd13ifvqfs0","pricing_plan_id":"cebpf4jnsgd1na2vs0mg"},{"bike_id":"d2ac0aa6-492c-406a-8f30-81aab53fe76b","system_id":"levelo_inurba_marseille","lat":43.24172,"lon":5.39736,"is_reserved":false,"is_disabled":false,"rental_uris":{"android":"levelo://app?vid=d2ac0aa6-492c-406a-8f30-81aab53fe76b","ios":"levelo://app?vid=d2ac0aa6-492c-406a-8f30-81aab53fe76b"},"vehicle_type_id":"4","last_reported":1741622969,"current_range_meters":11200,"station_id":"ce4bhn12rcd13ifvqgpg","pricing_plan_id":"cebpf4jnsgd1na2vs0mg"},{"bike_id":"68d89c40-14e8-4102-a80e-5e09c9fad361","system_id":"levelo_inurba_marseille","lat":43.32333,"lon":5.40619,"is_reserved":false,"is_disabled":false,"rental_uris":{"android":"levelo://app?vid=68d89c40-14e8-4102-a80e-5e09c9fad361","ios":"levelo://app?vid=68d89c40-14e8-4102-a80e-5e09c9fad361"},"vehicle_type_id":"4","last_reported":1741622969,"current_range_meters":10800,"station_id":"ce4bhq92rcd13ifvqhjg","pricing_plan_id":"cebpf4jnsgd1na2vs0mg"},{"bike_id":"b10f2370-2bf8-4150-9f97-aa6396744d6d","system_id":"levelo_inurba_marseille","lat":43.27054,"lon":5.40273,"is_reserved":false,"is_disabled":false,"rental_uris":{"android":"levelo://app?vid=b10f2370-2bf8-4150-9f97-aa6396744d6d","ios":"levelo://app?vid=b10f2370-2bf8-4150-9f97-aa6396744d6d"},"vehicle_type_id":"4","last_reported":1741622969,"current_range_meters":11200,"station_id":"ce4bhk92rcd13ifvqgc0","pricing_plan_id":"cebpf4jnsgd1na2vs0mg"},{"bike_id":"98d8a154-c6b2-4d96-82cd-afc7786dc4e4","system_id":"levelo_inurba_marseille","lat":43.30806,"lon":5.43519,"is_reserved":false,"is_disabled":false,"rental_uris":{"android":"levelo://app?vid=98d8a154-c6b2-4d96-82cd-afc7786dc4e4","ios":"levelo://app?vid=98d8a154-c6b2-4d96-82cd-afc7786dc4e4"},"vehicle_type_id":"4","last_reported":1741622969,"current_range_meters":11200,"station_id":"ce4bhph2rcd13ifvqheg","pricing_plan_id":"cebpf4jnsgd1na2vs0mg"},{"bike_id":"e6bfedde-b8d3-483f-9c12-e45beb87d7c9","system_id":"levelo_inurba_marseille","lat":43.23133,"lon":5.4372,"is_reserved":false,"is_disabled":false,"rental_uris":{"android":"levelo://app?vid=e6bfedde-b8d3-483f-9c12-e45beb87d7c9","ios":"levelo://app?vid=e6bfedde-b8d3-483f-9c12-e45beb87d7c9"},"vehicle_type_id":"4","last_reported":1741622969,"current_range_meters":11200,"station_id":"ce4bhmp2rcd13ifvqgog","pricing_plan_id":"cebpf4jnsgd1na2vs0mg"},{"bike_id":"4491a1e2-eb06-49d1-bf0c-ffab94d6b1ae","system_id":"levelo_inurba_marseille","lat":43.241811,"lon":5.397213,"is_reserved":false,"is_disabled":true,"rental_uris":{"android":"levelo://app?vid=4491a1e2-eb06-49d1-bf0c-ffab94d6b1ae","ios":"levelo://app?vid=4491a1e2-eb06-49d1-bf0c-ffab94d6b1ae"},"vehicle_type_id":"4","last_reported":1741622969,"current_range_meters":11600,"station_id":"ce4bhn12rcd13ifvqgpg","pricing_plan_id":"cebpf4jnsgd1na2vs0mg"},{"bike_id":"bfc84c9e-c0c7-4688-8434-63b9bf89ed1e","system_id":"levelo_inurba_marseille","lat":43.33724,"lon":5.39193,"is_reserved":false,"is_disabled":false,"rental_uris":{"android":"levelo://app?vid=bfc84c9e-c0c7-4688-8434-63b9bf89ed1e","ios":"levelo://app?vid=bfc84c9e-c0c7-4688-8434-63b9bf89ed1e"},"vehicle_type_id":"4","last_reported":1741622969,"current_range_meters":11600,"station_id":"ce4bhr92rcd13ifvqhsg","pricing_plan_id":"cebpf4jnsgd1na2vs0mg"},{"bike_id":"49ba811c-3ebc-4370-a7d8-19f7194e3066","system_id":"levelo_inurba_marseille","lat":43.27042,"lon":5.40303,"is_reserved":false,"is_disabled":false,"rental_uris":{"android":"levelo://app?vid=49ba811c-3ebc-4370-a7d8-19f7194e3066","ios":"levelo://app?vid=49ba811c-3ebc-4370-a7d8-19f7194e3066"},"vehicle_type_id":"4","last_reported":1741622969,"current_range_meters":11600,"station_id":"ce4bhk92rcd13ifvqgc0","pricing_plan_id":"cebpf4jnsgd1na2vs0mg"},{"bike_id":"787941c7-68e4-4a9e-b1f1-d3bf469258e1","system_id":"levelo_inurba_marseille","lat":43.24198,"lon":5.39696,"is_reserved":false,"is_disabled":false,"rental_uris":{"android":"levelo://app?vid=787941c7-68e4-4a9e-b1f1-d3bf469258e1","ios":"levelo://app?vid=787941c7-68e4-4a9e-b1f1-d3bf469258e1"},"vehicle_type_id":"4","last_reported":1741622969,"current_range_meters":11600,"station_id":"ce4bhn12rcd13ifvqgpg","pricing_plan_id":"cebpf4jnsgd1na2vs0mg"},{"bike_id":"e6c77101-4646-4aa9-90e6-e7685a64f065","system_id":"levelo_inurba_marseille","lat":43.30097,"lon":5.39081,"is_reserved":false,"is_disabled":false,"rental_uris":{"android":"levelo://app?vid=e6c77101-4646-4aa9-90e6-e7685a64f065","ios":"levelo://app?vid=e6c77101-4646-4aa9-90e6-e7685a64f065"},"vehicle_type_id":"4","last_reported":1741622969,"current_range_meters":11600,"station_id":"ce4bh192rcd13ifvqdb0","pricing_plan_id":"cebpf4jnsgd1na2vs0mg"},{"bike_id":"66a1a814-cb37-4c9e-ae4d-ffc11f189650","system_id":"levelo_inurba_marseille","lat":43.2558,"lon":5.38231,"is_reserved":false,"is_disabled":false,"rental_uris":{"android":"levelo://app?vid=66a1a814-cb37-4c9e-ae4d-ffc11f189650","ios":"levelo://app?vid=66a1a814-cb37-4c9e-ae4d-ffc11f189650"},"vehicle_type_id":"4","last_reported":1741622969,"current_range_meters":11200,"station_id":"ce4bhih2rcd13ifvqfs0","pricing_plan_id":"cebpf4jnsgd1na2vs0mg"},{"bike_id":"8dc2c2dc-de0f-4fd2-b739-faf253fff5e5","system_id":"levelo_inurba_marseille","lat":43.23173,"lon":5.43683,"is_reserved":false,"is_disabled":false,"rental_uris":{"android":"levelo://app?vid=8dc2c2dc-de0f-4fd2-b739-faf253fff5e5","ios":"levelo://app?vid=8dc2c2dc-de0f-4fd2-b739-faf253fff5e5"},"vehicle_type_id":"4","last_reported":1741622969,"current_range_meters":12000,"station_id":"ce4bhmp2rcd13ifvqgog","pricing_plan_id":"cebpf4jnsgd1na2vs0mg"},{"bike_id":"244e24ec-5230-4970-a424-40a2cfa035f7","system_id":"levelo_inurba_marseille","lat":43.24065,"lon":5.37707,"is_reserved":false,"is_disabled":false,"rental_uris":{"android":"levelo://app?vid=244e24ec-5230-4970-a424-40a2cfa035f7","ios":"levelo://app?vid=244e24ec-5230-4970-a424-40a2cfa035f7"},"vehicle_type_id":"4","last_reported":1741622969,"current_range_meters":12000,"station_id":"ce4bhnp2rcd13ifvqgvg","pricing_plan_id":"cebpf4jnsgd1na2vs0mg"},{"bike_id":"fdf03c1d-5e90-478f-8bb0-a4613e7853a4","system_id":"levelo_inurba_marseille","lat":43.30139,"lon":5.3742,"is_reserved":false,"is_disabled":false,"rental_uris":{"android":"levelo://app?vid=fdf03c1d-5e90-478f-8bb0-a4613e7853a4","ios":"levelo://app?vid=fdf03c1d-5e90-478f-8bb0-a4613e7853a4"},"vehicle_type_id":"4","last_reported":1741622969,"current_range_meters":12000,"station_id":"ce4bgup2rcd13ifvqcn0","pricing_plan_id":"cebpf4jnsgd1na2vs0mg"},{"bike_id":"c426bc72-6764-4b6c-af01-e2dc0850e0cf","system_id":"levelo_inurba_marseille","lat":43.269488,"lon":5.386254,"is_reserved":false,"is_disabled":false,"rental_uris":{"android":"levelo://app?vid=c426bc72-6764-4b6c-af01-e2dc0850e0cf","ios":"levelo://app?vid=c426bc72-6764-4b6c-af01-e2dc0850e0cf"},"vehicle_type_id":"4","last_reported":1741622969,"current_range_meters":12000,"station_id":"ce4bhh92rcd13ifvqfh0","pricing_plan_id":"cebpf4jnsgd1na2vs0mg"},{"bike_id":"09bbb690-af86-458c-bbad-70d10e2033ee","system_id":"levelo_inurba_marseille","lat":43.23048,"lon":5.35494,"is_reserved":false,"is_disabled":false,"rental_uris":{"android":"levelo://app?vid=09bbb690-af86-458c-bbad-70d10e2033ee","ios":"levelo://app?vid=09bbb690-af86-458c-bbad-70d10e2033ee"},"vehicle_type_id":"4","last_reported":1741622969,"current_range_meters":12000,"station_id":"cpo3342slgdg3j2ifvpg","pricing_plan_id":"cebpf4jnsgd1na2vs0mg"},{"bike_id":"80771939-f406-42f7-81c5-33180fd8a338","system_id":"levelo_inurba_marseille","lat":43.23195,"lon":5.35555,"is_reserved":false,"is_disabled":false,"rental_uris":{"android":"levelo://app?vid=80771939-f406-42f7-81c5-33180fd8a338","ios":"levelo://app?vid=80771939-f406-42f7-81c5-33180fd8a338"},"vehicle_type_id":"4","last_reported":1741622969,"current_range_meters":12000,"station_id":"ce4bhu92rcd13ifvqi70","pricing_plan_id":"cebpf4jnsgd1na2vs0mg"},{"bike_id":"39a544a4-9cda-43e2-be22-212a764912e7","system_id":"levelo_inurba_marseille","lat":43.24064,"lon":5.37686,"is_reserved":false,"is_disabled":false,"rental_uris":{"android":"levelo://app?vid=39a544a4-9cda-43e2-be22-212a764912e7","ios":"levelo://app?vid=39a544a4-9cda-43e2-be22-212a764912e7"},"vehicle_type_id":"4","last_reported":1741622969,"current_range_meters":12000,"station_id":"ce4bhnp2rcd13ifvqgvg","pricing_plan_id":"cebpf4jnsgd1na2vs0mg"},{"bike_id":"51772d6c-c0b3-48d9-81cb-ae5466e6f822","system_id":"levelo_inurba_marseille","lat":43.23134,"lon":5.43721,"is_reserved":false,"is_disabled":false,"rental_uris":{"android":"levelo://app?vid=51772d6c-c0b3-48d9-81cb-ae5466e6f822","ios":"levelo://app?vid=51772d6c-c0b3-48d9-81cb-ae5466e6f822"},"vehicle_type_id":"4","last_reported":1741622969,"current_range_meters":12000,"station_id":"ce4bhmp2rcd13ifvqgog","pricing_plan_id":"cebpf4jnsgd1na2vs0mg"},{"bike_id":"c41e3247-520d-4edc-8030-5306b79badd5","system_id":"levelo_inurba_marseille","lat":43.24648,"lon":5.38889,"is_reserved":false,"is_disabled":false,"rental_uris":{"android":"levelo://app?vid=c41e3247-520d-4edc-8030-5306b79badd5","ios":"levelo://app?vid=c41e3247-520d-4edc-8030-5306b79badd5"},"vehicle_type_id":"4","last_reported":1741622969,"current_range_meters":12400,"station_id":"ce4bhg12rcd13ifvqf60","pricing_plan_id":"cebpf4jnsgd1na2vs0mg"},{"bike_id":"29cfd7c6-f30d-433f-be23-3816488240c9","system_id":"levelo_inurba_marseille","lat":43.2846,"lon":5.35898,"is_reserved":false,"is_disabled":false,"rental_uris":{"android":"levelo://app?vid=29cfd7c6-f30d-433f-be23-3816488240c9","ios":"levelo://app?vid=29cfd7c6-f30d-433f-be23-3816488240c9"},"vehicle_type_id":"4","last_reported":1741622969,"current_range_meters":12400,"station_id":"ce4bhah2rcd13ifvqei0","pricing_plan_id":"cebpf4jnsgd1na2vs0mg"},{"bike_id":"2338626f-0565-48b6-9fa4-dab8eb33618f","system_id":"levelo_inurba_marseille","lat":43.257289,"lon":5.41106,"is_reserved":false,"is_disabled":false,"rental_uris":{"android":"levelo://app?vid=2338626f-0565-48b6-9fa4-dab8eb33618f","ios":"levelo://app?vid=2338626f-0565-48b6-9fa4-dab8eb33618f"},"vehicle_type_id":"4","last_reported":1741622969,"current_range_meters":12400,"station_id":"ce4bhkp2rcd13ifvqgd0","pricing_plan_id":"cebpf4jnsgd1na2vs0mg"},{"bike_id":"acc1658b-7ea3-44a5-a65b-40f1faa0438d","system_id":"levelo_inurba_marseille","lat":43.32537,"lon":5.41441,"is_reserved":false,"is_disabled":false,"rental_uris":{"android":"levelo://app?vid=acc1658b-7ea3-44a5-a65b-40f1faa0438d","ios":"levelo://app?vid=acc1658b-7ea3-44a5-a65b-40f1faa0438d"},"vehicle_type_id":"4","last_reported":1741622969,"current_range_meters":12800,"station_id":"ce4bhq12rcd13ifvqhhg","pricing_plan_id":"cebpf4jnsgd1na2vs0mg"},{"bike_id":"a7549522-98ad-4d6d-991c-bbc949f7cfeb","system_id":"levelo_inurba_marseille","lat":43.310527,"lon":5.402883,"is_reserved":false,"is_disabled":false,"rental_uris":{"android":"levelo://app?vid=a7549522-98ad-4d6d-991c-bbc949f7cfeb","ios":"levelo://app?vid=a7549522-98ad-4d6d-991c-bbc949f7cfeb"},"vehicle_type_id":"4","last_reported":1741622969,"current_range_meters":12800,"station_id":"ce4bgvp2rcd13ifvqcu0","pricing_plan_id":"cebpf4jnsgd1na2vs0mg"},{"bike_id":"50ff1ab3-8001-4c74-81e6-1365fba69178","system_id":"levelo_inurba_marseille","lat":43.25933,"lon":5.409,"is_reserved":false,"is_disabled":false,"rental_uris":{"android":"levelo://app?vid=50ff1ab3-8001-4c74-81e6-1365fba69178","ios":"levelo://app?vid=50ff1ab3-8001-4c74-81e6-1365fba69178"},"vehicle_type_id":"4","last_reported":1741622969,"current_range_meters":12800,"station_id":"ce4bhm92rcd13ifvqglg","pricing_plan_id":"cebpf4jnsgd1na2vs0mg"},{"bike_id":"01a2ee94-94b0-4962-8885-bde3f63a84a8","system_id":"levelo_inurba_marseille","lat":43.26937,"lon":5.38903,"is_reserved":false,"is_disabled":false,"rental_uris":{"android":"levelo://app?vid=01a2ee94-94b0-4962-8885-bde3f63a84a8","ios":"levelo://app?vid=01a2ee94-94b0-4962-8885-bde3f63a84a8"},"vehicle_type_id":"4","last_reported":1741622969,"current_range_meters":12800,"station_id":"ce4bhhh2rcd13ifvqfl0","pricing_plan_id":"cebpf4jnsgd1na2vs0mg"},{"bike_id":"2e4faaa8-f709-4a34-ba15-8474a846f28b","system_id":"levelo_inurba_marseille","lat":43.26552,"lon":5.37282,"is_reserved":false,"is_disabled":false,"rental_uris":{"android":"levelo://app?vid=2e4faaa8-f709-4a34-ba15-8474a846f28b","ios":"levelo://app?vid=2e4faaa8-f709-4a34-ba15-8474a846f28b"},"vehicle_type_id":"4","last_reported":1741622969,"current_range_meters":13600,"station_id":"ce4bhg12rcd13ifvqf70","pricing_plan_id":"cebpf4jnsgd1na2vs0mg"},{"bike_id":"0fa8885b-a032-4875-8249-a37d20c5b6a2","system_id":"levelo_inurba_marseille","lat":43.28464,"lon":5.35895,"is_reserved":false,"is_disabled":false,"rental_uris":{"android":"levelo://app?vid=0fa8885b-a032-4875-8249-a37d20c5b6a2","ios":"levelo://app?vid=0fa8885b-a032-4875-8249-a37d20c5b6a2"},"vehicle_type_id":"4","last_reported":1741622969,"current_range_meters":13600,"station_id":"ce4bhah2rcd13ifvqei0","pricing_plan_id":"cebpf4jnsgd1na2vs0mg"},{"bike_id":"b56cf960-9c27-45f8-af0a-7c584f0dc22e","system_id":"levelo_inurba_marseille","lat":43.2801,"lon":5.41652,"is_reserved":false,"is_disabled":false,"rental_uris":{"android":"levelo://app?vid=b56cf960-9c27-45f8-af0a-7c584f0dc22e","ios":"levelo://app?vid=b56cf960-9c27-45f8-af0a-7c584f0dc22e"},"vehicle_type_id":"4","last_reported":1741622969,"current_range_meters":13600,"station_id":"ce4bho12rcd13ifvqh1g","pricing_plan_id":"cebpf4jnsgd1na2vs0mg"},{"bike_id":"27459785-4edf-4f27-b842-1984a62c6dde","system_id":"levelo_inurba_marseille","lat":43.25072,"lon":5.39525,"is_reserved":false,"is_disabled":false,"rental_uris":{"android":"levelo://app?vid=27459785-4edf-4f27-b842-1984a62c6dde","ios":"levelo://app?vid=27459785-4edf-4f27-b842-1984a62c6dde"},"vehicle_type_id":"4","last_reported":1741622969,"current_range_meters":13600,"station_id":"ce4bhm12rcd13ifvqgkg","pricing_plan_id":"cebpf4jnsgd1na2vs0mg"},{"bike_id":"9ec52ed9-9c0e-4e61-a378-5327e3711632","system_id":"levelo_inurba_marseille","lat":43.24725,"lon":5.4115,"is_reserved":false,"is_disabled":false,"rental_uris":{"android":"levelo://app?vid=9ec52ed9-9c0e-4e61-a378-5327e3711632","ios":"levelo://app?vid=9ec52ed9-9c0e-4e61-a378-5327e3711632"},"vehicle_type_id":"4","last_reported":1741622969,"current_range_meters":13600,"station_id":"","pricing_plan_id":"cebpf4jnsgd1na2vs0mg"},{"bike_id":"e3b9964e-5c42-4877-b6ff-0d8e691e026e","system_id":"levelo_inurba_marseille","lat":43.27062,"lon":5.40249,"is_reserved":false,"is_disabled":false,"rental_uris":{"android":"levelo://app?vid=e3b9964e-5c42-4877-b6ff-0d8e691e026e","ios":"levelo://app?vid=e3b9964e-5c42-4877-b6ff-0d8e691e026e"},"vehicle_type_id":"4","last_reported":1741622969,"current_range_meters":14000,"station_id":"ce4bhk92rcd13ifvqgc0","pricing_plan_id":"cebpf4jnsgd1na2vs0mg"},{"bike_id":"ccbf617d-c92c-4154-ad70-fcdbe832004f","system_id":"levelo_inurba_marseille","lat":43.28138,"lon":5.42647,"is_reserved":false,"is_disabled":false,"rental_uris":{"android":"levelo://app?vid=ccbf617d-c92c-4154-ad70-fcdbe832004f","ios":"levelo://app?vid=ccbf617d-c92c-4154-ad70-fcdbe832004f"},"vehicle_type_id":"4","last_reported":1741622969,"current_range_meters":14000,"station_id":"ce4bhnh2rcd13ifvqgug","pricing_plan_id":"cebpf4jnsgd1na2vs0mg"},{"bike_id":"048069fc-3fa5-4840-923b-c7dd0848dbcd","system_id":"levelo_inurba_marseille","lat":43.30882,"lon":5.39649,"is_reserved":false,"is_disabled":false,"rental_uris":{"android":"levelo://app?vid=048069fc-3fa5-4840-923b-c7dd0848dbcd","ios":"levelo://app?vid=048069fc-3fa5-4840-923b-c7dd0848dbcd"},"vehicle_type_id":"4","last_reported":1741622969,"current_range_meters":14000,"station_id":"ce4bh012rcd13ifvqcv0","pricing_plan_id":"cebpf4jnsgd1na2vs0mg"},{"bike_id":"56ad839d-8ae9-4646-98ac-e9383930e0a2","system_id":"levelo_inurba_marseille","lat":43.29551,"lon":5.38538,"is_reserved":false,"is_disabled":false,"rental_uris":{"android":"levelo://app?vid=56ad839d-8ae9-4646-98ac-e9383930e0a2","ios":"levelo://app?vid=56ad839d-8ae9-4646-98ac-e9383930e0a2"},"vehicle_type_id":"4","last_reported":1741622969,"current_range_meters":14000,"station_id":"ce4bgih2rcd13ifvqba0","pricing_plan_id":"cebpf4jnsgd1na2vs0mg"},{"bike_id":"255dcc06-d25f-452c-bfe4-93b316b4e020","system_id":"levelo_inurba_marseille","lat":43.25571,"lon":5.382493,"is_reserved":false,"is_disabled":false,"rental_uris":{"android":"levelo://app?vid=255dcc06-d25f-452c-bfe4-93b316b4e020","ios":"levelo://app?vid=255dcc06-d25f-452c-bfe4-93b316b4e020"},"vehicle_type_id":"4","last_reported":1741622969,"current_range_meters":14400,"station_id":"ce4bhih2rcd13ifvqfs0","pricing_plan_id":"cebpf4jnsgd1na2vs0mg"},{"bike_id":"1ee9dbf5-b0e2-4af5-8fd1-f41f66f7bf91","system_id":"levelo_inurba_marseille","lat":43.30802,"lon":5.38153,"is_reserved":false,"is_disabled":false,"rental_uris":{"android":"levelo://app?vid=1ee9dbf5-b0e2-4af5-8fd1-f41f66f7bf91","ios":"levelo://app?vid=1ee9dbf5-b0e2-4af5-8fd1-f41f66f7bf91"},"vehicle_type_id":"4","last_reported":1741622969,"current_range_meters":14400,"station_id":"ce4bgt12rcd13ifvqce0","pricing_plan_id":"cebpf4jnsgd1na2vs0mg"},{"bike_id":"8361200a-2fee-44a3-8962-13c4dc04915d","system_id":"levelo_inurba_marseille","lat":43.29189,"lon":5.39322,"is_reserved":false,"is_disabled":false,"rental_uris":{"android":"levelo://app?vid=8361200a-2fee-44a3-8962-13c4dc04915d","ios":"levelo://app?vid=8361200a-2fee-44a3-8962-13c4dc04915d"},"vehicle_type_id":"4","last_reported":1741622969,"current_range_meters":14400,"station_id":"ce4bh192rcd13ifvqdd0","pricing_plan_id":"cebpf4jnsgd1na2vs0mg"},{"bike_id":"ec231713-d91c-4932-a1e1-f81c6f28bdce","system_id":"levelo_inurba_marseille","lat":43.28703,"lon":5.39987,"is_reserved":false,"is_disabled":false,"rental_uris":{"android":"levelo://app?vid=ec231713-d91c-4932-a1e1-f81c6f28bdce","ios":"levelo://app?vid=ec231713-d91c-4932-a1e1-f81c6f28bdce"},"vehicle_type_id":"4","last_reported":1741622969,"current_range_meters":14400,"station_id":"ce4bho92rcd13ifvqh3g","pricing_plan_id":"cebpf4jnsgd1na2vs0mg"},{"bike_id":"3bc4c9c9-60ac-423a-9e0b-087cb231bd2c","system_id":"levelo_inurba_marseille","lat":43.2953,"lon":5.38539,"is_reserved":false,"is_disabled":false,"rental_uris":{"android":"levelo://app?vid=3bc4c9c9-60ac-423a-9e0b-087cb231bd2c","ios":"levelo://app?vid=3bc4c9c9-60ac-423a-9e0b-087cb231bd2c"},"vehicle_type_id":"4","last_reported":1741622969,"current_range_meters":14400,"station_id":"ce4bgih2rcd13ifvqba0","pricing_plan_id":"cebpf4jnsgd1na2vs0mg"},{"bike_id":"7dacbf8f-eb09-44f3-9eaf-84ca5f589e90","system_id":"levelo_inurba_marseille","lat":43.2657,"lon":5.39015,"is_reserved":false,"is_disabled":false,"rental_uris":{"android":"levelo://app?vid=7dacbf8f-eb09-44f3-9eaf-84ca5f589e90","ios":"levelo://app?vid=7dacbf8f-eb09-44f3-9eaf-84ca5f589e90"},"vehicle_type_id":"4","last_reported":1741622969,"current_range_meters":14400,"station_id":"ce4bhe12rcd13ifvqf30","pricing_plan_id":"cebpf4jnsgd1na2vs0mg"},{"bike_id":"f640465e-8c9e-425a-8e36-08d8d5201bf6","system_id":"levelo_inurba_marseille","lat":43.23195,"lon":5.35549,"is_reserved":false,"is_disabled":false,"rental_uris":{"android":"levelo://app?vid=f640465e-8c9e-425a-8e36-08d8d5201bf6","ios":"levelo://app?vid=f640465e-8c9e-425a-8e36-08d8d5201bf6"},"vehicle_type_id":"4","last_reported":1741622969,"current_range_meters":14400,"station_id":"ce4bhu92rcd13ifvqi70","pricing_plan_id":"cebpf4jnsgd1na2vs0mg"},{"bike_id":"58d1b5b3-d322-4418-97d0-3066ec3d9afc","system_id":"levelo_inurba_marseille","lat":43.23198,"lon":5.35548,"is_reserved":false,"is_disabled":false,"rental_uris":{"android":"levelo://app?vid=58d1b5b3-d322-4418-97d0-3066ec3d9afc","ios":"levelo://app?vid=58d1b5b3-d322-4418-97d0-3066ec3d9afc"},"vehicle_type_id":"4","last_reported":1741622969,"current_range_meters":14400,"station_id":"ce4bhu92rcd13ifvqi70","pricing_plan_id":"cebpf4jnsgd1na2vs0mg"},{"bike_id":"85de2d4d-7ebe-4adc-86e1-72a48456028f","system_id":"levelo_inurba_marseille","lat":43.29013,"lon":5.38126,"is_reserved":false,"is_disabled":false,"rental_uris":{"android":"levelo://app?vid=85de2d4d-7ebe-4adc-86e1-72a48456028f","ios":"levelo://app?vid=85de2d4d-7ebe-4adc-86e1-72a48456028f"},"vehicle_type_id":"4","last_reported":1741622969,"current_range_meters":14800,"station_id":"ce4bh4p2rcd13ifvqe1g","pricing_plan_id":"cebpf4jnsgd1na2vs0mg"},{"bike_id":"7170985a-2d2e-4f85-93d7-2c8089780cbb","system_id":"levelo_inurba_marseille","lat":43.28162,"lon":5.42638,"is_reserved":false,"is_disabled":false,"rental_uris":{"android":"levelo://app?vid=7170985a-2d2e-4f85-93d7-2c8089780cbb","ios":"levelo://app?vid=7170985a-2d2e-4f85-93d7-2c8089780cbb"},"vehicle_type_id":"4","last_reported":1741622969,"current_range_meters":14800,"station_id":"ce4bhnh2rcd13ifvqgug","pricing_plan_id":"cebpf4jnsgd1na2vs0mg"},{"bike_id":"928fcdc9-ee96-4583-83f4-784c2fd758f4","system_id":"levelo_inurba_marseille","lat":43.257086,"lon":5.379069,"is_reserved":false,"is_disabled":false,"rental_uris":{"android":"levelo://app?vid=928fcdc9-ee96-4583-83f4-784c2fd758f4","ios":"levelo://app?vid=928fcdc9-ee96-4583-83f4-784c2fd758f4"},"vehicle_type_id":"4","last_reported":1741622969,"current_range_meters":15200,"station_id":"ce4bhh12rcd13ifvqff0","pricing_plan_id":"cebpf4jnsgd1na2vs0mg"},{"bike_id":"714996a6-64f6-41af-a68f-e639f119975d","system_id":"levelo_inurba_marseille","lat":43.25077,"lon":5.39516,"is_reserved":false,"is_disabled":true,"rental_uris":{"android":"levelo://app?vid=714996a6-64f6-41af-a68f-e639f119975d","ios":"levelo://app?vid=714996a6-64f6-41af-a68f-e639f119975d"},"vehicle_type_id":"4","last_reported":1741622969,"current_range_meters":15200,"station_id":"ce4bhm12rcd13ifvqgkg","pricing_plan_id":"cebpf4jnsgd1na2vs0mg"},{"bike_id":"549ff5cc-54e5-42db-9edf-1ccc66a8ec15","system_id":"levelo_inurba_marseille","lat":43.27208,"lon":5.39175,"is_reserved":false,"is_disabled":false,"rental_uris":{"android":"levelo://app?vid=549ff5cc-54e5-42db-9edf-1ccc66a8ec15","ios":"levelo://app?vid=549ff5cc-54e5-42db-9edf-1ccc66a8ec15"},"vehicle_type_id":"4","last_reported":1741622969,"current_range_meters":15200,"station_id":"ce4bhhp2rcd13ifvqfm0","pricing_plan_id":"cebpf4jnsgd1na2vs0mg"},{"bike_id":"a5fa182d-74c0-4474-a331-938e8a6bc874","system_id":"levelo_inurba_marseille","lat":43.29419,"lon":5.38613,"is_reserved":false,"is_disabled":false,"rental_uris":{"android":"levelo://app?vid=a5fa182d-74c0-4474-a331-938e8a6bc874","ios":"levelo://app?vid=a5fa182d-74c0-4474-a331-938e8a6bc874"},"vehicle_type_id":"4","last_reported":1741622969,"current_range_meters":15200,"station_id":"ce4bh2h2rcd13ifvqdh0","pricing_plan_id":"cebpf4jnsgd1na2vs0mg"},{"bike_id":"8dd35f97-0326-404c-8aad-83a883b91967","system_id":"levelo_inurba_marseille","lat":43.26559,"lon":5.37281,"is_reserved":false,"is_disabled":false,"rental_uris":{"android":"levelo://app?vid=8dd35f97-0326-404c-8aad-83a883b91967","ios":"levelo://app?vid=8dd35f97-0326-404c-8aad-83a883b91967"},"vehicle_type_id":"4","last_reported":1741622969,"current_range_meters":12400,"station_id":"ce4bhg12rcd13ifvqf70","pricing_plan_id":"cebpf4jnsgd1na2vs0mg"},{"bike_id":"701f9cd0-ec90-466e-9c15-3b3b36a1842c","system_id":"levelo_inurba_marseille","lat":43.28701,"lon":5.39979,"is_reserved":false,"is_disabled":false,"rental_uris":{"android":"levelo://app?vid=701f9cd0-ec90-466e-9c15-3b3b36a1842c","ios":"levelo://app?vid=701f9cd0-ec90-466e-9c15-3b3b36a1842c"},"vehicle_type_id":"4","last_reported":1741622969,"current_range_meters":15200,"station_id":"ce4bho92rcd13ifvqh3g","pricing_plan_id":"cebpf4jnsgd1na2vs0mg"},{"bike_id":"9acab34d-76c9-4fd5-bed6-0265a89df8bb","system_id":"levelo_inurba_marseille","lat":43.25724,"lon":5.41117,"is_reserved":false,"is_disabled":false,"rental_uris":{"android":"levelo://app?vid=9acab34d-76c9-4fd5-bed6-0265a89df8bb","ios":"levelo://app?vid=9acab34d-76c9-4fd5-bed6-0265a89df8bb"},"vehicle_type_id":"4","last_reported":1741622969,"current_range_meters":15200,"station_id":"ce4bhkp2rcd13ifvqgd0","pricing_plan_id":"cebpf4jnsgd1na2vs0mg"},{"bike_id":"fdae8c57-1100-499f-a78a-815b16671136","system_id":"levelo_inurba_marseille","lat":43.24545,"lon":5.39524,"is_reserved":false,"is_disabled":false,"rental_uris":{"android":"levelo://app?vid=fdae8c57-1100-499f-a78a-815b16671136","ios":"levelo://app?vid=fdae8c57-1100-499f-a78a-815b16671136"},"vehicle_type_id":"4","last_reported":1741622969,"current_range_meters":15200,"station_id":"ce4bhlp2rcd13ifvqgjg","pricing_plan_id":"cebpf4jnsgd1na2vs0mg"},{"bike_id":"2a377541-117d-4b85-bb61-79c9fc2ddf8a","system_id":"levelo_inurba_marseille","lat":43.33023,"lon":5.39039,"is_reserved":false,"is_disabled":false,"rental_uris":{"android":"levelo://app?vid=2a377541-117d-4b85-bb61-79c9fc2ddf8a","ios":"levelo://app?vid=2a377541-117d-4b85-bb61-79c9fc2ddf8a"},"vehicle_type_id":"4","last_reported":1741622969,"current_range_meters":14800,"station_id":"ce4bhr92rcd13ifvqhrg","pricing_plan_id":"cebpf4jnsgd1na2vs0mg"},{"bike_id":"dd886261-ac42-4d84-b416-a8efbc37aac3","system_id":"levelo_inurba_marseille","lat":43.26794,"lon":5.394,"is_reserved":false,"is_disabled":false,"rental_uris":{"android":"levelo://app?vid=dd886261-ac42-4d84-b416-a8efbc37aac3","ios":"levelo://app?vid=dd886261-ac42-4d84-b416-a8efbc37aac3"},"vehicle_type_id":"4","last_reported":1741622969,"current_range_meters":15200,"station_id":"ce4bhh12rcd13ifvqfg0","pricing_plan_id":"cebpf4jnsgd1na2vs0mg"},{"bike_id":"24ea9c03-0afd-4100-ad62-62865e3edce9","system_id":"levelo_inurba_marseille","lat":43.23156,"lon":5.43712,"is_reserved":false,"is_disabled":false,"rental_uris":{"android":"levelo://app?vid=24ea9c03-0afd-4100-ad62-62865e3edce9","ios":"levelo://app?vid=24ea9c03-0afd-4100-ad62-62865e3edce9"},"vehicle_type_id":"4","last_reported":1741622969,"current_range_meters":15200,"station_id":"ce4bhmp2rcd13ifvqgog","pricing_plan_id":"cebpf4jnsgd1na2vs0mg"},{"bike_id":"aaa6117f-695a-4870-93d8-ce1ed03dac44","system_id":"levelo_inurba_marseille","lat":43.30546,"lon":5.36535,"is_reserved":false,"is_disabled":true,"rental_uris":{"android":"levelo://app?vid=aaa6117f-695a-4870-93d8-ce1ed03dac44","ios":"levelo://app?vid=aaa6117f-695a-4870-93d8-ce1ed03dac44"},"vehicle_type_id":"4","last_reported":1741622969,"current_range_meters":16000,"station_id":"ce4bgs12rcd13ifvqcag","pricing_plan_id":"cebpf4jnsgd1na2vs0mg"},{"bike_id":"a25b6f61-4e98-4726-9c07-6dfbba9ed204","system_id":"levelo_inurba_marseille","lat":43.29552,"lon":5.42292,"is_reserved":false,"is_disabled":false,"rental_uris":{"android":"levelo://app?vid=a25b6f61-4e98-4726-9c07-6dfbba9ed204","ios":"levelo://app?vid=a25b6f61-4e98-4726-9c07-6dfbba9ed204"},"vehicle_type_id":"4","last_reported":1741622969,"current_range_meters":16000,"station_id":"ce4bhph2rcd13ifvqhdg","pricing_plan_id":"cebpf4jnsgd1na2vs0mg"},{"bike_id":"63829e98-5491-4aaf-8868-cfa8c984e570","system_id":"levelo_inurba_marseille","lat":43.2986,"lon":5.36273,"is_reserved":false,"is_disabled":false,"rental_uris":{"android":"levelo://app?vid=63829e98-5491-4aaf-8868-cfa8c984e570","ios":"levelo://app?vid=63829e98-5491-4aaf-8868-cfa8c984e570"},"vehicle_type_id":"4","last_reported":1741622969,"current_range_meters":16000,"station_id":"ce4bgpp2rcd13ifvqc3g","pricing_plan_id":"cebpf4jnsgd1na2vs0mg"},{"bike_id":"cdd29a02-0905-4ed7-aa8a-6508ae564de9","system_id":"levelo_inurba_marseille","lat":43.27817,"lon":5.40715,"is_reserved":false,"is_disabled":false,"rental_uris":{"android":"levelo://app?vid=cdd29a02-0905-4ed7-aa8a-6508ae564de9","ios":"levelo://app?vid=cdd29a02-0905-4ed7-aa8a-6508ae564de9"},"vehicle_type_id":"4","last_reported":1741622969,"current_range_meters":16000,"station_id":"ce4bhnh2rcd13ifvqgtg","pricing_plan_id":"cebpf4jnsgd1na2vs0mg"},{"bike_id":"566eeee3-1897-4e8a-b426-c9234c0dc710","system_id":"levelo_inurba_marseille","lat":43.29719,"lon":5.37694,"is_reserved":false,"is_disabled":false,"rental_uris":{"android":"levelo://app?vid=566eeee3-1897-4e8a-b426-c9234c0dc710","ios":"levelo://app?vid=566eeee3-1897-4e8a-b426-c9234c0dc710"},"vehicle_type_id":"4","last_reported":1741622969,"current_range_meters":16000,"station_id":"ce4bgkh2rcd13ifvqbl0","pricing_plan_id":"cebpf4jnsgd1na2vs0mg"},{"bike_id":"63efd6b9-d813-429c-b04f-99896658a589","system_id":"levelo_inurba_marseille","lat":43.27939,"lon":5.41051,"is_reserved":false,"is_disabled":false,"rental_uris":{"android":"levelo://app?vid=63efd6b9-d813-429c-b04f-99896658a589","ios":"levelo://app?vid=63efd6b9-d813-429c-b04f-99896658a589"},"vehicle_type_id":"4","last_reported":1741622969,"current_range_meters":16000,"station_id":"ce4bhnp2rcd13ifvqh0g","pricing_plan_id":"cebpf4jnsgd1na2vs0mg"},{"bike_id":"6247825b-5dfd-4737-b9f9-aa7055771cb8","system_id":"levelo_inurba_marseille","lat":43.28844,"lon":5.3586,"is_reserved":false,"is_disabled":false,"rental_uris":{"android":"levelo://app?vid=6247825b-5dfd-4737-b9f9-aa7055771cb8","ios":"levelo://app?vid=6247825b-5dfd-4737-b9f9-aa7055771cb8"},"vehicle_type_id":"4","last_reported":1741622969,"current_range_meters":16000,"station_id":"ce4bhb12rcd13ifvqem0","pricing_plan_id":"cebpf4jnsgd1na2vs0mg"},{"bike_id":"51d7b6fa-5174-47a7-b683-51e3d49f2020","system_id":"levelo_inurba_marseille","lat":43.2808,"lon":5.3966,"is_reserved":false,"is_disabled":false,"rental_uris":{"android":"levelo://app?vid=51d7b6fa-5174-47a7-b683-51e3d49f2020","ios":"levelo://app?vid=51d7b6fa-5174-47a7-b683-51e3d49f2020"},"vehicle_type_id":"4","last_reported":1741622969,"current_range_meters":16400,"station_id":"ce4bho12rcd13ifvqh2g","pricing_plan_id":"cebpf4jnsgd1na2vs0mg"},{"bike_id":"415e7a31-245d-4ead-9f33-dad092a04302","system_id":"levelo_inurba_marseille","lat":43.230591,"lon":5.354947,"is_reserved":false,"is_disabled":false,"rental_uris":{"android":"levelo://app?vid=415e7a31-245d-4ead-9f33-dad092a04302","ios":"levelo://app?vid=415e7a31-245d-4ead-9f33-dad092a04302"},"vehicle_type_id":"4","last_reported":1741622969,"current_range_meters":16400,"station_id":"cpo3342slgdg3j2ifvpg","pricing_plan_id":"cebpf4jnsgd1na2vs0mg"},{"bike_id":"259dde30-071d-4e72-9e93-2afe0e28cbba","system_id":"levelo_inurba_marseille","lat":43.30652,"lon":5.3733,"is_reserved":false,"is_disabled":false,"rental_uris":{"android":"levelo://app?vid=259dde30-071d-4e72-9e93-2afe0e28cbba","ios":"levelo://app?vid=259dde30-071d-4e72-9e93-2afe0e28cbba"},"vehicle_type_id":"4","last_reported":1741622969,"current_range_meters":16400,"station_id":"","pricing_plan_id":"cebpf4jnsgd1na2vs0mg"},{"bike_id":"509b88b1-7f82-48ed-bdf3-beba3c88df3f","system_id":"levelo_inurba_marseille","lat":43.29851,"lon":5.36274,"is_reserved":false,"is_disabled":false,"rental_uris":{"android":"levelo://app?vid=509b88b1-7f82-48ed-bdf3-beba3c88df3f","ios":"levelo://app?vid=509b88b1-7f82-48ed-bdf3-beba3c88df3f"},"vehicle_type_id":"4","last_reported":1741622969,"current_range_meters":16400,"station_id":"ce4bgpp2rcd13ifvqc3g","pricing_plan_id":"cebpf4jnsgd1na2vs0mg"},{"bike_id":"ed9e8de1-dd37-4622-bdac-8b33d2ba2a68","system_id":"levelo_inurba_marseille","lat":43.2846,"lon":5.35895,"is_reserved":false,"is_disabled":false,"rental_uris":{"android":"levelo://app?vid=ed9e8de1-dd37-4622-bdac-8b33d2ba2a68","ios":"levelo://app?vid=ed9e8de1-dd37-4622-bdac-8b33d2ba2a68"},"vehicle_type_id":"4","last_reported":1741622969,"current_range_meters":16400,"station_id":"ce4bhah2rcd13ifvqei0","pricing_plan_id":"cebpf4jnsgd1na2vs0mg"},{"bike_id":"7b66e0d2-60fc-4baa-b134-64c6a900f5e4","system_id":"levelo_inurba_marseille","lat":43.24166,"lon":5.39709,"is_reserved":false,"is_disabled":false,"rental_uris":{"android":"levelo://app?vid=7b66e0d2-60fc-4baa-b134-64c6a900f5e4","ios":"levelo://app?vid=7b66e0d2-60fc-4baa-b134-64c6a900f5e4"},"vehicle_type_id":"4","last_reported":1741622969,"current_range_meters":16400,"station_id":"ce4bhn12rcd13ifvqgpg","pricing_plan_id":"cebpf4jnsgd1na2vs0mg"},{"bike_id":"1eb8598f-5040-4ccb-a90b-8ff1a14f32eb","system_id":"levelo_inurba_marseille","lat":43.239655,"lon":5.366344,"is_reserved":false,"is_disabled":false,"rental_uris":{"android":"levelo://app?vid=1eb8598f-5040-4ccb-a90b-8ff1a14f32eb","ios":"levelo://app?vid=1eb8598f-5040-4ccb-a90b-8ff1a14f32eb"},"vehicle_type_id":"4","last_reported":1741622969,"current_range_meters":16400,"station_id":"ce4bhih2rcd13ifvqfs0","pricing_plan_id":"cebpf4jnsgd1na2vs0mg"},{"bike_id":"11d8e867-88f8-4e72-81aa-2b0f7e036b0c","system_id":"levelo_inurba_marseille","lat":43.305,"lon":5.37286,"is_reserved":false,"is_disabled":false,"rental_uris":{"android":"levelo://app?vid=11d8e867-88f8-4e72-81aa-2b0f7e036b0c","ios":"levelo://app?vid=11d8e867-88f8-4e72-81aa-2b0f7e036b0c"},"vehicle_type_id":"4","last_reported":1741622969,"current_range_meters":16400,"station_id":"","pricing_plan_id":"cebpf4jnsgd1na2vs0mg"},{"bike_id":"02ccda15-ca98-4f66-a5ee-609c485d624e","system_id":"levelo_inurba_marseille","lat":43.23965,"lon":5.36616,"is_reserved":false,"is_disabled":false,"rental_uris":{"android":"levelo://app?vid=02ccda15-ca98-4f66-a5ee-609c485d624e","ios":"levelo://app?vid=02ccda15-ca98-4f66-a5ee-609c485d624e"},"vehicle_type_id":"4","last_reported":1741622969,"current_range_meters":16400,"station_id":"ce4bhi12rcd13ifvqfp0","pricing_plan_id":"cebpf4jnsgd1na2vs0mg"},{"bike_id":"565883d1-cc8a-44ba-8577-f2ece9d849c9","system_id":"levelo_inurba_marseille","lat":43.28157,"lon":5.42637,"is_reserved":false,"is_disabled":false,"rental_uris":{"android":"levelo://app?vid=565883d1-cc8a-44ba-8577-f2ece9d849c9","ios":"levelo://app?vid=565883d1-cc8a-44ba-8577-f2ece9d849c9"},"vehicle_type_id":"4","last_reported":1741622969,"current_range_meters":16400,"station_id":"ce4bhnh2rcd13ifvqgug","pricing_plan_id":"cebpf4jnsgd1na2vs0mg"},{"bike_id":"193986f8-92c3-4c0e-b74b-57f20da2175f","system_id":"levelo_inurba_marseille","lat":43.27063,"lon":5.40253,"is_reserved":false,"is_disabled":false,"rental_uris":{"android":"levelo://app?vid=193986f8-92c3-4c0e-b74b-57f20da2175f","ios":"levelo://app?vid=193986f8-92c3-4c0e-b74b-57f20da2175f"},"vehicle_type_id":"4","last_reported":1741622969,"current_range_meters":16800,"station_id":"ce4bhk92rcd13ifvqgc0","pricing_plan_id":"cebpf4jnsgd1na2vs0mg"},{"bike_id":"24f69940-d78d-4207-bab8-6e0c4b0d3949","system_id":"levelo_inurba_marseille","lat":43.32043,"lon":5.41539,"is_reserved":false,"is_disabled":false,"rental_uris":{"android":"levelo://app?vid=24f69940-d78d-4207-bab8-6e0c4b0d3949","ios":"levelo://app?vid=24f69940-d78d-4207-bab8-6e0c4b0d3949"},"vehicle_type_id":"4","last_reported":1741622969,"current_range_meters":16800,"station_id":"ce4bhq92rcd13ifvqhkg","pricing_plan_id":"cebpf4jnsgd1na2vs0mg"},{"bike_id":"ac8e6b48-e483-4aef-bede-c5576834d55a","system_id":"levelo_inurba_marseille","lat":43.298435,"lon":5.362721,"is_reserved":false,"is_disabled":false,"rental_uris":{"android":"levelo://app?vid=ac8e6b48-e483-4aef-bede-c5576834d55a","ios":"levelo://app?vid=ac8e6b48-e483-4aef-bede-c5576834d55a"},"vehicle_type_id":"4","last_reported":1741622969,"current_range_meters":16800,"station_id":"ce4bgpp2rcd13ifvqc3g","pricing_plan_id":"cebpf4jnsgd1na2vs0mg"},{"bike_id":"1a26001d-d49a-47a3-a711-f7ff22c1c811","system_id":"levelo_inurba_marseille","lat":43.28883,"lon":5.37127,"is_reserved":false,"is_disabled":false,"rental_uris":{"android":"levelo://app?vid=1a26001d-d49a-47a3-a711-f7ff22c1c811","ios":"levelo://app?vid=1a26001d-d49a-47a3-a711-f7ff22c1c811"},"vehicle_type_id":"4","last_reported":1741622969,"current_range_meters":16800,"station_id":"","pricing_plan_id":"cebpf4jnsgd1na2vs0mg"},{"bike_id":"fdd23d44-4f31-4c3b-8e9d-3ff47e277395","system_id":"levelo_inurba_marseille","lat":43.29585,"lon":5.38111,"is_reserved":false,"is_disabled":false,"rental_uris":{"android":"levelo://app?vid=fdd23d44-4f31-4c3b-8e9d-3ff47e277395","ios":"levelo://app?vid=fdd23d44-4f31-4c3b-8e9d-3ff47e277395"},"vehicle_type_id":"4","last_reported":1741622969,"current_range_meters":16800,"station_id":"ce4bgl12rcd13ifvqbo0","pricing_plan_id":"cebpf4jnsgd1na2vs0mg"},{"bike_id":"7d34c987-73ce-4ca4-a4f8-fc2f3288cfda","system_id":"levelo_inurba_marseille","lat":43.24167,"lon":5.3971,"is_reserved":false,"is_disabled":false,"rental_uris":{"android":"levelo://app?vid=7d34c987-73ce-4ca4-a4f8-fc2f3288cfda","ios":"levelo://app?vid=7d34c987-73ce-4ca4-a4f8-fc2f3288cfda"},"vehicle_type_id":"4","last_reported":1741622969,"current_range_meters":16800,"station_id":"ce4bhn12rcd13ifvqgpg","pricing_plan_id":"cebpf4jnsgd1na2vs0mg"},{"bike_id":"3e37f03c-e5a4-4e97-951f-7786bb1c3928","system_id":"levelo_inurba_marseille","lat":43.23148,"lon":5.43715,"is_reserved":false,"is_disabled":false,"rental_uris":{"android":"levelo://app?vid=3e37f03c-e5a4-4e97-951f-7786bb1c3928","ios":"levelo://app?vid=3e37f03c-e5a4-4e97-951f-7786bb1c3928"},"vehicle_type_id":"4","last_reported":1741622969,"current_range_meters":16800,"station_id":"ce4bhmp2rcd13ifvqgog","pricing_plan_id":"cebpf4jnsgd1na2vs0mg"},{"bike_id":"f6dc7e9d-be33-4c3d-b28e-234510ea7980","system_id":"levelo_inurba_marseille","lat":43.2906,"lon":5.38063,"is_reserved":false,"is_disabled":false,"rental_uris":{"android":"levelo://app?vid=f6dc7e9d-be33-4c3d-b28e-234510ea7980","ios":"levelo://app?vid=f6dc7e9d-be33-4c3d-b28e-234510ea7980"},"vehicle_type_id":"4","last_reported":1741622969,"current_range_meters":17200,"station_id":"","pricing_plan_id":"cebpf4jnsgd1na2vs0mg"},{"bike_id":"e326f2ab-402d-4e85-b3b2-fe03576a98e2","system_id":"levelo_inurba_marseille","lat":43.28471,"lon":5.3842,"is_reserved":false,"is_disabled":false,"rental_uris":{"android":"levelo://app?vid=e326f2ab-402d-4e85-b3b2-fe03576a98e2","ios":"levelo://app?vid=e326f2ab-402d-4e85-b3b2-fe03576a98e2"},"vehicle_type_id":"4","last_reported":1741622969,"current_range_meters":16800,"station_id":"ce4bh512rcd13ifvqe3g","pricing_plan_id":"cebpf4jnsgd1na2vs0mg"},{"bike_id":"dd67d184-631d-4d7b-bf8e-0ad7d3cb2c67","system_id":"levelo_inurba_marseille","lat":43.29504,"lon":5.39396,"is_reserved":false,"is_disabled":false,"rental_uris":{"android":"levelo://app?vid=dd67d184-631d-4d7b-bf8e-0ad7d3cb2c67","ios":"levelo://app?vid=dd67d184-631d-4d7b-bf8e-0ad7d3cb2c67"},"vehicle_type_id":"4","last_reported":1741622969,"current_range_meters":17200,"station_id":"ce4bh292rcd13ifvqdf0","pricing_plan_id":"cebpf4jnsgd1na2vs0mg"},{"bike_id":"74ba05c8-0642-4c20-96d7-339d66946cd0","system_id":"levelo_inurba_marseille","lat":43.2962,"lon":5.37167,"is_reserved":false,"is_disabled":false,"rental_uris":{"android":"levelo://app?vid=74ba05c8-0642-4c20-96d7-339d66946cd0","ios":"levelo://app?vid=74ba05c8-0642-4c20-96d7-339d66946cd0"},"vehicle_type_id":"4","last_reported":1741622969,"current_range_meters":16800,"station_id":"ce4bgnh2rcd13ifvqc0g","pricing_plan_id":"cebpf4jnsgd1na2vs0mg"},{"bike_id":"fe596bf4-0005-4386-bdcc-dced48172906","system_id":"levelo_inurba_marseille","lat":43.32657,"lon":5.40993,"is_reserved":false,"is_disabled":false,"rental_uris":{"android":"levelo://app?vid=fe596bf4-0005-4386-bdcc-dced48172906","ios":"levelo://app?vid=fe596bf4-0005-4386-bdcc-dced48172906"},"vehicle_type_id":"4","last_reported":1741622969,"current_range_meters":17200,"station_id":"ce4bhpp2rcd13ifvqhgg","pricing_plan_id":"cebpf4jnsgd1na2vs0mg"},{"bike_id":"5bdb40ba-3e54-4990-89fd-56ecb836491e","system_id":"levelo_inurba_marseille","lat":43.23146,"lon":5.43699,"is_reserved":false,"is_disabled":false,"rental_uris":{"android":"levelo://app?vid=5bdb40ba-3e54-4990-89fd-56ecb836491e","ios":"levelo://app?vid=5bdb40ba-3e54-4990-89fd-56ecb836491e"},"vehicle_type_id":"4","last_reported":1741622969,"current_range_meters":17600,"station_id":"ce4bhmp2rcd13ifvqgog","pricing_plan_id":"cebpf4jnsgd1na2vs0mg"},{"bike_id":"bb3afcb6-38a7-4701-9703-7b9b2e3048a9","system_id":"levelo_inurba_marseille","lat":43.32002,"lon":5.38163,"is_reserved":false,"is_disabled":false,"rental_uris":{"android":"levelo://app?vid=bb3afcb6-38a7-4701-9703-7b9b2e3048a9","ios":"levelo://app?vid=bb3afcb6-38a7-4701-9703-7b9b2e3048a9"},"vehicle_type_id":"4","last_reported":1741622969,"current_range_meters":17600,"station_id":"ce4bhr12rcd13ifvqhpg","pricing_plan_id":"cebpf4jnsgd1na2vs0mg"},{"bike_id":"9c0275a4-5a14-4711-b844-cb4b22207322","system_id":"levelo_inurba_marseille","lat":43.29899,"lon":5.38142,"is_reserved":false,"is_disabled":false,"rental_uris":{"android":"levelo://app?vid=9c0275a4-5a14-4711-b844-cb4b22207322","ios":"levelo://app?vid=9c0275a4-5a14-4711-b844-cb4b22207322"},"vehicle_type_id":"4","last_reported":1741622969,"current_range_meters":17600,"station_id":"ce4bgj12rcd13ifvqbc0","pricing_plan_id":"cebpf4jnsgd1na2vs0mg"},{"bike_id":"2cdec81d-2593-4153-a426-2f527f1b29e2","system_id":"levelo_inurba_marseille","lat":43.23595,"lon":5.391,"is_reserved":false,"is_disabled":false,"rental_uris":{"android":"levelo://app?vid=2cdec81d-2593-4153-a426-2f527f1b29e2","ios":"levelo://app?vid=2cdec81d-2593-4153-a426-2f527f1b29e2"},"vehicle_type_id":"4","last_reported":1741622969,"current_range_meters":17600,"station_id":"","pricing_plan_id":"cebpf4jnsgd1na2vs0mg"},{"bike_id":"e9f0ddf6-c638-4a12-8ca0-d2f9784b891b","system_id":"levelo_inurba_marseille","lat":43.27811,"lon":5.4073,"is_reserved":false,"is_disabled":false,"rental_uris":{"android":"levelo://app?vid=e9f0ddf6-c638-4a12-8ca0-d2f9784b891b","ios":"levelo://app?vid=e9f0ddf6-c638-4a12-8ca0-d2f9784b891b"},"vehicle_type_id":"4","last_reported":1741622969,"current_range_meters":17600,"station_id":"ce4bhnh2rcd13ifvqgtg","pricing_plan_id":"cebpf4jnsgd1na2vs0mg"},{"bike_id":"adfcccd3-e499-47c8-b947-d7f05d66f4ef","system_id":"levelo_inurba_marseille","lat":43.29907,"lon":5.43657,"is_reserved":false,"is_disabled":false,"rental_uris":{"android":"levelo://app?vid=adfcccd3-e499-47c8-b947-d7f05d66f4ef","ios":"levelo://app?vid=adfcccd3-e499-47c8-b947-d7f05d66f4ef"},"vehicle_type_id":"4","last_reported":1741622969,"current_range_meters":17200,"station_id":"ce4bhpp2rcd13ifvqhfg","pricing_plan_id":"cebpf4jnsgd1na2vs0mg"},{"bike_id":"9776d519-3376-4f51-aaa3-2da63911d7cc","system_id":"levelo_inurba_marseille","lat":43.25082,"lon":5.3952,"is_reserved":false,"is_disabled":false,"rental_uris":{"android":"levelo://app?vid=9776d519-3376-4f51-aaa3-2da63911d7cc","ios":"levelo://app?vid=9776d519-3376-4f51-aaa3-2da63911d7cc"},"vehicle_type_id":"4","last_reported":1741622969,"current_range_meters":17600,"station_id":"ce4bhm12rcd13ifvqgkg","pricing_plan_id":"cebpf4jnsgd1na2vs0mg"},{"bike_id":"303473d0-c71d-4532-867e-1af4d571971a","system_id":"levelo_inurba_marseille","lat":43.31089,"lon":5.42434,"is_reserved":false,"is_disabled":false,"rental_uris":{"android":"levelo://app?vid=303473d0-c71d-4532-867e-1af4d571971a","ios":"levelo://app?vid=303473d0-c71d-4532-867e-1af4d571971a"},"vehicle_type_id":"4","last_reported":1741622969,"current_range_meters":17600,"station_id":"ce4bhp92rcd13ifvqhag","pricing_plan_id":"cebpf4jnsgd1na2vs0mg"},{"bike_id":"0e4caed2-7212-44c1-ba0a-10658fadd702","system_id":"levelo_inurba_marseille","lat":43.31259,"lon":5.40169,"is_reserved":false,"is_disabled":false,"rental_uris":{"android":"levelo://app?vid=0e4caed2-7212-44c1-ba0a-10658fadd702","ios":"levelo://app?vid=0e4caed2-7212-44c1-ba0a-10658fadd702"},"vehicle_type_id":"4","last_reported":1741622969,"current_range_meters":17600,"station_id":"ce4bh092rcd13ifvqd30","pricing_plan_id":"cebpf4jnsgd1na2vs0mg"},{"bike_id":"1379d2e7-c153-4a42-87f1-8ff30298dd76","system_id":"levelo_inurba_marseille","lat":43.275635,"lon":5.38417,"is_reserved":false,"is_disabled":true,"rental_uris":{"android":"levelo://app?vid=1379d2e7-c153-4a42-87f1-8ff30298dd76","ios":"levelo://app?vid=1379d2e7-c153-4a42-87f1-8ff30298dd76"},"vehicle_type_id":"4","last_reported":1741622969,"current_range_meters":17600,"station_id":"","pricing_plan_id":"cebpf4jnsgd1na2vs0mg"},{"bike_id":"28c02bbb-62f9-4335-bb90-526e872cf2cf","system_id":"levelo_inurba_marseille","lat":43.27497,"lon":5.4245,"is_reserved":false,"is_disabled":false,"rental_uris":{"android":"levelo://app?vid=28c02bbb-62f9-4335-bb90-526e872cf2cf","ios":"levelo://app?vid=28c02bbb-62f9-4335-bb90-526e872cf2cf"},"vehicle_type_id":"4","last_reported":1741622969,"current_range_meters":17600,"station_id":"ce4bhn92rcd13ifvqgrg","pricing_plan_id":"cebpf4jnsgd1na2vs0mg"},{"bike_id":"ade86942-1b4e-4eeb-a0b9-aab18e14cfd0","system_id":"levelo_inurba_marseille","lat":43.30539,"lon":5.36542,"is_reserved":false,"is_disabled":false,"rental_uris":{"android":"levelo://app?vid=ade86942-1b4e-4eeb-a0b9-aab18e14cfd0","ios":"levelo://app?vid=ade86942-1b4e-4eeb-a0b9-aab18e14cfd0"},"vehicle_type_id":"4","last_reported":1741622969,"current_range_meters":18000,"station_id":"ce4bgs12rcd13ifvqcag","pricing_plan_id":"cebpf4jnsgd1na2vs0mg"},{"bike_id":"7c765954-7d7e-4439-81e1-e4164edf991f","system_id":"levelo_inurba_marseille","lat":43.29802,"lon":5.4041,"is_reserved":false,"is_disabled":false,"rental_uris":{"android":"levelo://app?vid=7c765954-7d7e-4439-81e1-e4164edf991f","ios":"levelo://app?vid=7c765954-7d7e-4439-81e1-e4164edf991f"},"vehicle_type_id":"4","last_reported":1741622969,"current_range_meters":17600,"station_id":"ce4bh112rcd13ifvqd90","pricing_plan_id":"cebpf4jnsgd1na2vs0mg"},{"bike_id":"f80516e7-5eb2-4e4f-bd57-662a63ce827c","system_id":"levelo_inurba_marseille","lat":43.29712,"lon":5.37695,"is_reserved":false,"is_disabled":false,"rental_uris":{"android":"levelo://app?vid=f80516e7-5eb2-4e4f-bd57-662a63ce827c","ios":"levelo://app?vid=f80516e7-5eb2-4e4f-bd57-662a63ce827c"},"vehicle_type_id":"4","last_reported":1741622969,"current_range_meters":18000,"station_id":"ce4bgkh2rcd13ifvqbl0","pricing_plan_id":"cebpf4jnsgd1na2vs0mg"},{"bike_id":"ad1e685d-ea76-4674-a1ef-a269b77e82f9","system_id":"levelo_inurba_marseille","lat":43.27208,"lon":5.39177,"is_reserved":false,"is_disabled":false,"rental_uris":{"android":"levelo://app?vid=ad1e685d-ea76-4674-a1ef-a269b77e82f9","ios":"levelo://app?vid=ad1e685d-ea76-4674-a1ef-a269b77e82f9"},"vehicle_type_id":"4","last_reported":1741622969,"current_range_meters":17600,"station_id":"ce4bhhp2rcd13ifvqfm0","pricing_plan_id":"cebpf4jnsgd1na2vs0mg"},{"bike_id":"2d93c67e-330c-4c7b-8517-c03567315b70","system_id":"levelo_inurba_marseille","lat":43.28155,"lon":5.42636,"is_reserved":false,"is_disabled":false,"rental_uris":{"android":"levelo://app?vid=2d93c67e-330c-4c7b-8517-c03567315b70","ios":"levelo://app?vid=2d93c67e-330c-4c7b-8517-c03567315b70"},"vehicle_type_id":"4","last_reported":1741622969,"current_range_meters":18000,"station_id":"ce4bhnh2rcd13ifvqgug","pricing_plan_id":"cebpf4jnsgd1na2vs0mg"},{"bike_id":"90b378ac-2dc6-40a0-a26a-bf8934371d14","system_id":"levelo_inurba_marseille","lat":43.28693,"lon":5.37405,"is_reserved":false,"is_disabled":false,"rental_uris":{"android":"levelo://app?vid=90b378ac-2dc6-40a0-a26a-bf8934371d14","ios":"levelo://app?vid=90b378ac-2dc6-40a0-a26a-bf8934371d14"},"vehicle_type_id":"4","last_reported":1741622969,"current_range_meters":18000,"station_id":"ce4bh3p2rcd13ifvqdq0","pricing_plan_id":"cebpf4jnsgd1na2vs0mg"},{"bike_id":"29afafe6-9314-4cd8-9aea-023139050f04","system_id":"levelo_inurba_marseille","lat":43.3159,"lon":5.36869,"is_reserved":false,"is_disabled":false,"rental_uris":{"android":"levelo://app?vid=29afafe6-9314-4cd8-9aea-023139050f04","ios":"levelo://app?vid=29afafe6-9314-4cd8-9aea-023139050f04"},"vehicle_type_id":"4","last_reported":1741622969,"current_range_meters":18000,"station_id":"","pricing_plan_id":"cebpf4jnsgd1na2vs0mg"},{"bike_id":"f0b5f6b7-161e-4c72-8f30-8d8e8d5c374f","system_id":"levelo_inurba_marseille","lat":43.24594,"lon":5.4048,"is_reserved":false,"is_disabled":false,"rental_uris":{"android":"levelo://app?vid=f0b5f6b7-161e-4c72-8f30-8d8e8d5c374f","ios":"levelo://app?vid=f0b5f6b7-161e-4c72-8f30-8d8e8d5c374f"},"vehicle_type_id":"4","last_reported":1741622969,"current_range_meters":18000,"station_id":"","pricing_plan_id":"cebpf4jnsgd1na2vs0mg"},{"bike_id":"3eac22db-c164-4a95-bf19-b88a6b3ac00d","system_id":"levelo_inurba_marseille","lat":43.2926,"lon":5.37619,"is_reserved":false,"is_disabled":false,"rental_uris":{"android":"levelo://app?vid=3eac22db-c164-4a95-bf19-b88a6b3ac00d","ios":"levelo://app?vid=3eac22db-c164-4a95-bf19-b88a6b3ac00d"},"vehicle_type_id":"4","last_reported":1741622969,"current_range_meters":18000,"station_id":"ce4bgi12rcd13ifvqb80","pricing_plan_id":"cebpf4jnsgd1na2vs0mg"},{"bike_id":"660dc397-3c3f-4337-a694-65c4a91dd297","system_id":"levelo_inurba_marseille","lat":43.28986,"lon":5.37823,"is_reserved":false,"is_disabled":false,"rental_uris":{"android":"levelo://app?vid=660dc397-3c3f-4337-a694-65c4a91dd297","ios":"levelo://app?vid=660dc397-3c3f-4337-a694-65c4a91dd297"},"vehicle_type_id":"4","last_reported":1741622969,"current_range_meters":17600,"station_id":"ce4bh9p2rcd13ifvqed0","pricing_plan_id":"cebpf4jnsgd1na2vs0mg"},{"bike_id":"724388d6-0d7e-4b44-9ed5-96bc6c4c9613","system_id":"levelo_inurba_marseille","lat":43.254666,"lon":5.376584,"is_reserved":false,"is_disabled":false,"rental_uris":{"android":"levelo://app?vid=724388d6-0d7e-4b44-9ed5-96bc6c4c9613","ios":"levelo://app?vid=724388d6-0d7e-4b44-9ed5-96bc6c4c9613"},"vehicle_type_id":"4","last_reported":1741622969,"current_range_meters":18000,"station_id":"ce4bhh12rcd13ifvqff0","pricing_plan_id":"cebpf4jnsgd1na2vs0mg"},{"bike_id":"d62f2530-5997-4c51-b7e5-95f57412d585","system_id":"levelo_inurba_marseille","lat":43.30292,"lon":5.36893,"is_reserved":false,"is_disabled":false,"rental_uris":{"android":"levelo://app?vid=d62f2530-5997-4c51-b7e5-95f57412d585","ios":"levelo://app?vid=d62f2530-5997-4c51-b7e5-95f57412d585"},"vehicle_type_id":"4","last_reported":1741622969,"current_range_meters":18800,"station_id":"ce4bgqh2rcd13ifvqc5g","pricing_plan_id":"cebpf4jnsgd1na2vs0mg"},{"bike_id":"6c31a35a-7564-4c61-9de1-fcd90c44eff8","system_id":"levelo_inurba_marseille","lat":43.28152,"lon":5.42644,"is_reserved":false,"is_disabled":false,"rental_uris":{"android":"levelo://app?vid=6c31a35a-7564-4c61-9de1-fcd90c44eff8","ios":"levelo://app?vid=6c31a35a-7564-4c61-9de1-fcd90c44eff8"},"vehicle_type_id":"4","last_reported":1741622969,"current_range_meters":18800,"station_id":"ce4bhnh2rcd13ifvqgug","pricing_plan_id":"cebpf4jnsgd1na2vs0mg"},{"bike_id":"60a71c99-dc84-478b-ba45-e6a8d3d5fa0b","system_id":"levelo_inurba_marseille","lat":43.301471,"lon":5.380963,"is_reserved":false,"is_disabled":false,"rental_uris":{"android":"levelo://app?vid=60a71c99-dc84-478b-ba45-e6a8d3d5fa0b","ios":"levelo://app?vid=60a71c99-dc84-478b-ba45-e6a8d3d5fa0b"},"vehicle_type_id":"4","last_reported":1741622969,"current_range_meters":18800,"station_id":"ce4bh2h2rcd13ifvqdh0","pricing_plan_id":"cebpf4jnsgd1na2vs0mg"},{"bike_id":"b9fda32f-72ae-4df5-86a6-7dd6748cfac1","system_id":"levelo_inurba_marseille","lat":43.27824,"lon":5.40686,"is_reserved":false,"is_disabled":false,"rental_uris":{"android":"levelo://app?vid=b9fda32f-72ae-4df5-86a6-7dd6748cfac1","ios":"levelo://app?vid=b9fda32f-72ae-4df5-86a6-7dd6748cfac1"},"vehicle_type_id":"4","last_reported":1741622969,"current_range_meters":18800,"station_id":"ce4bhnh2rcd13ifvqgtg","pricing_plan_id":"cebpf4jnsgd1na2vs0mg"},{"bike_id":"85d0fee5-9e1e-4258-a604-1b615a22b292","system_id":"levelo_inurba_marseille","lat":43.31337,"lon":5.38637,"is_reserved":false,"is_disabled":false,"rental_uris":{"android":"levelo://app?vid=85d0fee5-9e1e-4258-a604-1b615a22b292","ios":"levelo://app?vid=85d0fee5-9e1e-4258-a604-1b615a22b292"},"vehicle_type_id":"4","last_reported":1741622969,"current_range_meters":18800,"station_id":"","pricing_plan_id":"cebpf4jnsgd1na2vs0mg"},{"bike_id":"adc75c13-38f6-4cd5-a0b9-13a8ecab8833","system_id":"levelo_inurba_marseille","lat":43.29127,"lon":5.37967,"is_reserved":false,"is_disabled":false,"rental_uris":{"android":"levelo://app?vid=adc75c13-38f6-4cd5-a0b9-13a8ecab8833","ios":"levelo://app?vid=adc75c13-38f6-4cd5-a0b9-13a8ecab8833"},"vehicle_type_id":"4","last_reported":1741622969,"current_range_meters":18800,"station_id":"ce4bhqp2rcd13ifvqhng","pricing_plan_id":"cebpf4jnsgd1na2vs0mg"},{"bike_id":"a226b2f7-0d9b-455a-a0fc-5268dd5d6e13","system_id":"levelo_inurba_marseille","lat":43.24392,"lon":5.37067,"is_reserved":false,"is_disabled":false,"rental_uris":{"android":"levelo://app?vid=a226b2f7-0d9b-455a-a0fc-5268dd5d6e13","ios":"levelo://app?vid=a226b2f7-0d9b-455a-a0fc-5268dd5d6e13"},"vehicle_type_id":"4","last_reported":1741622969,"current_range_meters":19200,"station_id":"ce4bhhh2rcd13ifvqfk0","pricing_plan_id":"cebpf4jnsgd1na2vs0mg"},{"bike_id":"621a3513-053c-4581-8b4f-1d615fa7cb0f","system_id":"levelo_inurba_marseille","lat":43.31343,"lon":5.38625,"is_reserved":false,"is_disabled":false,"rental_uris":{"android":"levelo://app?vid=621a3513-053c-4581-8b4f-1d615fa7cb0f","ios":"levelo://app?vid=621a3513-053c-4581-8b4f-1d615fa7cb0f"},"vehicle_type_id":"4","last_reported":1741622969,"current_range_meters":19200,"station_id":"","pricing_plan_id":"cebpf4jnsgd1na2vs0mg"},{"bike_id":"2bbfc1dc-382a-426d-814d-d24a23157160","system_id":"levelo_inurba_marseille","lat":43.28407,"lon":5.35935,"is_reserved":false,"is_disabled":false,"rental_uris":{"android":"levelo://app?vid=2bbfc1dc-382a-426d-814d-d24a23157160","ios":"levelo://app?vid=2bbfc1dc-382a-426d-814d-d24a23157160"},"vehicle_type_id":"4","last_reported":1741622969,"current_range_meters":19200,"station_id":"ce4bhah2rcd13ifvqei0","pricing_plan_id":"cebpf4jnsgd1na2vs0mg"},{"bike_id":"90e4636f-5acf-4803-a3ed-f0ba6d29d559","system_id":"levelo_inurba_marseille","lat":43.304444,"lon":5.388984,"is_reserved":false,"is_disabled":true,"rental_uris":{"android":"levelo://app?vid=90e4636f-5acf-4803-a3ed-f0ba6d29d559","ios":"levelo://app?vid=90e4636f-5acf-4803-a3ed-f0ba6d29d559"},"vehicle_type_id":"4","last_reported":1741622969,"current_range_meters":19200,"station_id":"ce4bgk12rcd13ifvqbi0","pricing_plan_id":"cebpf4jnsgd1na2vs0mg"},{"bike_id":"08ee466a-6a78-4e18-b052-6df32212e732","system_id":"levelo_inurba_marseille","lat":43.27448,"lon":5.39406,"is_reserved":false,"is_disabled":false,"rental_uris":{"android":"levelo://app?vid=08ee466a-6a78-4e18-b052-6df32212e732","ios":"levelo://app?vid=08ee466a-6a78-4e18-b052-6df32212e732"},"vehicle_type_id":"4","last_reported":1741622969,"current_range_meters":19200,"station_id":"ce4bhdp2rcd13ifvqf20","pricing_plan_id":"cebpf4jnsgd1na2vs0mg"},{"bike_id":"17b872eb-086c-460e-bcad-782a4a781cf9","system_id":"levelo_inurba_marseille","lat":43.251686,"lon":5.42521,"is_reserved":false,"is_disabled":false,"rental_uris":{"android":"levelo://app?vid=17b872eb-086c-460e-bcad-782a4a781cf9","ios":"levelo://app?vid=17b872eb-086c-460e-bcad-782a4a781cf9"},"vehicle_type_id":"4","last_reported":1741622969,"current_range_meters":19200,"station_id":"","pricing_plan_id":"cebpf4jnsgd1na2vs0mg"},{"bike_id":"db47b8a9-457a-433a-b761-1e80514884d9","system_id":"levelo_inurba_marseille","lat":43.29116,"lon":5.38138,"is_reserved":false,"is_disabled":false,"rental_uris":{"android":"levelo://app?vid=db47b8a9-457a-433a-b761-1e80514884d9","ios":"levelo://app?vid=db47b8a9-457a-433a-b761-1e80514884d9"},"vehicle_type_id":"4","last_reported":1741622969,"current_range_meters":19200,"station_id":"ce4bh512rcd13ifvqe2g","pricing_plan_id":"cebpf4jnsgd1na2vs0mg"},{"bike_id":"1a762203-9b98-4092-8649-fb27a7f98fee","system_id":"levelo_inurba_marseille","lat":43.27057,"lon":5.40259,"is_reserved":false,"is_disabled":false,"rental_uris":{"android":"levelo://app?vid=1a762203-9b98-4092-8649-fb27a7f98fee","ios":"levelo://app?vid=1a762203-9b98-4092-8649-fb27a7f98fee"},"vehicle_type_id":"4","last_reported":1741622969,"current_range_meters":19200,"station_id":"ce4bhk92rcd13ifvqgc0","pricing_plan_id":"cebpf4jnsgd1na2vs0mg"},{"bike_id":"b80eb34b-d24c-4531-92da-6e819108e372","system_id":"levelo_inurba_marseille","lat":43.26793,"lon":5.39414,"is_reserved":false,"is_disabled":false,"rental_uris":{"android":"levelo://app?vid=b80eb34b-d24c-4531-92da-6e819108e372","ios":"levelo://app?vid=b80eb34b-d24c-4531-92da-6e819108e372"},"vehicle_type_id":"4","last_reported":1741622969,"current_range_meters":19200,"station_id":"ce4bhh12rcd13ifvqfg0","pricing_plan_id":"cebpf4jnsgd1na2vs0mg"},{"bike_id":"8c6334d6-afff-488c-a083-c62efb426e8d","system_id":"levelo_inurba_marseille","lat":43.29091,"lon":5.38138,"is_reserved":false,"is_disabled":false,"rental_uris":{"android":"levelo://app?vid=8c6334d6-afff-488c-a083-c62efb426e8d","ios":"levelo://app?vid=8c6334d6-afff-488c-a083-c62efb426e8d"},"vehicle_type_id":"4","last_reported":1741622969,"current_range_meters":19200,"station_id":"ce4bh512rcd13ifvqe2g","pricing_plan_id":"cebpf4jnsgd1na2vs0mg"},{"bike_id":"7db7cff4-01fc-4eeb-a7e9-8a5146378fd0","system_id":"levelo_inurba_marseille","lat":43.30529,"lon":5.36531,"is_reserved":false,"is_disabled":false,"rental_uris":{"android":"levelo://app?vid=7db7cff4-01fc-4eeb-a7e9-8a5146378fd0","ios":"levelo://app?vid=7db7cff4-01fc-4eeb-a7e9-8a5146378fd0"},"vehicle_type_id":"4","last_reported":1741622969,"current_range_meters":19200,"station_id":"ce4bgs12rcd13ifvqcag","pricing_plan_id":"cebpf4jnsgd1na2vs0mg"},{"bike_id":"6e7aece4-7246-49a3-b99c-0e90cc3a3c5b","system_id":"levelo_inurba_marseille","lat":43.25718,"lon":5.41104,"is_reserved":false,"is_disabled":false,"rental_uris":{"android":"levelo://app?vid=6e7aece4-7246-49a3-b99c-0e90cc3a3c5b","ios":"levelo://app?vid=6e7aece4-7246-49a3-b99c-0e90cc3a3c5b"},"vehicle_type_id":"4","last_reported":1741622969,"current_range_meters":19200,"station_id":"ce4bhkp2rcd13ifvqgd0","pricing_plan_id":"cebpf4jnsgd1na2vs0mg"},{"bike_id":"fdaf9944-3312-4c8d-98e7-9a4b180dab96","system_id":"levelo_inurba_marseille","lat":43.27807,"lon":5.40737,"is_reserved":false,"is_disabled":false,"rental_uris":{"android":"levelo://app?vid=fdaf9944-3312-4c8d-98e7-9a4b180dab96","ios":"levelo://app?vid=fdaf9944-3312-4c8d-98e7-9a4b180dab96"},"vehicle_type_id":"4","last_reported":1741622969,"current_range_meters":19200,"station_id":"ce4bhnh2rcd13ifvqgtg","pricing_plan_id":"cebpf4jnsgd1na2vs0mg"},{"bike_id":"d1e043d3-9238-45b4-8337-22f2eeda05b4","system_id":"levelo_inurba_marseille","lat":43.25719,"lon":5.4217,"is_reserved":false,"is_disabled":false,"rental_uris":{"android":"levelo://app?vid=d1e043d3-9238-45b4-8337-22f2eeda05b4","ios":"levelo://app?vid=d1e043d3-9238-45b4-8337-22f2eeda05b4"},"vehicle_type_id":"4","last_reported":1741622969,"current_range_meters":19200,"station_id":"","pricing_plan_id":"cebpf4jnsgd1na2vs0mg"},{"bike_id":"2986eb70-91a8-48d7-bf9f-67fdb369c622","system_id":"levelo_inurba_marseille","lat":43.2318,"lon":5.3999,"is_reserved":false,"is_disabled":false,"rental_uris":{"android":"levelo://app?vid=2986eb70-91a8-48d7-bf9f-67fdb369c622","ios":"levelo://app?vid=2986eb70-91a8-48d7-bf9f-67fdb369c622"},"vehicle_type_id":"4","last_reported":1741622969,"current_range_meters":19200,"station_id":"ce4bhn12rcd13ifvqgqg","pricing_plan_id":"cebpf4jnsgd1na2vs0mg"},{"bike_id":"f0ace03b-7953-4b04-8414-904bf88fb92b","system_id":"levelo_inurba_marseille","lat":43.27971,"lon":5.38732,"is_reserved":false,"is_disabled":false,"rental_uris":{"android":"levelo://app?vid=f0ace03b-7953-4b04-8414-904bf88fb92b","ios":"levelo://app?vid=f0ace03b-7953-4b04-8414-904bf88fb92b"},"vehicle_type_id":"4","last_reported":1741622969,"current_range_meters":19200,"station_id":"ce4bhg12rcd13ifvqf80","pricing_plan_id":"cebpf4jnsgd1na2vs0mg"},{"bike_id":"81e8079b-ed5e-4e0a-bf0c-ba3f2b8c807f","system_id":"levelo_inurba_marseille","lat":43.31289,"lon":5.37018,"is_reserved":false,"is_disabled":false,"rental_uris":{"android":"levelo://app?vid=81e8079b-ed5e-4e0a-bf0c-ba3f2b8c807f","ios":"levelo://app?vid=81e8079b-ed5e-4e0a-bf0c-ba3f2b8c807f"},"vehicle_type_id":"4","last_reported":1741622969,"current_range_meters":19200,"station_id":"","pricing_plan_id":"cebpf4jnsgd1na2vs0mg"},{"bike_id":"d8f8b9d4-699d-4feb-9a45-c202cb90c6f0","system_id":"levelo_inurba_marseille","lat":43.25087,"lon":5.3951,"is_reserved":false,"is_disabled":false,"rental_uris":{"android":"levelo://app?vid=d8f8b9d4-699d-4feb-9a45-c202cb90c6f0","ios":"levelo://app?vid=d8f8b9d4-699d-4feb-9a45-c202cb90c6f0"},"vehicle_type_id":"4","last_reported":1741622969,"current_range_meters":19200,"station_id":"ce4bhm12rcd13ifvqgkg","pricing_plan_id":"cebpf4jnsgd1na2vs0mg"},{"bike_id":"94b14264-0b6b-4134-ad79-0aa869f64753","system_id":"levelo_inurba_marseille","lat":43.3237,"lon":5.38897,"is_reserved":false,"is_disabled":false,"rental_uris":{"android":"levelo://app?vid=94b14264-0b6b-4134-ad79-0aa869f64753","ios":"levelo://app?vid=94b14264-0b6b-4134-ad79-0aa869f64753"},"vehicle_type_id":"4","last_reported":1741622969,"current_range_meters":19600,"station_id":"ce4bhqp2rcd13ifvqhog","pricing_plan_id":"cebpf4jnsgd1na2vs0mg"},{"bike_id":"8f8998f5-e117-40ad-beb9-e7302abe4135","system_id":"levelo_inurba_marseille","lat":43.23971,"lon":5.36621,"is_reserved":false,"is_disabled":false,"rental_uris":{"android":"levelo://app?vid=8f8998f5-e117-40ad-beb9-e7302abe4135","ios":"levelo://app?vid=8f8998f5-e117-40ad-beb9-e7302abe4135"},"vehicle_type_id":"4","last_reported":1741622969,"current_range_meters":19600,"station_id":"ce4bhi12rcd13ifvqfp0","pricing_plan_id":"cebpf4jnsgd1na2vs0mg"},{"bike_id":"98abb632-e704-4d76-b282-59be888ae42b","system_id":"levelo_inurba_marseille","lat":43.24174,"lon":5.39714,"is_reserved":false,"is_disabled":false,"rental_uris":{"android":"levelo://app?vid=98abb632-e704-4d76-b282-59be888ae42b","ios":"levelo://app?vid=98abb632-e704-4d76-b282-59be888ae42b"},"vehicle_type_id":"4","last_reported":1741622969,"current_range_meters":19600,"station_id":"ce4bhn12rcd13ifvqgpg","pricing_plan_id":"cebpf4jnsgd1na2vs0mg"},{"bike_id":"e53c1fac-81ee-4116-a438-316d82771202","system_id":"levelo_inurba_marseille","lat":43.30441,"lon":5.36747,"is_reserved":false,"is_disabled":false,"rental_uris":{"android":"levelo://app?vid=e53c1fac-81ee-4116-a438-316d82771202","ios":"levelo://app?vid=e53c1fac-81ee-4116-a438-316d82771202"},"vehicle_type_id":"4","last_reported":1741622969,"current_range_meters":19600,"station_id":"","pricing_plan_id":"cebpf4jnsgd1na2vs0mg"},{"bike_id":"652c282d-7522-46a8-b99a-0b970b5cdd3a","system_id":"levelo_inurba_marseille","lat":43.29576,"lon":5.39968,"is_reserved":false,"is_disabled":true,"rental_uris":{"android":"levelo://app?vid=652c282d-7522-46a8-b99a-0b970b5cdd3a","ios":"levelo://app?vid=652c282d-7522-46a8-b99a-0b970b5cdd3a"},"vehicle_type_id":"4","last_reported":1741622969,"current_range_meters":19600,"station_id":"ce4bh312rcd13ifvqdj0","pricing_plan_id":"cebpf4jnsgd1na2vs0mg"},{"bike_id":"dde417f6-1c48-4daa-bb13-11f2404bbaa0","system_id":"levelo_inurba_marseille","lat":43.30109,"lon":5.38124,"is_reserved":false,"is_disabled":false,"rental_uris":{"android":"levelo://app?vid=dde417f6-1c48-4daa-bb13-11f2404bbaa0","ios":"levelo://app?vid=dde417f6-1c48-4daa-bb13-11f2404bbaa0"},"vehicle_type_id":"4","last_reported":1741622969,"current_range_meters":19600,"station_id":"ce4bgjp2rcd13ifvqbh0","pricing_plan_id":"cebpf4jnsgd1na2vs0mg"},