{"last_updated":1759083154,"ttl":60,"version":"2.2","data":{"bikes":[{"bike_id":"946c5682-2b81-41a9-83a4-22c3c80dc03e","system_id":"levelo_inurba_marseille","lat":43.29016,"lon":5.3814,"is_reserved":false,"is_disabled":false,"rental_uris":{"android":"levelo://app?vid=946c5682-2b81-41a9-83a4-22c3c80dc03e","ios":"levelo://app?vid=946c5682-2b81-41a9-83a4-22c3c80dc03e"},"vehicle_type_id":"4","last_reported":1759083154,"current_range_meters":2000,"station_id":"ce4bh4p2rcd13ifvqe1g","pricing_plan_id":"cebpf4jnsgd1na2vs0mg"},{"bike_id":"33956d90-95c1-431a-a553-b7fdc09c8160","system_id":"levelo_inurba_marseille","lat":43.28404,"lon":5.3752,"is_reserved":false,"is_disabled":true,"rental_uris":{"android":"levelo://app?vid=33956d90-95c1-431a-a553-b7fdc09c8160","ios":"levelo://app?vid=33956d90-95c1-431a-a553-b7fdc09c8160"},"vehicle_type_id":"4","last_reported":1759083154,"current_range_meters":2800,"station_id":"ce4bh412rcd13ifvqds0","pricing_plan_id":"cebpf4jnsgd1na2vs0mg"},{"bike_id":"0e2b7acd-8c15-48c4-87fd-4c58966cb917","system_id":"levelo_inurba_marseille","lat":43.2861,"lon":5.37062,"is_reserved":false,"is_disabled":false,"rental_uris":{"android":"levelo://app?vid=0e2b7acd-8c15-48c4-87fd-4c58966cb917","ios":"levelo://app?vid=0e2b7acd-8c15-48c4-87fd-4c58966cb917"},"vehicle_type_id":"4","last_reported":1759083154,"current_range_meters":2800,"station_id":"ce4bht12rcd13ifvqi60","pricing_plan_id":"cebpf4jnsgd1na2vs0mg"},{"bike_id":"7f4d0e35-e6ff-4f48-88e0-005128e8503f","system_id":"levelo_inurba_marseille","lat":43.29041,"lon":5.35927,"is_reserved":false,"is_disabled":false,"rental_uris":{"android":"levelo://app?vid=7f4d0e35-e6ff-4f48-88e0-005128e8503f","ios":"levelo://app?vid=7f4d0e35-e6ff-4f48-88e0-005128e8503f"},"vehicle_type_id":"4","last_reported":1759083154,"current_range_meters":2800,"station_id":"ce4bha92rcd13ifvqeg0","pricing_plan_id":"cebpf4jnsgd1na2vs0mg"},{"bike_id":"8e2274aa-81ad-42a4-b655-31f63ea44df6","system_id":"levelo_inurba_marseille","lat":43.31326,"lon":5.39699,"is_reserved":false,"is_disabled":false,"rental_uris":{"android":"levelo://app?vid=8e2274aa-81ad-42a4-b655-31f63ea44df6","ios":"levelo://app?vid=8e2274aa-81ad-42a4-b655-31f63ea44df6"},"vehicle_type_id":"4","last_reported":1759083154,"current_range_meters":3200,"station_id":"ce4bgvp2rcd13ifvqcu0","pricing_plan_id":"cebpf4jnsgd1na2vs0mg"},{"bike_id":"2336a081-3301-4818-b498-4e2b16a6631f","system_id":"levelo_inurba_marseille","lat":43.323377,"lon":5.440281,"is_reserved":false,"is_disabled":false,"rental_uris":{"android":"levelo://app?vid=2336a081-3301-4818-b498-4e2b16a6631f","ios":"levelo://app?vid=2336a081-3301-4818-b498-4e2b16a6631f"},"vehicle_type_id":"4","last_reported":1759083154,"current_range_meters":3600,"station_id":"","pricing_plan_id":"cebpf4jnsgd1na2vs0mg"},{"bike_id":"6b39cb39-b11b-4271-847c-8b3fe2f5d8d2","system_id":"levelo_inurba_marseille","lat":43.31713,"lon":5.37731,"is_reserved":false,"is_disabled":false,"rental_uris":{"android":"levelo://app?vid=6b39cb39-b11b-4271-847c-8b3fe2f5d8d2","ios":"levelo://app?vid=6b39cb39-b11b-4271-847c-8b3fe2f5d8d2"},"vehicle_type_id":"4","last_reported":1759083154,"current_range_meters":3600,"station_id":"ce4bgth2rcd13ifvqch0","pricing_plan_id":"cebpf4jnsgd1na2vs0mg"},{"bike_id":"f8723556-6224-46a2-bbbb-f7110f35c59f","system_id":"levelo_inurba_marseille","lat":43.33766,"lon":5.37471,"is_reserved":false,"is_disabled":true,"rental_uris":{"android":"levelo://app?vid=f8723556-6224-46a2-bbbb-f7110f35c59f","ios":"levelo://app?vid=f8723556-6224-46a2-bbbb-f7110f35c59f"},"vehicle_type_id":"4","last_reported":1759083154,"current_range_meters":3600,"station_id":"","pricing_plan_id":"cebpf4jnsgd1na2vs0mg"},{"bike_id":"6266bc05-bd87-4f31-b9c7-2b15c535a109","system_id":"levelo_inurba_marseille","lat":43.28269,"lon":5.35068,"is_reserved":false,"is_disabled":true,"rental_uris":{"android":"levelo://app?vid=6266bc05-bd87-4f31-b9c7-2b15c535a109","ios":"levelo://app?vid=6266bc05-bd87-4f31-b9c7-2b15c535a109"},"vehicle_type_id":"4","last_reported":1759083154,"current_range_meters":3600,"station_id":"ce4bhbp2rcd13ifvqerg","pricing_plan_id":"cebpf4jnsgd1na2vs0mg"},{"bike_id":"bdfc4850-de3f-42e0-b27a-b1a610372266","system_id":"levelo_inurba_marseille","lat":43.296324,"lon":5.374101,"is_reserved":false,"is_disabled":false,"rental_uris":{"android":"levelo://app?vid=bdfc4850-de3f-42e0-b27a-b1a610372266","ios":"levelo://app?vid=bdfc4850-de3f-42e0-b27a-b1a610372266"},"vehicle_type_id":"4","last_reported":1759083154,"current_range_meters":3600,"station_id":"","pricing_plan_id":"cebpf4jnsgd1na2vs0mg"},{"bike_id":"9a819dc8-447d-4df7-8b5f-0b18332a26a7","system_id":"levelo_inurba_marseille","lat":43.33061,"lon":5.37691,"is_reserved":false,"is_disabled":false,"rental_uris":{"android":"levelo://app?vid=9a819dc8-447d-4df7-8b5f-0b18332a26a7","ios":"levelo://app?vid=9a819dc8-447d-4df7-8b5f-0b18332a26a7"},"vehicle_type_id":"4","last_reported":1759083154,"current_range_meters":3600,"station_id":"","pricing_plan_id":"cebpf4jnsgd1na2vs0mg"},{"bike_id":"5279259c-45ab-425c-adc7-05d3e3b83f65","system_id":"levelo_inurba_marseille","lat":43.29944,"lon":5.3849,"is_reserved":false,"is_disabled":false,"rental_uris":{"android":"levelo://app?vid=5279259c-45ab-425c-adc7-05d3e3b83f65","ios":"levelo://app?vid=5279259c-45ab-425c-adc7-05d3e3b83f65"},"vehicle_type_id":"4","last_reported":1759083154,"current_range_meters":4000,"station_id":"ce4bgj92rcd13ifvqbd0","pricing_plan_id":"cebpf4jnsgd1na2vs0mg"},{"bike_id":"08fe2b08-b3fa-43f8-ae73-04061f76318d","system_id":"levelo_inurba_marseille","lat":43.305552,"lon":5.365395,"is_reserved":false,"is_disabled":false,"rental_uris":{"android":"levelo://app?vid=08fe2b08-b3fa-43f8-ae73-04061f76318d","ios":"levelo://app?vid=08fe2b08-b3fa-43f8-ae73-04061f76318d"},"vehicle_type_id":"4","last_reported":1759083154,"current_range_meters":4000,"station_id":"","pricing_plan_id":"cebpf4jnsgd1na2vs0mg"},{"bike_id":"fee74e98-eb52-4f66-a612-109c75f34aa6","system_id":"levelo_inurba_marseille","lat":43.296078,"lon":5.379481,"is_reserved":false,"is_disabled":false,"rental_uris":{"android":"levelo://app?vid=fee74e98-eb52-4f66-a612-109c75f34aa6","ios":"levelo://app?vid=fee74e98-eb52-4f66-a612-109c75f34aa6"},"vehicle_type_id":"4","last_reported":1759083154,"current_range_meters":4000,"station_id":"","pricing_plan_id":"cebpf4jnsgd1na2vs0mg"},{"bike_id":"7bd7fc6e-9d7f-43b7-92f4-f1f34ffc067e","system_id":"levelo_inurba_marseille","lat":43.284829,"lon":5.38425,"is_reserved":false,"is_disabled":false,"rental_uris":{"android":"levelo://app?vid=7bd7fc6e-9d7f-43b7-92f4-f1f34ffc067e","ios":"levelo://app?vid=7bd7fc6e-9d7f-43b7-92f4-f1f34ffc067e"},"vehicle_type_id":"4","last_reported":1759083154,"current_range_meters":4400,"station_id":"ce4bh512rcd13ifvqe3g","pricing_plan_id":"cebpf4jnsgd1na2vs0mg"},{"bike_id":"f52880da-2da0-4129-ac8f-6920901fc5b3","system_id":"levelo_inurba_marseille","lat":43.28928,"lon":5.3839,"is_reserved":false,"is_disabled":false,"rental_uris":{"android":"levelo://app?vid=f52880da-2da0-4129-ac8f-6920901fc5b3","ios":"levelo://app?vid=f52880da-2da0-4129-ac8f-6920901fc5b3"},"vehicle_type_id":"4","last_reported":1759083154,"current_range_meters":4400,"station_id":"ce4bh612rcd13ifvqe6g","pricing_plan_id":"cebpf4jnsgd1na2vs0mg"},{"bike_id":"2e6c2599-e8fb-45c6-8b6e-e267d88b1005","system_id":"levelo_inurba_marseille","lat":43.27069,"lon":5.42284,"is_reserved":false,"is_disabled":false,"rental_uris":{"android":"levelo://app?vid=2e6c2599-e8fb-45c6-8b6e-e267d88b1005","ios":"levelo://app?vid=2e6c2599-e8fb-45c6-8b6e-e267d88b1005"},"vehicle_type_id":"4","last_reported":1759083154,"current_range_meters":4400,"station_id":"ce4bhk92rcd13ifvqgb0","pricing_plan_id":"cebpf4jnsgd1na2vs0mg"},{"bike_id":"35bfea23-acb1-4362-a821-af5c7d23177b","system_id":"levelo_inurba_marseille","lat":43.29599,"lon":5.38109,"is_reserved":false,"is_disabled":false,"rental_uris":{"android":"levelo://app?vid=35bfea23-acb1-4362-a821-af5c7d23177b","ios":"levelo://app?vid=35bfea23-acb1-4362-a821-af5c7d23177b"},"vehicle_type_id":"4","last_reported":1759083154,"current_range_meters":4400,"station_id":"ce4bgl12rcd13ifvqbo0","pricing_plan_id":"cebpf4jnsgd1na2vs0mg"},{"bike_id":"f6c3c6e1-f82f-4efa-bb66-2705ca0446dd","system_id":"levelo_inurba_marseille","lat":43.2721,"lon":5.39175,"is_reserved":false,"is_disabled":false,"rental_uris":{"android":"levelo://app?vid=f6c3c6e1-f82f-4efa-bb66-2705ca0446dd","ios":"levelo://app?vid=f6c3c6e1-f82f-4efa-bb66-2705ca0446dd"},"vehicle_type_id":"4","last_reported":1759083154,"current_range_meters":4400,"station_id":"ce4bhhp2rcd13ifvqfm0","pricing_plan_id":"cebpf4jnsgd1na2vs0mg"},{"bike_id":"40dcd7a1-3cf5-46d8-8660-dd82e9185038","system_id":"levelo_inurba_marseille","lat":43.30143,"lon":5.37408,"is_reserved":false,"is_disabled":false,"rental_uris":{"android":"levelo://app?vid=40dcd7a1-3cf5-46d8-8660-dd82e9185038","ios":"levelo://app?vid=40dcd7a1-3cf5-46d8-8660-dd82e9185038"},"vehicle_type_id":"4","last_reported":1759083154,"current_range_meters":4400,"station_id":"ce4bgs92rcd13ifvqcc0","pricing_plan_id":"cebpf4jnsgd1na2vs0mg"},{"bike_id":"eb687c86-8fcc-43e2-b311-f13df112db8e","system_id":"levelo_inurba_marseille","lat":43.30415,"lon":5.41285,"is_reserved":false,"is_disabled":false,"rental_uris":{"android":"levelo://app?vid=eb687c86-8fcc-43e2-b311-f13df112db8e","ios":"levelo://app?vid=eb687c86-8fcc-43e2-b311-f13df112db8e"},"vehicle_type_id":"4","last_reported":1759083154,"current_range_meters":4800,"station_id":"ce4bhop2rcd13ifvqh8g","pricing_plan_id":"cebpf4jnsgd1na2vs0mg"},{"bike_id":"82284706-54c5-4fbc-ad7b-da7706150b23","system_id":"levelo_inurba_marseille","lat":43.27837,"lon":5.39216,"is_reserved":false,"is_disabled":false,"rental_uris":{"android":"levelo://app?vid=82284706-54c5-4fbc-ad7b-da7706150b23","ios":"levelo://app?vid=82284706-54c5-4fbc-ad7b-da7706150b23"},"vehicle_type_id":"4","last_reported":1759083154,"current_range_meters":4800,"station_id":"ce4bhjp2rcd13ifvqga0","pricing_plan_id":"cebpf4jnsgd1na2vs0mg"},{"bike_id":"1b042d77-fa82-4f56-8543-18e0aa0152f9","system_id":"levelo_inurba_marseille","lat":43.30251,"lon":5.40089,"is_reserved":false,"is_disabled":false,"rental_uris":{"android":"levelo://app?vid=1b042d77-fa82-4f56-8543-18e0aa0152f9","ios":"levelo://app?vid=1b042d77-fa82-4f56-8543-18e0aa0152f9"},"vehicle_type_id":"4","last_reported":1759083154,"current_range_meters":4800,"station_id":"ce4bgvh2rcd13ifvqcs0","pricing_plan_id":"cebpf4jnsgd1na2vs0mg"},{"bike_id":"8e78403c-35b9-4a8e-b685-df3d3f9c384d","system_id":"levelo_inurba_marseille","lat":43.22534,"lon":5.34833,"is_reserved":false,"is_disabled":false,"rental_uris":{"android":"levelo://app?vid=8e78403c-35b9-4a8e-b685-df3d3f9c384d","ios":"levelo://app?vid=8e78403c-35b9-4a8e-b685-df3d3f9c384d"},"vehicle_type_id":"4","last_reported":1759083154,"current_range_meters":4800,"station_id":"","pricing_plan_id":"cebpf4jnsgd1na2vs0mg"},{"bike_id":"d32cbec3-cda6-436c-a1f6-54a2c8e5119e","system_id":"levelo_inurba_marseille","lat":43.23963,"lon":5.36634,"is_reserved":false,"is_disabled":false,"rental_uris":{"android":"levelo://app?vid=d32cbec3-cda6-436c-a1f6-54a2c8e5119e","ios":"levelo://app?vid=d32cbec3-cda6-436c-a1f6-54a2c8e5119e"},"vehicle_type_id":"4","last_reported":1759083154,"current_range_meters":4800,"station_id":"ce4bhi12rcd13ifvqfp0","pricing_plan_id":"cebpf4jnsgd1na2vs0mg"},{"bike_id":"f9fedb99-0c79-4a0a-98be-1cb67bcb60b4","system_id":"levelo_inurba_marseille","lat":43.29531,"lon":5.3855,"is_reserved":false,"is_disabled":false,"rental_uris":{"android":"levelo://app?vid=f9fedb99-0c79-4a0a-98be-1cb67bcb60b4","ios":"levelo://app?vid=f9fedb99-0c79-4a0a-98be-1cb67bcb60b4"},"vehicle_type_id":"4","last_reported":1759083154,"current_range_meters":4800,"station_id":"ce4bgih2rcd13ifvqba0","pricing_plan_id":"cebpf4jnsgd1na2vs0mg"},{"bike_id":"ed5ef1f4-67ca-4499-8575-660b762d8025","system_id":"levelo_inurba_marseille","lat":43.246359,"lon":5.431457,"is_reserved":false,"is_disabled":false,"rental_uris":{"android":"levelo://app?vid=ed5ef1f4-67ca-4499-8575-660b762d8025","ios":"levelo://app?vid=ed5ef1f4-67ca-4499-8575-660b762d8025"},"vehicle_type_id":"4","last_reported":1759083154,"current_range_meters":5600,"station_id":"st_d2m6c4gdas8pm72e190g","pricing_plan_id":"cebpf4jnsgd1na2vs0mg"},{"bike_id":"bba7f151-3e33-42e7-aba8-2053e3630a3a","system_id":"levelo_inurba_marseille","lat":43.26556,"lon":5.37287,"is_reserved":false,"is_disabled":false,"rental_uris":{"android":"levelo://app?vid=bba7f151-3e33-42e7-aba8-2053e3630a3a","ios":"levelo://app?vid=bba7f151-3e33-42e7-aba8-2053e3630a3a"},"vehicle_type_id":"4","last_reported":1759083154,"current_range_meters":5600,"station_id":"ce4bhg12rcd13ifvqf70","pricing_plan_id":"cebpf4jnsgd1na2vs0mg"},{"bike_id":"a6cee7c9-3a1e-422b-9783-73986398ebf4","system_id":"levelo_inurba_marseille","lat":43.30903,"lon":5.37174,"is_reserved":false,"is_disabled":false,"rental_uris":{"android":"levelo://app?vid=a6cee7c9-3a1e-422b-9783-73986398ebf4","ios":"levelo://app?vid=a6cee7c9-3a1e-422b-9783-73986398ebf4"},"vehicle_type_id":"4","last_reported":1759083154,"current_range_meters":5600,"station_id":"ce4bguh2rcd13ifvqckg","pricing_plan_id":"cebpf4jnsgd1na2vs0mg"},{"bike_id":"aaea33e7-1c45-4329-a89d-2cf308055113","system_id":"levelo_inurba_marseille","lat":43.25719,"lon":5.41112,"is_reserved":false,"is_disabled":false,"rental_uris":{"android":"levelo://app?vid=aaea33e7-1c45-4329-a89d-2cf308055113","ios":"levelo://app?vid=aaea33e7-1c45-4329-a89d-2cf308055113"},"vehicle_type_id":"4","last_reported":1759083154,"current_range_meters":5600,"station_id":"","pricing_plan_id":"cebpf4jnsgd1na2vs0mg"},{"bike_id":"043e68c3-4d38-4494-94cf-1a43ed77e223","system_id":"levelo_inurba_marseille","lat":43.28672,"lon":5.38653,"is_reserved":false,"is_disabled":false,"rental_uris":{"android":"levelo://app?vid=043e68c3-4d38-4494-94cf-1a43ed77e223","ios":"levelo://app?vid=043e68c3-4d38-4494-94cf-1a43ed77e223"},"vehicle_type_id":"4","last_reported":1759083154,"current_range_meters":6000,"station_id":"ce4bh492rcd13ifvqdug","pricing_plan_id":"cebpf4jnsgd1na2vs0mg"},{"bike_id":"9bb4db31-0bf9-4171-bca1-76cb045f53a3","system_id":"levelo_inurba_marseille","lat":43.26924,"lon":5.389081,"is_reserved":false,"is_disabled":true,"rental_uris":{"android":"levelo://app?vid=9bb4db31-0bf9-4171-bca1-76cb045f53a3","ios":"levelo://app?vid=9bb4db31-0bf9-4171-bca1-76cb045f53a3"},"vehicle_type_id":"4","last_reported":1759083154,"current_range_meters":6000,"station_id":"ce4bhhh2rcd13ifvqfl0","pricing_plan_id":"cebpf4jnsgd1na2vs0mg"},{"bike_id":"01bf55f2-4ac6-46f6-8504-3267bf31e1a6","system_id":"levelo_inurba_marseille","lat":43.2973,"lon":5.381787,"is_reserved":false,"is_disabled":false,"rental_uris":{"android":"levelo://app?vid=01bf55f2-4ac6-46f6-8504-3267bf31e1a6","ios":"levelo://app?vid=01bf55f2-4ac6-46f6-8504-3267bf31e1a6"},"vehicle_type_id":"4","last_reported":1759083154,"current_range_meters":6000,"station_id":"","pricing_plan_id":"cebpf4jnsgd1na2vs0mg"},{"bike_id":"1fe44ba1-3d92-424b-9e42-34c947824d4a","system_id":"levelo_inurba_marseille","lat":43.31667,"lon":5.42367,"is_reserved":false,"is_disabled":false,"rental_uris":{"android":"levelo://app?vid=1fe44ba1-3d92-424b-9e42-34c947824d4a","ios":"levelo://app?vid=1fe44ba1-3d92-424b-9e42-34c947824d4a"},"vehicle_type_id":"4","last_reported":1759083154,"current_range_meters":6400,"station_id":"","pricing_plan_id":"cebpf4jnsgd1na2vs0mg"},{"bike_id":"5365e873-98ea-45e2-9689-7e119051f22e","system_id":"levelo_inurba_marseille","lat":43.33097,"lon":5.35525,"is_reserved":false,"is_disabled":true,"rental_uris":{"android":"levelo://app?vid=5365e873-98ea-45e2-9689-7e119051f22e","ios":"levelo://app?vid=5365e873-98ea-45e2-9689-7e119051f22e"},"vehicle_type_id":"4","last_reported":1759083154,"current_range_meters":6400,"station_id":"","pricing_plan_id":"cebpf4jnsgd1na2vs0mg"},{"bike_id":"28072a77-eefd-4cfa-bd68-7696e02f507d","system_id":"levelo_inurba_marseille","lat":43.32469,"lon":5.36877,"is_reserved":false,"is_disabled":false,"rental_uris":{"android":"levelo://app?vid=28072a77-eefd-4cfa-bd68-7696e02f507d","ios":"levelo://app?vid=28072a77-eefd-4cfa-bd68-7696e02f507d"},"vehicle_type_id":"4","last_reported":1759083154,"current_range_meters":6400,"station_id":"","pricing_plan_id":"cebpf4jnsgd1na2vs0mg"},{"bike_id":"fbef676b-8f42-450e-b448-da45ad596c28","system_id":"levelo_inurba_marseille","lat":43.28389,"lon":5.36321,"is_reserved":false,"is_disabled":false,"rental_uris":{"android":"levelo://app?vid=fbef676b-8f42-450e-b448-da45ad596c28","ios":"levelo://app?vid=fbef676b-8f42-450e-b448-da45ad596c28"},"vehicle_type_id":"4","last_reported":1759083154,"current_range_meters":6400,"station_id":"","pricing_plan_id":"cebpf4jnsgd1na2vs0mg"},{"bike_id":"ee96a502-9b76-492e-840a-498b02aefe72","system_id":"levelo_inurba_marseille","lat":43.32352,"lon":5.3922,"is_reserved":false,"is_disabled":false,"rental_uris":{"android":"levelo://app?vid=ee96a502-9b76-492e-840a-498b02aefe72","ios":"levelo://app?vid=ee96a502-9b76-492e-840a-498b02aefe72"},"vehicle_type_id":"4","last_reported":1759083154,"current_range_meters":6400,"station_id":"","pricing_plan_id":"cebpf4jnsgd1na2vs0mg"},{"bike_id":"31e7aa46-d43f-4795-a66d-0d01487e6400","system_id":"levelo_inurba_marseille","lat":43.26554,"lon":5.37281,"is_reserved":false,"is_disabled":false,"rental_uris":{"android":"levelo://app?vid=31e7aa46-d43f-4795-a66d-0d01487e6400","ios":"levelo://app?vid=31e7aa46-d43f-4795-a66d-0d01487e6400"},"vehicle_type_id":"4","last_reported":1759083154,"current_range_meters":6400,"station_id":"ce4bhg12rcd13ifvqf70","pricing_plan_id":"cebpf4jnsgd1na2vs0mg"},{"bike_id":"526ff56e-4133-4e6a-ab7c-157894ef219a","system_id":"levelo_inurba_marseille","lat":43.21194,"lon":5.35091,"is_reserved":false,"is_disabled":true,"rental_uris":{"android":"levelo://app?vid=526ff56e-4133-4e6a-ab7c-157894ef219a","ios":"levelo://app?vid=526ff56e-4133-4e6a-ab7c-157894ef219a"},"vehicle_type_id":"4","last_reported":1759083154,"current_range_meters":6400,"station_id":"st_cvj6sg6p6f1abm77japg","pricing_plan_id":"cebpf4jnsgd1na2vs0mg"},{"bike_id":"63db0ec5-8100-4616-a545-9e1a32672108","system_id":"levelo_inurba_marseille","lat":43.29201,"lon":5.3932,"is_reserved":false,"is_disabled":false,"rental_uris":{"android":"levelo://app?vid=63db0ec5-8100-4616-a545-9e1a32672108","ios":"levelo://app?vid=63db0ec5-8100-4616-a545-9e1a32672108"},"vehicle_type_id":"4","last_reported":1759083154,"current_range_meters":6800,"station_id":"ce4bh192rcd13ifvqdd0","pricing_plan_id":"cebpf4jnsgd1na2vs0mg"},{"bike_id":"f0b315ac-987b-4f26-a395-e00c89b12475","system_id":"levelo_inurba_marseille","lat":43.29568,"lon":5.37528,"is_reserved":false,"is_disabled":false,"rental_uris":{"android":"levelo://app?vid=f0b315ac-987b-4f26-a395-e00c89b12475","ios":"levelo://app?vid=f0b315ac-987b-4f26-a395-e00c89b12475"},"vehicle_type_id":"4","last_reported":1759083154,"current_range_meters":6800,"station_id":"ce4bgh92rcd13ifvqb50","pricing_plan_id":"cebpf4jnsgd1na2vs0mg"},{"bike_id":"0a04107e-3ed7-4bd2-b200-92a1a0edfd67","system_id":"levelo_inurba_marseille","lat":43.29787,"lon":5.39341,"is_reserved":false,"is_disabled":false,"rental_uris":{"android":"levelo://app?vid=0a04107e-3ed7-4bd2-b200-92a1a0edfd67","ios":"levelo://app?vid=0a04107e-3ed7-4bd2-b200-92a1a0edfd67"},"vehicle_type_id":"4","last_reported":1759083154,"current_range_meters":6800,"station_id":"chh1huq6cuj3fo74tm60","pricing_plan_id":"cebpf4jnsgd1na2vs0mg"},{"bike_id":"3f51e03c-3abb-4dde-8cdd-da596aa3252f","system_id":"levelo_inurba_marseille","lat":43.27759,"lon":5.38885,"is_reserved":false,"is_disabled":true,"rental_uris":{"android":"levelo://app?vid=3f51e03c-3abb-4dde-8cdd-da596aa3252f","ios":"levelo://app?vid=3f51e03c-3abb-4dde-8cdd-da596aa3252f"},"vehicle_type_id":"4","last_reported":1759083154,"current_range_meters":6800,"station_id":"","pricing_plan_id":"cebpf4jnsgd1na2vs0mg"},{"bike_id":"aaabf3d4-5159-4102-8db2-d82c5ca30441","system_id":"levelo_inurba_marseille","lat":43.299164,"lon":5.374776,"is_reserved":false,"is_disabled":false,"rental_uris":{"android":"levelo://app?vid=aaabf3d4-5159-4102-8db2-d82c5ca30441","ios":"levelo://app?vid=aaabf3d4-5159-4102-8db2-d82c5ca30441"},"vehicle_type_id":"4","last_reported":1759083154,"current_range_meters":6800,"station_id":"ce4bgjh2rcd13ifvqbg0","pricing_plan_id":"cebpf4jnsgd1na2vs0mg"},{"bike_id":"4af372dc-684a-4df7-9100-33ccf85a5732","system_id":"levelo_inurba_marseille","lat":43.29953,"lon":5.37167,"is_reserved":false,"is_disabled":false,"rental_uris":{"android":"levelo://app?vid=4af372dc-684a-4df7-9100-33ccf85a5732","ios":"levelo://app?vid=4af372dc-684a-4df7-9100-33ccf85a5732"},"vehicle_type_id":"4","last_reported":1759083154,"current_range_meters":6800,"station_id":"ce4bgr92rcd13ifvqc7g","pricing_plan_id":"cebpf4jnsgd1na2vs0mg"},{"bike_id":"2c1ac25b-5a15-42db-bd27-e719792248b7","system_id":"levelo_inurba_marseille","lat":43.307387,"lon":5.424317,"is_reserved":false,"is_disabled":false,"rental_uris":{"android":"levelo://app?vid=2c1ac25b-5a15-42db-bd27-e719792248b7","ios":"levelo://app?vid=2c1ac25b-5a15-42db-bd27-e719792248b7"},"vehicle_type_id":"4","last_reported":1759083154,"current_range_meters":6800,"station_id":"st_cvj6ca6bvosntc0bfgr0","pricing_plan_id":"cebpf4jnsgd1na2vs0mg"},{"bike_id":"94f863ad-9a05-4b1a-9336-5bd853f5ab0e","system_id":"levelo_inurba_marseille","lat":43.26506,"lon":5.39536,"is_reserved":false,"is_disabled":false,"rental_uris":{"android":"levelo://app?vid=94f863ad-9a05-4b1a-9336-5bd853f5ab0e","ios":"levelo://app?vid=94f863ad-9a05-4b1a-9336-5bd853f5ab0e"},"vehicle_type_id":"4","last_reported":1759083154,"current_range_meters":7200,"station_id":"ce4bhi12rcd13ifvqfq0","pricing_plan_id":"cebpf4jnsgd1na2vs0mg"},{"bike_id":"28276c99-f0ed-4c0f-8441-349b3f7c34b7","system_id":"levelo_inurba_marseille","lat":43.32363,"lon":5.38882,"is_reserved":false,"is_disabled":false,"rental_uris":{"android":"levelo://app?vid=28276c99-f0ed-4c0f-8441-349b3f7c34b7","ios":"levelo://app?vid=28276c99-f0ed-4c0f-8441-349b3f7c34b7"},"vehicle_type_id":"4","last_reported":1759083154,"current_range_meters":7200,"station_id":"ce4bhqp2rcd13ifvqhog","pricing_plan_id":"cebpf4jnsgd1na2vs0mg"},{"bike_id":"934ea1ec-b7f6-49a1-9efa-287317d4eb22","system_id":"levelo_inurba_marseille","lat":43.29048,"lon":5.35914,"is_reserved":false,"is_disabled":false,"rental_uris":{"android":"levelo://app?vid=934ea1ec-b7f6-49a1-9efa-287317d4eb22","ios":"levelo://app?vid=934ea1ec-b7f6-49a1-9efa-287317d4eb22"},"vehicle_type_id":"4","last_reported":1759083154,"current_range_meters":7200,"station_id":"","pricing_plan_id":"cebpf4jnsgd1na2vs0mg"},{"bike_id":"39ad506b-e07b-43f7-972a-f1277fb3745a","system_id":"levelo_inurba_marseille","lat":43.29796,"lon":5.40393,"is_reserved":false,"is_disabled":false,"rental_uris":{"android":"levelo://app?vid=39ad506b-e07b-43f7-972a-f1277fb3745a","ios":"levelo://app?vid=39ad506b-e07b-43f7-972a-f1277fb3745a"},"vehicle_type_id":"4","last_reported":1759083154,"current_range_meters":7200,"station_id":"ce4bh112rcd13ifvqd90","pricing_plan_id":"cebpf4jnsgd1na2vs0mg"},{"bike_id":"8360fe96-8a6b-4a67-9ba4-0ef948b002e1","system_id":"levelo_inurba_marseille","lat":43.25027,"lon":5.3891,"is_reserved":false,"is_disabled":true,"rental_uris":{"android":"levelo://app?vid=8360fe96-8a6b-4a67-9ba4-0ef948b002e1","ios":"levelo://app?vid=8360fe96-8a6b-4a67-9ba4-0ef948b002e1"},"vehicle_type_id":"4","last_reported":1759083154,"current_range_meters":7200,"station_id":"ce4bhgp2rcd13ifvqfd0","pricing_plan_id":"cebpf4jnsgd1na2vs0mg"},{"bike_id":"232cb343-546b-434a-abc1-f1ad000083f1","system_id":"levelo_inurba_marseille","lat":43.31057,"lon":5.40092,"is_reserved":false,"is_disabled":false,"rental_uris":{"android":"levelo://app?vid=232cb343-546b-434a-abc1-f1ad000083f1","ios":"levelo://app?vid=232cb343-546b-434a-abc1-f1ad000083f1"},"vehicle_type_id":"4","last_reported":1759083154,"current_range_meters":7200,"station_id":"","pricing_plan_id":"cebpf4jnsgd1na2vs0mg"},{"bike_id":"3b74c2cf-7b38-4ec5-92c1-31f8017ce62c","system_id":"levelo_inurba_marseille","lat":43.29564,"lon":5.37523,"is_reserved":false,"is_disabled":false,"rental_uris":{"android":"levelo://app?vid=3b74c2cf-7b38-4ec5-92c1-31f8017ce62c","ios":"levelo://app?vid=3b74c2cf-7b38-4ec5-92c1-31f8017ce62c"},"vehicle_type_id":"4","last_reported":1759083154,"current_range_meters":7200,"station_id":"ce4bgh92rcd13ifvqb50","pricing_plan_id":"cebpf4jnsgd1na2vs0mg"},{"bike_id":"99e18432-d8eb-43e5-ac22-055388962a15","system_id":"levelo_inurba_marseille","lat":43.31995,"lon":5.38161,"is_reserved":false,"is_disabled":false,"rental_uris":{"android":"levelo://app?vid=99e18432-d8eb-43e5-ac22-055388962a15","ios":"levelo://app?vid=99e18432-d8eb-43e5-ac22-055388962a15"},"vehicle_type_id":"4","last_reported":1759083154,"current_range_meters":7200,"station_id":"ce4bhr12rcd13ifvqhpg","pricing_plan_id":"cebpf4jnsgd1na2vs0mg"},{"bike_id":"493de934-37da-4c7a-b96b-2c98818c5bef","system_id":"levelo_inurba_marseille","lat":43.29788,"lon":5.37093,"is_reserved":false,"is_disabled":false,"rental_uris":{"android":"levelo://app?vid=493de934-37da-4c7a-b96b-2c98818c5bef","ios":"levelo://app?vid=493de934-37da-4c7a-b96b-2c98818c5bef"},"vehicle_type_id":"4","last_reported":1759083154,"current_range_meters":8000,"station_id":"ce4bgop2rcd13ifvqc1g","pricing_plan_id":"cebpf4jnsgd1na2vs0mg"},{"bike_id":"4431cbb7-14bd-49b3-b2b3-a9c49182888a","system_id":"levelo_inurba_marseille","lat":43.29734,"lon":5.38039,"is_reserved":false,"is_disabled":false,"rental_uris":{"android":"levelo://app?vid=4431cbb7-14bd-49b3-b2b3-a9c49182888a","ios":"levelo://app?vid=4431cbb7-14bd-49b3-b2b3-a9c49182888a"},"vehicle_type_id":"4","last_reported":1759083154,"current_range_meters":8000,"station_id":"","pricing_plan_id":"cebpf4jnsgd1na2vs0mg"},{"bike_id":"5bec8abf-e1f3-48ac-b868-5703171ca561","system_id":"levelo_inurba_marseille","lat":43.295258,"lon":5.385398,"is_reserved":false,"is_disabled":false,"rental_uris":{"android":"levelo://app?vid=5bec8abf-e1f3-48ac-b868-5703171ca561","ios":"levelo://app?vid=5bec8abf-e1f3-48ac-b868-5703171ca561"},"vehicle_type_id":"4","last_reported":1759083154,"current_range_meters":8000,"station_id":"ce4bgih2rcd13ifvqba0","pricing_plan_id":"cebpf4jnsgd1na2vs0mg"},{"bike_id":"432fc623-2f7d-4cae-88a4-aa3a5cb2a135","system_id":"levelo_inurba_marseille","lat":43.30809,"lon":5.43526,"is_reserved":false,"is_disabled":false,"rental_uris":{"android":"levelo://app?vid=432fc623-2f7d-4cae-88a4-aa3a5cb2a135","ios":"levelo://app?vid=432fc623-2f7d-4cae-88a4-aa3a5cb2a135"},"vehicle_type_id":"4","last_reported":1759083154,"current_range_meters":8000,"station_id":"ce4bhph2rcd13ifvqheg","pricing_plan_id":"cebpf4jnsgd1na2vs0mg"},{"bike_id":"5eeb976e-70c7-4a54-b03d-7b3d46b65f01","system_id":"levelo_inurba_marseille","lat":43.31524,"lon":5.38039,"is_reserved":false,"is_disabled":false,"rental_uris":{"android":"levelo://app?vid=5eeb976e-70c7-4a54-b03d-7b3d46b65f01","ios":"levelo://app?vid=5eeb976e-70c7-4a54-b03d-7b3d46b65f01"},"vehicle_type_id":"4","last_reported":1759083154,"current_range_meters":8000,"station_id":"ce4bhsp2rcd13ifvqi50","pricing_plan_id":"cebpf4jnsgd1na2vs0mg"},{"bike_id":"5cd2b9d8-9710-4c6a-b59f-8bfe4f812564","system_id":"levelo_inurba_marseille","lat":43.282094,"lon":5.394725,"is_reserved":false,"is_disabled":false,"rental_uris":{"android":"levelo://app?vid=5cd2b9d8-9710-4c6a-b59f-8bfe4f812564","ios":"levelo://app?vid=5cd2b9d8-9710-4c6a-b59f-8bfe4f812564"},"vehicle_type_id":"4","last_reported":1759083154,"current_range_meters":8000,"station_id":"ce4bho12rcd13ifvqh2g","pricing_plan_id":"cebpf4jnsgd1na2vs0mg"},{"bike_id":"41d53a67-0d41-418c-b91d-63fb40294193","system_id":"levelo_inurba_marseille","lat":43.29519,"lon":5.39037,"is_reserved":false,"is_disabled":false,"rental_uris":{"android":"levelo://app?vid=41d53a67-0d41-418c-b91d-63fb40294193","ios":"levelo://app?vid=41d53a67-0d41-418c-b91d-63fb40294193"},"vehicle_type_id":"4","last_reported":1759083154,"current_range_meters":7200,"station_id":"ce4bh3p2rcd13ifvqdp0","pricing_plan_id":"cebpf4jnsgd1na2vs0mg"},{"bike_id":"18229c4a-015a-42c6-a0a0-6d1623135156","system_id":"levelo_inurba_marseille","lat":43.30142,"lon":5.37409,"is_reserved":false,"is_disabled":false,"rental_uris":{"android":"levelo://app?vid=18229c4a-015a-42c6-a0a0-6d1623135156","ios":"levelo://app?vid=18229c4a-015a-42c6-a0a0-6d1623135156"},"vehicle_type_id":"4","last_reported":1759083154,"current_range_meters":8000,"station_id":"ce4bgs92rcd13ifvqcc0","pricing_plan_id":"cebpf4jnsgd1na2vs0mg"},{"bike_id":"f2fd2284-837d-45c8-8a92-163c2aa30979","system_id":"levelo_inurba_marseille","lat":43.26858,"lon":5.39139,"is_reserved":false,"is_disabled":true,"rental_uris":{"android":"levelo://app?vid=f2fd2284-837d-45c8-8a92-163c2aa30979","ios":"levelo://app?vid=f2fd2284-837d-45c8-8a92-163c2aa30979"},"vehicle_type_id":"4","last_reported":1759083154,"current_range_meters":8400,"station_id":"ce4bhhh2rcd13ifvqfl0","pricing_plan_id":"cebpf4jnsgd1na2vs0mg"},{"bike_id":"720623f7-9148-4a0e-ade4-a205c6fa44f0","system_id":"levelo_inurba_marseille","lat":43.28968,"lon":5.4293,"is_reserved":false,"is_disabled":false,"rental_uris":{"android":"levelo://app?vid=720623f7-9148-4a0e-ade4-a205c6fa44f0","ios":"levelo://app?vid=720623f7-9148-4a0e-ade4-a205c6fa44f0"},"vehicle_type_id":"4","last_reported":1759083154,"current_range_meters":8400,"station_id":"","pricing_plan_id":"cebpf4jnsgd1na2vs0mg"},{"bike_id":"4a68e160-2728-463e-8b4a-9dbb2b6df126","system_id":"levelo_inurba_marseille","lat":43.30142,"lon":5.39865,"is_reserved":false,"is_disabled":false,"rental_uris":{"android":"levelo://app?vid=4a68e160-2728-463e-8b4a-9dbb2b6df126","ios":"levelo://app?vid=4a68e160-2728-463e-8b4a-9dbb2b6df126"},"vehicle_type_id":"4","last_reported":1759083154,"current_range_meters":8400,"station_id":"ce4bh0h2rcd13ifvqd40","pricing_plan_id":"cebpf4jnsgd1na2vs0mg"},{"bike_id":"34a09174-79f3-4515-9308-e7872853590d","system_id":"levelo_inurba_marseille","lat":43.30473,"lon":5.37516,"is_reserved":false,"is_disabled":false,"rental_uris":{"android":"levelo://app?vid=34a09174-79f3-4515-9308-e7872853590d","ios":"levelo://app?vid=34a09174-79f3-4515-9308-e7872853590d"},"vehicle_type_id":"4","last_reported":1759083154,"current_range_meters":8400,"station_id":"","pricing_plan_id":"cebpf4jnsgd1na2vs0mg"},{"bike_id":"80fa63aa-4455-4d5e-a715-7adb7f3588c9","system_id":"levelo_inurba_marseille","lat":43.32494,"lon":5.36573,"is_reserved":false,"is_disabled":false,"rental_uris":{"android":"levelo://app?vid=80fa63aa-4455-4d5e-a715-7adb7f3588c9","ios":"levelo://app?vid=80fa63aa-4455-4d5e-a715-7adb7f3588c9"},"vehicle_type_id":"4","last_reported":1759083154,"current_range_meters":8400,"station_id":"ce4bhs12rcd13ifvqhvg","pricing_plan_id":"cebpf4jnsgd1na2vs0mg"},{"bike_id":"3fd7c937-a838-4d6f-932e-9e3bccbc6d3b","system_id":"levelo_inurba_marseille","lat":43.29917,"lon":5.38241,"is_reserved":false,"is_disabled":false,"rental_uris":{"android":"levelo://app?vid=3fd7c937-a838-4d6f-932e-9e3bccbc6d3b","ios":"levelo://app?vid=3fd7c937-a838-4d6f-932e-9e3bccbc6d3b"},"vehicle_type_id":"4","last_reported":1759083154,"current_range_meters":8400,"station_id":"","pricing_plan_id":"cebpf4jnsgd1na2vs0mg"},{"bike_id":"3b01e214-ddb1-46c7-a006-a2907e8d78ce","system_id":"levelo_inurba_marseille","lat":43.303,"lon":5.4045,"is_reserved":false,"is_disabled":false,"rental_uris":{"android":"levelo://app?vid=3b01e214-ddb1-46c7-a006-a2907e8d78ce","ios":"levelo://app?vid=3b01e214-ddb1-46c7-a006-a2907e8d78ce"},"vehicle_type_id":"4","last_reported":1759083154,"current_range_meters":8400,"station_id":"ce4bh012rcd13ifvqd10","pricing_plan_id":"cebpf4jnsgd1na2vs0mg"},{"bike_id":"695662ab-65fe-4c59-81b6-3dceb9f5066d","system_id":"levelo_inurba_marseille","lat":43.255781,"lon":5.38232,"is_reserved":false,"is_disabled":true,"rental_uris":{"android":"levelo://app?vid=695662ab-65fe-4c59-81b6-3dceb9f5066d","ios":"levelo://app?vid=695662ab-65fe-4c59-81b6-3dceb9f5066d"},"vehicle_type_id":"4","last_reported":1759083154,"current_range_meters":8400,"station_id":"ce4bhih2rcd13ifvqfs0","pricing_plan_id":"cebpf4jnsgd1na2vs0mg"},{"bike_id":"03350417-1098-4d6c-b8fe-9e64358744bf","system_id":"levelo_inurba_marseille","lat":43.329985,"lon":5.395874,"is_reserved":false,"is_disabled":false,"rental_uris":{"android":"levelo://app?vid=03350417-1098-4d6c-b8fe-9e64358744bf","ios":"levelo://app?vid=03350417-1098-4d6c-b8fe-9e64358744bf"},"vehicle_type_id":"4","last_reported":1759083154,"current_range_meters":8400,"station_id":"","pricing_plan_id":"cebpf4jnsgd1na2vs0mg"},{"bike_id":"0b10856b-3dad-4052-bc3a-2c17e6f16e23","system_id":"levelo_inurba_marseille","lat":43.275635,"lon":5.384093,"is_reserved":false,"is_disabled":true,"rental_uris":{"android":"levelo://app?vid=0b10856b-3dad-4052-bc3a-2c17e6f16e23","ios":"levelo://app?vid=0b10856b-3dad-4052-bc3a-2c17e6f16e23"},"vehicle_type_id":"4","last_reported":1759083154,"current_range_meters":8800,"station_id":"ce4bhh92rcd13ifvqfi0","pricing_plan_id":"cebpf4jnsgd1na2vs0mg"},{"bike_id":"dc4883ea-8f06-44d1-8b3d-6660e39a87ec","system_id":"levelo_inurba_marseille","lat":43.229326,"lon":5.353765,"is_reserved":false,"is_disabled":true,"rental_uris":{"android":"levelo://app?vid=dc4883ea-8f06-44d1-8b3d-6660e39a87ec","ios":"levelo://app?vid=dc4883ea-8f06-44d1-8b3d-6660e39a87ec"},"vehicle_type_id":"4","last_reported":1759083154,"current_range_meters":8800,"station_id":"cpo3532slgdg3j2ikp40","pricing_plan_id":"cebpf4jnsgd1na2vs0mg"},{"bike_id":"c709e4e4-cb35-4bd4-a623-ef4adfdc8569","system_id":"levelo_inurba_marseille","lat":43.28446,"lon":5.39207,"is_reserved":false,"is_disabled":false,"rental_uris":{"android":"levelo://app?vid=c709e4e4-cb35-4bd4-a623-ef4adfdc8569","ios":"levelo://app?vid=c709e4e4-cb35-4bd4-a623-ef4adfdc8569"},"vehicle_type_id":"4","last_reported":1759083154,"current_range_meters":8400,"station_id":"ce4bhoh2rcd13ifvqh5g","pricing_plan_id":"cebpf4jnsgd1na2vs0mg"},{"bike_id":"579526e6-1a96-4dcb-9bab-181bf678c4cb","system_id":"levelo_inurba_marseille","lat":43.24181,"lon":5.39727,"is_reserved":false,"is_disabled":true,"rental_uris":{"android":"levelo://app?vid=579526e6-1a96-4dcb-9bab-181bf678c4cb","ios":"levelo://app?vid=579526e6-1a96-4dcb-9bab-181bf678c4cb"},"vehicle_type_id":"4","last_reported":1759083154,"current_range_meters":8800,"station_id":"ce4bhn12rcd13ifvqgpg","pricing_plan_id":"cebpf4jnsgd1na2vs0mg"},{"bike_id":"b2dda1e3-0d18-48cd-b105-9355f5a1b95e","system_id":"levelo_inurba_marseille","lat":43.3188,"lon":5.40734,"is_reserved":false,"is_disabled":false,"rental_uris":{"android":"levelo://app?vid=b2dda1e3-0d18-48cd-b105-9355f5a1b95e","ios":"levelo://app?vid=b2dda1e3-0d18-48cd-b105-9355f5a1b95e"},"vehicle_type_id":"4","last_reported":1759083154,"current_range_meters":8800,"station_id":"ce4bhq12rcd13ifvqhig","pricing_plan_id":"cebpf4jnsgd1na2vs0mg"},{"bike_id":"311b15f4-79d0-4b33-a26a-0c29325b02dd","system_id":"levelo_inurba_marseille","lat":43.30245,"lon":5.4007,"is_reserved":false,"is_disabled":false,"rental_uris":{"android":"levelo://app?vid=311b15f4-79d0-4b33-a26a-0c29325b02dd","ios":"levelo://app?vid=311b15f4-79d0-4b33-a26a-0c29325b02dd"},"vehicle_type_id":"4","last_reported":1759083154,"current_range_meters":8800,"station_id":"ce4bgvh2rcd13ifvqcs0","pricing_plan_id":"cebpf4jnsgd1na2vs0mg"},{"bike_id":"c4dd378a-5f03-454e-bff0-e68803698053","system_id":"levelo_inurba_marseille","lat":43.310816,"lon":5.424296,"is_reserved":false,"is_disabled":false,"rental_uris":{"android":"levelo://app?vid=c4dd378a-5f03-454e-bff0-e68803698053","ios":"levelo://app?vid=c4dd378a-5f03-454e-bff0-e68803698053"},"vehicle_type_id":"4","last_reported":1759083154,"current_range_meters":8800,"station_id":"ce4bhp92rcd13ifvqhag","pricing_plan_id":"cebpf4jnsgd1na2vs0mg"},{"bike_id":"4f718842-fb00-42a3-b314-e0ea514cd70f","system_id":"levelo_inurba_marseille","lat":43.31302,"lon":5.38489,"is_reserved":false,"is_disabled":false,"rental_uris":{"android":"levelo://app?vid=4f718842-fb00-42a3-b314-e0ea514cd70f","ios":"levelo://app?vid=4f718842-fb00-42a3-b314-e0ea514cd70f"},"vehicle_type_id":"4","last_reported":1759083154,"current_range_meters":8800,"station_id":"","pricing_plan_id":"cebpf4jnsgd1na2vs0mg"},{"bike_id":"949afa4e-361e-4820-a4ce-8ad04d035cfd","system_id":"levelo_inurba_marseille","lat":43.28419,"lon":5.37522,"is_reserved":false,"is_disabled":false,"rental_uris":{"android":"levelo://app?vid=949afa4e-361e-4820-a4ce-8ad04d035cfd","ios":"levelo://app?vid=949afa4e-361e-4820-a4ce-8ad04d035cfd"},"vehicle_type_id":"4","last_reported":1759083154,"current_range_meters":9200,"station_id":"ce4bh412rcd13ifvqds0","pricing_plan_id":"cebpf4jnsgd1na2vs0mg"},{"bike_id":"36009a19-6a02-428c-8259-50cb172da67e","system_id":"levelo_inurba_marseille","lat":43.32365,"lon":5.388823,"is_reserved":false,"is_disabled":false,"rental_uris":{"android":"levelo://app?vid=36009a19-6a02-428c-8259-50cb172da67e","ios":"levelo://app?vid=36009a19-6a02-428c-8259-50cb172da67e"},"vehicle_type_id":"4","last_reported":1759083154,"current_range_meters":9200,"station_id":"ce4bhqp2rcd13ifvqhog","pricing_plan_id":"cebpf4jnsgd1na2vs0mg"},{"bike_id":"b7ec1591-e523-4a3e-8575-158fdb28a87d","system_id":"levelo_inurba_marseille","lat":43.31711,"lon":5.37754,"is_reserved":false,"is_disabled":false,"rental_uris":{"android":"levelo://app?vid=b7ec1591-e523-4a3e-8575-158fdb28a87d","ios":"levelo://app?vid=b7ec1591-e523-4a3e-8575-158fdb28a87d"},"vehicle_type_id":"4","last_reported":1759083154,"current_range_meters":9200,"station_id":"ce4bgth2rcd13ifvqch0","pricing_plan_id":"cebpf4jnsgd1na2vs0mg"},{"bike_id":"0227bfad-8544-4afd-9531-3a53f7b29c84","system_id":"levelo_inurba_marseille","lat":43.3089,"lon":5.37197,"is_reserved":false,"is_disabled":false,"rental_uris":{"android":"levelo://app?vid=0227bfad-8544-4afd-9531-3a53f7b29c84","ios":"levelo://app?vid=0227bfad-8544-4afd-9531-3a53f7b29c84"},"vehicle_type_id":"4","last_reported":1759083154,"current_range_meters":9200,"station_id":"ce4bguh2rcd13ifvqckg","pricing_plan_id":"cebpf4jnsgd1na2vs0mg"},{"bike_id":"433cd2d7-c2d5-4818-b71c-0c18219811ce","system_id":"levelo_inurba_marseille","lat":43.292705,"lon":5.374899,"is_reserved":false,"is_disabled":false,"rental_uris":{"android":"levelo://app?vid=433cd2d7-c2d5-4818-b71c-0c18219811ce","ios":"levelo://app?vid=433cd2d7-c2d5-4818-b71c-0c18219811ce"},"vehicle_type_id":"4","last_reported":1759083154,"current_range_meters":9600,"station_id":"ce4bh692rcd13ifvqe90","pricing_plan_id":"cebpf4jnsgd1na2vs0mg"},{"bike_id":"096c311a-e31f-4e60-ab8c-de0b76354103","system_id":"levelo_inurba_marseille","lat":43.27165,"lon":5.4102,"is_reserved":false,"is_disabled":true,"rental_uris":{"android":"levelo://app?vid=096c311a-e31f-4e60-ab8c-de0b76354103","ios":"levelo://app?vid=096c311a-e31f-4e60-ab8c-de0b76354103"},"vehicle_type_id":"4","last_reported":1759083154,"current_range_meters":9600,"station_id":"ce4bhl12rcd13ifvqgf0","pricing_plan_id":"cebpf4jnsgd1na2vs0mg"},{"bike_id":"3f6ed7fd-3cbe-4ce8-9aaf-ee8157c2e1f8","system_id":"levelo_inurba_marseille","lat":43.24952,"lon":5.40495,"is_reserved":false,"is_disabled":false,"rental_uris":{"android":"levelo://app?vid=3f6ed7fd-3cbe-4ce8-9aaf-ee8157c2e1f8","ios":"levelo://app?vid=3f6ed7fd-3cbe-4ce8-9aaf-ee8157c2e1f8"},"vehicle_type_id":"4","last_reported":1759083154,"current_range_meters":9600,"station_id":"st_d2ngiaodas8pm72gd1h0","pricing_plan_id":"cebpf4jnsgd1na2vs0mg"},{"bike_id":"c969d28e-6327-41f6-b846-721dc6c2d8cf","system_id":"levelo_inurba_marseille","lat":43.28154,"lon":5.42646,"is_reserved":false,"is_disabled":false,"rental_uris":{"android":"levelo://app?vid=c969d28e-6327-41f6-b846-721dc6c2d8cf","ios":"levelo://app?vid=c969d28e-6327-41f6-b846-721dc6c2d8cf"},"vehicle_type_id":"4","last_reported":1759083154,"current_range_meters":9200,"station_id":"ce4bhnh2rcd13ifvqgug","pricing_plan_id":"cebpf4jnsgd1na2vs0mg"},{"bike_id":"e3b5f01a-e8bb-4d2a-bc96-2bbf4b3a08a8","system_id":"levelo_inurba_marseille","lat":43.24077,"lon":5.37768,"is_reserved":false,"is_disabled":false,"rental_uris":{"android":"levelo://app?vid=e3b5f01a-e8bb-4d2a-bc96-2bbf4b3a08a8","ios":"levelo://app?vid=e3b5f01a-e8bb-4d2a-bc96-2bbf4b3a08a8"},"vehicle_type_id":"4","last_reported":1759083154,"current_range_meters":9600,"station_id":"ce4bhnp2rcd13ifvqgvg","pricing_plan_id":"cebpf4jnsgd1na2vs0mg"},{"bike_id":"de53c44f-5e7a-475b-a979-c82903b44713","system_id":"levelo_inurba_marseille","lat":43.32366,"lon":5.38887,"is_reserved":false,"is_disabled":false,"rental_uris":{"android":"levelo://app?vid=de53c44f-5e7a-475b-a979-c82903b44713","ios":"levelo://app?vid=de53c44f-5e7a-475b-a979-c82903b44713"},"vehicle_type_id":"4","last_reported":1759083154,"current_range_meters":10000,"station_id":"ce4bhqp2rcd13ifvqhog","pricing_plan_id":"cebpf4jnsgd1na2vs0mg"},{"bike_id":"6d98ab21-1faa-4b15-97b2-a1dd6f53a5a7","system_id":"levelo_inurba_marseille","lat":43.27425,"lon":5.39401,"is_reserved":false,"is_disabled":true,"rental_uris":{"android":"levelo://app?vid=6d98ab21-1faa-4b15-97b2-a1dd6f53a5a7","ios":"levelo://app?vid=6d98ab21-1faa-4b15-97b2-a1dd6f53a5a7"},"vehicle_type_id":"4","last_reported":1759083154,"current_range_meters":10000,"station_id":"ce4bhdp2rcd13ifvqf20","pricing_plan_id":"cebpf4jnsgd1na2vs0mg"},{"bike_id":"55a9e450-d717-4b26-a86b-739b1932d531","system_id":"levelo_inurba_marseille","lat":43.28842,"lon":5.3931,"is_reserved":false,"is_disabled":false,"rental_uris":{"android":"levelo://app?vid=55a9e450-d717-4b26-a86b-739b1932d531","ios":"levelo://app?vid=55a9e450-d717-4b26-a86b-739b1932d531"},"vehicle_type_id":"4","last_reported":1759083154,"current_range_meters":10000,"station_id":"ce4bh2p2rcd13ifvqdi0","pricing_plan_id":"cebpf4jnsgd1na2vs0mg"},{"bike_id":"4c02c545-ad59-45b1-9b9c-d3678a5922c7","system_id":"levelo_inurba_marseille","lat":43.337444,"lon":5.374475,"is_reserved":false,"is_disabled":false,"rental_uris":{"android":"levelo://app?vid=4c02c545-ad59-45b1-9b9c-d3678a5922c7","ios":"levelo://app?vid=4c02c545-ad59-45b1-9b9c-d3678a5922c7"},"vehicle_type_id":"4","last_reported":1759083154,"current_range_meters":10000,"station_id":"","pricing_plan_id":"cebpf4jnsgd1na2vs0mg"},{"bike_id":"72c5e0c5-6461-42bd-962e-6db6f2c35caa","system_id":"levelo_inurba_marseille","lat":43.311275,"lon":5.377764,"is_reserved":false,"is_disabled":false,"rental_uris":{"android":"levelo://app?vid=72c5e0c5-6461-42bd-962e-6db6f2c35caa","ios":"levelo://app?vid=72c5e0c5-6461-42bd-962e-6db6f2c35caa"},"vehicle_type_id":"4","last_reported":1759083154,"current_range_meters":10000,"station_id":"ce4bgt92rcd13ifvqcg0","pricing_plan_id":"cebpf4jnsgd1na2vs0mg"},{"bike_id":"7f14f5d6-0743-4935-b016-496286983c43","system_id":"levelo_inurba_marseille","lat":43.32469,"lon":5.36543,"is_reserved":false,"is_disabled":false,"rental_uris":{"android":"levelo://app?vid=7f14f5d6-0743-4935-b016-496286983c43","ios":"levelo://app?vid=7f14f5d6-0743-4935-b016-496286983c43"},"vehicle_type_id":"4","last_reported":1759083154,"current_range_meters":10000,"station_id":"ce4bhs12rcd13ifvqhvg","pricing_plan_id":"cebpf4jnsgd1na2vs0mg"},{"bike_id":"2243febf-ebaf-474b-8e3e-799410e4c867","system_id":"levelo_inurba_marseille","lat":43.32571,"lon":5.36355,"is_reserved":false,"is_disabled":false,"rental_uris":{"android":"levelo://app?vid=2243febf-ebaf-474b-8e3e-799410e4c867","ios":"levelo://app?vid=2243febf-ebaf-474b-8e3e-799410e4c867"},"vehicle_type_id":"4","last_reported":1759083154,"current_range_meters":10800,"station_id":"","pricing_plan_id":"cebpf4jnsgd1na2vs0mg"},{"bike_id":"92d3bdf4-f790-4c23-871c-672d467a2e9b","system_id":"levelo_inurba_marseille","lat":43.26785,"lon":5.39417,"is_reserved":false,"is_disabled":false,"rental_uris":{"android":"levelo://app?vid=92d3bdf4-f790-4c23-871c-672d467a2e9b","ios":"levelo://app?vid=92d3bdf4-f790-4c23-871c-672d467a2e9b"},"vehicle_type_id":"4","last_reported":1759083154,"current_range_meters":10800,"station_id":"ce4bhh12rcd13ifvqfg0","pricing_plan_id":"cebpf4jnsgd1na2vs0mg"},{"bike_id":"c097f066-7651-435e-913f-a8a7838aba88","system_id":"levelo_inurba_marseille","lat":43.33722,"lon":5.37459,"is_reserved":false,"is_disabled":false,"rental_uris":{"android":"levelo://app?vid=c097f066-7651-435e-913f-a8a7838aba88","ios":"levelo://app?vid=c097f066-7651-435e-913f-a8a7838aba88"},"vehicle_type_id":"4","last_reported":1759083154,"current_range_meters":10800,"station_id":"","pricing_plan_id":"cebpf4jnsgd1na2vs0mg"},{"bike_id":"6416d6c5-5c66-484f-9049-5c431c7acebf","system_id":"levelo_inurba_marseille","lat":43.28662,"lon":5.3636,"is_reserved":false,"is_disabled":false,"rental_uris":{"android":"levelo://app?vid=6416d6c5-5c66-484f-9049-5c431c7acebf","ios":"levelo://app?vid=6416d6c5-5c66-484f-9049-5c431c7acebf"},"vehicle_type_id":"4","last_reported":1759083154,"current_range_meters":10000,"station_id":"ce4bhah2rcd13ifvqej0","pricing_plan_id":"cebpf4jnsgd1na2vs0mg"},{"bike_id":"edc0c4e0-7f8f-4812-8ac6-ad4d28285d80","system_id":"levelo_inurba_marseille","lat":43.2558,"lon":5.3823,"is_reserved":false,"is_disabled":false,"rental_uris":{"android":"levelo://app?vid=edc0c4e0-7f8f-4812-8ac6-ad4d28285d80","ios":"levelo://app?vid=edc0c4e0-7f8f-4812-8ac6-ad4d28285d80"},"vehicle_type_id":"4","last_reported":1759083154,"current_range_meters":10800,"station_id":"ce4bhih2rcd13ifvqfs0","pricing_plan_id":"cebpf4jnsgd1na2vs0mg"},{"bike_id":"710dfcf0-04c4-4704-89b7-56dbb8103e66","system_id":"levelo_inurba_marseille","lat":43.29053,"lon":5.37153,"is_reserved":false,"is_disabled":true,"rental_uris":{"android":"levelo://app?vid=710dfcf0-04c4-4704-89b7-56dbb8103e66","ios":"levelo://app?vid=710dfcf0-04c4-4704-89b7-56dbb8103e66"},"vehicle_type_id":"4","last_reported":1759083154,"current_range_meters":10800,"station_id":"ce4bh5p2rcd13ifvqe4g","pricing_plan_id":"cebpf4jnsgd1na2vs0mg"},{"bike_id":"f62fe733-90ac-444a-a20a-73d227678ff7","system_id":"levelo_inurba_marseille","lat":43.296138,"lon":5.377066,"is_reserved":false,"is_disabled":true,"rental_uris":{"android":"levelo://app?vid=f62fe733-90ac-444a-a20a-73d227678ff7","ios":"levelo://app?vid=f62fe733-90ac-444a-a20a-73d227678ff7"},"vehicle_type_id":"4","last_reported":1759083154,"current_range_meters":11200,"station_id":"ce4bgi92rcd13ifvqb90","pricing_plan_id":"cebpf4jnsgd1na2vs0mg"},{"bike_id":"3460c87b-7b5f-40be-bc46-a6635825063f","system_id":"levelo_inurba_marseille","lat":43.29031,"lon":5.38626,"is_reserved":false,"is_disabled":false,"rental_uris":{"android":"levelo://app?vid=3460c87b-7b5f-40be-bc46-a6635825063f","ios":"levelo://app?vid=3460c87b-7b5f-40be-bc46-a6635825063f"},"vehicle_type_id":"4","last_reported":1759083154,"current_range_meters":11200,"station_id":"ce4bh4p2rcd13ifvqe0g","pricing_plan_id":"cebpf4jnsgd1na2vs0mg"},{"bike_id":"72c47d07-f4a8-4f58-b6bc-b8c6013ac540","system_id":"levelo_inurba_marseille","lat":43.31391,"lon":5.39142,"is_reserved":false,"is_disabled":false,"rental_uris":{"android":"levelo://app?vid=72c47d07-f4a8-4f58-b6bc-b8c6013ac540","ios":"levelo://app?vid=72c47d07-f4a8-4f58-b6bc-b8c6013ac540"},"vehicle_type_id":"4","last_reported":1759083154,"current_range_meters":11200,"station_id":"","pricing_plan_id":"cebpf4jnsgd1na2vs0mg"},{"bike_id":"997896a0-227a-4a8b-9e1c-2be77fdb1ec8","system_id":"levelo_inurba_marseille","lat":43.30151,"lon":5.38101,"is_reserved":false,"is_disabled":false,"rental_uris":{"android":"levelo://app?vid=997896a0-227a-4a8b-9e1c-2be77fdb1ec8","ios":"levelo://app?vid=997896a0-227a-4a8b-9e1c-2be77fdb1ec8"},"vehicle_type_id":"4","last_reported":1759083154,"current_range_meters":11200,"station_id":"ce4bgjp2rcd13ifvqbh0","pricing_plan_id":"cebpf4jnsgd1na2vs0mg"},{"bike_id":"99f8e706-cfb0-4eb6-929e-527298f2a0db","system_id":"levelo_inurba_marseille","lat":43.28352,"lon":5.3765,"is_reserved":false,"is_disabled":false,"rental_uris":{"android":"levelo://app?vid=99f8e706-cfb0-4eb6-929e-527298f2a0db","ios":"levelo://app?vid=99f8e706-cfb0-4eb6-929e-527298f2a0db"},"vehicle_type_id":"4","last_reported":1759083154,"current_range_meters":11200,"station_id":"","pricing_plan_id":"cebpf4jnsgd1na2vs0mg"},{"bike_id":"644cffef-bd0f-4766-aee1-2f6e9e0483da","system_id":"levelo_inurba_marseille","lat":43.30928,"lon":5.40151,"is_reserved":false,"is_disabled":false,"rental_uris":{"android":"levelo://app?vid=644cffef-bd0f-4766-aee1-2f6e9e0483da","ios":"levelo://app?vid=644cffef-bd0f-4766-aee1-2f6e9e0483da"},"vehicle_type_id":"4","last_reported":1759083154,"current_range_meters":11200,"station_id":"ce4bgvp2rcd13ifvqct0","pricing_plan_id":"cebpf4jnsgd1na2vs0mg"},{"bike_id":"d16f46f5-3d43-4933-b088-bc397093924a","system_id":"levelo_inurba_marseille","lat":43.29852,"lon":5.36289,"is_reserved":false,"is_disabled":true,"rental_uris":{"android":"levelo://app?vid=d16f46f5-3d43-4933-b088-bc397093924a","ios":"levelo://app?vid=d16f46f5-3d43-4933-b088-bc397093924a"},"vehicle_type_id":"4","last_reported":1759083154,"current_range_meters":11200,"station_id":"ce4bgpp2rcd13ifvqc3g","pricing_plan_id":"cebpf4jnsgd1na2vs0mg"},{"bike_id":"0c1b4f9e-a8b3-49ca-9c30-10a751563074","system_id":"levelo_inurba_marseille","lat":43.29185,"lon":5.39329,"is_reserved":false,"is_disabled":false,"rental_uris":{"android":"levelo://app?vid=0c1b4f9e-a8b3-49ca-9c30-10a751563074","ios":"levelo://app?vid=0c1b4f9e-a8b3-49ca-9c30-10a751563074"},"vehicle_type_id":"4","last_reported":1759083154,"current_range_meters":11200,"station_id":"ce4bh192rcd13ifvqdd0","pricing_plan_id":"cebpf4jnsgd1na2vs0mg"},{"bike_id":"8ba5e33b-48f1-42b5-a531-76085f7229c8","system_id":"levelo_inurba_marseille","lat":43.24634,"lon":5.43156,"is_reserved":false,"is_disabled":false,"rental_uris":{"android":"levelo://app?vid=8ba5e33b-48f1-42b5-a531-76085f7229c8","ios":"levelo://app?vid=8ba5e33b-48f1-42b5-a531-76085f7229c8"},"vehicle_type_id":"4","last_reported":1759083154,"current_range_meters":11200,"station_id":"st_d2m6c4gdas8pm72e190g","pricing_plan_id":"cebpf4jnsgd1na2vs0mg"},{"bike_id":"95bafeb0-6c7b-407a-a73b-a6569ff5cb66","system_id":"levelo_inurba_marseille","lat":43.33759,"lon":5.37477,"is_reserved":false,"is_disabled":false,"rental_uris":{"android":"levelo://app?vid=95bafeb0-6c7b-407a-a73b-a6569ff5cb66","ios":"levelo://app?vid=95bafeb0-6c7b-407a-a73b-a6569ff5cb66"},"vehicle_type_id":"4","last_reported":1759083154,"current_range_meters":11600,"station_id":"","pricing_plan_id":"cebpf4jnsgd1na2vs0mg"},{"bike_id":"667f86b3-325e-48f4-8a4c-d84a572a7c18","system_id":"levelo_inurba_marseille","lat":43.28355,"lon":5.38109,"is_reserved":false,"is_disabled":false,"rental_uris":{"android":"levelo://app?vid=667f86b3-325e-48f4-8a4c-d84a572a7c18","ios":"levelo://app?vid=667f86b3-325e-48f4-8a4c-d84a572a7c18"},"vehicle_type_id":"4","last_reported":1759083154,"current_range_meters":11600,"station_id":"ce4bh412rcd13ifvqdr0","pricing_plan_id":"cebpf4jnsgd1na2vs0mg"},{"bike_id":"c9916796-5f07-4d22-aceb-87882fb08ac5","system_id":"levelo_inurba_marseille","lat":43.30588,"lon":5.36571,"is_reserved":false,"is_disabled":false,"rental_uris":{"android":"levelo://app?vid=c9916796-5f07-4d22-aceb-87882fb08ac5","ios":"levelo://app?vid=c9916796-5f07-4d22-aceb-87882fb08ac5"},"vehicle_type_id":"4","last_reported":1759083154,"current_range_meters":11600,"station_id":"ce4bgs12rcd13ifvqcag","pricing_plan_id":"cebpf4jnsgd1na2vs0mg"},{"bike_id":"f4c53ff4-73a4-4134-bb3f-bbf464878afb","system_id":"levelo_inurba_marseille","lat":43.24179,"lon":5.36406,"is_reserved":false,"is_disabled":true,"rental_uris":{"android":"levelo://app?vid=f4c53ff4-73a4-4134-bb3f-bbf464878afb","ios":"levelo://app?vid=f4c53ff4-73a4-4134-bb3f-bbf464878afb"},"vehicle_type_id":"4","last_reported":1759083154,"current_range_meters":11600,"station_id":"cpo36qri1sfpv3e86is0","pricing_plan_id":"cebpf4jnsgd1na2vs0mg"},{"bike_id":"83be99c8-b60b-4d40-928c-3fbcd74cda1a","system_id":"levelo_inurba_marseille","lat":43.30932,"lon":5.40138,"is_reserved":false,"is_disabled":false,"rental_uris":{"android":"levelo://app?vid=83be99c8-b60b-4d40-928c-3fbcd74cda1a","ios":"levelo://app?vid=83be99c8-b60b-4d40-928c-3fbcd74cda1a"},"vehicle_type_id":"4","last_reported":1759083154,"current_range_meters":11600,"station_id":"ce4bgvp2rcd13ifvqct0","pricing_plan_id":"cebpf4jnsgd1na2vs0mg"},{"bike_id":"bbe6bb4c-94f0-4fe6-9812-efd2e0a0407d","system_id":"levelo_inurba_marseille","lat":43.28707,"lon":5.37392,"is_reserved":false,"is_disabled":false,"rental_uris":{"android":"levelo://app?vid=bbe6bb4c-94f0-4fe6-9812-efd2e0a0407d","ios":"levelo://app?vid=bbe6bb4c-94f0-4fe6-9812-efd2e0a0407d"},"vehicle_type_id":"4","last_reported":1759083154,"current_range_meters":11600,"station_id":"ce4bh3p2rcd13ifvqdq0","pricing_plan_id":"cebpf4jnsgd1na2vs0mg"},{"bike_id":"7ac81eae-aed2-4f3f-a100-b35f399befc9","system_id":"levelo_inurba_marseille","lat":43.25102,"lon":5.40311,"is_reserved":false,"is_disabled":false,"rental_uris":{"android":"levelo://app?vid=7ac81eae-aed2-4f3f-a100-b35f399befc9","ios":"levelo://app?vid=7ac81eae-aed2-4f3f-a100-b35f399befc9"},"vehicle_type_id":"4","last_reported":1759083154,"current_range_meters":11600,"station_id":"ce4bhlh2rcd13ifvqgig","pricing_plan_id":"cebpf4jnsgd1na2vs0mg"},{"bike_id":"a2a842f6-fc46-40d7-b7a6-d9d5a8c99dfa","system_id":"levelo_inurba_marseille","lat":43.32009,"lon":5.3813,"is_reserved":false,"is_disabled":true,"rental_uris":{"android":"levelo://app?vid=a2a842f6-fc46-40d7-b7a6-d9d5a8c99dfa","ios":"levelo://app?vid=a2a842f6-fc46-40d7-b7a6-d9d5a8c99dfa"},"vehicle_type_id":"4","last_reported":1759083154,"current_range_meters":11600,"station_id":"ce4bhr12rcd13ifvqhpg","pricing_plan_id":"cebpf4jnsgd1na2vs0mg"},{"bike_id":"0d80cbbf-adce-4465-b611-ba9da67007f8","system_id":"levelo_inurba_marseille","lat":43.30146,"lon":5.39874,"is_reserved":false,"is_disabled":false,"rental_uris":{"android":"levelo://app?vid=0d80cbbf-adce-4465-b611-ba9da67007f8","ios":"levelo://app?vid=0d80cbbf-adce-4465-b611-ba9da67007f8"},"vehicle_type_id":"4","last_reported":1759083154,"current_range_meters":11600,"station_id":"ce4bh0h2rcd13ifvqd40","pricing_plan_id":"cebpf4jnsgd1na2vs0mg"},{"bike_id":"afb3a0b1-c807-4eff-8fb4-4964910f49c8","system_id":"levelo_inurba_marseille","lat":43.217429,"lon":5.346035,"is_reserved":false,"is_disabled":true,"rental_uris":{"android":"levelo://app?vid=afb3a0b1-c807-4eff-8fb4-4964910f49c8","ios":"levelo://app?vid=afb3a0b1-c807-4eff-8fb4-4964910f49c8"},"vehicle_type_id":"4","last_reported":1759083154,"current_range_meters":11600,"station_id":"st_cvj6r9ubvosntc0bgbag","pricing_plan_id":"cebpf4jnsgd1na2vs0mg"},{"bike_id":"258ab053-1083-4ca9-a32a-1e85f085fc22","system_id":"levelo_inurba_marseille","lat":43.337444,"lon":5.374475,"is_reserved":false,"is_disabled":false,"rental_uris":{"android":"levelo://app?vid=258ab053-1083-4ca9-a32a-1e85f085fc22","ios":"levelo://app?vid=258ab053-1083-4ca9-a32a-1e85f085fc22"},"vehicle_type_id":"4","last_reported":1759083154,"current_range_meters":11600,"station_id":"","pricing_plan_id":"cebpf4jnsgd1na2vs0mg"},{"bike_id":"454e363a-ae22-4379-b9c1-b61cbf2024fa","system_id":"levelo_inurba_marseille","lat":43.29195,"lon":5.39316,"is_reserved":false,"is_disabled":false,"rental_uris":{"android":"levelo://app?vid=454e363a-ae22-4379-b9c1-b61cbf2024fa","ios":"levelo://app?vid=454e363a-ae22-4379-b9c1-b61cbf2024fa"},"vehicle_type_id":"4","last_reported":1759083154,"current_range_meters":12000,"station_id":"ce4bh192rcd13ifvqdd0","pricing_plan_id":"cebpf4jnsgd1na2vs0mg"},{"bike_id":"a5f5cd42-f952-4a88-bdba-8d395386b77b","system_id":"levelo_inurba_marseille","lat":43.31752,"lon":5.39026,"is_reserved":false,"is_disabled":false,"rental_uris":{"android":"levelo://app?vid=a5f5cd42-f952-4a88-bdba-8d395386b77b","ios":"levelo://app?vid=a5f5cd42-f952-4a88-bdba-8d395386b77b"},"vehicle_type_id":"4","last_reported":1759083154,"current_range_meters":12000,"station_id":"ce4bhqp2rcd13ifvqhng","pricing_plan_id":"cebpf4jnsgd1na2vs0mg"},{"bike_id":"83bacdaa-72b6-4f6c-bddd-a7ce01145202","system_id":"levelo_inurba_marseille","lat":43.313316,"lon":5.396936,"is_reserved":false,"is_disabled":false,"rental_uris":{"android":"levelo://app?vid=83bacdaa-72b6-4f6c-bddd-a7ce01145202","ios":"levelo://app?vid=83bacdaa-72b6-4f6c-bddd-a7ce01145202"},"vehicle_type_id":"4","last_reported":1759083154,"current_range_meters":12000,"station_id":"ce4bgvp2rcd13ifvqcu0","pricing_plan_id":"cebpf4jnsgd1na2vs0mg"},{"bike_id":"360c0746-c854-4629-884f-7c911de53d9d","system_id":"levelo_inurba_marseille","lat":43.33032,"lon":5.39572,"is_reserved":false,"is_disabled":true,"rental_uris":{"android":"levelo://app?vid=360c0746-c854-4629-884f-7c911de53d9d","ios":"levelo://app?vid=360c0746-c854-4629-884f-7c911de53d9d"},"vehicle_type_id":"4","last_reported":1759083154,"current_range_meters":12000,"station_id":"","pricing_plan_id":"cebpf4jnsgd1na2vs0mg"},{"bike_id":"bad41c0e-74a1-4d2d-8c68-3fb7b27cbba2","system_id":"levelo_inurba_marseille","lat":43.30877,"lon":5.39659,"is_reserved":false,"is_disabled":false,"rental_uris":{"android":"levelo://app?vid=bad41c0e-74a1-4d2d-8c68-3fb7b27cbba2","ios":"levelo://app?vid=bad41c0e-74a1-4d2d-8c68-3fb7b27cbba2"},"vehicle_type_id":"4","last_reported":1759083154,"current_range_meters":12000,"station_id":"ce4bh012rcd13ifvqcv0","pricing_plan_id":"cebpf4jnsgd1na2vs0mg"},{"bike_id":"e3fe1c25-77d6-4c99-a172-35c670f24da9","system_id":"levelo_inurba_marseille","lat":43.286112,"lon":5.351136,"is_reserved":false,"is_disabled":true,"rental_uris":{"android":"levelo://app?vid=e3fe1c25-77d6-4c99-a172-35c670f24da9","ios":"levelo://app?vid=e3fe1c25-77d6-4c99-a172-35c670f24da9"},"vehicle_type_id":"4","last_reported":1759083154,"current_range_meters":12000,"station_id":"ce4bhch2rcd13ifvqeug","pricing_plan_id":"cebpf4jnsgd1na2vs0mg"},{"bike_id":"f12c1c9a-5ec0-4d16-b161-288c3eaaa062","system_id":"levelo_inurba_marseille","lat":43.25337,"lon":5.42182,"is_reserved":false,"is_disabled":false,"rental_uris":{"android":"levelo://app?vid=f12c1c9a-5ec0-4d16-b161-288c3eaaa062","ios":"levelo://app?vid=f12c1c9a-5ec0-4d16-b161-288c3eaaa062"},"vehicle_type_id":"4","last_reported":1759083154,"current_range_meters":12000,"station_id":"st_d2m65c5bi1j21697t3ng","pricing_plan_id":"cebpf4jnsgd1na2vs0mg"},{"bike_id":"fb899b27-a87e-4a87-8342-ec667c7e2abe","system_id":"levelo_inurba_marseille","lat":43.31218,"lon":5.36861,"is_reserved":false,"is_disabled":false,"rental_uris":{"android":"levelo://app?vid=fb899b27-a87e-4a87-8342-ec667c7e2abe","ios":"levelo://app?vid=fb899b27-a87e-4a87-8342-ec667c7e2abe"},"vehicle_type_id":"4","last_reported":1759083154,"current_range_meters":12000,"station_id":"ce4bgl92rcd13ifvqbq0","pricing_plan_id":"cebpf4jnsgd1na2vs0mg"},{"bike_id":"2c6518be-b3f0-42d2-93c9-c1de9e54885f","system_id":"levelo_inurba_marseille","lat":43.29227,"lon":5.38219,"is_reserved":false,"is_disabled":false,"rental_uris":{"android":"levelo://app?vid=2c6518be-b3f0-42d2-93c9-c1de9e54885f","ios":"levelo://app?vid=2c6518be-b3f0-42d2-93c9-c1de9e54885f"},"vehicle_type_id":"4","last_reported":1759083154,"current_range_meters":12400,"station_id":"","pricing_plan_id":"cebpf4jnsgd1na2vs0mg"},{"bike_id":"d58ddcbe-70d7-4259-abad-73cc43b8b8b9","system_id":"levelo_inurba_marseille","lat":43.2305,"lon":5.35505,"is_reserved":false,"is_disabled":true,"rental_uris":{"android":"levelo://app?vid=d58ddcbe-70d7-4259-abad-73cc43b8b8b9","ios":"levelo://app?vid=d58ddcbe-70d7-4259-abad-73cc43b8b8b9"},"vehicle_type_id":"4","last_reported":1759083154,"current_range_meters":12400,"station_id":"cpo3342slgdg3j2ifvpg","pricing_plan_id":"cebpf4jnsgd1na2vs0mg"},{"bike_id":"5fe7f407-3191-4d84-bcf8-5bce6d58e56d","system_id":"levelo_inurba_marseille","lat":43.22934,"lon":5.35383,"is_reserved":false,"is_disabled":false,"rental_uris":{"android":"levelo://app?vid=5fe7f407-3191-4d84-bcf8-5bce6d58e56d","ios":"levelo://app?vid=5fe7f407-3191-4d84-bcf8-5bce6d58e56d"},"vehicle_type_id":"4","last_reported":1759083154,"current_range_meters":12400,"station_id":"cpo3532slgdg3j2ikp40","pricing_plan_id":"cebpf4jnsgd1na2vs0mg"},{"bike_id":"1dad2113-89e2-44fc-a0b6-ddd6a09baff1","system_id":"levelo_inurba_marseille","lat":43.337444,"lon":5.374475,"is_reserved":false,"is_disabled":false,"rental_uris":{"android":"levelo://app?vid=1dad2113-89e2-44fc-a0b6-ddd6a09baff1","ios":"levelo://app?vid=1dad2113-89e2-44fc-a0b6-ddd6a09baff1"},"vehicle_type_id":"4","last_reported":1759083154,"current_range_meters":12400,"station_id":"","pricing_plan_id":"cebpf4jnsgd1na2vs0mg"},{"bike_id":"3cb1dae7-6bcd-41e5-b1b7-c1d25c751a99","system_id":"levelo_inurba_marseille","lat":43.337635,"lon":5.374385,"is_reserved":false,"is_disabled":false,"rental_uris":{"android":"levelo://app?vid=3cb1dae7-6bcd-41e5-b1b7-c1d25c751a99","ios":"levelo://app?vid=3cb1dae7-6bcd-41e5-b1b7-c1d25c751a99"},"vehicle_type_id":"4","last_reported":1759083154,"current_range_meters":12800,"station_id":"","pricing_plan_id":"cebpf4jnsgd1na2vs0mg"},{"bike_id":"0c38051c-a803-44c4-90a1-151a4109583c","system_id":"levelo_inurba_marseille","lat":43.28671,"lon":5.3866,"is_reserved":false,"is_disabled":true,"rental_uris":{"android":"levelo://app?vid=0c38051c-a803-44c4-90a1-151a4109583c","ios":"levelo://app?vid=0c38051c-a803-44c4-90a1-151a4109583c"},"vehicle_type_id":"4","last_reported":1759083154,"current_range_meters":12800,"station_id":"ce4bh492rcd13ifvqdug","pricing_plan_id":"cebpf4jnsgd1na2vs0mg"},{"bike_id":"946fa785-ee55-4fe8-a3f0-8dc88b65a494","system_id":"levelo_inurba_marseille","lat":43.30959,"lon":5.39031,"is_reserved":false,"is_disabled":false,"rental_uris":{"android":"levelo://app?vid=946fa785-ee55-4fe8-a3f0-8dc88b65a494","ios":"levelo://app?vid=946fa785-ee55-4fe8-a3f0-8dc88b65a494"},"vehicle_type_id":"4","last_reported":1759083154,"current_range_meters":12800,"station_id":"ce4bgup2rcd13ifvqco0","pricing_plan_id":"cebpf4jnsgd1na2vs0mg"},{"bike_id":"ecf30250-2485-493a-a887-94e05fa088f6","system_id":"levelo_inurba_marseille","lat":43.29235,"lon":5.38439,"is_reserved":false,"is_disabled":false,"rental_uris":{"android":"levelo://app?vid=ecf30250-2485-493a-a887-94e05fa088f6","ios":"levelo://app?vid=ecf30250-2485-493a-a887-94e05fa088f6"},"vehicle_type_id":"4","last_reported":1759083154,"current_range_meters":12800,"station_id":"ce4bh692rcd13ifvqea0","pricing_plan_id":"cebpf4jnsgd1na2vs0mg"},{"bike_id":"9eb3bd48-084f-44c7-bfe6-2d0a572c83eb","system_id":"levelo_inurba_marseille","lat":43.29699,"lon":5.37711,"is_reserved":false,"is_disabled":false,"rental_uris":{"android":"levelo://app?vid=9eb3bd48-084f-44c7-bfe6-2d0a572c83eb","ios":"levelo://app?vid=9eb3bd48-084f-44c7-bfe6-2d0a572c83eb"},"vehicle_type_id":"4","last_reported":1759083154,"current_range_meters":12800,"station_id":"ce4bgkh2rcd13ifvqbl0","pricing_plan_id":"cebpf4jnsgd1na2vs0mg"},{"bike_id":"7b913da8-182e-4b62-aca6-3c2071eeb3c6","system_id":"levelo_inurba_marseille","lat":43.28002,"lon":5.40016,"is_reserved":false,"is_disabled":false,"rental_uris":{"android":"levelo://app?vid=7b913da8-182e-4b62-aca6-3c2071eeb3c6","ios":"levelo://app?vid=7b913da8-182e-4b62-aca6-3c2071eeb3c6"},"vehicle_type_id":"4","last_reported":1759083154,"current_range_meters":12800,"station_id":"","pricing_plan_id":"cebpf4jnsgd1na2vs0mg"},{"bike_id":"6f0c1749-517c-4897-91c9-50c589e202de","system_id":"levelo_inurba_marseille","lat":43.34125,"lon":5.40938,"is_reserved":false,"is_disabled":true,"rental_uris":{"android":"levelo://app?vid=6f0c1749-517c-4897-91c9-50c589e202de","ios":"levelo://app?vid=6f0c1749-517c-4897-91c9-50c589e202de"},"vehicle_type_id":"4","last_reported":1759083154,"current_range_meters":13600,"station_id":"ce4bhqh2rcd13ifvqhlg","pricing_plan_id":"cebpf4jnsgd1na2vs0mg"},{"bike_id":"e6d3f37e-5920-4b56-b57d-4669761a6a23","system_id":"levelo_inurba_marseille","lat":43.31256,"lon":5.36832,"is_reserved":false,"is_disabled":false,"rental_uris":{"android":"levelo://app?vid=e6d3f37e-5920-4b56-b57d-4669761a6a23","ios":"levelo://app?vid=e6d3f37e-5920-4b56-b57d-4669761a6a23"},"vehicle_type_id":"4","last_reported":1759083154,"current_range_meters":13600,"station_id":"ce4bgl92rcd13ifvqbq0","pricing_plan_id":"cebpf4jnsgd1na2vs0mg"},{"bike_id":"20c1c77a-f4d0-45da-bf37-9dfdc8268d18","system_id":"levelo_inurba_marseille","lat":43.31994,"lon":5.38147,"is_reserved":false,"is_disabled":false,"rental_uris":{"android":"levelo://app?vid=20c1c77a-f4d0-45da-bf37-9dfdc8268d18","ios":"levelo://app?vid=20c1c77a-f4d0-45da-bf37-9dfdc8268d18"},"vehicle_type_id":"4","last_reported":1759083154,"current_range_meters":13600,"station_id":"ce4bhr12rcd13ifvqhpg","pricing_plan_id":"cebpf4jnsgd1na2vs0mg"},{"bike_id":"151d75a0-434c-41d6-a3a8-42bc6a9a604c","system_id":"levelo_inurba_marseille","lat":43.31757,"lon":5.39017,"is_reserved":false,"is_disabled":false,"rental_uris":{"android":"levelo://app?vid=151d75a0-434c-41d6-a3a8-42bc6a9a604c","ios":"levelo://app?vid=151d75a0-434c-41d6-a3a8-42bc6a9a604c"},"vehicle_type_id":"4","last_reported":1759083154,"current_range_meters":13600,"station_id":"ce4bgt92rcd13ifvqcf0","pricing_plan_id":"cebpf4jnsgd1na2vs0mg"},{"bike_id":"c2473dcb-5740-4598-b86b-b3d6d5a4f714","system_id":"levelo_inurba_marseille","lat":43.29259,"lon":5.38431,"is_reserved":false,"is_disabled":false,"rental_uris":{"android":"levelo://app?vid=c2473dcb-5740-4598-b86b-b3d6d5a4f714","ios":"levelo://app?vid=c2473dcb-5740-4598-b86b-b3d6d5a4f714"},"vehicle_type_id":"4","last_reported":1759083154,"current_range_meters":13600,"station_id":"ce4bh692rcd13ifvqea0","pricing_plan_id":"cebpf4jnsgd1na2vs0mg"},{"bike_id":"8202e759-98e1-4f32-a245-de230fde53cb","system_id":"levelo_inurba_marseille","lat":43.3127,"lon":5.40164,"is_reserved":false,"is_disabled":false,"rental_uris":{"android":"levelo://app?vid=8202e759-98e1-4f32-a245-de230fde53cb","ios":"levelo://app?vid=8202e759-98e1-4f32-a245-de230fde53cb"},"vehicle_type_id":"4","last_reported":1759083154,"current_range_meters":13600,"station_id":"ce4bh092rcd13ifvqd30","pricing_plan_id":"cebpf4jnsgd1na2vs0mg"},{"bike_id":"f274ce6f-a8b6-4cea-a302-6a201179c8ec","system_id":"levelo_inurba_marseille","lat":43.31356,"lon":5.38494,"is_reserved":false,"is_disabled":false,"rental_uris":{"android":"levelo://app?vid=f274ce6f-a8b6-4cea-a302-6a201179c8ec","ios":"levelo://app?vid=f274ce6f-a8b6-4cea-a302-6a201179c8ec"},"vehicle_type_id":"4","last_reported":1759083154,"current_range_meters":13600,"station_id":"ce4bgt92rcd13ifvqcf0","pricing_plan_id":"cebpf4jnsgd1na2vs0mg"},{"bike_id":"d7d09523-34bb-44d2-9695-02f0abea9b47","system_id":"levelo_inurba_marseille","lat":43.29756,"lon":5.37899,"is_reserved":false,"is_disabled":false,"rental_uris":{"android":"levelo://app?vid=d7d09523-34bb-44d2-9695-02f0abea9b47","ios":"levelo://app?vid=d7d09523-34bb-44d2-9695-02f0abea9b47"},"vehicle_type_id":"4","last_reported":1759083154,"current_range_meters":13600,"station_id":"","pricing_plan_id":"cebpf4jnsgd1na2vs0mg"},{"bike_id":"d2f0492b-7344-4f12-85e2-2b978a9d8a9a","system_id":"levelo_inurba_marseille","lat":43.29608,"lon":5.38106,"is_reserved":false,"is_disabled":false,"rental_uris":{"android":"levelo://app?vid=d2f0492b-7344-4f12-85e2-2b978a9d8a9a","ios":"levelo://app?vid=d2f0492b-7344-4f12-85e2-2b978a9d8a9a"},"vehicle_type_id":"4","last_reported":1759083154,"current_range_meters":13600,"station_id":"ce4bgl12rcd13ifvqbo0","pricing_plan_id":"cebpf4jnsgd1na2vs0mg"},{"bike_id":"0ba74de0-ecf2-426c-a16f-6ff84f030f1a","system_id":"levelo_inurba_marseille","lat":43.29026,"lon":5.38133,"is_reserved":false,"is_disabled":false,"rental_uris":{"android":"levelo://app?vid=0ba74de0-ecf2-426c-a16f-6ff84f030f1a","ios":"levelo://app?vid=0ba74de0-ecf2-426c-a16f-6ff84f030f1a"},"vehicle_type_id":"4","last_reported":1759083154,"current_range_meters":13600,"station_id":"ce4bh4p2rcd13ifvqe1g","pricing_plan_id":"cebpf4jnsgd1na2vs0mg"},{"bike_id":"ff9ff1d7-5004-4d34-bbd2-b82c7d5fcf76","system_id":"levelo_inurba_marseille","lat":43.31174,"lon":5.38727,"is_reserved":false,"is_disabled":false,"rental_uris":{"android":"levelo://app?vid=ff9ff1d7-5004-4d34-bbd2-b82c7d5fcf76","ios":"levelo://app?vid=ff9ff1d7-5004-4d34-bbd2-b82c7d5fcf76"},"vehicle_type_id":"4","last_reported":1759083154,"current_range_meters":13600,"station_id":"ce4bgv12rcd13ifvqcp0","pricing_plan_id":"cebpf4jnsgd1na2vs0mg"},{"bike_id":"e75ab1c2-a188-4af8-aced-b2f2818627d5","system_id":"levelo_inurba_marseille","lat":43.30604,"lon":5.37226,"is_reserved":false,"is_disabled":false,"rental_uris":{"android":"levelo://app?vid=e75ab1c2-a188-4af8-aced-b2f2818627d5","ios":"levelo://app?vid=e75ab1c2-a188-4af8-aced-b2f2818627d5"},"vehicle_type_id":"4","last_reported":1759083154,"current_range_meters":14000,"station_id":"ce4bgqh2rcd13ifvqc4g","pricing_plan_id":"cebpf4jnsgd1na2vs0mg"},{"bike_id":"cd9e9499-c199-4468-abbc-9f693726556f","system_id":"levelo_inurba_marseille","lat":43.29039,"lon":5.37577,"is_reserved":false,"is_disabled":false,"rental_uris":{"android":"levelo://app?vid=cd9e9499-c199-4468-abbc-9f693726556f","ios":"levelo://app?vid=cd9e9499-c199-4468-abbc-9f693726556f"},"vehicle_type_id":"4","last_reported":1759083154,"current_range_meters":14000,"station_id":"ce4bh692rcd13ifvqe90","pricing_plan_id":"cebpf4jnsgd1na2vs0mg"},{"bike_id":"01e260f5-828c-4df2-9bc4-ca80e799f979","system_id":"levelo_inurba_marseille","lat":43.24163,"lon":5.36403,"is_reserved":false,"is_disabled":true,"rental_uris":{"android":"levelo://app?vid=01e260f5-828c-4df2-9bc4-ca80e799f979","ios":"levelo://app?vid=01e260f5-828c-4df2-9bc4-ca80e799f979"},"vehicle_type_id":"4","last_reported":1759083154,"current_range_meters":14000,"station_id":"cpo36qri1sfpv3e86is0","pricing_plan_id":"cebpf4jnsgd1na2vs0mg"},{"bike_id":"e7a07ee7-ff27-4e97-adec-6f7b9b9085bf","system_id":"levelo_inurba_marseille","lat":43.28862,"lon":5.42514,"is_reserved":false,"is_disabled":false,"rental_uris":{"android":"levelo://app?vid=e7a07ee7-ff27-4e97-adec-6f7b9b9085bf","ios":"levelo://app?vid=e7a07ee7-ff27-4e97-adec-6f7b9b9085bf"},"vehicle_type_id":"4","last_reported":1759083154,"current_range_meters":14000,"station_id":"st_d3b462108ojc7389ooeg","pricing_plan_id":"cebpf4jnsgd1na2vs0mg"},{"bike_id":"d1607a37-7a06-451d-93aa-af4983210155","system_id":"levelo_inurba_marseille","lat":43.312224,"lon":5.368932,"is_reserved":false,"is_disabled":false,"rental_uris":{"android":"levelo://app?vid=d1607a37-7a06-451d-93aa-af4983210155","ios":"levelo://app?vid=d1607a37-7a06-451d-93aa-af4983210155"},"vehicle_type_id":"4","last_reported":1759083154,"current_range_meters":14000,"station_id":"ce4bgl92rcd13ifvqbq0","pricing_plan_id":"cebpf4jnsgd1na2vs0mg"},{"bike_id":"35e8f722-b82a-4247-beb8-7e2827829ce6","system_id":"levelo_inurba_marseille","lat":43.32405,"lon":5.3911,"is_reserved":false,"is_disabled":false,"rental_uris":{"android":"levelo://app?vid=35e8f722-b82a-4247-beb8-7e2827829ce6","ios":"levelo://app?vid=35e8f722-b82a-4247-beb8-7e2827829ce6"},"vehicle_type_id":"4","last_reported":1759083154,"current_range_meters":14000,"station_id":"","pricing_plan_id":"cebpf4jnsgd1na2vs0mg"},{"bike_id":"44b535c9-00ca-487f-931d-94d87046c9f4","system_id":"levelo_inurba_marseille","lat":43.29168,"lon":5.37162,"is_reserved":false,"is_disabled":false,"rental_uris":{"android":"levelo://app?vid=44b535c9-00ca-487f-931d-94d87046c9f4","ios":"levelo://app?vid=44b535c9-00ca-487f-931d-94d87046c9f4"},"vehicle_type_id":"4","last_reported":1759083154,"current_range_meters":14000,"station_id":"ce4bha92rcd13ifvqeh0","pricing_plan_id":"cebpf4jnsgd1na2vs0mg"},{"bike_id":"e5cca1d3-7b83-4815-adc1-45ead40eb28d","system_id":"levelo_inurba_marseille","lat":43.321042,"lon":5.367643,"is_reserved":false,"is_disabled":false,"rental_uris":{"android":"levelo://app?vid=e5cca1d3-7b83-4815-adc1-45ead40eb28d","ios":"levelo://app?vid=e5cca1d3-7b83-4815-adc1-45ead40eb28d"},"vehicle_type_id":"4","last_reported":1759083154,"current_range_meters":14000,"station_id":"ce4bhrh2rcd13ifvqhug","pricing_plan_id":"cebpf4jnsgd1na2vs0mg"},{"bike_id":"fa276765-6ca9-42c4-89d6-c17d31ae16b8","system_id":"levelo_inurba_marseille","lat":43.31267,"lon":5.40171,"is_reserved":false,"is_disabled":false,"rental_uris":{"android":"levelo://app?vid=fa276765-6ca9-42c4-89d6-c17d31ae16b8","ios":"levelo://app?vid=fa276765-6ca9-42c4-89d6-c17d31ae16b8"},"vehicle_type_id":"4","last_reported":1759083154,"current_range_meters":14000,"station_id":"ce4bh092rcd13ifvqd30","pricing_plan_id":"cebpf4jnsgd1na2vs0mg"},{"bike_id":"e5378695-fba9-432a-9cfb-3b5b05e40fec","system_id":"levelo_inurba_marseille","lat":43.337986,"lon":5.374304,"is_reserved":false,"is_disabled":false,"rental_uris":{"android":"levelo://app?vid=e5378695-fba9-432a-9cfb-3b5b05e40fec","ios":"levelo://app?vid=e5378695-fba9-432a-9cfb-3b5b05e40fec"},"vehicle_type_id":"4","last_reported":1759083154,"current_range_meters":14000,"station_id":"","pricing_plan_id":"cebpf4jnsgd1na2vs0mg"},{"bike_id":"71aa8af7-13e3-4ae0-880f-83454f4b38f3","system_id":"levelo_inurba_marseille","lat":43.28917,"lon":5.38425,"is_reserved":false,"is_disabled":false,"rental_uris":{"android":"levelo://app?vid=71aa8af7-13e3-4ae0-880f-83454f4b38f3","ios":"levelo://app?vid=71aa8af7-13e3-4ae0-880f-83454f4b38f3"},"vehicle_type_id":"4","last_reported":1759083154,"current_range_meters":14400,"station_id":"ce4bh612rcd13ifvqe6g","pricing_plan_id":"cebpf4jnsgd1na2vs0mg"},{"bike_id":"aef170f6-3306-46fe-9dab-25f26114ab13","system_id":"levelo_inurba_marseille","lat":43.32366,"lon":5.36793,"is_reserved":false,"is_disabled":false,"rental_uris":{"android":"levelo://app?vid=aef170f6-3306-46fe-9dab-25f26114ab13","ios":"levelo://app?vid=aef170f6-3306-46fe-9dab-25f26114ab13"},"vehicle_type_id":"4","last_reported":1759083154,"current_range_meters":14400,"station_id":"ce4bhsh2rcd13ifvqi2g","pricing_plan_id":"cebpf4jnsgd1na2vs0mg"},{"bike_id":"a2945c10-3c8e-4216-bc0b-2583959f6d4c","system_id":"levelo_inurba_marseille","lat":43.299737,"lon":5.384821,"is_reserved":false,"is_disabled":false,"rental_uris":{"android":"levelo://app?vid=a2945c10-3c8e-4216-bc0b-2583959f6d4c","ios":"levelo://app?vid=a2945c10-3c8e-4216-bc0b-2583959f6d4c"},"vehicle_type_id":"4","last_reported":1759083154,"current_range_meters":14400,"station_id":"ce4bgj92rcd13ifvqbd0","pricing_plan_id":"cebpf4jnsgd1na2vs0mg"},{"bike_id":"4822dd99-56ec-44f6-a9b9-ee0ae5dcc1bf","system_id":"levelo_inurba_marseille","lat":43.30009,"lon":5.39994,"is_reserved":false,"is_disabled":false,"rental_uris":{"android":"levelo://app?vid=4822dd99-56ec-44f6-a9b9-ee0ae5dcc1bf","ios":"levelo://app?vid=4822dd99-56ec-44f6-a9b9-ee0ae5dcc1bf"},"vehicle_type_id":"4","last_reported":1759083154,"current_range_meters":14400,"station_id":"ce4bh0h2rcd13ifvqd40","pricing_plan_id":"cebpf4jnsgd1na2vs0mg"},{"bike_id":"02fb4eb6-9203-431e-bd5c-fe9dd3847cf2","system_id":"levelo_inurba_marseille","lat":43.240614,"lon":5.365042,"is_reserved":false,"is_disabled":false,"rental_uris":{"android":"levelo://app?vid=02fb4eb6-9203-431e-bd5c-fe9dd3847cf2","ios":"levelo://app?vid=02fb4eb6-9203-431e-bd5c-fe9dd3847cf2"},"vehicle_type_id":"4","last_reported":1759083154,"current_range_meters":14400,"station_id":"cpo36qri1sfpv3e86is0","pricing_plan_id":"cebpf4jnsgd1na2vs0mg"},{"bike_id":"0656741e-4baa-4804-921b-3ed5233045aa","system_id":"levelo_inurba_marseille","lat":43.2462,"lon":5.43153,"is_reserved":false,"is_disabled":false,"rental_uris":{"android":"levelo://app?vid=0656741e-4baa-4804-921b-3ed5233045aa","ios":"levelo://app?vid=0656741e-4baa-4804-921b-3ed5233045aa"},"vehicle_type_id":"4","last_reported":1759083154,"current_range_meters":14400,"station_id":"st_d2m6c4gdas8pm72e190g","pricing_plan_id":"cebpf4jnsgd1na2vs0mg"},{"bike_id":"452181b3-da35-4f9f-9eb4-10bffda73c95","system_id":"levelo_inurba_marseille","lat":43.29265,"lon":5.38438,"is_reserved":false,"is_disabled":false,"rental_uris":{"android":"levelo://app?vid=452181b3-da35-4f9f-9eb4-10bffda73c95","ios":"levelo://app?vid=452181b3-da35-4f9f-9eb4-10bffda73c95"},"vehicle_type_id":"4","last_reported":1759083154,"current_range_meters":14400,"station_id":"ce4bh692rcd13ifvqea0","pricing_plan_id":"cebpf4jnsgd1na2vs0mg"},{"bike_id":"588358e8-0a3f-44e5-b3f7-c6d2e82ad809","system_id":"levelo_inurba_marseille","lat":43.29034,"lon":5.38655,"is_reserved":false,"is_disabled":false,"rental_uris":{"android":"levelo://app?vid=588358e8-0a3f-44e5-b3f7-c6d2e82ad809","ios":"levelo://app?vid=588358e8-0a3f-44e5-b3f7-c6d2e82ad809"},"vehicle_type_id":"4","last_reported":1759083154,"current_range_meters":14400,"station_id":"ce4bh4p2rcd13ifvqe0g","pricing_plan_id":"cebpf4jnsgd1na2vs0mg"},{"bike_id":"327c041e-5c9e-4b0d-a97c-a2dbaab036ae","system_id":"levelo_inurba_marseille","lat":43.32813,"lon":5.4113,"is_reserved":false,"is_disabled":false,"rental_uris":{"android":"levelo://app?vid=327c041e-5c9e-4b0d-a97c-a2dbaab036ae","ios":"levelo://app?vid=327c041e-5c9e-4b0d-a97c-a2dbaab036ae"},"vehicle_type_id":"4","last_reported":1759083154,"current_range_meters":14800,"station_id":"","pricing_plan_id":"cebpf4jnsgd1na2vs0mg"},{"bike_id":"89e61d54-e5fc-4c18-8af5-34e07be267d8","system_id":"levelo_inurba_marseille","lat":43.310666,"lon":5.383462,"is_reserved":false,"is_disabled":false,"rental_uris":{"android":"levelo://app?vid=89e61d54-e5fc-4c18-8af5-34e07be267d8","ios":"levelo://app?vid=89e61d54-e5fc-4c18-8af5-34e07be267d8"},"vehicle_type_id":"4","last_reported":1759083154,"current_range_meters":14800,"station_id":"ce4bgv92rcd13ifvqcr0","pricing_plan_id":"cebpf4jnsgd1na2vs0mg"},{"bike_id":"677a0b1c-d5ca-4154-a464-cd0c0a8279d2","system_id":"levelo_inurba_marseille","lat":43.28994,"lon":5.35602,"is_reserved":false,"is_disabled":true,"rental_uris":{"android":"levelo://app?vid=677a0b1c-d5ca-4154-a464-cd0c0a8279d2","ios":"levelo://app?vid=677a0b1c-d5ca-4154-a464-cd0c0a8279d2"},"vehicle_type_id":"4","last_reported":1759083154,"current_range_meters":14800,"station_id":"ce4bhb92rcd13ifvqen0","pricing_plan_id":"cebpf4jnsgd1na2vs0mg"},{"bike_id":"e0e9194b-710d-4981-ad65-ba5929d7512b","system_id":"levelo_inurba_marseille","lat":43.306022,"lon":5.384559,"is_reserved":false,"is_disabled":false,"rental_uris":{"android":"levelo://app?vid=e0e9194b-710d-4981-ad65-ba5929d7512b","ios":"levelo://app?vid=e0e9194b-710d-4981-ad65-ba5929d7512b"},"vehicle_type_id":"4","last_reported":1759083154,"current_range_meters":14800,"station_id":"","pricing_plan_id":"cebpf4jnsgd1na2vs0mg"},{"bike_id":"3b530333-201c-4f53-a98d-ce6c8fa2e551","system_id":"levelo_inurba_marseille","lat":43.260279,"lon":5.375515,"is_reserved":false,"is_disabled":true,"rental_uris":{"android":"levelo://app?vid=3b530333-201c-4f53-a98d-ce6c8fa2e551","ios":"levelo://app?vid=3b530333-201c-4f53-a98d-ce6c8fa2e551"},"vehicle_type_id":"4","last_reported":1759083154,"current_range_meters":14800,"station_id":"ce4bhgh2rcd13ifvqfa0","pricing_plan_id":"cebpf4jnsgd1na2vs0mg"},{"bike_id":"6c85a6b9-a065-4652-822c-baa2b039a430","system_id":"levelo_inurba_marseille","lat":43.295997,"lon":5.381013,"is_reserved":false,"is_disabled":false,"rental_uris":{"android":"levelo://app?vid=6c85a6b9-a065-4652-822c-baa2b039a430","ios":"levelo://app?vid=6c85a6b9-a065-4652-822c-baa2b039a430"},"vehicle_type_id":"4","last_reported":1759083154,"current_range_meters":14800,"station_id":"ce4bgl12rcd13ifvqbo0","pricing_plan_id":"cebpf4jnsgd1na2vs0mg"},{"bike_id":"80b98ce0-3233-47ce-84db-722943723d1e","system_id":"levelo_inurba_marseille","lat":43.269329,"lon":5.38928,"is_reserved":false,"is_disabled":false,"rental_uris":{"android":"levelo://app?vid=80b98ce0-3233-47ce-84db-722943723d1e","ios":"levelo://app?vid=80b98ce0-3233-47ce-84db-722943723d1e"},"vehicle_type_id":"4","last_reported":1759083154,"current_range_meters":14800,"station_id":"","pricing_plan_id":"cebpf4jnsgd1na2vs0mg"},{"bike_id":"b21822ea-5121-4b87-90ec-afe2d9a3b5ba","system_id":"levelo_inurba_marseille","lat":43.2846,"lon":5.3588,"is_reserved":false,"is_disabled":false,"rental_uris":{"android":"levelo://app?vid=b21822ea-5121-4b87-90ec-afe2d9a3b5ba","ios":"levelo://app?vid=b21822ea-5121-4b87-90ec-afe2d9a3b5ba"},"vehicle_type_id":"4","last_reported":1759083154,"current_range_meters":14800,"station_id":"ce4bhah2rcd13ifvqei0","pricing_plan_id":"cebpf4jnsgd1na2vs0mg"},{"bike_id":"3ecab9fb-ebd1-48b2-bfce-30928b04fa5e","system_id":"levelo_inurba_marseille","lat":43.26281,"lon":5.39902,"is_reserved":false,"is_disabled":false,"rental_uris":{"android":"levelo://app?vid=3ecab9fb-ebd1-48b2-bfce-30928b04fa5e","ios":"levelo://app?vid=3ecab9fb-ebd1-48b2-bfce-30928b04fa5e"},"vehicle_type_id":"4","last_reported":1759083154,"current_range_meters":14800,"station_id":"","pricing_plan_id":"cebpf4jnsgd1na2vs0mg"},{"bike_id":"01d71389-0b80-4650-affd-c19dc5c27b50","system_id":"levelo_inurba_marseille","lat":43.23964,"lon":5.36646,"is_reserved":false,"is_disabled":true,"rental_uris":{"android":"levelo://app?vid=01d71389-0b80-4650-affd-c19dc5c27b50","ios":"levelo://app?vid=01d71389-0b80-4650-affd-c19dc5c27b50"},"vehicle_type_id":"4","last_reported":1759083154,"current_range_meters":14800,"station_id":"ce4bhi12rcd13ifvqfp0","pricing_plan_id":"cebpf4jnsgd1na2vs0mg"},{"bike_id":"9882411d-0f1b-4974-8723-8be010db2360","system_id":"levelo_inurba_marseille","lat":43.29031,"lon":5.38627,"is_reserved":false,"is_disabled":false,"rental_uris":{"android":"levelo://app?vid=9882411d-0f1b-4974-8723-8be010db2360","ios":"levelo://app?vid=9882411d-0f1b-4974-8723-8be010db2360"},"vehicle_type_id":"4","last_reported":1759083154,"current_range_meters":14800,"station_id":"ce4bh4p2rcd13ifvqe0g","pricing_plan_id":"cebpf4jnsgd1na2vs0mg"},{"bike_id":"e47fd970-83cf-46f2-a26f-308589a0f730","system_id":"levelo_inurba_marseille","lat":43.291595,"lon":5.371568,"is_reserved":false,"is_disabled":false,"rental_uris":{"android":"levelo://app?vid=e47fd970-83cf-46f2-a26f-308589a0f730","ios":"levelo://app?vid=e47fd970-83cf-46f2-a26f-308589a0f730"},"vehicle_type_id":"4","last_reported":1759083154,"current_range_meters":15200,"station_id":"ce4bha92rcd13ifvqeh0","pricing_plan_id":"cebpf4jnsgd1na2vs0mg"},{"bike_id":"a1e2b7f3-f53e-4b6a-b8f1-27b0fbf9634d","system_id":"levelo_inurba_marseille","lat":43.31875,"lon":5.37317,"is_reserved":false,"is_disabled":false,"rental_uris":{"android":"levelo://app?vid=a1e2b7f3-f53e-4b6a-b8f1-27b0fbf9634d","ios":"levelo://app?vid=a1e2b7f3-f53e-4b6a-b8f1-27b0fbf9634d"},"vehicle_type_id":"4","last_reported":1759083154,"current_range_meters":15200,"station_id":"","pricing_plan_id":"cebpf4jnsgd1na2vs0mg"},{"bike_id":"f4700d7c-c4f4-4346-88f1-31c5451190d1","system_id":"levelo_inurba_marseille","lat":43.29315,"lon":5.37164,"is_reserved":false,"is_disabled":true,"rental_uris":{"android":"levelo://app?vid=f4700d7c-c4f4-4346-88f1-31c5451190d1","ios":"levelo://app?vid=f4700d7c-c4f4-4346-88f1-31c5451190d1"},"vehicle_type_id":"4","last_reported":1759083154,"current_range_meters":14800,"station_id":"ce4bgh92rcd13ifvqb40","pricing_plan_id":"cebpf4jnsgd1na2vs0mg"},{"bike_id":"9bbaa50a-f627-4611-bf2d-f75bb31f6bc4","system_id":"levelo_inurba_marseille","lat":43.29591,"lon":5.38102,"is_reserved":false,"is_disabled":false,"rental_uris":{"android":"levelo://app?vid=9bbaa50a-f627-4611-bf2d-f75bb31f6bc4","ios":"levelo://app?vid=9bbaa50a-f627-4611-bf2d-f75bb31f6bc4"},"vehicle_type_id":"4","last_reported":1759083154,"current_range_meters":15200,"station_id":"ce4bgl12rcd13ifvqbo0","pricing_plan_id":"cebpf4jnsgd1na2vs0mg"},{"bike_id":"f060d515-f268-4371-95a2-f04eea0ad05f","system_id":"levelo_inurba_marseille","lat":43.24644,"lon":5.43152,"is_reserved":false,"is_disabled":false,"rental_uris":{"android":"levelo://app?vid=f060d515-f268-4371-95a2-f04eea0ad05f","ios":"levelo://app?vid=f060d515-f268-4371-95a2-f04eea0ad05f"},"vehicle_type_id":"4","last_reported":1759083154,"current_range_meters":15200,"station_id":"st_d2m6c4gdas8pm72e190g","pricing_plan_id":"cebpf4jnsgd1na2vs0mg"},{"bike_id":"098460e9-6b11-4f84-8036-b4cbefbd5d3c","system_id":"levelo_inurba_marseille","lat":43.25717,"lon":5.41113,"is_reserved":false,"is_disabled":false,"rental_uris":{"android":"levelo://app?vid=098460e9-6b11-4f84-8036-b4cbefbd5d3c","ios":"levelo://app?vid=098460e9-6b11-4f84-8036-b4cbefbd5d3c"},"vehicle_type_id":"4","last_reported":1759083154,"current_range_meters":15200,"station_id":"ce4bhkp2rcd13ifvqgd0","pricing_plan_id":"cebpf4jnsgd1na2vs0mg"},{"bike_id":"db54ae1e-766a-4881-94b4-a4cf26d411ba","system_id":"levelo_inurba_marseille","lat":43.29251,"lon":5.38436,"is_reserved":false,"is_disabled":true,"rental_uris":{"android":"levelo://app?vid=db54ae1e-766a-4881-94b4-a4cf26d411ba","ios":"levelo://app?vid=db54ae1e-766a-4881-94b4-a4cf26d411ba"},"vehicle_type_id":"4","last_reported":1759083154,"current_range_meters":16000,"station_id":"ce4bh692rcd13ifvqea0","pricing_plan_id":"cebpf4jnsgd1na2vs0mg"},{"bike_id":"1d65299e-cf34-435b-a60a-0ba0d66bcde6","system_id":"levelo_inurba_marseille","lat":43.284102,"lon":5.375251,"is_reserved":false,"is_disabled":true,"rental_uris":{"android":"levelo://app?vid=1d65299e-cf34-435b-a60a-0ba0d66bcde6","ios":"levelo://app?vid=1d65299e-cf34-435b-a60a-0ba0d66bcde6"},"vehicle_type_id":"4","last_reported":1759083154,"current_range_meters":16000,"station_id":"ce4bh412rcd13ifvqds0","pricing_plan_id":"cebpf4jnsgd1na2vs0mg"},{"bike_id":"73bbd8a8-62e4-4a7e-9641-f59dbff0423a","system_id":"levelo_inurba_marseille","lat":43.30193,"lon":5.39463,"is_reserved":false,"is_disabled":true,"rental_uris":{"android":"levelo://app?vid=73bbd8a8-62e4-4a7e-9641-f59dbff0423a","ios":"levelo://app?vid=73bbd8a8-62e4-4a7e-9641-f59dbff0423a"},"vehicle_type_id":"4","last_reported":1759083154,"current_range_meters":16000,"station_id":"ce4bh0p2rcd13ifvqd70","pricing_plan_id":"cebpf4jnsgd1na2vs0mg"},{"bike_id":"c8eb7660-6046-4e9c-8c85-8306cbdbfdf8","system_id":"levelo_inurba_marseille","lat":43.24629,"lon":5.43163,"is_reserved":false,"is_disabled":false,"rental_uris":{"android":"levelo://app?vid=c8eb7660-6046-4e9c-8c85-8306cbdbfdf8","ios":"levelo://app?vid=c8eb7660-6046-4e9c-8c85-8306cbdbfdf8"},"vehicle_type_id":"4","last_reported":1759083154,"current_range_meters":16000,"station_id":"st_d2m6c4gdas8pm72e190g","pricing_plan_id":"cebpf4jnsgd1na2vs0mg"},{"bike_id":"f4bc1f7f-7210-48f7-a6c2-5bb4941ac693","system_id":"levelo_inurba_marseille","lat":43.27214,"lon":5.3919,"is_reserved":false,"is_disabled":true,"rental_uris":{"android":"levelo://app?vid=f4bc1f7f-7210-48f7-a6c2-5bb4941ac693","ios":"levelo://app?vid=f4bc1f7f-7210-48f7-a6c2-5bb4941ac693"},"vehicle_type_id":"4","last_reported":1759083154,"current_range_meters":16000,"station_id":"ce4bhhp2rcd13ifvqfm0","pricing_plan_id":"cebpf4jnsgd1na2vs0mg"},{"bike_id":"89fe513c-a434-4cf8-a56c-ee0844b2f3be","system_id":"levelo_inurba_marseille","lat":43.299732,"lon":5.384756,"is_reserved":false,"is_disabled":true,"rental_uris":{"android":"levelo://app?vid=89fe513c-a434-4cf8-a56c-ee0844b2f3be","ios":"levelo://app?vid=89fe513c-a434-4cf8-a56c-ee0844b2f3be"},"vehicle_type_id":"4","last_reported":1759083154,"current_range_meters":16000,"station_id":"ce4bgj92rcd13ifvqbd0","pricing_plan_id":"cebpf4jnsgd1na2vs0mg"},{"bike_id":"9c4235da-d3d0-4056-aa6b-c6aa6e8e7367","system_id":"levelo_inurba_marseille","lat":43.30729,"lon":5.37526,"is_reserved":false,"is_disabled":false,"rental_uris":{"android":"levelo://app?vid=9c4235da-d3d0-4056-aa6b-c6aa6e8e7367","ios":"levelo://app?vid=9c4235da-d3d0-4056-aa6b-c6aa6e8e7367"},"vehicle_type_id":"4","last_reported":1759083154,"current_range_meters":16000,"station_id":"","pricing_plan_id":"cebpf4jnsgd1na2vs0mg"},{"bike_id":"42d0cdc0-3a08-470e-bb78-6e3f6e019dfc","system_id":"levelo_inurba_marseille","lat":43.28663,"lon":5.36355,"is_reserved":false,"is_disabled":false,"rental_uris":{"android":"levelo://app?vid=42d0cdc0-3a08-470e-bb78-6e3f6e019dfc","ios":"levelo://app?vid=42d0cdc0-3a08-470e-bb78-6e3f6e019dfc"},"vehicle_type_id":"4","last_reported":1759083154,"current_range_meters":15200,"station_id":"ce4bhah2rcd13ifvqej0","pricing_plan_id":"cebpf4jnsgd1na2vs0mg"},{"bike_id":"a4163082-a696-4022-8a2e-cbda8660037f","system_id":"levelo_inurba_marseille","lat":43.30194,"lon":5.39478,"is_reserved":false,"is_disabled":false,"rental_uris":{"android":"levelo://app?vid=a4163082-a696-4022-8a2e-cbda8660037f","ios":"levelo://app?vid=a4163082-a696-4022-8a2e-cbda8660037f"},"vehicle_type_id":"4","last_reported":1759083154,"current_range_meters":16400,"station_id":"ce4bh0p2rcd13ifvqd70","pricing_plan_id":"cebpf4jnsgd1na2vs0mg"},{"bike_id":"7365fcff-9cbd-452c-b93f-87dda909bd7a","system_id":"levelo_inurba_marseille","lat":43.26058,"lon":5.39402,"is_reserved":false,"is_disabled":false,"rental_uris":{"android":"levelo://app?vid=7365fcff-9cbd-452c-b93f-87dda909bd7a","ios":"levelo://app?vid=7365fcff-9cbd-452c-b93f-87dda909bd7a"},"vehicle_type_id":"4","last_reported":1759083154,"current_range_meters":16400,"station_id":"ce4bhh92rcd13ifvqfj0","pricing_plan_id":"cebpf4jnsgd1na2vs0mg"},{"bike_id":"944fcd42-fce0-4d6a-b86b-5faf9d5e9c5a","system_id":"levelo_inurba_marseille","lat":43.3046,"lon":5.37897,"is_reserved":false,"is_disabled":false,"rental_uris":{"android":"levelo://app?vid=944fcd42-fce0-4d6a-b86b-5faf9d5e9c5a","ios":"levelo://app?vid=944fcd42-fce0-4d6a-b86b-5faf9d5e9c5a"},"vehicle_type_id":"4","last_reported":1759083154,"current_range_meters":16400,"station_id":"ce4bgup2rcd13ifvqcn0","pricing_plan_id":"cebpf4jnsgd1na2vs0mg"},{"bike_id":"a632479f-10f0-4c83-97eb-f7bc38dc3f01","system_id":"levelo_inurba_marseille","lat":43.295535,"lon":5.422834,"is_reserved":false,"is_disabled":false,"rental_uris":{"android":"levelo://app?vid=a632479f-10f0-4c83-97eb-f7bc38dc3f01","ios":"levelo://app?vid=a632479f-10f0-4c83-97eb-f7bc38dc3f01"},"vehicle_type_id":"4","last_reported":1759083154,"current_range_meters":16400,"station_id":"ce4bhph2rcd13ifvqhdg","pricing_plan_id":"cebpf4jnsgd1na2vs0mg"},{"bike_id":"14c3a918-f8ec-4cab-88aa-d2e2f5e55940","system_id":"levelo_inurba_marseille","lat":43.29877,"lon":5.39732,"is_reserved":false,"is_disabled":false,"rental_uris":{"android":"levelo://app?vid=14c3a918-f8ec-4cab-88aa-d2e2f5e55940","ios":"levelo://app?vid=14c3a918-f8ec-4cab-88aa-d2e2f5e55940"},"vehicle_type_id":"4","last_reported":1759083154,"current_range_meters":16400,"station_id":"ce4bh0h2rcd13ifvqd50","pricing_plan_id":"cebpf4jnsgd1na2vs0mg"},{"bike_id":"cfbdedda-af67-4b7c-b2c4-b3493db5672d","system_id":"levelo_inurba_marseille","lat":43.29971,"lon":5.37194,"is_reserved":false,"is_disabled":false,"rental_uris":{"android":"levelo://app?vid=cfbdedda-af67-4b7c-b2c4-b3493db5672d","ios":"levelo://app?vid=cfbdedda-af67-4b7c-b2c4-b3493db5672d"},"vehicle_type_id":"4","last_reported":1759083154,"current_range_meters":16400,"station_id":"ce4bgr92rcd13ifvqc7g","pricing_plan_id":"cebpf4jnsgd1na2vs0mg"},{"bike_id":"72dfe78c-7413-46c8-9431-20c14760210e","system_id":"levelo_inurba_marseille","lat":43.25663,"lon":5.41059,"is_reserved":false,"is_disabled":false,"rental_uris":{"android":"levelo://app?vid=72dfe78c-7413-46c8-9431-20c14760210e","ios":"levelo://app?vid=72dfe78c-7413-46c8-9431-20c14760210e"},"vehicle_type_id":"4","last_reported":1759083154,"current_range_meters":16800,"station_id":"","pricing_plan_id":"cebpf4jnsgd1na2vs0mg"},{"bike_id":"91e1bde1-9b48-4214-ace0-91019f9528d8","system_id":"levelo_inurba_marseille","lat":43.31369,"lon":5.38499,"is_reserved":false,"is_disabled":false,"rental_uris":{"android":"levelo://app?vid=91e1bde1-9b48-4214-ace0-91019f9528d8","ios":"levelo://app?vid=91e1bde1-9b48-4214-ace0-91019f9528d8"},"vehicle_type_id":"4","last_reported":1759083154,"current_range_meters":16800,"station_id":"ce4bgt92rcd13ifvqcf0","pricing_plan_id":"cebpf4jnsgd1na2vs0mg"},{"bike_id":"e48eb6de-f069-4709-924c-08384c1f854e","system_id":"levelo_inurba_marseille","lat":43.283549,"lon":5.381043,"is_reserved":false,"is_disabled":false,"rental_uris":{"android":"levelo://app?vid=e48eb6de-f069-4709-924c-08384c1f854e","ios":"levelo://app?vid=e48eb6de-f069-4709-924c-08384c1f854e"},"vehicle_type_id":"4","last_reported":1759083154,"current_range_meters":16800,"station_id":"ce4bh412rcd13ifvqdr0","pricing_plan_id":"cebpf4jnsgd1na2vs0mg"},{"bike_id":"8c986307-df22-41f8-9c2d-42ccabc665aa","system_id":"levelo_inurba_marseille","lat":43.30196,"lon":5.36623,"is_reserved":false,"is_disabled":false,"rental_uris":{"android":"levelo://app?vid=8c986307-df22-41f8-9c2d-42ccabc665aa","ios":"levelo://app?vid=8c986307-df22-41f8-9c2d-42ccabc665aa"},"vehicle_type_id":"4","last_reported":1759083154,"current_range_meters":16800,"station_id":"ce4bgrh2rcd13ifvqc8g","pricing_plan_id":"cebpf4jnsgd1na2vs0mg"},{"bike_id":"07eb8636-0dba-43e3-8992-0e2a3cbec166","system_id":"levelo_inurba_marseille","lat":43.27564,"lon":5.38423,"is_reserved":false,"is_disabled":false,"rental_uris":{"android":"levelo://app?vid=07eb8636-0dba-43e3-8992-0e2a3cbec166","ios":"levelo://app?vid=07eb8636-0dba-43e3-8992-0e2a3cbec166"},"vehicle_type_id":"4","last_reported":1759083154,"current_range_meters":16800,"station_id":"ce4bhh92rcd13ifvqfi0","pricing_plan_id":"cebpf4jnsgd1na2vs0mg"},{"bike_id":"876569c1-3c48-44d5-944b-d269a39dae22","system_id":"levelo_inurba_marseille","lat":43.310852,"lon":5.387667,"is_reserved":false,"is_disabled":false,"rental_uris":{"android":"levelo://app?vid=876569c1-3c48-44d5-944b-d269a39dae22","ios":"levelo://app?vid=876569c1-3c48-44d5-944b-d269a39dae22"},"vehicle_type_id":"4","last_reported":1759083154,"current_range_meters":16800,"station_id":"ce4bgv12rcd13ifvqcp0","pricing_plan_id":"cebpf4jnsgd1na2vs0mg"},{"bike_id":"c8d7f4fe-be5b-447b-ba1b-2244460fc221","system_id":"levelo_inurba_marseille","lat":43.24657,"lon":5.38919,"is_reserved":false,"is_disabled":false,"rental_uris":{"android":"levelo://app?vid=c8d7f4fe-be5b-447b-ba1b-2244460fc221","ios":"levelo://app?vid=c8d7f4fe-be5b-447b-ba1b-2244460fc221"},"vehicle_type_id":"4","last_reported":1759083154,"current_range_meters":16800,"station_id":"ce4bhg12rcd13ifvqf60","pricing_plan_id":"cebpf4jnsgd1na2vs0mg"},{"bike_id":"a07a513e-e5a9-4481-8592-d991379bc662","system_id":"levelo_inurba_marseille","lat":43.33735,"lon":5.37481,"is_reserved":false,"is_disabled":false,"rental_uris":{"android":"levelo://app?vid=a07a513e-e5a9-4481-8592-d991379bc662","ios":"levelo://app?vid=a07a513e-e5a9-4481-8592-d991379bc662"},"vehicle_type_id":"4","last_reported":1759083154,"current_range_meters":16800,"station_id":"","pricing_plan_id":"cebpf4jnsgd1na2vs0mg"},{"bike_id":"71b2b05c-9ff1-4d57-a8f6-d481051c9a72","system_id":"levelo_inurba_marseille","lat":43.295372,"lon":5.385419,"is_reserved":false,"is_disabled":true,"rental_uris":{"android":"levelo://app?vid=71b2b05c-9ff1-4d57-a8f6-d481051c9a72","ios":"levelo://app?vid=71b2b05c-9ff1-4d57-a8f6-d481051c9a72"},"vehicle_type_id":"4","last_reported":1759083154,"current_range_meters":17200,"station_id":"ce4bgih2rcd13ifvqba0","pricing_plan_id":"cebpf4jnsgd1na2vs0mg"},{"bike_id":"5184bf5b-3cc8-4111-8b99-b9c4fcc9d2b3","system_id":"levelo_inurba_marseille","lat":43.241689,"lon":5.397314,"is_reserved":false,"is_disabled":false,"rental_uris":{"android":"levelo://app?vid=5184bf5b-3cc8-4111-8b99-b9c4fcc9d2b3","ios":"levelo://app?vid=5184bf5b-3cc8-4111-8b99-b9c4fcc9d2b3"},"vehicle_type_id":"4","last_reported":1759083154,"current_range_meters":17200,"station_id":"ce4bhn12rcd13ifvqgpg","pricing_plan_id":"cebpf4jnsgd1na2vs0mg"},{"bike_id":"7dc10ae7-7366-4aef-afb3-946c513f88ef","system_id":"levelo_inurba_marseille","lat":43.28,"lon":5.36404,"is_reserved":false,"is_disabled":false,"rental_uris":{"android":"levelo://app?vid=7dc10ae7-7366-4aef-afb3-946c513f88ef","ios":"levelo://app?vid=7dc10ae7-7366-4aef-afb3-946c513f88ef"},"vehicle_type_id":"4","last_reported":1759083154,"current_range_meters":17200,"station_id":"ce4bha12rcd13ifvqef0","pricing_plan_id":"cebpf4jnsgd1na2vs0mg"},{"bike_id":"91ba376c-1a65-4fc0-ab01-070b716f0ff5","system_id":"levelo_inurba_marseille","lat":43.25567,"lon":5.38234,"is_reserved":false,"is_disabled":false,"rental_uris":{"android":"levelo://app?vid=91ba376c-1a65-4fc0-ab01-070b716f0ff5","ios":"levelo://app?vid=91ba376c-1a65-4fc0-ab01-070b716f0ff5"},"vehicle_type_id":"4","last_reported":1759083154,"current_range_meters":17200,"station_id":"ce4bhih2rcd13ifvqfs0","pricing_plan_id":"cebpf4jnsgd1na2vs0mg"},{"bike_id":"96d753a3-f35e-4904-b1bb-0ffbe41cce59","system_id":"levelo_inurba_marseille","lat":43.29038,"lon":5.38646,"is_reserved":false,"is_disabled":false,"rental_uris":{"android":"levelo://app?vid=96d753a3-f35e-4904-b1bb-0ffbe41cce59","ios":"levelo://app?vid=96d753a3-f35e-4904-b1bb-0ffbe41cce59"},"vehicle_type_id":"4","last_reported":1759083154,"current_range_meters":17200,"station_id":"ce4bh4p2rcd13ifvqe0g","pricing_plan_id":"cebpf4jnsgd1na2vs0mg"},{"bike_id":"ce041d4d-f52d-4808-a0f8-279b7505a667","system_id":"levelo_inurba_marseille","lat":43.31116,"lon":5.37759,"is_reserved":false,"is_disabled":false,"rental_uris":{"android":"levelo://app?vid=ce041d4d-f52d-4808-a0f8-279b7505a667","ios":"levelo://app?vid=ce041d4d-f52d-4808-a0f8-279b7505a667"},"vehicle_type_id":"4","last_reported":1759083154,"current_range_meters":17200,"station_id":"ce4bgt92rcd13ifvqcg0","pricing_plan_id":"cebpf4jnsgd1na2vs0mg"},{"bike_id":"796aa64a-f5b9-41bd-b541-6d953118b802","system_id":"levelo_inurba_marseille","lat":43.23153,"lon":5.43714,"is_reserved":false,"is_disabled":false,"rental_uris":{"android":"levelo://app?vid=796aa64a-f5b9-41bd-b541-6d953118b802","ios":"levelo://app?vid=796aa64a-f5b9-41bd-b541-6d953118b802"},"vehicle_type_id":"4","last_reported":1759083154,"current_range_meters":17200,"station_id":"ce4bhmp2rcd13ifvqgog","pricing_plan_id":"cebpf4jnsgd1na2vs0mg"},{"bike_id":"88bab79e-f428-48c7-9fe8-35fa768316c1","system_id":"levelo_inurba_marseille","lat":43.32385,"lon":5.38203,"is_reserved":false,"is_disabled":false,"rental_uris":{"android":"levelo://app?vid=88bab79e-f428-48c7-9fe8-35fa768316c1","ios":"levelo://app?vid=88bab79e-f428-48c7-9fe8-35fa768316c1"},"vehicle_type_id":"4","last_reported":1759083154,"current_range_meters":17200,"station_id":"","pricing_plan_id":"cebpf4jnsgd1na2vs0mg"},{"bike_id":"9e50a7a8-3461-435f-a364-2bec8eda7805","system_id":"levelo_inurba_marseille","lat":43.2918,"lon":5.39322,"is_reserved":false,"is_disabled":false,"rental_uris":{"android":"levelo://app?vid=9e50a7a8-3461-435f-a364-2bec8eda7805","ios":"levelo://app?vid=9e50a7a8-3461-435f-a364-2bec8eda7805"},"vehicle_type_id":"4","last_reported":1759083154,"current_range_meters":17200,"station_id":"ce4bh192rcd13ifvqdd0","pricing_plan_id":"cebpf4jnsgd1na2vs0mg"},{"bike_id":"8ffac578-131d-4171-941b-d073a175c44c","system_id":"levelo_inurba_marseille","lat":43.26214,"lon":5.37435,"is_reserved":false,"is_disabled":true,"rental_uris":{"android":"levelo://app?vid=8ffac578-131d-4171-941b-d073a175c44c","ios":"levelo://app?vid=8ffac578-131d-4171-941b-d073a175c44c"},"vehicle_type_id":"4","last_reported":1759083154,"current_range_meters":17200,"station_id":"ce4bhgp2rcd13ifvqfc0","pricing_plan_id":"cebpf4jnsgd1na2vs0mg"},{"bike_id":"c627b34a-8e81-4438-af3b-4fd0aab1c160","system_id":"levelo_inurba_marseille","lat":43.29654,"lon":5.35998,"is_reserved":false,"is_disabled":false,"rental_uris":{"android":"levelo://app?vid=c627b34a-8e81-4438-af3b-4fd0aab1c160","ios":"levelo://app?vid=c627b34a-8e81-4438-af3b-4fd0aab1c160"},"vehicle_type_id":"4","last_reported":1759083154,"current_range_meters":17200,"station_id":"","pricing_plan_id":"cebpf4jnsgd1na2vs0mg"},{"bike_id":"a63906d9-70e3-4694-a19f-f783d775e9bb","system_id":"levelo_inurba_marseille","lat":43.312812,"lon":5.373937,"is_reserved":false,"is_disabled":false,"rental_uris":{"android":"levelo://app?vid=a63906d9-70e3-4694-a19f-f783d775e9bb","ios":"levelo://app?vid=a63906d9-70e3-4694-a19f-f783d775e9bb"},"vehicle_type_id":"4","last_reported":1759083154,"current_range_meters":17200,"station_id":"","pricing_plan_id":"cebpf4jnsgd1na2vs0mg"},{"bike_id":"6b8ad72d-40f6-49ab-8056-7db334e18c6c","system_id":"levelo_inurba_marseille","lat":43.29923,"lon":5.37469,"is_reserved":false,"is_disabled":false,"rental_uris":{"android":"levelo://app?vid=6b8ad72d-40f6-49ab-8056-7db334e18c6c","ios":"levelo://app?vid=6b8ad72d-40f6-49ab-8056-7db334e18c6c"},"vehicle_type_id":"4","last_reported":1759083154,"current_range_meters":17200,"station_id":"ce4bgjh2rcd13ifvqbg0","pricing_plan_id":"cebpf4jnsgd1na2vs0mg"},{"bike_id":"8b353c9e-13c5-42ee-a76f-ccbd6269a3dc","system_id":"levelo_inurba_marseille","lat":43.29899,"lon":5.37492,"is_reserved":false,"is_disabled":false,"rental_uris":{"android":"levelo://app?vid=8b353c9e-13c5-42ee-a76f-ccbd6269a3dc","ios":"levelo://app?vid=8b353c9e-13c5-42ee-a76f-ccbd6269a3dc"},